~Version Information
 VERS.                  2.0:   CWLS log ASCII Standard -VERSION 2.0
 WRAP.                   NO:   One line per depth step
~Well Information Block
#MNEM.UNIT     VALUE/NAME     DESCRIPTION
#---------     -----------    ---------------------------
 STRT.S             03:10:10 03-Feb-20: START TIME 03:10:10 03-Feb-20
 STOP.S             03:17:58 03-Feb-20: STOP TIME  03:17:58 03-Feb-20
 STEP.S                   0.00: STEP TIME
 NULL.                 -999.25: NULL VALUE
 DFWT.                        :  DIST FWL TEXT
 DFST.                        :  DIST FSL TEXT
 DMF .             Drill Floor:  DRILL MEAS FROM
 STIM.      09.30.00 26-Dec-19:  START TIME
 DATE.      08.00.00 20-Jan-20:  END TIME
 SPUD.               23-Nov-19:  SPUD DATE
 NREF.                    Grid:  NORTH REFERENCE
 HPTY.       Minimum Curvature:  HOLE POS TYPE
 DMOD.             Drill Model:  DRILL MOD DESC
 SVYD.                  Survey:  SURVEY DESC
 ILTD.               Lithology:  INTERP LTH DESC
 FTOP.          Formation Tops:  FORM TOPS DESC
 SON .        AZ-XX-0906192647:  JOB NUMBER
 WTYP.                Deviated:  WELL TYPE
 COMP.     BP Exploration (Caspian Sea) Ltd:  COMPANY
 BASE.              Azerbaijan:  LOGGING EQUIPMENT BASE LOCATION
 REGN.                 Eurasia:  REGION
 FLD .                     ACG:  FIELD NAME
 SRVC.              KCA Deutag:  CONTRACTOR
 MWDS.                    Baku:  MWD SHOP
 WELL.     A10 (Slot 20) - SCP:  WELL NAME
 JOBN.        AZ-XX-0906192647:  JOB TICKET NUMB
 RIG .                 Chirag1:  RIG NAME
 DCON.     Halliburton Sperry Drilling:  DIRECTNL CONTR
 UNIT.                     N/A:  LOGGING EQUIPMENT ID
 PDAT.          Mean Sea Level:  PERMANENT DATUM
 MDS .        Operator Entered:  MAG DATA SOURCE
 CTRY.              Azerbaijan:  COUNTRY NAME
 UWI .            /AZE00000090:  UNIQUE WELL IDENTIFIER
 API .            /AZE00000090:  API NUMBER
 CNTY.                        :  COUNTY
 PROV.                        :  PROVINCE
 STAT.                        :  STATE
 LOC .                        :  LOCATION
 LMF .             Drill Floor:  LOG MEASURED FROM
 TVDS.m                  36.60:  TVDSS CORRECTN
 LATI.deg                40.08:  LATITUDE
 LONG.deg                51.24:  LONGITUDE
 WHNS.m                  -7.94:  WELL HEAD N/S
 WHEW.m                   1.56:  WELL HEAD E/W
 UTMX.m              520429.26:  UTM X
 UTMY.m             4438973.87:  UTM Y
 DFWL.m                   0.00:  DISTANCE FWL
 DFSL.m                   0.00:  DISTANCE FSL
 SDEP.m                1455.00:  START DEPTH
 TDD .m                4047.51:  TOTAL DEPTH (DRILLER)
 VSDR.deg               112.75:  VERT SEC DIRECT
 GVFD.g                   1.00:  GRAVITY FIELD
 MFLD.nT              50261.00:  MAGNETIC FIELD
 MDIP.deg                59.52:  MAGNETIC DIP
 MDEC.deg                 6.42:  MAGNETIC DECL
 GRDC.deg                 0.17:  GRID CORRECTION
 AZTC.deg                 6.25:  AZM TOTAL CORR
 EPD .m                   0.00:  ELEVATION
 EGL .m                   0.00:  GROUND ELEVATION
 WDMS.m                 121.00:  WD ELEV
 APD .m                  36.60:  DEPTH ABOVE PD
 AGAP.m                  36.60:  AIR GAP
 VSEW.m                   1.56:  VERT SEC E/W
 VSNS.m                  -7.94:  VERT SEC N/S
 DEP .m                1140.01:  DEPTH
 EKB .m                  36.60:  KB ELEVATION
 EDF .m                  36.60:  DF ELEVATION
 VSC .                       0:  VS TO CLOSURE
 MAGU.                 1849206:  MAGUTM CHECKSUM
~Parameter Information Block
#MNEM.UNIT       Value        Description
#---------     -----------    ---------------------------
 AV  .mps                 1.70:  Ann Velocity 
 AVMX.mps                 2.30:  Max Ann Veloc 
 AZIF.deg               137.03:  Azm, Final 
 BHAT.                   Other:  BHA Type 
 BROT.°/30m               0.80:  Build Rotating 
 BS  .in                  8.00:  Bit Size 
 BTPL.psig              161.00:  Bit Press Loss 
 CABU.                      No:  Customer Abuse 
 TCS .hr                  9.59:  Time Ciculation Ended 
 CV  .mps                 3.76:  Crit Velocity 
 CVMX.mps                 4.26:  Max Crit Veloc 
 DD1 .         Intigam Rahimov:  Direct Drillr 1 
 DD2 .          Rashad Gojayev:  Direct Drillr 2 
 DDSV.                   Other:  DD Service 
 DEFF.%                 100.00:  % Det Eff 
 DLRX.°/30m               1.44:  Dogleg Rot Max 
 DLSO.°/30m               0.00:  Dogleg Oriented 
 DLSX.°/30m               0.00:  Dogleg Str Max 
 DRET.      03.31.12 02-Feb-20:  Drill End Time 
 DRST.      03.31.12 02-Feb-20:  Drill Start Tim 
 DTIM.hr                  1.99:  Time Drilling 
 EDEP.m                4047.51:  End Depth 
 ENG1.           Eldar Hajiyev:  Engineer 1 
 ENG2.          Rasim Hashimov:  Engineer 2 
 ENG3.          Rustam Safarov:  Engineer 3 
 ETIM.      03.31.12 02-Feb-20:  End Time 
 FLOI.gpm               300.00:  Flow In 
 FLON.gpm               250.00:  Flow In Min 
 FLOS.cptm                0.00:  Fluid Loss 
 FLOX.gpm               330.00:  Flow In Max 
 HFLO.                      No:  High Flow 
 HPRE.                      No:  High Pressure 
 HTEM.                      No:  High Temp 
 HYDO.m                   2.50:  Hydro Offset 
 IFIN.deg                39.54:  Inc, Final 
 IMAX.deg                41.14:  Inc Max 
 IMIN.deg                39.81:  Inc Min 
 IMND.m                4005.21:  Inc Min Depth 
 IMXD.m                3948.42:  Inc Max Depth 
 JARR.                      No:  Jarring 
 LETM.      03.31.12 02-Feb-20:  Log End Time 
 LOST.hr                     0:  Lost Rig Time 
 LSTM.      03.31.12 02-Feb-20:  Log Start Time 
 MDCL.ppm             35000.00:  Mud Chlorides 
 MDES.     Inversion Oil/Synthetic:  Mud Desc 
 DFD .sg                  1.32:  Mud Density 
 MDMN.sg                  1.32:  Dens Mud Min 
 MDMX.sg                  1.32:  Dens Mud Max 
 MOIL.                      59:  Run Mud Oil % 
 MOWR.                   71:29:  Run Mud OWR 
 MSND.                       0:  Run Mud Sand % 
 MSOL.                      17:  Run Mud Solids% 
 DFV .spqt               86.00:  Mud Viscosity 
 MWOD.in                  4.75:  MWD Tool OD 
 MWSI.                      No:  Serv Intrp, MWD 
 OTIM.hr                 46.72:  Time Operating 
 PCON.           Look Like New:  Pad Condition 
 PMAX.psia             3300.00:  Press Op, Max 
 PV  .cP                 30.00:  Mud PV 
 RUN .                     400:  Run Number 
 ROPA.m/hr               35.00:  ROP Avg 
 ROPN.m/hr               25.00:  ROP Min 
 ROPX.m/hr               40.00:  ROP Max 
 RPMA.rpm                80.00:  RPM Surface Avg 
 RPMN.rpm                60.00:  RPM Surface Min 
 RPMX.rpm               100.00:  RPM Surface Max 
 RRUN.                     400:  Rig Run Number 
 RTIM.hr                  1.99:  Time Reaming 
 SAZI.deg               133.93:  Azm, Start 
 SDEP.m                4047.51:  Start Depth 
 SIDD.                      No:  Serv Intrp, DD 
 SINC.deg                40.28:  Inc, Start 
 SPPA.psig             3250.00:  SPP Avg 
 SPPN.psig             3200.00:  SPP Min 
 SPPX.psig             3300.00:  SPP Max 
 STIM.      03.31.12 02-Feb-20:  Start Time 
 SVCS.                 DD, MWD:  Services 
 SVER.                    9.20:  Sperry Version 
 TDAT.m                  47.00:  Tot Depth Attmp 
 TDDF.                      No:  Trip for DD 
 TFF .                      No:  Trip for Fail 
 TQAA.f-kp                0.00:  Torque Abs Avg 
 TQAN.f-kp                0.00:  Torque Abs Min 
 TQAX.f-kp                0.00:  Torque Abs Max 
 TRRT.°/30m               0.70:  Turn Rotating 
 MRT .                    HCIM:  Maximum Recorded Temperature 
 TTMX.degC               70.59:  Max Tool Temp 
 VS01.             90598770F11:  Virtual Str1 SN 
 VS02.             90598769F11:  Virtual Str2 SN 
 VS03.            90515978Z1W1:  Virtual Str3 SN 
 VS04.          90584144R12X14:  Virtual Str4 SN 
 WBMN.klb                 0.00:  WOB Min 
 WITN.            Peter Wilson:  Customer Rep 
 WOBA.klb                 0.00:  WOB Avg 
 WOBX.klb                 0.00:  WOB Max 
 YP  .lhf2               29.00:  Yield Point 
~Curve Information Block
#MNEM.UNIT                 API CODE     Curve Description
#---------               -----------    ---------------------------
 TIME.HHMMSS            00 000 000 000:  GT Time & Date
 GTDEPTH.m              00 000 000 000:  GT Depth
 GTPQH.psia             00 000 000 000:  GT HR Quartz Pressure
 GTTQ.degC              00 000 000 000:  GT Quartz Temperature
 GTTN.NONE              00 000 000 000:  GT Test Number
 GTET.sec               00 000 000 000:  GT Elapsed Test Time
 GTTVD.m                00 000 000 000:  GT True Vertical Depth
#Other Information
#
#WARRANTY: Halliburton will use its best efforts to furnish customers with 
#accurate information and interpretations that are part of, and incident to, the services 
#provided.  However, Halliburton cannot and does not warrant the accuracy 
#or correctness of such information and interpretations.  Under no circumstances should any 
#such information or interpretation be relied upon as the sole basis for any drilling, 
#completion, production, or financial decision or any procedure involving any risk to the 
#safety of any drilling venture, drilling rig or its crew or any other third party.  The 
#Customer has full responsibility for all drilling, completion and production operation.  
#Halliburton makes no representations or warranties, either expressed or 
#implied, including, but not limited to, the implied warranties of merchantability or fitness 
#for a particular purpose, with respect to the services rendered.  In no event will 
#Halliburton be liable for failure to obtain any particular results or for 
#any damages, including, but not limited to, indirect, special or consequential damages, 
#resulting from the use of any information or interpretation provided by Halliburton.
#
~A           TIME           GTDEPTH  GTPQH  GTTQ  GTTN  GTET   GTTVD  
   03:10:10.024.03-Feb-2020 4017.01 6083.22 63.29 2.00   0.00 3025.96
   03:10:10.224.03-Feb-2020 4017.01 6083.22 63.29 2.00   0.20 3025.96
   03:10:10.424.03-Feb-2020 4017.01 6077.87 63.29 2.00   0.40 3025.96
   03:10:10.624.03-Feb-2020 4017.01 6078.51 63.29 2.00   0.60 3025.96
   03:10:10.824.03-Feb-2020 4017.01 6080.14 63.29 2.00   0.80 3025.96
   03:10:11.024.03-Feb-2020 4017.01 6078.33 63.28 2.00   1.00 3025.96
   03:10:11.224.03-Feb-2020 4017.01 6078.33 63.28 2.00   1.20 3025.96
   03:10:11.424.03-Feb-2020 4017.01 6076.91 63.28 2.00   1.40 3025.96
   03:10:11.624.03-Feb-2020 4017.01 6064.11 63.28 2.00   1.60 3025.96
   03:10:11.824.03-Feb-2020 4017.01 6079.78 63.28 2.00   1.80 3025.96
   03:10:12.024.03-Feb-2020 4017.01 6071.74 63.28 2.00   2.00 3025.96
   03:10:12.224.03-Feb-2020 4017.01 6071.74 63.28 2.00   2.20 3025.96
   03:10:12.424.03-Feb-2020 4017.01 6075.23 63.28 2.00   2.40 3025.96
   03:10:12.624.03-Feb-2020 4017.01 6076.40 63.28 2.00   2.60 3025.96
   03:10:12.824.03-Feb-2020 4017.01 6075.35 63.28 2.00   2.80 3025.96
   03:10:13.024.03-Feb-2020 4017.01 6076.87 63.28 2.00   3.00 3025.96
   03:10:13.224.03-Feb-2020 4017.01 6076.87 63.28 2.00   3.20 3025.96
   03:10:13.424.03-Feb-2020 4017.01 6079.10 63.28 2.00   3.40 3025.96
   03:10:13.624.03-Feb-2020 4017.01 6080.47 63.28 2.00   3.60 3025.96
   03:10:13.824.03-Feb-2020 4017.01 6080.05 63.28 2.00   3.80 3025.96
   03:10:14.024.03-Feb-2020 4017.01 6079.99 63.28 2.00   4.00 3025.96
   03:10:14.224.03-Feb-2020 4017.01 6079.99 63.28 2.00   4.20 3025.96
   03:10:14.424.03-Feb-2020 4017.01 6079.52 63.28 2.00   4.40 3025.96
   03:10:14.624.03-Feb-2020 4017.01 6082.46 63.28 2.00   4.60 3025.96
   03:10:14.825.03-Feb-2020 4017.01 6078.46 63.28 2.00   4.80 3025.96
   03:10:15.025.03-Feb-2020 4017.01 6082.47 63.28 2.00   5.00 3025.96
   03:10:15.225.03-Feb-2020 4017.01 6082.47 63.28 2.00   5.20 3025.96
   03:10:15.425.03-Feb-2020 4017.01 6083.61 63.28 2.00   5.40 3025.96
   03:10:15.625.03-Feb-2020 4017.01 6081.19 63.28 2.00   5.60 3025.96
   03:10:15.825.03-Feb-2020 4017.01 6082.35 63.28 2.00   5.80 3025.96
   03:10:16.025.03-Feb-2020 4017.01 6082.79 63.28 2.00   6.00 3025.96
   03:10:16.225.03-Feb-2020 4017.01 6082.79 63.28 2.00   6.20 3025.96
   03:10:16.425.03-Feb-2020 4017.01 6081.17 63.28 2.00   6.40 3025.96
   03:10:16.625.03-Feb-2020 4017.01 6080.65 63.27 2.00   6.60 3025.96
   03:10:16.825.03-Feb-2020 4017.01 6079.08 63.27 2.00   6.80 3025.96
   03:10:17.025.03-Feb-2020 4017.01 6078.39 63.27 2.00   7.00 3025.96
   03:10:17.225.03-Feb-2020 4017.01 6078.39 63.27 2.00   7.20 3025.96
   03:10:17.425.03-Feb-2020 4017.01 6078.39 63.27 2.00   7.40 3025.96
   03:10:17.625.03-Feb-2020 4017.01 6077.53 63.27 2.00   7.60 3025.96
   03:10:17.825.03-Feb-2020 4017.01 6078.69 63.27 2.00   7.80 3025.96
   03:10:18.025.03-Feb-2020 4017.01 6078.72 63.27 2.00   8.00 3025.96
   03:10:18.225.03-Feb-2020 4017.01 6078.72 63.27 2.00   8.20 3025.96
   03:10:18.425.03-Feb-2020 4017.01 6078.97 63.27 2.00   8.40 3025.96
   03:10:18.625.03-Feb-2020 4017.01 6078.09 63.27 2.00   8.60 3025.96
   03:10:18.825.03-Feb-2020 4017.01 6071.84 63.27 2.00   8.80 3025.96
   03:10:19.025.03-Feb-2020 4017.01 6078.23 63.27 2.00   9.00 3025.96
   03:10:19.225.03-Feb-2020 4017.01 6078.23 63.27 2.00   9.20 3025.96
   03:10:19.425.03-Feb-2020 4017.01 6079.72 63.27 2.00   9.40 3025.96
   03:10:19.626.03-Feb-2020 4017.01 6074.73 63.27 2.00   9.60 3025.96
   03:10:19.826.03-Feb-2020 4017.01 6076.90 63.27 2.00   9.80 3025.96
   03:10:20.026.03-Feb-2020 4017.01 6076.70 63.27 2.00  10.00 3025.96
   03:10:20.226.03-Feb-2020 4017.01 6076.70 63.27 2.00  10.20 3025.96
   03:10:20.426.03-Feb-2020 4017.01 6076.16 63.27 2.00  10.40 3025.96
   03:10:20.626.03-Feb-2020 4017.01 6080.06 63.27 2.00  10.60 3025.96
   03:10:20.826.03-Feb-2020 4017.01 6077.39 63.27 2.00  10.80 3025.96
   03:10:21.026.03-Feb-2020 4017.01 6082.23 63.27 2.00  11.00 3025.96
   03:10:21.226.03-Feb-2020 4017.01 6082.23 63.27 2.00  11.20 3025.96
   03:10:21.426.03-Feb-2020 4017.01 6073.15 63.27 2.00  11.40 3025.96
   03:10:21.626.03-Feb-2020 4017.01 6079.57 63.27 2.00  11.60 3025.96
   03:10:21.826.03-Feb-2020 4017.01 6081.83 63.27 2.00  11.80 3025.96
   03:10:22.026.03-Feb-2020 4017.01 6083.64 63.27 2.00  12.00 3025.96
   03:10:22.226.03-Feb-2020 4017.01 6083.64 63.27 2.00  12.20 3025.96
   03:10:22.426.03-Feb-2020 4017.01 6077.19 63.27 2.00  12.40 3025.96
   03:10:22.626.03-Feb-2020 4017.01 6080.12 63.26 2.00  12.60 3025.96
   03:10:22.826.03-Feb-2020 4017.01 6079.01 63.26 2.00  12.80 3025.96
   03:10:23.026.03-Feb-2020 4017.01 6083.75 63.26 2.00  13.00 3025.96
   03:10:23.226.03-Feb-2020 4017.01 6083.75 63.26 2.00  13.20 3025.96
   03:10:23.426.03-Feb-2020 4017.01 6084.73 63.26 2.00  13.40 3025.96
   03:10:23.626.03-Feb-2020 4017.01 6085.70 63.26 2.00  13.60 3025.96
   03:10:23.826.03-Feb-2020 4017.01 6084.36 63.26 2.00  13.80 3025.96
   03:10:24.026.03-Feb-2020 4017.01 6083.39 63.26 2.00  14.00 3025.96
   03:10:24.226.03-Feb-2020 4017.01 6083.39 63.26 2.00  14.20 3025.96
   03:10:24.427.03-Feb-2020 4017.01 6084.73 63.26 2.00  14.40 3025.96
   03:10:24.627.03-Feb-2020 4017.01 6084.67 63.26 2.00  14.60 3025.96
   03:10:24.827.03-Feb-2020 4017.01 6083.96 63.26 2.00  14.80 3025.96
   03:10:25.027.03-Feb-2020 4017.01 6082.96 63.26 2.00  15.00 3025.96
   03:10:25.227.03-Feb-2020 4017.01 6082.96 63.26 2.00  15.20 3025.96
   03:10:25.427.03-Feb-2020 4017.01 6148.23 63.26 2.00  15.40 3025.96
   03:10:25.627.03-Feb-2020 4017.01 6206.35 63.26 2.00  15.60 3025.96
   03:10:25.827.03-Feb-2020 4017.01 6226.88 63.26 2.00  15.80 3025.96
   03:10:26.027.03-Feb-2020 4017.01 6259.87 63.26 2.00  16.00 3025.96
   03:10:26.227.03-Feb-2020 4017.01 6259.87 63.26 2.00  16.20 3025.96
   03:10:26.427.03-Feb-2020 4017.01 6276.34 63.26 2.00  16.40 3025.96
   03:10:26.627.03-Feb-2020 4017.01 6311.32 63.26 2.00  16.60 3025.96
   03:10:26.827.03-Feb-2020 4017.01 6308.08 63.26 2.00  16.80 3025.96
   03:10:27.027.03-Feb-2020 4017.01 6319.19 63.26 2.00  17.00 3025.96
   03:10:27.227.03-Feb-2020 4017.01 6319.19 63.26 2.00  17.20 3025.96
   03:10:27.427.03-Feb-2020 4017.01 6473.45 63.26 2.00  17.40 3025.96
   03:10:27.627.03-Feb-2020 4017.01 6691.69 63.26 2.00  17.60 3025.96
   03:10:27.827.03-Feb-2020 4017.01 6889.08 63.26 2.00  17.80 3025.96
   03:10:28.027.03-Feb-2020 4017.01 6943.16 63.26 2.00  18.00 3025.96
   03:10:28.227.03-Feb-2020 4017.01 6943.16 63.26 2.00  18.20 3025.96
   03:10:28.427.03-Feb-2020 4017.01 6968.51 63.26 2.00  18.40 3025.96
   03:10:28.627.03-Feb-2020 4017.01 7000.08 63.26 2.00  18.60 3025.96
   03:10:28.827.03-Feb-2020 4017.01 6880.78 63.25 2.00  18.80 3025.96
   03:10:29.028.03-Feb-2020 4017.01 6793.61 63.25 2.00  19.00 3025.96
   03:10:29.228.03-Feb-2020 4017.01 6793.61 63.25 2.00  19.20 3025.96
   03:10:29.428.03-Feb-2020 4017.01 7009.90 63.25 2.00  19.40 3025.96
   03:10:29.628.03-Feb-2020 4017.01 6823.22 63.25 2.00  19.60 3025.96
   03:10:29.828.03-Feb-2020 4017.01 6776.66 63.25 2.00  19.80 3025.96
   03:10:30.028.03-Feb-2020 4017.01 6807.02 63.25 2.00  20.00 3025.96
   03:10:30.228.03-Feb-2020 4017.01 6807.02 63.25 2.00  20.20 3025.96
   03:10:30.428.03-Feb-2020 4017.01 6914.31 63.25 2.00  20.40 3025.96
   03:10:30.628.03-Feb-2020 4017.01 6942.98 63.25 2.00  20.60 3025.96
   03:10:30.828.03-Feb-2020 4017.01 6964.73 63.25 2.00  20.80 3025.96
   03:10:31.028.03-Feb-2020 4017.01 6982.41 63.25 2.00  21.00 3025.96
   03:10:31.228.03-Feb-2020 4017.01 6982.41 63.25 2.00  21.20 3025.96
   03:10:31.428.03-Feb-2020 4017.01 6992.61 63.25 2.00  21.40 3025.96
   03:10:31.628.03-Feb-2020 4017.01 6999.07 63.25 2.00  21.60 3025.96
   03:10:31.828.03-Feb-2020 4017.01 7004.61 63.25 2.00  21.80 3025.96
   03:10:32.028.03-Feb-2020 4017.01 7008.27 63.25 2.00  22.00 3025.96
   03:10:32.228.03-Feb-2020 4017.01 7008.27 63.25 2.00  22.20 3025.96
   03:10:32.428.03-Feb-2020 4017.01 7010.87 63.25 2.00  22.40 3025.96
   03:10:32.628.03-Feb-2020 4017.01 7013.26 63.25 2.00  22.60 3025.96
   03:10:32.828.03-Feb-2020 4017.01 7015.44 63.25 2.00  22.80 3025.96
