~Version Information
 VERS.                  2.0:   CWLS log ASCII Standard -VERSION 2.0
 WRAP.                   NO:   One line per depth step
~Well Information Block
#MNEM.UNIT     VALUE/NAME     DESCRIPTION
#---------     -----------    ---------------------------
 STRT.S             08:33:17 03-Feb-20: START TIME 08:33:17 03-Feb-20
 STOP.S             08:41:10 03-Feb-20: STOP TIME  08:41:10 03-Feb-20
 STEP.S                   0.00: STEP TIME
 NULL.                 -999.25: NULL VALUE
 DFWT.                        :  DIST FWL TEXT
 DFST.                        :  DIST FSL TEXT
 DMF .             Drill Floor:  DRILL MEAS FROM
 STIM.      09.30.00 26-Dec-19:  START TIME
 DATE.      08.00.00 20-Jan-20:  END TIME
 SPUD.               23-Nov-19:  SPUD DATE
 NREF.                    Grid:  NORTH REFERENCE
 HPTY.       Minimum Curvature:  HOLE POS TYPE
 DMOD.             Drill Model:  DRILL MOD DESC
 SVYD.                  Survey:  SURVEY DESC
 ILTD.               Lithology:  INTERP LTH DESC
 FTOP.          Formation Tops:  FORM TOPS DESC
 SON .        AZ-XX-0906192647:  JOB NUMBER
 WTYP.                Deviated:  WELL TYPE
 COMP.     BP Exploration (Caspian Sea) Ltd:  COMPANY
 BASE.              Azerbaijan:  LOGGING EQUIPMENT BASE LOCATION
 REGN.                 Eurasia:  REGION
 FLD .                     ACG:  FIELD NAME
 SRVC.              KCA Deutag:  CONTRACTOR
 MWDS.                    Baku:  MWD SHOP
 WELL.     A10 (Slot 20) - SCP:  WELL NAME
 JOBN.        AZ-XX-0906192647:  JOB TICKET NUMB
 RIG .                 Chirag1:  RIG NAME
 DCON.     Halliburton Sperry Drilling:  DIRECTNL CONTR
 UNIT.                     N/A:  LOGGING EQUIPMENT ID
 PDAT.          Mean Sea Level:  PERMANENT DATUM
 MDS .        Operator Entered:  MAG DATA SOURCE
 CTRY.              Azerbaijan:  COUNTRY NAME
 UWI .            /AZE00000090:  UNIQUE WELL IDENTIFIER
 API .            /AZE00000090:  API NUMBER
 CNTY.                        :  COUNTY
 PROV.                        :  PROVINCE
 STAT.                        :  STATE
 LOC .                        :  LOCATION
 LMF .             Drill Floor:  LOG MEASURED FROM
 TVDS.m                  36.60:  TVDSS CORRECTN
 LATI.deg                40.08:  LATITUDE
 LONG.deg                51.24:  LONGITUDE
 WHNS.m                  -7.94:  WELL HEAD N/S
 WHEW.m                   1.56:  WELL HEAD E/W
 UTMX.m              520429.26:  UTM X
 UTMY.m             4438973.87:  UTM Y
 DFWL.m                   0.00:  DISTANCE FWL
 DFSL.m                   0.00:  DISTANCE FSL
 SDEP.m                1455.00:  START DEPTH
 TDD .m                4047.51:  TOTAL DEPTH (DRILLER)
 VSDR.deg               112.75:  VERT SEC DIRECT
 GVFD.g                   1.00:  GRAVITY FIELD
 MFLD.nT              50261.00:  MAGNETIC FIELD
 MDIP.deg                59.52:  MAGNETIC DIP
 MDEC.deg                 6.42:  MAGNETIC DECL
 GRDC.deg                 0.17:  GRID CORRECTION
 AZTC.deg                 6.25:  AZM TOTAL CORR
 EPD .m                   0.00:  ELEVATION
 EGL .m                   0.00:  GROUND ELEVATION
 WDMS.m                 121.00:  WD ELEV
 APD .m                  36.60:  DEPTH ABOVE PD
 AGAP.m                  36.60:  AIR GAP
 VSEW.m                   1.56:  VERT SEC E/W
 VSNS.m                  -7.94:  VERT SEC N/S
 DEP .m                1140.01:  DEPTH
 EKB .m                  36.60:  KB ELEVATION
 EDF .m                  36.60:  DF ELEVATION
 VSC .                       0:  VS TO CLOSURE
 MAGU.                 1849206:  MAGUTM CHECKSUM
~Parameter Information Block
#MNEM.UNIT       Value        Description
#---------     -----------    ---------------------------
 AV  .mps                 1.70:  Ann Velocity 
 AVMX.mps                 2.30:  Max Ann Veloc 
 AZIF.deg               137.03:  Azm, Final 
 BHAT.                   Other:  BHA Type 
 BROT.°/30m               0.80:  Build Rotating 
 BS  .in                  8.00:  Bit Size 
 BTPL.psig              161.00:  Bit Press Loss 
 CABU.                      No:  Customer Abuse 
 COMM.                     äör:  Run Comments 1 
 TCS .hr                  9.59:  Time Ciculation Ended 
 CV  .mps                 3.76:  Crit Velocity 
 CVMX.mps                 4.26:  Max Crit Veloc 
 DD1 .         Intigam Rahimov:  Direct Drillr 1 
 DD2 .          Rashad Gojayev:  Direct Drillr 2 
 DDSV.                   Other:  DD Service 
 DEFF.%                 100.00:  % Det Eff 
 DLRX.°/30m               1.44:  Dogleg Rot Max 
 DLSO.°/30m               0.00:  Dogleg Oriented 
 DLSX.°/30m               0.00:  Dogleg Str Max 
 DRET.      03.31.12 02-Feb-20:  Drill End Time 
 DRST.      03.31.12 02-Feb-20:  Drill Start Tim 
 DTIM.hr                  1.99:  Time Drilling 
 EDEP.m                4047.51:  End Depth 
 ENG1.           Eldar Hajiyev:  Engineer 1 
 ENG2.          Rasim Hashimov:  Engineer 2 
 ENG3.          Rustam Safarov:  Engineer 3 
 ETIM.      03.31.12 02-Feb-20:  End Time 
 FLOI.gpm               300.00:  Flow In 
 FLON.gpm               250.00:  Flow In Min 
 FLOS.cptm                0.00:  Fluid Loss 
 FLOX.gpm               330.00:  Flow In Max 
 HFLO.                      No:  High Flow 
 HPRE.                      No:  High Pressure 
 HTEM.                      No:  High Temp 
 HYDO.m                   2.50:  Hydro Offset 
 IFIN.deg                39.54:  Inc, Final 
 IMAX.deg                41.14:  Inc Max 
 IMIN.deg                39.81:  Inc Min 
 IMND.m                4005.21:  Inc Min Depth 
 IMXD.m                3948.42:  Inc Max Depth 
 JARR.                      No:  Jarring 
 LETM.      03.31.12 02-Feb-20:  Log End Time 
 LOST.hr                     0:  Lost Rig Time 
 LSTM.      03.31.12 02-Feb-20:  Log Start Time 
 MDCL.ppm             35000.00:  Mud Chlorides 
 MDES.     Inversion Oil/Synthetic:  Mud Desc 
 DFD .sg                  1.32:  Mud Density 
 MDMN.sg                  1.32:  Dens Mud Min 
 MDMX.sg                  1.32:  Dens Mud Max 
 MOIL.                      59:  Run Mud Oil % 
 MOWR.                   71:29:  Run Mud OWR 
 MSND.                       0:  Run Mud Sand % 
 MSOL.                      17:  Run Mud Solids% 
 DFV .spqt               86.00:  Mud Viscosity 
 MWOD.in                  4.75:  MWD Tool OD 
 MWSI.                      No:  Serv Intrp, MWD 
 OTIM.hr                 46.72:  Time Operating 
 PCON.           Look Like New:  Pad Condition 
 PMAX.psia             3300.00:  Press Op, Max 
 PV  .cP                 30.00:  Mud PV 
 RUN .                     400:  Run Number 
 ROPA.m/hr               35.00:  ROP Avg 
 ROPN.m/hr               25.00:  ROP Min 
 ROPX.m/hr               40.00:  ROP Max 
 RPMA.rpm                80.00:  RPM Surface Avg 
 RPMN.rpm                60.00:  RPM Surface Min 
 RPMX.rpm               100.00:  RPM Surface Max 
 RRUN.                     400:  Rig Run Number 
 RTIM.hr                  1.99:  Time Reaming 
 SAZI.deg               133.93:  Azm, Start 
 SDEP.m                4047.51:  Start Depth 
 SIDD.                      No:  Serv Intrp, DD 
 SINC.deg                40.28:  Inc, Start 
 SPPA.psig             3250.00:  SPP Avg 
 SPPN.psig             3200.00:  SPP Min 
 SPPX.psig             3300.00:  SPP Max 
 STIM.      03.31.12 02-Feb-20:  Start Time 
 SVCS.                 DD, MWD:  Services 
 SVER.                    9.20:  Sperry Version 
 TDAT.m                  47.00:  Tot Depth Attmp 
 TDDF.                      No:  Trip for DD 
 TFF .                      No:  Trip for Fail 
 TQAA.f-kp                0.00:  Torque Abs Avg 
 TQAN.f-kp                0.00:  Torque Abs Min 
 TQAX.f-kp                0.00:  Torque Abs Max 
 TRRT.°/30m               0.70:  Turn Rotating 
 MRT .                    HCIM:  Maximum Recorded Temperature 
 TTMX.degC               70.59:  Max Tool Temp 
 VS01.             90598770F11:  Virtual Str1 SN 
 VS02.             90598769F11:  Virtual Str2 SN 
 VS03.            90515978Z1W1:  Virtual Str3 SN 
 VS04.          90584144R12X14:  Virtual Str4 SN 
 WBMN.klb                 0.00:  WOB Min 
 WITN.            Peter Wilson:  Customer Rep 
 WOBA.klb                 0.00:  WOB Avg 
 WOBX.klb                 0.00:  WOB Max 
 YP  .lhf2               29.00:  Yield Point 
~Curve Information Block
#MNEM.UNIT                 API CODE     Curve Description
#---------               -----------    ---------------------------
 TIME.HHMMSS            00 000 000 000:  GT Time & Date
 GTDEPTH.m              00 000 000 000:  GT Depth
 GTPQH.psia             00 000 000 000:  GT HR Quartz Pressure
 GTTQ.degC              00 000 000 000:  GT Quartz Temperature
 GTTN.NONE              00 000 000 000:  GT Test Number
 GTET.sec               00 000 000 000:  GT Elapsed Test Time
 GTTVD.m                00 000 000 000:  GT True Vertical Depth
#Other Information
#
#WARRANTY: Halliburton will use its best efforts to furnish customers with 
#accurate information and interpretations that are part of, and incident to, the services 
#provided.  However, Halliburton cannot and does not warrant the accuracy 
#or correctness of such information and interpretations.  Under no circumstances should any 
#such information or interpretation be relied upon as the sole basis for any drilling, 
#completion, production, or financial decision or any procedure involving any risk to the 
#safety of any drilling venture, drilling rig or its crew or any other third party.  The 
#Customer has full responsibility for all drilling, completion and production operation.  
#Halliburton makes no representations or warranties, either expressed or 
#implied, including, but not limited to, the implied warranties of merchantability or fitness 
#for a particular purpose, with respect to the services rendered.  In no event will 
#Halliburton be liable for failure to obtain any particular results or for 
#any damages, including, but not limited to, indirect, special or consequential damages, 
#resulting from the use of any information or interpretation provided by Halliburton.
#
~A           TIME           GTDEPTH  GTPQH  GTTQ  GTTN   GTET   GTTVD  
# ...
   08:36:17.888.03-Feb-2020 4013.71 3131.14 64.46 11.00 180.81 3023.43
   08:36:18.088.03-Feb-2020 4013.71 3131.05 64.46 11.00 181.01 3023.43
   08:36:18.288.03-Feb-2020 4013.71 3131.05 64.46 11.00 181.21 3023.43
   08:36:18.488.03-Feb-2020 4013.71 3131.10 64.46 11.00 181.41 3023.43
   08:36:18.688.03-Feb-2020 4013.71 3131.11 64.46 11.00 181.61 3023.43
   08:36:18.888.03-Feb-2020 4013.71 3131.09 64.46 11.00 181.81 3023.43
   08:36:19.088.03-Feb-2020 4013.71 3131.11 64.46 11.00 182.01 3023.43
   08:36:19.288.03-Feb-2020 4013.71 3131.11 64.46 11.00 182.21 3023.43
   08:36:19.488.03-Feb-2020 4013.71 3131.19 64.46 11.00 182.41 3023.43
   08:36:19.688.03-Feb-2020 4013.71 3131.18 64.46 11.00 182.61 3023.43
   08:36:19.888.03-Feb-2020 4013.71 3131.16 64.46 11.00 182.81 3023.43
   08:36:20.088.03-Feb-2020 4013.71 3131.16 64.46 11.00 183.01 3023.43
   08:36:20.288.03-Feb-2020 4013.71 3131.16 64.46 11.00 183.21 3023.43
   08:36:20.488.03-Feb-2020 4013.71 3131.23 64.46 11.00 183.41 3023.43
   08:36:20.688.03-Feb-2020 4013.71 3131.04 64.46 11.00 183.61 3023.43
   08:36:20.888.03-Feb-2020 4013.71 3131.31 64.46 11.00 183.81 3023.43
   08:36:21.088.03-Feb-2020 4013.71 3131.26 64.46 11.00 184.01 3023.43
   08:36:21.288.03-Feb-2020 4013.71 3131.26 64.46 11.00 184.21 3023.43
   08:36:21.488.03-Feb-2020 4013.71 3131.31 64.46 11.00 184.41 3023.43
   08:36:21.688.03-Feb-2020 4013.71 3131.29 64.46 11.00 184.61 3023.43
   08:36:21.888.03-Feb-2020 4013.71 3131.32 64.45 11.00 184.81 3023.43
   08:36:22.088.03-Feb-2020 4013.71 3131.36 64.46 11.00 185.01 3023.43
   08:36:22.288.03-Feb-2020 4013.71 3131.36 64.45 11.00 185.21 3023.43
   08:36:22.488.03-Feb-2020 4013.71 3131.34 64.45 11.00 185.41 3023.43
   08:36:22.688.03-Feb-2020 4013.71 3131.34 64.45 11.00 185.61 3023.43
   08:36:22.888.03-Feb-2020 4013.71 3131.33 64.45 11.00 185.81 3023.43
   08:36:23.088.03-Feb-2020 4013.71 3131.17 64.45 11.00 186.01 3023.43
   08:36:23.288.03-Feb-2020 4013.71 3131.17 64.45 11.00 186.21 3023.43
   08:36:23.488.03-Feb-2020 4013.71 3131.31 64.45 11.00 186.41 3023.43
   08:36:23.688.03-Feb-2020 4013.71 3131.54 64.45 11.00 186.61 3023.43
   08:36:23.888.03-Feb-2020 4013.71 3131.41 64.45 11.00 186.81 3023.43
   08:36:24.088.03-Feb-2020 4013.71 3131.45 64.45 11.00 187.01 3023.43
   08:36:24.288.03-Feb-2020 4013.71 3131.45 64.45 11.00 187.21 3023.43
   08:36:24.488.03-Feb-2020 4013.71 3131.50 64.45 11.00 187.41 3023.43
   08:36:24.688.03-Feb-2020 4013.71 3131.47 64.45 11.00 187.61 3023.43
   08:36:24.888.03-Feb-2020 4013.71 3131.49 64.45 11.00 187.81 3023.43
   08:36:25.088.03-Feb-2020 4013.71 3131.52 64.45 11.00 188.01 3023.43
   08:36:25.288.03-Feb-2020 4013.71 3131.52 64.45 11.00 188.21 3023.43
   08:36:25.488.03-Feb-2020 4013.71 3131.55 64.45 11.00 188.41 3023.43
   08:36:25.688.03-Feb-2020 4013.71 3131.52 64.45 11.00 188.61 3023.43
   08:36:25.888.03-Feb-2020 4013.71 3131.52 64.45 11.00 188.81 3023.43
   08:36:26.088.03-Feb-2020 4013.71 3131.52 64.45 11.00 189.01 3023.43
   08:36:26.288.03-Feb-2020 4013.71 3131.52 64.45 11.00 189.21 3023.43
   08:36:26.488.03-Feb-2020 4013.71 3131.48 64.45 11.00 189.41 3023.43
   08:36:26.688.03-Feb-2020 4013.71 3131.62 64.45 11.00 189.61 3023.43
   08:36:26.888.03-Feb-2020 4013.71 3131.52 64.45 11.00 189.81 3023.43
   08:36:27.088.03-Feb-2020 4013.71 3131.57 64.45 11.00 190.01 3023.43
   08:36:27.288.03-Feb-2020 4013.71 3131.57 64.45 11.00 190.21 3023.43
   08:36:27.488.03-Feb-2020 4013.71 3131.61 64.45 11.00 190.41 3023.43
   08:36:27.688.03-Feb-2020 4013.71 3131.59 64.45 11.00 190.61 3023.43
   08:36:27.888.03-Feb-2020 4013.71 3131.58 64.45 11.00 190.81 3023.43
   08:36:28.088.03-Feb-2020 4013.71 3131.57 64.45 11.00 191.01 3023.43
   08:36:28.288.03-Feb-2020 4013.71 3131.57 64.45 11.00 191.21 3023.43
   08:36:28.488.03-Feb-2020 4013.71 3131.60 64.45 11.00 191.41 3023.43
   08:36:28.688.03-Feb-2020 4013.71 3131.59 64.45 11.00 191.61 3023.43
   08:36:28.888.03-Feb-2020 4013.71 3131.59 64.45 11.00 191.81 3023.43
   08:36:29.088.03-Feb-2020 4013.71 3131.64 64.45 11.00 192.01 3023.43
   08:36:29.288.03-Feb-2020 4013.71 3131.64 64.45 11.00 192.21 3023.43
   08:36:29.488.03-Feb-2020 4013.71 3131.37 64.45 11.00 192.41 3023.43
   08:36:29.688.03-Feb-2020 4013.71 3131.78 64.45 11.00 192.61 3023.43
   08:36:29.888.03-Feb-2020 4013.71 3131.57 64.45 11.00 192.81 3023.43
   08:36:30.088.03-Feb-2020 4013.71 3131.70 64.45 11.00 193.01 3023.43
   08:36:30.288.03-Feb-2020 4013.71 3131.70 64.45 11.00 193.21 3023.43
   08:36:30.488.03-Feb-2020 4013.71 3131.65 64.45 11.00 193.41 3023.43
   08:36:30.688.03-Feb-2020 4013.71 3131.65 64.45 11.00 193.61 3023.43
   08:36:30.888.03-Feb-2020 4013.71 3131.66 64.45 11.00 193.81 3023.43
   08:36:31.088.03-Feb-2020 4013.71 3131.65 64.45 11.00 194.01 3023.43
   08:36:31.288.03-Feb-2020 4013.71 3131.65 64.45 11.00 194.21 3023.43
   08:36:31.488.03-Feb-2020 4013.71 3131.68 64.45 11.00 194.41 3023.43
   08:36:31.688.03-Feb-2020 4013.71 3131.67 64.45 11.00 194.61 3023.43
   08:36:31.888.03-Feb-2020 4013.71 3131.64 64.45 11.00 194.81 3023.43
   08:36:32.088.03-Feb-2020 4013.71 3131.62 64.45 11.00 195.01 3023.43
   08:36:32.288.03-Feb-2020 4013.71 3131.62 64.45 11.00 195.21 3023.43
   08:36:32.488.03-Feb-2020 4013.71 3131.81 64.45 11.00 195.41 3023.43
   08:36:32.688.03-Feb-2020 4013.71 3131.71 64.45 11.00 195.61 3023.43
   08:36:32.888.03-Feb-2020 4013.71 3131.72 64.45 11.00 195.81 3023.43
   08:36:33.088.03-Feb-2020 4013.71 3131.51 64.45 11.00 196.01 3023.43
   08:36:33.288.03-Feb-2020 4013.71 3131.51 64.45 11.00 196.21 3023.43
   08:36:33.488.03-Feb-2020 4013.71 3131.64 64.45 11.00 196.41 3023.43
   08:36:33.688.03-Feb-2020 4013.71 3131.82 64.45 11.00 196.61 3023.43
   08:36:33.888.03-Feb-2020 4013.71 3131.71 64.45 11.00 196.81 3023.43
   08:36:34.088.03-Feb-2020 4013.71 3131.72 64.45 11.00 197.01 3023.43
   08:36:34.288.03-Feb-2020 4013.71 3131.72 64.45 11.00 197.21 3023.43
   08:36:34.488.03-Feb-2020 4013.71 3131.69 64.45 11.00 197.41 3023.43
   08:36:34.688.03-Feb-2020 4013.71 3131.81 64.45 11.00 197.61 3023.43
   08:36:34.888.03-Feb-2020 4013.71 3131.78 64.45 11.00 197.81 3023.43
   08:36:35.088.03-Feb-2020 4013.71 3131.82 64.45 11.00 198.01 3023.43
   08:36:35.288.03-Feb-2020 4013.71 3131.82 64.45 11.00 198.21 3023.43
   08:36:35.488.03-Feb-2020 4013.71 3131.80 64.45 11.00 198.41 3023.43
   08:36:35.688.03-Feb-2020 4013.71 3131.77 64.45 11.00 198.61 3023.43
   08:36:35.888.03-Feb-2020 4013.71 3131.78 64.45 11.00 198.81 3023.43
   08:36:36.088.03-Feb-2020 4013.71 3131.82 64.45 11.00 199.01 3023.43
   08:36:36.288.03-Feb-2020 4013.71 3131.82 64.45 11.00 199.21 3023.43
   08:36:36.488.03-Feb-2020 4013.71 3131.81 64.45 11.00 199.41 3023.43
   08:36:36.688.03-Feb-2020 4013.71 3131.79 64.45 11.00 199.61 3023.43
   08:36:36.888.03-Feb-2020 4013.71 3131.76 64.45 11.00 199.81 3023.43
   08:36:37.088.03-Feb-2020 4013.71 3131.83 64.45 11.00 200.01 3023.43
   08:36:37.288.03-Feb-2020 4013.71 3131.83 64.45 11.00 200.21 3023.43
   08:36:37.488.03-Feb-2020 4013.71 3131.80 64.45 11.00 200.41 3023.43
   08:36:37.688.03-Feb-2020 4013.71 3131.83 64.45 11.00 200.61 3023.43
   08:36:37.888.03-Feb-2020 4013.71 3131.79 64.45 11.00 200.81 3023.43
   08:36:38.088.03-Feb-2020 4013.71 3131.81 64.45 11.00 201.01 3023.43
   08:36:38.288.03-Feb-2020 4013.71 3131.81 64.45 11.00 201.21 3023.43
   08:36:38.488.03-Feb-2020 4013.71 3131.62 64.45 11.00 201.41 3023.43
   08:36:38.688.03-Feb-2020 4013.71 3131.96 64.45 11.00 201.61 3023.43
   08:36:38.888.03-Feb-2020 4013.71 3131.74 64.45 11.00 201.81 3023.43
   08:36:39.088.03-Feb-2020 4013.71 3131.89 64.45 11.00 202.01 3023.43
   08:36:39.288.03-Feb-2020 4013.71 3131.89 64.45 11.00 202.21 3023.43
   08:36:39.488.03-Feb-2020 4013.71 3131.86 64.45 11.00 202.41 3023.43
   08:36:39.688.03-Feb-2020 4013.71 3131.82 64.45 11.00 202.61 3023.43
   08:36:39.888.03-Feb-2020 4013.71 3131.85 64.45 11.00 202.81 3023.43
   08:36:40.088.03-Feb-2020 4013.71 3131.85 64.45 11.00 203.01 3023.43
   08:36:40.288.03-Feb-2020 4013.71 3131.85 64.45 11.00 203.21 3023.43
