~Version Information
 VERS.                  2.0:   CWLS log ASCII Standard -VERSION 2.0
 WRAP.                   NO:   One line per depth step
~Well Information Block
#MNEM.UNIT     VALUE/NAME     DESCRIPTION
#---------     -----------    ---------------------------
 STRT.S             05:00:30 03-Feb-20: START TIME 05:00:30 03-Feb-20
 STOP.S             05:08:21 03-Feb-20: STOP TIME  05:08:21 03-Feb-20
 STEP.S                   0.00: STEP TIME
 NULL.                 -999.25: NULL VALUE
 DFWT.                        :  DIST FWL TEXT
 DFST.                        :  DIST FSL TEXT
 DMF .             Drill Floor:  DRILL MEAS FROM
 STIM.      09.30.00 26-Dec-19:  START TIME
 DATE.      08.00.00 20-Jan-20:  END TIME
 SPUD.               23-Nov-19:  SPUD DATE
 NREF.                    Grid:  NORTH REFERENCE
 HPTY.       Minimum Curvature:  HOLE POS TYPE
 DMOD.             Drill Model:  DRILL MOD DESC
 SVYD.                  Survey:  SURVEY DESC
 ILTD.               Lithology:  INTERP LTH DESC
 FTOP.          Formation Tops:  FORM TOPS DESC
 SON .        AZ-XX-0906192647:  JOB NUMBER
 WTYP.                Deviated:  WELL TYPE
 COMP.     BP Exploration (Caspian Sea) Ltd:  COMPANY
 BASE.              Azerbaijan:  LOGGING EQUIPMENT BASE LOCATION
 REGN.                 Eurasia:  REGION
 FLD .                     ACG:  FIELD NAME
 SRVC.              KCA Deutag:  CONTRACTOR
 MWDS.                    Baku:  MWD SHOP
 WELL.     A10 (Slot 20) - SCP:  WELL NAME
 JOBN.        AZ-XX-0906192647:  JOB TICKET NUMB
 RIG .                 Chirag1:  RIG NAME
 DCON.     Halliburton Sperry Drilling:  DIRECTNL CONTR
 UNIT.                     N/A:  LOGGING EQUIPMENT ID
 PDAT.          Mean Sea Level:  PERMANENT DATUM
 MDS .        Operator Entered:  MAG DATA SOURCE
 CTRY.              Azerbaijan:  COUNTRY NAME
 UWI .            /AZE00000090:  UNIQUE WELL IDENTIFIER
 API .            /AZE00000090:  API NUMBER
 CNTY.                        :  COUNTY
 PROV.                        :  PROVINCE
 STAT.                        :  STATE
 LOC .                        :  LOCATION
 LMF .             Drill Floor:  LOG MEASURED FROM
 TVDS.m                  36.60:  TVDSS CORRECTN
 LATI.deg                40.08:  LATITUDE
 LONG.deg                51.24:  LONGITUDE
 WHNS.m                  -7.94:  WELL HEAD N/S
 WHEW.m                   1.56:  WELL HEAD E/W
 UTMX.m              520429.26:  UTM X
 UTMY.m             4438973.87:  UTM Y
 DFWL.m                   0.00:  DISTANCE FWL
 DFSL.m                   0.00:  DISTANCE FSL
 SDEP.m                1455.00:  START DEPTH
 TDD .m                4047.51:  TOTAL DEPTH (DRILLER)
 VSDR.deg               112.75:  VERT SEC DIRECT
 GVFD.g                   1.00:  GRAVITY FIELD
 MFLD.nT              50261.00:  MAGNETIC FIELD
 MDIP.deg                59.52:  MAGNETIC DIP
 MDEC.deg                 6.42:  MAGNETIC DECL
 GRDC.deg                 0.17:  GRID CORRECTION
 AZTC.deg                 6.25:  AZM TOTAL CORR
 EPD .m                   0.00:  ELEVATION
 EGL .m                   0.00:  GROUND ELEVATION
 WDMS.m                 121.00:  WD ELEV
 APD .m                  36.60:  DEPTH ABOVE PD
 AGAP.m                  36.60:  AIR GAP
 VSEW.m                   1.56:  VERT SEC E/W
 VSNS.m                  -7.94:  VERT SEC N/S
 DEP .m                1140.01:  DEPTH
 EKB .m                  36.60:  KB ELEVATION
 EDF .m                  36.60:  DF ELEVATION
 VSC .                       0:  VS TO CLOSURE
 MAGU.                 1849206:  MAGUTM CHECKSUM
~Parameter Information Block
#MNEM.UNIT       Value        Description
#---------     -----------    ---------------------------
 AV  .mps                 1.70:  Ann Velocity 
 AVMX.mps                 2.30:  Max Ann Veloc 
 AZIF.deg               137.03:  Azm, Final 
 BHAT.                   Other:  BHA Type 
 BROT.°/30m               0.80:  Build Rotating 
 BS  .in                  8.00:  Bit Size 
 BTPL.psig              161.00:  Bit Press Loss 
 CABU.                      No:  Customer Abuse 
 COMM.                     ,¶W:  Run Comments 1 
 TCS .hr                  9.59:  Time Ciculation Ended 
 CV  .mps                 3.76:  Crit Velocity 
 CVMX.mps                 4.26:  Max Crit Veloc 
 DD1 .         Intigam Rahimov:  Direct Drillr 1 
 DD2 .          Rashad Gojayev:  Direct Drillr 2 
 DDSV.                   Other:  DD Service 
 DEFF.%                 100.00:  % Det Eff 
 DLRX.°/30m               1.44:  Dogleg Rot Max 
 DLSO.°/30m               0.00:  Dogleg Oriented 
 DLSX.°/30m               0.00:  Dogleg Str Max 
 DRET.      03.31.12 02-Feb-20:  Drill End Time 
 DRST.      03.31.12 02-Feb-20:  Drill Start Tim 
 DTIM.hr                  1.99:  Time Drilling 
 EDEP.m                4047.51:  End Depth 
 ENG1.           Eldar Hajiyev:  Engineer 1 
 ENG2.          Rasim Hashimov:  Engineer 2 
 ENG3.          Rustam Safarov:  Engineer 3 
 ETIM.      03.31.12 02-Feb-20:  End Time 
 FLOI.gpm               300.00:  Flow In 
 FLON.gpm               250.00:  Flow In Min 
 FLOS.cptm                0.00:  Fluid Loss 
 FLOX.gpm               330.00:  Flow In Max 
 HFLO.                      No:  High Flow 
 HPRE.                      No:  High Pressure 
 HTEM.                      No:  High Temp 
 HYDO.m                   2.50:  Hydro Offset 
 IFIN.deg                39.54:  Inc, Final 
 IMAX.deg                41.14:  Inc Max 
 IMIN.deg                39.81:  Inc Min 
 IMND.m                4005.21:  Inc Min Depth 
 IMXD.m                3948.42:  Inc Max Depth 
 JARR.                      No:  Jarring 
 LETM.      03.31.12 02-Feb-20:  Log End Time 
 LOST.hr                     0:  Lost Rig Time 
 LSTM.      03.31.12 02-Feb-20:  Log Start Time 
 MDCL.ppm             35000.00:  Mud Chlorides 
 MDES.     Inversion Oil/Synthetic:  Mud Desc 
 DFD .sg                  1.32:  Mud Density 
 MDMN.sg                  1.32:  Dens Mud Min 
 MDMX.sg                  1.32:  Dens Mud Max 
 MOIL.                      59:  Run Mud Oil % 
 MOWR.                   71:29:  Run Mud OWR 
 MSND.                       0:  Run Mud Sand % 
 MSOL.                      17:  Run Mud Solids% 
 DFV .spqt               86.00:  Mud Viscosity 
 MWOD.in                  4.75:  MWD Tool OD 
 MWSI.                      No:  Serv Intrp, MWD 
 OTIM.hr                 46.72:  Time Operating 
 PCON.           Look Like New:  Pad Condition 
 PMAX.psia             3300.00:  Press Op, Max 
 PV  .cP                 30.00:  Mud PV 
 RUN .                     400:  Run Number 
 ROPA.m/hr               35.00:  ROP Avg 
 ROPN.m/hr               25.00:  ROP Min 
 ROPX.m/hr               40.00:  ROP Max 
 RPMA.rpm                80.00:  RPM Surface Avg 
 RPMN.rpm                60.00:  RPM Surface Min 
 RPMX.rpm               100.00:  RPM Surface Max 
 RRUN.                     400:  Rig Run Number 
 RTIM.hr                  1.99:  Time Reaming 
 SAZI.deg               133.93:  Azm, Start 
 SDEP.m                4047.51:  Start Depth 
 SIDD.                      No:  Serv Intrp, DD 
 SINC.deg                40.28:  Inc, Start 
 SPPA.psig             3250.00:  SPP Avg 
 SPPN.psig             3200.00:  SPP Min 
 SPPX.psig             3300.00:  SPP Max 
 STIM.      03.31.12 02-Feb-20:  Start Time 
 SVCS.                 DD, MWD:  Services 
 SVER.                    9.20:  Sperry Version 
 TDAT.m                  47.00:  Tot Depth Attmp 
 TDDF.                      No:  Trip for DD 
 TFF .                      No:  Trip for Fail 
 TQAA.f-kp                0.00:  Torque Abs Avg 
 TQAN.f-kp                0.00:  Torque Abs Min 
 TQAX.f-kp                0.00:  Torque Abs Max 
 TRRT.°/30m               0.70:  Turn Rotating 
 MRT .                    HCIM:  Maximum Recorded Temperature 
 TTMX.degC               70.59:  Max Tool Temp 
 VS01.             90598770F11:  Virtual Str1 SN 
 VS02.             90598769F11:  Virtual Str2 SN 
 VS03.            90515978Z1W1:  Virtual Str3 SN 
 VS04.          90584144R12X14:  Virtual Str4 SN 
 WBMN.klb                 0.00:  WOB Min 
 WITN.            Peter Wilson:  Customer Rep 
 WOBA.klb                 0.00:  WOB Avg 
 WOBX.klb                 0.00:  WOB Max 
 YP  .lhf2               29.00:  Yield Point 
~Curve Information Block
#MNEM.UNIT                 API CODE     Curve Description
#---------               -----------    ---------------------------
 TIME.HHMMSS            00 000 000 000:  GT Time & Date
 GTDEPTH.m              00 000 000 000:  GT Depth
 GTPQH.psia             00 000 000 000:  GT HR Quartz Pressure
 GTTQ.degC              00 000 000 000:  GT Quartz Temperature
 GTTN.NONE              00 000 000 000:  GT Test Number
 GTET.sec               00 000 000 000:  GT Elapsed Test Time
 GTTVD.m                00 000 000 000:  GT True Vertical Depth
#Other Information
#
#WARRANTY: Halliburton will use its best efforts to furnish customers with 
#accurate information and interpretations that are part of, and incident to, the services 
#provided.  However, Halliburton cannot and does not warrant the accuracy 
#or correctness of such information and interpretations.  Under no circumstances should any 
#such information or interpretation be relied upon as the sole basis for any drilling, 
#completion, production, or financial decision or any procedure involving any risk to the 
#safety of any drilling venture, drilling rig or its crew or any other third party.  The 
#Customer has full responsibility for all drilling, completion and production operation.  
#Halliburton makes no representations or warranties, either expressed or 
#implied, including, but not limited to, the implied warranties of merchantability or fitness 
#for a particular purpose, with respect to the services rendered.  In no event will 
#Halliburton be liable for failure to obtain any particular results or for 
#any damages, including, but not limited to, indirect, special or consequential damages, 
#resulting from the use of any information or interpretation provided by Halliburton.
#
~A           TIME           GTDEPTH  GTPQH  GTTQ  GTTN  GTET   GTTVD  
# ...
   05:03:11.000.03-Feb-2020 4009.01 6083.71 66.03 4.00 161.00 3019.83
   05:03:11.200.03-Feb-2020 4009.01 6083.71 66.03 4.00 161.20 3019.83
   05:03:11.400.03-Feb-2020 4009.01 6084.20 66.03 4.00 161.40 3019.83
   05:03:11.600.03-Feb-2020 4009.01 6083.44 66.03 4.00 161.60 3019.83
   05:03:11.800.03-Feb-2020 4009.01 6083.84 66.03 4.00 161.80 3019.83
   05:03:12.000.03-Feb-2020 4009.01 6083.14 66.03 4.00 162.00 3019.83
   05:03:12.200.03-Feb-2020 4009.01 6083.14 66.03 4.00 162.20 3019.83
   05:03:12.400.03-Feb-2020 4009.01 6084.52 66.03 4.00 162.40 3019.83
   05:03:12.600.03-Feb-2020 4009.01 6084.70 66.03 4.00 162.60 3019.83
   05:03:12.800.03-Feb-2020 4009.01 6084.62 66.03 4.00 162.80 3019.83
   05:03:13.000.03-Feb-2020 4009.01 6084.01 66.03 4.00 163.00 3019.83
   05:03:13.200.03-Feb-2020 4009.01 6084.01 66.03 4.00 163.20 3019.83
   05:03:13.400.03-Feb-2020 4009.01 6083.18 66.03 4.00 163.40 3019.83
   05:03:13.600.03-Feb-2020 4009.01 6081.43 66.03 4.00 163.60 3019.83
   05:03:13.800.03-Feb-2020 4009.01 6084.27 66.03 4.00 163.80 3019.83
   05:03:14.000.03-Feb-2020 4009.01 6075.54 66.03 4.00 164.00 3019.83
   05:03:14.200.03-Feb-2020 4009.01 6075.54 66.03 4.00 164.20 3019.83
   05:03:14.400.03-Feb-2020 4009.01 6077.32 66.02 4.00 164.40 3019.83
   05:03:14.600.03-Feb-2020 4009.01 6082.60 66.02 4.00 164.60 3019.83
   05:03:14.800.03-Feb-2020 4009.01 6080.58 66.02 4.00 164.80 3019.83
   05:03:15.000.03-Feb-2020 4009.01 6082.59 66.02 4.00 165.00 3019.83
   05:03:15.200.03-Feb-2020 4009.01 6082.59 66.02 4.00 165.20 3019.83
   05:03:15.400.03-Feb-2020 4009.01 6083.50 66.02 4.00 165.40 3019.83
   05:03:15.600.03-Feb-2020 4009.01 6083.51 66.02 4.00 165.60 3019.83
   05:03:15.800.03-Feb-2020 4009.01 6083.34 66.02 4.00 165.80 3019.83
   05:03:16.000.03-Feb-2020 4009.01 6082.96 66.02 4.00 166.00 3019.83
   05:03:16.200.03-Feb-2020 4009.01 6082.96 66.02 4.00 166.20 3019.83
   05:03:16.400.03-Feb-2020 4009.01 6084.40 66.02 4.00 166.40 3019.83
   05:03:16.600.03-Feb-2020 4009.01 6084.16 66.02 4.00 166.60 3019.83
   05:03:16.800.03-Feb-2020 4009.01 6072.28 66.02 4.00 166.80 3019.83
   05:03:17.000.03-Feb-2020 4009.01 6084.74 66.02 4.00 167.00 3019.83
   05:03:17.200.03-Feb-2020 4009.01 6084.74 66.02 4.00 167.20 3019.83
   05:03:17.400.03-Feb-2020 4009.01 6084.39 66.02 4.00 167.40 3019.83
   05:03:17.600.03-Feb-2020 4009.01 6083.10 66.02 4.00 167.60 3019.83
   05:03:17.800.03-Feb-2020 4009.01 6084.86 66.02 4.00 167.80 3019.83
   05:03:18.000.03-Feb-2020 4009.01 6074.02 66.02 4.00 168.00 3019.83
   05:03:18.200.03-Feb-2020 4009.01 6074.02 66.02 4.00 168.20 3019.83
   05:03:18.400.03-Feb-2020 4009.01 6078.88 66.02 4.00 168.40 3019.83
   05:03:18.600.03-Feb-2020 4009.01 6083.35 66.02 4.00 168.60 3019.83
   05:03:18.800.03-Feb-2020 4009.01 6081.98 66.02 4.00 168.80 3019.83
   05:03:19.000.03-Feb-2020 4009.01 6083.66 66.02 4.00 169.00 3019.83
   05:03:19.200.03-Feb-2020 4009.01 6083.66 66.02 4.00 169.20 3019.83
   05:03:19.400.03-Feb-2020 4009.01 6079.02 66.02 4.00 169.40 3019.83
   05:03:19.600.03-Feb-2020 4009.01 6077.74 66.02 4.00 169.60 3019.83
   05:03:19.800.03-Feb-2020 4009.01 6084.61 66.02 4.00 169.80 3019.83
   05:03:20.000.03-Feb-2020 4009.01 6083.59 66.02 4.00 170.00 3019.83
   05:03:20.200.03-Feb-2020 4009.01 6083.59 66.02 4.00 170.20 3019.83
   05:03:20.400.03-Feb-2020 4009.01 6083.58 66.02 4.00 170.40 3019.83
   05:03:20.600.03-Feb-2020 4009.01 6077.54 66.02 4.00 170.60 3019.83
   05:03:20.800.03-Feb-2020 4009.01 6076.75 66.02 4.00 170.80 3019.83
   05:03:21.000.03-Feb-2020 4009.01 6079.48 66.01 4.00 171.00 3019.83
   05:03:21.200.03-Feb-2020 4009.01 6079.48 66.01 4.00 171.20 3019.83
   05:03:21.400.03-Feb-2020 4009.01 6081.93 66.01 4.00 171.40 3019.83
   05:03:21.600.03-Feb-2020 4009.01 6082.77 66.01 4.00 171.60 3019.83
   05:03:21.800.03-Feb-2020 4009.01 6082.03 66.01 4.00 171.80 3019.83
   05:03:22.000.03-Feb-2020 4009.01 6081.45 66.01 4.00 172.00 3019.83
   05:03:22.200.03-Feb-2020 4009.01 6081.45 66.01 4.00 172.20 3019.83
   05:03:22.400.03-Feb-2020 4009.01 6085.26 66.01 4.00 172.40 3019.83
   05:03:22.600.03-Feb-2020 4009.01 6085.41 66.01 4.00 172.60 3019.83
   05:03:22.800.03-Feb-2020 4009.01 6085.02 66.01 4.00 172.80 3019.83
   05:03:23.000.03-Feb-2020 4009.01 6084.74 66.01 4.00 173.00 3019.83
   05:03:23.200.03-Feb-2020 4009.01 6084.74 66.01 4.00 173.20 3019.83
   05:03:23.400.03-Feb-2020 4009.01 6082.78 66.01 4.00 173.40 3019.83
   05:03:23.600.03-Feb-2020 4009.01 6083.61 66.01 4.00 173.60 3019.83
   05:03:23.800.03-Feb-2020 4009.01 6084.79 66.01 4.00 173.80 3019.83
   05:03:24.000.03-Feb-2020 4009.01 6075.35 66.01 4.00 174.00 3019.83
   05:03:24.200.03-Feb-2020 4009.01 6075.35 66.01 4.00 174.20 3019.83
   05:03:24.400.03-Feb-2020 4009.01 6080.70 66.01 4.00 174.40 3019.83
   05:03:24.600.03-Feb-2020 4009.01 6082.39 66.01 4.00 174.60 3019.83
   05:03:24.800.03-Feb-2020 4009.01 6082.30 66.01 4.00 174.80 3019.83
   05:03:25.000.03-Feb-2020 4009.01 6084.27 66.01 4.00 175.00 3019.83
   05:03:25.200.03-Feb-2020 4009.01 6084.27 66.01 4.00 175.20 3019.83
   05:03:25.400.03-Feb-2020 4009.01 6084.55 66.01 4.00 175.40 3019.83
   05:03:25.600.03-Feb-2020 4009.01 6084.44 66.01 4.00 175.60 3019.83
   05:03:25.800.03-Feb-2020 4009.01 6084.08 66.01 4.00 175.80 3019.83
   05:03:26.000.03-Feb-2020 4009.01 6084.13 66.01 4.00 176.00 3019.83
   05:03:26.200.03-Feb-2020 4009.01 6084.13 66.01 4.00 176.20 3019.83
   05:03:26.400.03-Feb-2020 4009.01 6085.34 66.01 4.00 176.40 3019.83
   05:03:26.600.03-Feb-2020 4009.01 6079.73 66.01 4.00 176.60 3019.83
   05:03:26.800.03-Feb-2020 4009.01 6079.62 66.01 4.00 176.80 3019.83
   05:03:27.000.03-Feb-2020 4009.01 6080.78 66.01 4.00 177.00 3019.83
   05:03:27.200.03-Feb-2020 4009.01 6080.78 66.01 4.00 177.20 3019.83
   05:03:27.400.03-Feb-2020 4009.01 6083.63 66.01 4.00 177.40 3019.83
   05:03:27.600.03-Feb-2020 4009.01 6084.99 66.01 4.00 177.60 3019.83
   05:03:27.800.03-Feb-2020 4009.01 6084.61 66.00 4.00 177.80 3019.83
   05:03:28.000.03-Feb-2020 4009.01 6076.44 66.00 4.00 178.00 3019.83
   05:03:28.200.03-Feb-2020 4009.01 6076.44 66.00 4.00 178.20 3019.83
   05:03:28.400.03-Feb-2020 4009.01 6081.52 66.00 4.00 178.40 3019.83
   05:03:28.600.03-Feb-2020 4009.01 6083.16 66.00 4.00 178.60 3019.83
   05:03:28.800.03-Feb-2020 4009.01 6083.66 66.00 4.00 178.80 3019.83
   05:03:29.000.03-Feb-2020 4009.01 6084.82 66.00 4.00 179.00 3019.83
   05:03:29.200.03-Feb-2020 4009.01 6084.82 66.00 4.00 179.20 3019.83
   05:03:29.400.03-Feb-2020 4009.01 6083.17 66.00 4.00 179.40 3019.83
   05:03:29.600.03-Feb-2020 4009.01 6080.63 66.00 4.00 179.60 3019.83
   05:03:29.800.03-Feb-2020 4009.01 6086.07 66.00 4.00 179.80 3019.83
   05:03:30.000.03-Feb-2020 4009.01 6084.19 66.00 4.00 180.00 3019.83
   05:03:30.200.03-Feb-2020 4009.01 6084.19 66.00 4.00 180.20 3019.83
   05:03:30.400.03-Feb-2020 4009.01 6084.09 66.00 4.00 180.40 3019.83
   05:03:30.600.03-Feb-2020 4009.01 6078.30 66.00 4.00 180.60 3019.83
   05:03:30.800.03-Feb-2020 4009.01 6078.11 66.00 4.00 180.80 3019.83
   05:03:31.000.03-Feb-2020 4009.01 6080.36 66.00 4.00 181.00 3019.83
   05:03:31.200.03-Feb-2020 4009.01 6080.36 66.00 4.00 181.20 3019.83
   05:03:31.400.03-Feb-2020 4009.01 6082.69 66.00 4.00 181.40 3019.83
   05:03:31.600.03-Feb-2020 4009.01 6083.23 66.00 4.00 181.60 3019.83
   05:03:31.800.03-Feb-2020 4009.01 6082.97 66.00 4.00 181.80 3019.83
   05:03:32.000.03-Feb-2020 4009.01 6082.41 66.00 4.00 182.00 3019.83
   05:03:32.200.03-Feb-2020 4009.01 6082.41 66.00 4.00 182.20 3019.83
   05:03:32.400.03-Feb-2020 4009.01 6085.95 66.00 4.00 182.40 3019.83
   05:03:32.600.03-Feb-2020 4009.01 6085.56 66.00 4.00 182.60 3019.83
   05:03:32.800.03-Feb-2020 4009.01 6085.10 66.00 4.00 182.80 3019.83
   05:03:33.000.03-Feb-2020 4009.01 6085.30 66.00 4.00 183.00 3019.83
   05:03:33.200.03-Feb-2020 4009.01 6085.30 66.00 4.00 183.20 3019.83
   05:03:33.400.03-Feb-2020 4009.01 6082.61 66.00 4.00 183.40 3019.83
   05:03:33.600.03-Feb-2020 4009.01 6084.21 66.00 4.00 183.60 3019.83
   05:03:33.800.03-Feb-2020 4009.01 6084.65 66.00 4.00 183.80 3019.83
