~Version Information
 VERS.                  2.0:   CWLS log ASCII Standard -VERSION 2.0
 WRAP.                   NO:   One line per depth step
~Well Information Block
#MNEM.UNIT     VALUE/NAME     DESCRIPTION
#---------     -----------    ---------------------------
 STRT.S             03:10:10 03-Feb-20: START TIME 03:10:10 03-Feb-20
 STOP.S             03:17:58 03-Feb-20: STOP TIME  03:17:58 03-Feb-20
 STEP.S                   0.00: STEP TIME
 NULL.                 -999.25: NULL VALUE
 DFWT.                        :  DIST FWL TEXT
 DFST.                        :  DIST FSL TEXT
 DMF .             Drill Floor:  DRILL MEAS FROM
 STIM.      09.30.00 26-Dec-19:  START TIME
 DATE.      08.00.00 20-Jan-20:  END TIME
 SPUD.               23-Nov-19:  SPUD DATE
 NREF.                    Grid:  NORTH REFERENCE
 HPTY.       Minimum Curvature:  HOLE POS TYPE
 DMOD.             Drill Model:  DRILL MOD DESC
 SVYD.                  Survey:  SURVEY DESC
 ILTD.               Lithology:  INTERP LTH DESC
 FTOP.          Formation Tops:  FORM TOPS DESC
 SON .        AZ-XX-0906192647:  JOB NUMBER
 WTYP.                Deviated:  WELL TYPE
 COMP.     BP Exploration (Caspian Sea) Ltd:  COMPANY
 BASE.              Azerbaijan:  LOGGING EQUIPMENT BASE LOCATION
 REGN.                 Eurasia:  REGION
 FLD .                     ACG:  FIELD NAME
 SRVC.              KCA Deutag:  CONTRACTOR
 MWDS.                    Baku:  MWD SHOP
 WELL.     A10 (Slot 20) - SCP:  WELL NAME
 JOBN.        AZ-XX-0906192647:  JOB TICKET NUMB
 RIG .                 Chirag1:  RIG NAME
 DCON.     Halliburton Sperry Drilling:  DIRECTNL CONTR
 UNIT.                     N/A:  LOGGING EQUIPMENT ID
 PDAT.          Mean Sea Level:  PERMANENT DATUM
 MDS .        Operator Entered:  MAG DATA SOURCE
 CTRY.              Azerbaijan:  COUNTRY NAME
 UWI .            /AZE00000090:  UNIQUE WELL IDENTIFIER
 API .            /AZE00000090:  API NUMBER
 CNTY.                        :  COUNTY
 PROV.                        :  PROVINCE
 STAT.                        :  STATE
 LOC .                        :  LOCATION
 LMF .             Drill Floor:  LOG MEASURED FROM
 TVDS.m                  36.60:  TVDSS CORRECTN
 LATI.deg                40.08:  LATITUDE
 LONG.deg                51.24:  LONGITUDE
 WHNS.m                  -7.94:  WELL HEAD N/S
 WHEW.m                   1.56:  WELL HEAD E/W
 UTMX.m              520429.26:  UTM X
 UTMY.m             4438973.87:  UTM Y
 DFWL.m                   0.00:  DISTANCE FWL
 DFSL.m                   0.00:  DISTANCE FSL
 SDEP.m                1455.00:  START DEPTH
 TDD .m                4047.51:  TOTAL DEPTH (DRILLER)
 VSDR.deg               112.75:  VERT SEC DIRECT
 GVFD.g                   1.00:  GRAVITY FIELD
 MFLD.nT              50261.00:  MAGNETIC FIELD
 MDIP.deg                59.52:  MAGNETIC DIP
 MDEC.deg                 6.42:  MAGNETIC DECL
 GRDC.deg                 0.17:  GRID CORRECTION
 AZTC.deg                 6.25:  AZM TOTAL CORR
 EPD .m                   0.00:  ELEVATION
 EGL .m                   0.00:  GROUND ELEVATION
 WDMS.m                 121.00:  WD ELEV
 APD .m                  36.60:  DEPTH ABOVE PD
 AGAP.m                  36.60:  AIR GAP
 VSEW.m                   1.56:  VERT SEC E/W
 VSNS.m                  -7.94:  VERT SEC N/S
 DEP .m                1140.01:  DEPTH
 EKB .m                  36.60:  KB ELEVATION
 EDF .m                  36.60:  DF ELEVATION
 VSC .                       0:  VS TO CLOSURE
 MAGU.                 1849206:  MAGUTM CHECKSUM
~Parameter Information Block
#MNEM.UNIT       Value        Description
#---------     -----------    ---------------------------
 AV  .mps                 1.70:  Ann Velocity 
 AVMX.mps                 2.30:  Max Ann Veloc 
 AZIF.deg               137.03:  Azm, Final 
 BHAT.                   Other:  BHA Type 
 BROT.°/30m               0.80:  Build Rotating 
 BS  .in                  8.00:  Bit Size 
 BTPL.psig              161.00:  Bit Press Loss 
 CABU.                      No:  Customer Abuse 
 TCS .hr                  9.59:  Time Ciculation Ended 
 CV  .mps                 3.76:  Crit Velocity 
 CVMX.mps                 4.26:  Max Crit Veloc 
 DD1 .         Intigam Rahimov:  Direct Drillr 1 
 DD2 .          Rashad Gojayev:  Direct Drillr 2 
 DDSV.                   Other:  DD Service 
 DEFF.%                 100.00:  % Det Eff 
 DLRX.°/30m               1.44:  Dogleg Rot Max 
 DLSO.°/30m               0.00:  Dogleg Oriented 
 DLSX.°/30m               0.00:  Dogleg Str Max 
 DRET.      03.31.12 02-Feb-20:  Drill End Time 
 DRST.      03.31.12 02-Feb-20:  Drill Start Tim 
 DTIM.hr                  1.99:  Time Drilling 
 EDEP.m                4047.51:  End Depth 
 ENG1.           Eldar Hajiyev:  Engineer 1 
 ENG2.          Rasim Hashimov:  Engineer 2 
 ENG3.          Rustam Safarov:  Engineer 3 
 ETIM.      03.31.12 02-Feb-20:  End Time 
 FLOI.gpm               300.00:  Flow In 
 FLON.gpm               250.00:  Flow In Min 
 FLOS.cptm                0.00:  Fluid Loss 
 FLOX.gpm               330.00:  Flow In Max 
 HFLO.                      No:  High Flow 
 HPRE.                      No:  High Pressure 
 HTEM.                      No:  High Temp 
 HYDO.m                   2.50:  Hydro Offset 
 IFIN.deg                39.54:  Inc, Final 
 IMAX.deg                41.14:  Inc Max 
 IMIN.deg                39.81:  Inc Min 
 IMND.m                4005.21:  Inc Min Depth 
 IMXD.m                3948.42:  Inc Max Depth 
 JARR.                      No:  Jarring 
 LETM.      03.31.12 02-Feb-20:  Log End Time 
 LOST.hr                     0:  Lost Rig Time 
 LSTM.      03.31.12 02-Feb-20:  Log Start Time 
 MDCL.ppm             35000.00:  Mud Chlorides 
 MDES.     Inversion Oil/Synthetic:  Mud Desc 
 DFD .sg                  1.32:  Mud Density 
 MDMN.sg                  1.32:  Dens Mud Min 
 MDMX.sg                  1.32:  Dens Mud Max 
 MOIL.                      59:  Run Mud Oil % 
 MOWR.                   71:29:  Run Mud OWR 
 MSND.                       0:  Run Mud Sand % 
 MSOL.                      17:  Run Mud Solids% 
 DFV .spqt               86.00:  Mud Viscosity 
 MWOD.in                  4.75:  MWD Tool OD 
 MWSI.                      No:  Serv Intrp, MWD 
 OTIM.hr                 46.72:  Time Operating 
 PCON.           Look Like New:  Pad Condition 
 PMAX.psia             3300.00:  Press Op, Max 
 PV  .cP                 30.00:  Mud PV 
 RUN .                     400:  Run Number 
 ROPA.m/hr               35.00:  ROP Avg 
 ROPN.m/hr               25.00:  ROP Min 
 ROPX.m/hr               40.00:  ROP Max 
 RPMA.rpm                80.00:  RPM Surface Avg 
 RPMN.rpm                60.00:  RPM Surface Min 
 RPMX.rpm               100.00:  RPM Surface Max 
 RRUN.                     400:  Rig Run Number 
 RTIM.hr                  1.99:  Time Reaming 
 SAZI.deg               133.93:  Azm, Start 
 SDEP.m                4047.51:  Start Depth 
 SIDD.                      No:  Serv Intrp, DD 
 SINC.deg                40.28:  Inc, Start 
 SPPA.psig             3250.00:  SPP Avg 
 SPPN.psig             3200.00:  SPP Min 
 SPPX.psig             3300.00:  SPP Max 
 STIM.      03.31.12 02-Feb-20:  Start Time 
 SVCS.                 DD, MWD:  Services 
 SVER.                    9.20:  Sperry Version 
 TDAT.m                  47.00:  Tot Depth Attmp 
 TDDF.                      No:  Trip for DD 
 TFF .                      No:  Trip for Fail 
 TQAA.f-kp                0.00:  Torque Abs Avg 
 TQAN.f-kp                0.00:  Torque Abs Min 
 TQAX.f-kp                0.00:  Torque Abs Max 
 TRRT.°/30m               0.70:  Turn Rotating 
 MRT .                    HCIM:  Maximum Recorded Temperature 
 TTMX.degC               70.59:  Max Tool Temp 
 VS01.             90598770F11:  Virtual Str1 SN 
 VS02.             90598769F11:  Virtual Str2 SN 
 VS03.            90515978Z1W1:  Virtual Str3 SN 
 VS04.          90584144R12X14:  Virtual Str4 SN 
 WBMN.klb                 0.00:  WOB Min 
 WITN.            Peter Wilson:  Customer Rep 
 WOBA.klb                 0.00:  WOB Avg 
 WOBX.klb                 0.00:  WOB Max 
 YP  .lhf2               29.00:  Yield Point 
~Curve Information Block
#MNEM.UNIT                 API CODE     Curve Description
#---------               -----------    ---------------------------
 TIME.HHMMSS            00 000 000 000:  GT Time & Date
 GTDEPTH.m              00 000 000 000:  GT Depth
 GTPQH.psia             00 000 000 000:  GT HR Quartz Pressure
 GTTQ.degC              00 000 000 000:  GT Quartz Temperature
 GTTN.NONE              00 000 000 000:  GT Test Number
 GTET.sec               00 000 000 000:  GT Elapsed Test Time
 GTTVD.m                00 000 000 000:  GT True Vertical Depth
#Other Information
#
#WARRANTY: Halliburton will use its best efforts to furnish customers with 
#accurate information and interpretations that are part of, and incident to, the services 
#provided.  However, Halliburton cannot and does not warrant the accuracy 
#or correctness of such information and interpretations.  Under no circumstances should any 
#such information or interpretation be relied upon as the sole basis for any drilling, 
#completion, production, or financial decision or any procedure involving any risk to the 
#safety of any drilling venture, drilling rig or its crew or any other third party.  The 
#Customer has full responsibility for all drilling, completion and production operation.  
#Halliburton makes no representations or warranties, either expressed or 
#implied, including, but not limited to, the implied warranties of merchantability or fitness 
#for a particular purpose, with respect to the services rendered.  In no event will 
#Halliburton be liable for failure to obtain any particular results or for 
#any damages, including, but not limited to, indirect, special or consequential damages, 
#resulting from the use of any information or interpretation provided by Halliburton.
#
~A           TIME           GTDEPTH  GTPQH  GTTQ  GTTN  GTET   GTTVD  
# ...
   03:14:00.072.03-Feb-2020 4017.01 3135.16 63.03 2.00 230.05 3025.96
   03:14:00.272.03-Feb-2020 4017.01 3135.16 63.03 2.00 230.25 3025.96
   03:14:00.472.03-Feb-2020 4017.01 3135.13 63.03 2.00 230.45 3025.96
   03:14:00.672.03-Feb-2020 4017.01 3135.09 63.03 2.00 230.65 3025.96
   03:14:00.872.03-Feb-2020 4017.01 3135.07 63.03 2.00 230.85 3025.96
   03:14:01.072.03-Feb-2020 4017.01 3135.13 63.03 2.00 231.05 3025.96
   03:14:01.272.03-Feb-2020 4017.01 3135.13 63.03 2.00 231.25 3025.96
   03:14:01.472.03-Feb-2020 4017.01 3135.10 63.03 2.00 231.45 3025.96
   03:14:01.672.03-Feb-2020 4017.01 3135.10 63.03 2.00 231.65 3025.96
   03:14:01.872.03-Feb-2020 4017.01 3135.08 63.03 2.00 231.85 3025.96
   03:14:02.072.03-Feb-2020 4017.01 3135.20 63.03 2.00 232.05 3025.96
   03:14:02.272.03-Feb-2020 4017.01 3135.20 63.03 2.00 232.25 3025.96
   03:14:02.472.03-Feb-2020 4017.01 3135.19 63.03 2.00 232.45 3025.96
   03:14:02.672.03-Feb-2020 4017.01 3134.88 63.03 2.00 232.65 3025.96
   03:14:02.872.03-Feb-2020 4017.01 3135.27 63.03 2.00 232.85 3025.96
   03:14:03.072.03-Feb-2020 4017.01 3135.06 63.03 2.00 233.05 3025.96
   03:14:03.272.03-Feb-2020 4017.01 3135.06 63.03 2.00 233.25 3025.96
   03:14:03.472.03-Feb-2020 4017.01 3135.10 63.03 2.00 233.45 3025.96
   03:14:03.672.03-Feb-2020 4017.01 3135.09 63.03 2.00 233.65 3025.96
   03:14:03.872.03-Feb-2020 4017.01 3135.11 63.03 2.00 233.85 3025.96
   03:14:04.073.03-Feb-2020 4017.01 3135.16 63.03 2.00 234.05 3025.96
   03:14:04.273.03-Feb-2020 4017.01 3135.16 63.03 2.00 234.25 3025.96
   03:14:04.473.03-Feb-2020 4017.01 3135.15 63.03 2.00 234.45 3025.96
   03:14:04.673.03-Feb-2020 4017.01 3135.14 63.03 2.00 234.65 3025.96
   03:14:04.873.03-Feb-2020 4017.01 3134.69 63.03 2.00 234.85 3025.96
   03:14:05.073.03-Feb-2020 4017.01 3135.25 63.03 2.00 235.05 3025.96
   03:14:05.273.03-Feb-2020 4017.01 3135.25 63.03 2.00 235.25 3025.96
   03:14:05.473.03-Feb-2020 4017.01 3135.23 63.03 2.00 235.45 3025.96
   03:14:05.673.03-Feb-2020 4017.01 3135.15 63.03 2.00 235.65 3025.96
   03:14:05.873.03-Feb-2020 4017.01 3135.12 63.03 2.00 235.85 3025.96
   03:14:06.073.03-Feb-2020 4017.01 3134.95 63.03 2.00 236.05 3025.96
   03:14:06.273.03-Feb-2020 4017.01 3134.95 63.03 2.00 236.25 3025.96
   03:14:06.473.03-Feb-2020 4017.01 3135.24 63.03 2.00 236.45 3025.96
   03:14:06.673.03-Feb-2020 4017.01 3135.15 63.03 2.00 236.65 3025.96
   03:14:06.873.03-Feb-2020 4017.01 3135.19 63.03 2.00 236.85 3025.96
   03:14:07.073.03-Feb-2020 4017.01 3134.64 63.03 2.00 237.05 3025.96
   03:14:07.273.03-Feb-2020 4017.01 3134.64 63.03 2.00 237.25 3025.96
   03:14:07.473.03-Feb-2020 4017.01 3134.95 63.03 2.00 237.45 3025.96
   03:14:07.673.03-Feb-2020 4017.01 3135.26 63.03 2.00 237.65 3025.96
   03:14:07.873.03-Feb-2020 4017.01 3135.22 63.03 2.00 237.85 3025.96
   03:14:08.073.03-Feb-2020 4017.01 3134.76 63.03 2.00 238.05 3025.96
   03:14:08.273.03-Feb-2020 4017.01 3134.76 63.03 2.00 238.25 3025.96
   03:14:08.473.03-Feb-2020 4017.01 3135.13 63.03 2.00 238.45 3025.96
   03:14:08.674.03-Feb-2020 4017.01 3135.14 63.03 2.00 238.65 3025.96
   03:14:08.874.03-Feb-2020 4017.01 3135.19 63.03 2.00 238.85 3025.96
   03:14:09.074.03-Feb-2020 4017.01 3135.20 63.03 2.00 239.05 3025.96
   03:14:09.274.03-Feb-2020 4017.01 3135.20 63.03 2.00 239.25 3025.96
   03:14:09.474.03-Feb-2020 4017.01 3135.14 63.03 2.00 239.45 3025.96
   03:14:09.674.03-Feb-2020 4017.01 3135.13 63.03 2.00 239.65 3025.96
   03:14:09.874.03-Feb-2020 4017.01 3135.08 63.03 2.00 239.85 3025.96
   03:14:10.074.03-Feb-2020 4017.01 3135.21 63.03 2.00 240.05 3025.96
   03:14:10.274.03-Feb-2020 4017.01 3135.21 63.03 2.00 240.25 3025.96
   03:14:10.474.03-Feb-2020 4017.01 3135.12 63.03 2.00 240.45 3025.96
   03:14:10.674.03-Feb-2020 4017.01 3135.14 63.03 2.00 240.65 3025.96
   03:14:10.874.03-Feb-2020 4017.01 3135.16 63.03 2.00 240.85 3025.96
   03:14:11.074.03-Feb-2020 4017.01 3135.20 63.03 2.00 241.05 3025.96
   03:14:11.274.03-Feb-2020 4017.01 3135.20 63.03 2.00 241.25 3025.96
   03:14:11.474.03-Feb-2020 4017.01 3135.25 63.02 2.00 241.45 3025.96
   03:14:11.674.03-Feb-2020 4017.01 3134.89 63.02 2.00 241.65 3025.96
   03:14:11.874.03-Feb-2020 4017.01 3135.30 63.02 2.00 241.85 3025.96
   03:14:12.074.03-Feb-2020 4017.01 3135.12 63.02 2.00 242.05 3025.96
   03:14:12.274.03-Feb-2020 4017.01 3135.12 63.02 2.00 242.25 3025.96
   03:14:12.474.03-Feb-2020 4017.01 3135.14 63.02 2.00 242.45 3025.96
   03:14:12.674.03-Feb-2020 4017.01 3135.15 63.02 2.00 242.65 3025.96
   03:14:12.874.03-Feb-2020 4017.01 3135.12 63.02 2.00 242.85 3025.96
   03:14:13.074.03-Feb-2020 4017.01 3135.20 63.02 2.00 243.05 3025.96
   03:14:13.274.03-Feb-2020 4017.01 3135.20 63.02 2.00 243.25 3025.96
   03:14:13.475.03-Feb-2020 4017.01 3135.14 63.02 2.00 243.45 3025.96
   03:14:13.675.03-Feb-2020 4017.01 3135.19 63.02 2.00 243.65 3025.96
   03:14:13.875.03-Feb-2020 4017.01 3134.72 63.02 2.00 243.85 3025.96
   03:14:14.075.03-Feb-2020 4017.01 3135.28 63.02 2.00 244.05 3025.96
   03:14:14.275.03-Feb-2020 4017.01 3135.28 63.02 2.00 244.25 3025.96
   03:14:14.475.03-Feb-2020 4017.01 3135.28 63.02 2.00 244.45 3025.96
   03:14:14.675.03-Feb-2020 4017.01 3135.16 63.02 2.00 244.65 3025.96
   03:14:14.875.03-Feb-2020 4017.01 3135.19 63.02 2.00 244.85 3025.96
   03:14:15.075.03-Feb-2020 4017.01 3134.97 63.02 2.00 245.05 3025.96
   03:14:15.275.03-Feb-2020 4017.01 3134.97 63.02 2.00 245.25 3025.96
   03:14:15.475.03-Feb-2020 4017.01 3135.32 63.02 2.00 245.45 3025.96
   03:14:15.675.03-Feb-2020 4017.01 3135.16 63.02 2.00 245.65 3025.96
   03:14:15.875.03-Feb-2020 4017.01 3135.21 63.02 2.00 245.85 3025.96
   03:14:16.075.03-Feb-2020 4017.01 3134.96 63.02 2.00 246.05 3025.96
   03:14:16.275.03-Feb-2020 4017.01 3134.96 63.02 2.00 246.25 3025.96
   03:14:16.475.03-Feb-2020 4017.01 3134.96 63.02 2.00 246.45 3025.96
   03:14:16.675.03-Feb-2020 4017.01 3135.32 63.02 2.00 246.65 3025.96
   03:14:16.875.03-Feb-2020 4017.01 3135.22 63.02 2.00 246.85 3025.96
   03:14:17.075.03-Feb-2020 4017.01 3135.00 63.02 2.00 247.05 3025.96
   03:14:17.275.03-Feb-2020 4017.01 3135.00 63.02 2.00 247.25 3025.96
   03:14:17.475.03-Feb-2020 4017.01 3135.25 63.02 2.00 247.45 3025.96
   03:14:17.675.03-Feb-2020 4017.01 3135.12 63.02 2.00 247.65 3025.96
   03:14:17.875.03-Feb-2020 4017.01 3135.25 63.02 2.00 247.85 3025.96
   03:14:18.075.03-Feb-2020 4017.01 3135.20 63.02 2.00 248.05 3025.96
   03:14:18.276.03-Feb-2020 4017.01 3135.20 63.02 2.00 248.25 3025.96
   03:14:18.476.03-Feb-2020 4017.01 3135.18 63.02 2.00 248.45 3025.96
   03:14:18.676.03-Feb-2020 4017.01 3135.17 63.02 2.00 248.65 3025.96
   03:14:18.876.03-Feb-2020 4017.01 3135.12 63.02 2.00 248.85 3025.96
   03:14:19.076.03-Feb-2020 4017.01 3135.23 63.02 2.00 249.05 3025.96
   03:14:19.276.03-Feb-2020 4017.01 3135.23 63.02 2.00 249.25 3025.96
   03:14:19.476.03-Feb-2020 4017.01 3135.17 63.02 2.00 249.45 3025.96
   03:14:19.676.03-Feb-2020 4017.01 3135.17 63.02 2.00 249.65 3025.96
   03:14:19.876.03-Feb-2020 4017.01 3135.19 63.02 2.00 249.85 3025.96
   03:14:20.076.03-Feb-2020 4017.01 3135.24 63.02 2.00 250.05 3025.96
   03:14:20.276.03-Feb-2020 4017.01 3135.24 63.02 2.00 250.25 3025.96
   03:14:20.476.03-Feb-2020 4017.01 3135.48 63.02 2.00 250.45 3025.96
   03:14:20.676.03-Feb-2020 4017.01 3134.99 63.02 2.00 250.65 3025.96
   03:14:20.876.03-Feb-2020 4017.01 3135.32 63.02 2.00 250.85 3025.96
   03:14:21.076.03-Feb-2020 4017.01 3135.14 63.02 2.00 251.05 3025.96
   03:14:21.276.03-Feb-2020 4017.01 3135.14 63.02 2.00 251.25 3025.96
   03:14:21.476.03-Feb-2020 4017.01 3135.17 63.02 2.00 251.45 3025.96
   03:14:21.676.03-Feb-2020 4017.01 3135.16 63.02 2.00 251.65 3025.96
   03:14:21.876.03-Feb-2020 4017.01 3135.20 63.02 2.00 251.85 3025.96
   03:14:22.076.03-Feb-2020 4017.01 3135.22 63.02 2.00 252.05 3025.96
   03:14:22.276.03-Feb-2020 4017.01 3135.22 63.02 2.00 252.25 3025.96
   03:14:22.476.03-Feb-2020 4017.01 3135.22 63.02 2.00 252.45 3025.96
   03:14:22.676.03-Feb-2020 4017.01 3135.18 63.02 2.00 252.65 3025.96
   03:14:22.876.03-Feb-2020 4017.01 3134.95 63.02 2.00 252.85 3025.96
