~Version Information
 VERS.                  2.0:   CWLS log ASCII Standard -VERSION 2.0
 WRAP.                   NO:   One line per depth step
~Well Information Block
#MNEM.UNIT     VALUE/NAME     DESCRIPTION
#---------     -----------    ---------------------------
 STRT.S             02:50:23 03-Feb-20: START TIME 02:50:23 03-Feb-20
 STOP.S             02:58:14 03-Feb-20: STOP TIME  02:58:14 03-Feb-20
 STEP.S                   0.00: STEP TIME
 NULL.                 -999.25: NULL VALUE
 DFWT.                        :  DIST FWL TEXT
 DFST.                        :  DIST FSL TEXT
 DMF .             Drill Floor:  DRILL MEAS FROM
 STIM.      09.30.00 26-Dec-19:  START TIME
 DATE.      08.00.00 20-Jan-20:  END TIME
 SPUD.               23-Nov-19:  SPUD DATE
 NREF.                    Grid:  NORTH REFERENCE
 HPTY.       Minimum Curvature:  HOLE POS TYPE
 DMOD.             Drill Model:  DRILL MOD DESC
 SVYD.                  Survey:  SURVEY DESC
 ILTD.               Lithology:  INTERP LTH DESC
 FTOP.          Formation Tops:  FORM TOPS DESC
 SON .        AZ-XX-0906192647:  JOB NUMBER
 WTYP.                Deviated:  WELL TYPE
 COMP.     BP Exploration (Caspian Sea) Ltd:  COMPANY
 BASE.              Azerbaijan:  LOGGING EQUIPMENT BASE LOCATION
 REGN.                 Eurasia:  REGION
 FLD .                     ACG:  FIELD NAME
 SRVC.              KCA Deutag:  CONTRACTOR
 MWDS.                    Baku:  MWD SHOP
 WELL.     A10 (Slot 20) - SCP:  WELL NAME
 JOBN.        AZ-XX-0906192647:  JOB TICKET NUMB
 RIG .                 Chirag1:  RIG NAME
 DCON.     Halliburton Sperry Drilling:  DIRECTNL CONTR
 UNIT.                     N/A:  LOGGING EQUIPMENT ID
 PDAT.          Mean Sea Level:  PERMANENT DATUM
 MDS .        Operator Entered:  MAG DATA SOURCE
 CTRY.              Azerbaijan:  COUNTRY NAME
 UWI .            /AZE00000090:  UNIQUE WELL IDENTIFIER
 API .            /AZE00000090:  API NUMBER
 CNTY.                        :  COUNTY
 PROV.                        :  PROVINCE
 STAT.                        :  STATE
 LOC .                        :  LOCATION
 LMF .             Drill Floor:  LOG MEASURED FROM
 TVDS.m                  36.60:  TVDSS CORRECTN
 LATI.deg                40.08:  LATITUDE
 LONG.deg                51.24:  LONGITUDE
 WHNS.m                  -7.94:  WELL HEAD N/S
 WHEW.m                   1.56:  WELL HEAD E/W
 UTMX.m              520429.26:  UTM X
 UTMY.m             4438973.87:  UTM Y
 DFWL.m                   0.00:  DISTANCE FWL
 DFSL.m                   0.00:  DISTANCE FSL
 SDEP.m                1455.00:  START DEPTH
 TDD .m                4047.51:  TOTAL DEPTH (DRILLER)
 VSDR.deg               112.75:  VERT SEC DIRECT
 GVFD.g                   1.00:  GRAVITY FIELD
 MFLD.nT              50261.00:  MAGNETIC FIELD
 MDIP.deg                59.52:  MAGNETIC DIP
 MDEC.deg                 6.42:  MAGNETIC DECL
 GRDC.deg                 0.17:  GRID CORRECTION
 AZTC.deg                 6.25:  AZM TOTAL CORR
 EPD .m                   0.00:  ELEVATION
 EGL .m                   0.00:  GROUND ELEVATION
 WDMS.m                 121.00:  WD ELEV
 APD .m                  36.60:  DEPTH ABOVE PD
 AGAP.m                  36.60:  AIR GAP
 VSEW.m                   1.56:  VERT SEC E/W
 VSNS.m                  -7.94:  VERT SEC N/S
 DEP .m                1140.01:  DEPTH
 EKB .m                  36.60:  KB ELEVATION
 EDF .m                  36.60:  DF ELEVATION
 VSC .                       0:  VS TO CLOSURE
 MAGU.                 1849206:  MAGUTM CHECKSUM
~Parameter Information Block
#MNEM.UNIT       Value        Description
#---------     -----------    ---------------------------
 AV  .mps                 1.70:  Ann Velocity 
 AVMX.mps                 2.30:  Max Ann Veloc 
 AZIF.deg               137.03:  Azm, Final 
 BHAT.                   Other:  BHA Type 
 BROT.°/30m               0.80:  Build Rotating 
 BS  .in                  8.00:  Bit Size 
 BTPL.psig              161.00:  Bit Press Loss 
 CABU.                      No:  Customer Abuse 
 COMM.                     ´Î`:  Run Comments 1 
 TCS .hr                  9.59:  Time Ciculation Ended 
 CV  .mps                 3.76:  Crit Velocity 
 CVMX.mps                 4.26:  Max Crit Veloc 
 DD1 .         Intigam Rahimov:  Direct Drillr 1 
 DD2 .          Rashad Gojayev:  Direct Drillr 2 
 DDSV.                   Other:  DD Service 
 DEFF.%                 100.00:  % Det Eff 
 DLRX.°/30m               1.44:  Dogleg Rot Max 
 DLSO.°/30m               0.00:  Dogleg Oriented 
 DLSX.°/30m               0.00:  Dogleg Str Max 
 DRET.      03.31.12 02-Feb-20:  Drill End Time 
 DRST.      03.31.12 02-Feb-20:  Drill Start Tim 
 DTIM.hr                  1.99:  Time Drilling 
 EDEP.m                4047.51:  End Depth 
 ENG1.           Eldar Hajiyev:  Engineer 1 
 ENG2.          Rasim Hashimov:  Engineer 2 
 ENG3.          Rustam Safarov:  Engineer 3 
 ETIM.      03.31.12 02-Feb-20:  End Time 
 FLOI.gpm               300.00:  Flow In 
 FLON.gpm               250.00:  Flow In Min 
 FLOS.cptm                0.00:  Fluid Loss 
 FLOX.gpm               330.00:  Flow In Max 
 HFLO.                      No:  High Flow 
 HPRE.                      No:  High Pressure 
 HTEM.                      No:  High Temp 
 HYDO.m                   2.50:  Hydro Offset 
 IFIN.deg                39.54:  Inc, Final 
 IMAX.deg                41.14:  Inc Max 
 IMIN.deg                39.81:  Inc Min 
 IMND.m                4005.21:  Inc Min Depth 
 IMXD.m                3948.42:  Inc Max Depth 
 JARR.                      No:  Jarring 
 LETM.      03.31.12 02-Feb-20:  Log End Time 
 LOST.hr                     0:  Lost Rig Time 
 LSTM.      03.31.12 02-Feb-20:  Log Start Time 
 MDCL.ppm             35000.00:  Mud Chlorides 
 MDES.     Inversion Oil/Synthetic:  Mud Desc 
 DFD .sg                  1.32:  Mud Density 
 MDMN.sg                  1.32:  Dens Mud Min 
 MDMX.sg                  1.32:  Dens Mud Max 
 MOIL.                      59:  Run Mud Oil % 
 MOWR.                   71:29:  Run Mud OWR 
 MSND.                       0:  Run Mud Sand % 
 MSOL.                      17:  Run Mud Solids% 
 DFV .spqt               86.00:  Mud Viscosity 
 MWOD.in                  4.75:  MWD Tool OD 
 MWSI.                      No:  Serv Intrp, MWD 
 OTIM.hr                 46.72:  Time Operating 
 PCON.           Look Like New:  Pad Condition 
 PMAX.psia             3300.00:  Press Op, Max 
 PV  .cP                 30.00:  Mud PV 
 RUN .                     400:  Run Number 
 ROPA.m/hr               35.00:  ROP Avg 
 ROPN.m/hr               25.00:  ROP Min 
 ROPX.m/hr               40.00:  ROP Max 
 RPMA.rpm                80.00:  RPM Surface Avg 
 RPMN.rpm                60.00:  RPM Surface Min 
 RPMX.rpm               100.00:  RPM Surface Max 
 RRUN.                     400:  Rig Run Number 
 RTIM.hr                  1.99:  Time Reaming 
 SAZI.deg               133.93:  Azm, Start 
 SDEP.m                4047.51:  Start Depth 
 SIDD.                      No:  Serv Intrp, DD 
 SINC.deg                40.28:  Inc, Start 
 SPPA.psig             3250.00:  SPP Avg 
 SPPN.psig             3200.00:  SPP Min 
 SPPX.psig             3300.00:  SPP Max 
 STIM.      03.31.12 02-Feb-20:  Start Time 
 SVCS.                 DD, MWD:  Services 
 SVER.                    9.20:  Sperry Version 
 TDAT.m                  47.00:  Tot Depth Attmp 
 TDDF.                      No:  Trip for DD 
 TFF .                      No:  Trip for Fail 
 TQAA.f-kp                0.00:  Torque Abs Avg 
 TQAN.f-kp                0.00:  Torque Abs Min 
 TQAX.f-kp                0.00:  Torque Abs Max 
 TRRT.°/30m               0.70:  Turn Rotating 
 MRT .                    HCIM:  Maximum Recorded Temperature 
 TTMX.degC               70.59:  Max Tool Temp 
 VS01.             90598770F11:  Virtual Str1 SN 
 VS02.             90598769F11:  Virtual Str2 SN 
 VS03.            90515978Z1W1:  Virtual Str3 SN 
 VS04.          90584144R12X14:  Virtual Str4 SN 
 WBMN.klb                 0.00:  WOB Min 
 WITN.            Peter Wilson:  Customer Rep 
 WOBA.klb                 0.00:  WOB Avg 
 WOBX.klb                 0.00:  WOB Max 
 YP  .lhf2               29.00:  Yield Point 
~Curve Information Block
#MNEM.UNIT                 API CODE     Curve Description
#---------               -----------    ---------------------------
 TIME.HHMMSS            00 000 000 000:  GT Time & Date
 GTDEPTH.m              00 000 000 000:  GT Depth
 GTPQH.psia             00 000 000 000:  GT HR Quartz Pressure
 GTTQ.degC              00 000 000 000:  GT Quartz Temperature
 GTTN.NONE              00 000 000 000:  GT Test Number
 GTET.sec               00 000 000 000:  GT Elapsed Test Time
 GTTVD.m                00 000 000 000:  GT True Vertical Depth
#Other Information
#
#WARRANTY: Halliburton will use its best efforts to furnish customers with 
#accurate information and interpretations that are part of, and incident to, the services 
#provided.  However, Halliburton cannot and does not warrant the accuracy 
#or correctness of such information and interpretations.  Under no circumstances should any 
#such information or interpretation be relied upon as the sole basis for any drilling, 
#completion, production, or financial decision or any procedure involving any risk to the 
#safety of any drilling venture, drilling rig or its crew or any other third party.  The 
#Customer has full responsibility for all drilling, completion and production operation.  
#Halliburton makes no representations or warranties, either expressed or 
#implied, including, but not limited to, the implied warranties of merchantability or fitness 
#for a particular purpose, with respect to the services rendered.  In no event will 
#Halliburton be liable for failure to obtain any particular results or for 
#any damages, including, but not limited to, indirect, special or consequential damages, 
#resulting from the use of any information or interpretation provided by Halliburton.
#
~A           TIME           GTDEPTH  GTPQH  GTTQ  GTTN  GTET   GTTVD  
# ...
   02:51:32.790.03-Feb-2020 4022.51 3158.99 64.54 1.00  69.01 3030.18
   02:51:32.990.03-Feb-2020 4022.51 3158.99 64.54 1.00  69.21 3030.18
   02:51:33.190.03-Feb-2020 4022.51 3159.17 64.54 1.00  69.41 3030.18
   02:51:33.390.03-Feb-2020 4022.51 3159.12 64.54 1.00  69.61 3030.18
   02:51:33.590.03-Feb-2020 4022.51 3159.05 64.53 1.00  69.81 3030.18
   02:51:33.790.03-Feb-2020 4022.51 3159.16 64.54 1.00  70.01 3030.18
   02:51:33.990.03-Feb-2020 4022.51 3159.16 64.54 1.00  70.21 3030.18
   02:51:34.190.03-Feb-2020 4022.51 3159.10 64.53 1.00  70.41 3030.18
   02:51:34.390.03-Feb-2020 4022.51 3159.25 64.53 1.00  70.61 3030.18
   02:51:34.590.03-Feb-2020 4022.51 3158.58 64.53 1.00  70.81 3030.18
   02:51:34.790.03-Feb-2020 4022.51 3159.11 64.53 1.00  71.01 3030.18
   02:51:34.990.03-Feb-2020 4022.51 3159.11 64.53 1.00  71.21 3030.18
   02:51:35.190.03-Feb-2020 4022.51 3159.14 64.53 1.00  71.41 3030.18
   02:51:35.390.03-Feb-2020 4022.51 3158.15 64.53 1.00  71.61 3030.18
   02:51:35.590.03-Feb-2020 4022.51 3159.73 64.53 1.00  71.82 3030.18
   02:51:35.790.03-Feb-2020 4022.51 3158.74 64.53 1.00  72.02 3030.18
   02:51:35.990.03-Feb-2020 4022.51 3158.74 64.53 1.00  72.22 3030.18
   02:51:36.190.03-Feb-2020 4022.51 3158.97 64.53 1.00  72.42 3030.18
   02:51:36.390.03-Feb-2020 4022.51 3158.99 64.53 1.00  72.62 3030.18
   02:51:36.590.03-Feb-2020 4022.51 3159.04 64.53 1.00  72.82 3030.18
   02:51:36.790.03-Feb-2020 4022.51 3159.04 64.53 1.00  73.02 3030.18
   02:51:36.990.03-Feb-2020 4022.51 3159.04 64.53 1.00  73.22 3030.18
   02:51:37.190.03-Feb-2020 4022.51 3159.26 64.53 1.00  73.42 3030.18
   02:51:37.390.03-Feb-2020 4022.51 3158.98 64.53 1.00  73.62 3030.18
   02:51:37.591.03-Feb-2020 4022.51 3159.15 64.53 1.00  73.82 3030.18
   02:51:37.791.03-Feb-2020 4022.51 3159.02 64.53 1.00  74.02 3030.18
   02:51:37.991.03-Feb-2020 4022.51 3159.02 64.53 1.00  74.22 3030.18
   02:51:38.191.03-Feb-2020 4022.51 3158.04 64.53 1.00  74.42 3030.18
   02:51:38.391.03-Feb-2020 4022.51 3159.76 64.53 1.00  74.62 3030.18
   02:51:38.591.03-Feb-2020 4022.51 3158.67 64.53 1.00  74.82 3030.18
   02:51:38.791.03-Feb-2020 4022.51 3159.01 64.53 1.00  75.02 3030.18
   02:51:38.991.03-Feb-2020 4022.51 3159.01 64.53 1.00  75.22 3030.18
   02:51:39.191.03-Feb-2020 4022.51 3158.98 64.53 1.00  75.42 3030.18
   02:51:39.391.03-Feb-2020 4022.51 3158.94 64.53 1.00  75.62 3030.18
   02:51:39.591.03-Feb-2020 4022.51 3158.87 64.53 1.00  75.82 3030.18
   02:51:39.791.03-Feb-2020 4022.51 3158.96 64.53 1.00  76.02 3030.18
   02:51:39.991.03-Feb-2020 4022.51 3158.96 64.53 1.00  76.22 3030.18
   02:51:40.191.03-Feb-2020 4022.51 3159.03 64.53 1.00  76.42 3030.18
   02:51:40.391.03-Feb-2020 4022.51 3158.98 64.53 1.00  76.62 3030.18
   02:51:40.591.03-Feb-2020 4022.51 3158.93 64.52 1.00  76.82 3030.18
   02:51:40.791.03-Feb-2020 4022.51 3158.95 64.52 1.00  77.02 3030.18
   02:51:40.991.03-Feb-2020 4022.51 3158.95 64.52 1.00  77.22 3030.18
   02:51:41.191.03-Feb-2020 4022.51 3159.08 64.52 1.00  77.42 3030.18
   02:51:41.391.03-Feb-2020 4022.51 3158.75 64.52 1.00  77.62 3030.18
   02:51:41.591.03-Feb-2020 4022.51 3158.96 64.52 1.00  77.82 3030.18
   02:51:41.791.03-Feb-2020 4022.51 3158.67 64.52 1.00  78.02 3030.18
   02:51:41.991.03-Feb-2020 4022.51 3158.67 64.52 1.00  78.22 3030.18
   02:51:42.191.03-Feb-2020 4022.51 3158.76 64.52 1.00  78.42 3030.18
   02:51:42.392.03-Feb-2020 4022.51 3158.99 64.52 1.00  78.62 3030.18
   02:51:42.592.03-Feb-2020 4022.51 3158.95 64.52 1.00  78.82 3030.18
   02:51:42.792.03-Feb-2020 4022.51 3158.84 64.52 1.00  79.02 3030.18
   02:51:42.992.03-Feb-2020 4022.51 3158.84 64.52 1.00  79.22 3030.18
   02:51:43.192.03-Feb-2020 4022.51 3158.92 64.52 1.00  79.42 3030.18
   02:51:43.392.03-Feb-2020 4022.51 3158.87 64.52 1.00  79.62 3030.18
   02:51:43.592.03-Feb-2020 4022.51 3158.92 64.52 1.00  79.82 3030.18
   02:51:43.792.03-Feb-2020 4022.51 3158.94 64.52 1.00  80.02 3030.18
   02:51:43.992.03-Feb-2020 4022.51 3158.94 64.52 1.00  80.22 3030.18
   02:51:44.192.03-Feb-2020 4022.51 3159.58 64.52 1.00  80.42 3030.18
   02:51:44.392.03-Feb-2020 4022.51 3158.59 64.52 1.00  80.62 3030.18
   02:51:44.592.03-Feb-2020 4022.51 3159.07 64.52 1.00  80.82 3030.18
   02:51:44.792.03-Feb-2020 4022.51 3158.19 64.52 1.00  81.02 3030.18
   02:51:44.992.03-Feb-2020 4022.51 3158.19 64.52 1.00  81.22 3030.18
   02:51:45.192.03-Feb-2020 4022.51 3158.51 64.52 1.00  81.42 3030.18
   02:51:45.392.03-Feb-2020 4022.51 3159.17 64.52 1.00  81.62 3030.18
   02:51:45.592.03-Feb-2020 4022.51 3158.76 64.52 1.00  81.82 3030.18
   02:51:45.792.03-Feb-2020 4022.51 3158.85 64.52 1.00  82.02 3030.18
   02:51:45.992.03-Feb-2020 4022.51 3158.85 64.52 1.00  82.22 3030.18
   02:51:46.192.03-Feb-2020 4022.51 3158.76 64.52 1.00  82.42 3030.18
   02:51:46.392.03-Feb-2020 4022.51 3158.00 64.52 1.00  82.62 3030.18
   02:51:46.592.03-Feb-2020 4022.51 3159.51 64.52 1.00  82.82 3030.18
   02:51:46.792.03-Feb-2020 4022.51 3158.43 64.52 1.00  83.02 3030.18
   02:51:46.993.03-Feb-2020 4022.51 3158.43 64.52 1.00  83.22 3030.18
   02:51:47.193.03-Feb-2020 4022.51 3158.84 64.52 1.00  83.42 3030.18
   02:51:47.393.03-Feb-2020 4022.51 3158.77 64.52 1.00  83.62 3030.18
   02:51:47.593.03-Feb-2020 4022.51 3158.01 64.52 1.00  83.82 3030.18
   02:51:47.793.03-Feb-2020 4022.51 3159.54 64.52 1.00  84.02 3030.18
   02:51:47.993.03-Feb-2020 4022.51 3159.54 64.52 1.00  84.22 3030.18
   02:51:48.193.03-Feb-2020 4022.51 3159.06 64.52 1.00  84.42 3030.18
   02:51:48.393.03-Feb-2020 4022.51 3158.74 64.51 1.00  84.62 3030.18
   02:51:48.593.03-Feb-2020 4022.51 3158.80 64.51 1.00  84.82 3030.18
   02:51:48.793.03-Feb-2020 4022.51 3158.78 64.51 1.00  85.02 3030.18
   02:51:48.993.03-Feb-2020 4022.51 3158.78 64.51 1.00  85.22 3030.18
   02:51:49.193.03-Feb-2020 4022.51 3158.74 64.51 1.00  85.42 3030.18
   02:51:49.393.03-Feb-2020 4022.51 3158.96 64.51 1.00  85.62 3030.18
   02:51:49.593.03-Feb-2020 4022.51 3158.84 64.51 1.00  85.82 3030.18
   02:51:49.793.03-Feb-2020 4022.51 3158.79 64.51 1.00  86.02 3030.18
   02:51:49.993.03-Feb-2020 4022.51 3158.79 64.51 1.00  86.22 3030.18
   02:51:50.193.03-Feb-2020 4022.51 3158.83 64.51 1.00  86.42 3030.18
   02:51:50.393.03-Feb-2020 4022.51 3158.72 64.51 1.00  86.62 3030.18
   02:51:50.593.03-Feb-2020 4022.51 3159.02 64.51 1.00  86.82 3030.18
   02:51:50.793.03-Feb-2020 4022.51 3158.74 64.51 1.00  87.02 3030.18
   02:51:50.993.03-Feb-2020 4022.51 3158.74 64.51 1.00  87.22 3030.18
   02:51:51.193.03-Feb-2020 4022.51 3159.05 64.51 1.00  87.42 3030.18
   02:51:51.393.03-Feb-2020 4022.51 3158.61 64.51 1.00  87.62 3030.18
   02:51:51.593.03-Feb-2020 4022.51 3158.83 64.51 1.00  87.82 3030.18
   02:51:51.794.03-Feb-2020 4022.51 3158.87 64.51 1.00  88.02 3030.18
   02:51:51.994.03-Feb-2020 4022.51 3158.87 64.51 1.00  88.22 3030.18
   02:51:52.194.03-Feb-2020 4022.51 3158.79 64.51 1.00  88.42 3030.18
   02:51:52.394.03-Feb-2020 4022.51 3158.82 64.51 1.00  88.62 3030.18
   02:51:52.594.03-Feb-2020 4022.51 3158.81 64.51 1.00  88.82 3030.18
   02:51:52.794.03-Feb-2020 4022.51 3158.81 64.51 1.00  89.02 3030.18
   02:51:52.994.03-Feb-2020 4022.51 3158.81 64.51 1.00  89.22 3030.18
   02:51:53.194.03-Feb-2020 4022.51 3158.80 64.51 1.00  89.42 3030.18
   02:51:53.394.03-Feb-2020 4022.51 3158.19 64.51 1.00  89.62 3030.18
   02:51:53.594.03-Feb-2020 4022.51 3159.36 64.51 1.00  89.82 3030.18
   02:51:53.794.03-Feb-2020 4022.51 3158.35 64.51 1.00  90.02 3030.18
   02:51:53.994.03-Feb-2020 4022.51 3158.35 64.51 1.00  90.22 3030.18
   02:51:54.194.03-Feb-2020 4022.51 3158.52 64.51 1.00  90.42 3030.18
   02:51:54.394.03-Feb-2020 4022.51 3158.74 64.51 1.00  90.62 3030.18
   02:51:54.594.03-Feb-2020 4022.51 3158.61 64.51 1.00  90.82 3030.18
   02:51:54.794.03-Feb-2020 4022.51 3159.00 64.51 1.00  91.02 3030.18
   02:51:54.994.03-Feb-2020 4022.51 3159.00 64.51 1.00  91.22 3030.18
   02:51:55.194.03-Feb-2020 4022.51 3158.77 64.51 1.00  91.42 3030.18
   02:51:55.394.03-Feb-2020 4022.51 3158.75 64.51 1.00  91.62 3030.18
   02:51:55.594.03-Feb-2020 4022.51 3158.75 64.51 1.00  91.82 3030.18
