~Version Information
 VERS.                  2.0:   CWLS log ASCII Standard -VERSION 2.0
 WRAP.                   NO:   One line per depth step
~Well Information Block
#MNEM.UNIT     VALUE/NAME     DESCRIPTION
#---------     -----------    ---------------------------
 STRT.S             02:50:23 03-Feb-20: START TIME 02:50:23 03-Feb-20
 STOP.S             02:58:14 03-Feb-20: STOP TIME  02:58:14 03-Feb-20
 STEP.S                   0.00: STEP TIME
 NULL.                 -999.25: NULL VALUE
 DFWT.                        :  DIST FWL TEXT
 DFST.                        :  DIST FSL TEXT
 DMF .             Drill Floor:  DRILL MEAS FROM
 STIM.      09.30.00 26-Dec-19:  START TIME
 DATE.      08.00.00 20-Jan-20:  END TIME
 SPUD.               23-Nov-19:  SPUD DATE
 NREF.                    Grid:  NORTH REFERENCE
 HPTY.       Minimum Curvature:  HOLE POS TYPE
 DMOD.             Drill Model:  DRILL MOD DESC
 SVYD.                  Survey:  SURVEY DESC
 ILTD.               Lithology:  INTERP LTH DESC
 FTOP.          Formation Tops:  FORM TOPS DESC
 SON .        AZ-XX-0906192647:  JOB NUMBER
 WTYP.                Deviated:  WELL TYPE
 COMP.     BP Exploration (Caspian Sea) Ltd:  COMPANY
 BASE.              Azerbaijan:  LOGGING EQUIPMENT BASE LOCATION
 REGN.                 Eurasia:  REGION
 FLD .                     ACG:  FIELD NAME
 SRVC.              KCA Deutag:  CONTRACTOR
 MWDS.                    Baku:  MWD SHOP
 WELL.     A10 (Slot 20) - SCP:  WELL NAME
 JOBN.        AZ-XX-0906192647:  JOB TICKET NUMB
 RIG .                 Chirag1:  RIG NAME
 DCON.     Halliburton Sperry Drilling:  DIRECTNL CONTR
 UNIT.                     N/A:  LOGGING EQUIPMENT ID
 PDAT.          Mean Sea Level:  PERMANENT DATUM
 MDS .        Operator Entered:  MAG DATA SOURCE
 CTRY.              Azerbaijan:  COUNTRY NAME
 UWI .            /AZE00000090:  UNIQUE WELL IDENTIFIER
 API .            /AZE00000090:  API NUMBER
 CNTY.                        :  COUNTY
 PROV.                        :  PROVINCE
 STAT.                        :  STATE
 LOC .                        :  LOCATION
 LMF .             Drill Floor:  LOG MEASURED FROM
 TVDS.m                  36.60:  TVDSS CORRECTN
 LATI.deg                40.08:  LATITUDE
 LONG.deg                51.24:  LONGITUDE
 WHNS.m                  -7.94:  WELL HEAD N/S
 WHEW.m                   1.56:  WELL HEAD E/W
 UTMX.m              520429.26:  UTM X
 UTMY.m             4438973.87:  UTM Y
 DFWL.m                   0.00:  DISTANCE FWL
 DFSL.m                   0.00:  DISTANCE FSL
 SDEP.m                1455.00:  START DEPTH
 TDD .m                4047.51:  TOTAL DEPTH (DRILLER)
 VSDR.deg               112.75:  VERT SEC DIRECT
 GVFD.g                   1.00:  GRAVITY FIELD
 MFLD.nT              50261.00:  MAGNETIC FIELD
 MDIP.deg                59.52:  MAGNETIC DIP
 MDEC.deg                 6.42:  MAGNETIC DECL
 GRDC.deg                 0.17:  GRID CORRECTION
 AZTC.deg                 6.25:  AZM TOTAL CORR
 EPD .m                   0.00:  ELEVATION
 EGL .m                   0.00:  GROUND ELEVATION
 WDMS.m                 121.00:  WD ELEV
 APD .m                  36.60:  DEPTH ABOVE PD
 AGAP.m                  36.60:  AIR GAP
 VSEW.m                   1.56:  VERT SEC E/W
 VSNS.m                  -7.94:  VERT SEC N/S
 DEP .m                1140.01:  DEPTH
 EKB .m                  36.60:  KB ELEVATION
 EDF .m                  36.60:  DF ELEVATION
 VSC .                       0:  VS TO CLOSURE
 MAGU.                 1849206:  MAGUTM CHECKSUM
~Parameter Information Block
#MNEM.UNIT       Value        Description
#---------     -----------    ---------------------------
 AV  .mps                 1.70:  Ann Velocity 
 AVMX.mps                 2.30:  Max Ann Veloc 
 AZIF.deg               137.03:  Azm, Final 
 BHAT.                   Other:  BHA Type 
 BROT.°/30m               0.80:  Build Rotating 
 BS  .in                  8.00:  Bit Size 
 BTPL.psig              161.00:  Bit Press Loss 
 CABU.                      No:  Customer Abuse 
 COMM.                     ´Î`:  Run Comments 1 
 TCS .hr                  9.59:  Time Ciculation Ended 
 CV  .mps                 3.76:  Crit Velocity 
 CVMX.mps                 4.26:  Max Crit Veloc 
 DD1 .         Intigam Rahimov:  Direct Drillr 1 
 DD2 .          Rashad Gojayev:  Direct Drillr 2 
 DDSV.                   Other:  DD Service 
 DEFF.%                 100.00:  % Det Eff 
 DLRX.°/30m               1.44:  Dogleg Rot Max 
 DLSO.°/30m               0.00:  Dogleg Oriented 
 DLSX.°/30m               0.00:  Dogleg Str Max 
 DRET.      03.31.12 02-Feb-20:  Drill End Time 
 DRST.      03.31.12 02-Feb-20:  Drill Start Tim 
 DTIM.hr                  1.99:  Time Drilling 
 EDEP.m                4047.51:  End Depth 
 ENG1.           Eldar Hajiyev:  Engineer 1 
 ENG2.          Rasim Hashimov:  Engineer 2 
 ENG3.          Rustam Safarov:  Engineer 3 
 ETIM.      03.31.12 02-Feb-20:  End Time 
 FLOI.gpm               300.00:  Flow In 
 FLON.gpm               250.00:  Flow In Min 
 FLOS.cptm                0.00:  Fluid Loss 
 FLOX.gpm               330.00:  Flow In Max 
 HFLO.                      No:  High Flow 
 HPRE.                      No:  High Pressure 
 HTEM.                      No:  High Temp 
 HYDO.m                   2.50:  Hydro Offset 
 IFIN.deg                39.54:  Inc, Final 
 IMAX.deg                41.14:  Inc Max 
 IMIN.deg                39.81:  Inc Min 
 IMND.m                4005.21:  Inc Min Depth 
 IMXD.m                3948.42:  Inc Max Depth 
 JARR.                      No:  Jarring 
 LETM.      03.31.12 02-Feb-20:  Log End Time 
 LOST.hr                     0:  Lost Rig Time 
 LSTM.      03.31.12 02-Feb-20:  Log Start Time 
 MDCL.ppm             35000.00:  Mud Chlorides 
 MDES.     Inversion Oil/Synthetic:  Mud Desc 
 DFD .sg                  1.32:  Mud Density 
 MDMN.sg                  1.32:  Dens Mud Min 
 MDMX.sg                  1.32:  Dens Mud Max 
 MOIL.                      59:  Run Mud Oil % 
 MOWR.                   71:29:  Run Mud OWR 
 MSND.                       0:  Run Mud Sand % 
 MSOL.                      17:  Run Mud Solids% 
 DFV .spqt               86.00:  Mud Viscosity 
 MWOD.in                  4.75:  MWD Tool OD 
 MWSI.                      No:  Serv Intrp, MWD 
 OTIM.hr                 46.72:  Time Operating 
 PCON.           Look Like New:  Pad Condition 
 PMAX.psia             3300.00:  Press Op, Max 
 PV  .cP                 30.00:  Mud PV 
 RUN .                     400:  Run Number 
 ROPA.m/hr               35.00:  ROP Avg 
 ROPN.m/hr               25.00:  ROP Min 
 ROPX.m/hr               40.00:  ROP Max 
 RPMA.rpm                80.00:  RPM Surface Avg 
 RPMN.rpm                60.00:  RPM Surface Min 
 RPMX.rpm               100.00:  RPM Surface Max 
 RRUN.                     400:  Rig Run Number 
 RTIM.hr                  1.99:  Time Reaming 
 SAZI.deg               133.93:  Azm, Start 
 SDEP.m                4047.51:  Start Depth 
 SIDD.                      No:  Serv Intrp, DD 
 SINC.deg                40.28:  Inc, Start 
 SPPA.psig             3250.00:  SPP Avg 
 SPPN.psig             3200.00:  SPP Min 
 SPPX.psig             3300.00:  SPP Max 
 STIM.      03.31.12 02-Feb-20:  Start Time 
 SVCS.                 DD, MWD:  Services 
 SVER.                    9.20:  Sperry Version 
 TDAT.m                  47.00:  Tot Depth Attmp 
 TDDF.                      No:  Trip for DD 
 TFF .                      No:  Trip for Fail 
 TQAA.f-kp                0.00:  Torque Abs Avg 
 TQAN.f-kp                0.00:  Torque Abs Min 
 TQAX.f-kp                0.00:  Torque Abs Max 
 TRRT.°/30m               0.70:  Turn Rotating 
 MRT .                    HCIM:  Maximum Recorded Temperature 
 TTMX.degC               70.59:  Max Tool Temp 
 VS01.             90598770F11:  Virtual Str1 SN 
 VS02.             90598769F11:  Virtual Str2 SN 
 VS03.            90515978Z1W1:  Virtual Str3 SN 
 VS04.          90584144R12X14:  Virtual Str4 SN 
 WBMN.klb                 0.00:  WOB Min 
 WITN.            Peter Wilson:  Customer Rep 
 WOBA.klb                 0.00:  WOB Avg 
 WOBX.klb                 0.00:  WOB Max 
 YP  .lhf2               29.00:  Yield Point 
~Curve Information Block
#MNEM.UNIT                 API CODE     Curve Description
#---------               -----------    ---------------------------
 TIME.HHMMSS            00 000 000 000:  GT Time & Date
 GTDEPTH.m              00 000 000 000:  GT Depth
 GTPQH.psia             00 000 000 000:  GT HR Quartz Pressure
 GTTQ.degC              00 000 000 000:  GT Quartz Temperature
 GTTN.NONE              00 000 000 000:  GT Test Number
 GTET.sec               00 000 000 000:  GT Elapsed Test Time
 GTTVD.m                00 000 000 000:  GT True Vertical Depth
#Other Information
#
#WARRANTY: Halliburton will use its best efforts to furnish customers with 
#accurate information and interpretations that are part of, and incident to, the services 
#provided.  However, Halliburton cannot and does not warrant the accuracy 
#or correctness of such information and interpretations.  Under no circumstances should any 
#such information or interpretation be relied upon as the sole basis for any drilling, 
#completion, production, or financial decision or any procedure involving any risk to the 
#safety of any drilling venture, drilling rig or its crew or any other third party.  The 
#Customer has full responsibility for all drilling, completion and production operation.  
#Halliburton makes no representations or warranties, either expressed or 
#implied, including, but not limited to, the implied warranties of merchantability or fitness 
#for a particular purpose, with respect to the services rendered.  In no event will 
#Halliburton be liable for failure to obtain any particular results or for 
#any damages, including, but not limited to, indirect, special or consequential damages, 
#resulting from the use of any information or interpretation provided by Halliburton.
#
~A           TIME           GTDEPTH  GTPQH  GTTQ  GTTN  GTET   GTTVD  
# ...
   02:55:22.838.03-Feb-2020 4022.51 3158.43 64.30 1.00 299.06 3030.18
   02:55:23.038.03-Feb-2020 4022.51 3158.43 64.30 1.00 299.26 3030.18
   02:55:23.238.03-Feb-2020 4022.51 3158.53 64.30 1.00 299.46 3030.18
   02:55:23.438.03-Feb-2020 4022.51 3140.46 64.30 1.00 299.66 3030.18
   02:55:23.638.03-Feb-2020 4022.51 3038.16 64.30 1.00 299.86 3030.18
   02:55:23.838.03-Feb-2020 4022.51 3018.89 64.30 1.00 300.06 3030.18
   02:55:24.038.03-Feb-2020 4022.51 3018.89 64.30 1.00 300.26 3030.18
   02:55:24.238.03-Feb-2020 4022.51 3011.84 64.30 1.00 300.46 3030.18
   02:55:24.438.03-Feb-2020 4022.51 3009.49 64.30 1.00 300.66 3030.18
   02:55:24.638.03-Feb-2020 4022.51 3005.34 64.30 1.00 300.86 3030.18
   02:55:24.838.03-Feb-2020 4022.51 3006.95 64.29 1.00 301.06 3030.18
   02:55:25.038.03-Feb-2020 4022.51 3006.95 64.29 1.00 301.26 3030.18
   02:55:25.238.03-Feb-2020 4022.51 3004.37 64.29 1.00 301.46 3030.18
   02:55:25.438.03-Feb-2020 4022.51 3004.90 64.29 1.00 301.66 3030.18
   02:55:25.638.03-Feb-2020 4022.51 3005.67 64.29 1.00 301.86 3030.18
   02:55:25.838.03-Feb-2020 4022.51 3006.65 64.29 1.00 302.06 3030.18
   02:55:26.038.03-Feb-2020 4022.51 3006.65 64.29 1.00 302.26 3030.18
   02:55:26.238.03-Feb-2020 4022.51 3013.24 64.29 1.00 302.46 3030.18
   02:55:26.438.03-Feb-2020 4022.51 3013.66 64.29 1.00 302.66 3030.18
   02:55:26.639.03-Feb-2020 4022.51 3016.22 64.29 1.00 302.86 3030.18
   02:55:26.839.03-Feb-2020 4022.51 3016.58 64.29 1.00 303.06 3030.18
   02:55:27.039.03-Feb-2020 4022.51 3016.58 64.29 1.00 303.26 3030.18
   02:55:27.239.03-Feb-2020 4022.51 3015.26 64.29 1.00 303.46 3030.18
   02:55:27.439.03-Feb-2020 4022.51 3012.75 64.29 1.00 303.66 3030.18
   02:55:27.639.03-Feb-2020 4022.51 3018.09 64.29 1.00 303.86 3030.18
   02:55:27.839.03-Feb-2020 4022.51 3015.23 64.29 1.00 304.06 3030.18
   02:55:28.039.03-Feb-2020 4022.51 3015.23 64.29 1.00 304.26 3030.18
   02:55:28.239.03-Feb-2020 4022.51 3016.69 64.29 1.00 304.46 3030.18
   02:55:28.439.03-Feb-2020 4022.51 3016.71 64.29 1.00 304.66 3030.18
   02:55:28.639.03-Feb-2020 4022.51 3014.49 64.29 1.00 304.86 3030.18
   02:55:28.839.03-Feb-2020 4022.51 3012.90 64.29 1.00 305.06 3030.18
   02:55:29.039.03-Feb-2020 4022.51 3012.90 64.29 1.00 305.26 3030.18
   02:55:29.239.03-Feb-2020 4022.51 3014.55 64.29 1.00 305.46 3030.18
   02:55:29.439.03-Feb-2020 4022.51 3014.57 64.29 1.00 305.66 3030.18
   02:55:29.639.03-Feb-2020 4022.51 3013.86 64.29 1.00 305.86 3030.18
   02:55:29.839.03-Feb-2020 4022.51 3012.80 64.29 1.00 306.06 3030.18
   02:55:30.039.03-Feb-2020 4022.51 3012.80 64.29 1.00 306.26 3030.18
   02:55:30.239.03-Feb-2020 4022.51 3016.39 64.29 1.00 306.46 3030.18
   02:55:30.439.03-Feb-2020 4022.51 3016.49 64.29 1.00 306.66 3030.18
   02:55:30.639.03-Feb-2020 4022.51 3014.64 64.29 1.00 306.86 3030.18
   02:55:30.839.03-Feb-2020 4022.51 3016.30 64.29 1.00 307.06 3030.18
   02:55:31.039.03-Feb-2020 4022.51 3016.30 64.29 1.00 307.26 3030.18
   02:55:31.239.03-Feb-2020 4022.51 3018.74 64.29 1.00 307.46 3030.18
   02:55:31.440.03-Feb-2020 4022.51 3017.99 64.29 1.00 307.66 3030.18
   02:55:31.640.03-Feb-2020 4022.51 3015.91 64.29 1.00 307.86 3030.18
   02:55:31.840.03-Feb-2020 4022.51 3015.22 64.29 1.00 308.06 3030.18
   02:55:32.040.03-Feb-2020 4022.51 3015.22 64.29 1.00 308.26 3030.18
   02:55:32.240.03-Feb-2020 4022.51 3017.72 64.29 1.00 308.46 3030.18
   02:55:32.440.03-Feb-2020 4022.51 3017.60 64.29 1.00 308.66 3030.18
   02:55:32.640.03-Feb-2020 4022.51 3016.57 64.29 1.00 308.86 3030.18
   02:55:32.840.03-Feb-2020 4022.51 3021.46 64.29 1.00 309.06 3030.18
   02:55:33.040.03-Feb-2020 4022.51 3021.46 64.29 1.00 309.26 3030.18
   02:55:33.240.03-Feb-2020 4022.51 3026.69 64.29 1.00 309.46 3030.18
   02:55:33.440.03-Feb-2020 4022.51 3034.45 64.29 1.00 309.66 3030.18
   02:55:33.640.03-Feb-2020 4022.51 3067.60 64.28 1.00 309.86 3030.18
   02:55:33.840.03-Feb-2020 4022.51 3142.84 64.28 1.00 310.06 3030.18
   02:55:34.040.03-Feb-2020 4022.51 3142.84 64.28 1.00 310.26 3030.18
   02:55:34.240.03-Feb-2020 4022.51 3153.02 64.28 1.00 310.47 3030.18
   02:55:34.440.03-Feb-2020 4022.51 3153.07 64.28 1.00 310.67 3030.18
   02:55:34.640.03-Feb-2020 4022.51 3153.67 64.28 1.00 310.87 3030.18
   02:55:34.840.03-Feb-2020 4022.51 3153.76 64.28 1.00 311.07 3030.18
   02:55:35.040.03-Feb-2020 4022.51 3153.76 64.28 1.00 311.27 3030.18
   02:55:35.240.03-Feb-2020 4022.51 3154.20 64.28 1.00 311.47 3030.18
   02:55:35.440.03-Feb-2020 4022.51 3154.41 64.28 1.00 311.67 3030.18
   02:55:35.640.03-Feb-2020 4022.51 3154.16 64.28 1.00 311.87 3030.18
   02:55:35.840.03-Feb-2020 4022.51 3154.97 64.28 1.00 312.07 3030.18
   02:55:36.040.03-Feb-2020 4022.51 3154.97 64.28 1.00 312.27 3030.18
   02:55:36.241.03-Feb-2020 4022.51 3155.19 64.28 1.00 312.47 3030.18
   02:55:36.441.03-Feb-2020 4022.51 3155.15 64.28 1.00 312.67 3030.18
   02:55:36.641.03-Feb-2020 4022.51 3155.17 64.28 1.00 312.87 3030.18
   02:55:36.841.03-Feb-2020 4022.51 3155.11 64.28 1.00 313.07 3030.18
   02:55:37.041.03-Feb-2020 4022.51 3155.11 64.28 1.00 313.27 3030.18
   02:55:37.241.03-Feb-2020 4022.51 3155.42 64.28 1.00 313.47 3030.18
   02:55:37.441.03-Feb-2020 4022.51 3155.64 64.28 1.00 313.67 3030.18
   02:55:37.641.03-Feb-2020 4022.51 3155.59 64.28 1.00 313.87 3030.18
   02:55:37.841.03-Feb-2020 4022.51 3155.71 64.28 1.00 314.07 3030.18
   02:55:38.041.03-Feb-2020 4022.51 3155.71 64.28 1.00 314.27 3030.18
   02:55:38.241.03-Feb-2020 4022.51 3155.64 64.28 1.00 314.47 3030.18
   02:55:38.441.03-Feb-2020 4022.51 3155.79 64.28 1.00 314.67 3030.18
   02:55:38.641.03-Feb-2020 4022.51 3155.88 64.28 1.00 314.87 3030.18
   02:55:38.841.03-Feb-2020 4022.51 3155.90 64.28 1.00 315.07 3030.18
   02:55:39.041.03-Feb-2020 4022.51 3155.90 64.28 1.00 315.27 3030.18
   02:55:39.241.03-Feb-2020 4022.51 3155.98 64.28 1.00 315.47 3030.18
   02:55:39.441.03-Feb-2020 4022.51 3155.99 64.28 1.00 315.67 3030.18
   02:55:39.641.03-Feb-2020 4022.51 3155.99 64.28 1.00 315.87 3030.18
   02:55:39.841.03-Feb-2020 4022.51 3156.13 64.28 1.00 316.07 3030.18
   02:55:40.041.03-Feb-2020 4022.51 3156.13 64.28 1.00 316.27 3030.18
   02:55:40.241.03-Feb-2020 4022.51 3155.77 64.28 1.00 316.47 3030.18
   02:55:40.441.03-Feb-2020 4022.51 3156.52 64.28 1.00 316.67 3030.18
   02:55:40.641.03-Feb-2020 4022.51 3156.07 64.28 1.00 316.87 3030.18
   02:55:40.841.03-Feb-2020 4022.51 3156.42 64.28 1.00 317.07 3030.18
   02:55:41.042.03-Feb-2020 4022.51 3156.42 64.28 1.00 317.27 3030.18
   02:55:41.242.03-Feb-2020 4022.51 3156.40 64.28 1.00 317.47 3030.18
   02:55:41.442.03-Feb-2020 4022.51 3156.43 64.28 1.00 317.67 3030.18
   02:55:41.642.03-Feb-2020 4022.51 3156.41 64.28 1.00 317.87 3030.18
   02:55:41.842.03-Feb-2020 4022.51 3156.45 64.28 1.00 318.07 3030.18
   02:55:42.042.03-Feb-2020 4022.51 3156.45 64.28 1.00 318.27 3030.18
   02:55:42.242.03-Feb-2020 4022.51 3156.45 64.28 1.00 318.47 3030.18
   02:55:42.442.03-Feb-2020 4022.51 3156.50 64.28 1.00 318.67 3030.18
   02:55:42.642.03-Feb-2020 4022.51 3156.44 64.28 1.00 318.87 3030.18
   02:55:42.842.03-Feb-2020 4022.51 3156.48 64.28 1.00 319.07 3030.18
   02:55:43.042.03-Feb-2020 4022.51 3156.48 64.28 1.00 319.27 3030.18
   02:55:43.242.03-Feb-2020 4022.51 3156.83 64.28 1.00 319.47 3030.18
   02:55:43.442.03-Feb-2020 4022.51 3156.67 64.28 1.00 319.67 3030.18
   02:55:43.642.03-Feb-2020 4022.51 3156.70 64.28 1.00 319.87 3030.18
   02:55:43.842.03-Feb-2020 4022.51 3156.72 64.28 1.00 320.07 3030.18
   02:55:44.042.03-Feb-2020 4022.51 3156.72 64.28 1.00 320.27 3030.18
   02:55:44.242.03-Feb-2020 4022.51 3156.97 64.28 1.00 320.47 3030.18
   02:55:44.442.03-Feb-2020 4022.51 3156.75 64.28 1.00 320.67 3030.18
   02:55:44.642.03-Feb-2020 4022.51 3156.86 64.28 1.00 320.87 3030.18
   02:55:44.842.03-Feb-2020 4022.51 3156.82 64.28 1.00 321.07 3030.18
   02:55:45.042.03-Feb-2020 4022.51 3156.82 64.28 1.00 321.27 3030.18
   02:55:45.242.03-Feb-2020 4022.51 3156.73 64.28 1.00 321.47 3030.18
   02:55:45.442.03-Feb-2020 4022.51 3156.76 64.28 1.00 321.67 3030.18
   02:55:45.642.03-Feb-2020 4022.51 3156.82 64.27 1.00 321.87 3030.18
