~Version Information
 VERS.                  2.0:   CWLS log ASCII Standard -VERSION 2.0
 WRAP.                   NO:   One line per depth step
~Well Information Block
#MNEM.UNIT     VALUE/NAME     DESCRIPTION
#---------     -----------    ---------------------------
 STRT.S             08:33:17 03-Feb-20: START TIME 08:33:17 03-Feb-20
 STOP.S             08:41:10 03-Feb-20: STOP TIME  08:41:10 03-Feb-20
 STEP.S                   0.00: STEP TIME
 NULL.                 -999.25: NULL VALUE
 DFWT.                        :  DIST FWL TEXT
 DFST.                        :  DIST FSL TEXT
 DMF .             Drill Floor:  DRILL MEAS FROM
 STIM.      09.30.00 26-Dec-19:  START TIME
 DATE.      08.00.00 20-Jan-20:  END TIME
 SPUD.               23-Nov-19:  SPUD DATE
 NREF.                    Grid:  NORTH REFERENCE
 HPTY.       Minimum Curvature:  HOLE POS TYPE
 DMOD.             Drill Model:  DRILL MOD DESC
 SVYD.                  Survey:  SURVEY DESC
 ILTD.               Lithology:  INTERP LTH DESC
 FTOP.          Formation Tops:  FORM TOPS DESC
 SON .        AZ-XX-0906192647:  JOB NUMBER
 WTYP.                Deviated:  WELL TYPE
 COMP.     BP Exploration (Caspian Sea) Ltd:  COMPANY
 BASE.              Azerbaijan:  LOGGING EQUIPMENT BASE LOCATION
 REGN.                 Eurasia:  REGION
 FLD .                     ACG:  FIELD NAME
 SRVC.              KCA Deutag:  CONTRACTOR
 MWDS.                    Baku:  MWD SHOP
 WELL.     A10 (Slot 20) - SCP:  WELL NAME
 JOBN.        AZ-XX-0906192647:  JOB TICKET NUMB
 RIG .                 Chirag1:  RIG NAME
 DCON.     Halliburton Sperry Drilling:  DIRECTNL CONTR
 UNIT.                     N/A:  LOGGING EQUIPMENT ID
 PDAT.          Mean Sea Level:  PERMANENT DATUM
 MDS .        Operator Entered:  MAG DATA SOURCE
 CTRY.              Azerbaijan:  COUNTRY NAME
 UWI .            /AZE00000090:  UNIQUE WELL IDENTIFIER
 API .            /AZE00000090:  API NUMBER
 CNTY.                        :  COUNTY
 PROV.                        :  PROVINCE
 STAT.                        :  STATE
 LOC .                        :  LOCATION
 LMF .             Drill Floor:  LOG MEASURED FROM
 TVDS.m                  36.60:  TVDSS CORRECTN
 LATI.deg                40.08:  LATITUDE
 LONG.deg                51.24:  LONGITUDE
 WHNS.m                  -7.94:  WELL HEAD N/S
 WHEW.m                   1.56:  WELL HEAD E/W
 UTMX.m              520429.26:  UTM X
 UTMY.m             4438973.87:  UTM Y
 DFWL.m                   0.00:  DISTANCE FWL
 DFSL.m                   0.00:  DISTANCE FSL
 SDEP.m                1455.00:  START DEPTH
 TDD .m                4047.51:  TOTAL DEPTH (DRILLER)
 VSDR.deg               112.75:  VERT SEC DIRECT
 GVFD.g                   1.00:  GRAVITY FIELD
 MFLD.nT              50261.00:  MAGNETIC FIELD
 MDIP.deg                59.52:  MAGNETIC DIP
 MDEC.deg                 6.42:  MAGNETIC DECL
 GRDC.deg                 0.17:  GRID CORRECTION
 AZTC.deg                 6.25:  AZM TOTAL CORR
 EPD .m                   0.00:  ELEVATION
 EGL .m                   0.00:  GROUND ELEVATION
 WDMS.m                 121.00:  WD ELEV
 APD .m                  36.60:  DEPTH ABOVE PD
 AGAP.m                  36.60:  AIR GAP
 VSEW.m                   1.56:  VERT SEC E/W
 VSNS.m                  -7.94:  VERT SEC N/S
 DEP .m                1140.01:  DEPTH
 EKB .m                  36.60:  KB ELEVATION
 EDF .m                  36.60:  DF ELEVATION
 VSC .                       0:  VS TO CLOSURE
 MAGU.                 1849206:  MAGUTM CHECKSUM
~Parameter Information Block
#MNEM.UNIT       Value        Description
#---------     -----------    ---------------------------
 AV  .mps                 1.70:  Ann Velocity 
 AVMX.mps                 2.30:  Max Ann Veloc 
 AZIF.deg               137.03:  Azm, Final 
 BHAT.                   Other:  BHA Type 
 BROT.°/30m               0.80:  Build Rotating 
 BS  .in                  8.00:  Bit Size 
 BTPL.psig              161.00:  Bit Press Loss 
 CABU.                      No:  Customer Abuse 
 COMM.                     äör:  Run Comments 1 
 TCS .hr                  9.59:  Time Ciculation Ended 
 CV  .mps                 3.76:  Crit Velocity 
 CVMX.mps                 4.26:  Max Crit Veloc 
 DD1 .         Intigam Rahimov:  Direct Drillr 1 
 DD2 .          Rashad Gojayev:  Direct Drillr 2 
 DDSV.                   Other:  DD Service 
 DEFF.%                 100.00:  % Det Eff 
 DLRX.°/30m               1.44:  Dogleg Rot Max 
 DLSO.°/30m               0.00:  Dogleg Oriented 
 DLSX.°/30m               0.00:  Dogleg Str Max 
 DRET.      03.31.12 02-Feb-20:  Drill End Time 
 DRST.      03.31.12 02-Feb-20:  Drill Start Tim 
 DTIM.hr                  1.99:  Time Drilling 
 EDEP.m                4047.51:  End Depth 
 ENG1.           Eldar Hajiyev:  Engineer 1 
 ENG2.          Rasim Hashimov:  Engineer 2 
 ENG3.          Rustam Safarov:  Engineer 3 
 ETIM.      03.31.12 02-Feb-20:  End Time 
 FLOI.gpm               300.00:  Flow In 
 FLON.gpm               250.00:  Flow In Min 
 FLOS.cptm                0.00:  Fluid Loss 
 FLOX.gpm               330.00:  Flow In Max 
 HFLO.                      No:  High Flow 
 HPRE.                      No:  High Pressure 
 HTEM.                      No:  High Temp 
 HYDO.m                   2.50:  Hydro Offset 
 IFIN.deg                39.54:  Inc, Final 
 IMAX.deg                41.14:  Inc Max 
 IMIN.deg                39.81:  Inc Min 
 IMND.m                4005.21:  Inc Min Depth 
 IMXD.m                3948.42:  Inc Max Depth 
 JARR.                      No:  Jarring 
 LETM.      03.31.12 02-Feb-20:  Log End Time 
 LOST.hr                     0:  Lost Rig Time 
 LSTM.      03.31.12 02-Feb-20:  Log Start Time 
 MDCL.ppm             35000.00:  Mud Chlorides 
 MDES.     Inversion Oil/Synthetic:  Mud Desc 
 DFD .sg                  1.32:  Mud Density 
 MDMN.sg                  1.32:  Dens Mud Min 
 MDMX.sg                  1.32:  Dens Mud Max 
 MOIL.                      59:  Run Mud Oil % 
 MOWR.                   71:29:  Run Mud OWR 
 MSND.                       0:  Run Mud Sand % 
 MSOL.                      17:  Run Mud Solids% 
 DFV .spqt               86.00:  Mud Viscosity 
 MWOD.in                  4.75:  MWD Tool OD 
 MWSI.                      No:  Serv Intrp, MWD 
 OTIM.hr                 46.72:  Time Operating 
 PCON.           Look Like New:  Pad Condition 
 PMAX.psia             3300.00:  Press Op, Max 
 PV  .cP                 30.00:  Mud PV 
 RUN .                     400:  Run Number 
 ROPA.m/hr               35.00:  ROP Avg 
 ROPN.m/hr               25.00:  ROP Min 
 ROPX.m/hr               40.00:  ROP Max 
 RPMA.rpm                80.00:  RPM Surface Avg 
 RPMN.rpm                60.00:  RPM Surface Min 
 RPMX.rpm               100.00:  RPM Surface Max 
 RRUN.                     400:  Rig Run Number 
 RTIM.hr                  1.99:  Time Reaming 
 SAZI.deg               133.93:  Azm, Start 
 SDEP.m                4047.51:  Start Depth 
 SIDD.                      No:  Serv Intrp, DD 
 SINC.deg                40.28:  Inc, Start 
 SPPA.psig             3250.00:  SPP Avg 
 SPPN.psig             3200.00:  SPP Min 
 SPPX.psig             3300.00:  SPP Max 
 STIM.      03.31.12 02-Feb-20:  Start Time 
 SVCS.                 DD, MWD:  Services 
 SVER.                    9.20:  Sperry Version 
 TDAT.m                  47.00:  Tot Depth Attmp 
 TDDF.                      No:  Trip for DD 
 TFF .                      No:  Trip for Fail 
 TQAA.f-kp                0.00:  Torque Abs Avg 
 TQAN.f-kp                0.00:  Torque Abs Min 
 TQAX.f-kp                0.00:  Torque Abs Max 
 TRRT.°/30m               0.70:  Turn Rotating 
 MRT .                    HCIM:  Maximum Recorded Temperature 
 TTMX.degC               70.59:  Max Tool Temp 
 VS01.             90598770F11:  Virtual Str1 SN 
 VS02.             90598769F11:  Virtual Str2 SN 
 VS03.            90515978Z1W1:  Virtual Str3 SN 
 VS04.          90584144R12X14:  Virtual Str4 SN 
 WBMN.klb                 0.00:  WOB Min 
 WITN.            Peter Wilson:  Customer Rep 
 WOBA.klb                 0.00:  WOB Avg 
 WOBX.klb                 0.00:  WOB Max 
 YP  .lhf2               29.00:  Yield Point 
~Curve Information Block
#MNEM.UNIT                 API CODE     Curve Description
#---------               -----------    ---------------------------
 TIME.HHMMSS            00 000 000 000:  GT Time & Date
 GTDEPTH.m              00 000 000 000:  GT Depth
 GTPQH.psia             00 000 000 000:  GT HR Quartz Pressure
 GTTQ.degC              00 000 000 000:  GT Quartz Temperature
 GTTN.NONE              00 000 000 000:  GT Test Number
 GTET.sec               00 000 000 000:  GT Elapsed Test Time
 GTTVD.m                00 000 000 000:  GT True Vertical Depth
#Other Information
#
#WARRANTY: Halliburton will use its best efforts to furnish customers with 
#accurate information and interpretations that are part of, and incident to, the services 
#provided.  However, Halliburton cannot and does not warrant the accuracy 
#or correctness of such information and interpretations.  Under no circumstances should any 
#such information or interpretation be relied upon as the sole basis for any drilling, 
#completion, production, or financial decision or any procedure involving any risk to the 
#safety of any drilling venture, drilling rig or its crew or any other third party.  The 
#Customer has full responsibility for all drilling, completion and production operation.  
#Halliburton makes no representations or warranties, either expressed or 
#implied, including, but not limited to, the implied warranties of merchantability or fitness 
#for a particular purpose, with respect to the services rendered.  In no event will 
#Halliburton be liable for failure to obtain any particular results or for 
#any damages, including, but not limited to, indirect, special or consequential damages, 
#resulting from the use of any information or interpretation provided by Halliburton.
#
~A           TIME           GTDEPTH  GTPQH  GTTQ  GTTN   GTET   GTTVD  
   08:33:17.083.03-Feb-2020 4013.71 6065.21 64.66 11.00   0.00 3023.43
   08:33:17.283.03-Feb-2020 4013.71 6065.21 64.66 11.00   0.20 3023.43
   08:33:17.483.03-Feb-2020 4013.71 6067.71 64.66 11.00   0.40 3023.43
   08:33:17.683.03-Feb-2020 4013.71 6075.57 64.66 11.00   0.60 3023.43
   08:33:17.883.03-Feb-2020 4013.71 6073.38 64.66 11.00   0.80 3023.43
   08:33:18.083.03-Feb-2020 4013.71 6074.61 64.66 11.00   1.00 3023.43
   08:33:18.283.03-Feb-2020 4013.71 6074.61 64.66 11.00   1.20 3023.43
   08:33:18.483.03-Feb-2020 4013.71 6066.16 64.65 11.00   1.40 3023.43
   08:33:18.683.03-Feb-2020 4013.71 6076.71 64.65 11.00   1.60 3023.43
   08:33:18.883.03-Feb-2020 4013.71 6070.44 64.65 11.00   1.80 3023.43
   08:33:19.083.03-Feb-2020 4013.71 6078.09 64.65 11.00   2.00 3023.43
   08:33:19.283.03-Feb-2020 4013.71 6078.09 64.65 11.00   2.20 3023.43
   08:33:19.483.03-Feb-2020 4013.71 6067.94 64.65 11.00   2.40 3023.43
   08:33:19.683.03-Feb-2020 4013.71 6079.30 64.65 11.00   2.60 3023.43
   08:33:19.883.03-Feb-2020 4013.71 6073.63 64.65 11.00   2.80 3023.43
   08:33:20.083.03-Feb-2020 4013.71 6081.54 64.65 11.00   3.00 3023.43
   08:33:20.283.03-Feb-2020 4013.71 6081.54 64.65 11.00   3.20 3023.43
   08:33:20.483.03-Feb-2020 4013.71 6082.72 64.65 11.00   3.40 3023.43
   08:33:20.683.03-Feb-2020 4013.71 6082.54 64.65 11.00   3.60 3023.43
   08:33:20.883.03-Feb-2020 4013.71 6082.15 64.65 11.00   3.80 3023.43
   08:33:21.083.03-Feb-2020 4013.71 6082.38 64.65 11.00   4.00 3023.43
   08:33:21.283.03-Feb-2020 4013.71 6082.38 64.65 11.00   4.20 3023.43
   08:33:21.483.03-Feb-2020 4013.71 6081.51 64.65 11.00   4.40 3023.43
   08:33:21.683.03-Feb-2020 4013.71 6082.20 64.65 11.00   4.60 3023.43
   08:33:21.883.03-Feb-2020 4013.71 6080.75 64.65 11.00   4.80 3023.43
   08:33:22.083.03-Feb-2020 4013.71 6079.43 64.65 11.00   5.00 3023.43
   08:33:22.283.03-Feb-2020 4013.71 6079.43 64.65 11.00   5.20 3023.43
   08:33:22.483.03-Feb-2020 4013.71 6078.32 64.65 11.00   5.40 3023.43
   08:33:22.683.03-Feb-2020 4013.71 6068.72 64.65 11.00   5.60 3023.43
   08:33:22.883.03-Feb-2020 4013.71 6077.37 64.65 11.00   5.80 3023.43
   08:33:23.083.03-Feb-2020 4013.71 6070.47 64.65 11.00   6.00 3023.43
   08:33:23.283.03-Feb-2020 4013.71 6070.47 64.65 11.00   6.20 3023.43
   08:33:23.483.03-Feb-2020 4013.71 6074.56 64.65 11.00   6.40 3023.43
   08:33:23.683.03-Feb-2020 4013.71 6075.07 64.65 11.00   6.60 3023.43
   08:33:23.883.03-Feb-2020 4013.71 6074.46 64.65 11.00   6.80 3023.43
   08:33:24.083.03-Feb-2020 4013.71 6074.72 64.65 11.00   7.00 3023.43
   08:33:24.283.03-Feb-2020 4013.71 6074.72 64.65 11.00   7.20 3023.43
   08:33:24.483.03-Feb-2020 4013.71 6077.10 64.65 11.00   7.40 3023.43
   08:33:24.683.03-Feb-2020 4013.71 6077.54 64.65 11.00   7.60 3023.43
   08:33:24.883.03-Feb-2020 4013.71 6077.49 64.65 11.00   7.80 3023.43
   08:33:25.083.03-Feb-2020 4013.71 6078.20 64.64 11.00   8.00 3023.43
   08:33:25.283.03-Feb-2020 4013.71 6078.20 64.64 11.00   8.20 3023.43
   08:33:25.483.03-Feb-2020 4013.71 6078.01 64.64 11.00   8.40 3023.43
   08:33:25.683.03-Feb-2020 4013.71 6082.15 64.64 11.00   8.60 3023.43
   08:33:25.883.03-Feb-2020 4013.71 6083.05 64.64 11.00   8.80 3023.43
   08:33:26.083.03-Feb-2020 4013.71 6081.72 64.64 11.00   9.00 3023.43
   08:33:26.283.03-Feb-2020 4013.71 6081.72 64.64 11.00   9.20 3023.43
   08:33:26.483.03-Feb-2020 4013.71 6077.11 64.64 11.00   9.40 3023.43
   08:33:26.683.03-Feb-2020 4013.71 6077.66 64.64 11.00   9.60 3023.43
   08:33:26.883.03-Feb-2020 4013.71 6078.60 64.64 11.00   9.80 3023.43
   08:33:27.083.03-Feb-2020 4013.71 6081.20 64.64 11.00  10.00 3023.43
   08:33:27.283.03-Feb-2020 4013.71 6081.20 64.64 11.00  10.20 3023.43
   08:33:27.483.03-Feb-2020 4013.71 6072.84 64.64 11.00  10.40 3023.43
   08:33:27.683.03-Feb-2020 4013.71 6082.46 64.64 11.00  10.60 3023.43
   08:33:27.883.03-Feb-2020 4013.71 6076.75 64.64 11.00  10.80 3023.43
   08:33:28.083.03-Feb-2020 4013.71 6082.95 64.64 11.00  11.00 3023.43
   08:33:28.283.03-Feb-2020 4013.71 6082.95 64.64 11.00  11.20 3023.43
   08:33:28.483.03-Feb-2020 4013.71 6082.65 64.64 11.00  11.40 3023.43
   08:33:28.683.03-Feb-2020 4013.71 6075.98 64.64 11.00  11.60 3023.43
   08:33:28.883.03-Feb-2020 4013.71 6081.12 64.64 11.00  11.80 3023.43
   08:33:29.083.03-Feb-2020 4013.71 6074.54 64.64 11.00  12.00 3023.43
   08:33:29.283.03-Feb-2020 4013.71 6074.54 64.64 11.00  12.20 3023.43
   08:33:29.483.03-Feb-2020 4013.71 6074.54 64.64 11.00  12.40 3023.43
   08:33:29.683.03-Feb-2020 4013.71 6080.53 64.64 11.00  12.60 3023.43
   08:33:29.883.03-Feb-2020 4013.71 6080.30 64.64 11.00  12.80 3023.43
   08:33:30.083.03-Feb-2020 4013.71 6080.58 64.64 11.00  13.00 3023.43
   08:33:30.283.03-Feb-2020 4013.71 6080.58 64.64 11.00  13.20 3023.43
   08:33:30.483.03-Feb-2020 4013.71 6081.59 64.64 11.00  13.40 3023.43
   08:33:30.683.03-Feb-2020 4013.71 6075.72 64.64 11.00  13.60 3023.43
   08:33:30.883.03-Feb-2020 4013.71 6081.37 64.64 11.00  13.80 3023.43
   08:33:31.083.03-Feb-2020 4013.71 6079.32 64.64 11.00  14.00 3023.43
   08:33:31.283.03-Feb-2020 4013.71 6079.32 64.64 11.00  14.20 3023.43
   08:33:31.483.03-Feb-2020 4013.71 6083.78 64.64 11.00  14.40 3023.43
   08:33:31.683.03-Feb-2020 4013.71 6083.69 64.63 11.00  14.60 3023.43
   08:33:31.883.03-Feb-2020 4013.71 6086.73 64.63 11.00  14.80 3023.43
   08:33:32.083.03-Feb-2020 4013.71 6140.60 64.63 11.00  15.00 3023.43
   08:33:32.283.03-Feb-2020 4013.71 6140.60 64.63 11.00  15.20 3023.43
   08:33:32.483.03-Feb-2020 4013.71 6245.96 64.63 11.00  15.40 3023.43
   08:33:32.683.03-Feb-2020 4013.71 6323.45 64.63 11.00  15.60 3023.43
   08:33:32.883.03-Feb-2020 4013.71 6393.62 64.63 11.00  15.80 3023.43
   08:33:33.083.03-Feb-2020 4013.71 6456.35 64.63 11.00  16.00 3023.43
   08:33:33.283.03-Feb-2020 4013.71 6456.35 64.63 11.00  16.20 3023.43
   08:33:33.483.03-Feb-2020 4013.71 6573.68 64.63 11.00  16.40 3023.43
   08:33:33.683.03-Feb-2020 4013.71 6617.69 64.63 11.00  16.60 3023.43
   08:33:33.883.03-Feb-2020 4013.71 6651.10 64.63 11.00  16.80 3023.43
   08:33:34.083.03-Feb-2020 4013.71 6717.87 64.63 11.00  17.00 3023.43
   08:33:34.283.03-Feb-2020 4013.71 6717.87 64.63 11.00  17.20 3023.43
   08:33:34.483.03-Feb-2020 4013.71 6910.80 64.63 11.00  17.40 3023.43
   08:33:34.683.03-Feb-2020 4013.71 6830.80 64.63 11.00  17.60 3023.43
   08:33:34.883.03-Feb-2020 4013.71 6755.94 64.63 11.00  17.80 3023.43
   08:33:35.083.03-Feb-2020 4013.71 6792.97 64.63 11.00  18.00 3023.43
   08:33:35.283.03-Feb-2020 4013.71 6792.97 64.63 11.00  18.20 3023.43
   08:33:35.483.03-Feb-2020 4013.71 6823.78 64.63 11.00  18.40 3023.43
   08:33:35.683.03-Feb-2020 4013.71 6840.06 64.63 11.00  18.60 3023.43
   08:33:35.883.03-Feb-2020 4013.71 6868.08 64.63 11.00  18.80 3023.43
   08:33:36.083.03-Feb-2020 4013.71 6910.58 64.63 11.00  19.00 3023.43
   08:33:36.283.03-Feb-2020 4013.71 6910.58 64.63 11.00  19.20 3023.43
   08:33:36.483.03-Feb-2020 4013.71 6923.83 64.63 11.00  19.40 3023.43
   08:33:36.683.03-Feb-2020 4013.71 6895.76 64.63 11.00  19.60 3023.43
   08:33:36.883.03-Feb-2020 4013.71 6858.19 64.63 11.00  19.80 3023.43
   08:33:37.083.03-Feb-2020 4013.71 6913.08 64.63 11.00  20.00 3023.43
   08:33:37.283.03-Feb-2020 4013.71 6913.08 64.63 11.00  20.20 3023.43
   08:33:37.483.03-Feb-2020 4013.71 6925.35 64.63 11.00  20.40 3023.43
   08:33:37.683.03-Feb-2020 4013.71 6900.92 64.63 11.00  20.60 3023.43
   08:33:37.883.03-Feb-2020 4013.71 6875.99 64.63 11.00  20.80 3023.43
   08:33:38.083.03-Feb-2020 4013.71 6872.83 64.63 11.00  21.00 3023.43
   08:33:38.283.03-Feb-2020 4013.71 6872.83 64.63 11.00  21.20 3023.43
   08:33:38.483.03-Feb-2020 4013.71 6886.14 64.63 11.00  21.40 3023.43
   08:33:38.683.03-Feb-2020 4013.71 6892.46 64.63 11.00  21.60 3023.43
   08:33:38.883.03-Feb-2020 4013.71 6898.67 64.63 11.00  21.80 3023.43
   08:33:39.083.03-Feb-2020 4013.71 6900.53 64.63 11.00  22.00 3023.43
   08:33:39.283.03-Feb-2020 4013.71 6900.53 64.63 11.00  22.20 3023.43
   08:33:39.483.03-Feb-2020 4013.71 6904.70 64.63 11.00  22.40 3023.43
