~Version Information
 VERS.                  2.0:   CWLS log ASCII Standard -VERSION 2.0
 WRAP.                   NO:   One line per depth step
~Well Information Block
#MNEM.UNIT     VALUE/NAME     DESCRIPTION
#---------     -----------    ---------------------------
 STRT.S             03:10:10 03-Feb-20: START TIME 03:10:10 03-Feb-20
 STOP.S             03:17:58 03-Feb-20: STOP TIME  03:17:58 03-Feb-20
 STEP.S                   0.00: STEP TIME
 NULL.                 -999.25: NULL VALUE
 DFWT.                        :  DIST FWL TEXT
 DFST.                        :  DIST FSL TEXT
 DMF .             Drill Floor:  DRILL MEAS FROM
 STIM.      09.30.00 26-Dec-19:  START TIME
 DATE.      08.00.00 20-Jan-20:  END TIME
 SPUD.               23-Nov-19:  SPUD DATE
 NREF.                    Grid:  NORTH REFERENCE
 HPTY.       Minimum Curvature:  HOLE POS TYPE
 DMOD.             Drill Model:  DRILL MOD DESC
 SVYD.                  Survey:  SURVEY DESC
 ILTD.               Lithology:  INTERP LTH DESC
 FTOP.          Formation Tops:  FORM TOPS DESC
 SON .        AZ-XX-0906192647:  JOB NUMBER
 WTYP.                Deviated:  WELL TYPE
 COMP.     BP Exploration (Caspian Sea) Ltd:  COMPANY
 BASE.              Azerbaijan:  LOGGING EQUIPMENT BASE LOCATION
 REGN.                 Eurasia:  REGION
 FLD .                     ACG:  FIELD NAME
 SRVC.              KCA Deutag:  CONTRACTOR
 MWDS.                    Baku:  MWD SHOP
 WELL.     A10 (Slot 20) - SCP:  WELL NAME
 JOBN.        AZ-XX-0906192647:  JOB TICKET NUMB
 RIG .                 Chirag1:  RIG NAME
 DCON.     Halliburton Sperry Drilling:  DIRECTNL CONTR
 UNIT.                     N/A:  LOGGING EQUIPMENT ID
 PDAT.          Mean Sea Level:  PERMANENT DATUM
 MDS .        Operator Entered:  MAG DATA SOURCE
 CTRY.              Azerbaijan:  COUNTRY NAME
 UWI .            /AZE00000090:  UNIQUE WELL IDENTIFIER
 API .            /AZE00000090:  API NUMBER
 CNTY.                        :  COUNTY
 PROV.                        :  PROVINCE
 STAT.                        :  STATE
 LOC .                        :  LOCATION
 LMF .             Drill Floor:  LOG MEASURED FROM
 TVDS.m                  36.60:  TVDSS CORRECTN
 LATI.deg                40.08:  LATITUDE
 LONG.deg                51.24:  LONGITUDE
 WHNS.m                  -7.94:  WELL HEAD N/S
 WHEW.m                   1.56:  WELL HEAD E/W
 UTMX.m              520429.26:  UTM X
 UTMY.m             4438973.87:  UTM Y
 DFWL.m                   0.00:  DISTANCE FWL
 DFSL.m                   0.00:  DISTANCE FSL
 SDEP.m                1455.00:  START DEPTH
 TDD .m                4047.51:  TOTAL DEPTH (DRILLER)
 VSDR.deg               112.75:  VERT SEC DIRECT
 GVFD.g                   1.00:  GRAVITY FIELD
 MFLD.nT              50261.00:  MAGNETIC FIELD
 MDIP.deg                59.52:  MAGNETIC DIP
 MDEC.deg                 6.42:  MAGNETIC DECL
 GRDC.deg                 0.17:  GRID CORRECTION
 AZTC.deg                 6.25:  AZM TOTAL CORR
 EPD .m                   0.00:  ELEVATION
 EGL .m                   0.00:  GROUND ELEVATION
 WDMS.m                 121.00:  WD ELEV
 APD .m                  36.60:  DEPTH ABOVE PD
 AGAP.m                  36.60:  AIR GAP
 VSEW.m                   1.56:  VERT SEC E/W
 VSNS.m                  -7.94:  VERT SEC N/S
 DEP .m                1140.01:  DEPTH
 EKB .m                  36.60:  KB ELEVATION
 EDF .m                  36.60:  DF ELEVATION
 VSC .                       0:  VS TO CLOSURE
 MAGU.                 1849206:  MAGUTM CHECKSUM
~Parameter Information Block
#MNEM.UNIT       Value        Description
#---------     -----------    ---------------------------
 AV  .mps                 1.70:  Ann Velocity 
 AVMX.mps                 2.30:  Max Ann Veloc 
 AZIF.deg               137.03:  Azm, Final 
 BHAT.                   Other:  BHA Type 
 BROT.°/30m               0.80:  Build Rotating 
 BS  .in                  8.00:  Bit Size 
 BTPL.psig              161.00:  Bit Press Loss 
 CABU.                      No:  Customer Abuse 
 TCS .hr                  9.59:  Time Ciculation Ended 
 CV  .mps                 3.76:  Crit Velocity 
 CVMX.mps                 4.26:  Max Crit Veloc 
 DD1 .         Intigam Rahimov:  Direct Drillr 1 
 DD2 .          Rashad Gojayev:  Direct Drillr 2 
 DDSV.                   Other:  DD Service 
 DEFF.%                 100.00:  % Det Eff 
 DLRX.°/30m               1.44:  Dogleg Rot Max 
 DLSO.°/30m               0.00:  Dogleg Oriented 
 DLSX.°/30m               0.00:  Dogleg Str Max 
 DRET.      03.31.12 02-Feb-20:  Drill End Time 
 DRST.      03.31.12 02-Feb-20:  Drill Start Tim 
 DTIM.hr                  1.99:  Time Drilling 
 EDEP.m                4047.51:  End Depth 
 ENG1.           Eldar Hajiyev:  Engineer 1 
 ENG2.          Rasim Hashimov:  Engineer 2 
 ENG3.          Rustam Safarov:  Engineer 3 
 ETIM.      03.31.12 02-Feb-20:  End Time 
 FLOI.gpm               300.00:  Flow In 
 FLON.gpm               250.00:  Flow In Min 
 FLOS.cptm                0.00:  Fluid Loss 
 FLOX.gpm               330.00:  Flow In Max 
 HFLO.                      No:  High Flow 
 HPRE.                      No:  High Pressure 
 HTEM.                      No:  High Temp 
 HYDO.m                   2.50:  Hydro Offset 
 IFIN.deg                39.54:  Inc, Final 
 IMAX.deg                41.14:  Inc Max 
 IMIN.deg                39.81:  Inc Min 
 IMND.m                4005.21:  Inc Min Depth 
 IMXD.m                3948.42:  Inc Max Depth 
 JARR.                      No:  Jarring 
 LETM.      03.31.12 02-Feb-20:  Log End Time 
 LOST.hr                     0:  Lost Rig Time 
 LSTM.      03.31.12 02-Feb-20:  Log Start Time 
 MDCL.ppm             35000.00:  Mud Chlorides 
 MDES.     Inversion Oil/Synthetic:  Mud Desc 
 DFD .sg                  1.32:  Mud Density 
 MDMN.sg                  1.32:  Dens Mud Min 
 MDMX.sg                  1.32:  Dens Mud Max 
 MOIL.                      59:  Run Mud Oil % 
 MOWR.                   71:29:  Run Mud OWR 
 MSND.                       0:  Run Mud Sand % 
 MSOL.                      17:  Run Mud Solids% 
 DFV .spqt               86.00:  Mud Viscosity 
 MWOD.in                  4.75:  MWD Tool OD 
 MWSI.                      No:  Serv Intrp, MWD 
 OTIM.hr                 46.72:  Time Operating 
 PCON.           Look Like New:  Pad Condition 
 PMAX.psia             3300.00:  Press Op, Max 
 PV  .cP                 30.00:  Mud PV 
 RUN .                     400:  Run Number 
 ROPA.m/hr               35.00:  ROP Avg 
 ROPN.m/hr               25.00:  ROP Min 
 ROPX.m/hr               40.00:  ROP Max 
 RPMA.rpm                80.00:  RPM Surface Avg 
 RPMN.rpm                60.00:  RPM Surface Min 
 RPMX.rpm               100.00:  RPM Surface Max 
 RRUN.                     400:  Rig Run Number 
 RTIM.hr                  1.99:  Time Reaming 
 SAZI.deg               133.93:  Azm, Start 
 SDEP.m                4047.51:  Start Depth 
 SIDD.                      No:  Serv Intrp, DD 
 SINC.deg                40.28:  Inc, Start 
 SPPA.psig             3250.00:  SPP Avg 
 SPPN.psig             3200.00:  SPP Min 
 SPPX.psig             3300.00:  SPP Max 
 STIM.      03.31.12 02-Feb-20:  Start Time 
 SVCS.                 DD, MWD:  Services 
 SVER.                    9.20:  Sperry Version 
 TDAT.m                  47.00:  Tot Depth Attmp 
 TDDF.                      No:  Trip for DD 
 TFF .                      No:  Trip for Fail 
 TQAA.f-kp                0.00:  Torque Abs Avg 
 TQAN.f-kp                0.00:  Torque Abs Min 
 TQAX.f-kp                0.00:  Torque Abs Max 
 TRRT.°/30m               0.70:  Turn Rotating 
 MRT .                    HCIM:  Maximum Recorded Temperature 
 TTMX.degC               70.59:  Max Tool Temp 
 VS01.             90598770F11:  Virtual Str1 SN 
 VS02.             90598769F11:  Virtual Str2 SN 
 VS03.            90515978Z1W1:  Virtual Str3 SN 
 VS04.          90584144R12X14:  Virtual Str4 SN 
 WBMN.klb                 0.00:  WOB Min 
 WITN.            Peter Wilson:  Customer Rep 
 WOBA.klb                 0.00:  WOB Avg 
 WOBX.klb                 0.00:  WOB Max 
 YP  .lhf2               29.00:  Yield Point 
~Curve Information Block
#MNEM.UNIT                 API CODE     Curve Description
#---------               -----------    ---------------------------
 TIME.HHMMSS            00 000 000 000:  GT Time & Date
 GTDEPTH.m              00 000 000 000:  GT Depth
 GTPQH.psia             00 000 000 000:  GT HR Quartz Pressure
 GTTQ.degC              00 000 000 000:  GT Quartz Temperature
 GTTN.NONE              00 000 000 000:  GT Test Number
 GTET.sec               00 000 000 000:  GT Elapsed Test Time
 GTTVD.m                00 000 000 000:  GT True Vertical Depth
#Other Information
#
#WARRANTY: Halliburton will use its best efforts to furnish customers with 
#accurate information and interpretations that are part of, and incident to, the services 
#provided.  However, Halliburton cannot and does not warrant the accuracy 
#or correctness of such information and interpretations.  Under no circumstances should any 
#such information or interpretation be relied upon as the sole basis for any drilling, 
#completion, production, or financial decision or any procedure involving any risk to the 
#safety of any drilling venture, drilling rig or its crew or any other third party.  The 
#Customer has full responsibility for all drilling, completion and production operation.  
#Halliburton makes no representations or warranties, either expressed or 
#implied, including, but not limited to, the implied warranties of merchantability or fitness 
#for a particular purpose, with respect to the services rendered.  In no event will 
#Halliburton be liable for failure to obtain any particular results or for 
#any damages, including, but not limited to, indirect, special or consequential damages, 
#resulting from the use of any information or interpretation provided by Halliburton.
#
~A           TIME           GTDEPTH  GTPQH  GTTQ  GTTN  GTET   GTTVD  
# ...
   03:15:09.086.03-Feb-2020 4017.01 3055.19 63.00 2.00 299.06 3025.96
   03:15:09.286.03-Feb-2020 4017.01 3055.19 63.00 2.00 299.26 3025.96
   03:15:09.486.03-Feb-2020 4017.01 3056.41 63.00 2.00 299.46 3025.96
   03:15:09.686.03-Feb-2020 4017.01 3054.64 63.00 2.00 299.66 3025.96
   03:15:09.886.03-Feb-2020 4017.01 3052.20 63.00 2.00 299.86 3025.96
   03:15:10.086.03-Feb-2020 4017.01 3054.98 63.00 2.00 300.06 3025.96
   03:15:10.286.03-Feb-2020 4017.01 3054.98 63.00 2.00 300.26 3025.96
   03:15:10.486.03-Feb-2020 4017.01 3055.06 63.00 2.00 300.46 3025.96
   03:15:10.686.03-Feb-2020 4017.01 3052.91 63.00 2.00 300.66 3025.96
   03:15:10.887.03-Feb-2020 4017.01 3055.05 63.00 2.00 300.86 3025.96
   03:15:11.087.03-Feb-2020 4017.01 3053.35 63.00 2.00 301.06 3025.96
   03:15:11.287.03-Feb-2020 4017.01 3053.35 63.00 2.00 301.26 3025.96
   03:15:11.487.03-Feb-2020 4017.01 3053.02 63.00 2.00 301.46 3025.96
   03:15:11.687.03-Feb-2020 4017.01 3053.36 63.00 2.00 301.66 3025.96
   03:15:11.887.03-Feb-2020 4017.01 3053.48 63.00 2.00 301.86 3025.96
   03:15:12.087.03-Feb-2020 4017.01 3053.23 63.00 2.00 302.06 3025.96
   03:15:12.287.03-Feb-2020 4017.01 3053.23 63.00 2.00 302.26 3025.96
   03:15:12.487.03-Feb-2020 4017.01 3052.90 63.00 2.00 302.46 3025.96
   03:15:12.687.03-Feb-2020 4017.01 3052.77 63.00 2.00 302.66 3025.96
   03:15:12.887.03-Feb-2020 4017.01 3053.68 63.00 2.00 302.86 3025.96
   03:15:13.087.03-Feb-2020 4017.01 3053.12 63.00 2.00 303.06 3025.96
   03:15:13.287.03-Feb-2020 4017.01 3053.12 63.00 2.00 303.26 3025.96
   03:15:13.487.03-Feb-2020 4017.01 3052.31 63.00 2.00 303.46 3025.96
   03:15:13.687.03-Feb-2020 4017.01 3052.35 63.00 2.00 303.66 3025.96
   03:15:13.887.03-Feb-2020 4017.01 3052.56 63.00 2.00 303.86 3025.96
   03:15:14.087.03-Feb-2020 4017.01 3050.89 63.00 2.00 304.06 3025.96
   03:15:14.287.03-Feb-2020 4017.01 3050.89 63.00 2.00 304.26 3025.96
   03:15:14.487.03-Feb-2020 4017.01 3052.42 63.00 2.00 304.46 3025.96
   03:15:14.687.03-Feb-2020 4017.01 3053.17 63.00 2.00 304.66 3025.96
   03:15:14.887.03-Feb-2020 4017.01 3052.35 63.00 2.00 304.86 3025.96
   03:15:15.087.03-Feb-2020 4017.01 3052.15 63.00 2.00 305.06 3025.96
   03:15:15.287.03-Feb-2020 4017.01 3052.15 63.00 2.00 305.26 3025.96
   03:15:15.487.03-Feb-2020 4017.01 3051.76 63.00 2.00 305.46 3025.96
   03:15:15.688.03-Feb-2020 4017.01 3052.50 63.00 2.00 305.66 3025.96
   03:15:15.888.03-Feb-2020 4017.01 3052.45 63.00 2.00 305.86 3025.96
   03:15:16.088.03-Feb-2020 4017.01 3052.65 63.00 2.00 306.06 3025.96
   03:15:16.288.03-Feb-2020 4017.01 3052.65 63.00 2.00 306.26 3025.96
   03:15:16.488.03-Feb-2020 4017.01 3051.27 63.00 2.00 306.46 3025.96
   03:15:16.688.03-Feb-2020 4017.01 3051.94 63.00 2.00 306.66 3025.96
   03:15:16.888.03-Feb-2020 4017.01 3051.34 63.00 2.00 306.86 3025.96
   03:15:17.088.03-Feb-2020 4017.01 3053.57 63.00 2.00 307.06 3025.96
   03:15:17.288.03-Feb-2020 4017.01 3053.57 63.00 2.00 307.26 3025.96
   03:15:17.488.03-Feb-2020 4017.01 3052.80 63.00 2.00 307.46 3025.96
   03:15:17.688.03-Feb-2020 4017.01 3050.86 63.00 2.00 307.66 3025.96
   03:15:17.888.03-Feb-2020 4017.01 3053.91 63.00 2.00 307.86 3025.96
   03:15:18.088.03-Feb-2020 4017.01 3051.82 63.00 2.00 308.06 3025.96
   03:15:18.288.03-Feb-2020 4017.01 3051.82 63.00 2.00 308.26 3025.96
   03:15:18.488.03-Feb-2020 4017.01 3126.39 63.00 2.00 308.46 3025.96
   03:15:18.688.03-Feb-2020 4017.01 3131.07 63.00 2.00 308.66 3025.96
   03:15:18.888.03-Feb-2020 4017.01 3131.20 63.00 2.00 308.86 3025.96
   03:15:19.088.03-Feb-2020 4017.01 3132.40 63.00 2.00 309.06 3025.96
   03:15:19.288.03-Feb-2020 4017.01 3132.40 63.00 2.00 309.26 3025.96
   03:15:19.488.03-Feb-2020 4017.01 3132.73 63.00 2.00 309.46 3025.96
   03:15:19.688.03-Feb-2020 4017.01 3132.39 63.00 2.00 309.66 3025.96
   03:15:19.888.03-Feb-2020 4017.01 3133.33 63.00 2.00 309.86 3025.96
   03:15:20.088.03-Feb-2020 4017.01 3132.90 63.00 2.00 310.06 3025.96
   03:15:20.289.03-Feb-2020 4017.01 3132.90 63.00 2.00 310.26 3025.96
   03:15:20.489.03-Feb-2020 4017.01 3133.23 63.00 2.00 310.47 3025.96
   03:15:20.689.03-Feb-2020 4017.01 3133.44 62.99 2.00 310.67 3025.96
   03:15:20.889.03-Feb-2020 4017.01 3133.44 62.99 2.00 310.87 3025.96
   03:15:21.089.03-Feb-2020 4017.01 3133.52 62.99 2.00 311.07 3025.96
   03:15:21.289.03-Feb-2020 4017.01 3133.52 62.99 2.00 311.27 3025.96
   03:15:21.489.03-Feb-2020 4017.01 3133.57 62.99 2.00 311.47 3025.96
   03:15:21.689.03-Feb-2020 4017.01 3133.63 62.99 2.00 311.67 3025.96
   03:15:21.889.03-Feb-2020 4017.01 3133.74 62.99 2.00 311.87 3025.96
   03:15:22.089.03-Feb-2020 4017.01 3133.74 62.99 2.00 312.07 3025.96
   03:15:22.289.03-Feb-2020 4017.01 3133.74 62.99 2.00 312.27 3025.96
   03:15:22.489.03-Feb-2020 4017.01 3133.76 62.99 2.00 312.47 3025.96
   03:15:22.689.03-Feb-2020 4017.01 3133.94 62.99 2.00 312.67 3025.96
   03:15:22.889.03-Feb-2020 4017.01 3133.93 62.99 2.00 312.87 3025.96
   03:15:23.089.03-Feb-2020 4017.01 3133.44 62.99 2.00 313.07 3025.96
   03:15:23.289.03-Feb-2020 4017.01 3133.44 62.99 2.00 313.27 3025.96
   03:15:23.489.03-Feb-2020 4017.01 3133.96 62.99 2.00 313.47 3025.96
   03:15:23.689.03-Feb-2020 4017.01 3134.12 62.99 2.00 313.67 3025.96
   03:15:23.889.03-Feb-2020 4017.01 3134.08 62.99 2.00 313.87 3025.96
   03:15:24.089.03-Feb-2020 4017.01 3134.10 62.99 2.00 314.07 3025.96
   03:15:24.289.03-Feb-2020 4017.01 3134.10 62.99 2.00 314.27 3025.96
   03:15:24.489.03-Feb-2020 4017.01 3134.12 62.99 2.00 314.47 3025.96
   03:15:24.689.03-Feb-2020 4017.01 3134.17 62.99 2.00 314.67 3025.96
   03:15:24.889.03-Feb-2020 4017.01 3134.17 62.99 2.00 314.87 3025.96
   03:15:25.090.03-Feb-2020 4017.01 3134.20 62.99 2.00 315.07 3025.96
   03:15:25.290.03-Feb-2020 4017.01 3134.20 62.99 2.00 315.27 3025.96
   03:15:25.490.03-Feb-2020 4017.01 3133.77 62.99 2.00 315.47 3025.96
   03:15:25.690.03-Feb-2020 4017.01 3134.55 62.99 2.00 315.67 3025.96
   03:15:25.890.03-Feb-2020 4017.01 3134.10 62.99 2.00 315.87 3025.96
   03:15:26.090.03-Feb-2020 4017.01 3134.52 62.99 2.00 316.07 3025.96
   03:15:26.290.03-Feb-2020 4017.01 3134.52 62.99 2.00 316.27 3025.96
   03:15:26.490.03-Feb-2020 4017.01 3134.31 62.99 2.00 316.47 3025.96
   03:15:26.690.03-Feb-2020 4017.01 3134.33 62.99 2.00 316.67 3025.96
   03:15:26.890.03-Feb-2020 4017.01 3134.39 62.99 2.00 316.87 3025.96
   03:15:27.090.03-Feb-2020 4017.01 3134.07 62.99 2.00 317.07 3025.96
   03:15:27.290.03-Feb-2020 4017.01 3134.07 62.99 2.00 317.27 3025.96
   03:15:27.490.03-Feb-2020 4017.01 3134.49 62.99 2.00 317.47 3025.96
   03:15:27.690.03-Feb-2020 4017.01 3134.41 62.99 2.00 317.67 3025.96
   03:15:27.890.03-Feb-2020 4017.01 3134.47 62.99 2.00 317.87 3025.96
   03:15:28.090.03-Feb-2020 4017.01 3134.45 62.99 2.00 318.07 3025.96
   03:15:28.290.03-Feb-2020 4017.01 3134.45 62.99 2.00 318.27 3025.96
   03:15:28.490.03-Feb-2020 4017.01 3134.87 62.99 2.00 318.47 3025.96
   03:15:28.690.03-Feb-2020 4017.01 3134.35 62.99 2.00 318.67 3025.96
   03:15:28.890.03-Feb-2020 4017.01 3134.59 62.99 2.00 318.87 3025.96
   03:15:29.090.03-Feb-2020 4017.01 3134.47 62.99 2.00 319.07 3025.96
   03:15:29.290.03-Feb-2020 4017.01 3134.47 62.99 2.00 319.27 3025.96
   03:15:29.490.03-Feb-2020 4017.01 3134.80 62.99 2.00 319.47 3025.96
   03:15:29.690.03-Feb-2020 4017.01 3134.31 62.99 2.00 319.67 3025.96
   03:15:29.891.03-Feb-2020 4017.01 3134.67 62.99 2.00 319.87 3025.96
   03:15:30.091.03-Feb-2020 4017.01 3134.58 62.99 2.00 320.07 3025.96
   03:15:30.291.03-Feb-2020 4017.01 3134.58 62.99 2.00 320.27 3025.96
   03:15:30.491.03-Feb-2020 4017.01 3134.54 62.99 2.00 320.47 3025.96
   03:15:30.691.03-Feb-2020 4017.01 3134.53 62.99 2.00 320.67 3025.96
   03:15:30.891.03-Feb-2020 4017.01 3134.55 62.99 2.00 320.87 3025.96
   03:15:31.091.03-Feb-2020 4017.01 3134.52 62.99 2.00 321.07 3025.96
   03:15:31.291.03-Feb-2020 4017.01 3134.52 62.99 2.00 321.27 3025.96
   03:15:31.491.03-Feb-2020 4017.01 3134.62 62.99 2.00 321.47 3025.96
   03:15:31.691.03-Feb-2020 4017.01 3134.56 62.99 2.00 321.67 3025.96
   03:15:31.891.03-Feb-2020 4017.01 3134.55 62.99 2.00 321.87 3025.96
