~Version Information
 VERS.                  2.0:   CWLS log ASCII Standard -VERSION 2.0
 WRAP.                   NO:   One line per depth step
~Well Information Block
#MNEM.UNIT     VALUE/NAME     DESCRIPTION
#---------     -----------    ---------------------------
 STRT.S             06:17:54 03-Feb-20: START TIME 06:17:54 03-Feb-20
 STOP.S             06:25:43 03-Feb-20: STOP TIME  06:25:43 03-Feb-20
 STEP.S                   0.00: STEP TIME
 NULL.                 -999.25: NULL VALUE
 DFWT.                        :  DIST FWL TEXT
 DFST.                        :  DIST FSL TEXT
 DMF .             Drill Floor:  DRILL MEAS FROM
 STIM.      09.30.00 26-Dec-19:  START TIME
 DATE.      08.00.00 20-Jan-20:  END TIME
 SPUD.               23-Nov-19:  SPUD DATE
 NREF.                    Grid:  NORTH REFERENCE
 HPTY.       Minimum Curvature:  HOLE POS TYPE
 DMOD.             Drill Model:  DRILL MOD DESC
 SVYD.                  Survey:  SURVEY DESC
 ILTD.               Lithology:  INTERP LTH DESC
 FTOP.          Formation Tops:  FORM TOPS DESC
 SON .        AZ-XX-0906192647:  JOB NUMBER
 WTYP.                Deviated:  WELL TYPE
 COMP.     BP Exploration (Caspian Sea) Ltd:  COMPANY
 BASE.              Azerbaijan:  LOGGING EQUIPMENT BASE LOCATION
 REGN.                 Eurasia:  REGION
 FLD .                     ACG:  FIELD NAME
 SRVC.              KCA Deutag:  CONTRACTOR
 MWDS.                    Baku:  MWD SHOP
 WELL.     A10 (Slot 20) - SCP:  WELL NAME
 JOBN.        AZ-XX-0906192647:  JOB TICKET NUMB
 RIG .                 Chirag1:  RIG NAME
 DCON.     Halliburton Sperry Drilling:  DIRECTNL CONTR
 UNIT.                     N/A:  LOGGING EQUIPMENT ID
 PDAT.          Mean Sea Level:  PERMANENT DATUM
 MDS .        Operator Entered:  MAG DATA SOURCE
 CTRY.              Azerbaijan:  COUNTRY NAME
 UWI .            /AZE00000090:  UNIQUE WELL IDENTIFIER
 API .            /AZE00000090:  API NUMBER
 CNTY.                        :  COUNTY
 PROV.                        :  PROVINCE
 STAT.                        :  STATE
 LOC .                        :  LOCATION
 LMF .             Drill Floor:  LOG MEASURED FROM
 TVDS.m                  36.60:  TVDSS CORRECTN
 LATI.deg                40.08:  LATITUDE
 LONG.deg                51.24:  LONGITUDE
 WHNS.m                  -7.94:  WELL HEAD N/S
 WHEW.m                   1.56:  WELL HEAD E/W
 UTMX.m              520429.26:  UTM X
 UTMY.m             4438973.87:  UTM Y
 DFWL.m                   0.00:  DISTANCE FWL
 DFSL.m                   0.00:  DISTANCE FSL
 SDEP.m                1455.00:  START DEPTH
 TDD .m                4047.51:  TOTAL DEPTH (DRILLER)
 VSDR.deg               112.75:  VERT SEC DIRECT
 GVFD.g                   1.00:  GRAVITY FIELD
 MFLD.nT              50261.00:  MAGNETIC FIELD
 MDIP.deg                59.52:  MAGNETIC DIP
 MDEC.deg                 6.42:  MAGNETIC DECL
 GRDC.deg                 0.17:  GRID CORRECTION
 AZTC.deg                 6.25:  AZM TOTAL CORR
 EPD .m                   0.00:  ELEVATION
 EGL .m                   0.00:  GROUND ELEVATION
 WDMS.m                 121.00:  WD ELEV
 APD .m                  36.60:  DEPTH ABOVE PD
 AGAP.m                  36.60:  AIR GAP
 VSEW.m                   1.56:  VERT SEC E/W
 VSNS.m                  -7.94:  VERT SEC N/S
 DEP .m                1140.01:  DEPTH
 EKB .m                  36.60:  KB ELEVATION
 EDF .m                  36.60:  DF ELEVATION
 VSC .                       0:  VS TO CLOSURE
 MAGU.                 1849206:  MAGUTM CHECKSUM
~Parameter Information Block
#MNEM.UNIT       Value        Description
#---------     -----------    ---------------------------
 AV  .mps                 1.70:  Ann Velocity 
 AVMX.mps                 2.30:  Max Ann Veloc 
 AZIF.deg               137.03:  Azm, Final 
 BHAT.                   Other:  BHA Type 
 BROT.°/30m               0.80:  Build Rotating 
 BS  .in                  8.00:  Bit Size 
 BTPL.psig              161.00:  Bit Press Loss 
 CABU.                      No:  Customer Abuse 
 COMM.                     4•z:  Run Comments 1 
 TCS .hr                  9.59:  Time Ciculation Ended 
 CV  .mps                 3.76:  Crit Velocity 
 CVMX.mps                 4.26:  Max Crit Veloc 
 DD1 .         Intigam Rahimov:  Direct Drillr 1 
 DD2 .          Rashad Gojayev:  Direct Drillr 2 
 DDSV.                   Other:  DD Service 
 DEFF.%                 100.00:  % Det Eff 
 DLRX.°/30m               1.44:  Dogleg Rot Max 
 DLSO.°/30m               0.00:  Dogleg Oriented 
 DLSX.°/30m               0.00:  Dogleg Str Max 
 DRET.      03.31.12 02-Feb-20:  Drill End Time 
 DRST.      03.31.12 02-Feb-20:  Drill Start Tim 
 DTIM.hr                  1.99:  Time Drilling 
 EDEP.m                4047.51:  End Depth 
 ENG1.           Eldar Hajiyev:  Engineer 1 
 ENG2.          Rasim Hashimov:  Engineer 2 
 ENG3.          Rustam Safarov:  Engineer 3 
 ETIM.      03.31.12 02-Feb-20:  End Time 
 FLOI.gpm               300.00:  Flow In 
 FLON.gpm               250.00:  Flow In Min 
 FLOS.cptm                0.00:  Fluid Loss 
 FLOX.gpm               330.00:  Flow In Max 
 HFLO.                      No:  High Flow 
 HPRE.                      No:  High Pressure 
 HTEM.                      No:  High Temp 
 HYDO.m                   2.50:  Hydro Offset 
 IFIN.deg                39.54:  Inc, Final 
 IMAX.deg                41.14:  Inc Max 
 IMIN.deg                39.81:  Inc Min 
 IMND.m                4005.21:  Inc Min Depth 
 IMXD.m                3948.42:  Inc Max Depth 
 JARR.                      No:  Jarring 
 LETM.      03.31.12 02-Feb-20:  Log End Time 
 LOST.hr                     0:  Lost Rig Time 
 LSTM.      03.31.12 02-Feb-20:  Log Start Time 
 MDCL.ppm             35000.00:  Mud Chlorides 
 MDES.     Inversion Oil/Synthetic:  Mud Desc 
 DFD .sg                  1.32:  Mud Density 
 MDMN.sg                  1.32:  Dens Mud Min 
 MDMX.sg                  1.32:  Dens Mud Max 
 MOIL.                      59:  Run Mud Oil % 
 MOWR.                   71:29:  Run Mud OWR 
 MSND.                       0:  Run Mud Sand % 
 MSOL.                      17:  Run Mud Solids% 
 DFV .spqt               86.00:  Mud Viscosity 
 MWOD.in                  4.75:  MWD Tool OD 
 MWSI.                      No:  Serv Intrp, MWD 
 OTIM.hr                 46.72:  Time Operating 
 PCON.           Look Like New:  Pad Condition 
 PMAX.psia             3300.00:  Press Op, Max 
 PV  .cP                 30.00:  Mud PV 
 RUN .                     400:  Run Number 
 ROPA.m/hr               35.00:  ROP Avg 
 ROPN.m/hr               25.00:  ROP Min 
 ROPX.m/hr               40.00:  ROP Max 
 RPMA.rpm                80.00:  RPM Surface Avg 
 RPMN.rpm                60.00:  RPM Surface Min 
 RPMX.rpm               100.00:  RPM Surface Max 
 RRUN.                     400:  Rig Run Number 
 RTIM.hr                  1.99:  Time Reaming 
 SAZI.deg               133.93:  Azm, Start 
 SDEP.m                4047.51:  Start Depth 
 SIDD.                      No:  Serv Intrp, DD 
 SINC.deg                40.28:  Inc, Start 
 SPPA.psig             3250.00:  SPP Avg 
 SPPN.psig             3200.00:  SPP Min 
 SPPX.psig             3300.00:  SPP Max 
 STIM.      03.31.12 02-Feb-20:  Start Time 
 SVCS.                 DD, MWD:  Services 
 SVER.                    9.20:  Sperry Version 
 TDAT.m                  47.00:  Tot Depth Attmp 
 TDDF.                      No:  Trip for DD 
 TFF .                      No:  Trip for Fail 
 TQAA.f-kp                0.00:  Torque Abs Avg 
 TQAN.f-kp                0.00:  Torque Abs Min 
 TQAX.f-kp                0.00:  Torque Abs Max 
 TRRT.°/30m               0.70:  Turn Rotating 
 MRT .                    HCIM:  Maximum Recorded Temperature 
 TTMX.degC               70.59:  Max Tool Temp 
 VS01.             90598770F11:  Virtual Str1 SN 
 VS02.             90598769F11:  Virtual Str2 SN 
 VS03.            90515978Z1W1:  Virtual Str3 SN 
 VS04.          90584144R12X14:  Virtual Str4 SN 
 WBMN.klb                 0.00:  WOB Min 
 WITN.            Peter Wilson:  Customer Rep 
 WOBA.klb                 0.00:  WOB Avg 
 WOBX.klb                 0.00:  WOB Max 
 YP  .lhf2               29.00:  Yield Point 
~Curve Information Block
#MNEM.UNIT                 API CODE     Curve Description
#---------               -----------    ---------------------------
 TIME.HHMMSS            00 000 000 000:  GT Time & Date
 GTDEPTH.m              00 000 000 000:  GT Depth
 GTPQH.psia             00 000 000 000:  GT HR Quartz Pressure
 GTTQ.degC              00 000 000 000:  GT Quartz Temperature
 GTTN.NONE              00 000 000 000:  GT Test Number
 GTET.sec               00 000 000 000:  GT Elapsed Test Time
 GTTVD.m                00 000 000 000:  GT True Vertical Depth
#Other Information
#
#WARRANTY: Halliburton will use its best efforts to furnish customers with 
#accurate information and interpretations that are part of, and incident to, the services 
#provided.  However, Halliburton cannot and does not warrant the accuracy 
#or correctness of such information and interpretations.  Under no circumstances should any 
#such information or interpretation be relied upon as the sole basis for any drilling, 
#completion, production, or financial decision or any procedure involving any risk to the 
#safety of any drilling venture, drilling rig or its crew or any other third party.  The 
#Customer has full responsibility for all drilling, completion and production operation.  
#Halliburton makes no representations or warranties, either expressed or 
#implied, including, but not limited to, the implied warranties of merchantability or fitness 
#for a particular purpose, with respect to the services rendered.  In no event will 
#Halliburton be liable for failure to obtain any particular results or for 
#any damages, including, but not limited to, indirect, special or consequential damages, 
#resulting from the use of any information or interpretation provided by Halliburton.
#
~A           TIME           GTDEPTH  GTPQH  GTTQ  GTTN  GTET   GTTVD  
# ...
   06:18:17.000.03-Feb-2020 4005.51 6558.22 65.22 7.00  23.00 3017.14
   06:18:17.200.03-Feb-2020 4005.51 6558.22 65.22 7.00  23.20 3017.14
   06:18:17.400.03-Feb-2020 4005.51 6681.94 65.22 7.00  23.40 3017.14
   06:18:17.600.03-Feb-2020 4005.51 6726.97 65.22 7.00  23.60 3017.14
   06:18:17.800.03-Feb-2020 4005.51 6689.21 65.22 7.00  23.80 3017.14
   06:18:18.000.03-Feb-2020 4005.51 6717.34 65.22 7.00  24.00 3017.14
   06:18:18.200.03-Feb-2020 4005.51 6717.34 65.22 7.00  24.20 3017.14
   06:18:18.400.03-Feb-2020 4005.51 6719.30 65.22 7.00  24.40 3017.14
   06:18:18.600.03-Feb-2020 4005.51 6785.44 65.22 7.00  24.60 3017.14
   06:18:18.800.03-Feb-2020 4005.51 6759.12 65.22 7.00  24.80 3017.14
   06:18:19.000.03-Feb-2020 4005.51 6732.44 65.22 7.00  25.00 3017.14
   06:18:19.200.03-Feb-2020 4005.51 6732.44 65.22 7.00  25.20 3017.14
   06:18:19.400.03-Feb-2020 4005.51 6684.73 65.22 7.00  25.40 3017.14
   06:18:19.600.03-Feb-2020 4005.51 6676.06 65.21 7.00  25.60 3017.14
   06:18:19.800.03-Feb-2020 4005.51 6670.13 65.21 7.00  25.80 3017.14
   06:18:20.000.03-Feb-2020 4005.51 6666.96 65.21 7.00  26.00 3017.14
   06:18:20.200.03-Feb-2020 4005.51 6666.96 65.21 7.00  26.20 3017.14
   06:18:20.400.03-Feb-2020 4005.51 6662.62 65.21 7.00  26.40 3017.14
   06:18:20.600.03-Feb-2020 4005.51 6659.52 65.21 7.00  26.60 3017.14
   06:18:20.800.03-Feb-2020 4005.51 6657.51 65.21 7.00  26.80 3017.14
   06:18:21.000.03-Feb-2020 4005.51 6652.03 65.21 7.00  27.00 3017.14
   06:18:21.200.03-Feb-2020 4005.51 6652.03 65.21 7.00  27.20 3017.14
   06:18:21.400.03-Feb-2020 4005.51 6653.11 65.21 7.00  27.40 3017.14
   06:18:21.600.03-Feb-2020 4005.51 6652.45 65.21 7.00  27.60 3017.14
   06:18:21.800.03-Feb-2020 4005.51 6651.67 65.21 7.00  27.80 3017.14
   06:18:22.000.03-Feb-2020 4005.51 6651.24 65.21 7.00  28.00 3017.14
   06:18:22.200.03-Feb-2020 4005.51 6651.24 65.21 7.00  28.20 3017.14
   06:18:22.400.03-Feb-2020 4005.51 6645.30 65.21 7.00  28.40 3017.14
   06:18:22.600.03-Feb-2020 4005.51 6647.12 65.21 7.00  28.60 3017.14
   06:18:22.800.03-Feb-2020 4005.51 6646.00 65.21 7.00  28.80 3017.14
   06:18:23.000.03-Feb-2020 4005.51 6646.34 65.21 7.00  29.00 3017.14
   06:18:23.200.03-Feb-2020 4005.51 6646.34 65.21 7.00  29.20 3017.14
   06:18:23.400.03-Feb-2020 4005.51 6643.30 65.21 7.00  29.40 3017.14
   06:18:23.600.03-Feb-2020 4005.51 6642.70 65.21 7.00  29.60 3017.14
   06:18:23.800.03-Feb-2020 4005.51 6617.81 65.21 7.00  29.80 3017.14
   06:18:24.000.03-Feb-2020 4005.51 6193.01 65.21 7.00  30.00 3017.14
   06:18:24.200.03-Feb-2020 4005.51 6193.01 65.21 7.00  30.20 3017.14
   06:18:24.400.03-Feb-2020 4005.51 5846.84 65.21 7.00  30.40 3017.14
   06:18:24.600.03-Feb-2020 4005.51 5694.73 65.21 7.00  30.60 3017.14
   06:18:24.800.03-Feb-2020 4005.51 5457.36 65.21 7.00  30.80 3017.14
   06:18:25.000.03-Feb-2020 4005.51 5180.14 65.21 7.00  31.00 3017.14
   06:18:25.200.03-Feb-2020 4005.51 5180.14 65.21 7.00  31.20 3017.14
   06:18:25.400.03-Feb-2020 4005.51 4851.08 65.21 7.00  31.40 3017.14
   06:18:25.600.03-Feb-2020 4005.51 4070.55 65.21 7.00  31.60 3017.14
   06:18:25.800.03-Feb-2020 4005.51 3657.25 65.21 7.00  31.80 3017.14
   06:18:26.000.03-Feb-2020 4005.51 3233.96 65.21 7.00  32.00 3017.14
   06:18:26.200.03-Feb-2020 4005.51 3233.96 65.21 7.00  32.20 3017.14
   06:18:26.400.03-Feb-2020 4005.51 2414.94 65.21 7.00  32.40 3017.14
   06:18:26.600.03-Feb-2020 4005.51 2013.66 65.21 7.00  32.60 3017.14
   06:18:26.800.03-Feb-2020 4005.51 1627.22 65.21 7.00  32.80 3017.14
   06:18:27.000.03-Feb-2020 4005.51 1254.07 65.21 7.00  33.00 3017.14
   06:18:27.200.03-Feb-2020 4005.51 1254.07 65.21 7.00  33.20 3017.14
   06:18:27.400.03-Feb-2020 4005.51  598.25 65.20 7.00  33.40 3017.14
   06:18:27.600.03-Feb-2020 4005.51  378.16 65.20 7.00  33.60 3017.14
   06:18:27.800.03-Feb-2020 4005.51  272.80 65.20 7.00  33.80 3017.14
   06:18:28.000.03-Feb-2020 4005.51  235.98 65.20 7.00  34.00 3017.14
   06:18:28.200.03-Feb-2020 4005.51  235.98 65.20 7.00  34.20 3017.14
   06:18:28.400.03-Feb-2020 4005.51  203.99 65.20 7.00  34.40 3017.14
   06:18:28.600.03-Feb-2020 4005.51  195.86 65.20 7.00  34.60 3017.14
   06:18:28.800.03-Feb-2020 4005.51  188.49 65.19 7.00  34.80 3017.14
   06:18:29.000.03-Feb-2020 4005.51  183.95 65.19 7.00  35.00 3017.14
   06:18:29.200.03-Feb-2020 4005.51  183.95 65.19 7.00  35.20 3017.14
   06:18:29.400.03-Feb-2020 4005.51  177.34 65.19 7.00  35.40 3017.14
   06:18:29.600.03-Feb-2020 4005.51  174.76 65.19 7.00  35.60 3017.14
   06:18:29.800.03-Feb-2020 4005.51  172.91 65.19 7.00  35.80 3017.14
   06:18:30.000.03-Feb-2020 4005.51  171.38 65.18 7.00  36.00 3017.14
   06:18:30.200.03-Feb-2020 4005.51  171.38 65.18 7.00  36.20 3017.14
   06:18:30.400.03-Feb-2020 4005.51  168.50 65.18 7.00  36.40 3017.14
   06:18:30.600.03-Feb-2020 4005.51  167.53 65.18 7.00  36.60 3017.14
   06:18:30.800.03-Feb-2020 4005.51  166.87 65.17 7.00  36.80 3017.14
   06:18:31.000.03-Feb-2020 4005.51  166.41 65.17 7.00  37.00 3017.14
   06:18:31.200.03-Feb-2020 4005.51  166.41 65.17 7.00  37.20 3017.14
   06:18:31.400.03-Feb-2020 4005.51  165.05 65.17 7.00  37.40 3017.14
   06:18:31.600.03-Feb-2020 4005.51  164.59 65.17 7.00  37.60 3017.14
   06:18:31.800.03-Feb-2020 4005.51  164.15 65.16 7.00  37.80 3017.14
   06:18:32.000.03-Feb-2020 4005.51  164.16 65.16 7.00  38.00 3017.14
   06:18:32.200.03-Feb-2020 4005.51  164.40 65.16 7.00  38.20 3017.14
   06:18:32.400.03-Feb-2020 4005.51  165.07 65.16 7.00  38.40 3017.14
   06:18:32.600.03-Feb-2020 4005.51  166.22 65.16 7.00  38.60 3017.14
   06:18:32.800.03-Feb-2020 4005.51  167.38 65.15 7.00  38.80 3017.14
   06:18:33.000.03-Feb-2020 4005.51  168.75 65.15 7.00  39.00 3017.14
   06:18:33.200.03-Feb-2020 4005.51  168.75 65.15 7.00  39.20 3017.14
   06:18:33.400.03-Feb-2020 4005.51  168.49 65.15 7.00  39.40 3017.14
   06:18:33.600.03-Feb-2020 4005.51  168.52 65.15 7.00  39.60 3017.14
   06:18:33.800.03-Feb-2020 4005.51  171.62 65.14 7.00  39.80 3017.14
   06:18:34.000.03-Feb-2020 4005.51  174.49 65.14 7.00  40.00 3017.14
   06:18:34.200.03-Feb-2020 4005.51  174.49 65.14 7.00  40.20 3017.14
   06:18:34.400.03-Feb-2020 4005.51  179.77 65.14 7.00  40.40 3017.14
   06:18:34.600.03-Feb-2020 4005.51  182.27 65.14 7.00  40.60 3017.14
   06:18:34.800.03-Feb-2020 4005.51  184.71 65.14 7.00  40.80 3017.14
   06:18:35.000.03-Feb-2020 4005.51  187.06 65.13 7.00  41.00 3017.14
   06:18:35.200.03-Feb-2020 4005.51  187.06 65.13 7.00  41.20 3017.14
   06:18:35.400.03-Feb-2020 4005.51  191.54 65.13 7.00  41.40 3017.14
   06:18:35.600.03-Feb-2020 4005.51  193.68 65.13 7.00  41.60 3017.14
   06:18:35.800.03-Feb-2020 4005.51  195.78 65.13 7.00  41.80 3017.14
   06:18:36.000.03-Feb-2020 4005.51  197.82 65.13 7.00  42.00 3017.14
   06:18:36.200.03-Feb-2020 4005.51  197.82 65.13 7.00  42.20 3017.14
   06:18:36.400.03-Feb-2020 4005.51  201.72 65.12 7.00  42.40 3017.14
   06:18:36.600.03-Feb-2020 4005.51  203.62 65.12 7.00  42.60 3017.14
   06:18:36.800.03-Feb-2020 4005.51  205.44 65.12 7.00  42.80 3017.14
   06:18:37.000.03-Feb-2020 4005.51  207.22 65.12 7.00  43.00 3017.14
   06:18:37.200.03-Feb-2020 4005.51  207.22 65.12 7.00  43.20 3017.14
   06:18:37.400.03-Feb-2020 4005.51  210.64 65.12 7.00  43.40 3017.14
   06:18:37.600.03-Feb-2020 4005.51  212.29 65.12 7.00  43.60 3017.14
   06:18:37.800.03-Feb-2020 4005.51  213.90 65.12 7.00  43.80 3017.14
   06:18:38.000.03-Feb-2020 4005.51  215.48 65.11 7.00  44.00 3017.14
   06:18:38.200.03-Feb-2020 4005.51  215.48 65.11 7.00  44.20 3017.14
   06:18:38.400.03-Feb-2020 4005.51  218.51 65.11 7.00  44.40 3017.14
   06:18:38.600.03-Feb-2020 4005.51  219.99 65.11 7.00  44.60 3017.14
   06:18:38.800.03-Feb-2020 4005.51  221.44 65.11 7.00  44.80 3017.14
   06:18:39.000.03-Feb-2020 4005.51  222.86 65.11 7.00  45.00 3017.14
   06:18:39.200.03-Feb-2020 4005.51  222.86 65.11 7.00  45.20 3017.14
   06:18:39.400.03-Feb-2020 4005.51  225.61 65.11 7.00  45.40 3017.14
   06:18:39.600.03-Feb-2020 4005.51  226.94 65.11 7.00  45.60 3017.14
   06:18:39.800.03-Feb-2020 4005.51  228.26 65.11 7.00  45.80 3017.14
