~Version Information
 VERS.                  2.0:   CWLS log ASCII Standard -VERSION 2.0
 WRAP.                   NO:   One line per depth step
~Well Information Block
#MNEM.UNIT     VALUE/NAME     DESCRIPTION
#---------     -----------    ---------------------------
 STRT.S             03:10:10 03-Feb-20: START TIME 03:10:10 03-Feb-20
 STOP.S             03:17:58 03-Feb-20: STOP TIME  03:17:58 03-Feb-20
 STEP.S                   0.00: STEP TIME
 NULL.                 -999.25: NULL VALUE
 DFWT.                        :  DIST FWL TEXT
 DFST.                        :  DIST FSL TEXT
 DMF .             Drill Floor:  DRILL MEAS FROM
 STIM.      09.30.00 26-Dec-19:  START TIME
 DATE.      08.00.00 20-Jan-20:  END TIME
 SPUD.               23-Nov-19:  SPUD DATE
 NREF.                    Grid:  NORTH REFERENCE
 HPTY.       Minimum Curvature:  HOLE POS TYPE
 DMOD.             Drill Model:  DRILL MOD DESC
 SVYD.                  Survey:  SURVEY DESC
 ILTD.               Lithology:  INTERP LTH DESC
 FTOP.          Formation Tops:  FORM TOPS DESC
 SON .        AZ-XX-0906192647:  JOB NUMBER
 WTYP.                Deviated:  WELL TYPE
 COMP.     BP Exploration (Caspian Sea) Ltd:  COMPANY
 BASE.              Azerbaijan:  LOGGING EQUIPMENT BASE LOCATION
 REGN.                 Eurasia:  REGION
 FLD .                     ACG:  FIELD NAME
 SRVC.              KCA Deutag:  CONTRACTOR
 MWDS.                    Baku:  MWD SHOP
 WELL.     A10 (Slot 20) - SCP:  WELL NAME
 JOBN.        AZ-XX-0906192647:  JOB TICKET NUMB
 RIG .                 Chirag1:  RIG NAME
 DCON.     Halliburton Sperry Drilling:  DIRECTNL CONTR
 UNIT.                     N/A:  LOGGING EQUIPMENT ID
 PDAT.          Mean Sea Level:  PERMANENT DATUM
 MDS .        Operator Entered:  MAG DATA SOURCE
 CTRY.              Azerbaijan:  COUNTRY NAME
 UWI .            /AZE00000090:  UNIQUE WELL IDENTIFIER
 API .            /AZE00000090:  API NUMBER
 CNTY.                        :  COUNTY
 PROV.                        :  PROVINCE
 STAT.                        :  STATE
 LOC .                        :  LOCATION
 LMF .             Drill Floor:  LOG MEASURED FROM
 TVDS.m                  36.60:  TVDSS CORRECTN
 LATI.deg                40.08:  LATITUDE
 LONG.deg                51.24:  LONGITUDE
 WHNS.m                  -7.94:  WELL HEAD N/S
 WHEW.m                   1.56:  WELL HEAD E/W
 UTMX.m              520429.26:  UTM X
 UTMY.m             4438973.87:  UTM Y
 DFWL.m                   0.00:  DISTANCE FWL
 DFSL.m                   0.00:  DISTANCE FSL
 SDEP.m                1455.00:  START DEPTH
 TDD .m                4047.51:  TOTAL DEPTH (DRILLER)
 VSDR.deg               112.75:  VERT SEC DIRECT
 GVFD.g                   1.00:  GRAVITY FIELD
 MFLD.nT              50261.00:  MAGNETIC FIELD
 MDIP.deg                59.52:  MAGNETIC DIP
 MDEC.deg                 6.42:  MAGNETIC DECL
 GRDC.deg                 0.17:  GRID CORRECTION
 AZTC.deg                 6.25:  AZM TOTAL CORR
 EPD .m                   0.00:  ELEVATION
 EGL .m                   0.00:  GROUND ELEVATION
 WDMS.m                 121.00:  WD ELEV
 APD .m                  36.60:  DEPTH ABOVE PD
 AGAP.m                  36.60:  AIR GAP
 VSEW.m                   1.56:  VERT SEC E/W
 VSNS.m                  -7.94:  VERT SEC N/S
 DEP .m                1140.01:  DEPTH
 EKB .m                  36.60:  KB ELEVATION
 EDF .m                  36.60:  DF ELEVATION
 VSC .                       0:  VS TO CLOSURE
 MAGU.                 1849206:  MAGUTM CHECKSUM
~Parameter Information Block
#MNEM.UNIT       Value        Description
#---------     -----------    ---------------------------
 AV  .mps                 1.70:  Ann Velocity 
 AVMX.mps                 2.30:  Max Ann Veloc 
 AZIF.deg               137.03:  Azm, Final 
 BHAT.                   Other:  BHA Type 
 BROT.°/30m               0.80:  Build Rotating 
 BS  .in                  8.00:  Bit Size 
 BTPL.psig              161.00:  Bit Press Loss 
 CABU.                      No:  Customer Abuse 
 TCS .hr                  9.59:  Time Ciculation Ended 
 CV  .mps                 3.76:  Crit Velocity 
 CVMX.mps                 4.26:  Max Crit Veloc 
 DD1 .         Intigam Rahimov:  Direct Drillr 1 
 DD2 .          Rashad Gojayev:  Direct Drillr 2 
 DDSV.                   Other:  DD Service 
 DEFF.%                 100.00:  % Det Eff 
 DLRX.°/30m               1.44:  Dogleg Rot Max 
 DLSO.°/30m               0.00:  Dogleg Oriented 
 DLSX.°/30m               0.00:  Dogleg Str Max 
 DRET.      03.31.12 02-Feb-20:  Drill End Time 
 DRST.      03.31.12 02-Feb-20:  Drill Start Tim 
 DTIM.hr                  1.99:  Time Drilling 
 EDEP.m                4047.51:  End Depth 
 ENG1.           Eldar Hajiyev:  Engineer 1 
 ENG2.          Rasim Hashimov:  Engineer 2 
 ENG3.          Rustam Safarov:  Engineer 3 
 ETIM.      03.31.12 02-Feb-20:  End Time 
 FLOI.gpm               300.00:  Flow In 
 FLON.gpm               250.00:  Flow In Min 
 FLOS.cptm                0.00:  Fluid Loss 
 FLOX.gpm               330.00:  Flow In Max 
 HFLO.                      No:  High Flow 
 HPRE.                      No:  High Pressure 
 HTEM.                      No:  High Temp 
 HYDO.m                   2.50:  Hydro Offset 
 IFIN.deg                39.54:  Inc, Final 
 IMAX.deg                41.14:  Inc Max 
 IMIN.deg                39.81:  Inc Min 
 IMND.m                4005.21:  Inc Min Depth 
 IMXD.m                3948.42:  Inc Max Depth 
 JARR.                      No:  Jarring 
 LETM.      03.31.12 02-Feb-20:  Log End Time 
 LOST.hr                     0:  Lost Rig Time 
 LSTM.      03.31.12 02-Feb-20:  Log Start Time 
 MDCL.ppm             35000.00:  Mud Chlorides 
 MDES.     Inversion Oil/Synthetic:  Mud Desc 
 DFD .sg                  1.32:  Mud Density 
 MDMN.sg                  1.32:  Dens Mud Min 
 MDMX.sg                  1.32:  Dens Mud Max 
 MOIL.                      59:  Run Mud Oil % 
 MOWR.                   71:29:  Run Mud OWR 
 MSND.                       0:  Run Mud Sand % 
 MSOL.                      17:  Run Mud Solids% 
 DFV .spqt               86.00:  Mud Viscosity 
 MWOD.in                  4.75:  MWD Tool OD 
 MWSI.                      No:  Serv Intrp, MWD 
 OTIM.hr                 46.72:  Time Operating 
 PCON.           Look Like New:  Pad Condition 
 PMAX.psia             3300.00:  Press Op, Max 
 PV  .cP                 30.00:  Mud PV 
 RUN .                     400:  Run Number 
 ROPA.m/hr               35.00:  ROP Avg 
 ROPN.m/hr               25.00:  ROP Min 
 ROPX.m/hr               40.00:  ROP Max 
 RPMA.rpm                80.00:  RPM Surface Avg 
 RPMN.rpm                60.00:  RPM Surface Min 
 RPMX.rpm               100.00:  RPM Surface Max 
 RRUN.                     400:  Rig Run Number 
 RTIM.hr                  1.99:  Time Reaming 
 SAZI.deg               133.93:  Azm, Start 
 SDEP.m                4047.51:  Start Depth 
 SIDD.                      No:  Serv Intrp, DD 
 SINC.deg                40.28:  Inc, Start 
 SPPA.psig             3250.00:  SPP Avg 
 SPPN.psig             3200.00:  SPP Min 
 SPPX.psig             3300.00:  SPP Max 
 STIM.      03.31.12 02-Feb-20:  Start Time 
 SVCS.                 DD, MWD:  Services 
 SVER.                    9.20:  Sperry Version 
 TDAT.m                  47.00:  Tot Depth Attmp 
 TDDF.                      No:  Trip for DD 
 TFF .                      No:  Trip for Fail 
 TQAA.f-kp                0.00:  Torque Abs Avg 
 TQAN.f-kp                0.00:  Torque Abs Min 
 TQAX.f-kp                0.00:  Torque Abs Max 
 TRRT.°/30m               0.70:  Turn Rotating 
 MRT .                    HCIM:  Maximum Recorded Temperature 
 TTMX.degC               70.59:  Max Tool Temp 
 VS01.             90598770F11:  Virtual Str1 SN 
 VS02.             90598769F11:  Virtual Str2 SN 
 VS03.            90515978Z1W1:  Virtual Str3 SN 
 VS04.          90584144R12X14:  Virtual Str4 SN 
 WBMN.klb                 0.00:  WOB Min 
 WITN.            Peter Wilson:  Customer Rep 
 WOBA.klb                 0.00:  WOB Avg 
 WOBX.klb                 0.00:  WOB Max 
 YP  .lhf2               29.00:  Yield Point 
~Curve Information Block
#MNEM.UNIT                 API CODE     Curve Description
#---------               -----------    ---------------------------
 TIME.HHMMSS            00 000 000 000:  GT Time & Date
 GTDEPTH.m              00 000 000 000:  GT Depth
 GTPQH.psia             00 000 000 000:  GT HR Quartz Pressure
 GTTQ.degC              00 000 000 000:  GT Quartz Temperature
 GTTN.NONE              00 000 000 000:  GT Test Number
 GTET.sec               00 000 000 000:  GT Elapsed Test Time
 GTTVD.m                00 000 000 000:  GT True Vertical Depth
#Other Information
#
#WARRANTY: Halliburton will use its best efforts to furnish customers with 
#accurate information and interpretations that are part of, and incident to, the services 
#provided.  However, Halliburton cannot and does not warrant the accuracy 
#or correctness of such information and interpretations.  Under no circumstances should any 
#such information or interpretation be relied upon as the sole basis for any drilling, 
#completion, production, or financial decision or any procedure involving any risk to the 
#safety of any drilling venture, drilling rig or its crew or any other third party.  The 
#Customer has full responsibility for all drilling, completion and production operation.  
#Halliburton makes no representations or warranties, either expressed or 
#implied, including, but not limited to, the implied warranties of merchantability or fitness 
#for a particular purpose, with respect to the services rendered.  In no event will 
#Halliburton be liable for failure to obtain any particular results or for 
#any damages, including, but not limited to, indirect, special or consequential damages, 
#resulting from the use of any information or interpretation provided by Halliburton.
#
~A           TIME           GTDEPTH  GTPQH  GTTQ  GTTN  GTET   GTTVD  
# ...
   03:14:23.077.03-Feb-2020 4017.01 3135.06 63.02 2.00 253.05 3025.96
   03:14:23.277.03-Feb-2020 4017.01 3135.06 63.02 2.00 253.25 3025.96
   03:14:23.477.03-Feb-2020 4017.01 3135.23 63.02 2.00 253.45 3025.96
   03:14:23.677.03-Feb-2020 4017.01 3135.23 63.02 2.00 253.65 3025.96
   03:14:23.877.03-Feb-2020 4017.01 3134.93 63.02 2.00 253.85 3025.96
   03:14:24.077.03-Feb-2020 4017.01 3135.34 63.02 2.00 254.05 3025.96
   03:14:24.277.03-Feb-2020 4017.01 3135.34 63.02 2.00 254.25 3025.96
   03:14:24.477.03-Feb-2020 4017.01 3135.33 63.02 2.00 254.45 3025.96
   03:14:24.677.03-Feb-2020 4017.01 3135.19 63.02 2.00 254.65 3025.96
   03:14:24.877.03-Feb-2020 4017.01 3135.23 63.02 2.00 254.85 3025.96
   03:14:25.077.03-Feb-2020 4017.01 3134.72 63.02 2.00 255.05 3025.96
   03:14:25.277.03-Feb-2020 4017.01 3134.72 63.02 2.00 255.25 3025.96
   03:14:25.477.03-Feb-2020 4017.01 3135.01 63.02 2.00 255.45 3025.96
   03:14:25.677.03-Feb-2020 4017.01 3135.34 63.02 2.00 255.65 3025.96
   03:14:25.877.03-Feb-2020 4017.01 3135.05 63.02 2.00 255.85 3025.96
   03:14:26.077.03-Feb-2020 4017.01 3135.35 63.02 2.00 256.05 3025.96
   03:14:26.277.03-Feb-2020 4017.01 3135.35 63.02 2.00 256.25 3025.96
   03:14:26.477.03-Feb-2020 4017.01 3135.35 63.02 2.00 256.45 3025.96
   03:14:26.677.03-Feb-2020 4017.01 3135.11 63.02 2.00 256.65 3025.96
   03:14:26.877.03-Feb-2020 4017.01 3135.30 63.02 2.00 256.85 3025.96
   03:14:27.077.03-Feb-2020 4017.01 3135.23 63.02 2.00 257.05 3025.96
   03:14:27.277.03-Feb-2020 4017.01 3135.23 63.02 2.00 257.25 3025.96
   03:14:27.477.03-Feb-2020 4017.01 3135.20 63.02 2.00 257.45 3025.96
   03:14:27.677.03-Feb-2020 4017.01 3135.21 63.02 2.00 257.65 3025.96
   03:14:27.878.03-Feb-2020 4017.01 3135.13 63.02 2.00 257.85 3025.96
   03:14:28.078.03-Feb-2020 4017.01 3135.25 63.02 2.00 258.05 3025.96
   03:14:28.278.03-Feb-2020 4017.01 3135.25 63.02 2.00 258.25 3025.96
   03:14:28.478.03-Feb-2020 4017.01 3135.18 63.02 2.00 258.45 3025.96
   03:14:28.678.03-Feb-2020 4017.01 3135.16 63.02 2.00 258.65 3025.96
   03:14:28.878.03-Feb-2020 4017.01 3135.28 63.02 2.00 258.85 3025.96
   03:14:29.078.03-Feb-2020 4017.01 3135.25 63.02 2.00 259.05 3025.96
   03:14:29.278.03-Feb-2020 4017.01 3135.25 63.02 2.00 259.25 3025.96
   03:14:29.478.03-Feb-2020 4017.01 3135.39 63.02 2.00 259.45 3025.96
   03:14:29.678.03-Feb-2020 4017.01 3135.13 63.02 2.00 259.65 3025.96
   03:14:29.878.03-Feb-2020 4017.01 3135.29 63.02 2.00 259.85 3025.96
   03:14:30.078.03-Feb-2020 4017.01 3135.21 63.02 2.00 260.05 3025.96
   03:14:30.278.03-Feb-2020 4017.01 3135.21 63.02 2.00 260.25 3025.96
   03:14:30.478.03-Feb-2020 4017.01 3135.22 63.02 2.00 260.45 3025.96
   03:14:30.678.03-Feb-2020 4017.01 3135.19 63.02 2.00 260.65 3025.96
   03:14:30.878.03-Feb-2020 4017.01 3135.20 63.02 2.00 260.85 3025.96
   03:14:31.078.03-Feb-2020 4017.01 3135.25 63.02 2.00 261.05 3025.96
   03:14:31.278.03-Feb-2020 4017.01 3135.25 63.02 2.00 261.25 3025.96
   03:14:31.478.03-Feb-2020 4017.01 3135.18 63.02 2.00 261.45 3025.96
   03:14:31.678.03-Feb-2020 4017.01 3135.02 63.02 2.00 261.65 3025.96
   03:14:31.878.03-Feb-2020 4017.01 3135.26 63.02 2.00 261.85 3025.96
   03:14:32.078.03-Feb-2020 4017.01 3134.98 63.02 2.00 262.05 3025.96
   03:14:32.278.03-Feb-2020 4017.01 3134.98 63.02 2.00 262.25 3025.96
   03:14:32.478.03-Feb-2020 4017.01 3135.19 63.02 2.00 262.45 3025.96
   03:14:32.679.03-Feb-2020 4017.01 3135.25 63.02 2.00 262.66 3025.96
   03:14:32.879.03-Feb-2020 4017.01 3134.75 63.02 2.00 262.86 3025.96
   03:14:33.079.03-Feb-2020 4017.01 3135.56 63.02 2.00 263.06 3025.96
   03:14:33.279.03-Feb-2020 4017.01 3135.56 63.02 2.00 263.26 3025.96
   03:14:33.479.03-Feb-2020 4017.01 3135.37 63.02 2.00 263.46 3025.96
   03:14:33.679.03-Feb-2020 4017.01 3135.21 63.01 2.00 263.66 3025.96
   03:14:33.879.03-Feb-2020 4017.01 3135.25 63.02 2.00 263.86 3025.96
   03:14:34.079.03-Feb-2020 4017.01 3135.03 63.01 2.00 264.06 3025.96
   03:14:34.279.03-Feb-2020 4017.01 3135.03 63.01 2.00 264.26 3025.96
   03:14:34.479.03-Feb-2020 4017.01 3135.29 63.01 2.00 264.46 3025.96
   03:14:34.679.03-Feb-2020 4017.01 3135.31 63.01 2.00 264.66 3025.96
   03:14:34.879.03-Feb-2020 4017.01 3135.06 63.01 2.00 264.86 3025.96
   03:14:35.079.03-Feb-2020 4017.01 3135.34 63.01 2.00 265.06 3025.96
   03:14:35.279.03-Feb-2020 4017.01 3135.34 63.01 2.00 265.26 3025.96
   03:14:35.479.03-Feb-2020 4017.01 3135.31 63.01 2.00 265.46 3025.96
   03:14:35.679.03-Feb-2020 4017.01 3135.14 63.01 2.00 265.66 3025.96
   03:14:35.879.03-Feb-2020 4017.01 3135.36 63.01 2.00 265.86 3025.96
   03:14:36.079.03-Feb-2020 4017.01 3135.22 63.01 2.00 266.06 3025.96
   03:14:36.279.03-Feb-2020 4017.01 3135.22 63.01 2.00 266.26 3025.96
   03:14:36.479.03-Feb-2020 4017.01 3135.22 63.01 2.00 266.46 3025.96
   03:14:36.679.03-Feb-2020 4017.01 3135.14 63.01 2.00 266.66 3025.96
   03:14:36.879.03-Feb-2020 4017.01 3135.26 63.01 2.00 266.86 3025.96
   03:14:37.079.03-Feb-2020 4017.01 3135.26 63.01 2.00 267.06 3025.96
   03:14:37.279.03-Feb-2020 4017.01 3135.26 63.01 2.00 267.26 3025.96
   03:14:37.480.03-Feb-2020 4017.01 3135.26 63.01 2.00 267.46 3025.96
   03:14:37.680.03-Feb-2020 4017.01 3135.18 63.01 2.00 267.66 3025.96
   03:14:37.880.03-Feb-2020 4017.01 3135.28 63.01 2.00 267.86 3025.96
   03:14:38.080.03-Feb-2020 4017.01 3135.28 63.01 2.00 268.06 3025.96
   03:14:38.280.03-Feb-2020 4017.01 3135.28 63.01 2.00 268.26 3025.96
   03:14:38.480.03-Feb-2020 4017.01 3135.36 63.01 2.00 268.46 3025.96
   03:14:38.680.03-Feb-2020 4017.01 3135.20 63.01 2.00 268.66 3025.96
   03:14:38.880.03-Feb-2020 4017.01 3135.29 63.01 2.00 268.86 3025.96
   03:14:39.080.03-Feb-2020 4017.01 3135.24 63.01 2.00 269.06 3025.96
   03:14:39.280.03-Feb-2020 4017.01 3135.24 63.01 2.00 269.26 3025.96
   03:14:39.480.03-Feb-2020 4017.01 3135.21 63.01 2.00 269.46 3025.96
   03:14:39.680.03-Feb-2020 4017.01 3135.20 63.01 2.00 269.66 3025.96
   03:14:39.880.03-Feb-2020 4017.01 3135.28 63.01 2.00 269.86 3025.96
   03:14:40.080.03-Feb-2020 4017.01 3135.24 63.01 2.00 270.06 3025.96
   03:14:40.280.03-Feb-2020 4017.01 3135.24 63.01 2.00 270.26 3025.96
   03:14:40.480.03-Feb-2020 4017.01 3135.26 63.01 2.00 270.46 3025.96
   03:14:40.680.03-Feb-2020 4017.01 3134.98 63.01 2.00 270.66 3025.96
   03:14:40.880.03-Feb-2020 4017.01 3135.33 63.01 2.00 270.86 3025.96
   03:14:41.080.03-Feb-2020 4017.01 3135.04 63.01 2.00 271.06 3025.96
   03:14:41.280.03-Feb-2020 4017.01 3135.04 63.01 2.00 271.26 3025.96
   03:14:41.480.03-Feb-2020 4017.01 3135.20 63.01 2.00 271.46 3025.96
   03:14:41.680.03-Feb-2020 4017.01 3135.28 63.01 2.00 271.66 3025.96
   03:14:41.880.03-Feb-2020 4017.01 3134.72 63.01 2.00 271.86 3025.96
   03:14:42.081.03-Feb-2020 4017.01 3135.61 63.01 2.00 272.06 3025.96
   03:14:42.281.03-Feb-2020 4017.01 3135.61 63.01 2.00 272.26 3025.96
   03:14:42.481.03-Feb-2020 4017.01 3135.36 63.01 2.00 272.46 3025.96
   03:14:42.681.03-Feb-2020 4017.01 3135.25 63.01 2.00 272.66 3025.96
   03:14:42.881.03-Feb-2020 4017.01 3135.30 63.01 2.00 272.86 3025.96
   03:14:43.081.03-Feb-2020 4017.01 3134.82 63.01 2.00 273.06 3025.96
   03:14:43.281.03-Feb-2020 4017.01 3134.82 63.01 2.00 273.26 3025.96
   03:14:43.481.03-Feb-2020 4017.01 3135.16 63.01 2.00 273.46 3025.96
   03:14:43.681.03-Feb-2020 4017.01 3135.35 63.01 2.00 273.66 3025.96
   03:14:43.881.03-Feb-2020 4017.01 3134.85 63.01 2.00 273.86 3025.96
   03:14:44.081.03-Feb-2020 4017.01 3135.59 63.01 2.00 274.06 3025.96
   03:14:44.281.03-Feb-2020 4017.01 3135.59 63.01 2.00 274.26 3025.96
   03:14:44.481.03-Feb-2020 4017.01 3135.35 63.01 2.00 274.46 3025.96
   03:14:44.681.03-Feb-2020 4017.01 3135.17 63.01 2.00 274.66 3025.96
   03:14:44.881.03-Feb-2020 4017.01 3135.33 63.01 2.00 274.86 3025.96
   03:14:45.081.03-Feb-2020 4017.01 3135.28 63.01 2.00 275.06 3025.96
   03:14:45.281.03-Feb-2020 4017.01 3135.28 63.01 2.00 275.26 3025.96
   03:14:45.481.03-Feb-2020 4017.01 3135.22 63.01 2.00 275.46 3025.96
   03:14:45.681.03-Feb-2020 4017.01 3135.22 63.01 2.00 275.66 3025.96
   03:14:45.881.03-Feb-2020 4017.01 3135.20 63.01 2.00 275.86 3025.96
