~Version Information
 VERS.                  2.0:   CWLS log ASCII Standard -VERSION 2.0
 WRAP.                   NO:   One line per depth step
~Well Information Block
#MNEM.UNIT     VALUE/NAME     DESCRIPTION
#---------     -----------    ---------------------------
 STRT.S             08:33:17 03-Feb-20: START TIME 08:33:17 03-Feb-20
 STOP.S             08:41:10 03-Feb-20: STOP TIME  08:41:10 03-Feb-20
 STEP.S                   0.00: STEP TIME
 NULL.                 -999.25: NULL VALUE
 DFWT.                        :  DIST FWL TEXT
 DFST.                        :  DIST FSL TEXT
 DMF .             Drill Floor:  DRILL MEAS FROM
 STIM.      09.30.00 26-Dec-19:  START TIME
 DATE.      08.00.00 20-Jan-20:  END TIME
 SPUD.               23-Nov-19:  SPUD DATE
 NREF.                    Grid:  NORTH REFERENCE
 HPTY.       Minimum Curvature:  HOLE POS TYPE
 DMOD.             Drill Model:  DRILL MOD DESC
 SVYD.                  Survey:  SURVEY DESC
 ILTD.               Lithology:  INTERP LTH DESC
 FTOP.          Formation Tops:  FORM TOPS DESC
 SON .        AZ-XX-0906192647:  JOB NUMBER
 WTYP.                Deviated:  WELL TYPE
 COMP.     BP Exploration (Caspian Sea) Ltd:  COMPANY
 BASE.              Azerbaijan:  LOGGING EQUIPMENT BASE LOCATION
 REGN.                 Eurasia:  REGION
 FLD .                     ACG:  FIELD NAME
 SRVC.              KCA Deutag:  CONTRACTOR
 MWDS.                    Baku:  MWD SHOP
 WELL.     A10 (Slot 20) - SCP:  WELL NAME
 JOBN.        AZ-XX-0906192647:  JOB TICKET NUMB
 RIG .                 Chirag1:  RIG NAME
 DCON.     Halliburton Sperry Drilling:  DIRECTNL CONTR
 UNIT.                     N/A:  LOGGING EQUIPMENT ID
 PDAT.          Mean Sea Level:  PERMANENT DATUM
 MDS .        Operator Entered:  MAG DATA SOURCE
 CTRY.              Azerbaijan:  COUNTRY NAME
 UWI .            /AZE00000090:  UNIQUE WELL IDENTIFIER
 API .            /AZE00000090:  API NUMBER
 CNTY.                        :  COUNTY
 PROV.                        :  PROVINCE
 STAT.                        :  STATE
 LOC .                        :  LOCATION
 LMF .             Drill Floor:  LOG MEASURED FROM
 TVDS.m                  36.60:  TVDSS CORRECTN
 LATI.deg                40.08:  LATITUDE
 LONG.deg                51.24:  LONGITUDE
 WHNS.m                  -7.94:  WELL HEAD N/S
 WHEW.m                   1.56:  WELL HEAD E/W
 UTMX.m              520429.26:  UTM X
 UTMY.m             4438973.87:  UTM Y
 DFWL.m                   0.00:  DISTANCE FWL
 DFSL.m                   0.00:  DISTANCE FSL
 SDEP.m                1455.00:  START DEPTH
 TDD .m                4047.51:  TOTAL DEPTH (DRILLER)
 VSDR.deg               112.75:  VERT SEC DIRECT
 GVFD.g                   1.00:  GRAVITY FIELD
 MFLD.nT              50261.00:  MAGNETIC FIELD
 MDIP.deg                59.52:  MAGNETIC DIP
 MDEC.deg                 6.42:  MAGNETIC DECL
 GRDC.deg                 0.17:  GRID CORRECTION
 AZTC.deg                 6.25:  AZM TOTAL CORR
 EPD .m                   0.00:  ELEVATION
 EGL .m                   0.00:  GROUND ELEVATION
 WDMS.m                 121.00:  WD ELEV
 APD .m                  36.60:  DEPTH ABOVE PD
 AGAP.m                  36.60:  AIR GAP
 VSEW.m                   1.56:  VERT SEC E/W
 VSNS.m                  -7.94:  VERT SEC N/S
 DEP .m                1140.01:  DEPTH
 EKB .m                  36.60:  KB ELEVATION
 EDF .m                  36.60:  DF ELEVATION
 VSC .                       0:  VS TO CLOSURE
 MAGU.                 1849206:  MAGUTM CHECKSUM
~Parameter Information Block
#MNEM.UNIT       Value        Description
#---------     -----------    ---------------------------
 AV  .mps                 1.70:  Ann Velocity 
 AVMX.mps                 2.30:  Max Ann Veloc 
 AZIF.deg               137.03:  Azm, Final 
 BHAT.                   Other:  BHA Type 
 BROT.°/30m               0.80:  Build Rotating 
 BS  .in                  8.00:  Bit Size 
 BTPL.psig              161.00:  Bit Press Loss 
 CABU.                      No:  Customer Abuse 
 COMM.                     äör:  Run Comments 1 
 TCS .hr                  9.59:  Time Ciculation Ended 
 CV  .mps                 3.76:  Crit Velocity 
 CVMX.mps                 4.26:  Max Crit Veloc 
 DD1 .         Intigam Rahimov:  Direct Drillr 1 
 DD2 .          Rashad Gojayev:  Direct Drillr 2 
 DDSV.                   Other:  DD Service 
 DEFF.%                 100.00:  % Det Eff 
 DLRX.°/30m               1.44:  Dogleg Rot Max 
 DLSO.°/30m               0.00:  Dogleg Oriented 
 DLSX.°/30m               0.00:  Dogleg Str Max 
 DRET.      03.31.12 02-Feb-20:  Drill End Time 
 DRST.      03.31.12 02-Feb-20:  Drill Start Tim 
 DTIM.hr                  1.99:  Time Drilling 
 EDEP.m                4047.51:  End Depth 
 ENG1.           Eldar Hajiyev:  Engineer 1 
 ENG2.          Rasim Hashimov:  Engineer 2 
 ENG3.          Rustam Safarov:  Engineer 3 
 ETIM.      03.31.12 02-Feb-20:  End Time 
 FLOI.gpm               300.00:  Flow In 
 FLON.gpm               250.00:  Flow In Min 
 FLOS.cptm                0.00:  Fluid Loss 
 FLOX.gpm               330.00:  Flow In Max 
 HFLO.                      No:  High Flow 
 HPRE.                      No:  High Pressure 
 HTEM.                      No:  High Temp 
 HYDO.m                   2.50:  Hydro Offset 
 IFIN.deg                39.54:  Inc, Final 
 IMAX.deg                41.14:  Inc Max 
 IMIN.deg                39.81:  Inc Min 
 IMND.m                4005.21:  Inc Min Depth 
 IMXD.m                3948.42:  Inc Max Depth 
 JARR.                      No:  Jarring 
 LETM.      03.31.12 02-Feb-20:  Log End Time 
 LOST.hr                     0:  Lost Rig Time 
 LSTM.      03.31.12 02-Feb-20:  Log Start Time 
 MDCL.ppm             35000.00:  Mud Chlorides 
 MDES.     Inversion Oil/Synthetic:  Mud Desc 
 DFD .sg                  1.32:  Mud Density 
 MDMN.sg                  1.32:  Dens Mud Min 
 MDMX.sg                  1.32:  Dens Mud Max 
 MOIL.                      59:  Run Mud Oil % 
 MOWR.                   71:29:  Run Mud OWR 
 MSND.                       0:  Run Mud Sand % 
 MSOL.                      17:  Run Mud Solids% 
 DFV .spqt               86.00:  Mud Viscosity 
 MWOD.in                  4.75:  MWD Tool OD 
 MWSI.                      No:  Serv Intrp, MWD 
 OTIM.hr                 46.72:  Time Operating 
 PCON.           Look Like New:  Pad Condition 
 PMAX.psia             3300.00:  Press Op, Max 
 PV  .cP                 30.00:  Mud PV 
 RUN .                     400:  Run Number 
 ROPA.m/hr               35.00:  ROP Avg 
 ROPN.m/hr               25.00:  ROP Min 
 ROPX.m/hr               40.00:  ROP Max 
 RPMA.rpm                80.00:  RPM Surface Avg 
 RPMN.rpm                60.00:  RPM Surface Min 
 RPMX.rpm               100.00:  RPM Surface Max 
 RRUN.                     400:  Rig Run Number 
 RTIM.hr                  1.99:  Time Reaming 
 SAZI.deg               133.93:  Azm, Start 
 SDEP.m                4047.51:  Start Depth 
 SIDD.                      No:  Serv Intrp, DD 
 SINC.deg                40.28:  Inc, Start 
 SPPA.psig             3250.00:  SPP Avg 
 SPPN.psig             3200.00:  SPP Min 
 SPPX.psig             3300.00:  SPP Max 
 STIM.      03.31.12 02-Feb-20:  Start Time 
 SVCS.                 DD, MWD:  Services 
 SVER.                    9.20:  Sperry Version 
 TDAT.m                  47.00:  Tot Depth Attmp 
 TDDF.                      No:  Trip for DD 
 TFF .                      No:  Trip for Fail 
 TQAA.f-kp                0.00:  Torque Abs Avg 
 TQAN.f-kp                0.00:  Torque Abs Min 
 TQAX.f-kp                0.00:  Torque Abs Max 
 TRRT.°/30m               0.70:  Turn Rotating 
 MRT .                    HCIM:  Maximum Recorded Temperature 
 TTMX.degC               70.59:  Max Tool Temp 
 VS01.             90598770F11:  Virtual Str1 SN 
 VS02.             90598769F11:  Virtual Str2 SN 
 VS03.            90515978Z1W1:  Virtual Str3 SN 
 VS04.          90584144R12X14:  Virtual Str4 SN 
 WBMN.klb                 0.00:  WOB Min 
 WITN.            Peter Wilson:  Customer Rep 
 WOBA.klb                 0.00:  WOB Avg 
 WOBX.klb                 0.00:  WOB Max 
 YP  .lhf2               29.00:  Yield Point 
~Curve Information Block
#MNEM.UNIT                 API CODE     Curve Description
#---------               -----------    ---------------------------
 TIME.HHMMSS            00 000 000 000:  GT Time & Date
 GTDEPTH.m              00 000 000 000:  GT Depth
 GTPQH.psia             00 000 000 000:  GT HR Quartz Pressure
 GTTQ.degC              00 000 000 000:  GT Quartz Temperature
 GTTN.NONE              00 000 000 000:  GT Test Number
 GTET.sec               00 000 000 000:  GT Elapsed Test Time
 GTTVD.m                00 000 000 000:  GT True Vertical Depth
#Other Information
#
#WARRANTY: Halliburton will use its best efforts to furnish customers with 
#accurate information and interpretations that are part of, and incident to, the services 
#provided.  However, Halliburton cannot and does not warrant the accuracy 
#or correctness of such information and interpretations.  Under no circumstances should any 
#such information or interpretation be relied upon as the sole basis for any drilling, 
#completion, production, or financial decision or any procedure involving any risk to the 
#safety of any drilling venture, drilling rig or its crew or any other third party.  The 
#Customer has full responsibility for all drilling, completion and production operation.  
#Halliburton makes no representations or warranties, either expressed or 
#implied, including, but not limited to, the implied warranties of merchantability or fitness 
#for a particular purpose, with respect to the services rendered.  In no event will 
#Halliburton be liable for failure to obtain any particular results or for 
#any damages, including, but not limited to, indirect, special or consequential damages, 
#resulting from the use of any information or interpretation provided by Halliburton.
#
~A           TIME           GTDEPTH  GTPQH  GTTQ  GTTN   GTET   GTTVD  
# ...
   08:36:40.488.03-Feb-2020 4013.71 3131.87 64.45 11.00 203.41 3023.43
   08:36:40.688.03-Feb-2020 4013.71 3131.87 64.45 11.00 203.61 3023.43
   08:36:40.888.03-Feb-2020 4013.71 3131.86 64.45 11.00 203.81 3023.43
   08:36:41.088.03-Feb-2020 4013.71 3131.68 64.45 11.00 204.01 3023.43
   08:36:41.288.03-Feb-2020 4013.71 3131.68 64.45 11.00 204.21 3023.43
   08:36:41.488.03-Feb-2020 4013.71 3131.92 64.45 11.00 204.41 3023.43
   08:36:41.688.03-Feb-2020 4013.71 3131.92 64.45 11.00 204.61 3023.43
   08:36:41.888.03-Feb-2020 4013.71 3131.88 64.45 11.00 204.81 3023.43
   08:36:42.088.03-Feb-2020 4013.71 3131.82 64.45 11.00 205.01 3023.43
   08:36:42.288.03-Feb-2020 4013.71 3131.82 64.45 11.00 205.21 3023.43
   08:36:42.488.03-Feb-2020 4013.71 3131.83 64.45 11.00 205.41 3023.43
   08:36:42.688.03-Feb-2020 4013.71 3131.94 64.45 11.00 205.61 3023.43
   08:36:42.888.03-Feb-2020 4013.71 3131.91 64.45 11.00 205.81 3023.43
   08:36:43.088.03-Feb-2020 4013.71 3131.93 64.45 11.00 206.01 3023.43
   08:36:43.288.03-Feb-2020 4013.71 3131.93 64.45 11.00 206.21 3023.43
   08:36:43.488.03-Feb-2020 4013.71 3131.95 64.45 11.00 206.41 3023.43
   08:36:43.688.03-Feb-2020 4013.71 3131.92 64.45 11.00 206.61 3023.43
   08:36:43.888.03-Feb-2020 4013.71 3131.94 64.45 11.00 206.81 3023.43
   08:36:44.088.03-Feb-2020 4013.71 3131.97 64.45 11.00 207.01 3023.43
   08:36:44.288.03-Feb-2020 4013.71 3131.97 64.45 11.00 207.21 3023.43
   08:36:44.488.03-Feb-2020 4013.71 3132.07 64.45 11.00 207.41 3023.43
   08:36:44.688.03-Feb-2020 4013.71 3131.87 64.45 11.00 207.61 3023.43
   08:36:44.888.03-Feb-2020 4013.71 3131.93 64.45 11.00 207.81 3023.43
   08:36:45.088.03-Feb-2020 4013.71 3131.94 64.45 11.00 208.01 3023.43
   08:36:45.288.03-Feb-2020 4013.71 3131.94 64.45 11.00 208.21 3023.43
   08:36:45.488.03-Feb-2020 4013.71 3131.93 64.45 11.00 208.41 3023.43
   08:36:45.688.03-Feb-2020 4013.71 3131.94 64.45 11.00 208.61 3023.43
   08:36:45.888.03-Feb-2020 4013.71 3131.93 64.45 11.00 208.81 3023.43
   08:36:46.088.03-Feb-2020 4013.71 3131.93 64.45 11.00 209.01 3023.43
   08:36:46.288.03-Feb-2020 4013.71 3131.93 64.45 11.00 209.21 3023.43
   08:36:46.488.03-Feb-2020 4013.71 3131.94 64.45 11.00 209.41 3023.43
   08:36:46.688.03-Feb-2020 4013.71 3131.94 64.45 11.00 209.61 3023.43
   08:36:46.888.03-Feb-2020 4013.71 3131.94 64.45 11.00 209.81 3023.43
   08:36:47.088.03-Feb-2020 4013.71 3131.94 64.45 11.00 210.01 3023.43
   08:36:47.288.03-Feb-2020 4013.71 3131.94 64.45 11.00 210.21 3023.43
   08:36:47.488.03-Feb-2020 4013.71 3131.92 64.45 11.00 210.41 3023.43
   08:36:47.688.03-Feb-2020 4013.71 3131.92 64.45 11.00 210.61 3023.43
   08:36:47.888.03-Feb-2020 4013.71 3131.87 64.45 11.00 210.81 3023.43
   08:36:48.088.03-Feb-2020 4013.71 3132.04 64.44 11.00 211.01 3023.43
   08:36:48.288.03-Feb-2020 4013.71 3132.04 64.44 11.00 211.21 3023.43
   08:36:48.488.03-Feb-2020 4013.71 3131.97 64.44 11.00 211.41 3023.43
   08:36:48.688.03-Feb-2020 4013.71 3131.97 64.44 11.00 211.61 3023.43
   08:36:48.888.03-Feb-2020 4013.71 3131.97 64.44 11.00 211.81 3023.43
   08:36:49.088.03-Feb-2020 4013.71 3131.98 64.44 11.00 212.01 3023.43
   08:36:49.288.03-Feb-2020 4013.71 3131.98 64.44 11.00 212.21 3023.43
   08:36:49.488.03-Feb-2020 4013.71 3131.99 64.44 11.00 212.41 3023.43
   08:36:49.689.03-Feb-2020 4013.71 3131.99 64.44 11.00 212.61 3023.43
   08:36:49.889.03-Feb-2020 4013.71 3131.99 64.44 11.00 212.81 3023.43
   08:36:50.089.03-Feb-2020 4013.71 3131.72 64.44 11.00 213.01 3023.43
   08:36:50.289.03-Feb-2020 4013.71 3131.72 64.44 11.00 213.21 3023.43
   08:36:50.489.03-Feb-2020 4013.71 3131.98 64.44 11.00 213.41 3023.43
   08:36:50.689.03-Feb-2020 4013.71 3132.07 64.44 11.00 213.61 3023.43
   08:36:50.889.03-Feb-2020 4013.71 3132.00 64.44 11.00 213.81 3023.43
   08:36:51.089.03-Feb-2020 4013.71 3132.02 64.44 11.00 214.01 3023.43
   08:36:51.289.03-Feb-2020 4013.71 3132.02 64.44 11.00 214.21 3023.43
   08:36:51.489.03-Feb-2020 4013.71 3132.05 64.44 11.00 214.41 3023.43
   08:36:51.689.03-Feb-2020 4013.71 3132.03 64.44 11.00 214.61 3023.43
   08:36:51.889.03-Feb-2020 4013.71 3132.03 64.44 11.00 214.81 3023.43
   08:36:52.089.03-Feb-2020 4013.71 3132.05 64.44 11.00 215.01 3023.43
   08:36:52.289.03-Feb-2020 4013.71 3132.05 64.44 11.00 215.21 3023.43
   08:36:52.489.03-Feb-2020 4013.71 3132.16 64.44 11.00 215.41 3023.43
   08:36:52.689.03-Feb-2020 4013.71 3131.98 64.44 11.00 215.61 3023.43
   08:36:52.889.03-Feb-2020 4013.71 3132.07 64.44 11.00 215.81 3023.43
   08:36:53.089.03-Feb-2020 4013.71 3132.05 64.44 11.00 216.01 3023.43
   08:36:53.289.03-Feb-2020 4013.71 3132.05 64.44 11.00 216.21 3023.43
   08:36:53.489.03-Feb-2020 4013.71 3132.17 64.44 11.00 216.41 3023.43
   08:36:53.689.03-Feb-2020 4013.71 3131.92 64.44 11.00 216.61 3023.43
   08:36:53.889.03-Feb-2020 4013.71 3132.09 64.44 11.00 216.81 3023.43
   08:36:54.089.03-Feb-2020 4013.71 3132.01 64.44 11.00 217.01 3023.43
   08:36:54.289.03-Feb-2020 4013.71 3132.01 64.44 11.00 217.21 3023.43
   08:36:54.489.03-Feb-2020 4013.71 3132.03 64.44 11.00 217.41 3023.43
   08:36:54.689.03-Feb-2020 4013.71 3132.03 64.44 11.00 217.61 3023.43
   08:36:54.889.03-Feb-2020 4013.71 3132.02 64.44 11.00 217.81 3023.43
   08:36:55.089.03-Feb-2020 4013.71 3132.02 64.44 11.00 218.01 3023.43
   08:36:55.289.03-Feb-2020 4013.71 3132.02 64.44 11.00 218.21 3023.43
   08:36:55.489.03-Feb-2020 4013.71 3132.04 64.44 11.00 218.41 3023.43
   08:36:55.689.03-Feb-2020 4013.71 3132.06 64.44 11.00 218.61 3023.43
   08:36:55.889.03-Feb-2020 4013.71 3132.04 64.44 11.00 218.81 3023.43
   08:36:56.089.03-Feb-2020 4013.71 3132.01 64.44 11.00 219.01 3023.43
   08:36:56.289.03-Feb-2020 4013.71 3132.01 64.44 11.00 219.21 3023.43
   08:36:56.489.03-Feb-2020 4013.71 3132.06 64.44 11.00 219.41 3023.43
   08:36:56.689.03-Feb-2020 4013.71 3131.86 64.44 11.00 219.61 3023.43
   08:36:56.889.03-Feb-2020 4013.71 3132.06 64.44 11.00 219.81 3023.43
   08:36:57.089.03-Feb-2020 4013.71 3132.06 64.44 11.00 220.01 3023.43
   08:36:57.289.03-Feb-2020 4013.71 3132.06 64.44 11.00 220.21 3023.43
   08:36:57.489.03-Feb-2020 4013.71 3132.06 64.44 11.00 220.41 3023.43
   08:36:57.689.03-Feb-2020 4013.71 3132.04 64.44 11.00 220.61 3023.43
   08:36:57.889.03-Feb-2020 4013.71 3132.07 64.44 11.00 220.81 3023.43
   08:36:58.089.03-Feb-2020 4013.71 3132.06 64.44 11.00 221.01 3023.43
   08:36:58.289.03-Feb-2020 4013.71 3132.06 64.44 11.00 221.21 3023.43
   08:36:58.489.03-Feb-2020 4013.71 3132.10 64.44 11.00 221.41 3023.43
   08:36:58.689.03-Feb-2020 4013.71 3132.07 64.44 11.00 221.61 3023.43
   08:36:58.889.03-Feb-2020 4013.71 3132.06 64.44 11.00 221.81 3023.43
   08:36:59.089.03-Feb-2020 4013.71 3131.88 64.44 11.00 222.01 3023.43
   08:36:59.289.03-Feb-2020 4013.71 3131.88 64.44 11.00 222.21 3023.43
   08:36:59.489.03-Feb-2020 4013.71 3132.00 64.44 11.00 222.41 3023.43
   08:36:59.689.03-Feb-2020 4013.71 3132.21 64.44 11.00 222.61 3023.43
   08:36:59.889.03-Feb-2020 4013.71 3132.06 64.44 11.00 222.81 3023.43
   08:37:00.089.03-Feb-2020 4013.71 3132.09 64.44 11.00 223.01 3023.43
   08:37:00.289.03-Feb-2020 4013.71 3132.09 64.44 11.00 223.21 3023.43
   08:37:00.489.03-Feb-2020 4013.71 3132.24 64.44 11.00 223.41 3023.43
   08:37:00.689.03-Feb-2020 4013.71 3132.05 64.44 11.00 223.61 3023.43
   08:37:00.889.03-Feb-2020 4013.71 3132.15 64.44 11.00 223.81 3023.43
   08:37:01.089.03-Feb-2020 4013.71 3132.08 64.44 11.00 224.01 3023.43
   08:37:01.289.03-Feb-2020 4013.71 3132.08 64.44 11.00 224.21 3023.43
   08:37:01.489.03-Feb-2020 4013.71 3132.24 64.44 11.00 224.41 3023.43
   08:37:01.689.03-Feb-2020 4013.71 3132.00 64.44 11.00 224.61 3023.43
   08:37:01.889.03-Feb-2020 4013.71 3132.16 64.44 11.00 224.81 3023.43
   08:37:02.089.03-Feb-2020 4013.71 3132.14 64.44 11.00 225.01 3023.43
   08:37:02.289.03-Feb-2020 4013.71 3132.14 64.44 11.00 225.21 3023.43
   08:37:02.489.03-Feb-2020 4013.71 3132.07 64.44 11.00 225.41 3023.43
   08:37:02.689.03-Feb-2020 4013.71 3132.04 64.44 11.00 225.61 3023.43
   08:37:02.889.03-Feb-2020 4013.71 3132.15 64.44 11.00 225.81 3023.43
