~Version Information
 VERS.                  2.0:   CWLS log ASCII Standard -VERSION 2.0
 WRAP.                   NO:   One line per depth step
~Well Information Block
#MNEM.UNIT     VALUE/NAME     DESCRIPTION
#---------     -----------    ---------------------------
 STRT.S             08:33:17 03-Feb-20: START TIME 08:33:17 03-Feb-20
 STOP.S             08:41:10 03-Feb-20: STOP TIME  08:41:10 03-Feb-20
 STEP.S                   0.00: STEP TIME
 NULL.                 -999.25: NULL VALUE
 DFWT.                        :  DIST FWL TEXT
 DFST.                        :  DIST FSL TEXT
 DMF .             Drill Floor:  DRILL MEAS FROM
 STIM.      09.30.00 26-Dec-19:  START TIME
 DATE.      08.00.00 20-Jan-20:  END TIME
 SPUD.               23-Nov-19:  SPUD DATE
 NREF.                    Grid:  NORTH REFERENCE
 HPTY.       Minimum Curvature:  HOLE POS TYPE
 DMOD.             Drill Model:  DRILL MOD DESC
 SVYD.                  Survey:  SURVEY DESC
 ILTD.               Lithology:  INTERP LTH DESC
 FTOP.          Formation Tops:  FORM TOPS DESC
 SON .        AZ-XX-0906192647:  JOB NUMBER
 WTYP.                Deviated:  WELL TYPE
 COMP.     BP Exploration (Caspian Sea) Ltd:  COMPANY
 BASE.              Azerbaijan:  LOGGING EQUIPMENT BASE LOCATION
 REGN.                 Eurasia:  REGION
 FLD .                     ACG:  FIELD NAME
 SRVC.              KCA Deutag:  CONTRACTOR
 MWDS.                    Baku:  MWD SHOP
 WELL.     A10 (Slot 20) - SCP:  WELL NAME
 JOBN.        AZ-XX-0906192647:  JOB TICKET NUMB
 RIG .                 Chirag1:  RIG NAME
 DCON.     Halliburton Sperry Drilling:  DIRECTNL CONTR
 UNIT.                     N/A:  LOGGING EQUIPMENT ID
 PDAT.          Mean Sea Level:  PERMANENT DATUM
 MDS .        Operator Entered:  MAG DATA SOURCE
 CTRY.              Azerbaijan:  COUNTRY NAME
 UWI .            /AZE00000090:  UNIQUE WELL IDENTIFIER
 API .            /AZE00000090:  API NUMBER
 CNTY.                        :  COUNTY
 PROV.                        :  PROVINCE
 STAT.                        :  STATE
 LOC .                        :  LOCATION
 LMF .             Drill Floor:  LOG MEASURED FROM
 TVDS.m                  36.60:  TVDSS CORRECTN
 LATI.deg                40.08:  LATITUDE
 LONG.deg                51.24:  LONGITUDE
 WHNS.m                  -7.94:  WELL HEAD N/S
 WHEW.m                   1.56:  WELL HEAD E/W
 UTMX.m              520429.26:  UTM X
 UTMY.m             4438973.87:  UTM Y
 DFWL.m                   0.00:  DISTANCE FWL
 DFSL.m                   0.00:  DISTANCE FSL
 SDEP.m                1455.00:  START DEPTH
 TDD .m                4047.51:  TOTAL DEPTH (DRILLER)
 VSDR.deg               112.75:  VERT SEC DIRECT
 GVFD.g                   1.00:  GRAVITY FIELD
 MFLD.nT              50261.00:  MAGNETIC FIELD
 MDIP.deg                59.52:  MAGNETIC DIP
 MDEC.deg                 6.42:  MAGNETIC DECL
 GRDC.deg                 0.17:  GRID CORRECTION
 AZTC.deg                 6.25:  AZM TOTAL CORR
 EPD .m                   0.00:  ELEVATION
 EGL .m                   0.00:  GROUND ELEVATION
 WDMS.m                 121.00:  WD ELEV
 APD .m                  36.60:  DEPTH ABOVE PD
 AGAP.m                  36.60:  AIR GAP
 VSEW.m                   1.56:  VERT SEC E/W
 VSNS.m                  -7.94:  VERT SEC N/S
 DEP .m                1140.01:  DEPTH
 EKB .m                  36.60:  KB ELEVATION
 EDF .m                  36.60:  DF ELEVATION
 VSC .                       0:  VS TO CLOSURE
 MAGU.                 1849206:  MAGUTM CHECKSUM
~Parameter Information Block
#MNEM.UNIT       Value        Description
#---------     -----------    ---------------------------
 AV  .mps                 1.70:  Ann Velocity 
 AVMX.mps                 2.30:  Max Ann Veloc 
 AZIF.deg               137.03:  Azm, Final 
 BHAT.                   Other:  BHA Type 
 BROT.°/30m               0.80:  Build Rotating 
 BS  .in                  8.00:  Bit Size 
 BTPL.psig              161.00:  Bit Press Loss 
 CABU.                      No:  Customer Abuse 
 COMM.                     äör:  Run Comments 1 
 TCS .hr                  9.59:  Time Ciculation Ended 
 CV  .mps                 3.76:  Crit Velocity 
 CVMX.mps                 4.26:  Max Crit Veloc 
 DD1 .         Intigam Rahimov:  Direct Drillr 1 
 DD2 .          Rashad Gojayev:  Direct Drillr 2 
 DDSV.                   Other:  DD Service 
 DEFF.%                 100.00:  % Det Eff 
 DLRX.°/30m               1.44:  Dogleg Rot Max 
 DLSO.°/30m               0.00:  Dogleg Oriented 
 DLSX.°/30m               0.00:  Dogleg Str Max 
 DRET.      03.31.12 02-Feb-20:  Drill End Time 
 DRST.      03.31.12 02-Feb-20:  Drill Start Tim 
 DTIM.hr                  1.99:  Time Drilling 
 EDEP.m                4047.51:  End Depth 
 ENG1.           Eldar Hajiyev:  Engineer 1 
 ENG2.          Rasim Hashimov:  Engineer 2 
 ENG3.          Rustam Safarov:  Engineer 3 
 ETIM.      03.31.12 02-Feb-20:  End Time 
 FLOI.gpm               300.00:  Flow In 
 FLON.gpm               250.00:  Flow In Min 
 FLOS.cptm                0.00:  Fluid Loss 
 FLOX.gpm               330.00:  Flow In Max 
 HFLO.                      No:  High Flow 
 HPRE.                      No:  High Pressure 
 HTEM.                      No:  High Temp 
 HYDO.m                   2.50:  Hydro Offset 
 IFIN.deg                39.54:  Inc, Final 
 IMAX.deg                41.14:  Inc Max 
 IMIN.deg                39.81:  Inc Min 
 IMND.m                4005.21:  Inc Min Depth 
 IMXD.m                3948.42:  Inc Max Depth 
 JARR.                      No:  Jarring 
 LETM.      03.31.12 02-Feb-20:  Log End Time 
 LOST.hr                     0:  Lost Rig Time 
 LSTM.      03.31.12 02-Feb-20:  Log Start Time 
 MDCL.ppm             35000.00:  Mud Chlorides 
 MDES.     Inversion Oil/Synthetic:  Mud Desc 
 DFD .sg                  1.32:  Mud Density 
 MDMN.sg                  1.32:  Dens Mud Min 
 MDMX.sg                  1.32:  Dens Mud Max 
 MOIL.                      59:  Run Mud Oil % 
 MOWR.                   71:29:  Run Mud OWR 
 MSND.                       0:  Run Mud Sand % 
 MSOL.                      17:  Run Mud Solids% 
 DFV .spqt               86.00:  Mud Viscosity 
 MWOD.in                  4.75:  MWD Tool OD 
 MWSI.                      No:  Serv Intrp, MWD 
 OTIM.hr                 46.72:  Time Operating 
 PCON.           Look Like New:  Pad Condition 
 PMAX.psia             3300.00:  Press Op, Max 
 PV  .cP                 30.00:  Mud PV 
 RUN .                     400:  Run Number 
 ROPA.m/hr               35.00:  ROP Avg 
 ROPN.m/hr               25.00:  ROP Min 
 ROPX.m/hr               40.00:  ROP Max 
 RPMA.rpm                80.00:  RPM Surface Avg 
 RPMN.rpm                60.00:  RPM Surface Min 
 RPMX.rpm               100.00:  RPM Surface Max 
 RRUN.                     400:  Rig Run Number 
 RTIM.hr                  1.99:  Time Reaming 
 SAZI.deg               133.93:  Azm, Start 
 SDEP.m                4047.51:  Start Depth 
 SIDD.                      No:  Serv Intrp, DD 
 SINC.deg                40.28:  Inc, Start 
 SPPA.psig             3250.00:  SPP Avg 
 SPPN.psig             3200.00:  SPP Min 
 SPPX.psig             3300.00:  SPP Max 
 STIM.      03.31.12 02-Feb-20:  Start Time 
 SVCS.                 DD, MWD:  Services 
 SVER.                    9.20:  Sperry Version 
 TDAT.m                  47.00:  Tot Depth Attmp 
 TDDF.                      No:  Trip for DD 
 TFF .                      No:  Trip for Fail 
 TQAA.f-kp                0.00:  Torque Abs Avg 
 TQAN.f-kp                0.00:  Torque Abs Min 
 TQAX.f-kp                0.00:  Torque Abs Max 
 TRRT.°/30m               0.70:  Turn Rotating 
 MRT .                    HCIM:  Maximum Recorded Temperature 
 TTMX.degC               70.59:  Max Tool Temp 
 VS01.             90598770F11:  Virtual Str1 SN 
 VS02.             90598769F11:  Virtual Str2 SN 
 VS03.            90515978Z1W1:  Virtual Str3 SN 
 VS04.          90584144R12X14:  Virtual Str4 SN 
 WBMN.klb                 0.00:  WOB Min 
 WITN.            Peter Wilson:  Customer Rep 
 WOBA.klb                 0.00:  WOB Avg 
 WOBX.klb                 0.00:  WOB Max 
 YP  .lhf2               29.00:  Yield Point 
~Curve Information Block
#MNEM.UNIT                 API CODE     Curve Description
#---------               -----------    ---------------------------
 TIME.HHMMSS            00 000 000 000:  GT Time & Date
 GTDEPTH.m              00 000 000 000:  GT Depth
 GTPQH.psia             00 000 000 000:  GT HR Quartz Pressure
 GTTQ.degC              00 000 000 000:  GT Quartz Temperature
 GTTN.NONE              00 000 000 000:  GT Test Number
 GTET.sec               00 000 000 000:  GT Elapsed Test Time
 GTTVD.m                00 000 000 000:  GT True Vertical Depth
#Other Information
#
#WARRANTY: Halliburton will use its best efforts to furnish customers with 
#accurate information and interpretations that are part of, and incident to, the services 
#provided.  However, Halliburton cannot and does not warrant the accuracy 
#or correctness of such information and interpretations.  Under no circumstances should any 
#such information or interpretation be relied upon as the sole basis for any drilling, 
#completion, production, or financial decision or any procedure involving any risk to the 
#safety of any drilling venture, drilling rig or its crew or any other third party.  The 
#Customer has full responsibility for all drilling, completion and production operation.  
#Halliburton makes no representations or warranties, either expressed or 
#implied, including, but not limited to, the implied warranties of merchantability or fitness 
#for a particular purpose, with respect to the services rendered.  In no event will 
#Halliburton be liable for failure to obtain any particular results or for 
#any damages, including, but not limited to, indirect, special or consequential damages, 
#resulting from the use of any information or interpretation provided by Halliburton.
#
~A           TIME           GTDEPTH  GTPQH  GTTQ  GTTN   GTET   GTTVD  
# ...
   08:38:10.891.03-Feb-2020 4013.71 3132.33 64.42 11.00 293.81 3023.43
   08:38:11.091.03-Feb-2020 4013.71 3132.34 64.42 11.00 294.01 3023.43
   08:38:11.291.03-Feb-2020 4013.71 3132.34 64.42 11.00 294.21 3023.43
   08:38:11.491.03-Feb-2020 4013.71 3132.36 64.42 11.00 294.41 3023.43
   08:38:11.691.03-Feb-2020 4013.71 3132.36 64.42 11.00 294.61 3023.43
   08:38:11.891.03-Feb-2020 4013.71 3132.34 64.42 11.00 294.81 3023.43
   08:38:12.091.03-Feb-2020 4013.71 3132.35 64.42 11.00 295.01 3023.43
   08:38:12.291.03-Feb-2020 4013.71 3132.35 64.42 11.00 295.21 3023.43
   08:38:12.491.03-Feb-2020 4013.71 3132.35 64.42 11.00 295.41 3023.43
   08:38:12.691.03-Feb-2020 4013.71 3132.41 64.42 11.00 295.61 3023.43
   08:38:12.891.03-Feb-2020 4013.71 3132.40 64.42 11.00 295.81 3023.43
   08:38:13.091.03-Feb-2020 4013.71 3132.35 64.42 11.00 296.01 3023.43
   08:38:13.291.03-Feb-2020 4013.71 3132.35 64.42 11.00 296.21 3023.43
   08:38:13.491.03-Feb-2020 4013.71 3132.53 64.42 11.00 296.41 3023.43
   08:38:13.691.03-Feb-2020 4013.71 3132.28 64.42 11.00 296.61 3023.43
   08:38:13.891.03-Feb-2020 4013.71 3132.43 64.42 11.00 296.81 3023.43
   08:38:14.091.03-Feb-2020 4013.71 3132.35 64.42 11.00 297.01 3023.43
   08:38:14.291.03-Feb-2020 4013.71 3132.35 64.42 11.00 297.21 3023.43
   08:38:14.491.03-Feb-2020 4013.71 3132.20 64.42 11.00 297.41 3023.43
   08:38:14.691.03-Feb-2020 4013.71 3132.37 64.42 11.00 297.61 3023.43
   08:38:14.891.03-Feb-2020 4013.71 3132.37 64.42 11.00 297.81 3023.43
   08:38:15.091.03-Feb-2020 4013.71 3132.40 64.42 11.00 298.01 3023.43
   08:38:15.291.03-Feb-2020 4013.71 3132.40 64.42 11.00 298.21 3023.43
   08:38:15.491.03-Feb-2020 4013.71 3132.29 64.42 11.00 298.41 3023.43
   08:38:15.691.03-Feb-2020 4013.71 3132.35 64.42 11.00 298.61 3023.43
   08:38:15.891.03-Feb-2020 4013.71 3132.27 64.42 11.00 298.81 3023.43
   08:38:16.091.03-Feb-2020 4013.71 3132.39 64.42 11.00 299.01 3023.43
   08:38:16.291.03-Feb-2020 4013.71 3132.39 64.42 11.00 299.21 3023.43
   08:38:16.491.03-Feb-2020 4013.71 3132.39 64.42 11.00 299.41 3023.43
   08:38:16.691.03-Feb-2020 4013.71 3132.36 64.42 11.00 299.61 3023.43
   08:38:16.891.03-Feb-2020 4013.71 3132.38 64.42 11.00 299.81 3023.43
   08:38:17.091.03-Feb-2020 4013.71 3132.33 64.42 11.00 300.01 3023.43
   08:38:17.291.03-Feb-2020 4013.71 3132.33 64.42 11.00 300.21 3023.43
   08:38:17.491.03-Feb-2020 4013.71 3132.39 64.42 11.00 300.41 3023.43
   08:38:17.691.03-Feb-2020 4013.71 3132.35 64.42 11.00 300.61 3023.43
   08:38:17.891.03-Feb-2020 4013.71 3132.37 64.42 11.00 300.81 3023.43
   08:38:18.091.03-Feb-2020 4013.71 3132.37 64.41 11.00 301.01 3023.43
   08:38:18.291.03-Feb-2020 4013.71 3132.37 64.41 11.00 301.21 3023.43
   08:38:18.491.03-Feb-2020 4013.71 3132.40 64.41 11.00 301.41 3023.43
   08:38:18.691.03-Feb-2020 4013.71 3132.40 64.41 11.00 301.61 3023.43
   08:38:18.891.03-Feb-2020 4013.71 3131.69 64.41 11.00 301.81 3023.43
   08:38:19.091.03-Feb-2020 4013.71 3084.29 64.41 11.00 302.01 3023.43
   08:38:19.291.03-Feb-2020 4013.71 3084.29 64.41 11.00 302.21 3023.43
   08:38:19.491.03-Feb-2020 4013.71 3040.56 64.41 11.00 302.41 3023.43
   08:38:19.691.03-Feb-2020 4013.71 3037.52 64.41 11.00 302.61 3023.43
   08:38:19.891.03-Feb-2020 4013.71 3036.32 64.41 11.00 302.81 3023.43
   08:38:20.091.03-Feb-2020 4013.71 3033.39 64.41 11.00 303.01 3023.43
   08:38:20.291.03-Feb-2020 4013.71 3033.39 64.41 11.00 303.21 3023.43
   08:38:20.491.03-Feb-2020 4013.71 3030.07 64.41 11.00 303.41 3023.43
   08:38:20.691.03-Feb-2020 4013.71 3030.48 64.41 11.00 303.61 3023.43
   08:38:20.891.03-Feb-2020 4013.71 3030.50 64.41 11.00 303.81 3023.43
   08:38:21.091.03-Feb-2020 4013.71 3030.28 64.41 11.00 304.01 3023.43
   08:38:21.291.03-Feb-2020 4013.71 3030.28 64.41 11.00 304.21 3023.43
   08:38:21.491.03-Feb-2020 4013.71 3027.47 64.41 11.00 304.41 3023.43
   08:38:21.691.03-Feb-2020 4013.71 3026.85 64.41 11.00 304.61 3023.43
   08:38:21.891.03-Feb-2020 4013.71 3028.33 64.41 11.00 304.81 3023.43
   08:38:22.091.03-Feb-2020 4013.71 3027.67 64.41 11.00 305.01 3023.43
   08:38:22.291.03-Feb-2020 4013.71 3027.67 64.41 11.00 305.21 3023.43
   08:38:22.491.03-Feb-2020 4013.71 3024.44 64.41 11.00 305.41 3023.43
   08:38:22.691.03-Feb-2020 4013.71 3027.98 64.41 11.00 305.61 3023.43
   08:38:22.891.03-Feb-2020 4013.71 3024.61 64.41 11.00 305.81 3023.43
   08:38:23.091.03-Feb-2020 4013.71 3025.63 64.41 11.00 306.01 3023.43
   08:38:23.291.03-Feb-2020 4013.71 3025.63 64.41 11.00 306.21 3023.43
   08:38:23.491.03-Feb-2020 4013.71 3024.38 64.41 11.00 306.41 3023.43
   08:38:23.691.03-Feb-2020 4013.71 3024.78 64.41 11.00 306.61 3023.43
   08:38:23.891.03-Feb-2020 4013.71 3025.00 64.41 11.00 306.81 3023.43
   08:38:24.091.03-Feb-2020 4013.71 3025.49 64.41 11.00 307.01 3023.43
   08:38:24.291.03-Feb-2020 4013.71 3025.49 64.41 11.00 307.21 3023.43
   08:38:24.491.03-Feb-2020 4013.71 3024.53 64.41 11.00 307.41 3023.43
   08:38:24.691.03-Feb-2020 4013.71 3022.35 64.41 11.00 307.61 3023.43
   08:38:24.891.03-Feb-2020 4013.71 3024.06 64.41 11.00 307.81 3023.43
   08:38:25.091.03-Feb-2020 4013.71 3023.12 64.41 11.00 308.01 3023.43
   08:38:25.291.03-Feb-2020 4013.71 3023.12 64.41 11.00 308.21 3023.43
   08:38:25.491.03-Feb-2020 4013.71 3022.52 64.41 11.00 308.41 3023.43
   08:38:25.691.03-Feb-2020 4013.71 3021.87 64.41 11.00 308.61 3023.43
   08:38:25.891.03-Feb-2020 4013.71 3021.82 64.41 11.00 308.81 3023.43
   08:38:26.091.03-Feb-2020 4013.71 3021.77 64.41 11.00 309.01 3023.43
   08:38:26.291.03-Feb-2020 4013.71 3021.77 64.41 11.00 309.21 3023.43
   08:38:26.491.03-Feb-2020 4013.71 3022.28 64.41 11.00 309.41 3023.43
   08:38:26.691.03-Feb-2020 4013.71 3021.68 64.41 11.00 309.61 3023.43
   08:38:26.891.03-Feb-2020 4013.71 3021.08 64.41 11.00 309.81 3023.43
   08:38:27.091.03-Feb-2020 4013.71 3020.63 64.41 11.00 310.01 3023.43
   08:38:27.291.03-Feb-2020 4013.71 3020.63 64.41 11.00 310.21 3023.43
   08:38:27.491.03-Feb-2020 4013.71 3021.77 64.41 11.00 310.41 3023.43
   08:38:27.691.03-Feb-2020 4013.71 3021.78 64.41 11.00 310.61 3023.43
   08:38:27.891.03-Feb-2020 4013.71 3021.11 64.41 11.00 310.81 3023.43
   08:38:28.091.03-Feb-2020 4013.71 3017.80 64.41 11.00 311.01 3023.43
   08:38:28.291.03-Feb-2020 4013.71 3017.80 64.41 11.00 311.21 3023.43
   08:38:28.491.03-Feb-2020 4013.71 3020.96 64.41 11.00 311.41 3023.43
   08:38:28.691.03-Feb-2020 4013.71 3022.14 64.41 11.00 311.61 3023.43
   08:38:28.891.03-Feb-2020 4013.71 3021.04 64.41 11.00 311.81 3023.43
   08:38:29.091.03-Feb-2020 4013.71 3030.51 64.41 11.00 312.01 3023.43
   08:38:29.291.03-Feb-2020 4013.71 3030.51 64.41 11.00 312.21 3023.43
   08:38:29.491.03-Feb-2020 4013.71 3126.55 64.41 11.00 312.41 3023.43
   08:38:29.691.03-Feb-2020 4013.71 3128.26 64.41 11.00 312.61 3023.43
   08:38:29.891.03-Feb-2020 4013.71 3128.77 64.41 11.00 312.81 3023.43
   08:38:30.091.03-Feb-2020 4013.71 3129.10 64.41 11.00 313.01 3023.43
   08:38:30.291.03-Feb-2020 4013.71 3129.10 64.41 11.00 313.21 3023.43
   08:38:30.491.03-Feb-2020 4013.71 3129.34 64.41 11.00 313.41 3023.43
   08:38:30.691.03-Feb-2020 4013.71 3129.98 64.41 11.00 313.61 3023.43
   08:38:30.891.03-Feb-2020 4013.71 3129.84 64.41 11.00 313.81 3023.43
   08:38:31.091.03-Feb-2020 4013.71 3130.18 64.41 11.00 314.01 3023.43
   08:38:31.291.03-Feb-2020 4013.71 3130.18 64.41 11.00 314.21 3023.43
   08:38:31.491.03-Feb-2020 4013.71 3130.28 64.41 11.00 314.41 3023.43
   08:38:31.691.03-Feb-2020 4013.71 3130.35 64.41 11.00 314.61 3023.43
   08:38:31.891.03-Feb-2020 4013.71 3130.23 64.41 11.00 314.81 3023.43
   08:38:32.091.03-Feb-2020 4013.71 3130.67 64.41 11.00 315.01 3023.43
   08:38:32.291.03-Feb-2020 4013.71 3130.67 64.41 11.00 315.21 3023.43
   08:38:32.491.03-Feb-2020 4013.71 3130.71 64.41 11.00 315.41 3023.43
   08:38:32.691.03-Feb-2020 4013.71 3130.64 64.41 11.00 315.61 3023.43
   08:38:32.891.03-Feb-2020 4013.71 3130.74 64.41 11.00 315.81 3023.43
   08:38:33.091.03-Feb-2020 4013.71 3130.78 64.41 11.00 316.01 3023.43
   08:38:33.291.03-Feb-2020 4013.71 3130.78 64.41 11.00 316.21 3023.43
