~Version Information
 VERS.                  2.0:   CWLS log ASCII Standard -VERSION 2.0
 WRAP.                   NO:   One line per depth step
~Well Information Block
#MNEM.UNIT     VALUE/NAME     DESCRIPTION
#---------     -----------    ---------------------------
 STRT.S             08:07:30 03-Feb-20: START TIME 08:07:30 03-Feb-20
 STOP.S             08:15:16 03-Feb-20: STOP TIME  08:15:16 03-Feb-20
 STEP.S                   0.00: STEP TIME
 NULL.                 -999.25: NULL VALUE
 DFWT.                        :  DIST FWL TEXT
 DFST.                        :  DIST FSL TEXT
 DMF .             Drill Floor:  DRILL MEAS FROM
 STIM.      09.30.00 26-Dec-19:  START TIME
 DATE.      08.00.00 20-Jan-20:  END TIME
 SPUD.               23-Nov-19:  SPUD DATE
 NREF.                    Grid:  NORTH REFERENCE
 HPTY.       Minimum Curvature:  HOLE POS TYPE
 DMOD.             Drill Model:  DRILL MOD DESC
 SVYD.                  Survey:  SURVEY DESC
 ILTD.               Lithology:  INTERP LTH DESC
 FTOP.          Formation Tops:  FORM TOPS DESC
 SON .        AZ-XX-0906192647:  JOB NUMBER
 WTYP.                Deviated:  WELL TYPE
 COMP.     BP Exploration (Caspian Sea) Ltd:  COMPANY
 BASE.              Azerbaijan:  LOGGING EQUIPMENT BASE LOCATION
 REGN.                 Eurasia:  REGION
 FLD .                     ACG:  FIELD NAME
 SRVC.              KCA Deutag:  CONTRACTOR
 MWDS.                    Baku:  MWD SHOP
 WELL.     A10 (Slot 20) - SCP:  WELL NAME
 JOBN.        AZ-XX-0906192647:  JOB TICKET NUMB
 RIG .                 Chirag1:  RIG NAME
 DCON.     Halliburton Sperry Drilling:  DIRECTNL CONTR
 UNIT.                     N/A:  LOGGING EQUIPMENT ID
 PDAT.          Mean Sea Level:  PERMANENT DATUM
 MDS .        Operator Entered:  MAG DATA SOURCE
 CTRY.              Azerbaijan:  COUNTRY NAME
 UWI .            /AZE00000090:  UNIQUE WELL IDENTIFIER
 API .            /AZE00000090:  API NUMBER
 CNTY.                        :  COUNTY
 PROV.                        :  PROVINCE
 STAT.                        :  STATE
 LOC .                        :  LOCATION
 LMF .             Drill Floor:  LOG MEASURED FROM
 TVDS.m                  36.60:  TVDSS CORRECTN
 LATI.deg                40.08:  LATITUDE
 LONG.deg                51.24:  LONGITUDE
 WHNS.m                  -7.94:  WELL HEAD N/S
 WHEW.m                   1.56:  WELL HEAD E/W
 UTMX.m              520429.26:  UTM X
 UTMY.m             4438973.87:  UTM Y
 DFWL.m                   0.00:  DISTANCE FWL
 DFSL.m                   0.00:  DISTANCE FSL
 SDEP.m                1455.00:  START DEPTH
 TDD .m                4047.51:  TOTAL DEPTH (DRILLER)
 VSDR.deg               112.75:  VERT SEC DIRECT
 GVFD.g                   1.00:  GRAVITY FIELD
 MFLD.nT              50261.00:  MAGNETIC FIELD
 MDIP.deg                59.52:  MAGNETIC DIP
 MDEC.deg                 6.42:  MAGNETIC DECL
 GRDC.deg                 0.17:  GRID CORRECTION
 AZTC.deg                 6.25:  AZM TOTAL CORR
 EPD .m                   0.00:  ELEVATION
 EGL .m                   0.00:  GROUND ELEVATION
 WDMS.m                 121.00:  WD ELEV
 APD .m                  36.60:  DEPTH ABOVE PD
 AGAP.m                  36.60:  AIR GAP
 VSEW.m                   1.56:  VERT SEC E/W
 VSNS.m                  -7.94:  VERT SEC N/S
 DEP .m                1140.01:  DEPTH
 EKB .m                  36.60:  KB ELEVATION
 EDF .m                  36.60:  DF ELEVATION
 VSC .                       0:  VS TO CLOSURE
 MAGU.                 1849206:  MAGUTM CHECKSUM
~Parameter Information Block
#MNEM.UNIT       Value        Description
#---------     -----------    ---------------------------
 AV  .mps                 1.70:  Ann Velocity 
 AVMX.mps                 2.30:  Max Ann Veloc 
 AZIF.deg               137.03:  Azm, Final 
 BHAT.                   Other:  BHA Type 
 BROT.ฐ/30m               0.80:  Build Rotating 
 BS  .in                  8.00:  Bit Size 
 BTPL.psig              161.00:  Bit Press Loss 
 CABU.                      No:  Customer Abuse 
 COMM.                     ิงZ:  Run Comments 1 
 TCS .hr                  9.59:  Time Ciculation Ended 
 CV  .mps                 3.76:  Crit Velocity 
 CVMX.mps                 4.26:  Max Crit Veloc 
 DD1 .         Intigam Rahimov:  Direct Drillr 1 
 DD2 .          Rashad Gojayev:  Direct Drillr 2 
 DDSV.                   Other:  DD Service 
 DEFF.%                 100.00:  % Det Eff 
 DLRX.ฐ/30m               1.44:  Dogleg Rot Max 
 DLSO.ฐ/30m               0.00:  Dogleg Oriented 
 DLSX.ฐ/30m               0.00:  Dogleg Str Max 
 DRET.      03.31.12 02-Feb-20:  Drill End Time 
 DRST.      03.31.12 02-Feb-20:  Drill Start Tim 
 DTIM.hr                  1.99:  Time Drilling 
 EDEP.m                4047.51:  End Depth 
 ENG1.           Eldar Hajiyev:  Engineer 1 
 ENG2.          Rasim Hashimov:  Engineer 2 
 ENG3.          Rustam Safarov:  Engineer 3 
 ETIM.      03.31.12 02-Feb-20:  End Time 
 FLOI.gpm               300.00:  Flow In 
 FLON.gpm               250.00:  Flow In Min 
 FLOS.cptm                0.00:  Fluid Loss 
 FLOX.gpm               330.00:  Flow In Max 
 HFLO.                      No:  High Flow 
 HPRE.                      No:  High Pressure 
 HTEM.                      No:  High Temp 
 HYDO.m                   2.50:  Hydro Offset 
 IFIN.deg                39.54:  Inc, Final 
 IMAX.deg                41.14:  Inc Max 
 IMIN.deg                39.81:  Inc Min 
 IMND.m                4005.21:  Inc Min Depth 
 IMXD.m                3948.42:  Inc Max Depth 
 JARR.                      No:  Jarring 
 LETM.      03.31.12 02-Feb-20:  Log End Time 
 LOST.hr                     0:  Lost Rig Time 
 LSTM.      03.31.12 02-Feb-20:  Log Start Time 
 MDCL.ppm             35000.00:  Mud Chlorides 
 MDES.     Inversion Oil/Synthetic:  Mud Desc 
 DFD .sg                  1.32:  Mud Density 
 MDMN.sg                  1.32:  Dens Mud Min 
 MDMX.sg                  1.32:  Dens Mud Max 
 MOIL.                      59:  Run Mud Oil % 
 MOWR.                   71:29:  Run Mud OWR 
 MSND.                       0:  Run Mud Sand % 
 MSOL.                      17:  Run Mud Solids% 
 DFV .spqt               86.00:  Mud Viscosity 
 MWOD.in                  4.75:  MWD Tool OD 
 MWSI.                      No:  Serv Intrp, MWD 
 OTIM.hr                 46.72:  Time Operating 
 PCON.           Look Like New:  Pad Condition 
 PMAX.psia             3300.00:  Press Op, Max 
 PV  .cP                 30.00:  Mud PV 
 RUN .                     400:  Run Number 
 ROPA.m/hr               35.00:  ROP Avg 
 ROPN.m/hr               25.00:  ROP Min 
 ROPX.m/hr               40.00:  ROP Max 
 RPMA.rpm                80.00:  RPM Surface Avg 
 RPMN.rpm                60.00:  RPM Surface Min 
 RPMX.rpm               100.00:  RPM Surface Max 
 RRUN.                     400:  Rig Run Number 
 RTIM.hr                  1.99:  Time Reaming 
 SAZI.deg               133.93:  Azm, Start 
 SDEP.m                4047.51:  Start Depth 
 SIDD.                      No:  Serv Intrp, DD 
 SINC.deg                40.28:  Inc, Start 
 SPPA.psig             3250.00:  SPP Avg 
 SPPN.psig             3200.00:  SPP Min 
 SPPX.psig             3300.00:  SPP Max 
 STIM.      03.31.12 02-Feb-20:  Start Time 
 SVCS.                 DD, MWD:  Services 
 SVER.                    9.20:  Sperry Version 
 TDAT.m                  47.00:  Tot Depth Attmp 
 TDDF.                      No:  Trip for DD 
 TFF .                      No:  Trip for Fail 
 TQAA.f-kp                0.00:  Torque Abs Avg 
 TQAN.f-kp                0.00:  Torque Abs Min 
 TQAX.f-kp                0.00:  Torque Abs Max 
 TRRT.ฐ/30m               0.70:  Turn Rotating 
 MRT .                    HCIM:  Maximum Recorded Temperature 
 TTMX.degC               70.59:  Max Tool Temp 
 VS01.             90598770F11:  Virtual Str1 SN 
 VS02.             90598769F11:  Virtual Str2 SN 
 VS03.            90515978Z1W1:  Virtual Str3 SN 
 VS04.          90584144R12X14:  Virtual Str4 SN 
 WBMN.klb                 0.00:  WOB Min 
 WITN.            Peter Wilson:  Customer Rep 
 WOBA.klb                 0.00:  WOB Avg 
 WOBX.klb                 0.00:  WOB Max 
 YP  .lhf2               29.00:  Yield Point 
~Curve Information Block
#MNEM.UNIT                 API CODE     Curve Description
#---------               -----------    ---------------------------
 TIME.HHMMSS            00 000 000 000:  GT Time & Date
 GTDEPTH.m              00 000 000 000:  GT Depth
 GTPQH.psia             00 000 000 000:  GT HR Quartz Pressure
 GTTQ.degC              00 000 000 000:  GT Quartz Temperature
 GTTN.NONE              00 000 000 000:  GT Test Number
 GTET.sec               00 000 000 000:  GT Elapsed Test Time
 GTTVD.m                00 000 000 000:  GT True Vertical Depth
#Other Information
#
#WARRANTY: Halliburton will use its best efforts to furnish customers with 
#accurate information and interpretations that are part of, and incident to, the services 
#provided.  However, Halliburton cannot and does not warrant the accuracy 
#or correctness of such information and interpretations.  Under no circumstances should any 
#such information or interpretation be relied upon as the sole basis for any drilling, 
#completion, production, or financial decision or any procedure involving any risk to the 
#safety of any drilling venture, drilling rig or its crew or any other third party.  The 
#Customer has full responsibility for all drilling, completion and production operation.  
#Halliburton makes no representations or warranties, either expressed or 
#implied, including, but not limited to, the implied warranties of merchantability or fitness 
#for a particular purpose, with respect to the services rendered.  In no event will 
#Halliburton be liable for failure to obtain any particular results or for 
#any damages, including, but not limited to, indirect, special or consequential damages, 
#resulting from the use of any information or interpretation provided by Halliburton.
#
~A           TIME           GTDEPTH  GTPQH  GTTQ  GTTN   GTET   GTTVD  
# ...
   08:10:30.845.03-Feb-2020 4023.01 2884.44 65.70 10.00 180.81 3030.56
   08:10:31.045.03-Feb-2020 4023.01 2896.82 65.70 10.00 181.01 3030.56
   08:10:31.245.03-Feb-2020 4023.01 2896.82 65.70 10.00 181.21 3030.56
   08:10:31.445.03-Feb-2020 4023.01 2922.07 65.70 10.00 181.41 3030.56
   08:10:31.645.03-Feb-2020 4023.01 2932.84 65.70 10.00 181.61 3030.56
   08:10:31.845.03-Feb-2020 4023.01 2943.29 65.70 10.00 181.81 3030.56
   08:10:32.045.03-Feb-2020 4023.01 2953.87 65.70 10.00 182.01 3030.56
   08:10:32.245.03-Feb-2020 4023.01 2953.87 65.70 10.00 182.21 3030.56
   08:10:32.445.03-Feb-2020 4023.01 2972.72 65.70 10.00 182.41 3030.56
   08:10:32.645.03-Feb-2020 4023.01 2980.78 65.70 10.00 182.61 3030.56
   08:10:32.845.03-Feb-2020 4023.01 2989.30 65.70 10.00 182.81 3030.56
   08:10:33.045.03-Feb-2020 4023.01 2997.23 65.70 10.00 183.01 3030.56
   08:10:33.245.03-Feb-2020 4023.01 2997.23 65.70 10.00 183.21 3030.56
   08:10:33.445.03-Feb-2020 4023.01 3011.50 65.70 10.00 183.41 3030.56
   08:10:33.645.03-Feb-2020 4023.01 3017.58 65.70 10.00 183.61 3030.56
   08:10:33.845.03-Feb-2020 4023.01 3023.43 65.70 10.00 183.81 3030.56
   08:10:34.045.03-Feb-2020 4023.01 3030.08 65.70 10.00 184.01 3030.56
   08:10:34.245.03-Feb-2020 4023.01 3030.08 65.70 10.00 184.21 3030.56
   08:10:34.445.03-Feb-2020 4023.01 3041.53 65.70 10.00 184.41 3030.56
   08:10:34.645.03-Feb-2020 4023.01 3046.65 65.70 10.00 184.61 3030.56
   08:10:34.845.03-Feb-2020 4023.01 3051.67 65.70 10.00 184.81 3030.56
   08:10:35.045.03-Feb-2020 4023.01 3055.51 65.70 10.00 185.01 3030.56
   08:10:35.245.03-Feb-2020 4023.01 3055.51 65.70 10.00 185.21 3030.56
   08:10:35.445.03-Feb-2020 4023.01 3064.07 65.70 10.00 185.41 3030.56
   08:10:35.645.03-Feb-2020 4023.01 3068.17 65.70 10.00 185.61 3030.56
   08:10:35.845.03-Feb-2020 4023.01 3072.06 65.71 10.00 185.81 3030.56
   08:10:36.045.03-Feb-2020 4023.01 3075.84 65.71 10.00 186.01 3030.56
   08:10:36.245.03-Feb-2020 4023.01 3075.84 65.71 10.00 186.21 3030.56
   08:10:36.445.03-Feb-2020 4023.01 3082.63 65.71 10.00 186.41 3030.56
   08:10:36.645.03-Feb-2020 4023.01 3085.31 65.71 10.00 186.61 3030.56
   08:10:36.845.03-Feb-2020 4023.01 3088.74 65.71 10.00 186.81 3030.56
   08:10:37.045.03-Feb-2020 4023.01 3091.61 65.71 10.00 187.01 3030.56
   08:10:37.245.03-Feb-2020 4023.01 3091.61 65.71 10.00 187.21 3030.56
   08:10:37.445.03-Feb-2020 4023.01 3096.48 65.71 10.00 187.41 3030.56
   08:10:37.645.03-Feb-2020 4023.01 3099.15 65.71 10.00 187.61 3030.56
   08:10:37.845.03-Feb-2020 4023.01 3100.46 65.71 10.00 187.81 3030.56
   08:10:38.045.03-Feb-2020 4023.01 3102.65 65.71 10.00 188.01 3030.56
   08:10:38.245.03-Feb-2020 4023.01 3102.65 65.71 10.00 188.21 3030.56
   08:10:38.445.03-Feb-2020 4023.01 3106.96 65.71 10.00 188.41 3030.56
   08:10:38.645.03-Feb-2020 4023.01 3108.70 65.71 10.00 188.61 3030.56
   08:10:38.845.03-Feb-2020 4023.01 3110.72 65.71 10.00 188.81 3030.56
   08:10:39.045.03-Feb-2020 4023.01 3112.32 65.71 10.00 189.01 3030.56
   08:10:39.245.03-Feb-2020 4023.01 3112.32 65.71 10.00 189.21 3030.56
   08:10:39.445.03-Feb-2020 4023.01 3116.05 65.71 10.00 189.41 3030.56
   08:10:39.645.03-Feb-2020 4023.01 3117.64 65.71 10.00 189.61 3030.56
   08:10:39.845.03-Feb-2020 4023.01 3119.15 65.71 10.00 189.81 3030.56
   08:10:40.045.03-Feb-2020 4023.01 3120.55 65.71 10.00 190.01 3030.56
   08:10:40.245.03-Feb-2020 4023.01 3120.55 65.71 10.00 190.21 3030.56
   08:10:40.445.03-Feb-2020 4023.01 3123.07 65.71 10.00 190.41 3030.56
   08:10:40.645.03-Feb-2020 4023.01 3124.26 65.71 10.00 190.61 3030.56
   08:10:40.845.03-Feb-2020 4023.01 3125.49 65.71 10.00 190.81 3030.56
   08:10:41.045.03-Feb-2020 4023.01 3126.66 65.71 10.00 191.01 3030.56
   08:10:41.245.03-Feb-2020 4023.01 3126.66 65.71 10.00 191.21 3030.56
   08:10:41.445.03-Feb-2020 4023.01 3128.67 65.71 10.00 191.41 3030.56
   08:10:41.645.03-Feb-2020 4023.01 3129.70 65.71 10.00 191.61 3030.56
   08:10:41.845.03-Feb-2020 4023.01 3130.71 65.71 10.00 191.81 3030.56
   08:10:42.045.03-Feb-2020 4023.01 3131.56 65.71 10.00 192.01 3030.56
   08:10:42.245.03-Feb-2020 4023.01 3131.56 65.71 10.00 192.21 3030.56
   08:10:42.445.03-Feb-2020 4023.01 3133.27 65.71 10.00 192.41 3030.56
   08:10:42.645.03-Feb-2020 4023.01 3134.03 65.71 10.00 192.61 3030.56
   08:10:42.845.03-Feb-2020 4023.01 3134.75 65.71 10.00 192.81 3030.56
   08:10:43.045.03-Feb-2020 4023.01 3135.45 65.71 10.00 193.01 3030.56
   08:10:43.245.03-Feb-2020 4023.01 3135.45 65.71 10.00 193.21 3030.56
   08:10:43.445.03-Feb-2020 4023.01 3136.74 65.71 10.00 193.41 3030.56
   08:10:43.645.03-Feb-2020 4023.01 3137.35 65.71 10.00 193.61 3030.56
   08:10:43.845.03-Feb-2020 4023.01 3137.73 65.71 10.00 193.81 3030.56
   08:10:44.045.03-Feb-2020 4023.01 3138.50 65.71 10.00 194.01 3030.56
   08:10:44.245.03-Feb-2020 4023.01 3138.50 65.71 10.00 194.21 3030.56
   08:10:44.445.03-Feb-2020 4023.01 3139.63 65.71 10.00 194.41 3030.56
   08:10:44.645.03-Feb-2020 4023.01 3140.21 65.71 10.00 194.61 3030.56
   08:10:44.845.03-Feb-2020 4023.01 3140.71 65.71 10.00 194.81 3030.56
   08:10:45.045.03-Feb-2020 4023.01 3141.20 65.71 10.00 195.01 3030.56
   08:10:45.245.03-Feb-2020 4023.01 3141.20 65.71 10.00 195.21 3030.56
   08:10:45.445.03-Feb-2020 4023.01 3142.08 65.71 10.00 195.41 3030.56
   08:10:45.645.03-Feb-2020 4023.01 3142.50 65.71 10.00 195.61 3030.56
   08:10:45.845.03-Feb-2020 4023.01 3142.98 65.71 10.00 195.81 3030.56
   08:10:46.045.03-Feb-2020 4023.01 3143.02 65.71 10.00 196.01 3030.56
   08:10:46.245.03-Feb-2020 4023.01 3143.02 65.71 10.00 196.21 3030.56
   08:10:46.445.03-Feb-2020 4023.01 3143.85 65.71 10.00 196.41 3030.56
   08:10:46.645.03-Feb-2020 4023.01 3144.28 65.71 10.00 196.61 3030.56
   08:10:46.845.03-Feb-2020 4023.01 3144.55 65.71 10.00 196.81 3030.56
   08:10:47.045.03-Feb-2020 4023.01 3144.91 65.71 10.00 197.01 3030.56
   08:10:47.245.03-Feb-2020 4023.01 3144.91 65.71 10.00 197.21 3030.56
   08:10:47.445.03-Feb-2020 4023.01 3145.43 65.71 10.00 197.41 3030.56
   08:10:47.645.03-Feb-2020 4023.01 3145.71 65.71 10.00 197.61 3030.56
   08:10:47.845.03-Feb-2020 4023.01 3145.77 65.71 10.00 197.81 3030.56
   08:10:48.045.03-Feb-2020 4023.01 3146.14 65.71 10.00 198.01 3030.56
   08:10:48.245.03-Feb-2020 4023.01 3146.14 65.71 10.00 198.21 3030.56
   08:10:48.445.03-Feb-2020 4023.01 3146.36 65.71 10.00 198.41 3030.56
   08:10:48.645.03-Feb-2020 4023.01 3146.50 65.71 10.00 198.61 3030.56
   08:10:48.845.03-Feb-2020 4023.01 3146.20 65.71 10.00 198.81 3030.56
   08:10:49.045.03-Feb-2020 4023.01 3146.96 65.71 10.00 199.01 3030.56
   08:10:49.245.03-Feb-2020 4023.01 3146.96 65.71 10.00 199.21 3030.56
   08:10:49.445.03-Feb-2020 4023.01 3147.09 65.71 10.00 199.41 3030.56
   08:10:49.645.03-Feb-2020 4023.01 3147.13 65.71 10.00 199.61 3030.56
   08:10:49.845.03-Feb-2020 4023.01 3146.97 65.71 10.00 199.81 3030.56
   08:10:50.045.03-Feb-2020 4023.01 3147.35 65.71 10.00 200.01 3030.56
   08:10:50.245.03-Feb-2020 4023.01 3147.35 65.71 10.00 200.21 3030.56
   08:10:50.445.03-Feb-2020 4023.01 3147.79 65.71 10.00 200.41 3030.56
   08:10:50.645.03-Feb-2020 4023.01 3148.06 65.71 10.00 200.61 3030.56
   08:10:50.845.03-Feb-2020 4023.01 3148.31 65.71 10.00 200.81 3030.56
   08:10:51.045.03-Feb-2020 4023.01 3148.49 65.71 10.00 201.01 3030.56
   08:10:51.245.03-Feb-2020 4023.01 3148.49 65.71 10.00 201.21 3030.56
   08:10:51.445.03-Feb-2020 4023.01 3148.87 65.71 10.00 201.41 3030.56
   08:10:51.645.03-Feb-2020 4023.01 3148.99 65.71 10.00 201.61 3030.56
   08:10:51.845.03-Feb-2020 4023.01 3149.38 65.71 10.00 201.81 3030.56
   08:10:52.045.03-Feb-2020 4023.01 3149.66 65.71 10.00 202.01 3030.56
   08:10:52.245.03-Feb-2020 4023.01 3149.66 65.71 10.00 202.21 3030.56
   08:10:52.445.03-Feb-2020 4023.01 3149.92 65.71 10.00 202.41 3030.56
   08:10:52.645.03-Feb-2020 4023.01 3150.12 65.71 10.00 202.61 3030.56
   08:10:52.845.03-Feb-2020 4023.01 3150.27 65.71 10.00 202.81 3030.56
   08:10:53.045.03-Feb-2020 4023.01 3149.97 65.71 10.00 203.01 3030.56
   08:10:53.245.03-Feb-2020 4023.01 3149.97 65.71 10.00 203.21 3030.56
