~Version Information
 VERS.                  2.0:   CWLS log ASCII Standard -VERSION 2.0
 WRAP.                   NO:   One line per depth step
~Well Information Block
#MNEM.UNIT     VALUE/NAME     DESCRIPTION
#---------     -----------    ---------------------------
 STRT.S             08:33:17 03-Feb-20: START TIME 08:33:17 03-Feb-20
 STOP.S             08:41:10 03-Feb-20: STOP TIME  08:41:10 03-Feb-20
 STEP.S                   0.00: STEP TIME
 NULL.                 -999.25: NULL VALUE
 DFWT.                        :  DIST FWL TEXT
 DFST.                        :  DIST FSL TEXT
 DMF .             Drill Floor:  DRILL MEAS FROM
 STIM.      09.30.00 26-Dec-19:  START TIME
 DATE.      08.00.00 20-Jan-20:  END TIME
 SPUD.               23-Nov-19:  SPUD DATE
 NREF.                    Grid:  NORTH REFERENCE
 HPTY.       Minimum Curvature:  HOLE POS TYPE
 DMOD.             Drill Model:  DRILL MOD DESC
 SVYD.                  Survey:  SURVEY DESC
 ILTD.               Lithology:  INTERP LTH DESC
 FTOP.          Formation Tops:  FORM TOPS DESC
 SON .        AZ-XX-0906192647:  JOB NUMBER
 WTYP.                Deviated:  WELL TYPE
 COMP.     BP Exploration (Caspian Sea) Ltd:  COMPANY
 BASE.              Azerbaijan:  LOGGING EQUIPMENT BASE LOCATION
 REGN.                 Eurasia:  REGION
 FLD .                     ACG:  FIELD NAME
 SRVC.              KCA Deutag:  CONTRACTOR
 MWDS.                    Baku:  MWD SHOP
 WELL.     A10 (Slot 20) - SCP:  WELL NAME
 JOBN.        AZ-XX-0906192647:  JOB TICKET NUMB
 RIG .                 Chirag1:  RIG NAME
 DCON.     Halliburton Sperry Drilling:  DIRECTNL CONTR
 UNIT.                     N/A:  LOGGING EQUIPMENT ID
 PDAT.          Mean Sea Level:  PERMANENT DATUM
 MDS .        Operator Entered:  MAG DATA SOURCE
 CTRY.              Azerbaijan:  COUNTRY NAME
 UWI .            /AZE00000090:  UNIQUE WELL IDENTIFIER
 API .            /AZE00000090:  API NUMBER
 CNTY.                        :  COUNTY
 PROV.                        :  PROVINCE
 STAT.                        :  STATE
 LOC .                        :  LOCATION
 LMF .             Drill Floor:  LOG MEASURED FROM
 TVDS.m                  36.60:  TVDSS CORRECTN
 LATI.deg                40.08:  LATITUDE
 LONG.deg                51.24:  LONGITUDE
 WHNS.m                  -7.94:  WELL HEAD N/S
 WHEW.m                   1.56:  WELL HEAD E/W
 UTMX.m              520429.26:  UTM X
 UTMY.m             4438973.87:  UTM Y
 DFWL.m                   0.00:  DISTANCE FWL
 DFSL.m                   0.00:  DISTANCE FSL
 SDEP.m                1455.00:  START DEPTH
 TDD .m                4047.51:  TOTAL DEPTH (DRILLER)
 VSDR.deg               112.75:  VERT SEC DIRECT
 GVFD.g                   1.00:  GRAVITY FIELD
 MFLD.nT              50261.00:  MAGNETIC FIELD
 MDIP.deg                59.52:  MAGNETIC DIP
 MDEC.deg                 6.42:  MAGNETIC DECL
 GRDC.deg                 0.17:  GRID CORRECTION
 AZTC.deg                 6.25:  AZM TOTAL CORR
 EPD .m                   0.00:  ELEVATION
 EGL .m                   0.00:  GROUND ELEVATION
 WDMS.m                 121.00:  WD ELEV
 APD .m                  36.60:  DEPTH ABOVE PD
 AGAP.m                  36.60:  AIR GAP
 VSEW.m                   1.56:  VERT SEC E/W
 VSNS.m                  -7.94:  VERT SEC N/S
 DEP .m                1140.01:  DEPTH
 EKB .m                  36.60:  KB ELEVATION
 EDF .m                  36.60:  DF ELEVATION
 VSC .                       0:  VS TO CLOSURE
 MAGU.                 1849206:  MAGUTM CHECKSUM
~Parameter Information Block
#MNEM.UNIT       Value        Description
#---------     -----------    ---------------------------
 AV  .mps                 1.70:  Ann Velocity 
 AVMX.mps                 2.30:  Max Ann Veloc 
 AZIF.deg               137.03:  Azm, Final 
 BHAT.                   Other:  BHA Type 
 BROT.°/30m               0.80:  Build Rotating 
 BS  .in                  8.00:  Bit Size 
 BTPL.psig              161.00:  Bit Press Loss 
 CABU.                      No:  Customer Abuse 
 COMM.                     äör:  Run Comments 1 
 TCS .hr                  9.59:  Time Ciculation Ended 
 CV  .mps                 3.76:  Crit Velocity 
 CVMX.mps                 4.26:  Max Crit Veloc 
 DD1 .         Intigam Rahimov:  Direct Drillr 1 
 DD2 .          Rashad Gojayev:  Direct Drillr 2 
 DDSV.                   Other:  DD Service 
 DEFF.%                 100.00:  % Det Eff 
 DLRX.°/30m               1.44:  Dogleg Rot Max 
 DLSO.°/30m               0.00:  Dogleg Oriented 
 DLSX.°/30m               0.00:  Dogleg Str Max 
 DRET.      03.31.12 02-Feb-20:  Drill End Time 
 DRST.      03.31.12 02-Feb-20:  Drill Start Tim 
 DTIM.hr                  1.99:  Time Drilling 
 EDEP.m                4047.51:  End Depth 
 ENG1.           Eldar Hajiyev:  Engineer 1 
 ENG2.          Rasim Hashimov:  Engineer 2 
 ENG3.          Rustam Safarov:  Engineer 3 
 ETIM.      03.31.12 02-Feb-20:  End Time 
 FLOI.gpm               300.00:  Flow In 
 FLON.gpm               250.00:  Flow In Min 
 FLOS.cptm                0.00:  Fluid Loss 
 FLOX.gpm               330.00:  Flow In Max 
 HFLO.                      No:  High Flow 
 HPRE.                      No:  High Pressure 
 HTEM.                      No:  High Temp 
 HYDO.m                   2.50:  Hydro Offset 
 IFIN.deg                39.54:  Inc, Final 
 IMAX.deg                41.14:  Inc Max 
 IMIN.deg                39.81:  Inc Min 
 IMND.m                4005.21:  Inc Min Depth 
 IMXD.m                3948.42:  Inc Max Depth 
 JARR.                      No:  Jarring 
 LETM.      03.31.12 02-Feb-20:  Log End Time 
 LOST.hr                     0:  Lost Rig Time 
 LSTM.      03.31.12 02-Feb-20:  Log Start Time 
 MDCL.ppm             35000.00:  Mud Chlorides 
 MDES.     Inversion Oil/Synthetic:  Mud Desc 
 DFD .sg                  1.32:  Mud Density 
 MDMN.sg                  1.32:  Dens Mud Min 
 MDMX.sg                  1.32:  Dens Mud Max 
 MOIL.                      59:  Run Mud Oil % 
 MOWR.                   71:29:  Run Mud OWR 
 MSND.                       0:  Run Mud Sand % 
 MSOL.                      17:  Run Mud Solids% 
 DFV .spqt               86.00:  Mud Viscosity 
 MWOD.in                  4.75:  MWD Tool OD 
 MWSI.                      No:  Serv Intrp, MWD 
 OTIM.hr                 46.72:  Time Operating 
 PCON.           Look Like New:  Pad Condition 
 PMAX.psia             3300.00:  Press Op, Max 
 PV  .cP                 30.00:  Mud PV 
 RUN .                     400:  Run Number 
 ROPA.m/hr               35.00:  ROP Avg 
 ROPN.m/hr               25.00:  ROP Min 
 ROPX.m/hr               40.00:  ROP Max 
 RPMA.rpm                80.00:  RPM Surface Avg 
 RPMN.rpm                60.00:  RPM Surface Min 
 RPMX.rpm               100.00:  RPM Surface Max 
 RRUN.                     400:  Rig Run Number 
 RTIM.hr                  1.99:  Time Reaming 
 SAZI.deg               133.93:  Azm, Start 
 SDEP.m                4047.51:  Start Depth 
 SIDD.                      No:  Serv Intrp, DD 
 SINC.deg                40.28:  Inc, Start 
 SPPA.psig             3250.00:  SPP Avg 
 SPPN.psig             3200.00:  SPP Min 
 SPPX.psig             3300.00:  SPP Max 
 STIM.      03.31.12 02-Feb-20:  Start Time 
 SVCS.                 DD, MWD:  Services 
 SVER.                    9.20:  Sperry Version 
 TDAT.m                  47.00:  Tot Depth Attmp 
 TDDF.                      No:  Trip for DD 
 TFF .                      No:  Trip for Fail 
 TQAA.f-kp                0.00:  Torque Abs Avg 
 TQAN.f-kp                0.00:  Torque Abs Min 
 TQAX.f-kp                0.00:  Torque Abs Max 
 TRRT.°/30m               0.70:  Turn Rotating 
 MRT .                    HCIM:  Maximum Recorded Temperature 
 TTMX.degC               70.59:  Max Tool Temp 
 VS01.             90598770F11:  Virtual Str1 SN 
 VS02.             90598769F11:  Virtual Str2 SN 
 VS03.            90515978Z1W1:  Virtual Str3 SN 
 VS04.          90584144R12X14:  Virtual Str4 SN 
 WBMN.klb                 0.00:  WOB Min 
 WITN.            Peter Wilson:  Customer Rep 
 WOBA.klb                 0.00:  WOB Avg 
 WOBX.klb                 0.00:  WOB Max 
 YP  .lhf2               29.00:  Yield Point 
~Curve Information Block
#MNEM.UNIT                 API CODE     Curve Description
#---------               -----------    ---------------------------
 TIME.HHMMSS            00 000 000 000:  GT Time & Date
 GTDEPTH.m              00 000 000 000:  GT Depth
 GTPQH.psia             00 000 000 000:  GT HR Quartz Pressure
 GTTQ.degC              00 000 000 000:  GT Quartz Temperature
 GTTN.NONE              00 000 000 000:  GT Test Number
 GTET.sec               00 000 000 000:  GT Elapsed Test Time
 GTTVD.m                00 000 000 000:  GT True Vertical Depth
#Other Information
#
#WARRANTY: Halliburton will use its best efforts to furnish customers with 
#accurate information and interpretations that are part of, and incident to, the services 
#provided.  However, Halliburton cannot and does not warrant the accuracy 
#or correctness of such information and interpretations.  Under no circumstances should any 
#such information or interpretation be relied upon as the sole basis for any drilling, 
#completion, production, or financial decision or any procedure involving any risk to the 
#safety of any drilling venture, drilling rig or its crew or any other third party.  The 
#Customer has full responsibility for all drilling, completion and production operation.  
#Halliburton makes no representations or warranties, either expressed or 
#implied, including, but not limited to, the implied warranties of merchantability or fitness 
#for a particular purpose, with respect to the services rendered.  In no event will 
#Halliburton be liable for failure to obtain any particular results or for 
#any damages, including, but not limited to, indirect, special or consequential damages, 
#resulting from the use of any information or interpretation provided by Halliburton.
#
~A           TIME           GTDEPTH  GTPQH  GTTQ  GTTN   GTET   GTTVD  
# ...
   08:40:49.095.03-Feb-2020 4013.71 6083.22 64.41 11.00 452.01 3023.43
   08:40:49.295.03-Feb-2020 4013.71 6083.22 64.41 11.00 452.21 3023.43
   08:40:49.495.03-Feb-2020 4013.71 6088.11 64.41 11.00 452.41 3023.43
   08:40:49.695.03-Feb-2020 4013.71 6089.45 64.41 11.00 452.61 3023.43
   08:40:49.895.03-Feb-2020 4013.71 6086.26 64.41 11.00 452.81 3023.43
   08:40:50.095.03-Feb-2020 4013.71 6081.45 64.41 11.00 453.01 3023.43
   08:40:50.295.03-Feb-2020 4013.71 6081.45 64.41 11.00 453.21 3023.43
   08:40:50.495.03-Feb-2020 4013.71 6087.32 64.41 11.00 453.41 3023.43
   08:40:50.695.03-Feb-2020 4013.71 6086.76 64.41 11.00 453.61 3023.43
   08:40:50.895.03-Feb-2020 4013.71 6090.54 64.41 11.00 453.81 3023.43
   08:40:51.095.03-Feb-2020 4013.71 6083.03 64.41 11.00 454.01 3023.43
   08:40:51.295.03-Feb-2020 4013.71 6083.03 64.41 11.00 454.21 3023.43
   08:40:51.495.03-Feb-2020 4013.71 6082.14 64.41 11.00 454.41 3023.43
   08:40:51.695.03-Feb-2020 4013.71 6089.21 64.41 11.00 454.61 3023.43
   08:40:51.895.03-Feb-2020 4013.71 6088.03 64.41 11.00 454.81 3023.43
   08:40:52.095.03-Feb-2020 4013.71 6088.87 64.41 11.00 455.01 3023.43
   08:40:52.295.03-Feb-2020 4013.71 6088.87 64.41 11.00 455.21 3023.43
   08:40:52.495.03-Feb-2020 4013.71 6087.99 64.41 11.00 455.41 3023.43
   08:40:52.695.03-Feb-2020 4013.71 6087.01 64.41 11.00 455.61 3023.43
   08:40:52.895.03-Feb-2020 4013.71 6087.03 64.41 11.00 455.81 3023.43
   08:40:53.095.03-Feb-2020 4013.71 6088.56 64.42 11.00 456.01 3023.43
   08:40:53.295.03-Feb-2020 4013.71 6088.56 64.42 11.00 456.21 3023.43
   08:40:53.495.03-Feb-2020 4013.71 6087.56 64.42 11.00 456.41 3023.43
   08:40:53.695.03-Feb-2020 4013.71 6088.05 64.42 11.00 456.61 3023.43
   08:40:53.895.03-Feb-2020 4013.71 6087.31 64.42 11.00 456.81 3023.43
   08:40:54.095.03-Feb-2020 4013.71 6088.35 64.42 11.00 457.01 3023.43
   08:40:54.295.03-Feb-2020 4013.71 6088.35 64.42 11.00 457.21 3023.43
   08:40:54.495.03-Feb-2020 4013.71 6081.88 64.42 11.00 457.41 3023.43
   08:40:54.695.03-Feb-2020 4013.71 6084.46 64.42 11.00 457.61 3023.43
   08:40:54.895.03-Feb-2020 4013.71 6086.14 64.42 11.00 457.81 3023.43
   08:40:55.095.03-Feb-2020 4013.71 6087.60 64.42 11.00 458.01 3023.43
   08:40:55.295.03-Feb-2020 4013.71 6087.60 64.42 11.00 458.21 3023.43
   08:40:55.495.03-Feb-2020 4013.71 6086.84 64.42 11.00 458.41 3023.43
   08:40:55.695.03-Feb-2020 4013.71 6087.48 64.42 11.00 458.61 3023.43
   08:40:55.895.03-Feb-2020 4013.71 6087.56 64.42 11.00 458.81 3023.43
   08:40:56.095.03-Feb-2020 4013.71 6088.21 64.42 11.00 459.01 3023.43
   08:40:56.295.03-Feb-2020 4013.71 6088.21 64.42 11.00 459.21 3023.43
   08:40:56.495.03-Feb-2020 4013.71 6088.18 64.42 11.00 459.41 3023.43
   08:40:56.695.03-Feb-2020 4013.71 6088.78 64.42 11.00 459.61 3023.43
   08:40:56.895.03-Feb-2020 4013.71 6088.55 64.42 11.00 459.81 3023.43
   08:40:57.095.03-Feb-2020 4013.71 6081.67 64.42 11.00 460.01 3023.43
   08:40:57.295.03-Feb-2020 4013.71 6081.67 64.42 11.00 460.21 3023.43
   08:40:57.495.03-Feb-2020 4013.71 6085.70 64.42 11.00 460.41 3023.43
   08:40:57.695.03-Feb-2020 4013.71 6089.38 64.42 11.00 460.61 3023.43
   08:40:57.895.03-Feb-2020 4013.71 6088.37 64.42 11.00 460.81 3023.43
   08:40:58.095.03-Feb-2020 4013.71 6088.98 64.42 11.00 461.01 3023.43
   08:40:58.295.03-Feb-2020 4013.71 6088.98 64.42 11.00 461.21 3023.43
   08:40:58.495.03-Feb-2020 4013.71 6083.25 64.42 11.00 461.41 3023.43
   08:40:58.695.03-Feb-2020 4013.71 6085.74 64.42 11.00 461.61 3023.43
   08:40:58.895.03-Feb-2020 4013.71 6087.12 64.42 11.00 461.81 3023.43
   08:40:59.095.03-Feb-2020 4013.71 6088.08 64.42 11.00 462.01 3023.43
   08:40:59.295.03-Feb-2020 4013.71 6088.08 64.42 11.00 462.21 3023.43
   08:40:59.495.03-Feb-2020 4013.71 6088.73 64.42 11.00 462.41 3023.43
   08:40:59.695.03-Feb-2020 4013.71 6078.40 64.42 11.00 462.61 3023.43
   08:40:59.895.03-Feb-2020 4013.71 6088.75 64.42 11.00 462.81 3023.43
   08:41:00.095.03-Feb-2020 4013.71 6083.83 64.42 11.00 463.01 3023.43
   08:41:00.295.03-Feb-2020 4013.71 6083.83 64.42 11.00 463.21 3023.43
   08:41:00.495.03-Feb-2020 4013.71 6087.54 64.42 11.00 463.41 3023.43
   08:41:00.695.03-Feb-2020 4013.71 6088.68 64.42 11.00 463.61 3023.43
   08:41:00.895.03-Feb-2020 4013.71 6077.10 64.42 11.00 463.81 3023.43
   08:41:01.095.03-Feb-2020 4013.71 6087.86 64.42 11.00 464.01 3023.43
   08:41:01.295.03-Feb-2020 4013.71 6087.86 64.42 11.00 464.21 3023.43
   08:41:01.495.03-Feb-2020 4013.71 6089.76 64.42 11.00 464.41 3023.43
   08:41:01.695.03-Feb-2020 4013.71 6086.91 64.41 11.00 464.61 3023.43
   08:41:01.895.03-Feb-2020 4013.71 6088.13 64.42 11.00 464.81 3023.43
   08:41:02.095.03-Feb-2020 4013.71 6087.48 64.41 11.00 465.01 3023.43
   08:41:02.296.03-Feb-2020 4013.71 6087.48 64.41 11.00 465.21 3023.43
   08:41:02.496.03-Feb-2020 4013.71 6086.28 64.41 11.00 465.41 3023.43
   08:41:02.696.03-Feb-2020 4013.71 6088.95 64.41 11.00 465.61 3023.43
   08:41:02.896.03-Feb-2020 4013.71 6089.59 64.41 11.00 465.81 3023.43
   08:41:03.096.03-Feb-2020 4013.71 6089.23 64.41 11.00 466.01 3023.43
   08:41:03.296.03-Feb-2020 4013.71 6089.23 64.41 11.00 466.21 3023.43
   08:41:03.496.03-Feb-2020 4013.71 6089.06 64.41 11.00 466.41 3023.43
   08:41:03.696.03-Feb-2020 4013.71 6087.24 64.41 11.00 466.61 3023.43
   08:41:03.896.03-Feb-2020 4013.71 6089.03 64.41 11.00 466.81 3023.43
   08:41:04.096.03-Feb-2020 4013.71 6081.56 64.41 11.00 467.01 3023.43
   08:41:04.296.03-Feb-2020 4013.71 6081.56 64.41 11.00 467.21 3023.43
   08:41:04.496.03-Feb-2020 4013.71 6082.79 64.41 11.00 467.41 3023.43
   08:41:04.696.03-Feb-2020 4013.71 6087.37 64.41 11.00 467.61 3023.43
   08:41:04.896.03-Feb-2020 4013.71 6086.31 64.41 11.00 467.81 3023.43
   08:41:05.096.03-Feb-2020 4013.71 6087.25 64.41 11.00 468.01 3023.43
   08:41:05.296.03-Feb-2020 4013.71 6087.25 64.41 11.00 468.21 3023.43
   08:41:05.496.03-Feb-2020 4013.71 6089.06 64.41 11.00 468.41 3023.43
   08:41:05.696.03-Feb-2020 4013.71 6088.89 64.41 11.00 468.61 3023.43
   08:41:05.896.03-Feb-2020 4013.71 6088.65 64.41 11.00 468.81 3023.43
   08:41:06.096.03-Feb-2020 4013.71 6088.58 64.41 11.00 469.01 3023.43
   08:41:06.296.03-Feb-2020 4013.71 6088.58 64.41 11.00 469.21 3023.43
   08:41:06.496.03-Feb-2020 4013.71 6088.05 64.41 11.00 469.41 3023.43
   08:41:06.696.03-Feb-2020 4013.71 6088.94 64.41 11.00 469.61 3023.43
   08:41:06.896.03-Feb-2020 4013.71 6077.00 64.41 11.00 469.81 3023.43
   08:41:07.096.03-Feb-2020 4013.71 6091.36 64.41 11.00 470.01 3023.43
   08:41:07.296.03-Feb-2020 4013.71 6091.36 64.41 11.00 470.21 3023.43
   08:41:07.496.03-Feb-2020 4013.71 6089.17 64.41 11.00 470.41 3023.43
   08:41:07.696.03-Feb-2020 4013.71 6087.63 64.41 11.00 470.61 3023.43
   08:41:07.896.03-Feb-2020 4013.71 6089.03 64.41 11.00 470.81 3023.43
   08:41:08.096.03-Feb-2020 4013.71 6086.45 64.41 11.00 471.01 3023.43
   08:41:08.296.03-Feb-2020 4013.71 6086.45 64.41 11.00 471.21 3023.43
   08:41:08.496.03-Feb-2020 4013.71 6085.15 64.41 11.00 471.41 3023.43
   08:41:08.696.03-Feb-2020 4013.71 6086.30 64.41 11.00 471.61 3023.43
   08:41:08.896.03-Feb-2020 4013.71 6087.71 64.41 11.00 471.81 3023.43
   08:41:09.096.03-Feb-2020 4013.71 6088.30 64.41 11.00 472.01 3023.43
   08:41:09.296.03-Feb-2020 4013.71 6088.30 64.41 11.00 472.21 3023.43
   08:41:09.496.03-Feb-2020 4013.71 6082.34 64.41 11.00 472.41 3023.43
   08:41:09.696.03-Feb-2020 4013.71 6083.99 64.41 11.00 472.61 3023.43
   08:41:09.896.03-Feb-2020 4013.71 6088.17 64.41 11.00 472.81 3023.43
   08:41:10.096.03-Feb-2020 4013.71 6086.62 64.41 11.00 473.01 3023.43
   08:41:10.296.03-Feb-2020 4013.71 6086.62 64.41 11.00 473.21 3023.43
   08:41:10.496.03-Feb-2020 4013.71 6083.39 64.41 11.00 473.41 3023.43
   08:41:10.696.03-Feb-2020 4013.71 6086.02 64.41 11.00 473.61 3023.43
   08:41:10.896.03-Feb-2020 4013.71 6085.40 64.41 11.00 473.81 3023.43
