~Version Information
 VERS.                  2.0:   CWLS log ASCII Standard -VERSION 2.0
 WRAP.                   NO:   One line per depth step
~Well Information Block
#MNEM.UNIT     VALUE/NAME     DESCRIPTION
#---------     -----------    ---------------------------
 STRT.S             06:42:18 03-Feb-20: START TIME 06:42:18 03-Feb-20
 STOP.S             06:50:14 03-Feb-20: STOP TIME  06:50:14 03-Feb-20
 STEP.S                   0.00: STEP TIME
 NULL.                 -999.25: NULL VALUE
 DFWT.                        :  DIST FWL TEXT
 DFST.                        :  DIST FSL TEXT
 DMF .             Drill Floor:  DRILL MEAS FROM
 STIM.      09.30.00 26-Dec-19:  START TIME
 DATE.      08.00.00 20-Jan-20:  END TIME
 SPUD.               23-Nov-19:  SPUD DATE
 NREF.                    Grid:  NORTH REFERENCE
 HPTY.       Minimum Curvature:  HOLE POS TYPE
 DMOD.             Drill Model:  DRILL MOD DESC
 SVYD.                  Survey:  SURVEY DESC
 ILTD.               Lithology:  INTERP LTH DESC
 FTOP.          Formation Tops:  FORM TOPS DESC
 SON .        AZ-XX-0906192647:  JOB NUMBER
 WTYP.                Deviated:  WELL TYPE
 COMP.     BP Exploration (Caspian Sea) Ltd:  COMPANY
 BASE.              Azerbaijan:  LOGGING EQUIPMENT BASE LOCATION
 REGN.                 Eurasia:  REGION
 FLD .                     ACG:  FIELD NAME
 SRVC.              KCA Deutag:  CONTRACTOR
 MWDS.                    Baku:  MWD SHOP
 WELL.     A10 (Slot 20) - SCP:  WELL NAME
 JOBN.        AZ-XX-0906192647:  JOB TICKET NUMB
 RIG .                 Chirag1:  RIG NAME
 DCON.     Halliburton Sperry Drilling:  DIRECTNL CONTR
 UNIT.                     N/A:  LOGGING EQUIPMENT ID
 PDAT.          Mean Sea Level:  PERMANENT DATUM
 MDS .        Operator Entered:  MAG DATA SOURCE
 CTRY.              Azerbaijan:  COUNTRY NAME
 UWI .            /AZE00000090:  UNIQUE WELL IDENTIFIER
 API .            /AZE00000090:  API NUMBER
 CNTY.                        :  COUNTY
 PROV.                        :  PROVINCE
 STAT.                        :  STATE
 LOC .                        :  LOCATION
 LMF .             Drill Floor:  LOG MEASURED FROM
 TVDS.m                  36.60:  TVDSS CORRECTN
 LATI.deg                40.08:  LATITUDE
 LONG.deg                51.24:  LONGITUDE
 WHNS.m                  -7.94:  WELL HEAD N/S
 WHEW.m                   1.56:  WELL HEAD E/W
 UTMX.m              520429.26:  UTM X
 UTMY.m             4438973.87:  UTM Y
 DFWL.m                   0.00:  DISTANCE FWL
 DFSL.m                   0.00:  DISTANCE FSL
 SDEP.m                1455.00:  START DEPTH
 TDD .m                4047.51:  TOTAL DEPTH (DRILLER)
 VSDR.deg               112.75:  VERT SEC DIRECT
 GVFD.g                   1.00:  GRAVITY FIELD
 MFLD.nT              50261.00:  MAGNETIC FIELD
 MDIP.deg                59.52:  MAGNETIC DIP
 MDEC.deg                 6.42:  MAGNETIC DECL
 GRDC.deg                 0.17:  GRID CORRECTION
 AZTC.deg                 6.25:  AZM TOTAL CORR
 EPD .m                   0.00:  ELEVATION
 EGL .m                   0.00:  GROUND ELEVATION
 WDMS.m                 121.00:  WD ELEV
 APD .m                  36.60:  DEPTH ABOVE PD
 AGAP.m                  36.60:  AIR GAP
 VSEW.m                   1.56:  VERT SEC E/W
 VSNS.m                  -7.94:  VERT SEC N/S
 DEP .m                1140.01:  DEPTH
 EKB .m                  36.60:  KB ELEVATION
 EDF .m                  36.60:  DF ELEVATION
 VSC .                       0:  VS TO CLOSURE
 MAGU.                 1849206:  MAGUTM CHECKSUM
~Parameter Information Block
#MNEM.UNIT       Value        Description
#---------     -----------    ---------------------------
 AV  .mps                 1.70:  Ann Velocity 
 AVMX.mps                 2.30:  Max Ann Veloc 
 AZIF.deg               137.03:  Azm, Final 
 BHAT.                   Other:  BHA Type 
 BROT.°/30m               0.80:  Build Rotating 
 BS  .in                  8.00:  Bit Size 
 BTPL.psig              161.00:  Bit Press Loss 
 CABU.                      No:  Customer Abuse 
 TCS .hr                  9.59:  Time Ciculation Ended 
 CV  .mps                 3.76:  Crit Velocity 
 CVMX.mps                 4.26:  Max Crit Veloc 
 DD1 .         Intigam Rahimov:  Direct Drillr 1 
 DD2 .          Rashad Gojayev:  Direct Drillr 2 
 DDSV.                   Other:  DD Service 
 DEFF.%                 100.00:  % Det Eff 
 DLRX.°/30m               1.44:  Dogleg Rot Max 
 DLSO.°/30m               0.00:  Dogleg Oriented 
 DLSX.°/30m               0.00:  Dogleg Str Max 
 DRET.      03.31.12 02-Feb-20:  Drill End Time 
 DRST.      03.31.12 02-Feb-20:  Drill Start Tim 
 DTIM.hr                  1.99:  Time Drilling 
 EDEP.m                4047.51:  End Depth 
 ENG1.           Eldar Hajiyev:  Engineer 1 
 ENG2.          Rasim Hashimov:  Engineer 2 
 ENG3.          Rustam Safarov:  Engineer 3 
 ETIM.      03.31.12 02-Feb-20:  End Time 
 FLOI.gpm               300.00:  Flow In 
 FLON.gpm               250.00:  Flow In Min 
 FLOS.cptm                0.00:  Fluid Loss 
 FLOX.gpm               330.00:  Flow In Max 
 HFLO.                      No:  High Flow 
 HPRE.                      No:  High Pressure 
 HTEM.                      No:  High Temp 
 HYDO.m                   2.50:  Hydro Offset 
 IFIN.deg                39.54:  Inc, Final 
 IMAX.deg                41.14:  Inc Max 
 IMIN.deg                39.81:  Inc Min 
 IMND.m                4005.21:  Inc Min Depth 
 IMXD.m                3948.42:  Inc Max Depth 
 JARR.                      No:  Jarring 
 LETM.      03.31.12 02-Feb-20:  Log End Time 
 LOST.hr                     0:  Lost Rig Time 
 LSTM.      03.31.12 02-Feb-20:  Log Start Time 
 MDCL.ppm             35000.00:  Mud Chlorides 
 MDES.     Inversion Oil/Synthetic:  Mud Desc 
 DFD .sg                  1.32:  Mud Density 
 MDMN.sg                  1.32:  Dens Mud Min 
 MDMX.sg                  1.32:  Dens Mud Max 
 MOIL.                      59:  Run Mud Oil % 
 MOWR.                   71:29:  Run Mud OWR 
 MSND.                       0:  Run Mud Sand % 
 MSOL.                      17:  Run Mud Solids% 
 DFV .spqt               86.00:  Mud Viscosity 
 MWOD.in                  4.75:  MWD Tool OD 
 MWSI.                      No:  Serv Intrp, MWD 
 OTIM.hr                 46.72:  Time Operating 
 PCON.           Look Like New:  Pad Condition 
 PMAX.psia             3300.00:  Press Op, Max 
 PV  .cP                 30.00:  Mud PV 
 RUN .                     400:  Run Number 
 ROPA.m/hr               35.00:  ROP Avg 
 ROPN.m/hr               25.00:  ROP Min 
 ROPX.m/hr               40.00:  ROP Max 
 RPMA.rpm                80.00:  RPM Surface Avg 
 RPMN.rpm                60.00:  RPM Surface Min 
 RPMX.rpm               100.00:  RPM Surface Max 
 RRUN.                     400:  Rig Run Number 
 RTIM.hr                  1.99:  Time Reaming 
 SAZI.deg               133.93:  Azm, Start 
 SDEP.m                4047.51:  Start Depth 
 SIDD.                      No:  Serv Intrp, DD 
 SINC.deg                40.28:  Inc, Start 
 SPPA.psig             3250.00:  SPP Avg 
 SPPN.psig             3200.00:  SPP Min 
 SPPX.psig             3300.00:  SPP Max 
 STIM.      03.31.12 02-Feb-20:  Start Time 
 SVCS.                 DD, MWD:  Services 
 SVER.                    9.20:  Sperry Version 
 TDAT.m                  47.00:  Tot Depth Attmp 
 TDDF.                      No:  Trip for DD 
 TFF .                      No:  Trip for Fail 
 TQAA.f-kp                0.00:  Torque Abs Avg 
 TQAN.f-kp                0.00:  Torque Abs Min 
 TQAX.f-kp                0.00:  Torque Abs Max 
 TRRT.°/30m               0.70:  Turn Rotating 
 MRT .                    HCIM:  Maximum Recorded Temperature 
 TTMX.degC               70.59:  Max Tool Temp 
 VS01.             90598770F11:  Virtual Str1 SN 
 VS02.             90598769F11:  Virtual Str2 SN 
 VS03.            90515978Z1W1:  Virtual Str3 SN 
 VS04.          90584144R12X14:  Virtual Str4 SN 
 WBMN.klb                 0.00:  WOB Min 
 WITN.            Peter Wilson:  Customer Rep 
 WOBA.klb                 0.00:  WOB Avg 
 WOBX.klb                 0.00:  WOB Max 
 YP  .lhf2               29.00:  Yield Point 
~Curve Information Block
#MNEM.UNIT                 API CODE     Curve Description
#---------               -----------    ---------------------------
 TIME.HHMMSS            00 000 000 000:  GT Time & Date
 GTDEPTH.m              00 000 000 000:  GT Depth
 GTPQH.psia             00 000 000 000:  GT HR Quartz Pressure
 GTTQ.degC              00 000 000 000:  GT Quartz Temperature
 GTTN.NONE              00 000 000 000:  GT Test Number
 GTET.sec               00 000 000 000:  GT Elapsed Test Time
 GTTVD.m                00 000 000 000:  GT True Vertical Depth
#Other Information
#
#WARRANTY: Halliburton will use its best efforts to furnish customers with 
#accurate information and interpretations that are part of, and incident to, the services 
#provided.  However, Halliburton cannot and does not warrant the accuracy 
#or correctness of such information and interpretations.  Under no circumstances should any 
#such information or interpretation be relied upon as the sole basis for any drilling, 
#completion, production, or financial decision or any procedure involving any risk to the 
#safety of any drilling venture, drilling rig or its crew or any other third party.  The 
#Customer has full responsibility for all drilling, completion and production operation.  
#Halliburton makes no representations or warranties, either expressed or 
#implied, including, but not limited to, the implied warranties of merchantability or fitness 
#for a particular purpose, with respect to the services rendered.  In no event will 
#Halliburton be liable for failure to obtain any particular results or for 
#any damages, including, but not limited to, indirect, special or consequential damages, 
#resulting from the use of any information or interpretation provided by Halliburton.
#
~A           TIME           GTDEPTH  GTPQH  GTTQ  GTTN  GTET   GTTVD  
# ...
   06:48:03.000.03-Feb-2020 4003.01 6043.10 64.29 8.00 345.00 3015.22
   06:48:03.200.03-Feb-2020 4003.01 6043.10 64.29 8.00 345.20 3015.22
   06:48:03.400.03-Feb-2020 4003.01 6045.70 64.29 8.00 345.40 3015.22
   06:48:03.600.03-Feb-2020 4003.01 6047.09 64.29 8.00 345.60 3015.22
   06:48:03.800.03-Feb-2020 4003.01 6047.28 64.29 8.00 345.80 3015.22
   06:48:04.000.03-Feb-2020 4003.01 6037.52 64.29 8.00 346.00 3015.22
   06:48:04.200.03-Feb-2020 4003.01 6037.52 64.29 8.00 346.20 3015.22
   06:48:04.400.03-Feb-2020 4003.01 6040.80 64.29 8.00 346.40 3015.22
   06:48:04.600.03-Feb-2020 4003.01 6044.70 64.29 8.00 346.60 3015.22
   06:48:04.800.03-Feb-2020 4003.01 6044.85 64.29 8.00 346.80 3015.22
   06:48:05.000.03-Feb-2020 4003.01 6043.88 64.29 8.00 347.00 3015.22
   06:48:05.200.03-Feb-2020 4003.01 6043.88 64.29 8.00 347.20 3015.22
   06:48:05.400.03-Feb-2020 4003.01 6042.07 64.29 8.00 347.40 3015.22
   06:48:05.600.03-Feb-2020 4003.01 6045.05 64.29 8.00 347.60 3015.22
   06:48:05.800.03-Feb-2020 4003.01 6047.34 64.29 8.00 347.80 3015.22
   06:48:06.000.03-Feb-2020 4003.01 6046.73 64.29 8.00 348.00 3015.22
   06:48:06.200.03-Feb-2020 4003.01 6046.73 64.29 8.00 348.20 3015.22
   06:48:06.400.03-Feb-2020 4003.01 6036.55 64.29 8.00 348.40 3015.22
   06:48:06.600.03-Feb-2020 4003.01 6043.39 64.29 8.00 348.60 3015.22
   06:48:06.800.03-Feb-2020 4003.01 6039.92 64.29 8.00 348.80 3015.22
   06:48:07.000.03-Feb-2020 4003.01 6046.42 64.29 8.00 349.00 3015.22
   06:48:07.200.03-Feb-2020 4003.01 6046.42 64.29 8.00 349.20 3015.22
   06:48:07.400.03-Feb-2020 4003.01 6045.65 64.29 8.00 349.40 3015.22
   06:48:07.600.03-Feb-2020 4003.01 6045.74 64.29 8.00 349.60 3015.22
   06:48:07.800.03-Feb-2020 4003.01 6044.53 64.29 8.00 349.80 3015.22
   06:48:08.000.03-Feb-2020 4003.01 6045.30 64.29 8.00 350.00 3015.22
   06:48:08.200.03-Feb-2020 4003.01 6045.30 64.29 8.00 350.20 3015.22
   06:48:08.400.03-Feb-2020 4003.01 6047.26 64.29 8.00 350.40 3015.22
   06:48:08.600.03-Feb-2020 4003.01 6046.98 64.29 8.00 350.60 3015.22
   06:48:08.800.03-Feb-2020 4003.01 6046.89 64.29 8.00 350.80 3015.22
   06:48:09.000.03-Feb-2020 4003.01 6045.96 64.29 8.00 351.00 3015.22
   06:48:09.200.03-Feb-2020 4003.01 6045.96 64.29 8.00 351.20 3015.22
   06:48:09.400.03-Feb-2020 4003.01 6047.27 64.29 8.00 351.40 3015.22
   06:48:09.600.03-Feb-2020 4003.01 6037.52 64.29 8.00 351.60 3015.22
   06:48:09.800.03-Feb-2020 4003.01 6045.46 64.29 8.00 351.80 3015.22
   06:48:10.000.03-Feb-2020 4003.01 6041.56 64.29 8.00 352.00 3015.22
   06:48:10.200.03-Feb-2020 4003.01 6041.56 64.29 8.00 352.20 3015.22
   06:48:10.400.03-Feb-2020 4003.01 6043.64 64.29 8.00 352.40 3015.22
   06:48:10.600.03-Feb-2020 4003.01 6044.58 64.29 8.00 352.60 3015.22
   06:48:10.800.03-Feb-2020 4003.01 6044.24 64.29 8.00 352.80 3015.22
   06:48:11.000.03-Feb-2020 4003.01 6045.68 64.29 8.00 353.00 3015.22
   06:48:11.200.03-Feb-2020 4003.01 6045.68 64.29 8.00 353.20 3015.22
   06:48:11.400.03-Feb-2020 4003.01 6045.69 64.29 8.00 353.40 3015.22
   06:48:11.600.03-Feb-2020 4003.01 6045.75 64.29 8.00 353.60 3015.22
   06:48:11.800.03-Feb-2020 4003.01 6045.47 64.29 8.00 353.80 3015.22
   06:48:12.000.03-Feb-2020 4003.01 6045.11 64.29 8.00 354.00 3015.22
   06:48:12.200.03-Feb-2020 4003.01 6045.11 64.29 8.00 354.20 3015.22
   06:48:12.400.03-Feb-2020 4003.01 6036.01 64.29 8.00 354.40 3015.22
   06:48:12.600.03-Feb-2020 4003.01 6045.58 64.29 8.00 354.60 3015.22
   06:48:12.800.03-Feb-2020 4003.01 6044.07 64.29 8.00 354.80 3015.22
   06:48:13.000.03-Feb-2020 4003.01 6046.13 64.29 8.00 355.00 3015.22
   06:48:13.200.03-Feb-2020 4003.01 6046.13 64.29 8.00 355.20 3015.22
   06:48:13.400.03-Feb-2020 4003.01 6047.25 64.29 8.00 355.40 3015.22
   06:48:13.600.03-Feb-2020 4003.01 6041.29 64.29 8.00 355.60 3015.22
   06:48:13.800.03-Feb-2020 4003.01 6043.20 64.29 8.00 355.80 3015.22
   06:48:14.000.03-Feb-2020 4003.01 6041.84 64.29 8.00 356.00 3015.22
   06:48:14.200.03-Feb-2020 4003.01 6041.84 64.29 8.00 356.20 3015.22
   06:48:14.400.03-Feb-2020 4003.01 6044.72 64.29 8.00 356.40 3015.22
   06:48:14.600.03-Feb-2020 4003.01 6046.19 64.29 8.00 356.60 3015.22
   06:48:14.800.03-Feb-2020 4003.01 6037.37 64.29 8.00 356.80 3015.22
   06:48:15.000.03-Feb-2020 4003.01 6044.85 64.29 8.00 357.00 3015.22
   06:48:15.200.03-Feb-2020 4003.01 6044.85 64.29 8.00 357.20 3015.22
   06:48:15.400.03-Feb-2020 4003.01 6047.42 64.29 8.00 357.40 3015.22
   06:48:15.600.03-Feb-2020 4003.01 6046.52 64.29 8.00 357.60 3015.22
   06:48:15.800.03-Feb-2020 4003.01 6046.66 64.29 8.00 357.80 3015.22
   06:48:16.000.03-Feb-2020 4003.01 6046.10 64.29 8.00 358.00 3015.22
   06:48:16.200.03-Feb-2020 4003.01 6046.10 64.29 8.00 358.20 3015.22
   06:48:16.400.03-Feb-2020 4003.01 6034.56 64.29 8.00 358.40 3015.22
   06:48:16.600.03-Feb-2020 4003.01 6044.28 64.29 8.00 358.60 3015.22
   06:48:16.800.03-Feb-2020 4003.01 6043.54 64.29 8.00 358.80 3015.22
   06:48:17.000.03-Feb-2020 4003.01 6045.48 64.29 8.00 359.00 3015.22
   06:48:17.200.03-Feb-2020 4003.01 6045.48 64.29 8.00 359.20 3015.22
   06:48:17.400.03-Feb-2020 4003.01 6045.01 64.29 8.00 359.40 3015.22
   06:48:17.600.03-Feb-2020 4003.01 6044.01 64.29 8.00 359.60 3015.22
   06:48:17.800.03-Feb-2020 4003.01 6046.36 64.29 8.00 359.80 3015.22
   06:48:18.000.03-Feb-2020 4003.01 6047.15 64.29 8.00 360.00 3015.22
   06:48:18.200.03-Feb-2020 4003.01 6047.15 64.29 8.00 360.20 3015.22
   06:48:18.400.03-Feb-2020 4003.01 6046.33 64.29 8.00 360.40 3015.22
   06:48:18.600.03-Feb-2020 4003.01 6046.38 64.29 8.00 360.60 3015.22
   06:48:18.800.03-Feb-2020 4003.01 6045.97 64.29 8.00 360.80 3015.22
   06:48:19.000.03-Feb-2020 4003.01 6044.95 64.29 8.00 361.00 3015.22
   06:48:19.200.03-Feb-2020 4003.01 6044.95 64.29 8.00 361.20 3015.22
   06:48:19.400.03-Feb-2020 4003.01 6047.16 64.29 8.00 361.40 3015.22
   06:48:19.600.03-Feb-2020 4003.01 6037.57 64.29 8.00 361.60 3015.22
   06:48:19.800.03-Feb-2020 4003.01 6044.55 64.29 8.00 361.80 3015.22
   06:48:20.000.03-Feb-2020 4003.01 6040.24 64.29 8.00 362.00 3015.22
   06:48:20.200.03-Feb-2020 4003.01 6040.24 64.29 8.00 362.20 3015.22
   06:48:20.400.03-Feb-2020 4003.01 6043.76 64.29 8.00 362.40 3015.22
   06:48:20.600.03-Feb-2020 4003.01 6045.02 64.29 8.00 362.60 3015.22
   06:48:20.800.03-Feb-2020 4003.01 6046.10 64.29 8.00 362.80 3015.22
   06:48:21.000.03-Feb-2020 4003.01 6046.00 64.29 8.00 363.00 3015.22
   06:48:21.200.03-Feb-2020 4003.01 6046.00 64.29 8.00 363.20 3015.22
   06:48:21.400.03-Feb-2020 4003.01 6045.42 64.29 8.00 363.40 3015.22
   06:48:21.600.03-Feb-2020 4003.01 6044.97 64.29 8.00 363.60 3015.22
   06:48:21.800.03-Feb-2020 4003.01 6045.45 64.29 8.00 363.80 3015.22
   06:48:22.000.03-Feb-2020 4003.01 6046.49 64.29 8.00 364.00 3015.22
   06:48:22.200.03-Feb-2020 4003.01 6046.49 64.29 8.00 364.20 3015.22
   06:48:22.400.03-Feb-2020 4003.01 6035.24 64.29 8.00 364.40 3015.22
   06:48:22.600.03-Feb-2020 4003.01 6045.25 64.29 8.00 364.60 3015.22
   06:48:22.800.03-Feb-2020 4003.01 6043.62 64.29 8.00 364.80 3015.22
   06:48:23.000.03-Feb-2020 4003.01 6046.09 64.29 8.00 365.00 3015.22
   06:48:23.200.03-Feb-2020 4003.01 6046.09 64.29 8.00 365.20 3015.22
   06:48:23.400.03-Feb-2020 4003.01 6047.13 64.29 8.00 365.40 3015.22
   06:48:23.600.03-Feb-2020 4003.01 6040.70 64.29 8.00 365.60 3015.22
   06:48:23.800.03-Feb-2020 4003.01 6042.90 64.29 8.00 365.80 3015.22
   06:48:24.000.03-Feb-2020 4003.01 6040.85 64.29 8.00 366.00 3015.22
   06:48:24.200.03-Feb-2020 4003.01 6040.85 64.29 8.00 366.20 3015.22
   06:48:24.400.03-Feb-2020 4003.01 6044.38 64.29 8.00 366.40 3015.22
   06:48:24.600.03-Feb-2020 4003.01 6045.49 64.29 8.00 366.60 3015.22
   06:48:24.800.03-Feb-2020 4003.01 6036.68 64.29 8.00 366.80 3015.22
   06:48:25.000.03-Feb-2020 4003.01 6044.33 64.29 8.00 367.00 3015.22
   06:48:25.200.03-Feb-2020 4003.01 6044.33 64.29 8.00 367.20 3015.22
   06:48:25.400.03-Feb-2020 4003.01 6047.00 64.29 8.00 367.40 3015.22
   06:48:25.600.03-Feb-2020 4003.01 6046.09 64.29 8.00 367.60 3015.22
   06:48:25.800.03-Feb-2020 4003.01 6045.87 64.29 8.00 367.80 3015.22
