~Version Information
 VERS.                  2.0:   CWLS log ASCII Standard -VERSION 2.0
 WRAP.                   NO:   One line per depth step
~Well Information Block
#MNEM.UNIT     VALUE/NAME     DESCRIPTION
#---------     -----------    ---------------------------
 STRT.S             05:45:18 03-Feb-20: START TIME 05:45:18 03-Feb-20
 STOP.S             05:53:13 03-Feb-20: STOP TIME  05:53:13 03-Feb-20
 STEP.S                   0.00: STEP TIME
 NULL.                 -999.25: NULL VALUE
 DFWT.                        :  DIST FWL TEXT
 DFST.                        :  DIST FSL TEXT
 DMF .             Drill Floor:  DRILL MEAS FROM
 STIM.      09.30.00 26-Dec-19:  START TIME
 DATE.      08.00.00 20-Jan-20:  END TIME
 SPUD.               23-Nov-19:  SPUD DATE
 NREF.                    Grid:  NORTH REFERENCE
 HPTY.       Minimum Curvature:  HOLE POS TYPE
 DMOD.             Drill Model:  DRILL MOD DESC
 SVYD.                  Survey:  SURVEY DESC
 ILTD.               Lithology:  INTERP LTH DESC
 FTOP.          Formation Tops:  FORM TOPS DESC
 SON .        AZ-XX-0906192647:  JOB NUMBER
 WTYP.                Deviated:  WELL TYPE
 COMP.     BP Exploration (Caspian Sea) Ltd:  COMPANY
 BASE.              Azerbaijan:  LOGGING EQUIPMENT BASE LOCATION
 REGN.                 Eurasia:  REGION
 FLD .                     ACG:  FIELD NAME
 SRVC.              KCA Deutag:  CONTRACTOR
 MWDS.                    Baku:  MWD SHOP
 WELL.     A10 (Slot 20) - SCP:  WELL NAME
 JOBN.        AZ-XX-0906192647:  JOB TICKET NUMB
 RIG .                 Chirag1:  RIG NAME
 DCON.     Halliburton Sperry Drilling:  DIRECTNL CONTR
 UNIT.                     N/A:  LOGGING EQUIPMENT ID
 PDAT.          Mean Sea Level:  PERMANENT DATUM
 MDS .        Operator Entered:  MAG DATA SOURCE
 CTRY.              Azerbaijan:  COUNTRY NAME
 UWI .            /AZE00000090:  UNIQUE WELL IDENTIFIER
 API .            /AZE00000090:  API NUMBER
 CNTY.                        :  COUNTY
 PROV.                        :  PROVINCE
 STAT.                        :  STATE
 LOC .                        :  LOCATION
 LMF .             Drill Floor:  LOG MEASURED FROM
 TVDS.m                  36.60:  TVDSS CORRECTN
 LATI.deg                40.08:  LATITUDE
 LONG.deg                51.24:  LONGITUDE
 WHNS.m                  -7.94:  WELL HEAD N/S
 WHEW.m                   1.56:  WELL HEAD E/W
 UTMX.m              520429.26:  UTM X
 UTMY.m             4438973.87:  UTM Y
 DFWL.m                   0.00:  DISTANCE FWL
 DFSL.m                   0.00:  DISTANCE FSL
 SDEP.m                1455.00:  START DEPTH
 TDD .m                4047.51:  TOTAL DEPTH (DRILLER)
 VSDR.deg               112.75:  VERT SEC DIRECT
 GVFD.g                   1.00:  GRAVITY FIELD
 MFLD.nT              50261.00:  MAGNETIC FIELD
 MDIP.deg                59.52:  MAGNETIC DIP
 MDEC.deg                 6.42:  MAGNETIC DECL
 GRDC.deg                 0.17:  GRID CORRECTION
 AZTC.deg                 6.25:  AZM TOTAL CORR
 EPD .m                   0.00:  ELEVATION
 EGL .m                   0.00:  GROUND ELEVATION
 WDMS.m                 121.00:  WD ELEV
 APD .m                  36.60:  DEPTH ABOVE PD
 AGAP.m                  36.60:  AIR GAP
 VSEW.m                   1.56:  VERT SEC E/W
 VSNS.m                  -7.94:  VERT SEC N/S
 DEP .m                1140.01:  DEPTH
 EKB .m                  36.60:  KB ELEVATION
 EDF .m                  36.60:  DF ELEVATION
 VSC .                       0:  VS TO CLOSURE
 MAGU.                 1849206:  MAGUTM CHECKSUM
~Parameter Information Block
#MNEM.UNIT       Value        Description
#---------     -----------    ---------------------------
 AV  .mps                 1.70:  Ann Velocity 
 AVMX.mps                 2.30:  Max Ann Veloc 
 AZIF.deg               137.03:  Azm, Final 
 BHAT.                   Other:  BHA Type 
 BROT.°/30m               0.80:  Build Rotating 
 BS  .in                  8.00:  Bit Size 
 BTPL.psig              161.00:  Bit Press Loss 
 CABU.                      No:  Customer Abuse 
 TCS .hr                  9.59:  Time Ciculation Ended 
 CV  .mps                 3.76:  Crit Velocity 
 CVMX.mps                 4.26:  Max Crit Veloc 
 DD1 .         Intigam Rahimov:  Direct Drillr 1 
 DD2 .          Rashad Gojayev:  Direct Drillr 2 
 DDSV.                   Other:  DD Service 
 DEFF.%                 100.00:  % Det Eff 
 DLRX.°/30m               1.44:  Dogleg Rot Max 
 DLSO.°/30m               0.00:  Dogleg Oriented 
 DLSX.°/30m               0.00:  Dogleg Str Max 
 DRET.      03.31.12 02-Feb-20:  Drill End Time 
 DRST.      03.31.12 02-Feb-20:  Drill Start Tim 
 DTIM.hr                  1.99:  Time Drilling 
 EDEP.m                4047.51:  End Depth 
 ENG1.           Eldar Hajiyev:  Engineer 1 
 ENG2.          Rasim Hashimov:  Engineer 2 
 ENG3.          Rustam Safarov:  Engineer 3 
 ETIM.      03.31.12 02-Feb-20:  End Time 
 FLOI.gpm               300.00:  Flow In 
 FLON.gpm               250.00:  Flow In Min 
 FLOS.cptm                0.00:  Fluid Loss 
 FLOX.gpm               330.00:  Flow In Max 
 HFLO.                      No:  High Flow 
 HPRE.                      No:  High Pressure 
 HTEM.                      No:  High Temp 
 HYDO.m                   2.50:  Hydro Offset 
 IFIN.deg                39.54:  Inc, Final 
 IMAX.deg                41.14:  Inc Max 
 IMIN.deg                39.81:  Inc Min 
 IMND.m                4005.21:  Inc Min Depth 
 IMXD.m                3948.42:  Inc Max Depth 
 JARR.                      No:  Jarring 
 LETM.      03.31.12 02-Feb-20:  Log End Time 
 LOST.hr                     0:  Lost Rig Time 
 LSTM.      03.31.12 02-Feb-20:  Log Start Time 
 MDCL.ppm             35000.00:  Mud Chlorides 
 MDES.     Inversion Oil/Synthetic:  Mud Desc 
 DFD .sg                  1.32:  Mud Density 
 MDMN.sg                  1.32:  Dens Mud Min 
 MDMX.sg                  1.32:  Dens Mud Max 
 MOIL.                      59:  Run Mud Oil % 
 MOWR.                   71:29:  Run Mud OWR 
 MSND.                       0:  Run Mud Sand % 
 MSOL.                      17:  Run Mud Solids% 
 DFV .spqt               86.00:  Mud Viscosity 
 MWOD.in                  4.75:  MWD Tool OD 
 MWSI.                      No:  Serv Intrp, MWD 
 OTIM.hr                 46.72:  Time Operating 
 PCON.           Look Like New:  Pad Condition 
 PMAX.psia             3300.00:  Press Op, Max 
 PV  .cP                 30.00:  Mud PV 
 RUN .                     400:  Run Number 
 ROPA.m/hr               35.00:  ROP Avg 
 ROPN.m/hr               25.00:  ROP Min 
 ROPX.m/hr               40.00:  ROP Max 
 RPMA.rpm                80.00:  RPM Surface Avg 
 RPMN.rpm                60.00:  RPM Surface Min 
 RPMX.rpm               100.00:  RPM Surface Max 
 RRUN.                     400:  Rig Run Number 
 RTIM.hr                  1.99:  Time Reaming 
 SAZI.deg               133.93:  Azm, Start 
 SDEP.m                4047.51:  Start Depth 
 SIDD.                      No:  Serv Intrp, DD 
 SINC.deg                40.28:  Inc, Start 
 SPPA.psig             3250.00:  SPP Avg 
 SPPN.psig             3200.00:  SPP Min 
 SPPX.psig             3300.00:  SPP Max 
 STIM.      03.31.12 02-Feb-20:  Start Time 
 SVCS.                 DD, MWD:  Services 
 SVER.                    9.20:  Sperry Version 
 TDAT.m                  47.00:  Tot Depth Attmp 
 TDDF.                      No:  Trip for DD 
 TFF .                      No:  Trip for Fail 
 TQAA.f-kp                0.00:  Torque Abs Avg 
 TQAN.f-kp                0.00:  Torque Abs Min 
 TQAX.f-kp                0.00:  Torque Abs Max 
 TRRT.°/30m               0.70:  Turn Rotating 
 MRT .                    HCIM:  Maximum Recorded Temperature 
 TTMX.degC               70.59:  Max Tool Temp 
 VS01.             90598770F11:  Virtual Str1 SN 
 VS02.             90598769F11:  Virtual Str2 SN 
 VS03.            90515978Z1W1:  Virtual Str3 SN 
 VS04.          90584144R12X14:  Virtual Str4 SN 
 WBMN.klb                 0.00:  WOB Min 
 WITN.            Peter Wilson:  Customer Rep 
 WOBA.klb                 0.00:  WOB Avg 
 WOBX.klb                 0.00:  WOB Max 
 YP  .lhf2               29.00:  Yield Point 
~Curve Information Block
#MNEM.UNIT                 API CODE     Curve Description
#---------               -----------    ---------------------------
 TIME.HHMMSS            00 000 000 000:  GT Time & Date
 GTDEPTH.m              00 000 000 000:  GT Depth
 GTPQH.psia             00 000 000 000:  GT HR Quartz Pressure
 GTTQ.degC              00 000 000 000:  GT Quartz Temperature
 GTTN.NONE              00 000 000 000:  GT Test Number
 GTET.sec               00 000 000 000:  GT Elapsed Test Time
 GTTVD.m                00 000 000 000:  GT True Vertical Depth
#Other Information
#
#WARRANTY: Halliburton will use its best efforts to furnish customers with 
#accurate information and interpretations that are part of, and incident to, the services 
#provided.  However, Halliburton cannot and does not warrant the accuracy 
#or correctness of such information and interpretations.  Under no circumstances should any 
#such information or interpretation be relied upon as the sole basis for any drilling, 
#completion, production, or financial decision or any procedure involving any risk to the 
#safety of any drilling venture, drilling rig or its crew or any other third party.  The 
#Customer has full responsibility for all drilling, completion and production operation.  
#Halliburton makes no representations or warranties, either expressed or 
#implied, including, but not limited to, the implied warranties of merchantability or fitness 
#for a particular purpose, with respect to the services rendered.  In no event will 
#Halliburton be liable for failure to obtain any particular results or for 
#any damages, including, but not limited to, indirect, special or consequential damages, 
#resulting from the use of any information or interpretation provided by Halliburton.
#
~A           TIME           GTDEPTH  GTPQH  GTTQ  GTTN  GTET   GTTVD  
# ...
   05:51:26.000.03-Feb-2020 4005.21 6052.33 63.89 6.00 368.00 3016.91
   05:51:26.200.03-Feb-2020 4005.21 6052.33 63.89 6.00 368.20 3016.91
   05:51:26.400.03-Feb-2020 4005.21 6051.94 63.89 6.00 368.40 3016.91
   05:51:26.600.03-Feb-2020 4005.21 6045.25 63.89 6.00 368.60 3016.91
   05:51:26.800.03-Feb-2020 4005.21 6049.33 63.89 6.00 368.80 3016.91
   05:51:27.000.03-Feb-2020 4005.21 6045.90 63.89 6.00 369.00 3016.91
   05:51:27.200.03-Feb-2020 4005.21 6045.90 63.89 6.00 369.20 3016.91
   05:51:27.400.03-Feb-2020 4005.21 6050.96 63.89 6.00 369.40 3016.91
   05:51:27.600.03-Feb-2020 4005.21 6052.21 63.89 6.00 369.60 3016.91
   05:51:27.800.03-Feb-2020 4005.21 6051.51 63.89 6.00 369.80 3016.91
   05:51:28.000.03-Feb-2020 4005.21 6049.99 63.89 6.00 370.00 3016.91
   05:51:28.200.03-Feb-2020 4005.21 6049.99 63.89 6.00 370.20 3016.91
   05:51:28.400.03-Feb-2020 4005.21 6053.14 63.89 6.00 370.40 3016.91
   05:51:28.600.03-Feb-2020 4005.21 6052.58 63.89 6.00 370.60 3016.91
   05:51:28.800.03-Feb-2020 4005.21 6052.96 63.89 6.00 370.80 3016.91
   05:51:29.000.03-Feb-2020 4005.21 6052.69 63.89 6.00 371.00 3016.91
   05:51:29.200.03-Feb-2020 4005.21 6052.69 63.89 6.00 371.20 3016.91
   05:51:29.400.03-Feb-2020 4005.21 6050.53 63.89 6.00 371.40 3016.91
   05:51:29.600.03-Feb-2020 4005.21 6052.52 63.89 6.00 371.60 3016.91
   05:51:29.800.03-Feb-2020 4005.21 6049.09 63.89 6.00 371.80 3016.91
   05:51:30.000.03-Feb-2020 4005.21 6045.92 63.89 6.00 372.00 3016.91
   05:51:30.200.03-Feb-2020 4005.21 6045.92 63.89 6.00 372.20 3016.91
   05:51:30.400.03-Feb-2020 4005.21 6049.66 63.89 6.00 372.40 3016.91
   05:51:30.600.03-Feb-2020 4005.21 6050.03 63.89 6.00 372.60 3016.91
   05:51:30.800.03-Feb-2020 4005.21 6050.44 63.89 6.00 372.80 3016.91
   05:51:31.000.03-Feb-2020 4005.21 6050.35 63.89 6.00 373.00 3016.91
   05:51:31.200.03-Feb-2020 4005.21 6050.35 63.89 6.00 373.20 3016.91
   05:51:31.400.03-Feb-2020 4005.21 6051.40 63.89 6.00 373.40 3016.91
   05:51:31.600.03-Feb-2020 4005.21 6052.10 63.89 6.00 373.60 3016.91
   05:51:31.800.03-Feb-2020 4005.21 6052.19 63.89 6.00 373.80 3016.91
   05:51:32.000.03-Feb-2020 4005.21 6051.50 63.89 6.00 374.00 3016.91
   05:51:32.200.03-Feb-2020 4005.21 6051.50 63.89 6.00 374.20 3016.91
   05:51:32.400.03-Feb-2020 4005.21 6052.10 63.89 6.00 374.40 3016.91
   05:51:32.600.03-Feb-2020 4005.21 6043.69 63.89 6.00 374.60 3016.91
   05:51:32.800.03-Feb-2020 4005.21 6049.39 63.89 6.00 374.80 3016.91
   05:51:33.000.03-Feb-2020 4005.21 6049.02 63.89 6.00 375.00 3016.91
   05:51:33.200.03-Feb-2020 4005.21 6049.02 63.89 6.00 375.20 3016.91
   05:51:33.400.03-Feb-2020 4005.21 6051.39 63.89 6.00 375.40 3016.91
   05:51:33.600.03-Feb-2020 4005.21 6053.50 63.89 6.00 375.60 3016.91
   05:51:33.800.03-Feb-2020 4005.21 6053.66 63.89 6.00 375.80 3016.91
   05:51:34.000.03-Feb-2020 4005.21 6046.28 63.89 6.00 376.00 3016.91
   05:51:34.200.03-Feb-2020 4005.21 6046.28 63.89 6.00 376.20 3016.91
   05:51:34.400.03-Feb-2020 4005.21 6047.03 63.89 6.00 376.40 3016.91
   05:51:34.600.03-Feb-2020 4005.21 6051.01 63.89 6.00 376.60 3016.91
   05:51:34.800.03-Feb-2020 4005.21 6049.78 63.89 6.00 376.80 3016.91
   05:51:35.000.03-Feb-2020 4005.21 6042.29 63.89 6.00 377.00 3016.91
   05:51:35.200.03-Feb-2020 4005.21 6042.29 63.89 6.00 377.20 3016.91
   05:51:35.400.03-Feb-2020 4005.21 6047.77 63.89 6.00 377.40 3016.91
   05:51:35.600.03-Feb-2020 4005.21 6052.28 63.89 6.00 377.60 3016.91
   05:51:35.800.03-Feb-2020 4005.21 6053.04 63.89 6.00 377.80 3016.91
   05:51:36.000.03-Feb-2020 4005.21 6052.32 63.89 6.00 378.00 3016.91
   05:51:36.200.03-Feb-2020 4005.21 6052.32 63.89 6.00 378.20 3016.91
   05:51:36.400.03-Feb-2020 4005.21 6042.29 63.89 6.00 378.40 3016.91
   05:51:36.600.03-Feb-2020 4005.21 6048.91 63.89 6.00 378.60 3016.91
   05:51:36.800.03-Feb-2020 4005.21 6045.47 63.89 6.00 378.80 3016.91
   05:51:37.000.03-Feb-2020 4005.21 6051.47 63.89 6.00 379.00 3016.91
   05:51:37.200.03-Feb-2020 4005.21 6051.47 63.89 6.00 379.20 3016.91
   05:51:37.400.03-Feb-2020 4005.21 6050.56 63.89 6.00 379.40 3016.91
   05:51:37.600.03-Feb-2020 4005.21 6050.11 63.89 6.00 379.60 3016.91
   05:51:37.800.03-Feb-2020 4005.21 6049.94 63.89 6.00 379.80 3016.91
   05:51:38.000.03-Feb-2020 4005.21 6052.30 63.89 6.00 380.00 3016.91
   05:51:38.200.03-Feb-2020 4005.21 6052.30 63.89 6.00 380.20 3016.91
   05:51:38.400.03-Feb-2020 4005.21 6052.11 63.89 6.00 380.40 3016.91
   05:51:38.600.03-Feb-2020 4005.21 6052.09 63.89 6.00 380.60 3016.91
   05:51:38.800.03-Feb-2020 4005.21 6051.92 63.89 6.00 380.80 3016.91
   05:51:39.000.03-Feb-2020 4005.21 6050.68 63.89 6.00 381.00 3016.91
   05:51:39.200.03-Feb-2020 4005.21 6050.68 63.89 6.00 381.20 3016.91
   05:51:39.400.03-Feb-2020 4005.21 6052.35 63.89 6.00 381.40 3016.91
   05:51:39.600.03-Feb-2020 4005.21 6041.98 63.89 6.00 381.60 3016.91
   05:51:39.800.03-Feb-2020 4005.21 6051.53 63.89 6.00 381.80 3016.91
   05:51:40.000.03-Feb-2020 4005.21 6047.16 63.89 6.00 382.00 3016.91
   05:51:40.200.03-Feb-2020 4005.21 6047.16 63.89 6.00 382.20 3016.91
   05:51:40.400.03-Feb-2020 4005.21 6049.47 63.89 6.00 382.40 3016.91
   05:51:40.600.03-Feb-2020 4005.21 6050.32 63.89 6.00 382.60 3016.91
   05:51:40.800.03-Feb-2020 4005.21 6050.03 63.89 6.00 382.80 3016.91
   05:51:41.000.03-Feb-2020 4005.21 6051.09 63.89 6.00 383.00 3016.91
   05:51:41.200.03-Feb-2020 4005.21 6051.09 63.89 6.00 383.20 3016.91
   05:51:41.400.03-Feb-2020 4005.21 6051.60 63.89 6.00 383.40 3016.91
   05:51:41.600.03-Feb-2020 4005.21 6051.60 63.89 6.00 383.60 3016.91
   05:51:41.800.03-Feb-2020 4005.21 6050.80 63.89 6.00 383.80 3016.91
   05:51:42.000.03-Feb-2020 4005.21 6051.39 63.89 6.00 384.00 3016.91
   05:51:42.200.03-Feb-2020 4005.21 6051.39 63.89 6.00 384.20 3016.91
   05:51:42.400.03-Feb-2020 4005.21 6040.96 63.89 6.00 384.40 3016.91
   05:51:42.600.03-Feb-2020 4005.21 6050.90 63.89 6.00 384.60 3016.91
   05:51:42.800.03-Feb-2020 4005.21 6049.69 63.89 6.00 384.80 3016.91
   05:51:43.000.03-Feb-2020 4005.21 6051.53 63.89 6.00 385.00 3016.91
   05:51:43.200.03-Feb-2020 4005.21 6051.53 63.89 6.00 385.20 3016.91
   05:51:43.400.03-Feb-2020 4005.21 6053.26 63.89 6.00 385.40 3016.91
   05:51:43.600.03-Feb-2020 4005.21 6052.25 63.89 6.00 385.60 3016.91
   05:51:43.800.03-Feb-2020 4005.21 6043.03 63.89 6.00 385.80 3016.91
   05:51:44.000.03-Feb-2020 4005.21 6050.02 63.89 6.00 386.00 3016.91
   05:51:44.200.03-Feb-2020 4005.21 6050.02 63.89 6.00 386.20 3016.91
   05:51:44.400.03-Feb-2020 4005.21 6050.53 63.89 6.00 386.40 3016.91
   05:51:44.600.03-Feb-2020 4005.21 6043.44 63.89 6.00 386.60 3016.91
   05:51:44.800.03-Feb-2020 4005.21 6049.04 63.89 6.00 386.80 3016.91
   05:51:45.000.03-Feb-2020 4005.21 6046.02 63.89 6.00 387.00 3016.91
   05:51:45.200.03-Feb-2020 4005.21 6046.02 63.89 6.00 387.20 3016.91
   05:51:45.400.03-Feb-2020 4005.21 6052.15 63.89 6.00 387.40 3016.91
   05:51:45.600.03-Feb-2020 4005.21 6052.70 63.89 6.00 387.60 3016.91
   05:51:45.800.03-Feb-2020 4005.21 6051.83 63.89 6.00 387.80 3016.91
   05:51:46.000.03-Feb-2020 4005.21 6044.26 63.89 6.00 388.00 3016.91
   05:51:46.200.03-Feb-2020 4005.21 6044.26 63.89 6.00 388.20 3016.91
   05:51:46.400.03-Feb-2020 4005.21 6044.66 63.89 6.00 388.40 3016.91
   05:51:46.600.03-Feb-2020 4005.21 6049.53 63.89 6.00 388.60 3016.91
   05:51:46.800.03-Feb-2020 4005.21 6051.51 63.89 6.00 388.80 3016.91
   05:51:47.000.03-Feb-2020 4005.21 6051.43 63.89 6.00 389.00 3016.91
   05:51:47.200.03-Feb-2020 4005.21 6051.43 63.89 6.00 389.20 3016.91
   05:51:47.400.03-Feb-2020 4005.21 6049.91 63.89 6.00 389.40 3016.91
   05:51:47.600.03-Feb-2020 4005.21 6051.83 63.89 6.00 389.60 3016.91
   05:51:47.800.03-Feb-2020 4005.21 6052.75 63.89 6.00 389.80 3016.91
   05:51:48.000.03-Feb-2020 4005.21 6052.68 63.89 6.00 390.00 3016.91
   05:51:48.200.03-Feb-2020 4005.21 6052.68 63.89 6.00 390.20 3016.91
   05:51:48.400.03-Feb-2020 4005.21 6052.29 63.89 6.00 390.40 3016.91
   05:51:48.600.03-Feb-2020 4005.21 6052.03 63.89 6.00 390.60 3016.91
   05:51:48.800.03-Feb-2020 4005.21 6050.23 63.89 6.00 390.80 3016.91
