~Version Information
 VERS.                  2.0:   CWLS log ASCII Standard -VERSION 2.0
 WRAP.                   NO:   One line per depth step
~Well Information Block
#MNEM.UNIT     VALUE/NAME     DESCRIPTION
#---------     -----------    ---------------------------
 STRT.S             05:00:30 03-Feb-20: START TIME 05:00:30 03-Feb-20
 STOP.S             05:08:21 03-Feb-20: STOP TIME  05:08:21 03-Feb-20
 STEP.S                   0.00: STEP TIME
 NULL.                 -999.25: NULL VALUE
 DFWT.                        :  DIST FWL TEXT
 DFST.                        :  DIST FSL TEXT
 DMF .             Drill Floor:  DRILL MEAS FROM
 STIM.      09.30.00 26-Dec-19:  START TIME
 DATE.      08.00.00 20-Jan-20:  END TIME
 SPUD.               23-Nov-19:  SPUD DATE
 NREF.                    Grid:  NORTH REFERENCE
 HPTY.       Minimum Curvature:  HOLE POS TYPE
 DMOD.             Drill Model:  DRILL MOD DESC
 SVYD.                  Survey:  SURVEY DESC
 ILTD.               Lithology:  INTERP LTH DESC
 FTOP.          Formation Tops:  FORM TOPS DESC
 SON .        AZ-XX-0906192647:  JOB NUMBER
 WTYP.                Deviated:  WELL TYPE
 COMP.     BP Exploration (Caspian Sea) Ltd:  COMPANY
 BASE.              Azerbaijan:  LOGGING EQUIPMENT BASE LOCATION
 REGN.                 Eurasia:  REGION
 FLD .                     ACG:  FIELD NAME
 SRVC.              KCA Deutag:  CONTRACTOR
 MWDS.                    Baku:  MWD SHOP
 WELL.     A10 (Slot 20) - SCP:  WELL NAME
 JOBN.        AZ-XX-0906192647:  JOB TICKET NUMB
 RIG .                 Chirag1:  RIG NAME
 DCON.     Halliburton Sperry Drilling:  DIRECTNL CONTR
 UNIT.                     N/A:  LOGGING EQUIPMENT ID
 PDAT.          Mean Sea Level:  PERMANENT DATUM
 MDS .        Operator Entered:  MAG DATA SOURCE
 CTRY.              Azerbaijan:  COUNTRY NAME
 UWI .            /AZE00000090:  UNIQUE WELL IDENTIFIER
 API .            /AZE00000090:  API NUMBER
 CNTY.                        :  COUNTY
 PROV.                        :  PROVINCE
 STAT.                        :  STATE
 LOC .                        :  LOCATION
 LMF .             Drill Floor:  LOG MEASURED FROM
 TVDS.m                  36.60:  TVDSS CORRECTN
 LATI.deg                40.08:  LATITUDE
 LONG.deg                51.24:  LONGITUDE
 WHNS.m                  -7.94:  WELL HEAD N/S
 WHEW.m                   1.56:  WELL HEAD E/W
 UTMX.m              520429.26:  UTM X
 UTMY.m             4438973.87:  UTM Y
 DFWL.m                   0.00:  DISTANCE FWL
 DFSL.m                   0.00:  DISTANCE FSL
 SDEP.m                1455.00:  START DEPTH
 TDD .m                4047.51:  TOTAL DEPTH (DRILLER)
 VSDR.deg               112.75:  VERT SEC DIRECT
 GVFD.g                   1.00:  GRAVITY FIELD
 MFLD.nT              50261.00:  MAGNETIC FIELD
 MDIP.deg                59.52:  MAGNETIC DIP
 MDEC.deg                 6.42:  MAGNETIC DECL
 GRDC.deg                 0.17:  GRID CORRECTION
 AZTC.deg                 6.25:  AZM TOTAL CORR
 EPD .m                   0.00:  ELEVATION
 EGL .m                   0.00:  GROUND ELEVATION
 WDMS.m                 121.00:  WD ELEV
 APD .m                  36.60:  DEPTH ABOVE PD
 AGAP.m                  36.60:  AIR GAP
 VSEW.m                   1.56:  VERT SEC E/W
 VSNS.m                  -7.94:  VERT SEC N/S
 DEP .m                1140.01:  DEPTH
 EKB .m                  36.60:  KB ELEVATION
 EDF .m                  36.60:  DF ELEVATION
 VSC .                       0:  VS TO CLOSURE
 MAGU.                 1849206:  MAGUTM CHECKSUM
~Parameter Information Block
#MNEM.UNIT       Value        Description
#---------     -----------    ---------------------------
 AV  .mps                 1.70:  Ann Velocity 
 AVMX.mps                 2.30:  Max Ann Veloc 
 AZIF.deg               137.03:  Azm, Final 
 BHAT.                   Other:  BHA Type 
 BROT.°/30m               0.80:  Build Rotating 
 BS  .in                  8.00:  Bit Size 
 BTPL.psig              161.00:  Bit Press Loss 
 CABU.                      No:  Customer Abuse 
 COMM.                     ,¶W:  Run Comments 1 
 TCS .hr                  9.59:  Time Ciculation Ended 
 CV  .mps                 3.76:  Crit Velocity 
 CVMX.mps                 4.26:  Max Crit Veloc 
 DD1 .         Intigam Rahimov:  Direct Drillr 1 
 DD2 .          Rashad Gojayev:  Direct Drillr 2 
 DDSV.                   Other:  DD Service 
 DEFF.%                 100.00:  % Det Eff 
 DLRX.°/30m               1.44:  Dogleg Rot Max 
 DLSO.°/30m               0.00:  Dogleg Oriented 
 DLSX.°/30m               0.00:  Dogleg Str Max 
 DRET.      03.31.12 02-Feb-20:  Drill End Time 
 DRST.      03.31.12 02-Feb-20:  Drill Start Tim 
 DTIM.hr                  1.99:  Time Drilling 
 EDEP.m                4047.51:  End Depth 
 ENG1.           Eldar Hajiyev:  Engineer 1 
 ENG2.          Rasim Hashimov:  Engineer 2 
 ENG3.          Rustam Safarov:  Engineer 3 
 ETIM.      03.31.12 02-Feb-20:  End Time 
 FLOI.gpm               300.00:  Flow In 
 FLON.gpm               250.00:  Flow In Min 
 FLOS.cptm                0.00:  Fluid Loss 
 FLOX.gpm               330.00:  Flow In Max 
 HFLO.                      No:  High Flow 
 HPRE.                      No:  High Pressure 
 HTEM.                      No:  High Temp 
 HYDO.m                   2.50:  Hydro Offset 
 IFIN.deg                39.54:  Inc, Final 
 IMAX.deg                41.14:  Inc Max 
 IMIN.deg                39.81:  Inc Min 
 IMND.m                4005.21:  Inc Min Depth 
 IMXD.m                3948.42:  Inc Max Depth 
 JARR.                      No:  Jarring 
 LETM.      03.31.12 02-Feb-20:  Log End Time 
 LOST.hr                     0:  Lost Rig Time 
 LSTM.      03.31.12 02-Feb-20:  Log Start Time 
 MDCL.ppm             35000.00:  Mud Chlorides 
 MDES.     Inversion Oil/Synthetic:  Mud Desc 
 DFD .sg                  1.32:  Mud Density 
 MDMN.sg                  1.32:  Dens Mud Min 
 MDMX.sg                  1.32:  Dens Mud Max 
 MOIL.                      59:  Run Mud Oil % 
 MOWR.                   71:29:  Run Mud OWR 
 MSND.                       0:  Run Mud Sand % 
 MSOL.                      17:  Run Mud Solids% 
 DFV .spqt               86.00:  Mud Viscosity 
 MWOD.in                  4.75:  MWD Tool OD 
 MWSI.                      No:  Serv Intrp, MWD 
 OTIM.hr                 46.72:  Time Operating 
 PCON.           Look Like New:  Pad Condition 
 PMAX.psia             3300.00:  Press Op, Max 
 PV  .cP                 30.00:  Mud PV 
 RUN .                     400:  Run Number 
 ROPA.m/hr               35.00:  ROP Avg 
 ROPN.m/hr               25.00:  ROP Min 
 ROPX.m/hr               40.00:  ROP Max 
 RPMA.rpm                80.00:  RPM Surface Avg 
 RPMN.rpm                60.00:  RPM Surface Min 
 RPMX.rpm               100.00:  RPM Surface Max 
 RRUN.                     400:  Rig Run Number 
 RTIM.hr                  1.99:  Time Reaming 
 SAZI.deg               133.93:  Azm, Start 
 SDEP.m                4047.51:  Start Depth 
 SIDD.                      No:  Serv Intrp, DD 
 SINC.deg                40.28:  Inc, Start 
 SPPA.psig             3250.00:  SPP Avg 
 SPPN.psig             3200.00:  SPP Min 
 SPPX.psig             3300.00:  SPP Max 
 STIM.      03.31.12 02-Feb-20:  Start Time 
 SVCS.                 DD, MWD:  Services 
 SVER.                    9.20:  Sperry Version 
 TDAT.m                  47.00:  Tot Depth Attmp 
 TDDF.                      No:  Trip for DD 
 TFF .                      No:  Trip for Fail 
 TQAA.f-kp                0.00:  Torque Abs Avg 
 TQAN.f-kp                0.00:  Torque Abs Min 
 TQAX.f-kp                0.00:  Torque Abs Max 
 TRRT.°/30m               0.70:  Turn Rotating 
 MRT .                    HCIM:  Maximum Recorded Temperature 
 TTMX.degC               70.59:  Max Tool Temp 
 VS01.             90598770F11:  Virtual Str1 SN 
 VS02.             90598769F11:  Virtual Str2 SN 
 VS03.            90515978Z1W1:  Virtual Str3 SN 
 VS04.          90584144R12X14:  Virtual Str4 SN 
 WBMN.klb                 0.00:  WOB Min 
 WITN.            Peter Wilson:  Customer Rep 
 WOBA.klb                 0.00:  WOB Avg 
 WOBX.klb                 0.00:  WOB Max 
 YP  .lhf2               29.00:  Yield Point 
~Curve Information Block
#MNEM.UNIT                 API CODE     Curve Description
#---------               -----------    ---------------------------
 TIME.HHMMSS            00 000 000 000:  GT Time & Date
 GTDEPTH.m              00 000 000 000:  GT Depth
 GTPQH.psia             00 000 000 000:  GT HR Quartz Pressure
 GTTQ.degC              00 000 000 000:  GT Quartz Temperature
 GTTN.NONE              00 000 000 000:  GT Test Number
 GTET.sec               00 000 000 000:  GT Elapsed Test Time
 GTTVD.m                00 000 000 000:  GT True Vertical Depth
#Other Information
#
#WARRANTY: Halliburton will use its best efforts to furnish customers with 
#accurate information and interpretations that are part of, and incident to, the services 
#provided.  However, Halliburton cannot and does not warrant the accuracy 
#or correctness of such information and interpretations.  Under no circumstances should any 
#such information or interpretation be relied upon as the sole basis for any drilling, 
#completion, production, or financial decision or any procedure involving any risk to the 
#safety of any drilling venture, drilling rig or its crew or any other third party.  The 
#Customer has full responsibility for all drilling, completion and production operation.  
#Halliburton makes no representations or warranties, either expressed or 
#implied, including, but not limited to, the implied warranties of merchantability or fitness 
#for a particular purpose, with respect to the services rendered.  In no event will 
#Halliburton be liable for failure to obtain any particular results or for 
#any damages, including, but not limited to, indirect, special or consequential damages, 
#resulting from the use of any information or interpretation provided by Halliburton.
#
~A           TIME           GTDEPTH  GTPQH  GTTQ  GTTN  GTET   GTTVD  
# ...
   05:07:47.000.03-Feb-2020 4009.01 6081.13 65.65 4.00 437.00 3019.83
   05:07:47.200.03-Feb-2020 4009.01 6081.13 65.65 4.00 437.20 3019.83
   05:07:47.400.03-Feb-2020 4009.01 6080.61 65.65 4.00 437.40 3019.83
   05:07:47.600.03-Feb-2020 4009.01 6079.97 65.65 4.00 437.60 3019.83
   05:07:47.800.03-Feb-2020 4009.01 6079.39 65.65 4.00 437.80 3019.83
   05:07:48.000.03-Feb-2020 4009.01 6078.05 65.65 4.00 438.00 3019.83
   05:07:48.200.03-Feb-2020 4009.01 6078.05 65.65 4.00 438.20 3019.83
   05:07:48.400.03-Feb-2020 4009.01 6073.16 65.65 4.00 438.40 3019.83
   05:07:48.600.03-Feb-2020 4009.01 6079.66 65.65 4.00 438.60 3019.83
   05:07:48.800.03-Feb-2020 4009.01 6073.61 65.65 4.00 438.80 3019.83
   05:07:49.000.03-Feb-2020 4009.01 6078.10 65.65 4.00 439.00 3019.83
   05:07:49.200.03-Feb-2020 4009.01 6078.10 65.65 4.00 439.20 3019.83
   05:07:49.400.03-Feb-2020 4009.01 6078.05 65.65 4.00 439.40 3019.83
   05:07:49.600.03-Feb-2020 4009.01 6078.79 65.65 4.00 439.60 3019.83
   05:07:49.800.03-Feb-2020 4009.01 6079.53 65.65 4.00 439.80 3019.83
   05:07:50.000.03-Feb-2020 4009.01 6079.93 65.65 4.00 440.00 3019.83
   05:07:50.200.03-Feb-2020 4009.01 6079.93 65.65 4.00 440.20 3019.83
   05:07:50.400.03-Feb-2020 4009.01 6079.41 65.65 4.00 440.40 3019.83
   05:07:50.600.03-Feb-2020 4009.01 6079.03 65.65 4.00 440.60 3019.83
   05:07:50.800.03-Feb-2020 4009.01 6078.88 65.65 4.00 440.80 3019.83
   05:07:51.000.03-Feb-2020 4009.01 6079.63 65.65 4.00 441.00 3019.83
   05:07:51.200.03-Feb-2020 4009.01 6079.63 65.65 4.00 441.20 3019.83
   05:07:51.400.03-Feb-2020 4009.01 6079.63 65.65 4.00 441.40 3019.83
   05:07:51.600.03-Feb-2020 4009.01 6076.32 65.65 4.00 441.60 3019.83
   05:07:51.800.03-Feb-2020 4009.01 6080.29 65.65 4.00 441.80 3019.83
   05:07:52.000.03-Feb-2020 4009.01 6079.34 65.65 4.00 442.00 3019.83
   05:07:52.200.03-Feb-2020 4009.01 6079.34 65.65 4.00 442.20 3019.83
   05:07:52.400.03-Feb-2020 4009.01 6081.22 65.65 4.00 442.40 3019.83
   05:07:52.600.03-Feb-2020 4009.01 6080.53 65.65 4.00 442.60 3019.83
   05:07:52.800.03-Feb-2020 4009.01 6070.08 65.65 4.00 442.80 3019.83
   05:07:53.000.03-Feb-2020 4009.01 6078.60 65.65 4.00 443.00 3019.83
   05:07:53.200.03-Feb-2020 4009.01 6078.60 65.65 4.00 443.20 3019.83
   05:07:53.400.03-Feb-2020 4009.01 6079.68 65.65 4.00 443.40 3019.83
   05:07:53.600.03-Feb-2020 4009.01 6080.23 65.65 4.00 443.60 3019.83
   05:07:53.800.03-Feb-2020 4009.01 6076.88 65.65 4.00 443.80 3019.83
   05:07:54.000.03-Feb-2020 4009.01 6072.87 65.65 4.00 444.00 3019.83
   05:07:54.200.03-Feb-2020 4009.01 6072.87 65.65 4.00 444.20 3019.83
   05:07:54.400.03-Feb-2020 4009.01 6080.25 65.65 4.00 444.40 3019.83
   05:07:54.600.03-Feb-2020 4009.01 6079.36 65.65 4.00 444.60 3019.83
   05:07:54.800.03-Feb-2020 4009.01 6080.30 65.65 4.00 444.80 3019.83
   05:07:55.000.03-Feb-2020 4009.01 6079.71 65.64 4.00 445.00 3019.83
   05:07:55.200.03-Feb-2020 4009.01 6079.71 65.64 4.00 445.20 3019.83
   05:07:55.400.03-Feb-2020 4009.01 6078.77 65.64 4.00 445.40 3019.83
   05:07:55.600.03-Feb-2020 4009.01 6073.53 65.64 4.00 445.60 3019.83
   05:07:55.800.03-Feb-2020 4009.01 6080.39 65.64 4.00 445.80 3019.83
   05:07:56.000.03-Feb-2020 4009.01 6079.13 65.64 4.00 446.00 3019.83
   05:07:56.200.03-Feb-2020 4009.01 6079.13 65.64 4.00 446.20 3019.83
   05:07:56.400.03-Feb-2020 4009.01 6079.14 65.64 4.00 446.40 3019.83
   05:07:56.600.03-Feb-2020 4009.01 6078.55 65.64 4.00 446.60 3019.83
   05:07:56.800.03-Feb-2020 4009.01 6079.86 65.64 4.00 446.80 3019.83
   05:07:57.000.03-Feb-2020 4009.01 6082.01 65.64 4.00 447.00 3019.83
   05:07:57.200.03-Feb-2020 4009.01 6082.01 65.64 4.00 447.20 3019.83
   05:07:57.400.03-Feb-2020 4009.01 6080.54 65.64 4.00 447.40 3019.83
   05:07:57.600.03-Feb-2020 4009.01 6080.52 65.64 4.00 447.60 3019.83
   05:07:57.800.03-Feb-2020 4009.01 6079.96 65.64 4.00 447.80 3019.83
   05:07:58.000.03-Feb-2020 4009.01 6077.76 65.64 4.00 448.00 3019.83
   05:07:58.200.03-Feb-2020 4009.01 6077.76 65.64 4.00 448.20 3019.83
   05:07:58.400.03-Feb-2020 4009.01 6073.36 65.64 4.00 448.40 3019.83
   05:07:58.600.03-Feb-2020 4009.01 6078.43 65.64 4.00 448.60 3019.83
   05:07:58.800.03-Feb-2020 4009.01 6074.23 65.64 4.00 448.80 3019.83
   05:07:59.000.03-Feb-2020 4009.01 6078.81 65.64 4.00 449.00 3019.83
   05:07:59.200.03-Feb-2020 4009.01 6078.81 65.64 4.00 449.20 3019.83
   05:07:59.400.03-Feb-2020 4009.01 6079.52 65.64 4.00 449.40 3019.83
   05:07:59.600.03-Feb-2020 4009.01 6079.27 65.64 4.00 449.60 3019.83
   05:07:59.800.03-Feb-2020 4009.01 6080.43 65.64 4.00 449.80 3019.83
   05:08:00.000.03-Feb-2020 4009.01 6080.36 65.64 4.00 450.00 3019.83
   05:08:00.200.03-Feb-2020 4009.01 6080.36 65.64 4.00 450.20 3019.83
   05:08:00.400.03-Feb-2020 4009.01 6079.23 65.64 4.00 450.40 3019.83
   05:08:00.600.03-Feb-2020 4009.01 6078.96 65.64 4.00 450.60 3019.83
   05:08:00.800.03-Feb-2020 4009.01 6078.74 65.64 4.00 450.80 3019.83
   05:08:01.000.03-Feb-2020 4009.01 6079.65 65.64 4.00 451.00 3019.83
   05:08:01.200.03-Feb-2020 4009.01 6079.65 65.64 4.00 451.20 3019.83
   05:08:01.400.03-Feb-2020 4009.01 6080.66 65.64 4.00 451.40 3019.83
   05:08:01.600.03-Feb-2020 4009.01 6075.93 65.64 4.00 451.60 3019.83
   05:08:01.800.03-Feb-2020 4009.01 6080.18 65.64 4.00 451.80 3019.83
   05:08:02.000.03-Feb-2020 4009.01 6078.48 65.64 4.00 452.00 3019.83
   05:08:02.200.03-Feb-2020 4009.01 6078.48 65.64 4.00 452.20 3019.83
   05:08:02.400.03-Feb-2020 4009.01 6081.10 65.63 4.00 452.40 3019.83
   05:08:02.600.03-Feb-2020 4009.01 6079.70 65.63 4.00 452.60 3019.83
   05:08:02.800.03-Feb-2020 4009.01 6069.86 65.63 4.00 452.80 3019.83
   05:08:03.000.03-Feb-2020 4009.01 6077.99 65.63 4.00 453.00 3019.83
   05:08:03.200.03-Feb-2020 4009.01 6077.99 65.63 4.00 453.20 3019.83
   05:08:03.400.03-Feb-2020 4009.01 6079.30 65.63 4.00 453.40 3019.83
   05:08:03.600.03-Feb-2020 4009.01 6079.94 65.63 4.00 453.60 3019.83
   05:08:03.800.03-Feb-2020 4009.01 6076.33 65.63 4.00 453.80 3019.83
   05:08:04.000.03-Feb-2020 4009.01 6072.93 65.63 4.00 454.00 3019.83
   05:08:04.200.03-Feb-2020 4009.01 6072.93 65.63 4.00 454.20 3019.83
   05:08:04.400.03-Feb-2020 4009.01 6079.52 65.63 4.00 454.40 3019.83
   05:08:04.600.03-Feb-2020 4009.01 6079.39 65.63 4.00 454.60 3019.83
   05:08:04.800.03-Feb-2020 4009.01 6079.90 65.63 4.00 454.80 3019.83
   05:08:05.000.03-Feb-2020 4009.01 6079.04 65.63 4.00 455.00 3019.83
   05:08:05.200.03-Feb-2020 4009.01 6079.04 65.63 4.00 455.20 3019.83
   05:08:05.400.03-Feb-2020 4009.01 6078.31 65.63 4.00 455.40 3019.83
   05:08:05.600.03-Feb-2020 4009.01 6072.99 65.63 4.00 455.60 3019.83
   05:08:05.800.03-Feb-2020 4009.01 6080.46 65.63 4.00 455.80 3019.83
   05:08:06.000.03-Feb-2020 4009.01 6078.50 65.63 4.00 456.00 3019.83
   05:08:06.200.03-Feb-2020 4009.01 6078.50 65.63 4.00 456.20 3019.83
   05:08:06.400.03-Feb-2020 4009.01 6079.28 65.63 4.00 456.40 3019.83
   05:08:06.600.03-Feb-2020 4009.01 6078.00 65.63 4.00 456.60 3019.83
   05:08:06.800.03-Feb-2020 4009.01 6079.47 65.63 4.00 456.80 3019.83
   05:08:07.000.03-Feb-2020 4009.01 6081.86 65.63 4.00 457.00 3019.83
   05:08:07.200.03-Feb-2020 4009.01 6081.86 65.63 4.00 457.20 3019.83
   05:08:07.400.03-Feb-2020 4009.01 6080.04 65.63 4.00 457.40 3019.83
   05:08:07.600.03-Feb-2020 4009.01 6080.08 65.63 4.00 457.60 3019.83
   05:08:07.800.03-Feb-2020 4009.01 6079.03 65.63 4.00 457.80 3019.83
   05:08:08.000.03-Feb-2020 4009.01 6077.31 65.63 4.00 458.00 3019.83
   05:08:08.200.03-Feb-2020 4009.01 6077.31 65.63 4.00 458.20 3019.83
   05:08:08.400.03-Feb-2020 4009.01 6072.21 65.63 4.00 458.40 3019.83
   05:08:08.600.03-Feb-2020 4009.01 6078.09 65.63 4.00 458.60 3019.83
   05:08:08.800.03-Feb-2020 4009.01 6073.72 65.63 4.00 458.80 3019.83
   05:08:09.000.03-Feb-2020 4009.01 6077.87 65.63 4.00 459.00 3019.83
   05:08:09.200.03-Feb-2020 4009.01 6077.87 65.63 4.00 459.20 3019.83
   05:08:09.400.03-Feb-2020 4009.01 6079.03 65.63 4.00 459.40 3019.83
   05:08:09.600.03-Feb-2020 4009.01 6078.49 65.63 4.00 459.60 3019.83
   05:08:09.800.03-Feb-2020 4009.01 6081.33 65.63 4.00 459.80 3019.83
