~Version Information
 VERS.                  2.0:   CWLS log ASCII Standard -VERSION 2.0
 WRAP.                   NO:   One line per depth step
~Well Information Block
#MNEM.UNIT     VALUE/NAME     DESCRIPTION
#---------     -----------    ---------------------------
 STRT.S             05:00:30 03-Feb-20: START TIME 05:00:30 03-Feb-20
 STOP.S             05:08:21 03-Feb-20: STOP TIME  05:08:21 03-Feb-20
 STEP.S                   0.00: STEP TIME
 NULL.                 -999.25: NULL VALUE
 DFWT.                        :  DIST FWL TEXT
 DFST.                        :  DIST FSL TEXT
 DMF .             Drill Floor:  DRILL MEAS FROM
 STIM.      09.30.00 26-Dec-19:  START TIME
 DATE.      08.00.00 20-Jan-20:  END TIME
 SPUD.               23-Nov-19:  SPUD DATE
 NREF.                    Grid:  NORTH REFERENCE
 HPTY.       Minimum Curvature:  HOLE POS TYPE
 DMOD.             Drill Model:  DRILL MOD DESC
 SVYD.                  Survey:  SURVEY DESC
 ILTD.               Lithology:  INTERP LTH DESC
 FTOP.          Formation Tops:  FORM TOPS DESC
 SON .        AZ-XX-0906192647:  JOB NUMBER
 WTYP.                Deviated:  WELL TYPE
 COMP.     BP Exploration (Caspian Sea) Ltd:  COMPANY
 BASE.              Azerbaijan:  LOGGING EQUIPMENT BASE LOCATION
 REGN.                 Eurasia:  REGION
 FLD .                     ACG:  FIELD NAME
 SRVC.              KCA Deutag:  CONTRACTOR
 MWDS.                    Baku:  MWD SHOP
 WELL.     A10 (Slot 20) - SCP:  WELL NAME
 JOBN.        AZ-XX-0906192647:  JOB TICKET NUMB
 RIG .                 Chirag1:  RIG NAME
 DCON.     Halliburton Sperry Drilling:  DIRECTNL CONTR
 UNIT.                     N/A:  LOGGING EQUIPMENT ID
 PDAT.          Mean Sea Level:  PERMANENT DATUM
 MDS .        Operator Entered:  MAG DATA SOURCE
 CTRY.              Azerbaijan:  COUNTRY NAME
 UWI .            /AZE00000090:  UNIQUE WELL IDENTIFIER
 API .            /AZE00000090:  API NUMBER
 CNTY.                        :  COUNTY
 PROV.                        :  PROVINCE
 STAT.                        :  STATE
 LOC .                        :  LOCATION
 LMF .             Drill Floor:  LOG MEASURED FROM
 TVDS.m                  36.60:  TVDSS CORRECTN
 LATI.deg                40.08:  LATITUDE
 LONG.deg                51.24:  LONGITUDE
 WHNS.m                  -7.94:  WELL HEAD N/S
 WHEW.m                   1.56:  WELL HEAD E/W
 UTMX.m              520429.26:  UTM X
 UTMY.m             4438973.87:  UTM Y
 DFWL.m                   0.00:  DISTANCE FWL
 DFSL.m                   0.00:  DISTANCE FSL
 SDEP.m                1455.00:  START DEPTH
 TDD .m                4047.51:  TOTAL DEPTH (DRILLER)
 VSDR.deg               112.75:  VERT SEC DIRECT
 GVFD.g                   1.00:  GRAVITY FIELD
 MFLD.nT              50261.00:  MAGNETIC FIELD
 MDIP.deg                59.52:  MAGNETIC DIP
 MDEC.deg                 6.42:  MAGNETIC DECL
 GRDC.deg                 0.17:  GRID CORRECTION
 AZTC.deg                 6.25:  AZM TOTAL CORR
 EPD .m                   0.00:  ELEVATION
 EGL .m                   0.00:  GROUND ELEVATION
 WDMS.m                 121.00:  WD ELEV
 APD .m                  36.60:  DEPTH ABOVE PD
 AGAP.m                  36.60:  AIR GAP
 VSEW.m                   1.56:  VERT SEC E/W
 VSNS.m                  -7.94:  VERT SEC N/S
 DEP .m                1140.01:  DEPTH
 EKB .m                  36.60:  KB ELEVATION
 EDF .m                  36.60:  DF ELEVATION
 VSC .                       0:  VS TO CLOSURE
 MAGU.                 1849206:  MAGUTM CHECKSUM
~Parameter Information Block
#MNEM.UNIT       Value        Description
#---------     -----------    ---------------------------
 AV  .mps                 1.70:  Ann Velocity 
 AVMX.mps                 2.30:  Max Ann Veloc 
 AZIF.deg               137.03:  Azm, Final 
 BHAT.                   Other:  BHA Type 
 BROT.°/30m               0.80:  Build Rotating 
 BS  .in                  8.00:  Bit Size 
 BTPL.psig              161.00:  Bit Press Loss 
 CABU.                      No:  Customer Abuse 
 COMM.                     ,¶W:  Run Comments 1 
 TCS .hr                  9.59:  Time Ciculation Ended 
 CV  .mps                 3.76:  Crit Velocity 
 CVMX.mps                 4.26:  Max Crit Veloc 
 DD1 .         Intigam Rahimov:  Direct Drillr 1 
 DD2 .          Rashad Gojayev:  Direct Drillr 2 
 DDSV.                   Other:  DD Service 
 DEFF.%                 100.00:  % Det Eff 
 DLRX.°/30m               1.44:  Dogleg Rot Max 
 DLSO.°/30m               0.00:  Dogleg Oriented 
 DLSX.°/30m               0.00:  Dogleg Str Max 
 DRET.      03.31.12 02-Feb-20:  Drill End Time 
 DRST.      03.31.12 02-Feb-20:  Drill Start Tim 
 DTIM.hr                  1.99:  Time Drilling 
 EDEP.m                4047.51:  End Depth 
 ENG1.           Eldar Hajiyev:  Engineer 1 
 ENG2.          Rasim Hashimov:  Engineer 2 
 ENG3.          Rustam Safarov:  Engineer 3 
 ETIM.      03.31.12 02-Feb-20:  End Time 
 FLOI.gpm               300.00:  Flow In 
 FLON.gpm               250.00:  Flow In Min 
 FLOS.cptm                0.00:  Fluid Loss 
 FLOX.gpm               330.00:  Flow In Max 
 HFLO.                      No:  High Flow 
 HPRE.                      No:  High Pressure 
 HTEM.                      No:  High Temp 
 HYDO.m                   2.50:  Hydro Offset 
 IFIN.deg                39.54:  Inc, Final 
 IMAX.deg                41.14:  Inc Max 
 IMIN.deg                39.81:  Inc Min 
 IMND.m                4005.21:  Inc Min Depth 
 IMXD.m                3948.42:  Inc Max Depth 
 JARR.                      No:  Jarring 
 LETM.      03.31.12 02-Feb-20:  Log End Time 
 LOST.hr                     0:  Lost Rig Time 
 LSTM.      03.31.12 02-Feb-20:  Log Start Time 
 MDCL.ppm             35000.00:  Mud Chlorides 
 MDES.     Inversion Oil/Synthetic:  Mud Desc 
 DFD .sg                  1.32:  Mud Density 
 MDMN.sg                  1.32:  Dens Mud Min 
 MDMX.sg                  1.32:  Dens Mud Max 
 MOIL.                      59:  Run Mud Oil % 
 MOWR.                   71:29:  Run Mud OWR 
 MSND.                       0:  Run Mud Sand % 
 MSOL.                      17:  Run Mud Solids% 
 DFV .spqt               86.00:  Mud Viscosity 
 MWOD.in                  4.75:  MWD Tool OD 
 MWSI.                      No:  Serv Intrp, MWD 
 OTIM.hr                 46.72:  Time Operating 
 PCON.           Look Like New:  Pad Condition 
 PMAX.psia             3300.00:  Press Op, Max 
 PV  .cP                 30.00:  Mud PV 
 RUN .                     400:  Run Number 
 ROPA.m/hr               35.00:  ROP Avg 
 ROPN.m/hr               25.00:  ROP Min 
 ROPX.m/hr               40.00:  ROP Max 
 RPMA.rpm                80.00:  RPM Surface Avg 
 RPMN.rpm                60.00:  RPM Surface Min 
 RPMX.rpm               100.00:  RPM Surface Max 
 RRUN.                     400:  Rig Run Number 
 RTIM.hr                  1.99:  Time Reaming 
 SAZI.deg               133.93:  Azm, Start 
 SDEP.m                4047.51:  Start Depth 
 SIDD.                      No:  Serv Intrp, DD 
 SINC.deg                40.28:  Inc, Start 
 SPPA.psig             3250.00:  SPP Avg 
 SPPN.psig             3200.00:  SPP Min 
 SPPX.psig             3300.00:  SPP Max 
 STIM.      03.31.12 02-Feb-20:  Start Time 
 SVCS.                 DD, MWD:  Services 
 SVER.                    9.20:  Sperry Version 
 TDAT.m                  47.00:  Tot Depth Attmp 
 TDDF.                      No:  Trip for DD 
 TFF .                      No:  Trip for Fail 
 TQAA.f-kp                0.00:  Torque Abs Avg 
 TQAN.f-kp                0.00:  Torque Abs Min 
 TQAX.f-kp                0.00:  Torque Abs Max 
 TRRT.°/30m               0.70:  Turn Rotating 
 MRT .                    HCIM:  Maximum Recorded Temperature 
 TTMX.degC               70.59:  Max Tool Temp 
 VS01.             90598770F11:  Virtual Str1 SN 
 VS02.             90598769F11:  Virtual Str2 SN 
 VS03.            90515978Z1W1:  Virtual Str3 SN 
 VS04.          90584144R12X14:  Virtual Str4 SN 
 WBMN.klb                 0.00:  WOB Min 
 WITN.            Peter Wilson:  Customer Rep 
 WOBA.klb                 0.00:  WOB Avg 
 WOBX.klb                 0.00:  WOB Max 
 YP  .lhf2               29.00:  Yield Point 
~Curve Information Block
#MNEM.UNIT                 API CODE     Curve Description
#---------               -----------    ---------------------------
 TIME.HHMMSS            00 000 000 000:  GT Time & Date
 GTDEPTH.m              00 000 000 000:  GT Depth
 GTPQH.psia             00 000 000 000:  GT HR Quartz Pressure
 GTTQ.degC              00 000 000 000:  GT Quartz Temperature
 GTTN.NONE              00 000 000 000:  GT Test Number
 GTET.sec               00 000 000 000:  GT Elapsed Test Time
 GTTVD.m                00 000 000 000:  GT True Vertical Depth
#Other Information
#
#WARRANTY: Halliburton will use its best efforts to furnish customers with 
#accurate information and interpretations that are part of, and incident to, the services 
#provided.  However, Halliburton cannot and does not warrant the accuracy 
#or correctness of such information and interpretations.  Under no circumstances should any 
#such information or interpretation be relied upon as the sole basis for any drilling, 
#completion, production, or financial decision or any procedure involving any risk to the 
#safety of any drilling venture, drilling rig or its crew or any other third party.  The 
#Customer has full responsibility for all drilling, completion and production operation.  
#Halliburton makes no representations or warranties, either expressed or 
#implied, including, but not limited to, the implied warranties of merchantability or fitness 
#for a particular purpose, with respect to the services rendered.  In no event will 
#Halliburton be liable for failure to obtain any particular results or for 
#any damages, including, but not limited to, indirect, special or consequential damages, 
#resulting from the use of any information or interpretation provided by Halliburton.
#
~A           TIME           GTDEPTH  GTPQH  GTTQ  GTTN  GTET   GTTVD  
   05:00:30.000.03-Feb-2020 4009.01 6077.64 66.32 4.00   0.00 3019.83
   05:00:30.200.03-Feb-2020 4009.01 6077.64 66.32 4.00   0.20 3019.83
   05:00:30.400.03-Feb-2020 4009.01 6066.65 66.32 4.00   0.40 3019.83
   05:00:30.600.03-Feb-2020 4009.01 6076.86 66.32 4.00   0.60 3019.83
   05:00:30.800.03-Feb-2020 4009.01 6071.54 66.32 4.00   0.80 3019.83
   05:00:31.000.03-Feb-2020 4009.01 6073.17 66.32 4.00   1.00 3019.83
   05:00:31.200.03-Feb-2020 4009.01 6073.17 66.32 4.00   1.20 3019.83
   05:00:31.400.03-Feb-2020 4009.01 6073.17 66.32 4.00   1.40 3019.83
   05:00:31.600.03-Feb-2020 4009.01 6073.17 66.32 4.00   1.60 3019.83
   05:00:31.800.03-Feb-2020 4009.01 6071.19 66.31 4.00   1.80 3019.83
   05:00:32.000.03-Feb-2020 4009.01 6073.56 66.31 4.00   2.00 3019.83
   05:00:32.200.03-Feb-2020 4009.01 6073.56 66.31 4.00   2.20 3019.83
   05:00:32.400.03-Feb-2020 4009.01 6077.36 66.31 4.00   2.40 3019.83
   05:00:32.600.03-Feb-2020 4009.01 6077.19 66.31 4.00   2.60 3019.83
   05:00:32.800.03-Feb-2020 4009.01 6076.83 66.31 4.00   2.80 3019.83
   05:00:33.000.03-Feb-2020 4009.01 6077.17 66.31 4.00   3.00 3019.83
   05:00:33.200.03-Feb-2020 4009.01 6077.17 66.31 4.00   3.20 3019.83
   05:00:33.400.03-Feb-2020 4009.01 6080.95 66.31 4.00   3.40 3019.83
   05:00:33.600.03-Feb-2020 4009.01 6081.43 66.31 4.00   3.60 3019.83
   05:00:33.800.03-Feb-2020 4009.01 6081.02 66.31 4.00   3.80 3019.83
   05:00:34.000.03-Feb-2020 4009.01 6079.89 66.31 4.00   4.00 3019.83
   05:00:34.200.03-Feb-2020 4009.01 6079.89 66.31 4.00   4.20 3019.83
   05:00:34.400.03-Feb-2020 4009.01 6074.58 66.31 4.00   4.40 3019.83
   05:00:34.600.03-Feb-2020 4009.01 6084.16 66.31 4.00   4.60 3019.83
   05:00:34.800.03-Feb-2020 4009.01 6079.35 66.31 4.00   4.80 3019.83
   05:00:35.000.03-Feb-2020 4009.01 6082.90 66.31 4.00   5.00 3019.83
   05:00:35.200.03-Feb-2020 4009.01 6082.90 66.31 4.00   5.20 3019.83
   05:00:35.400.03-Feb-2020 4009.01 6083.45 66.31 4.00   5.40 3019.83
   05:00:35.600.03-Feb-2020 4009.01 6082.60 66.31 4.00   5.60 3019.83
   05:00:35.800.03-Feb-2020 4009.01 6077.47 66.30 4.00   5.80 3019.83
   05:00:36.000.03-Feb-2020 4009.01 6075.41 66.30 4.00   6.00 3019.83
   05:00:36.200.03-Feb-2020 4009.01 6075.41 66.30 4.00   6.20 3019.83
   05:00:36.400.03-Feb-2020 4009.01 6077.72 66.30 4.00   6.40 3019.83
   05:00:36.600.03-Feb-2020 4009.01 6077.59 66.30 4.00   6.60 3019.83
   05:00:36.800.03-Feb-2020 4009.01 6076.23 66.30 4.00   6.80 3019.83
   05:00:37.000.03-Feb-2020 4009.01 6066.97 66.30 4.00   7.00 3019.83
   05:00:37.200.03-Feb-2020 4009.01 6066.97 66.30 4.00   7.20 3019.83
   05:00:37.400.03-Feb-2020 4009.01 6074.46 66.30 4.00   7.40 3019.83
   05:00:37.600.03-Feb-2020 4009.01 6077.25 66.30 4.00   7.60 3019.83
   05:00:37.800.03-Feb-2020 4009.01 6077.05 66.30 4.00   7.80 3019.83
   05:00:38.000.03-Feb-2020 4009.01 6076.80 66.30 4.00   8.00 3019.83
   05:00:38.200.03-Feb-2020 4009.01 6076.80 66.30 4.00   8.20 3019.83
   05:00:38.400.03-Feb-2020 4009.01 6067.42 66.30 4.00   8.40 3019.83
   05:00:38.600.03-Feb-2020 4009.01 6077.31 66.30 4.00   8.60 3019.83
   05:00:38.800.03-Feb-2020 4009.01 6074.29 66.30 4.00   8.80 3019.83
   05:00:39.000.03-Feb-2020 4009.01 6080.73 66.30 4.00   9.00 3019.83
   05:00:39.200.03-Feb-2020 4009.01 6080.73 66.30 4.00   9.20 3019.83
   05:00:39.400.03-Feb-2020 4009.01 6070.44 66.30 4.00   9.40 3019.83
   05:00:39.600.03-Feb-2020 4009.01 6080.48 66.30 4.00   9.60 3019.83
   05:00:39.800.03-Feb-2020 4009.01 6075.84 66.30 4.00   9.80 3019.83
   05:00:40.000.03-Feb-2020 4009.01 6083.11 66.30 4.00  10.00 3019.83
   05:00:40.200.03-Feb-2020 4009.01 6083.11 66.30 4.00  10.20 3019.83
   05:00:40.400.03-Feb-2020 4009.01 6082.40 66.29 4.00  10.40 3019.83
   05:00:40.600.03-Feb-2020 4009.01 6082.14 66.29 4.00  10.60 3019.83
   05:00:40.800.03-Feb-2020 4009.01 6081.71 66.29 4.00  10.80 3019.83
   05:00:41.000.03-Feb-2020 4009.01 6080.96 66.29 4.00  11.00 3019.83
   05:00:41.200.03-Feb-2020 4009.01 6080.96 66.29 4.00  11.20 3019.83
   05:00:41.400.03-Feb-2020 4009.01 6082.93 66.29 4.00  11.40 3019.83
   05:00:41.600.03-Feb-2020 4009.01 6082.67 66.29 4.00  11.60 3019.83
   05:00:41.800.03-Feb-2020 4009.01 6082.09 66.29 4.00  11.80 3019.83
   05:00:42.000.03-Feb-2020 4009.01 6080.92 66.29 4.00  12.00 3019.83
   05:00:42.200.03-Feb-2020 4009.01 6080.92 66.29 4.00  12.20 3019.83
   05:00:42.400.03-Feb-2020 4009.01 6082.54 66.29 4.00  12.40 3019.83
   05:00:42.600.03-Feb-2020 4009.01 6073.69 66.29 4.00  12.60 3019.83
   05:00:42.800.03-Feb-2020 4009.01 6080.44 66.29 4.00  12.80 3019.83
   05:00:43.000.03-Feb-2020 4009.01 6076.82 66.29 4.00  13.00 3019.83
   05:00:43.200.03-Feb-2020 4009.01 6076.82 66.29 4.00  13.20 3019.83
   05:00:43.400.03-Feb-2020 4009.01 6079.29 66.29 4.00  13.40 3019.83
   05:00:43.600.03-Feb-2020 4009.01 6080.46 66.29 4.00  13.60 3019.83
   05:00:43.800.03-Feb-2020 4009.01 6079.03 66.29 4.00  13.80 3019.83
   05:00:44.000.03-Feb-2020 4009.01 6080.49 66.29 4.00  14.00 3019.83
   05:00:44.200.03-Feb-2020 4009.01 6080.49 66.29 4.00  14.20 3019.83
   05:00:44.400.03-Feb-2020 4009.01 6081.10 66.29 4.00  14.40 3019.83
   05:00:44.600.03-Feb-2020 4009.01 6081.25 66.29 4.00  14.60 3019.83
   05:00:44.800.03-Feb-2020 4009.01 6081.08 66.28 4.00  14.80 3019.83
   05:00:45.000.03-Feb-2020 4009.01 6081.26 66.28 4.00  15.00 3019.83
   05:00:45.200.03-Feb-2020 4009.01 6081.26 66.28 4.00  15.20 3019.83
   05:00:45.400.03-Feb-2020 4009.01 6081.53 66.28 4.00  15.40 3019.83
   05:00:45.600.03-Feb-2020 4009.01 6083.71 66.28 4.00  15.60 3019.83
   05:00:45.800.03-Feb-2020 4009.01 6084.39 66.28 4.00  15.80 3019.83
   05:00:46.000.03-Feb-2020 4009.01 6083.25 66.28 4.00  16.00 3019.83
   05:00:46.200.03-Feb-2020 4009.01 6083.25 66.28 4.00  16.20 3019.83
   05:00:46.400.03-Feb-2020 4009.01 6079.04 66.28 4.00  16.40 3019.83
   05:00:46.600.03-Feb-2020 4009.01 6078.55 66.28 4.00  16.60 3019.83
   05:00:46.800.03-Feb-2020 4009.01 6079.21 66.28 4.00  16.80 3019.83
   05:00:47.000.03-Feb-2020 4009.01 6082.34 66.28 4.00  17.00 3019.83
   05:00:47.200.03-Feb-2020 4009.01 6082.34 66.28 4.00  17.20 3019.83
   05:00:47.400.03-Feb-2020 4009.01 6074.30 66.28 4.00  17.40 3019.83
   05:00:47.600.03-Feb-2020 4009.01 6082.65 66.28 4.00  17.60 3019.83
   05:00:47.800.03-Feb-2020 4009.01 6078.55 66.28 4.00  17.80 3019.83
   05:00:48.000.03-Feb-2020 4009.01 6082.85 66.28 4.00  18.00 3019.83
   05:00:48.200.03-Feb-2020 4009.01 6082.85 66.28 4.00  18.20 3019.83
   05:00:48.400.03-Feb-2020 4009.01 6082.48 66.28 4.00  18.40 3019.83
   05:00:48.600.03-Feb-2020 4009.01 6077.55 66.28 4.00  18.60 3019.83
   05:00:48.800.03-Feb-2020 4009.01 6082.73 66.28 4.00  18.80 3019.83
   05:00:49.000.03-Feb-2020 4009.01 6076.96 66.28 4.00  19.00 3019.83
   05:00:49.200.03-Feb-2020 4009.01 6076.96 66.28 4.00  19.20 3019.83
   05:00:49.400.03-Feb-2020 4009.01 6077.82 66.27 4.00  19.40 3019.83
   05:00:49.600.03-Feb-2020 4009.01 6082.24 66.27 4.00  19.60 3019.83
   05:00:49.800.03-Feb-2020 4009.01 6082.19 66.27 4.00  19.80 3019.83
   05:00:50.000.03-Feb-2020 4009.01 6082.85 66.27 4.00  20.00 3019.83
   05:00:50.200.03-Feb-2020 4009.01 6082.85 66.27 4.00  20.20 3019.83
   05:00:50.400.03-Feb-2020 4009.01 6082.23 66.27 4.00  20.40 3019.83
   05:00:50.600.03-Feb-2020 4009.01 6078.20 66.27 4.00  20.60 3019.83
   05:00:50.800.03-Feb-2020 4009.01 6082.60 66.27 4.00  20.80 3019.83
   05:00:51.000.03-Feb-2020 4009.01 6080.80 66.27 4.00  21.00 3019.83
   05:00:51.200.03-Feb-2020 4009.01 6080.80 66.27 4.00  21.20 3019.83
   05:00:51.400.03-Feb-2020 4009.01 6084.47 66.27 4.00  21.40 3019.83
   05:00:51.600.03-Feb-2020 4009.01 6084.30 66.27 4.00  21.60 3019.83
   05:00:51.800.03-Feb-2020 4009.01 6082.77 66.27 4.00  21.80 3019.83
   05:00:52.000.03-Feb-2020 4009.01 6083.47 66.27 4.00  22.00 3019.83
   05:00:52.200.03-Feb-2020 4009.01 6083.47 66.27 4.00  22.20 3019.83
   05:00:52.400.03-Feb-2020 4009.01 6083.93 66.27 4.00  22.40 3019.83
   05:00:52.600.03-Feb-2020 4009.01 6083.32 66.27 4.00  22.60 3019.83
   05:00:52.800.03-Feb-2020 4009.01 6082.80 66.27 4.00  22.80 3019.83
