~Version Information
 VERS.                  2.0:   CWLS log ASCII Standard -VERSION 2.0
 WRAP.                   NO:   One line per depth step
~Well Information Block
#MNEM.UNIT     VALUE/NAME     DESCRIPTION
#---------     -----------    ---------------------------
 STRT.S             08:33:17 03-Feb-20: START TIME 08:33:17 03-Feb-20
 STOP.S             08:41:10 03-Feb-20: STOP TIME  08:41:10 03-Feb-20
 STEP.S                   0.00: STEP TIME
 NULL.                 -999.25: NULL VALUE
 DFWT.                        :  DIST FWL TEXT
 DFST.                        :  DIST FSL TEXT
 DMF .             Drill Floor:  DRILL MEAS FROM
 STIM.      09.30.00 26-Dec-19:  START TIME
 DATE.      08.00.00 20-Jan-20:  END TIME
 SPUD.               23-Nov-19:  SPUD DATE
 NREF.                    Grid:  NORTH REFERENCE
 HPTY.       Minimum Curvature:  HOLE POS TYPE
 DMOD.             Drill Model:  DRILL MOD DESC
 SVYD.                  Survey:  SURVEY DESC
 ILTD.               Lithology:  INTERP LTH DESC
 FTOP.          Formation Tops:  FORM TOPS DESC
 SON .        AZ-XX-0906192647:  JOB NUMBER
 WTYP.                Deviated:  WELL TYPE
 COMP.     BP Exploration (Caspian Sea) Ltd:  COMPANY
 BASE.              Azerbaijan:  LOGGING EQUIPMENT BASE LOCATION
 REGN.                 Eurasia:  REGION
 FLD .                     ACG:  FIELD NAME
 SRVC.              KCA Deutag:  CONTRACTOR
 MWDS.                    Baku:  MWD SHOP
 WELL.     A10 (Slot 20) - SCP:  WELL NAME
 JOBN.        AZ-XX-0906192647:  JOB TICKET NUMB
 RIG .                 Chirag1:  RIG NAME
 DCON.     Halliburton Sperry Drilling:  DIRECTNL CONTR
 UNIT.                     N/A:  LOGGING EQUIPMENT ID
 PDAT.          Mean Sea Level:  PERMANENT DATUM
 MDS .        Operator Entered:  MAG DATA SOURCE
 CTRY.              Azerbaijan:  COUNTRY NAME
 UWI .            /AZE00000090:  UNIQUE WELL IDENTIFIER
 API .            /AZE00000090:  API NUMBER
 CNTY.                        :  COUNTY
 PROV.                        :  PROVINCE
 STAT.                        :  STATE
 LOC .                        :  LOCATION
 LMF .             Drill Floor:  LOG MEASURED FROM
 TVDS.m                  36.60:  TVDSS CORRECTN
 LATI.deg                40.08:  LATITUDE
 LONG.deg                51.24:  LONGITUDE
 WHNS.m                  -7.94:  WELL HEAD N/S
 WHEW.m                   1.56:  WELL HEAD E/W
 UTMX.m              520429.26:  UTM X
 UTMY.m             4438973.87:  UTM Y
 DFWL.m                   0.00:  DISTANCE FWL
 DFSL.m                   0.00:  DISTANCE FSL
 SDEP.m                1455.00:  START DEPTH
 TDD .m                4047.51:  TOTAL DEPTH (DRILLER)
 VSDR.deg               112.75:  VERT SEC DIRECT
 GVFD.g                   1.00:  GRAVITY FIELD
 MFLD.nT              50261.00:  MAGNETIC FIELD
 MDIP.deg                59.52:  MAGNETIC DIP
 MDEC.deg                 6.42:  MAGNETIC DECL
 GRDC.deg                 0.17:  GRID CORRECTION
 AZTC.deg                 6.25:  AZM TOTAL CORR
 EPD .m                   0.00:  ELEVATION
 EGL .m                   0.00:  GROUND ELEVATION
 WDMS.m                 121.00:  WD ELEV
 APD .m                  36.60:  DEPTH ABOVE PD
 AGAP.m                  36.60:  AIR GAP
 VSEW.m                   1.56:  VERT SEC E/W
 VSNS.m                  -7.94:  VERT SEC N/S
 DEP .m                1140.01:  DEPTH
 EKB .m                  36.60:  KB ELEVATION
 EDF .m                  36.60:  DF ELEVATION
 VSC .                       0:  VS TO CLOSURE
 MAGU.                 1849206:  MAGUTM CHECKSUM
~Parameter Information Block
#MNEM.UNIT       Value        Description
#---------     -----------    ---------------------------
 AV  .mps                 1.70:  Ann Velocity 
 AVMX.mps                 2.30:  Max Ann Veloc 
 AZIF.deg               137.03:  Azm, Final 
 BHAT.                   Other:  BHA Type 
 BROT.°/30m               0.80:  Build Rotating 
 BS  .in                  8.00:  Bit Size 
 BTPL.psig              161.00:  Bit Press Loss 
 CABU.                      No:  Customer Abuse 
 COMM.                     äör:  Run Comments 1 
 TCS .hr                  9.59:  Time Ciculation Ended 
 CV  .mps                 3.76:  Crit Velocity 
 CVMX.mps                 4.26:  Max Crit Veloc 
 DD1 .         Intigam Rahimov:  Direct Drillr 1 
 DD2 .          Rashad Gojayev:  Direct Drillr 2 
 DDSV.                   Other:  DD Service 
 DEFF.%                 100.00:  % Det Eff 
 DLRX.°/30m               1.44:  Dogleg Rot Max 
 DLSO.°/30m               0.00:  Dogleg Oriented 
 DLSX.°/30m               0.00:  Dogleg Str Max 
 DRET.      03.31.12 02-Feb-20:  Drill End Time 
 DRST.      03.31.12 02-Feb-20:  Drill Start Tim 
 DTIM.hr                  1.99:  Time Drilling 
 EDEP.m                4047.51:  End Depth 
 ENG1.           Eldar Hajiyev:  Engineer 1 
 ENG2.          Rasim Hashimov:  Engineer 2 
 ENG3.          Rustam Safarov:  Engineer 3 
 ETIM.      03.31.12 02-Feb-20:  End Time 
 FLOI.gpm               300.00:  Flow In 
 FLON.gpm               250.00:  Flow In Min 
 FLOS.cptm                0.00:  Fluid Loss 
 FLOX.gpm               330.00:  Flow In Max 
 HFLO.                      No:  High Flow 
 HPRE.                      No:  High Pressure 
 HTEM.                      No:  High Temp 
 HYDO.m                   2.50:  Hydro Offset 
 IFIN.deg                39.54:  Inc, Final 
 IMAX.deg                41.14:  Inc Max 
 IMIN.deg                39.81:  Inc Min 
 IMND.m                4005.21:  Inc Min Depth 
 IMXD.m                3948.42:  Inc Max Depth 
 JARR.                      No:  Jarring 
 LETM.      03.31.12 02-Feb-20:  Log End Time 
 LOST.hr                     0:  Lost Rig Time 
 LSTM.      03.31.12 02-Feb-20:  Log Start Time 
 MDCL.ppm             35000.00:  Mud Chlorides 
 MDES.     Inversion Oil/Synthetic:  Mud Desc 
 DFD .sg                  1.32:  Mud Density 
 MDMN.sg                  1.32:  Dens Mud Min 
 MDMX.sg                  1.32:  Dens Mud Max 
 MOIL.                      59:  Run Mud Oil % 
 MOWR.                   71:29:  Run Mud OWR 
 MSND.                       0:  Run Mud Sand % 
 MSOL.                      17:  Run Mud Solids% 
 DFV .spqt               86.00:  Mud Viscosity 
 MWOD.in                  4.75:  MWD Tool OD 
 MWSI.                      No:  Serv Intrp, MWD 
 OTIM.hr                 46.72:  Time Operating 
 PCON.           Look Like New:  Pad Condition 
 PMAX.psia             3300.00:  Press Op, Max 
 PV  .cP                 30.00:  Mud PV 
 RUN .                     400:  Run Number 
 ROPA.m/hr               35.00:  ROP Avg 
 ROPN.m/hr               25.00:  ROP Min 
 ROPX.m/hr               40.00:  ROP Max 
 RPMA.rpm                80.00:  RPM Surface Avg 
 RPMN.rpm                60.00:  RPM Surface Min 
 RPMX.rpm               100.00:  RPM Surface Max 
 RRUN.                     400:  Rig Run Number 
 RTIM.hr                  1.99:  Time Reaming 
 SAZI.deg               133.93:  Azm, Start 
 SDEP.m                4047.51:  Start Depth 
 SIDD.                      No:  Serv Intrp, DD 
 SINC.deg                40.28:  Inc, Start 
 SPPA.psig             3250.00:  SPP Avg 
 SPPN.psig             3200.00:  SPP Min 
 SPPX.psig             3300.00:  SPP Max 
 STIM.      03.31.12 02-Feb-20:  Start Time 
 SVCS.                 DD, MWD:  Services 
 SVER.                    9.20:  Sperry Version 
 TDAT.m                  47.00:  Tot Depth Attmp 
 TDDF.                      No:  Trip for DD 
 TFF .                      No:  Trip for Fail 
 TQAA.f-kp                0.00:  Torque Abs Avg 
 TQAN.f-kp                0.00:  Torque Abs Min 
 TQAX.f-kp                0.00:  Torque Abs Max 
 TRRT.°/30m               0.70:  Turn Rotating 
 MRT .                    HCIM:  Maximum Recorded Temperature 
 TTMX.degC               70.59:  Max Tool Temp 
 VS01.             90598770F11:  Virtual Str1 SN 
 VS02.             90598769F11:  Virtual Str2 SN 
 VS03.            90515978Z1W1:  Virtual Str3 SN 
 VS04.          90584144R12X14:  Virtual Str4 SN 
 WBMN.klb                 0.00:  WOB Min 
 WITN.            Peter Wilson:  Customer Rep 
 WOBA.klb                 0.00:  WOB Avg 
 WOBX.klb                 0.00:  WOB Max 
 YP  .lhf2               29.00:  Yield Point 
~Curve Information Block
#MNEM.UNIT                 API CODE     Curve Description
#---------               -----------    ---------------------------
 TIME.HHMMSS            00 000 000 000:  GT Time & Date
 GTDEPTH.m              00 000 000 000:  GT Depth
 GTPQH.psia             00 000 000 000:  GT HR Quartz Pressure
 GTTQ.degC              00 000 000 000:  GT Quartz Temperature
 GTTN.NONE              00 000 000 000:  GT Test Number
 GTET.sec               00 000 000 000:  GT Elapsed Test Time
 GTTVD.m                00 000 000 000:  GT True Vertical Depth
#Other Information
#
#WARRANTY: Halliburton will use its best efforts to furnish customers with 
#accurate information and interpretations that are part of, and incident to, the services 
#provided.  However, Halliburton cannot and does not warrant the accuracy 
#or correctness of such information and interpretations.  Under no circumstances should any 
#such information or interpretation be relied upon as the sole basis for any drilling, 
#completion, production, or financial decision or any procedure involving any risk to the 
#safety of any drilling venture, drilling rig or its crew or any other third party.  The 
#Customer has full responsibility for all drilling, completion and production operation.  
#Halliburton makes no representations or warranties, either expressed or 
#implied, including, but not limited to, the implied warranties of merchantability or fitness 
#for a particular purpose, with respect to the services rendered.  In no event will 
#Halliburton be liable for failure to obtain any particular results or for 
#any damages, including, but not limited to, indirect, special or consequential damages, 
#resulting from the use of any information or interpretation provided by Halliburton.
#
~A           TIME           GTDEPTH  GTPQH  GTTQ  GTTN   GTET   GTTVD  
# ...
   08:33:39.683.03-Feb-2020 4013.71 6902.63 64.63 11.00  22.60 3023.43
   08:33:39.883.03-Feb-2020 4013.71 6905.60 64.63 11.00  22.80 3023.43
   08:33:40.083.03-Feb-2020 4013.71 6908.09 64.63 11.00  23.00 3023.43
   08:33:40.283.03-Feb-2020 4013.71 6908.09 64.63 11.00  23.20 3023.43
   08:33:40.483.03-Feb-2020 4013.71 6922.71 64.63 11.00  23.40 3023.43
   08:33:40.683.03-Feb-2020 4013.71 6928.66 64.63 11.00  23.60 3023.43
   08:33:40.883.03-Feb-2020 4013.71 6933.18 64.63 11.00  23.80 3023.43
   08:33:41.083.03-Feb-2020 4013.71 6936.39 64.63 11.00  24.00 3023.43
   08:33:41.283.03-Feb-2020 4013.71 6936.39 64.63 11.00  24.20 3023.43
   08:33:41.483.03-Feb-2020 4013.71 6941.39 64.63 11.00  24.40 3023.43
   08:33:41.683.03-Feb-2020 4013.71 6943.06 64.63 11.00  24.60 3023.43
   08:33:41.883.03-Feb-2020 4013.71 6944.53 64.63 11.00  24.80 3023.43
   08:33:42.083.03-Feb-2020 4013.71 6946.24 64.63 11.00  25.00 3023.43
   08:33:42.283.03-Feb-2020 4013.71 6946.24 64.63 11.00  25.20 3023.43
   08:33:42.483.03-Feb-2020 4013.71 6948.70 64.63 11.00  25.40 3023.43
   08:33:42.683.03-Feb-2020 4013.71 6949.82 64.63 11.00  25.60 3023.43
   08:33:42.883.03-Feb-2020 4013.71 6950.41 64.63 11.00  25.80 3023.43
   08:33:43.083.03-Feb-2020 4013.71 6951.31 64.63 11.00  26.00 3023.43
   08:33:43.283.03-Feb-2020 4013.71 6951.31 64.63 11.00  26.20 3023.43
   08:33:43.483.03-Feb-2020 4013.71 5994.21 64.63 11.00  26.40 3023.43
   08:33:43.683.03-Feb-2020 4013.71 5763.93 64.63 11.00  26.60 3023.43
   08:33:43.883.03-Feb-2020 4013.71 5263.27 64.63 11.00  26.80 3023.43
   08:33:44.083.03-Feb-2020 4013.71 4798.57 64.63 11.00  27.00 3023.43
   08:33:44.283.03-Feb-2020 4013.71 4798.57 64.63 11.00  27.20 3023.43
   08:33:44.483.03-Feb-2020 4013.71 3913.10 64.63 11.00  27.40 3023.43
   08:33:44.683.03-Feb-2020 4013.71 3473.62 64.63 11.00  27.60 3023.43
   08:33:44.883.03-Feb-2020 4013.71 3111.80 64.63 11.00  27.80 3023.43
   08:33:45.083.03-Feb-2020 4013.71 3026.23 64.63 11.00  28.00 3023.43
   08:33:45.283.03-Feb-2020 4013.71 3026.23 64.63 11.00  28.20 3023.43
   08:33:45.483.03-Feb-2020 4013.71 3034.43 64.62 11.00  28.40 3023.43
   08:33:45.683.03-Feb-2020 4013.71 3074.69 64.62 11.00  28.60 3023.43
   08:33:45.883.03-Feb-2020 4013.71 3065.21 64.62 11.00  28.80 3023.43
   08:33:46.083.03-Feb-2020 4013.71 3061.05 64.62 11.00  29.00 3023.43
   08:33:46.283.03-Feb-2020 4013.71 3061.05 64.62 11.00  29.20 3023.43
   08:33:46.483.03-Feb-2020 4013.71 3054.54 64.62 11.00  29.40 3023.43
   08:33:46.683.03-Feb-2020 4013.71 3051.17 64.62 11.00  29.60 3023.43
   08:33:46.883.03-Feb-2020 4013.71 3048.61 64.62 11.00  29.80 3023.43
   08:33:47.083.03-Feb-2020 4013.71 3048.47 64.62 11.00  30.00 3023.43
   08:33:47.283.03-Feb-2020 4013.71 3048.47 64.62 11.00  30.20 3023.43
   08:33:47.483.03-Feb-2020 4013.71 3044.51 64.61 11.00  30.40 3023.43
   08:33:47.683.03-Feb-2020 4013.71 3041.56 64.61 11.00  30.60 3023.43
   08:33:47.883.03-Feb-2020 4013.71 3039.19 64.61 11.00  30.80 3023.43
   08:33:48.083.03-Feb-2020 4013.71 3037.54 64.61 11.00  31.00 3023.43
   08:33:48.283.03-Feb-2020 4013.71 3037.54 64.61 11.00  31.20 3023.43
   08:33:48.483.03-Feb-2020 4013.71 3038.12 64.61 11.00  31.40 3023.43
   08:33:48.683.03-Feb-2020 4013.71 3039.44 64.61 11.00  31.60 3023.43
   08:33:48.883.03-Feb-2020 4013.71 3037.75 64.60 11.00  31.80 3023.43
   08:33:49.083.03-Feb-2020 4013.71 3036.75 64.60 11.00  32.00 3023.43
   08:33:49.284.03-Feb-2020 4013.71 3036.75 64.60 11.00  32.20 3023.43
   08:33:49.484.03-Feb-2020 4013.71 3032.81 64.60 11.00  32.40 3023.43
   08:33:49.684.03-Feb-2020 4013.71 3034.56 64.60 11.00  32.60 3023.43
   08:33:49.884.03-Feb-2020 4013.71 3032.02 64.60 11.00  32.80 3023.43
   08:33:50.084.03-Feb-2020 4013.71 3033.90 64.60 11.00  33.00 3023.43
   08:33:50.284.03-Feb-2020 4013.71 3033.90 64.60 11.00  33.20 3023.43
   08:33:50.484.03-Feb-2020 4013.71 3031.62 64.59 11.00  33.40 3023.43
   08:33:50.684.03-Feb-2020 4013.71 3030.84 64.59 11.00  33.60 3023.43
   08:33:50.884.03-Feb-2020 4013.71 3030.86 64.59 11.00  33.80 3023.43
   08:33:51.084.03-Feb-2020 4013.71 3030.74 64.59 11.00  34.00 3023.43
   08:33:51.284.03-Feb-2020 4013.71 3030.74 64.59 11.00  34.20 3023.43
   08:33:51.484.03-Feb-2020 4013.71 3031.96 64.59 11.00  34.40 3023.43
   08:33:51.684.03-Feb-2020 4013.71 3031.94 64.59 11.00  34.60 3023.43
   08:33:51.884.03-Feb-2020 4013.71 3031.77 64.58 11.00  34.80 3023.43
   08:33:52.084.03-Feb-2020 4013.71 3031.55 64.58 11.00  35.00 3023.43
   08:33:52.284.03-Feb-2020 4013.71 3031.55 64.58 11.00  35.20 3023.43
   08:33:52.484.03-Feb-2020 4013.71 3031.45 64.58 11.00  35.40 3023.43
   08:33:52.684.03-Feb-2020 4013.71 3030.14 64.58 11.00  35.60 3023.43
   08:33:52.884.03-Feb-2020 4013.71 3030.83 64.58 11.00  35.80 3023.43
   08:33:53.084.03-Feb-2020 4013.71 3093.10 64.58 11.00  36.00 3023.43
   08:33:53.284.03-Feb-2020 4013.71 3093.10 64.58 11.00  36.20 3023.43
   08:33:53.484.03-Feb-2020 4013.71 3127.75 64.58 11.00  36.40 3023.43
   08:33:53.684.03-Feb-2020 4013.71 3128.21 64.57 11.00  36.60 3023.43
   08:33:53.884.03-Feb-2020 4013.71 3128.51 64.57 11.00  36.80 3023.43
   08:33:54.084.03-Feb-2020 4013.71 3128.80 64.57 11.00  37.00 3023.43
   08:33:54.284.03-Feb-2020 4013.71 3128.80 64.57 11.00  37.20 3023.43
   08:33:54.484.03-Feb-2020 4013.71 3129.28 64.57 11.00  37.40 3023.43
   08:33:54.684.03-Feb-2020 4013.71 3129.48 64.57 11.00  37.60 3023.43
   08:33:54.884.03-Feb-2020 4013.71 3129.66 64.57 11.00  37.80 3023.43
   08:33:55.084.03-Feb-2020 4013.71 3129.78 64.57 11.00  38.00 3023.43
   08:33:55.284.03-Feb-2020 4013.71 3129.78 64.57 11.00  38.20 3023.43
   08:33:55.484.03-Feb-2020 4013.71 3130.05 64.57 11.00  38.40 3023.43
   08:33:55.684.03-Feb-2020 4013.71 3130.19 64.57 11.00  38.60 3023.43
   08:33:55.884.03-Feb-2020 4013.71 3130.28 64.57 11.00  38.80 3023.43
   08:33:56.084.03-Feb-2020 4013.71 3130.32 64.57 11.00  39.00 3023.43
   08:33:56.284.03-Feb-2020 4013.71 3130.32 64.57 11.00  39.20 3023.43
   08:33:56.484.03-Feb-2020 4013.71 3130.50 64.56 11.00  39.40 3023.43
   08:33:56.684.03-Feb-2020 4013.71 3130.39 64.56 11.00  39.60 3023.43
   08:33:56.884.03-Feb-2020 4013.71 3130.52 64.56 11.00  39.80 3023.43
   08:33:57.084.03-Feb-2020 4013.71 3130.66 64.56 11.00  40.00 3023.43
   08:33:57.284.03-Feb-2020 4013.71 3130.66 64.56 11.00  40.20 3023.43
   08:33:57.484.03-Feb-2020 4013.71 3130.63 64.56 11.00  40.40 3023.43
   08:33:57.684.03-Feb-2020 4013.71 3130.79 64.56 11.00  40.60 3023.43
   08:33:57.884.03-Feb-2020 4013.71 3130.68 64.56 11.00  40.80 3023.43
   08:33:58.084.03-Feb-2020 4013.71 3130.92 64.56 11.00  41.00 3023.43
   08:33:58.284.03-Feb-2020 4013.71 3130.92 64.56 11.00  41.20 3023.43
   08:33:58.484.03-Feb-2020 4013.71 3130.96 64.56 11.00  41.40 3023.43
   08:33:58.684.03-Feb-2020 4013.71 3130.79 64.56 11.00  41.60 3023.43
   08:33:58.884.03-Feb-2020 4013.71 3131.06 64.56 11.00  41.80 3023.43
   08:33:59.084.03-Feb-2020 4013.71 3130.98 64.56 11.00  42.00 3023.43
   08:33:59.284.03-Feb-2020 4013.71 3130.98 64.56 11.00  42.20 3023.43
   08:33:59.484.03-Feb-2020 4013.71 3131.04 64.56 11.00  42.40 3023.43
   08:33:59.684.03-Feb-2020 4013.71 3131.15 64.56 11.00  42.60 3023.43
   08:33:59.884.03-Feb-2020 4013.71 3131.15 64.56 11.00  42.80 3023.43
   08:34:00.084.03-Feb-2020 4013.71 3131.19 64.56 11.00  43.00 3023.43
   08:34:00.284.03-Feb-2020 4013.71 3131.19 64.56 11.00  43.20 3023.43
   08:34:00.484.03-Feb-2020 4013.71 3131.23 64.55 11.00  43.40 3023.43
   08:34:00.684.03-Feb-2020 4013.71 3131.10 64.55 11.00  43.60 3023.43
   08:34:00.884.03-Feb-2020 4013.71 3131.29 64.55 11.00  43.80 3023.43
   08:34:01.084.03-Feb-2020 4013.71 3131.24 64.55 11.00  44.00 3023.43
   08:34:01.284.03-Feb-2020 4013.71 3131.24 64.55 11.00  44.20 3023.43
   08:34:01.484.03-Feb-2020 4013.71 3131.33 64.55 11.00  44.40 3023.43
   08:34:01.684.03-Feb-2020 4013.71 3131.33 64.55 11.00  44.60 3023.43
   08:34:01.884.03-Feb-2020 4013.71 3131.34 64.55 11.00  44.80 3023.43
   08:34:02.084.03-Feb-2020 4013.71 3131.36 64.55 11.00  45.00 3023.43
