~Version Information
 VERS.                  2.0:   CWLS log ASCII Standard -VERSION 2.0
 WRAP.                   NO:   One line per depth step
~Well Information Block
#MNEM.UNIT     VALUE/NAME     DESCRIPTION
#---------     -----------    ---------------------------
 STRT.S             08:33:17 03-Feb-20: START TIME 08:33:17 03-Feb-20
 STOP.S             08:41:10 03-Feb-20: STOP TIME  08:41:10 03-Feb-20
 STEP.S                   0.00: STEP TIME
 NULL.                 -999.25: NULL VALUE
 DFWT.                        :  DIST FWL TEXT
 DFST.                        :  DIST FSL TEXT
 DMF .             Drill Floor:  DRILL MEAS FROM
 STIM.      09.30.00 26-Dec-19:  START TIME
 DATE.      08.00.00 20-Jan-20:  END TIME
 SPUD.               23-Nov-19:  SPUD DATE
 NREF.                    Grid:  NORTH REFERENCE
 HPTY.       Minimum Curvature:  HOLE POS TYPE
 DMOD.             Drill Model:  DRILL MOD DESC
 SVYD.                  Survey:  SURVEY DESC
 ILTD.               Lithology:  INTERP LTH DESC
 FTOP.          Formation Tops:  FORM TOPS DESC
 SON .        AZ-XX-0906192647:  JOB NUMBER
 WTYP.                Deviated:  WELL TYPE
 COMP.     BP Exploration (Caspian Sea) Ltd:  COMPANY
 BASE.              Azerbaijan:  LOGGING EQUIPMENT BASE LOCATION
 REGN.                 Eurasia:  REGION
 FLD .                     ACG:  FIELD NAME
 SRVC.              KCA Deutag:  CONTRACTOR
 MWDS.                    Baku:  MWD SHOP
 WELL.     A10 (Slot 20) - SCP:  WELL NAME
 JOBN.        AZ-XX-0906192647:  JOB TICKET NUMB
 RIG .                 Chirag1:  RIG NAME
 DCON.     Halliburton Sperry Drilling:  DIRECTNL CONTR
 UNIT.                     N/A:  LOGGING EQUIPMENT ID
 PDAT.          Mean Sea Level:  PERMANENT DATUM
 MDS .        Operator Entered:  MAG DATA SOURCE
 CTRY.              Azerbaijan:  COUNTRY NAME
 UWI .            /AZE00000090:  UNIQUE WELL IDENTIFIER
 API .            /AZE00000090:  API NUMBER
 CNTY.                        :  COUNTY
 PROV.                        :  PROVINCE
 STAT.                        :  STATE
 LOC .                        :  LOCATION
 LMF .             Drill Floor:  LOG MEASURED FROM
 TVDS.m                  36.60:  TVDSS CORRECTN
 LATI.deg                40.08:  LATITUDE
 LONG.deg                51.24:  LONGITUDE
 WHNS.m                  -7.94:  WELL HEAD N/S
 WHEW.m                   1.56:  WELL HEAD E/W
 UTMX.m              520429.26:  UTM X
 UTMY.m             4438973.87:  UTM Y
 DFWL.m                   0.00:  DISTANCE FWL
 DFSL.m                   0.00:  DISTANCE FSL
 SDEP.m                1455.00:  START DEPTH
 TDD .m                4047.51:  TOTAL DEPTH (DRILLER)
 VSDR.deg               112.75:  VERT SEC DIRECT
 GVFD.g                   1.00:  GRAVITY FIELD
 MFLD.nT              50261.00:  MAGNETIC FIELD
 MDIP.deg                59.52:  MAGNETIC DIP
 MDEC.deg                 6.42:  MAGNETIC DECL
 GRDC.deg                 0.17:  GRID CORRECTION
 AZTC.deg                 6.25:  AZM TOTAL CORR
 EPD .m                   0.00:  ELEVATION
 EGL .m                   0.00:  GROUND ELEVATION
 WDMS.m                 121.00:  WD ELEV
 APD .m                  36.60:  DEPTH ABOVE PD
 AGAP.m                  36.60:  AIR GAP
 VSEW.m                   1.56:  VERT SEC E/W
 VSNS.m                  -7.94:  VERT SEC N/S
 DEP .m                1140.01:  DEPTH
 EKB .m                  36.60:  KB ELEVATION
 EDF .m                  36.60:  DF ELEVATION
 VSC .                       0:  VS TO CLOSURE
 MAGU.                 1849206:  MAGUTM CHECKSUM
~Parameter Information Block
#MNEM.UNIT       Value        Description
#---------     -----------    ---------------------------
 AV  .mps                 1.70:  Ann Velocity 
 AVMX.mps                 2.30:  Max Ann Veloc 
 AZIF.deg               137.03:  Azm, Final 
 BHAT.                   Other:  BHA Type 
 BROT.°/30m               0.80:  Build Rotating 
 BS  .in                  8.00:  Bit Size 
 BTPL.psig              161.00:  Bit Press Loss 
 CABU.                      No:  Customer Abuse 
 COMM.                     äör:  Run Comments 1 
 TCS .hr                  9.59:  Time Ciculation Ended 
 CV  .mps                 3.76:  Crit Velocity 
 CVMX.mps                 4.26:  Max Crit Veloc 
 DD1 .         Intigam Rahimov:  Direct Drillr 1 
 DD2 .          Rashad Gojayev:  Direct Drillr 2 
 DDSV.                   Other:  DD Service 
 DEFF.%                 100.00:  % Det Eff 
 DLRX.°/30m               1.44:  Dogleg Rot Max 
 DLSO.°/30m               0.00:  Dogleg Oriented 
 DLSX.°/30m               0.00:  Dogleg Str Max 
 DRET.      03.31.12 02-Feb-20:  Drill End Time 
 DRST.      03.31.12 02-Feb-20:  Drill Start Tim 
 DTIM.hr                  1.99:  Time Drilling 
 EDEP.m                4047.51:  End Depth 
 ENG1.           Eldar Hajiyev:  Engineer 1 
 ENG2.          Rasim Hashimov:  Engineer 2 
 ENG3.          Rustam Safarov:  Engineer 3 
 ETIM.      03.31.12 02-Feb-20:  End Time 
 FLOI.gpm               300.00:  Flow In 
 FLON.gpm               250.00:  Flow In Min 
 FLOS.cptm                0.00:  Fluid Loss 
 FLOX.gpm               330.00:  Flow In Max 
 HFLO.                      No:  High Flow 
 HPRE.                      No:  High Pressure 
 HTEM.                      No:  High Temp 
 HYDO.m                   2.50:  Hydro Offset 
 IFIN.deg                39.54:  Inc, Final 
 IMAX.deg                41.14:  Inc Max 
 IMIN.deg                39.81:  Inc Min 
 IMND.m                4005.21:  Inc Min Depth 
 IMXD.m                3948.42:  Inc Max Depth 
 JARR.                      No:  Jarring 
 LETM.      03.31.12 02-Feb-20:  Log End Time 
 LOST.hr                     0:  Lost Rig Time 
 LSTM.      03.31.12 02-Feb-20:  Log Start Time 
 MDCL.ppm             35000.00:  Mud Chlorides 
 MDES.     Inversion Oil/Synthetic:  Mud Desc 
 DFD .sg                  1.32:  Mud Density 
 MDMN.sg                  1.32:  Dens Mud Min 
 MDMX.sg                  1.32:  Dens Mud Max 
 MOIL.                      59:  Run Mud Oil % 
 MOWR.                   71:29:  Run Mud OWR 
 MSND.                       0:  Run Mud Sand % 
 MSOL.                      17:  Run Mud Solids% 
 DFV .spqt               86.00:  Mud Viscosity 
 MWOD.in                  4.75:  MWD Tool OD 
 MWSI.                      No:  Serv Intrp, MWD 
 OTIM.hr                 46.72:  Time Operating 
 PCON.           Look Like New:  Pad Condition 
 PMAX.psia             3300.00:  Press Op, Max 
 PV  .cP                 30.00:  Mud PV 
 RUN .                     400:  Run Number 
 ROPA.m/hr               35.00:  ROP Avg 
 ROPN.m/hr               25.00:  ROP Min 
 ROPX.m/hr               40.00:  ROP Max 
 RPMA.rpm                80.00:  RPM Surface Avg 
 RPMN.rpm                60.00:  RPM Surface Min 
 RPMX.rpm               100.00:  RPM Surface Max 
 RRUN.                     400:  Rig Run Number 
 RTIM.hr                  1.99:  Time Reaming 
 SAZI.deg               133.93:  Azm, Start 
 SDEP.m                4047.51:  Start Depth 
 SIDD.                      No:  Serv Intrp, DD 
 SINC.deg                40.28:  Inc, Start 
 SPPA.psig             3250.00:  SPP Avg 
 SPPN.psig             3200.00:  SPP Min 
 SPPX.psig             3300.00:  SPP Max 
 STIM.      03.31.12 02-Feb-20:  Start Time 
 SVCS.                 DD, MWD:  Services 
 SVER.                    9.20:  Sperry Version 
 TDAT.m                  47.00:  Tot Depth Attmp 
 TDDF.                      No:  Trip for DD 
 TFF .                      No:  Trip for Fail 
 TQAA.f-kp                0.00:  Torque Abs Avg 
 TQAN.f-kp                0.00:  Torque Abs Min 
 TQAX.f-kp                0.00:  Torque Abs Max 
 TRRT.°/30m               0.70:  Turn Rotating 
 MRT .                    HCIM:  Maximum Recorded Temperature 
 TTMX.degC               70.59:  Max Tool Temp 
 VS01.             90598770F11:  Virtual Str1 SN 
 VS02.             90598769F11:  Virtual Str2 SN 
 VS03.            90515978Z1W1:  Virtual Str3 SN 
 VS04.          90584144R12X14:  Virtual Str4 SN 
 WBMN.klb                 0.00:  WOB Min 
 WITN.            Peter Wilson:  Customer Rep 
 WOBA.klb                 0.00:  WOB Avg 
 WOBX.klb                 0.00:  WOB Max 
 YP  .lhf2               29.00:  Yield Point 
~Curve Information Block
#MNEM.UNIT                 API CODE     Curve Description
#---------               -----------    ---------------------------
 TIME.HHMMSS            00 000 000 000:  GT Time & Date
 GTDEPTH.m              00 000 000 000:  GT Depth
 GTPQH.psia             00 000 000 000:  GT HR Quartz Pressure
 GTTQ.degC              00 000 000 000:  GT Quartz Temperature
 GTTN.NONE              00 000 000 000:  GT Test Number
 GTET.sec               00 000 000 000:  GT Elapsed Test Time
 GTTVD.m                00 000 000 000:  GT True Vertical Depth
#Other Information
#
#WARRANTY: Halliburton will use its best efforts to furnish customers with 
#accurate information and interpretations that are part of, and incident to, the services 
#provided.  However, Halliburton cannot and does not warrant the accuracy 
#or correctness of such information and interpretations.  Under no circumstances should any 
#such information or interpretation be relied upon as the sole basis for any drilling, 
#completion, production, or financial decision or any procedure involving any risk to the 
#safety of any drilling venture, drilling rig or its crew or any other third party.  The 
#Customer has full responsibility for all drilling, completion and production operation.  
#Halliburton makes no representations or warranties, either expressed or 
#implied, including, but not limited to, the implied warranties of merchantability or fitness 
#for a particular purpose, with respect to the services rendered.  In no event will 
#Halliburton be liable for failure to obtain any particular results or for 
#any damages, including, but not limited to, indirect, special or consequential damages, 
#resulting from the use of any information or interpretation provided by Halliburton.
#
~A           TIME           GTDEPTH  GTPQH  GTTQ  GTTN   GTET   GTTVD  
# ...
   08:34:47.485.03-Feb-2020 4013.71 3132.51 64.51 11.00  90.40 3023.43
   08:34:47.685.03-Feb-2020 4013.71 3132.46 64.51 11.00  90.60 3023.43
   08:34:47.885.03-Feb-2020 4013.71 3132.46 64.51 11.00  90.80 3023.43
   08:34:48.085.03-Feb-2020 4013.71 3132.51 64.51 11.00  91.00 3023.43
   08:34:48.285.03-Feb-2020 4013.71 3132.51 64.51 11.00  91.20 3023.43
   08:34:48.485.03-Feb-2020 4013.71 3132.50 64.51 11.00  91.40 3023.43
   08:34:48.685.03-Feb-2020 4013.71 3132.54 64.51 11.00  91.60 3023.43
   08:34:48.885.03-Feb-2020 4013.71 3132.23 64.51 11.00  91.80 3023.43
   08:34:49.085.03-Feb-2020 4013.71 3132.51 64.51 11.00  92.00 3023.43
   08:34:49.285.03-Feb-2020 4013.71 3132.51 64.51 11.00  92.20 3023.43
   08:34:49.485.03-Feb-2020 4013.71 3132.47 64.51 11.00  92.40 3023.43
   08:34:49.685.03-Feb-2020 4013.71 3132.45 64.51 11.00  92.60 3023.43
   08:34:49.885.03-Feb-2020 4013.71 3132.47 64.51 11.00  92.80 3023.43
   08:34:50.085.03-Feb-2020 4013.71 3132.47 64.51 11.00  93.00 3023.43
   08:34:50.285.03-Feb-2020 4013.71 3132.47 64.51 11.00  93.20 3023.43
   08:34:50.485.03-Feb-2020 4013.71 3132.52 64.51 11.00  93.40 3023.43
   08:34:50.685.03-Feb-2020 4013.71 3132.50 64.51 11.00  93.60 3023.43
   08:34:50.885.03-Feb-2020 4013.71 3132.50 64.51 11.00  93.80 3023.43
   08:34:51.085.03-Feb-2020 4013.71 3132.51 64.51 11.00  94.00 3023.43
   08:34:51.285.03-Feb-2020 4013.71 3132.51 64.51 11.00  94.20 3023.43
   08:34:51.485.03-Feb-2020 4013.71 3132.52 64.51 11.00  94.40 3023.43
   08:34:51.685.03-Feb-2020 4013.71 3132.37 64.50 11.00  94.60 3023.43
   08:34:51.885.03-Feb-2020 4013.71 3132.55 64.50 11.00  94.80 3023.43
   08:34:52.085.03-Feb-2020 4013.71 3132.46 64.50 11.00  95.00 3023.43
   08:34:52.285.03-Feb-2020 4013.71 3132.46 64.50 11.00  95.20 3023.43
   08:34:52.485.03-Feb-2020 4013.71 3132.22 64.50 11.00  95.40 3023.43
   08:34:52.685.03-Feb-2020 4013.71 3132.57 64.50 11.00  95.60 3023.43
   08:34:52.885.03-Feb-2020 4013.71 3132.45 64.50 11.00  95.80 3023.43
   08:34:53.085.03-Feb-2020 4013.71 3132.49 64.50 11.00  96.00 3023.43
   08:34:53.285.03-Feb-2020 4013.71 3132.49 64.50 11.00  96.20 3023.43
   08:34:53.485.03-Feb-2020 4013.71 3132.36 64.50 11.00  96.40 3023.43
   08:34:53.685.03-Feb-2020 4013.71 3132.52 64.50 11.00  96.60 3023.43
   08:34:53.885.03-Feb-2020 4013.71 3132.37 64.50 11.00  96.80 3023.43
   08:34:54.085.03-Feb-2020 4013.71 3132.52 64.50 11.00  97.00 3023.43
   08:34:54.285.03-Feb-2020 4013.71 3132.52 64.50 11.00  97.20 3023.43
   08:34:54.485.03-Feb-2020 4013.71 3132.54 64.50 11.00  97.40 3023.43
   08:34:54.685.03-Feb-2020 4013.71 3132.22 64.50 11.00  97.60 3023.43
   08:34:54.885.03-Feb-2020 4013.71 3132.63 64.50 11.00  97.80 3023.43
   08:34:55.085.03-Feb-2020 4013.71 3132.36 64.50 11.00  98.00 3023.43
   08:34:55.285.03-Feb-2020 4013.71 3132.36 64.50 11.00  98.20 3023.43
   08:34:55.485.03-Feb-2020 4013.71 3132.50 64.50 11.00  98.40 3023.43
   08:34:55.685.03-Feb-2020 4013.71 3132.50 64.50 11.00  98.60 3023.43
   08:34:55.885.03-Feb-2020 4013.71 3132.51 64.50 11.00  98.80 3023.43
   08:34:56.085.03-Feb-2020 4013.71 3132.48 64.50 11.00  99.00 3023.43
   08:34:56.285.03-Feb-2020 4013.71 3132.48 64.50 11.00  99.20 3023.43
   08:34:56.485.03-Feb-2020 4013.71 3132.54 64.50 11.00  99.40 3023.43
   08:34:56.685.03-Feb-2020 4013.71 3132.54 64.50 11.00  99.60 3023.43
   08:34:56.885.03-Feb-2020 4013.71 3132.52 64.50 11.00  99.80 3023.43
   08:34:57.085.03-Feb-2020 4013.71 3132.52 64.50 11.00 100.00 3023.43
   08:34:57.285.03-Feb-2020 4013.71 3132.52 64.50 11.00 100.20 3023.43
   08:34:57.485.03-Feb-2020 4013.71 3132.51 64.50 11.00 100.40 3023.43
   08:34:57.685.03-Feb-2020 4013.71 3132.56 64.50 11.00 100.60 3023.43
   08:34:57.885.03-Feb-2020 4013.71 3132.55 64.50 11.00 100.80 3023.43
   08:34:58.085.03-Feb-2020 4013.71 3132.38 64.50 11.00 101.00 3023.43
   08:34:58.285.03-Feb-2020 4013.71 3132.38 64.50 11.00 101.20 3023.43
   08:34:58.485.03-Feb-2020 4013.71 3132.54 64.50 11.00 101.40 3023.43
   08:34:58.685.03-Feb-2020 4013.71 3132.49 64.50 11.00 101.60 3023.43
   08:34:58.885.03-Feb-2020 4013.71 3132.50 64.50 11.00 101.80 3023.43
   08:34:59.085.03-Feb-2020 4013.71 3132.51 64.50 11.00 102.00 3023.43
   08:34:59.285.03-Feb-2020 4013.71 3132.51 64.50 11.00 102.20 3023.43
   08:34:59.485.03-Feb-2020 4013.71 3132.53 64.50 11.00 102.40 3023.43
   08:34:59.685.03-Feb-2020 4013.71 3132.56 64.50 11.00 102.60 3023.43
   08:34:59.885.03-Feb-2020 4013.71 3132.55 64.50 11.00 102.80 3023.43
   08:35:00.085.03-Feb-2020 4013.71 3132.54 64.50 11.00 103.00 3023.43
   08:35:00.285.03-Feb-2020 4013.71 3132.54 64.50 11.00 103.20 3023.43
   08:35:00.485.03-Feb-2020 4013.71 3132.30 64.50 11.00 103.40 3023.43
   08:35:00.685.03-Feb-2020 4013.71 3132.67 64.50 11.00 103.60 3023.43
   08:35:00.885.03-Feb-2020 4013.71 3132.44 64.50 11.00 103.80 3023.43
   08:35:01.085.03-Feb-2020 4013.71 3132.59 64.50 11.00 104.00 3023.43
   08:35:01.285.03-Feb-2020 4013.71 3132.59 64.50 11.00 104.20 3023.43
   08:35:01.486.03-Feb-2020 4013.71 3132.54 64.50 11.00 104.40 3023.43
   08:35:01.686.03-Feb-2020 4013.71 3132.39 64.50 11.00 104.60 3023.43
   08:35:01.886.03-Feb-2020 4013.71 3132.49 64.50 11.00 104.80 3023.43
   08:35:02.086.03-Feb-2020 4013.71 3132.55 64.50 11.00 105.00 3023.43
   08:35:02.286.03-Feb-2020 4013.71 3132.55 64.50 11.00 105.20 3023.43
   08:35:02.486.03-Feb-2020 4013.71 3132.52 64.50 11.00 105.40 3023.43
   08:35:02.686.03-Feb-2020 4013.71 3132.28 64.50 11.00 105.60 3023.43
   08:35:02.886.03-Feb-2020 4013.71 3132.67 64.50 11.00 105.80 3023.43
   08:35:03.086.03-Feb-2020 4013.71 3132.42 64.50 11.00 106.00 3023.43
   08:35:03.286.03-Feb-2020 4013.71 3132.42 64.50 11.00 106.20 3023.43
   08:35:03.486.03-Feb-2020 4013.71 3132.53 64.50 11.00 106.40 3023.43
   08:35:03.686.03-Feb-2020 4013.71 3132.57 64.50 11.00 106.60 3023.43
   08:35:03.886.03-Feb-2020 4013.71 3132.29 64.50 11.00 106.80 3023.43
   08:35:04.086.03-Feb-2020 4013.71 3132.59 64.50 11.00 107.00 3023.43
   08:35:04.286.03-Feb-2020 4013.71 3132.59 64.50 11.00 107.20 3023.43
   08:35:04.486.03-Feb-2020 4013.71 3132.56 64.50 11.00 107.40 3023.43
   08:35:04.686.03-Feb-2020 4013.71 3132.54 64.50 11.00 107.60 3023.43
   08:35:04.886.03-Feb-2020 4013.71 3132.52 64.50 11.00 107.80 3023.43
   08:35:05.086.03-Feb-2020 4013.71 3132.55 64.50 11.00 108.00 3023.43
   08:35:05.286.03-Feb-2020 4013.71 3132.55 64.50 11.00 108.20 3023.43
   08:35:05.486.03-Feb-2020 4013.71 3132.51 64.50 11.00 108.40 3023.43
   08:35:05.686.03-Feb-2020 4013.71 3132.58 64.50 11.00 108.60 3023.43
   08:35:05.886.03-Feb-2020 4013.71 3132.56 64.50 11.00 108.80 3023.43
   08:35:06.086.03-Feb-2020 4013.71 3132.56 64.50 11.00 109.00 3023.43
   08:35:06.286.03-Feb-2020 4013.71 3132.56 64.50 11.00 109.20 3023.43
   08:35:06.486.03-Feb-2020 4013.71 3132.55 64.49 11.00 109.40 3023.43
   08:35:06.686.03-Feb-2020 4013.71 3132.58 64.49 11.00 109.60 3023.43
   08:35:06.886.03-Feb-2020 4013.71 3132.61 64.49 11.00 109.80 3023.43
   08:35:07.086.03-Feb-2020 4013.71 3132.44 64.49 11.00 110.00 3023.43
   08:35:07.286.03-Feb-2020 4013.71 3132.44 64.49 11.00 110.20 3023.43
   08:35:07.486.03-Feb-2020 4013.71 3132.43 64.49 11.00 110.40 3023.43
   08:35:07.686.03-Feb-2020 4013.71 3132.59 64.49 11.00 110.60 3023.43
   08:35:07.886.03-Feb-2020 4013.71 3132.53 64.49 11.00 110.80 3023.43
   08:35:08.086.03-Feb-2020 4013.71 3132.55 64.49 11.00 111.00 3023.43
   08:35:08.286.03-Feb-2020 4013.71 3132.55 64.49 11.00 111.20 3023.43
   08:35:08.486.03-Feb-2020 4013.71 3132.57 64.49 11.00 111.40 3023.43
   08:35:08.686.03-Feb-2020 4013.71 3132.58 64.49 11.00 111.60 3023.43
   08:35:08.886.03-Feb-2020 4013.71 3132.58 64.49 11.00 111.80 3023.43
   08:35:09.086.03-Feb-2020 4013.71 3132.58 64.49 11.00 112.00 3023.43
   08:35:09.286.03-Feb-2020 4013.71 3132.58 64.49 11.00 112.20 3023.43
   08:35:09.486.03-Feb-2020 4013.71 3132.60 64.49 11.00 112.40 3023.43
   08:35:09.686.03-Feb-2020 4013.71 3132.36 64.49 11.00 112.60 3023.43
   08:35:09.886.03-Feb-2020 4013.71 3132.62 64.49 11.00 112.80 3023.43
