~Version Information
 VERS.                  2.0:   CWLS log ASCII Standard -VERSION 2.0
 WRAP.                   NO:   One line per depth step
~Well Information Block
#MNEM.UNIT     VALUE/NAME     DESCRIPTION
#---------     -----------    ---------------------------
 STRT.S             03:46:27 03-Feb-20: START TIME 03:46:27 03-Feb-20
 STOP.S             03:54:17 03-Feb-20: STOP TIME  03:54:17 03-Feb-20
 STEP.S                   0.00: STEP TIME
 NULL.                 -999.25: NULL VALUE
 DFWT.                        :  DIST FWL TEXT
 DFST.                        :  DIST FSL TEXT
 DMF .             Drill Floor:  DRILL MEAS FROM
 STIM.      09.30.00 26-Dec-19:  START TIME
 DATE.      08.00.00 20-Jan-20:  END TIME
 SPUD.               23-Nov-19:  SPUD DATE
 NREF.                    Grid:  NORTH REFERENCE
 HPTY.       Minimum Curvature:  HOLE POS TYPE
 DMOD.             Drill Model:  DRILL MOD DESC
 SVYD.                  Survey:  SURVEY DESC
 ILTD.               Lithology:  INTERP LTH DESC
 FTOP.          Formation Tops:  FORM TOPS DESC
 SON .        AZ-XX-0906192647:  JOB NUMBER
 WTYP.                Deviated:  WELL TYPE
 COMP.     BP Exploration (Caspian Sea) Ltd:  COMPANY
 BASE.              Azerbaijan:  LOGGING EQUIPMENT BASE LOCATION
 REGN.                 Eurasia:  REGION
 FLD .                     ACG:  FIELD NAME
 SRVC.              KCA Deutag:  CONTRACTOR
 MWDS.                    Baku:  MWD SHOP
 WELL.     A10 (Slot 20) - SCP:  WELL NAME
 JOBN.        AZ-XX-0906192647:  JOB TICKET NUMB
 RIG .                 Chirag1:  RIG NAME
 DCON.     Halliburton Sperry Drilling:  DIRECTNL CONTR
 UNIT.                     N/A:  LOGGING EQUIPMENT ID
 PDAT.          Mean Sea Level:  PERMANENT DATUM
 MDS .        Operator Entered:  MAG DATA SOURCE
 CTRY.              Azerbaijan:  COUNTRY NAME
 UWI .            /AZE00000090:  UNIQUE WELL IDENTIFIER
 API .            /AZE00000090:  API NUMBER
 CNTY.                        :  COUNTY
 PROV.                        :  PROVINCE
 STAT.                        :  STATE
 LOC .                        :  LOCATION
 LMF .             Drill Floor:  LOG MEASURED FROM
 TVDS.m                  36.60:  TVDSS CORRECTN
 LATI.deg                40.08:  LATITUDE
 LONG.deg                51.24:  LONGITUDE
 WHNS.m                  -7.94:  WELL HEAD N/S
 WHEW.m                   1.56:  WELL HEAD E/W
 UTMX.m              520429.26:  UTM X
 UTMY.m             4438973.87:  UTM Y
 DFWL.m                   0.00:  DISTANCE FWL
 DFSL.m                   0.00:  DISTANCE FSL
 SDEP.m                1455.00:  START DEPTH
 TDD .m                4047.51:  TOTAL DEPTH (DRILLER)
 VSDR.deg               112.75:  VERT SEC DIRECT
 GVFD.g                   1.00:  GRAVITY FIELD
 MFLD.nT              50261.00:  MAGNETIC FIELD
 MDIP.deg                59.52:  MAGNETIC DIP
 MDEC.deg                 6.42:  MAGNETIC DECL
 GRDC.deg                 0.17:  GRID CORRECTION
 AZTC.deg                 6.25:  AZM TOTAL CORR
 EPD .m                   0.00:  ELEVATION
 EGL .m                   0.00:  GROUND ELEVATION
 WDMS.m                 121.00:  WD ELEV
 APD .m                  36.60:  DEPTH ABOVE PD
 AGAP.m                  36.60:  AIR GAP
 VSEW.m                   1.56:  VERT SEC E/W
 VSNS.m                  -7.94:  VERT SEC N/S
 DEP .m                1140.01:  DEPTH
 EKB .m                  36.60:  KB ELEVATION
 EDF .m                  36.60:  DF ELEVATION
 VSC .                       0:  VS TO CLOSURE
 MAGU.                 1849206:  MAGUTM CHECKSUM
~Parameter Information Block
#MNEM.UNIT       Value        Description
#---------     -----------    ---------------------------
 AV  .mps                 1.70:  Ann Velocity 
 AVMX.mps                 2.30:  Max Ann Veloc 
 AZIF.deg               137.03:  Azm, Final 
 BHAT.                   Other:  BHA Type 
 BROT.°/30m               0.80:  Build Rotating 
 BS  .in                  8.00:  Bit Size 
 BTPL.psig              161.00:  Bit Press Loss 
 CABU.                      No:  Customer Abuse 
 COMM.                     d£g:  Run Comments 1 
 TCS .hr                  9.59:  Time Ciculation Ended 
 CV  .mps                 3.76:  Crit Velocity 
 CVMX.mps                 4.26:  Max Crit Veloc 
 DD1 .         Intigam Rahimov:  Direct Drillr 1 
 DD2 .          Rashad Gojayev:  Direct Drillr 2 
 DDSV.                   Other:  DD Service 
 DEFF.%                 100.00:  % Det Eff 
 DLRX.°/30m               1.44:  Dogleg Rot Max 
 DLSO.°/30m               0.00:  Dogleg Oriented 
 DLSX.°/30m               0.00:  Dogleg Str Max 
 DRET.      03.31.12 02-Feb-20:  Drill End Time 
 DRST.      03.31.12 02-Feb-20:  Drill Start Tim 
 DTIM.hr                  1.99:  Time Drilling 
 EDEP.m                4047.51:  End Depth 
 ENG1.           Eldar Hajiyev:  Engineer 1 
 ENG2.          Rasim Hashimov:  Engineer 2 
 ENG3.          Rustam Safarov:  Engineer 3 
 ETIM.      03.31.12 02-Feb-20:  End Time 
 FLOI.gpm               300.00:  Flow In 
 FLON.gpm               250.00:  Flow In Min 
 FLOS.cptm                0.00:  Fluid Loss 
 FLOX.gpm               330.00:  Flow In Max 
 HFLO.                      No:  High Flow 
 HPRE.                      No:  High Pressure 
 HTEM.                      No:  High Temp 
 HYDO.m                   2.50:  Hydro Offset 
 IFIN.deg                39.54:  Inc, Final 
 IMAX.deg                41.14:  Inc Max 
 IMIN.deg                39.81:  Inc Min 
 IMND.m                4005.21:  Inc Min Depth 
 IMXD.m                3948.42:  Inc Max Depth 
 JARR.                      No:  Jarring 
 LETM.      03.31.12 02-Feb-20:  Log End Time 
 LOST.hr                     0:  Lost Rig Time 
 LSTM.      03.31.12 02-Feb-20:  Log Start Time 
 MDCL.ppm             35000.00:  Mud Chlorides 
 MDES.     Inversion Oil/Synthetic:  Mud Desc 
 DFD .sg                  1.32:  Mud Density 
 MDMN.sg                  1.32:  Dens Mud Min 
 MDMX.sg                  1.32:  Dens Mud Max 
 MOIL.                      59:  Run Mud Oil % 
 MOWR.                   71:29:  Run Mud OWR 
 MSND.                       0:  Run Mud Sand % 
 MSOL.                      17:  Run Mud Solids% 
 DFV .spqt               86.00:  Mud Viscosity 
 MWOD.in                  4.75:  MWD Tool OD 
 MWSI.                      No:  Serv Intrp, MWD 
 OTIM.hr                 46.72:  Time Operating 
 PCON.           Look Like New:  Pad Condition 
 PMAX.psia             3300.00:  Press Op, Max 
 PV  .cP                 30.00:  Mud PV 
 RUN .                     400:  Run Number 
 ROPA.m/hr               35.00:  ROP Avg 
 ROPN.m/hr               25.00:  ROP Min 
 ROPX.m/hr               40.00:  ROP Max 
 RPMA.rpm                80.00:  RPM Surface Avg 
 RPMN.rpm                60.00:  RPM Surface Min 
 RPMX.rpm               100.00:  RPM Surface Max 
 RRUN.                     400:  Rig Run Number 
 RTIM.hr                  1.99:  Time Reaming 
 SAZI.deg               133.93:  Azm, Start 
 SDEP.m                4047.51:  Start Depth 
 SIDD.                      No:  Serv Intrp, DD 
 SINC.deg                40.28:  Inc, Start 
 SPPA.psig             3250.00:  SPP Avg 
 SPPN.psig             3200.00:  SPP Min 
 SPPX.psig             3300.00:  SPP Max 
 STIM.      03.31.12 02-Feb-20:  Start Time 
 SVCS.                 DD, MWD:  Services 
 SVER.                    9.20:  Sperry Version 
 TDAT.m                  47.00:  Tot Depth Attmp 
 TDDF.                      No:  Trip for DD 
 TFF .                      No:  Trip for Fail 
 TQAA.f-kp                0.00:  Torque Abs Avg 
 TQAN.f-kp                0.00:  Torque Abs Min 
 TQAX.f-kp                0.00:  Torque Abs Max 
 TRRT.°/30m               0.70:  Turn Rotating 
 MRT .                    HCIM:  Maximum Recorded Temperature 
 TTMX.degC               70.59:  Max Tool Temp 
 VS01.             90598770F11:  Virtual Str1 SN 
 VS02.             90598769F11:  Virtual Str2 SN 
 VS03.            90515978Z1W1:  Virtual Str3 SN 
 VS04.          90584144R12X14:  Virtual Str4 SN 
 WBMN.klb                 0.00:  WOB Min 
 WITN.            Peter Wilson:  Customer Rep 
 WOBA.klb                 0.00:  WOB Avg 
 WOBX.klb                 0.00:  WOB Max 
 YP  .lhf2               29.00:  Yield Point 
~Curve Information Block
#MNEM.UNIT                 API CODE     Curve Description
#---------               -----------    ---------------------------
 TIME.HHMMSS            00 000 000 000:  GT Time & Date
 GTDEPTH.m              00 000 000 000:  GT Depth
 GTPQH.psia             00 000 000 000:  GT HR Quartz Pressure
 GTTQ.degC              00 000 000 000:  GT Quartz Temperature
 GTTN.NONE              00 000 000 000:  GT Test Number
 GTET.sec               00 000 000 000:  GT Elapsed Test Time
 GTTVD.m                00 000 000 000:  GT True Vertical Depth
#Other Information
#
#WARRANTY: Halliburton will use its best efforts to furnish customers with 
#accurate information and interpretations that are part of, and incident to, the services 
#provided.  However, Halliburton cannot and does not warrant the accuracy 
#or correctness of such information and interpretations.  Under no circumstances should any 
#such information or interpretation be relied upon as the sole basis for any drilling, 
#completion, production, or financial decision or any procedure involving any risk to the 
#safety of any drilling venture, drilling rig or its crew or any other third party.  The 
#Customer has full responsibility for all drilling, completion and production operation.  
#Halliburton makes no representations or warranties, either expressed or 
#implied, including, but not limited to, the implied warranties of merchantability or fitness 
#for a particular purpose, with respect to the services rendered.  In no event will 
#Halliburton be liable for failure to obtain any particular results or for 
#any damages, including, but not limited to, indirect, special or consequential damages, 
#resulting from the use of any information or interpretation provided by Halliburton.
#
~A           TIME           GTDEPTH  GTPQH  GTTQ  GTTN  GTET   GTTVD  
# ...
   03:52:35.557.03-Feb-2020 4013.21 3136.45 64.18 3.00 368.08 3023.05
   03:52:35.757.03-Feb-2020 4013.21 3136.45 64.18 3.00 368.28 3023.05
   03:52:35.957.03-Feb-2020 4013.21 3136.51 64.18 3.00 368.48 3023.05
   03:52:36.157.03-Feb-2020 4013.21 3136.47 64.18 3.00 368.68 3023.05
   03:52:36.357.03-Feb-2020 4013.21 3136.42 64.18 3.00 368.88 3023.05
   03:52:36.557.03-Feb-2020 4013.21 3136.41 64.18 3.00 369.08 3023.05
   03:52:36.757.03-Feb-2020 4013.21 3136.41 64.18 3.00 369.28 3023.05
   03:52:36.957.03-Feb-2020 4013.21 3136.41 64.18 3.00 369.48 3023.05
   03:52:37.157.03-Feb-2020 4013.21 3136.45 64.18 3.00 369.68 3023.05
   03:52:37.357.03-Feb-2020 4013.21 3136.42 64.18 3.00 369.88 3023.05
   03:52:37.557.03-Feb-2020 4013.21 3136.41 64.18 3.00 370.08 3023.05
   03:52:37.757.03-Feb-2020 4013.21 3136.41 64.18 3.00 370.28 3023.05
   03:52:37.957.03-Feb-2020 4013.21 3136.47 64.18 3.00 370.48 3023.05
   03:52:38.157.03-Feb-2020 4013.21 3136.49 64.18 3.00 370.68 3023.05
   03:52:38.357.03-Feb-2020 4013.21 3136.09 64.18 3.00 370.88 3023.05
   03:52:38.557.03-Feb-2020 4013.21 3136.51 64.18 3.00 371.08 3023.05
   03:52:38.757.03-Feb-2020 4013.21 3136.51 64.18 3.00 371.28 3023.05
   03:52:38.957.03-Feb-2020 4013.21 3136.46 64.18 3.00 371.48 3023.05
   03:52:39.157.03-Feb-2020 4013.21 3136.46 64.18 3.00 371.68 3023.05
   03:52:39.357.03-Feb-2020 4013.21 3136.44 64.18 3.00 371.88 3023.05
   03:52:39.557.03-Feb-2020 4013.21 3136.43 64.18 3.00 372.08 3023.05
   03:52:39.758.03-Feb-2020 4013.21 3136.43 64.18 3.00 372.28 3023.05
   03:52:39.958.03-Feb-2020 4013.21 3136.42 64.18 3.00 372.48 3023.05
   03:52:40.158.03-Feb-2020 4013.21 3136.45 64.17 3.00 372.68 3023.05
   03:52:40.358.03-Feb-2020 4013.21 3136.45 64.18 3.00 372.88 3023.05
   03:52:40.558.03-Feb-2020 4013.21 3136.44 64.17 3.00 373.08 3023.05
   03:52:40.758.03-Feb-2020 4013.21 3136.44 64.17 3.00 373.28 3023.05
   03:52:40.958.03-Feb-2020 4013.21 3136.32 64.17 3.00 373.48 3023.05
   03:52:41.158.03-Feb-2020 4013.21 3136.35 64.17 3.00 373.68 3023.05
   03:52:41.358.03-Feb-2020 4013.21 3136.59 64.17 3.00 373.88 3023.05
   03:52:41.558.03-Feb-2020 4013.21 3136.40 64.17 3.00 374.08 3023.05
   03:52:41.758.03-Feb-2020 4013.21 3136.40 64.17 3.00 374.28 3023.05
   03:52:41.958.03-Feb-2020 4013.21 3136.37 64.17 3.00 374.48 3023.05
   03:52:42.158.03-Feb-2020 4013.21 3136.56 64.17 3.00 374.68 3023.05
   03:52:42.358.03-Feb-2020 4013.21 3136.51 64.17 3.00 374.88 3023.05
   03:52:42.558.03-Feb-2020 4013.21 3136.55 64.17 3.00 375.08 3023.05
   03:52:42.758.03-Feb-2020 4013.21 3136.55 64.17 3.00 375.28 3023.05
   03:52:42.958.03-Feb-2020 4013.21 3136.36 64.17 3.00 375.48 3023.05
   03:52:43.158.03-Feb-2020 4013.21 3136.40 64.17 3.00 375.68 3023.05
   03:52:43.358.03-Feb-2020 4013.21 3136.54 64.17 3.00 375.88 3023.05
   03:52:43.558.03-Feb-2020 4013.21 3136.47 64.17 3.00 376.08 3023.05
   03:52:43.758.03-Feb-2020 4013.21 3136.47 64.17 3.00 376.28 3023.05
   03:52:43.958.03-Feb-2020 4013.21 3136.62 64.17 3.00 376.48 3023.05
   03:52:44.158.03-Feb-2020 4013.21 3136.38 64.17 3.00 376.68 3023.05
   03:52:44.358.03-Feb-2020 4013.21 3136.52 64.17 3.00 376.88 3023.05
   03:52:44.559.03-Feb-2020 4013.21 3136.49 64.17 3.00 377.08 3023.05
   03:52:44.759.03-Feb-2020 4013.21 3136.49 64.17 3.00 377.28 3023.05
   03:52:44.959.03-Feb-2020 4013.21 3136.53 64.17 3.00 377.48 3023.05
   03:52:45.159.03-Feb-2020 4013.21 3136.47 64.17 3.00 377.68 3023.05
   03:52:45.359.03-Feb-2020 4013.21 3136.48 64.17 3.00 377.88 3023.05
   03:52:45.559.03-Feb-2020 4013.21 3136.44 64.17 3.00 378.08 3023.05
   03:52:45.759.03-Feb-2020 4013.21 3136.44 64.17 3.00 378.28 3023.05
   03:52:45.959.03-Feb-2020 4013.21 3136.51 64.17 3.00 378.48 3023.05
   03:52:46.159.03-Feb-2020 4013.21 3136.47 64.17 3.00 378.68 3023.05
   03:52:46.359.03-Feb-2020 4013.21 3136.45 64.17 3.00 378.88 3023.05
   03:52:46.559.03-Feb-2020 4013.21 3136.43 64.17 3.00 379.08 3023.05
   03:52:46.759.03-Feb-2020 4013.21 3136.43 64.17 3.00 379.28 3023.05
   03:52:46.959.03-Feb-2020 4013.21 3136.51 64.17 3.00 379.48 3023.05
   03:52:47.159.03-Feb-2020 4013.21 3136.20 64.17 3.00 379.68 3023.05
   03:52:47.359.03-Feb-2020 4013.21 3136.46 64.17 3.00 379.88 3023.05
   03:52:47.559.03-Feb-2020 4013.21 3136.44 64.17 3.00 380.08 3023.05
   03:52:47.759.03-Feb-2020 4013.21 3136.44 64.17 3.00 380.28 3023.05
   03:52:47.959.03-Feb-2020 4013.21 3136.51 64.17 3.00 380.48 3023.05
   03:52:48.159.03-Feb-2020 4013.21 3136.48 64.17 3.00 380.68 3023.05
   03:52:48.359.03-Feb-2020 4013.21 3136.50 64.17 3.00 380.88 3023.05
   03:52:48.559.03-Feb-2020 4013.21 3136.46 64.17 3.00 381.08 3023.05
   03:52:48.759.03-Feb-2020 4013.21 3136.46 64.17 3.00 381.28 3023.05
   03:52:48.959.03-Feb-2020 4013.21 3136.50 64.17 3.00 381.48 3023.05
   03:52:49.160.03-Feb-2020 4013.21 3136.49 64.17 3.00 381.68 3023.05
   03:52:49.360.03-Feb-2020 4013.21 3136.48 64.17 3.00 381.88 3023.05
   03:52:49.560.03-Feb-2020 4013.21 3136.23 64.17 3.00 382.08 3023.05
   03:52:49.760.03-Feb-2020 4013.21 3136.23 64.17 3.00 382.28 3023.05
   03:52:49.960.03-Feb-2020 4013.21 3136.41 64.17 3.00 382.48 3023.05
   03:52:50.160.03-Feb-2020 4013.21 3136.64 64.17 3.00 382.68 3023.05
   03:52:50.360.03-Feb-2020 4013.21 3136.24 64.17 3.00 382.88 3023.05
   03:52:50.560.03-Feb-2020 4013.21 3136.59 64.17 3.00 383.08 3023.05
   03:52:50.760.03-Feb-2020 4013.21 3136.59 64.17 3.00 383.28 3023.05
   03:52:50.960.03-Feb-2020 4013.21 3136.62 64.17 3.00 383.48 3023.05
   03:52:51.160.03-Feb-2020 4013.21 3136.55 64.17 3.00 383.68 3023.05
   03:52:51.360.03-Feb-2020 4013.21 3136.58 64.17 3.00 383.88 3023.05
   03:52:51.560.03-Feb-2020 4013.21 3136.25 64.17 3.00 384.08 3023.05
   03:52:51.760.03-Feb-2020 4013.21 3136.25 64.17 3.00 384.28 3023.05
   03:52:51.960.03-Feb-2020 4013.21 3136.41 64.17 3.00 384.48 3023.05
   03:52:52.160.03-Feb-2020 4013.21 3136.60 64.17 3.00 384.68 3023.05
   03:52:52.360.03-Feb-2020 4013.21 3136.52 64.17 3.00 384.88 3023.05
   03:52:52.560.03-Feb-2020 4013.21 3136.28 64.17 3.00 385.08 3023.05
   03:52:52.760.03-Feb-2020 4013.21 3136.28 64.17 3.00 385.28 3023.05
   03:52:52.960.03-Feb-2020 4013.21 3136.47 64.17 3.00 385.48 3023.05
   03:52:53.160.03-Feb-2020 4013.21 3136.54 64.17 3.00 385.68 3023.05
   03:52:53.360.03-Feb-2020 4013.21 3136.57 64.17 3.00 385.88 3023.05
   03:52:53.560.03-Feb-2020 4013.21 3136.59 64.17 3.00 386.08 3023.05
   03:52:53.760.03-Feb-2020 4013.21 3136.59 64.17 3.00 386.28 3023.05
   03:52:53.961.03-Feb-2020 4013.21 3136.50 64.17 3.00 386.48 3023.05
   03:52:54.161.03-Feb-2020 4013.21 3136.53 64.17 3.00 386.68 3023.05
   03:52:54.361.03-Feb-2020 4013.21 3136.47 64.17 3.00 386.88 3023.05
   03:52:54.561.03-Feb-2020 4013.21 3136.55 64.17 3.00 387.08 3023.05
   03:52:54.761.03-Feb-2020 4013.21 3136.55 64.17 3.00 387.28 3023.05
   03:52:54.961.03-Feb-2020 4013.21 3136.50 64.17 3.00 387.48 3023.05
   03:52:55.161.03-Feb-2020 4013.21 3136.49 64.17 3.00 387.68 3023.05
   03:52:55.361.03-Feb-2020 4013.21 3136.50 64.17 3.00 387.88 3023.05
   03:52:55.561.03-Feb-2020 4013.21 3136.57 64.17 3.00 388.08 3023.05
   03:52:55.761.03-Feb-2020 4013.21 3136.57 64.17 3.00 388.28 3023.05
   03:52:55.961.03-Feb-2020 4013.21 3136.42 64.17 3.00 388.48 3023.05
   03:52:56.161.03-Feb-2020 4013.21 3136.41 64.16 3.00 388.68 3023.05
   03:52:56.361.03-Feb-2020 4013.21 3136.55 64.17 3.00 388.88 3023.05
   03:52:56.561.03-Feb-2020 4013.21 3136.53 64.16 3.00 389.08 3023.05
   03:52:56.761.03-Feb-2020 4013.21 3136.53 64.16 3.00 389.28 3023.05
   03:52:56.961.03-Feb-2020 4013.21 3136.53 64.16 3.00 389.48 3023.05
   03:52:57.161.03-Feb-2020 4013.21 3136.50 64.16 3.00 389.68 3023.05
   03:52:57.361.03-Feb-2020 4013.21 3136.52 64.16 3.00 389.88 3023.05
   03:52:57.561.03-Feb-2020 4013.21 3136.53 64.16 3.00 390.08 3023.05
   03:52:57.761.03-Feb-2020 4013.21 3136.53 64.16 3.00 390.28 3023.05
   03:52:57.961.03-Feb-2020 4013.21 3136.52 64.16 3.00 390.48 3023.05
   03:52:58.161.03-Feb-2020 4013.21 3136.54 64.16 3.00 390.68 3023.05
   03:52:58.361.03-Feb-2020 4013.21 3136.20 64.16 3.00 390.88 3023.05
