~Version Information
 VERS.                  2.0:   CWLS log ASCII Standard -VERSION 2.0
 WRAP.                   NO:   One line per depth step
~Well Information Block
#MNEM.UNIT     VALUE/NAME     DESCRIPTION
#---------     -----------    ---------------------------
 STRT.S             06:42:18 03-Feb-20: START TIME 06:42:18 03-Feb-20
 STOP.S             06:50:14 03-Feb-20: STOP TIME  06:50:14 03-Feb-20
 STEP.S                   0.00: STEP TIME
 NULL.                 -999.25: NULL VALUE
 DFWT.                        :  DIST FWL TEXT
 DFST.                        :  DIST FSL TEXT
 DMF .             Drill Floor:  DRILL MEAS FROM
 STIM.      09.30.00 26-Dec-19:  START TIME
 DATE.      08.00.00 20-Jan-20:  END TIME
 SPUD.               23-Nov-19:  SPUD DATE
 NREF.                    Grid:  NORTH REFERENCE
 HPTY.       Minimum Curvature:  HOLE POS TYPE
 DMOD.             Drill Model:  DRILL MOD DESC
 SVYD.                  Survey:  SURVEY DESC
 ILTD.               Lithology:  INTERP LTH DESC
 FTOP.          Formation Tops:  FORM TOPS DESC
 SON .        AZ-XX-0906192647:  JOB NUMBER
 WTYP.                Deviated:  WELL TYPE
 COMP.     BP Exploration (Caspian Sea) Ltd:  COMPANY
 BASE.              Azerbaijan:  LOGGING EQUIPMENT BASE LOCATION
 REGN.                 Eurasia:  REGION
 FLD .                     ACG:  FIELD NAME
 SRVC.              KCA Deutag:  CONTRACTOR
 MWDS.                    Baku:  MWD SHOP
 WELL.     A10 (Slot 20) - SCP:  WELL NAME
 JOBN.        AZ-XX-0906192647:  JOB TICKET NUMB
 RIG .                 Chirag1:  RIG NAME
 DCON.     Halliburton Sperry Drilling:  DIRECTNL CONTR
 UNIT.                     N/A:  LOGGING EQUIPMENT ID
 PDAT.          Mean Sea Level:  PERMANENT DATUM
 MDS .        Operator Entered:  MAG DATA SOURCE
 CTRY.              Azerbaijan:  COUNTRY NAME
 UWI .            /AZE00000090:  UNIQUE WELL IDENTIFIER
 API .            /AZE00000090:  API NUMBER
 CNTY.                        :  COUNTY
 PROV.                        :  PROVINCE
 STAT.                        :  STATE
 LOC .                        :  LOCATION
 LMF .             Drill Floor:  LOG MEASURED FROM
 TVDS.m                  36.60:  TVDSS CORRECTN
 LATI.deg                40.08:  LATITUDE
 LONG.deg                51.24:  LONGITUDE
 WHNS.m                  -7.94:  WELL HEAD N/S
 WHEW.m                   1.56:  WELL HEAD E/W
 UTMX.m              520429.26:  UTM X
 UTMY.m             4438973.87:  UTM Y
 DFWL.m                   0.00:  DISTANCE FWL
 DFSL.m                   0.00:  DISTANCE FSL
 SDEP.m                1455.00:  START DEPTH
 TDD .m                4047.51:  TOTAL DEPTH (DRILLER)
 VSDR.deg               112.75:  VERT SEC DIRECT
 GVFD.g                   1.00:  GRAVITY FIELD
 MFLD.nT              50261.00:  MAGNETIC FIELD
 MDIP.deg                59.52:  MAGNETIC DIP
 MDEC.deg                 6.42:  MAGNETIC DECL
 GRDC.deg                 0.17:  GRID CORRECTION
 AZTC.deg                 6.25:  AZM TOTAL CORR
 EPD .m                   0.00:  ELEVATION
 EGL .m                   0.00:  GROUND ELEVATION
 WDMS.m                 121.00:  WD ELEV
 APD .m                  36.60:  DEPTH ABOVE PD
 AGAP.m                  36.60:  AIR GAP
 VSEW.m                   1.56:  VERT SEC E/W
 VSNS.m                  -7.94:  VERT SEC N/S
 DEP .m                1140.01:  DEPTH
 EKB .m                  36.60:  KB ELEVATION
 EDF .m                  36.60:  DF ELEVATION
 VSC .                       0:  VS TO CLOSURE
 MAGU.                 1849206:  MAGUTM CHECKSUM
~Parameter Information Block
#MNEM.UNIT       Value        Description
#---------     -----------    ---------------------------
 AV  .mps                 1.70:  Ann Velocity 
 AVMX.mps                 2.30:  Max Ann Veloc 
 AZIF.deg               137.03:  Azm, Final 
 BHAT.                   Other:  BHA Type 
 BROT.°/30m               0.80:  Build Rotating 
 BS  .in                  8.00:  Bit Size 
 BTPL.psig              161.00:  Bit Press Loss 
 CABU.                      No:  Customer Abuse 
 TCS .hr                  9.59:  Time Ciculation Ended 
 CV  .mps                 3.76:  Crit Velocity 
 CVMX.mps                 4.26:  Max Crit Veloc 
 DD1 .         Intigam Rahimov:  Direct Drillr 1 
 DD2 .          Rashad Gojayev:  Direct Drillr 2 
 DDSV.                   Other:  DD Service 
 DEFF.%                 100.00:  % Det Eff 
 DLRX.°/30m               1.44:  Dogleg Rot Max 
 DLSO.°/30m               0.00:  Dogleg Oriented 
 DLSX.°/30m               0.00:  Dogleg Str Max 
 DRET.      03.31.12 02-Feb-20:  Drill End Time 
 DRST.      03.31.12 02-Feb-20:  Drill Start Tim 
 DTIM.hr                  1.99:  Time Drilling 
 EDEP.m                4047.51:  End Depth 
 ENG1.           Eldar Hajiyev:  Engineer 1 
 ENG2.          Rasim Hashimov:  Engineer 2 
 ENG3.          Rustam Safarov:  Engineer 3 
 ETIM.      03.31.12 02-Feb-20:  End Time 
 FLOI.gpm               300.00:  Flow In 
 FLON.gpm               250.00:  Flow In Min 
 FLOS.cptm                0.00:  Fluid Loss 
 FLOX.gpm               330.00:  Flow In Max 
 HFLO.                      No:  High Flow 
 HPRE.                      No:  High Pressure 
 HTEM.                      No:  High Temp 
 HYDO.m                   2.50:  Hydro Offset 
 IFIN.deg                39.54:  Inc, Final 
 IMAX.deg                41.14:  Inc Max 
 IMIN.deg                39.81:  Inc Min 
 IMND.m                4005.21:  Inc Min Depth 
 IMXD.m                3948.42:  Inc Max Depth 
 JARR.                      No:  Jarring 
 LETM.      03.31.12 02-Feb-20:  Log End Time 
 LOST.hr                     0:  Lost Rig Time 
 LSTM.      03.31.12 02-Feb-20:  Log Start Time 
 MDCL.ppm             35000.00:  Mud Chlorides 
 MDES.     Inversion Oil/Synthetic:  Mud Desc 
 DFD .sg                  1.32:  Mud Density 
 MDMN.sg                  1.32:  Dens Mud Min 
 MDMX.sg                  1.32:  Dens Mud Max 
 MOIL.                      59:  Run Mud Oil % 
 MOWR.                   71:29:  Run Mud OWR 
 MSND.                       0:  Run Mud Sand % 
 MSOL.                      17:  Run Mud Solids% 
 DFV .spqt               86.00:  Mud Viscosity 
 MWOD.in                  4.75:  MWD Tool OD 
 MWSI.                      No:  Serv Intrp, MWD 
 OTIM.hr                 46.72:  Time Operating 
 PCON.           Look Like New:  Pad Condition 
 PMAX.psia             3300.00:  Press Op, Max 
 PV  .cP                 30.00:  Mud PV 
 RUN .                     400:  Run Number 
 ROPA.m/hr               35.00:  ROP Avg 
 ROPN.m/hr               25.00:  ROP Min 
 ROPX.m/hr               40.00:  ROP Max 
 RPMA.rpm                80.00:  RPM Surface Avg 
 RPMN.rpm                60.00:  RPM Surface Min 
 RPMX.rpm               100.00:  RPM Surface Max 
 RRUN.                     400:  Rig Run Number 
 RTIM.hr                  1.99:  Time Reaming 
 SAZI.deg               133.93:  Azm, Start 
 SDEP.m                4047.51:  Start Depth 
 SIDD.                      No:  Serv Intrp, DD 
 SINC.deg                40.28:  Inc, Start 
 SPPA.psig             3250.00:  SPP Avg 
 SPPN.psig             3200.00:  SPP Min 
 SPPX.psig             3300.00:  SPP Max 
 STIM.      03.31.12 02-Feb-20:  Start Time 
 SVCS.                 DD, MWD:  Services 
 SVER.                    9.20:  Sperry Version 
 TDAT.m                  47.00:  Tot Depth Attmp 
 TDDF.                      No:  Trip for DD 
 TFF .                      No:  Trip for Fail 
 TQAA.f-kp                0.00:  Torque Abs Avg 
 TQAN.f-kp                0.00:  Torque Abs Min 
 TQAX.f-kp                0.00:  Torque Abs Max 
 TRRT.°/30m               0.70:  Turn Rotating 
 MRT .                    HCIM:  Maximum Recorded Temperature 
 TTMX.degC               70.59:  Max Tool Temp 
 VS01.             90598770F11:  Virtual Str1 SN 
 VS02.             90598769F11:  Virtual Str2 SN 
 VS03.            90515978Z1W1:  Virtual Str3 SN 
 VS04.          90584144R12X14:  Virtual Str4 SN 
 WBMN.klb                 0.00:  WOB Min 
 WITN.            Peter Wilson:  Customer Rep 
 WOBA.klb                 0.00:  WOB Avg 
 WOBX.klb                 0.00:  WOB Max 
 YP  .lhf2               29.00:  Yield Point 
~Curve Information Block
#MNEM.UNIT                 API CODE     Curve Description
#---------               -----------    ---------------------------
 TIME.HHMMSS            00 000 000 000:  GT Time & Date
 GTDEPTH.m              00 000 000 000:  GT Depth
 GTPQH.psia             00 000 000 000:  GT HR Quartz Pressure
 GTTQ.degC              00 000 000 000:  GT Quartz Temperature
 GTTN.NONE              00 000 000 000:  GT Test Number
 GTET.sec               00 000 000 000:  GT Elapsed Test Time
 GTTVD.m                00 000 000 000:  GT True Vertical Depth
#Other Information
#
#WARRANTY: Halliburton will use its best efforts to furnish customers with 
#accurate information and interpretations that are part of, and incident to, the services 
#provided.  However, Halliburton cannot and does not warrant the accuracy 
#or correctness of such information and interpretations.  Under no circumstances should any 
#such information or interpretation be relied upon as the sole basis for any drilling, 
#completion, production, or financial decision or any procedure involving any risk to the 
#safety of any drilling venture, drilling rig or its crew or any other third party.  The 
#Customer has full responsibility for all drilling, completion and production operation.  
#Halliburton makes no representations or warranties, either expressed or 
#implied, including, but not limited to, the implied warranties of merchantability or fitness 
#for a particular purpose, with respect to the services rendered.  In no event will 
#Halliburton be liable for failure to obtain any particular results or for 
#any damages, including, but not limited to, indirect, special or consequential damages, 
#resulting from the use of any information or interpretation provided by Halliburton.
#
~A           TIME           GTDEPTH  GTPQH  GTTQ  GTTN  GTET   GTTVD  
# ...
   06:44:59.000.03-Feb-2020 4003.01 6051.55 64.36 8.00 161.00 3015.22
   06:44:59.200.03-Feb-2020 4003.01 6051.55 64.36 8.00 161.20 3015.22
   06:44:59.400.03-Feb-2020 4003.01 6041.44 64.36 8.00 161.40 3015.22
   06:44:59.600.03-Feb-2020 4003.01 6048.39 64.36 8.00 161.60 3015.22
   06:44:59.800.03-Feb-2020 4003.01 6046.67 64.36 8.00 161.80 3015.22
   06:45:00.000.03-Feb-2020 4003.01 6048.50 64.36 8.00 162.00 3015.22
   06:45:00.200.03-Feb-2020 4003.01 6048.50 64.36 8.00 162.20 3015.22
   06:45:00.400.03-Feb-2020 4003.01 6048.27 64.36 8.00 162.40 3015.22
   06:45:00.600.03-Feb-2020 4003.01 6045.70 64.36 8.00 162.60 3015.22
   06:45:00.800.03-Feb-2020 4003.01 6049.98 64.36 8.00 162.80 3015.22
   06:45:01.000.03-Feb-2020 4003.01 6051.14 64.36 8.00 163.00 3015.22
   06:45:01.200.03-Feb-2020 4003.01 6051.14 64.36 8.00 163.20 3015.22
   06:45:01.400.03-Feb-2020 4003.01 6050.03 64.36 8.00 163.40 3015.22
   06:45:01.600.03-Feb-2020 4003.01 6040.64 64.36 8.00 163.60 3015.22
   06:45:01.800.03-Feb-2020 4003.01 6047.58 64.36 8.00 163.80 3015.22
   06:45:02.000.03-Feb-2020 4003.01 6044.98 64.36 8.00 164.00 3015.22
   06:45:02.200.03-Feb-2020 4003.01 6044.98 64.36 8.00 164.20 3015.22
   06:45:02.400.03-Feb-2020 4003.01 6049.74 64.36 8.00 164.40 3015.22
   06:45:02.600.03-Feb-2020 4003.01 6049.89 64.36 8.00 164.60 3015.22
   06:45:02.800.03-Feb-2020 4003.01 6048.44 64.36 8.00 164.80 3015.22
   06:45:03.000.03-Feb-2020 4003.01 6048.30 64.36 8.00 165.00 3015.22
   06:45:03.200.03-Feb-2020 4003.01 6048.30 64.36 8.00 165.20 3015.22
   06:45:03.400.03-Feb-2020 4003.01 6050.71 64.36 8.00 165.40 3015.22
   06:45:03.600.03-Feb-2020 4003.01 6050.69 64.36 8.00 165.60 3015.22
   06:45:03.800.03-Feb-2020 4003.01 6050.73 64.36 8.00 165.80 3015.22
   06:45:04.000.03-Feb-2020 4003.01 6049.96 64.36 8.00 166.00 3015.22
   06:45:04.200.03-Feb-2020 4003.01 6049.96 64.36 8.00 166.20 3015.22
   06:45:04.400.03-Feb-2020 4003.01 6048.63 64.36 8.00 166.40 3015.22
   06:45:04.600.03-Feb-2020 4003.01 6050.26 64.36 8.00 166.60 3015.22
   06:45:04.800.03-Feb-2020 4003.01 6040.46 64.36 8.00 166.80 3015.22
   06:45:05.000.03-Feb-2020 4003.01 6041.91 64.36 8.00 167.00 3015.22
   06:45:05.200.03-Feb-2020 4003.01 6041.91 64.36 8.00 167.20 3015.22
   06:45:05.400.03-Feb-2020 4003.01 6023.55 64.36 8.00 167.40 3015.22
   06:45:05.600.03-Feb-2020 4003.01 6014.01 64.36 8.00 167.60 3015.22
   06:45:05.800.03-Feb-2020 4003.01 6004.36 64.36 8.00 167.80 3015.22
   06:45:06.000.03-Feb-2020 4003.01 6015.25 64.36 8.00 168.00 3015.22
   06:45:06.200.03-Feb-2020 4003.01 6015.25 64.36 8.00 168.20 3015.22
   06:45:06.400.03-Feb-2020 4003.01 5991.57 64.36 8.00 168.40 3015.22
   06:45:06.600.03-Feb-2020 4003.01 5995.98 64.36 8.00 168.60 3015.22
   06:45:06.800.03-Feb-2020 4003.01 5994.14 64.36 8.00 168.80 3015.22
   06:45:07.000.03-Feb-2020 4003.01 5981.35 64.36 8.00 169.00 3015.22
   06:45:07.200.03-Feb-2020 4003.01 5981.35 64.36 8.00 169.20 3015.22
   06:45:07.400.03-Feb-2020 4003.01 5988.06 64.36 8.00 169.40 3015.22
   06:45:07.600.03-Feb-2020 4003.01 5975.18 64.36 8.00 169.60 3015.22
   06:45:07.800.03-Feb-2020 4003.01 5961.78 64.36 8.00 169.80 3015.22
   06:45:08.000.03-Feb-2020 4003.01 5922.22 64.36 8.00 170.00 3015.22
   06:45:08.200.03-Feb-2020 4003.01 5922.22 64.36 8.00 170.20 3015.22
   06:45:08.400.03-Feb-2020 4003.01 5971.94 64.36 8.00 170.40 3015.22
   06:45:08.600.03-Feb-2020 4003.01 5980.20 64.36 8.00 170.60 3015.22
   06:45:08.800.03-Feb-2020 4003.01 6013.71 64.36 8.00 170.80 3015.22
   06:45:09.000.03-Feb-2020 4003.01 6020.56 64.36 8.00 171.00 3015.22
   06:45:09.200.03-Feb-2020 4003.01 6020.56 64.36 8.00 171.20 3015.22
   06:45:09.400.03-Feb-2020 4003.01 6006.57 64.36 8.00 171.40 3015.22
   06:45:09.600.03-Feb-2020 4003.01 6011.49 64.36 8.00 171.60 3015.22
   06:45:09.800.03-Feb-2020 4003.01 5999.22 64.36 8.00 171.80 3015.22
   06:45:10.000.03-Feb-2020 4003.01 6020.39 64.36 8.00 172.00 3015.22
   06:45:10.200.03-Feb-2020 4003.01 6020.39 64.36 8.00 172.20 3015.22
   06:45:10.400.03-Feb-2020 4003.01 6005.56 64.36 8.00 172.40 3015.22
   06:45:10.600.03-Feb-2020 4003.01 6017.13 64.36 8.00 172.60 3015.22
   06:45:10.800.03-Feb-2020 4003.01 6024.01 64.35 8.00 172.80 3015.22
   06:45:11.000.03-Feb-2020 4003.01 6008.37 64.36 8.00 173.00 3015.22
   06:45:11.200.03-Feb-2020 4003.01 6008.37 64.36 8.00 173.20 3015.22
   06:45:11.400.03-Feb-2020 4003.01 6022.57 64.35 8.00 173.40 3015.22
   06:45:11.600.03-Feb-2020 4003.01 6003.82 64.35 8.00 173.60 3015.22
   06:45:11.800.03-Feb-2020 4003.01 6006.19 64.35 8.00 173.80 3015.22
   06:45:12.000.03-Feb-2020 4003.01 6005.65 64.35 8.00 174.00 3015.22
   06:45:12.200.03-Feb-2020 4003.01 6005.65 64.35 8.00 174.20 3015.22
   06:45:12.400.03-Feb-2020 4003.01 6007.75 64.35 8.00 174.40 3015.22
   06:45:12.600.03-Feb-2020 4003.01 6010.24 64.35 8.00 174.60 3015.22
   06:45:12.800.03-Feb-2020 4003.01 6005.73 64.35 8.00 174.80 3015.22
   06:45:13.000.03-Feb-2020 4003.01 6005.92 64.35 8.00 175.00 3015.22
   06:45:13.200.03-Feb-2020 4003.01 6005.92 64.35 8.00 175.20 3015.22
   06:45:13.400.03-Feb-2020 4003.01 6006.59 64.35 8.00 175.40 3015.22
   06:45:13.600.03-Feb-2020 4003.01 5998.05 64.35 8.00 175.60 3015.22
   06:45:13.800.03-Feb-2020 4003.01 6002.98 64.35 8.00 175.80 3015.22
   06:45:14.000.03-Feb-2020 4003.01 5989.46 64.35 8.00 176.00 3015.22
   06:45:14.200.03-Feb-2020 4003.01 5989.46 64.35 8.00 176.20 3015.22
   06:45:14.400.03-Feb-2020 4003.01 5942.21 64.35 8.00 176.40 3015.22
   06:45:14.600.03-Feb-2020 4003.01 5971.57 64.35 8.00 176.60 3015.22
   06:45:14.800.03-Feb-2020 4003.01 5948.49 64.35 8.00 176.80 3015.22
   06:45:15.000.03-Feb-2020 4003.01 6004.95 64.35 8.00 177.00 3015.22
   06:45:15.200.03-Feb-2020 4003.01 6004.95 64.35 8.00 177.20 3015.22
   06:45:15.400.03-Feb-2020 4003.01 6045.14 64.35 8.00 177.40 3015.22
   06:45:15.600.03-Feb-2020 4003.01 6046.25 64.35 8.00 177.60 3015.22
   06:45:15.800.03-Feb-2020 4003.01 6047.03 64.35 8.00 177.80 3015.22
   06:45:16.000.03-Feb-2020 4003.01 6048.06 64.35 8.00 178.00 3015.22
   06:45:16.200.03-Feb-2020 4003.01 6048.06 64.35 8.00 178.20 3015.22
   06:45:16.400.03-Feb-2020 4003.01 6048.43 64.35 8.00 178.40 3015.22
   06:45:16.600.03-Feb-2020 4003.01 6047.84 64.35 8.00 178.60 3015.22
   06:45:16.800.03-Feb-2020 4003.01 6048.00 64.35 8.00 178.80 3015.22
   06:45:17.000.03-Feb-2020 4003.01 6045.68 64.35 8.00 179.00 3015.22
   06:45:17.200.03-Feb-2020 4003.01 6045.68 64.35 8.00 179.20 3015.22
   06:45:17.400.03-Feb-2020 4003.01 6046.90 64.35 8.00 179.40 3015.22
   06:45:17.600.03-Feb-2020 4003.01 6048.14 64.35 8.00 179.60 3015.22
   06:45:17.800.03-Feb-2020 4003.01 6048.56 64.35 8.00 179.80 3015.22
   06:45:18.000.03-Feb-2020 4003.01 6046.52 64.35 8.00 180.00 3015.22
   06:45:18.200.03-Feb-2020 4003.01 6046.52 64.35 8.00 180.20 3015.22
   06:45:18.400.03-Feb-2020 4003.01 6046.76 64.35 8.00 180.40 3015.22
   06:45:18.600.03-Feb-2020 4003.01 6047.91 64.35 8.00 180.60 3015.22
   06:45:18.800.03-Feb-2020 4003.01 6048.71 64.35 8.00 180.80 3015.22
   06:45:19.000.03-Feb-2020 4003.01 6048.59 64.35 8.00 181.00 3015.22
   06:45:19.200.03-Feb-2020 4003.01 6048.59 64.35 8.00 181.20 3015.22
   06:45:19.400.03-Feb-2020 4003.01 6049.41 64.35 8.00 181.40 3015.22
   06:45:19.600.03-Feb-2020 4003.01 6040.88 64.35 8.00 181.60 3015.22
   06:45:19.800.03-Feb-2020 4003.01 6047.17 64.35 8.00 181.80 3015.22
   06:45:20.000.03-Feb-2020 4003.01 6045.25 64.35 8.00 182.00 3015.22
   06:45:20.200.03-Feb-2020 4003.01 6045.25 64.35 8.00 182.20 3015.22
   06:45:20.400.03-Feb-2020 4003.01 6049.03 64.35 8.00 182.40 3015.22
   06:45:20.600.03-Feb-2020 4003.01 6049.08 64.35 8.00 182.60 3015.22
   06:45:20.800.03-Feb-2020 4003.01 6038.26 64.35 8.00 182.80 3015.22
   06:45:21.000.03-Feb-2020 4003.01 6047.55 64.35 8.00 183.00 3015.22
   06:45:21.200.03-Feb-2020 4003.01 6047.55 64.35 8.00 183.20 3015.22
   06:45:21.400.03-Feb-2020 4003.01 6048.95 64.35 8.00 183.40 3015.22
   06:45:21.600.03-Feb-2020 4003.01 6048.58 64.35 8.00 183.60 3015.22
   06:45:21.800.03-Feb-2020 4003.01 6048.36 64.35 8.00 183.80 3015.22
