~Version Information
 VERS.                  2.0:   CWLS log ASCII Standard -VERSION 2.0
 WRAP.                   NO:   One line per depth step
~Well Information Block
#MNEM.UNIT     VALUE/NAME     DESCRIPTION
#---------     -----------    ---------------------------
 STRT.S             07:08:20 03-Feb-20: START TIME 07:08:20 03-Feb-20
 STOP.S             07:16:05 03-Feb-20: STOP TIME  07:16:05 03-Feb-20
 STEP.S                   0.00: STEP TIME
 NULL.                 -999.25: NULL VALUE
 DFWT.                        :  DIST FWL TEXT
 DFST.                        :  DIST FSL TEXT
 DMF .             Drill Floor:  DRILL MEAS FROM
 STIM.      09.30.00 26-Dec-19:  START TIME
 DATE.      08.00.00 20-Jan-20:  END TIME
 SPUD.               23-Nov-19:  SPUD DATE
 NREF.                    Grid:  NORTH REFERENCE
 HPTY.       Minimum Curvature:  HOLE POS TYPE
 DMOD.             Drill Model:  DRILL MOD DESC
 SVYD.                  Survey:  SURVEY DESC
 ILTD.               Lithology:  INTERP LTH DESC
 FTOP.          Formation Tops:  FORM TOPS DESC
 SON .        AZ-XX-0906192647:  JOB NUMBER
 WTYP.                Deviated:  WELL TYPE
 COMP.     BP Exploration (Caspian Sea) Ltd:  COMPANY
 BASE.              Azerbaijan:  LOGGING EQUIPMENT BASE LOCATION
 REGN.                 Eurasia:  REGION
 FLD .                     ACG:  FIELD NAME
 SRVC.              KCA Deutag:  CONTRACTOR
 MWDS.                    Baku:  MWD SHOP
 WELL.     A10 (Slot 20) - SCP:  WELL NAME
 JOBN.        AZ-XX-0906192647:  JOB TICKET NUMB
 RIG .                 Chirag1:  RIG NAME
 DCON.     Halliburton Sperry Drilling:  DIRECTNL CONTR
 UNIT.                     N/A:  LOGGING EQUIPMENT ID
 PDAT.          Mean Sea Level:  PERMANENT DATUM
 MDS .        Operator Entered:  MAG DATA SOURCE
 CTRY.              Azerbaijan:  COUNTRY NAME
 UWI .            /AZE00000090:  UNIQUE WELL IDENTIFIER
 API .            /AZE00000090:  API NUMBER
 CNTY.                        :  COUNTY
 PROV.                        :  PROVINCE
 STAT.                        :  STATE
 LOC .                        :  LOCATION
 LMF .             Drill Floor:  LOG MEASURED FROM
 TVDS.m                  36.60:  TVDSS CORRECTN
 LATI.deg                40.08:  LATITUDE
 LONG.deg                51.24:  LONGITUDE
 WHNS.m                  -7.94:  WELL HEAD N/S
 WHEW.m                   1.56:  WELL HEAD E/W
 UTMX.m              520429.26:  UTM X
 UTMY.m             4438973.87:  UTM Y
 DFWL.m                   0.00:  DISTANCE FWL
 DFSL.m                   0.00:  DISTANCE FSL
 SDEP.m                1455.00:  START DEPTH
 TDD .m                4047.51:  TOTAL DEPTH (DRILLER)
 VSDR.deg               112.75:  VERT SEC DIRECT
 GVFD.g                   1.00:  GRAVITY FIELD
 MFLD.nT              50261.00:  MAGNETIC FIELD
 MDIP.deg                59.52:  MAGNETIC DIP
 MDEC.deg                 6.42:  MAGNETIC DECL
 GRDC.deg                 0.17:  GRID CORRECTION
 AZTC.deg                 6.25:  AZM TOTAL CORR
 EPD .m                   0.00:  ELEVATION
 EGL .m                   0.00:  GROUND ELEVATION
 WDMS.m                 121.00:  WD ELEV
 APD .m                  36.60:  DEPTH ABOVE PD
 AGAP.m                  36.60:  AIR GAP
 VSEW.m                   1.56:  VERT SEC E/W
 VSNS.m                  -7.94:  VERT SEC N/S
 DEP .m                1140.01:  DEPTH
 EKB .m                  36.60:  KB ELEVATION
 EDF .m                  36.60:  DF ELEVATION
 VSC .                       0:  VS TO CLOSURE
 MAGU.                 1849206:  MAGUTM CHECKSUM
~Parameter Information Block
#MNEM.UNIT       Value        Description
#---------     -----------    ---------------------------
 AV  .mps                 1.70:  Ann Velocity 
 AVMX.mps                 2.30:  Max Ann Veloc 
 AZIF.deg               137.03:  Azm, Final 
 BHAT.                   Other:  BHA Type 
 BROT.°/30m               0.80:  Build Rotating 
 BS  .in                  8.00:  Bit Size 
 BTPL.psig              161.00:  Bit Press Loss 
 CABU.                      No:  Customer Abuse 
 COMM.                     ?\:  Run Comments 1 
 TCS .hr                  9.59:  Time Ciculation Ended 
 CV  .mps                 3.76:  Crit Velocity 
 CVMX.mps                 4.26:  Max Crit Veloc 
 DD1 .         Intigam Rahimov:  Direct Drillr 1 
 DD2 .          Rashad Gojayev:  Direct Drillr 2 
 DDSV.                   Other:  DD Service 
 DEFF.%                 100.00:  % Det Eff 
 DLRX.°/30m               1.44:  Dogleg Rot Max 
 DLSO.°/30m               0.00:  Dogleg Oriented 
 DLSX.°/30m               0.00:  Dogleg Str Max 
 DRET.      03.31.12 02-Feb-20:  Drill End Time 
 DRST.      03.31.12 02-Feb-20:  Drill Start Tim 
 DTIM.hr                  1.99:  Time Drilling 
 EDEP.m                4047.51:  End Depth 
 ENG1.           Eldar Hajiyev:  Engineer 1 
 ENG2.          Rasim Hashimov:  Engineer 2 
 ENG3.          Rustam Safarov:  Engineer 3 
 ETIM.      03.31.12 02-Feb-20:  End Time 
 FLOI.gpm               300.00:  Flow In 
 FLON.gpm               250.00:  Flow In Min 
 FLOS.cptm                0.00:  Fluid Loss 
 FLOX.gpm               330.00:  Flow In Max 
 HFLO.                      No:  High Flow 
 HPRE.                      No:  High Pressure 
 HTEM.                      No:  High Temp 
 HYDO.m                   2.50:  Hydro Offset 
 IFIN.deg                39.54:  Inc, Final 
 IMAX.deg                41.14:  Inc Max 
 IMIN.deg                39.81:  Inc Min 
 IMND.m                4005.21:  Inc Min Depth 
 IMXD.m                3948.42:  Inc Max Depth 
 JARR.                      No:  Jarring 
 LETM.      03.31.12 02-Feb-20:  Log End Time 
 LOST.hr                     0:  Lost Rig Time 
 LSTM.      03.31.12 02-Feb-20:  Log Start Time 
 MDCL.ppm             35000.00:  Mud Chlorides 
 MDES.     Inversion Oil/Synthetic:  Mud Desc 
 DFD .sg                  1.32:  Mud Density 
 MDMN.sg                  1.32:  Dens Mud Min 
 MDMX.sg                  1.32:  Dens Mud Max 
 MOIL.                      59:  Run Mud Oil % 
 MOWR.                   71:29:  Run Mud OWR 
 MSND.                       0:  Run Mud Sand % 
 MSOL.                      17:  Run Mud Solids% 
 DFV .spqt               86.00:  Mud Viscosity 
 MWOD.in                  4.75:  MWD Tool OD 
 MWSI.                      No:  Serv Intrp, MWD 
 OTIM.hr                 46.72:  Time Operating 
 PCON.           Look Like New:  Pad Condition 
 PMAX.psia             3300.00:  Press Op, Max 
 PV  .cP                 30.00:  Mud PV 
 RUN .                     400:  Run Number 
 ROPA.m/hr               35.00:  ROP Avg 
 ROPN.m/hr               25.00:  ROP Min 
 ROPX.m/hr               40.00:  ROP Max 
 RPMA.rpm                80.00:  RPM Surface Avg 
 RPMN.rpm                60.00:  RPM Surface Min 
 RPMX.rpm               100.00:  RPM Surface Max 
 RRUN.                     400:  Rig Run Number 
 RTIM.hr                  1.99:  Time Reaming 
 SAZI.deg               133.93:  Azm, Start 
 SDEP.m                4047.51:  Start Depth 
 SIDD.                      No:  Serv Intrp, DD 
 SINC.deg                40.28:  Inc, Start 
 SPPA.psig             3250.00:  SPP Avg 
 SPPN.psig             3200.00:  SPP Min 
 SPPX.psig             3300.00:  SPP Max 
 STIM.      03.31.12 02-Feb-20:  Start Time 
 SVCS.                 DD, MWD:  Services 
 SVER.                    9.20:  Sperry Version 
 TDAT.m                  47.00:  Tot Depth Attmp 
 TDDF.                      No:  Trip for DD 
 TFF .                      No:  Trip for Fail 
 TQAA.f-kp                0.00:  Torque Abs Avg 
 TQAN.f-kp                0.00:  Torque Abs Min 
 TQAX.f-kp                0.00:  Torque Abs Max 
 TRRT.°/30m               0.70:  Turn Rotating 
 MRT .                    HCIM:  Maximum Recorded Temperature 
 TTMX.degC               70.59:  Max Tool Temp 
 VS01.             90598770F11:  Virtual Str1 SN 
 VS02.             90598769F11:  Virtual Str2 SN 
 VS03.            90515978Z1W1:  Virtual Str3 SN 
 VS04.          90584144R12X14:  Virtual Str4 SN 
 WBMN.klb                 0.00:  WOB Min 
 WITN.            Peter Wilson:  Customer Rep 
 WOBA.klb                 0.00:  WOB Avg 
 WOBX.klb                 0.00:  WOB Max 
 YP  .lhf2               29.00:  Yield Point 
~Curve Information Block
#MNEM.UNIT                 API CODE     Curve Description
#---------               -----------    ---------------------------
 TIME.HHMMSS            00 000 000 000:  GT Time & Date
 GTDEPTH.m              00 000 000 000:  GT Depth
 GTPQH.psia             00 000 000 000:  GT HR Quartz Pressure
 GTTQ.degC              00 000 000 000:  GT Quartz Temperature
 GTTN.NONE              00 000 000 000:  GT Test Number
 GTET.sec               00 000 000 000:  GT Elapsed Test Time
 GTTVD.m                00 000 000 000:  GT True Vertical Depth
#Other Information
#
#WARRANTY: Halliburton will use its best efforts to furnish customers with 
#accurate information and interpretations that are part of, and incident to, the services 
#provided.  However, Halliburton cannot and does not warrant the accuracy 
#or correctness of such information and interpretations.  Under no circumstances should any 
#such information or interpretation be relied upon as the sole basis for any drilling, 
#completion, production, or financial decision or any procedure involving any risk to the 
#safety of any drilling venture, drilling rig or its crew or any other third party.  The 
#Customer has full responsibility for all drilling, completion and production operation.  
#Halliburton makes no representations or warranties, either expressed or 
#implied, including, but not limited to, the implied warranties of merchantability or fitness 
#for a particular purpose, with respect to the services rendered.  In no event will 
#Halliburton be liable for failure to obtain any particular results or for 
#any damages, including, but not limited to, indirect, special or consequential damages, 
#resulting from the use of any information or interpretation provided by Halliburton.
#
~A           TIME           GTDEPTH  GTPQH  GTTQ  GTTN  GTET   GTTVD  
# ...
   07:08:43.000.03-Feb-2020 4002.71 7030.77 64.35 9.00  23.00 3014.99
   07:08:43.200.03-Feb-2020 4002.71 7030.77 64.35 9.00  23.20 3014.99
   07:08:43.400.03-Feb-2020 4002.71 7029.46 64.35 9.00  23.40 3014.99
   07:08:43.600.03-Feb-2020 4002.71 7030.94 64.35 9.00  23.60 3014.99
   07:08:43.800.03-Feb-2020 4002.71 7031.78 64.35 9.00  23.80 3014.99
   07:08:44.000.03-Feb-2020 4002.71 7033.38 64.35 9.00  24.00 3014.99
   07:08:44.200.03-Feb-2020 4002.71 7033.38 64.35 9.00  24.20 3014.99
   07:08:44.400.03-Feb-2020 4002.71 7033.65 64.35 9.00  24.40 3014.99
   07:08:44.600.03-Feb-2020 4002.71 7035.61 64.35 9.00  24.60 3014.99
   07:08:44.800.03-Feb-2020 4002.71 7037.87 64.35 9.00  24.80 3014.99
   07:08:45.000.03-Feb-2020 4002.71 7039.93 64.35 9.00  25.00 3014.99
   07:08:45.200.03-Feb-2020 4002.71 7039.93 64.35 9.00  25.20 3014.99
   07:08:45.400.03-Feb-2020 4002.71 7042.32 64.35 9.00  25.40 3014.99
   07:08:45.600.03-Feb-2020 4002.71 7044.15 64.35 9.00  25.60 3014.99
   07:08:45.800.03-Feb-2020 4002.71 7043.04 64.35 9.00  25.80 3014.99
   07:08:46.000.03-Feb-2020 4002.71 6846.02 64.35 9.00  26.00 3014.99
   07:08:46.200.03-Feb-2020 4002.71 6846.02 64.35 9.00  26.20 3014.99
   07:08:46.400.03-Feb-2020 4002.71 5881.81 64.35 9.00  26.40 3014.99
   07:08:46.600.03-Feb-2020 4002.71 5552.35 64.35 9.00  26.60 3014.99
   07:08:46.800.03-Feb-2020 4002.71 5091.92 64.35 9.00  26.80 3014.99
   07:08:47.000.03-Feb-2020 4002.71 4664.14 64.35 9.00  27.00 3014.99
   07:08:47.200.03-Feb-2020 4002.71 4664.14 64.35 9.00  27.20 3014.99
   07:08:47.400.03-Feb-2020 4002.71 3784.36 64.35 9.00  27.40 3014.99
   07:08:47.600.03-Feb-2020 4002.71 3332.85 64.35 9.00  27.60 3014.99
   07:08:47.800.03-Feb-2020 4002.71 2897.75 64.35 9.00  27.80 3014.99
   07:08:48.000.03-Feb-2020 4002.71 2471.27 64.35 9.00  28.00 3014.99
   07:08:48.200.03-Feb-2020 4002.71 2471.27 64.35 9.00  28.20 3014.99
   07:08:48.400.03-Feb-2020 4002.71 1653.01 64.35 9.00  28.40 3014.99
   07:08:48.600.03-Feb-2020 4002.71 1264.06 64.35 9.00  28.60 3014.99
   07:08:48.800.03-Feb-2020 4002.71  892.38 64.35 9.00  28.80 3014.99
   07:08:49.000.03-Feb-2020 4002.71  573.47 64.35 9.00  29.00 3014.99
   07:08:49.200.03-Feb-2020 4002.71  573.47 64.35 9.00  29.20 3014.99
   07:08:49.400.03-Feb-2020 4002.71  229.09 64.35 9.00  29.40 3014.99
   07:08:49.600.03-Feb-2020 4002.71  183.78 64.34 9.00  29.60 3014.99
   07:08:49.800.03-Feb-2020 4002.71  163.99 64.34 9.00  29.80 3014.99
   07:08:50.000.03-Feb-2020 4002.71  153.02 64.34 9.00  30.00 3014.99
   07:08:50.200.03-Feb-2020 4002.71  145.33 64.34 9.00  30.20 3014.99
   07:08:50.400.03-Feb-2020 4002.71  137.87 64.34 9.00  30.40 3014.99
   07:08:50.600.03-Feb-2020 4002.71  132.78 64.34 9.00  30.60 3014.99
   07:08:50.800.03-Feb-2020 4002.71  128.77 64.34 9.00  30.80 3014.99
   07:08:51.000.03-Feb-2020 4002.71  125.91 64.33 9.00  31.00 3014.99
   07:08:51.200.03-Feb-2020 4002.71  125.91 64.33 9.00  31.20 3014.99
   07:08:51.400.03-Feb-2020 4002.71  121.11 64.33 9.00  31.40 3014.99
   07:08:51.600.03-Feb-2020 4002.71  119.80 64.33 9.00  31.60 3014.99
   07:08:51.800.03-Feb-2020 4002.71  118.27 64.33 9.00  31.80 3014.99
   07:08:52.000.03-Feb-2020 4002.71  117.44 64.32 9.00  32.00 3014.99
   07:08:52.200.03-Feb-2020 4002.71  117.44 64.32 9.00  32.20 3014.99
   07:08:52.400.03-Feb-2020 4002.71  115.14 64.32 9.00  32.40 3014.99
   07:08:52.600.03-Feb-2020 4002.71  114.54 64.32 9.00  32.60 3014.99
   07:08:52.800.03-Feb-2020 4002.71  114.36 64.31 9.00  32.80 3014.99
   07:08:53.000.03-Feb-2020 4002.71  114.62 64.31 9.00  33.00 3014.99
   07:08:53.200.03-Feb-2020 4002.71  114.62 64.31 9.00  33.20 3014.99
   07:08:53.400.03-Feb-2020 4002.71  114.51 64.31 9.00  33.40 3014.99
   07:08:53.600.03-Feb-2020 4002.71  114.30 64.31 9.00  33.60 3014.99
   07:08:53.800.03-Feb-2020 4002.71  114.23 64.30 9.00  33.80 3014.99
   07:08:54.000.03-Feb-2020 4002.71  114.48 64.30 9.00  34.00 3014.99
   07:08:54.200.03-Feb-2020 4002.71  114.48 64.30 9.00  34.20 3014.99
   07:08:54.400.03-Feb-2020 4002.71  114.96 64.30 9.00  34.40 3014.99
   07:08:54.600.03-Feb-2020 4002.71  115.14 64.30 9.00  34.60 3014.99
   07:08:54.800.03-Feb-2020 4002.71  115.34 64.29 9.00  34.80 3014.99
   07:08:55.000.03-Feb-2020 4002.71  115.73 64.29 9.00  35.00 3014.99
   07:08:55.200.03-Feb-2020 4002.71  115.73 64.29 9.00  35.20 3014.99
   07:08:55.400.03-Feb-2020 4002.71  116.75 64.29 9.00  35.40 3014.99
   07:08:55.600.03-Feb-2020 4002.71  116.86 64.29 9.00  35.60 3014.99
   07:08:55.800.03-Feb-2020 4002.71  117.71 64.28 9.00  35.80 3014.99
   07:08:56.000.03-Feb-2020 4002.71  121.06 64.28 9.00  36.00 3014.99
   07:08:56.200.03-Feb-2020 4002.71  121.06 64.28 9.00  36.20 3014.99
   07:08:56.400.03-Feb-2020 4002.71  127.71 64.28 9.00  36.40 3014.99
   07:08:56.600.03-Feb-2020 4002.71  130.67 64.28 9.00  36.60 3014.99
   07:08:56.800.03-Feb-2020 4002.71  133.51 64.28 9.00  36.80 3014.99
   07:08:57.000.03-Feb-2020 4002.71  136.38 64.27 9.00  37.00 3014.99
   07:08:57.200.03-Feb-2020 4002.71  136.38 64.27 9.00  37.20 3014.99
   07:08:57.400.03-Feb-2020 4002.71  142.01 64.27 9.00  37.40 3014.99
   07:08:57.600.03-Feb-2020 4002.71  144.73 64.27 9.00  37.60 3014.99
   07:08:57.800.03-Feb-2020 4002.71  147.40 64.27 9.00  37.80 3014.99
   07:08:58.000.03-Feb-2020 4002.71  150.02 64.27 9.00  38.00 3014.99
   07:08:58.200.03-Feb-2020 4002.71  150.02 64.27 9.00  38.20 3014.99
   07:08:58.400.03-Feb-2020 4002.71  155.15 64.27 9.00  38.40 3014.99
   07:08:58.600.03-Feb-2020 4002.71  157.67 64.26 9.00  38.60 3014.99
   07:08:58.800.03-Feb-2020 4002.71  160.16 64.26 9.00  38.80 3014.99
   07:08:59.000.03-Feb-2020 4002.71  162.62 64.26 9.00  39.00 3014.99
   07:08:59.200.03-Feb-2020 4002.71  162.62 64.26 9.00  39.20 3014.99
   07:08:59.400.03-Feb-2020 4002.71  167.55 64.26 9.00  39.40 3014.99
   07:08:59.600.03-Feb-2020 4002.71  169.98 64.26 9.00  39.60 3014.99
   07:08:59.800.03-Feb-2020 4002.71  172.37 64.26 9.00  39.80 3014.99
   07:09:00.000.03-Feb-2020 4002.71  174.74 64.26 9.00  40.00 3014.99
   07:09:00.200.03-Feb-2020 4002.71  174.74 64.26 9.00  40.20 3014.99
   07:09:00.400.03-Feb-2020 4002.71  179.48 64.25 9.00  40.40 3014.99
   07:09:00.600.03-Feb-2020 4002.71  181.86 64.25 9.00  40.60 3014.99
   07:09:00.800.03-Feb-2020 4002.71  184.19 64.25 9.00  40.80 3014.99
   07:09:01.000.03-Feb-2020 4002.71  186.52 64.25 9.00  41.00 3014.99
   07:09:01.200.03-Feb-2020 4002.71  186.52 64.25 9.00  41.20 3014.99
   07:09:01.400.03-Feb-2020 4002.71  191.11 64.25 9.00  41.40 3014.99
   07:09:01.600.03-Feb-2020 4002.71  193.38 64.25 9.00  41.60 3014.99
   07:09:01.800.03-Feb-2020 4002.71  195.63 64.25 9.00  41.80 3014.99
   07:09:02.000.03-Feb-2020 4002.71  197.88 64.25 9.00  42.00 3014.99
   07:09:02.200.03-Feb-2020 4002.71  197.88 64.25 9.00  42.20 3014.99
   07:09:02.400.03-Feb-2020 4002.71  202.31 64.25 9.00  42.40 3014.99
   07:09:02.600.03-Feb-2020 4002.71  204.52 64.25 9.00  42.60 3014.99
   07:09:02.800.03-Feb-2020 4002.71  206.68 64.25 9.00  42.80 3014.99
   07:09:03.000.03-Feb-2020 4002.71  208.88 64.25 9.00  43.00 3014.99
   07:09:03.200.03-Feb-2020 4002.71  208.88 64.25 9.00  43.20 3014.99
   07:09:03.400.03-Feb-2020 4002.71  213.18 64.24 9.00  43.40 3014.99
   07:09:03.600.03-Feb-2020 4002.71  215.32 64.24 9.00  43.60 3014.99
   07:09:03.800.03-Feb-2020 4002.71  217.42 64.24 9.00  43.80 3014.99
   07:09:04.000.03-Feb-2020 4002.71  219.56 64.24 9.00  44.00 3014.99
   07:09:04.200.03-Feb-2020 4002.71  219.56 64.24 9.00  44.20 3014.99
   07:09:04.400.03-Feb-2020 4002.71  223.76 64.24 9.00  44.40 3014.99
   07:09:04.600.03-Feb-2020 4002.71  225.81 64.24 9.00  44.60 3014.99
   07:09:04.800.03-Feb-2020 4002.71  227.91 64.24 9.00  44.80 3014.99
   07:09:05.000.03-Feb-2020 4002.71  229.96 64.24 9.00  45.00 3014.99
   07:09:05.200.03-Feb-2020 4002.71  229.96 64.24 9.00  45.20 3014.99
   07:09:05.400.03-Feb-2020 4002.71  234.03 64.24 9.00  45.40 3014.99
   07:09:05.600.03-Feb-2020 4002.71  236.08 64.24 9.00  45.60 3014.99
   07:09:05.800.03-Feb-2020 4002.71  238.10 64.24 9.00  45.80 3014.99
