~Version Information
 VERS.                  2.0:   CWLS log ASCII Standard -VERSION 2.0
 WRAP.                   NO:   One line per depth step
~Well Information Block
#MNEM.UNIT     VALUE/NAME     DESCRIPTION
#---------     -----------    ---------------------------
 STRT.S             07:08:20 03-Feb-20: START TIME 07:08:20 03-Feb-20
 STOP.S             07:16:05 03-Feb-20: STOP TIME  07:16:05 03-Feb-20
 STEP.S                   0.00: STEP TIME
 NULL.                 -999.25: NULL VALUE
 DFWT.                        :  DIST FWL TEXT
 DFST.                        :  DIST FSL TEXT
 DMF .             Drill Floor:  DRILL MEAS FROM
 STIM.      09.30.00 26-Dec-19:  START TIME
 DATE.      08.00.00 20-Jan-20:  END TIME
 SPUD.               23-Nov-19:  SPUD DATE
 NREF.                    Grid:  NORTH REFERENCE
 HPTY.       Minimum Curvature:  HOLE POS TYPE
 DMOD.             Drill Model:  DRILL MOD DESC
 SVYD.                  Survey:  SURVEY DESC
 ILTD.               Lithology:  INTERP LTH DESC
 FTOP.          Formation Tops:  FORM TOPS DESC
 SON .        AZ-XX-0906192647:  JOB NUMBER
 WTYP.                Deviated:  WELL TYPE
 COMP.     BP Exploration (Caspian Sea) Ltd:  COMPANY
 BASE.              Azerbaijan:  LOGGING EQUIPMENT BASE LOCATION
 REGN.                 Eurasia:  REGION
 FLD .                     ACG:  FIELD NAME
 SRVC.              KCA Deutag:  CONTRACTOR
 MWDS.                    Baku:  MWD SHOP
 WELL.     A10 (Slot 20) - SCP:  WELL NAME
 JOBN.        AZ-XX-0906192647:  JOB TICKET NUMB
 RIG .                 Chirag1:  RIG NAME
 DCON.     Halliburton Sperry Drilling:  DIRECTNL CONTR
 UNIT.                     N/A:  LOGGING EQUIPMENT ID
 PDAT.          Mean Sea Level:  PERMANENT DATUM
 MDS .        Operator Entered:  MAG DATA SOURCE
 CTRY.              Azerbaijan:  COUNTRY NAME
 UWI .            /AZE00000090:  UNIQUE WELL IDENTIFIER
 API .            /AZE00000090:  API NUMBER
 CNTY.                        :  COUNTY
 PROV.                        :  PROVINCE
 STAT.                        :  STATE
 LOC .                        :  LOCATION
 LMF .             Drill Floor:  LOG MEASURED FROM
 TVDS.m                  36.60:  TVDSS CORRECTN
 LATI.deg                40.08:  LATITUDE
 LONG.deg                51.24:  LONGITUDE
 WHNS.m                  -7.94:  WELL HEAD N/S
 WHEW.m                   1.56:  WELL HEAD E/W
 UTMX.m              520429.26:  UTM X
 UTMY.m             4438973.87:  UTM Y
 DFWL.m                   0.00:  DISTANCE FWL
 DFSL.m                   0.00:  DISTANCE FSL
 SDEP.m                1455.00:  START DEPTH
 TDD .m                4047.51:  TOTAL DEPTH (DRILLER)
 VSDR.deg               112.75:  VERT SEC DIRECT
 GVFD.g                   1.00:  GRAVITY FIELD
 MFLD.nT              50261.00:  MAGNETIC FIELD
 MDIP.deg                59.52:  MAGNETIC DIP
 MDEC.deg                 6.42:  MAGNETIC DECL
 GRDC.deg                 0.17:  GRID CORRECTION
 AZTC.deg                 6.25:  AZM TOTAL CORR
 EPD .m                   0.00:  ELEVATION
 EGL .m                   0.00:  GROUND ELEVATION
 WDMS.m                 121.00:  WD ELEV
 APD .m                  36.60:  DEPTH ABOVE PD
 AGAP.m                  36.60:  AIR GAP
 VSEW.m                   1.56:  VERT SEC E/W
 VSNS.m                  -7.94:  VERT SEC N/S
 DEP .m                1140.01:  DEPTH
 EKB .m                  36.60:  KB ELEVATION
 EDF .m                  36.60:  DF ELEVATION
 VSC .                       0:  VS TO CLOSURE
 MAGU.                 1849206:  MAGUTM CHECKSUM
~Parameter Information Block
#MNEM.UNIT       Value        Description
#---------     -----------    ---------------------------
 AV  .mps                 1.70:  Ann Velocity 
 AVMX.mps                 2.30:  Max Ann Veloc 
 AZIF.deg               137.03:  Azm, Final 
 BHAT.                   Other:  BHA Type 
 BROT.°/30m               0.80:  Build Rotating 
 BS  .in                  8.00:  Bit Size 
 BTPL.psig              161.00:  Bit Press Loss 
 CABU.                      No:  Customer Abuse 
 COMM.                     ?\:  Run Comments 1 
 TCS .hr                  9.59:  Time Ciculation Ended 
 CV  .mps                 3.76:  Crit Velocity 
 CVMX.mps                 4.26:  Max Crit Veloc 
 DD1 .         Intigam Rahimov:  Direct Drillr 1 
 DD2 .          Rashad Gojayev:  Direct Drillr 2 
 DDSV.                   Other:  DD Service 
 DEFF.%                 100.00:  % Det Eff 
 DLRX.°/30m               1.44:  Dogleg Rot Max 
 DLSO.°/30m               0.00:  Dogleg Oriented 
 DLSX.°/30m               0.00:  Dogleg Str Max 
 DRET.      03.31.12 02-Feb-20:  Drill End Time 
 DRST.      03.31.12 02-Feb-20:  Drill Start Tim 
 DTIM.hr                  1.99:  Time Drilling 
 EDEP.m                4047.51:  End Depth 
 ENG1.           Eldar Hajiyev:  Engineer 1 
 ENG2.          Rasim Hashimov:  Engineer 2 
 ENG3.          Rustam Safarov:  Engineer 3 
 ETIM.      03.31.12 02-Feb-20:  End Time 
 FLOI.gpm               300.00:  Flow In 
 FLON.gpm               250.00:  Flow In Min 
 FLOS.cptm                0.00:  Fluid Loss 
 FLOX.gpm               330.00:  Flow In Max 
 HFLO.                      No:  High Flow 
 HPRE.                      No:  High Pressure 
 HTEM.                      No:  High Temp 
 HYDO.m                   2.50:  Hydro Offset 
 IFIN.deg                39.54:  Inc, Final 
 IMAX.deg                41.14:  Inc Max 
 IMIN.deg                39.81:  Inc Min 
 IMND.m                4005.21:  Inc Min Depth 
 IMXD.m                3948.42:  Inc Max Depth 
 JARR.                      No:  Jarring 
 LETM.      03.31.12 02-Feb-20:  Log End Time 
 LOST.hr                     0:  Lost Rig Time 
 LSTM.      03.31.12 02-Feb-20:  Log Start Time 
 MDCL.ppm             35000.00:  Mud Chlorides 
 MDES.     Inversion Oil/Synthetic:  Mud Desc 
 DFD .sg                  1.32:  Mud Density 
 MDMN.sg                  1.32:  Dens Mud Min 
 MDMX.sg                  1.32:  Dens Mud Max 
 MOIL.                      59:  Run Mud Oil % 
 MOWR.                   71:29:  Run Mud OWR 
 MSND.                       0:  Run Mud Sand % 
 MSOL.                      17:  Run Mud Solids% 
 DFV .spqt               86.00:  Mud Viscosity 
 MWOD.in                  4.75:  MWD Tool OD 
 MWSI.                      No:  Serv Intrp, MWD 
 OTIM.hr                 46.72:  Time Operating 
 PCON.           Look Like New:  Pad Condition 
 PMAX.psia             3300.00:  Press Op, Max 
 PV  .cP                 30.00:  Mud PV 
 RUN .                     400:  Run Number 
 ROPA.m/hr               35.00:  ROP Avg 
 ROPN.m/hr               25.00:  ROP Min 
 ROPX.m/hr               40.00:  ROP Max 
 RPMA.rpm                80.00:  RPM Surface Avg 
 RPMN.rpm                60.00:  RPM Surface Min 
 RPMX.rpm               100.00:  RPM Surface Max 
 RRUN.                     400:  Rig Run Number 
 RTIM.hr                  1.99:  Time Reaming 
 SAZI.deg               133.93:  Azm, Start 
 SDEP.m                4047.51:  Start Depth 
 SIDD.                      No:  Serv Intrp, DD 
 SINC.deg                40.28:  Inc, Start 
 SPPA.psig             3250.00:  SPP Avg 
 SPPN.psig             3200.00:  SPP Min 
 SPPX.psig             3300.00:  SPP Max 
 STIM.      03.31.12 02-Feb-20:  Start Time 
 SVCS.                 DD, MWD:  Services 
 SVER.                    9.20:  Sperry Version 
 TDAT.m                  47.00:  Tot Depth Attmp 
 TDDF.                      No:  Trip for DD 
 TFF .                      No:  Trip for Fail 
 TQAA.f-kp                0.00:  Torque Abs Avg 
 TQAN.f-kp                0.00:  Torque Abs Min 
 TQAX.f-kp                0.00:  Torque Abs Max 
 TRRT.°/30m               0.70:  Turn Rotating 
 MRT .                    HCIM:  Maximum Recorded Temperature 
 TTMX.degC               70.59:  Max Tool Temp 
 VS01.             90598770F11:  Virtual Str1 SN 
 VS02.             90598769F11:  Virtual Str2 SN 
 VS03.            90515978Z1W1:  Virtual Str3 SN 
 VS04.          90584144R12X14:  Virtual Str4 SN 
 WBMN.klb                 0.00:  WOB Min 
 WITN.            Peter Wilson:  Customer Rep 
 WOBA.klb                 0.00:  WOB Avg 
 WOBX.klb                 0.00:  WOB Max 
 YP  .lhf2               29.00:  Yield Point 
~Curve Information Block
#MNEM.UNIT                 API CODE     Curve Description
#---------               -----------    ---------------------------
 TIME.HHMMSS            00 000 000 000:  GT Time & Date
 GTDEPTH.m              00 000 000 000:  GT Depth
 GTPQH.psia             00 000 000 000:  GT HR Quartz Pressure
 GTTQ.degC              00 000 000 000:  GT Quartz Temperature
 GTTN.NONE              00 000 000 000:  GT Test Number
 GTET.sec               00 000 000 000:  GT Elapsed Test Time
 GTTVD.m                00 000 000 000:  GT True Vertical Depth
#Other Information
#
#WARRANTY: Halliburton will use its best efforts to furnish customers with 
#accurate information and interpretations that are part of, and incident to, the services 
#provided.  However, Halliburton cannot and does not warrant the accuracy 
#or correctness of such information and interpretations.  Under no circumstances should any 
#such information or interpretation be relied upon as the sole basis for any drilling, 
#completion, production, or financial decision or any procedure involving any risk to the 
#safety of any drilling venture, drilling rig or its crew or any other third party.  The 
#Customer has full responsibility for all drilling, completion and production operation.  
#Halliburton makes no representations or warranties, either expressed or 
#implied, including, but not limited to, the implied warranties of merchantability or fitness 
#for a particular purpose, with respect to the services rendered.  In no event will 
#Halliburton be liable for failure to obtain any particular results or for 
#any damages, including, but not limited to, indirect, special or consequential damages, 
#resulting from the use of any information or interpretation provided by Halliburton.
#
~A           TIME           GTDEPTH  GTPQH  GTTQ  GTTN  GTET   GTTVD  
# ...
   07:12:10.000.03-Feb-2020 4002.71  596.52 64.22 9.00 230.00 3014.99
   07:12:10.200.03-Feb-2020 4002.71  596.52 64.22 9.00 230.20 3014.99
   07:12:10.400.03-Feb-2020 4002.71  601.44 64.22 9.00 230.40 3014.99
   07:12:10.600.03-Feb-2020 4002.71  603.88 64.22 9.00 230.60 3014.99
   07:12:10.800.03-Feb-2020 4002.71  606.31 64.22 9.00 230.80 3014.99
   07:12:11.000.03-Feb-2020 4002.71  608.76 64.22 9.00 231.00 3014.99
   07:12:11.200.03-Feb-2020 4002.71  608.76 64.22 9.00 231.20 3014.99
   07:12:11.400.03-Feb-2020 4002.71  613.65 64.22 9.00 231.40 3014.99
   07:12:11.600.03-Feb-2020 4002.71  616.15 64.22 9.00 231.60 3014.99
   07:12:11.800.03-Feb-2020 4002.71  618.62 64.22 9.00 231.80 3014.99
   07:12:12.000.03-Feb-2020 4002.71  621.11 64.22 9.00 232.00 3014.99
   07:12:12.200.03-Feb-2020 4002.71  621.11 64.22 9.00 232.20 3014.99
   07:12:12.400.03-Feb-2020 4002.71  626.08 64.22 9.00 232.40 3014.99
   07:12:12.600.03-Feb-2020 4002.71  628.62 64.22 9.00 232.60 3014.99
   07:12:12.800.03-Feb-2020 4002.71  631.10 64.22 9.00 232.80 3014.99
   07:12:13.000.03-Feb-2020 4002.71  633.50 64.22 9.00 233.00 3014.99
   07:12:13.200.03-Feb-2020 4002.71  633.50 64.22 9.00 233.20 3014.99
   07:12:13.400.03-Feb-2020 4002.71  638.65 64.22 9.00 233.40 3014.99
   07:12:13.600.03-Feb-2020 4002.71  641.17 64.22 9.00 233.60 3014.99
   07:12:13.800.03-Feb-2020 4002.71  643.73 64.22 9.00 233.80 3014.99
   07:12:14.000.03-Feb-2020 4002.71  646.29 64.22 9.00 234.00 3014.99
   07:12:14.200.03-Feb-2020 4002.71  646.29 64.22 9.00 234.20 3014.99
   07:12:14.400.03-Feb-2020 4002.71  651.44 64.22 9.00 234.40 3014.99
   07:12:14.600.03-Feb-2020 4002.71  654.03 64.22 9.00 234.60 3014.99
   07:12:14.800.03-Feb-2020 4002.71  656.60 64.22 9.00 234.80 3014.99
   07:12:15.000.03-Feb-2020 4002.71  659.20 64.22 9.00 235.00 3014.99
   07:12:15.200.03-Feb-2020 4002.71  659.20 64.22 9.00 235.20 3014.99
   07:12:15.400.03-Feb-2020 4002.71  664.20 64.22 9.00 235.40 3014.99
   07:12:15.600.03-Feb-2020 4002.71  666.72 64.22 9.00 235.60 3014.99
   07:12:15.800.03-Feb-2020 4002.71  668.75 64.22 9.00 235.80 3014.99
   07:12:16.000.03-Feb-2020 4002.71  671.31 64.22 9.00 236.00 3014.99
   07:12:16.200.03-Feb-2020 4002.71  671.31 64.22 9.00 236.20 3014.99
   07:12:16.400.03-Feb-2020 4002.71  676.54 64.22 9.00 236.40 3014.99
   07:12:16.600.03-Feb-2020 4002.71  679.26 64.22 9.00 236.60 3014.99
   07:12:16.800.03-Feb-2020 4002.71  681.95 64.22 9.00 236.80 3014.99
   07:12:17.000.03-Feb-2020 4002.71  684.60 64.22 9.00 237.00 3014.99
   07:12:17.200.03-Feb-2020 4002.71  684.60 64.22 9.00 237.20 3014.99
   07:12:17.400.03-Feb-2020 4002.71  689.93 64.22 9.00 237.40 3014.99
   07:12:17.600.03-Feb-2020 4002.71  692.66 64.22 9.00 237.60 3014.99
   07:12:17.800.03-Feb-2020 4002.71  695.38 64.22 9.00 237.80 3014.99
   07:12:18.000.03-Feb-2020 4002.71  698.09 64.22 9.00 238.00 3014.99
   07:12:18.200.03-Feb-2020 4002.71  698.09 64.22 9.00 238.20 3014.99
   07:12:18.400.03-Feb-2020 4002.71  703.47 64.22 9.00 238.40 3014.99
   07:12:18.600.03-Feb-2020 4002.71  706.21 64.22 9.00 238.60 3014.99
   07:12:18.800.03-Feb-2020 4002.71  708.97 64.22 9.00 238.80 3014.99
   07:12:19.000.03-Feb-2020 4002.71  711.74 64.22 9.00 239.00 3014.99
   07:12:19.200.03-Feb-2020 4002.71  711.74 64.22 9.00 239.20 3014.99
   07:12:19.400.03-Feb-2020 4002.71  717.23 64.22 9.00 239.40 3014.99
   07:12:19.600.03-Feb-2020 4002.71  720.00 64.22 9.00 239.60 3014.99
   07:12:19.800.03-Feb-2020 4002.71  722.71 64.22 9.00 239.80 3014.99
   07:12:20.000.03-Feb-2020 4002.71  725.52 64.22 9.00 240.00 3014.99
   07:12:20.200.03-Feb-2020 4002.71  725.52 64.22 9.00 240.20 3014.99
   07:12:20.400.03-Feb-2020 4002.71  731.06 64.22 9.00 240.40 3014.99
   07:12:20.600.03-Feb-2020 4002.71  733.79 64.22 9.00 240.60 3014.99
   07:12:20.800.03-Feb-2020 4002.71  736.48 64.22 9.00 240.80 3014.99
   07:12:21.000.03-Feb-2020 4002.71  738.53 64.22 9.00 241.00 3014.99
   07:12:21.200.03-Feb-2020 4002.71  738.53 64.22 9.00 241.20 3014.99
   07:12:21.400.03-Feb-2020 4002.71  744.07 64.22 9.00 241.40 3014.99
   07:12:21.600.03-Feb-2020 4002.71  746.67 64.22 9.00 241.60 3014.99
   07:12:21.800.03-Feb-2020 4002.71  749.63 64.22 9.00 241.80 3014.99
   07:12:22.000.03-Feb-2020 4002.71  752.46 64.22 9.00 242.00 3014.99
   07:12:22.200.03-Feb-2020 4002.71  752.46 64.22 9.00 242.20 3014.99
   07:12:22.400.03-Feb-2020 4002.71  758.20 64.22 9.00 242.40 3014.99
   07:12:22.600.03-Feb-2020 4002.71  761.08 64.22 9.00 242.60 3014.99
   07:12:22.800.03-Feb-2020 4002.71  763.94 64.22 9.00 242.80 3014.99
   07:12:23.000.03-Feb-2020 4002.71  766.83 64.22 9.00 243.00 3014.99
   07:12:23.200.03-Feb-2020 4002.71  766.83 64.22 9.00 243.20 3014.99
   07:12:23.400.03-Feb-2020 4002.71  772.63 64.22 9.00 243.40 3014.99
   07:12:23.600.03-Feb-2020 4002.71  775.55 64.22 9.00 243.60 3014.99
   07:12:23.800.03-Feb-2020 4002.71  778.46 64.22 9.00 243.80 3014.99
   07:12:24.000.03-Feb-2020 4002.71  781.16 64.22 9.00 244.00 3014.99
   07:12:24.200.03-Feb-2020 4002.71  781.16 64.22 9.00 244.20 3014.99
   07:12:24.400.03-Feb-2020 4002.71  787.15 64.22 9.00 244.40 3014.99
   07:12:24.600.03-Feb-2020 4002.71  790.16 64.23 9.00 244.60 3014.99
   07:12:24.800.03-Feb-2020 4002.71  793.10 64.23 9.00 244.80 3014.99
   07:12:25.000.03-Feb-2020 4002.71  795.82 64.23 9.00 245.00 3014.99
   07:12:25.200.03-Feb-2020 4002.71  795.82 64.23 9.00 245.20 3014.99
   07:12:25.400.03-Feb-2020 4002.71  801.81 64.23 9.00 245.40 3014.99
   07:12:25.600.03-Feb-2020 4002.71  804.40 64.23 9.00 245.60 3014.99
   07:12:25.800.03-Feb-2020 4002.71  806.77 64.23 9.00 245.80 3014.99
   07:12:26.000.03-Feb-2020 4002.71  809.77 64.23 9.00 246.00 3014.99
   07:12:26.200.03-Feb-2020 4002.71  809.77 64.23 9.00 246.20 3014.99
   07:12:26.400.03-Feb-2020 4002.71  815.79 64.23 9.00 246.40 3014.99
   07:12:26.600.03-Feb-2020 4002.71  818.57 64.23 9.00 246.60 3014.99
   07:12:26.800.03-Feb-2020 4002.71  821.72 64.23 9.00 246.80 3014.99
   07:12:27.000.03-Feb-2020 4002.71  824.79 64.23 9.00 247.00 3014.99
   07:12:27.200.03-Feb-2020 4002.71  824.79 64.23 9.00 247.20 3014.99
   07:12:27.400.03-Feb-2020 4002.71  830.88 64.23 9.00 247.40 3014.99
   07:12:27.600.03-Feb-2020 4002.71  833.92 64.23 9.00 247.60 3014.99
   07:12:27.800.03-Feb-2020 4002.71  836.81 64.23 9.00 247.80 3014.99
   07:12:28.000.03-Feb-2020 4002.71  839.98 64.23 9.00 248.00 3014.99
   07:12:28.200.03-Feb-2020 4002.71  839.98 64.23 9.00 248.20 3014.99
   07:12:28.400.03-Feb-2020 4002.71  846.13 64.23 9.00 248.40 3014.99
   07:12:28.600.03-Feb-2020 4002.71  849.20 64.23 9.00 248.60 3014.99
   07:12:28.800.03-Feb-2020 4002.71  852.32 64.23 9.00 248.80 3014.99
   07:12:29.000.03-Feb-2020 4002.71  855.39 64.23 9.00 249.00 3014.99
   07:12:29.200.03-Feb-2020 4002.71  855.39 64.23 9.00 249.20 3014.99
   07:12:29.400.03-Feb-2020 4002.71  861.57 64.23 9.00 249.40 3014.99
   07:12:29.600.03-Feb-2020 4002.71  864.70 64.23 9.00 249.60 3014.99
   07:12:29.800.03-Feb-2020 4002.71  867.76 64.23 9.00 249.80 3014.99
   07:12:30.000.03-Feb-2020 4002.71  870.21 64.23 9.00 250.00 3014.99
   07:12:30.200.03-Feb-2020 4002.71  870.21 64.23 9.00 250.20 3014.99
   07:12:30.400.03-Feb-2020 4002.71  876.03 64.23 9.00 250.40 3014.99
   07:12:30.600.03-Feb-2020 4002.71  879.16 64.23 9.00 250.60 3014.99
   07:12:30.800.03-Feb-2020 4002.71  882.33 64.23 9.00 250.80 3014.99
   07:12:31.000.03-Feb-2020 4002.71  885.46 64.23 9.00 251.00 3014.99
   07:12:31.200.03-Feb-2020 4002.71  885.46 64.23 9.00 251.20 3014.99
   07:12:31.400.03-Feb-2020 4002.71  891.69 64.23 9.00 251.40 3014.99
   07:12:31.600.03-Feb-2020 4002.71  894.91 64.23 9.00 251.60 3014.99
   07:12:31.800.03-Feb-2020 4002.71  898.07 64.23 9.00 251.80 3014.99
   07:12:32.000.03-Feb-2020 4002.71  901.29 64.23 9.00 252.00 3014.99
   07:12:32.200.03-Feb-2020 4002.71  901.29 64.23 9.00 252.20 3014.99
   07:12:32.400.03-Feb-2020 4002.71  907.72 64.23 9.00 252.40 3014.99
   07:12:32.600.03-Feb-2020 4002.71  910.90 64.23 9.00 252.60 3014.99
   07:12:32.800.03-Feb-2020 4002.71  914.10 64.23 9.00 252.80 3014.99
