~Version Information
 VERS.                  2.0:   CWLS log ASCII Standard -VERSION 2.0
 WRAP.                   NO:   One line per depth step
~Well Information Block
#MNEM.UNIT     VALUE/NAME     DESCRIPTION
#---------     -----------    ---------------------------
 STRT.S             06:17:54 03-Feb-20: START TIME 06:17:54 03-Feb-20
 STOP.S             06:25:43 03-Feb-20: STOP TIME  06:25:43 03-Feb-20
 STEP.S                   0.00: STEP TIME
 NULL.                 -999.25: NULL VALUE
 DFWT.                        :  DIST FWL TEXT
 DFST.                        :  DIST FSL TEXT
 DMF .             Drill Floor:  DRILL MEAS FROM
 STIM.      09.30.00 26-Dec-19:  START TIME
 DATE.      08.00.00 20-Jan-20:  END TIME
 SPUD.               23-Nov-19:  SPUD DATE
 NREF.                    Grid:  NORTH REFERENCE
 HPTY.       Minimum Curvature:  HOLE POS TYPE
 DMOD.             Drill Model:  DRILL MOD DESC
 SVYD.                  Survey:  SURVEY DESC
 ILTD.               Lithology:  INTERP LTH DESC
 FTOP.          Formation Tops:  FORM TOPS DESC
 SON .        AZ-XX-0906192647:  JOB NUMBER
 WTYP.                Deviated:  WELL TYPE
 COMP.     BP Exploration (Caspian Sea) Ltd:  COMPANY
 BASE.              Azerbaijan:  LOGGING EQUIPMENT BASE LOCATION
 REGN.                 Eurasia:  REGION
 FLD .                     ACG:  FIELD NAME
 SRVC.              KCA Deutag:  CONTRACTOR
 MWDS.                    Baku:  MWD SHOP
 WELL.     A10 (Slot 20) - SCP:  WELL NAME
 JOBN.        AZ-XX-0906192647:  JOB TICKET NUMB
 RIG .                 Chirag1:  RIG NAME
 DCON.     Halliburton Sperry Drilling:  DIRECTNL CONTR
 UNIT.                     N/A:  LOGGING EQUIPMENT ID
 PDAT.          Mean Sea Level:  PERMANENT DATUM
 MDS .        Operator Entered:  MAG DATA SOURCE
 CTRY.              Azerbaijan:  COUNTRY NAME
 UWI .            /AZE00000090:  UNIQUE WELL IDENTIFIER
 API .            /AZE00000090:  API NUMBER
 CNTY.                        :  COUNTY
 PROV.                        :  PROVINCE
 STAT.                        :  STATE
 LOC .                        :  LOCATION
 LMF .             Drill Floor:  LOG MEASURED FROM
 TVDS.m                  36.60:  TVDSS CORRECTN
 LATI.deg                40.08:  LATITUDE
 LONG.deg                51.24:  LONGITUDE
 WHNS.m                  -7.94:  WELL HEAD N/S
 WHEW.m                   1.56:  WELL HEAD E/W
 UTMX.m              520429.26:  UTM X
 UTMY.m             4438973.87:  UTM Y
 DFWL.m                   0.00:  DISTANCE FWL
 DFSL.m                   0.00:  DISTANCE FSL
 SDEP.m                1455.00:  START DEPTH
 TDD .m                4047.51:  TOTAL DEPTH (DRILLER)
 VSDR.deg               112.75:  VERT SEC DIRECT
 GVFD.g                   1.00:  GRAVITY FIELD
 MFLD.nT              50261.00:  MAGNETIC FIELD
 MDIP.deg                59.52:  MAGNETIC DIP
 MDEC.deg                 6.42:  MAGNETIC DECL
 GRDC.deg                 0.17:  GRID CORRECTION
 AZTC.deg                 6.25:  AZM TOTAL CORR
 EPD .m                   0.00:  ELEVATION
 EGL .m                   0.00:  GROUND ELEVATION
 WDMS.m                 121.00:  WD ELEV
 APD .m                  36.60:  DEPTH ABOVE PD
 AGAP.m                  36.60:  AIR GAP
 VSEW.m                   1.56:  VERT SEC E/W
 VSNS.m                  -7.94:  VERT SEC N/S
 DEP .m                1140.01:  DEPTH
 EKB .m                  36.60:  KB ELEVATION
 EDF .m                  36.60:  DF ELEVATION
 VSC .                       0:  VS TO CLOSURE
 MAGU.                 1849206:  MAGUTM CHECKSUM
~Parameter Information Block
#MNEM.UNIT       Value        Description
#---------     -----------    ---------------------------
 AV  .mps                 1.70:  Ann Velocity 
 AVMX.mps                 2.30:  Max Ann Veloc 
 AZIF.deg               137.03:  Azm, Final 
 BHAT.                   Other:  BHA Type 
 BROT.°/30m               0.80:  Build Rotating 
 BS  .in                  8.00:  Bit Size 
 BTPL.psig              161.00:  Bit Press Loss 
 CABU.                      No:  Customer Abuse 
 COMM.                     4•z:  Run Comments 1 
 TCS .hr                  9.59:  Time Ciculation Ended 
 CV  .mps                 3.76:  Crit Velocity 
 CVMX.mps                 4.26:  Max Crit Veloc 
 DD1 .         Intigam Rahimov:  Direct Drillr 1 
 DD2 .          Rashad Gojayev:  Direct Drillr 2 
 DDSV.                   Other:  DD Service 
 DEFF.%                 100.00:  % Det Eff 
 DLRX.°/30m               1.44:  Dogleg Rot Max 
 DLSO.°/30m               0.00:  Dogleg Oriented 
 DLSX.°/30m               0.00:  Dogleg Str Max 
 DRET.      03.31.12 02-Feb-20:  Drill End Time 
 DRST.      03.31.12 02-Feb-20:  Drill Start Tim 
 DTIM.hr                  1.99:  Time Drilling 
 EDEP.m                4047.51:  End Depth 
 ENG1.           Eldar Hajiyev:  Engineer 1 
 ENG2.          Rasim Hashimov:  Engineer 2 
 ENG3.          Rustam Safarov:  Engineer 3 
 ETIM.      03.31.12 02-Feb-20:  End Time 
 FLOI.gpm               300.00:  Flow In 
 FLON.gpm               250.00:  Flow In Min 
 FLOS.cptm                0.00:  Fluid Loss 
 FLOX.gpm               330.00:  Flow In Max 
 HFLO.                      No:  High Flow 
 HPRE.                      No:  High Pressure 
 HTEM.                      No:  High Temp 
 HYDO.m                   2.50:  Hydro Offset 
 IFIN.deg                39.54:  Inc, Final 
 IMAX.deg                41.14:  Inc Max 
 IMIN.deg                39.81:  Inc Min 
 IMND.m                4005.21:  Inc Min Depth 
 IMXD.m                3948.42:  Inc Max Depth 
 JARR.                      No:  Jarring 
 LETM.      03.31.12 02-Feb-20:  Log End Time 
 LOST.hr                     0:  Lost Rig Time 
 LSTM.      03.31.12 02-Feb-20:  Log Start Time 
 MDCL.ppm             35000.00:  Mud Chlorides 
 MDES.     Inversion Oil/Synthetic:  Mud Desc 
 DFD .sg                  1.32:  Mud Density 
 MDMN.sg                  1.32:  Dens Mud Min 
 MDMX.sg                  1.32:  Dens Mud Max 
 MOIL.                      59:  Run Mud Oil % 
 MOWR.                   71:29:  Run Mud OWR 
 MSND.                       0:  Run Mud Sand % 
 MSOL.                      17:  Run Mud Solids% 
 DFV .spqt               86.00:  Mud Viscosity 
 MWOD.in                  4.75:  MWD Tool OD 
 MWSI.                      No:  Serv Intrp, MWD 
 OTIM.hr                 46.72:  Time Operating 
 PCON.           Look Like New:  Pad Condition 
 PMAX.psia             3300.00:  Press Op, Max 
 PV  .cP                 30.00:  Mud PV 
 RUN .                     400:  Run Number 
 ROPA.m/hr               35.00:  ROP Avg 
 ROPN.m/hr               25.00:  ROP Min 
 ROPX.m/hr               40.00:  ROP Max 
 RPMA.rpm                80.00:  RPM Surface Avg 
 RPMN.rpm                60.00:  RPM Surface Min 
 RPMX.rpm               100.00:  RPM Surface Max 
 RRUN.                     400:  Rig Run Number 
 RTIM.hr                  1.99:  Time Reaming 
 SAZI.deg               133.93:  Azm, Start 
 SDEP.m                4047.51:  Start Depth 
 SIDD.                      No:  Serv Intrp, DD 
 SINC.deg                40.28:  Inc, Start 
 SPPA.psig             3250.00:  SPP Avg 
 SPPN.psig             3200.00:  SPP Min 
 SPPX.psig             3300.00:  SPP Max 
 STIM.      03.31.12 02-Feb-20:  Start Time 
 SVCS.                 DD, MWD:  Services 
 SVER.                    9.20:  Sperry Version 
 TDAT.m                  47.00:  Tot Depth Attmp 
 TDDF.                      No:  Trip for DD 
 TFF .                      No:  Trip for Fail 
 TQAA.f-kp                0.00:  Torque Abs Avg 
 TQAN.f-kp                0.00:  Torque Abs Min 
 TQAX.f-kp                0.00:  Torque Abs Max 
 TRRT.°/30m               0.70:  Turn Rotating 
 MRT .                    HCIM:  Maximum Recorded Temperature 
 TTMX.degC               70.59:  Max Tool Temp 
 VS01.             90598770F11:  Virtual Str1 SN 
 VS02.             90598769F11:  Virtual Str2 SN 
 VS03.            90515978Z1W1:  Virtual Str3 SN 
 VS04.          90584144R12X14:  Virtual Str4 SN 
 WBMN.klb                 0.00:  WOB Min 
 WITN.            Peter Wilson:  Customer Rep 
 WOBA.klb                 0.00:  WOB Avg 
 WOBX.klb                 0.00:  WOB Max 
 YP  .lhf2               29.00:  Yield Point 
~Curve Information Block
#MNEM.UNIT                 API CODE     Curve Description
#---------               -----------    ---------------------------
 TIME.HHMMSS            00 000 000 000:  GT Time & Date
 GTDEPTH.m              00 000 000 000:  GT Depth
 GTPQH.psia             00 000 000 000:  GT HR Quartz Pressure
 GTTQ.degC              00 000 000 000:  GT Quartz Temperature
 GTTN.NONE              00 000 000 000:  GT Test Number
 GTET.sec               00 000 000 000:  GT Elapsed Test Time
 GTTVD.m                00 000 000 000:  GT True Vertical Depth
#Other Information
#
#WARRANTY: Halliburton will use its best efforts to furnish customers with 
#accurate information and interpretations that are part of, and incident to, the services 
#provided.  However, Halliburton cannot and does not warrant the accuracy 
#or correctness of such information and interpretations.  Under no circumstances should any 
#such information or interpretation be relied upon as the sole basis for any drilling, 
#completion, production, or financial decision or any procedure involving any risk to the 
#safety of any drilling venture, drilling rig or its crew or any other third party.  The 
#Customer has full responsibility for all drilling, completion and production operation.  
#Halliburton makes no representations or warranties, either expressed or 
#implied, including, but not limited to, the implied warranties of merchantability or fitness 
#for a particular purpose, with respect to the services rendered.  In no event will 
#Halliburton be liable for failure to obtain any particular results or for 
#any damages, including, but not limited to, indirect, special or consequential damages, 
#resulting from the use of any information or interpretation provided by Halliburton.
#
~A           TIME           GTDEPTH  GTPQH  GTTQ  GTTN  GTET   GTTVD  
# ...
   06:20:58.000.03-Feb-2020 4005.51  155.13 65.01 7.00 184.00 3017.14
   06:20:58.200.03-Feb-2020 4005.51  155.13 65.01 7.00 184.20 3017.14
   06:20:58.400.03-Feb-2020 4005.51  155.33 65.01 7.00 184.40 3017.14
   06:20:58.600.03-Feb-2020 4005.51  155.43 65.01 7.00 184.60 3017.14
   06:20:58.800.03-Feb-2020 4005.51  155.52 65.01 7.00 184.80 3017.14
   06:20:59.000.03-Feb-2020 4005.51  155.62 65.01 7.00 185.00 3017.14
   06:20:59.200.03-Feb-2020 4005.51  155.62 65.01 7.00 185.20 3017.14
   06:20:59.400.03-Feb-2020 4005.51  155.81 65.01 7.00 185.40 3017.14
   06:20:59.600.03-Feb-2020 4005.51  155.90 65.01 7.00 185.60 3017.14
   06:20:59.800.03-Feb-2020 4005.51  155.98 65.01 7.00 185.80 3017.14
   06:21:00.000.03-Feb-2020 4005.51  156.09 65.01 7.00 186.00 3017.14
   06:21:00.200.03-Feb-2020 4005.51  156.09 65.01 7.00 186.20 3017.14
   06:21:00.400.03-Feb-2020 4005.51  156.26 65.01 7.00 186.40 3017.14
   06:21:00.600.03-Feb-2020 4005.51  156.34 65.01 7.00 186.60 3017.14
   06:21:00.800.03-Feb-2020 4005.51  156.43 65.01 7.00 186.80 3017.14
   06:21:01.000.03-Feb-2020 4005.51  156.52 65.01 7.00 187.00 3017.14
   06:21:01.200.03-Feb-2020 4005.51  156.52 65.01 7.00 187.20 3017.14
   06:21:01.400.03-Feb-2020 4005.51  156.69 65.01 7.00 187.40 3017.14
   06:21:01.600.03-Feb-2020 4005.51  156.77 65.01 7.00 187.60 3017.14
   06:21:01.800.03-Feb-2020 4005.51  156.85 65.01 7.00 187.80 3017.14
   06:21:02.000.03-Feb-2020 4005.51  156.93 65.01 7.00 188.00 3017.14
   06:21:02.200.03-Feb-2020 4005.51  156.93 65.01 7.00 188.20 3017.14
   06:21:02.400.03-Feb-2020 4005.51  157.08 65.01 7.00 188.40 3017.14
   06:21:02.600.03-Feb-2020 4005.51  157.16 65.01 7.00 188.60 3017.14
   06:21:02.800.03-Feb-2020 4005.51  157.25 65.01 7.00 188.80 3017.14
   06:21:03.000.03-Feb-2020 4005.51  157.31 65.01 7.00 189.00 3017.14
   06:21:03.200.03-Feb-2020 4005.51  157.31 65.01 7.00 189.20 3017.14
   06:21:03.400.03-Feb-2020 4005.51  157.47 65.01 7.00 189.40 3017.14
   06:21:03.600.03-Feb-2020 4005.51  157.55 65.01 7.00 189.60 3017.14
   06:21:03.800.03-Feb-2020 4005.51  157.62 65.01 7.00 189.80 3017.14
   06:21:04.000.03-Feb-2020 4005.51  157.69 65.01 7.00 190.00 3017.14
   06:21:04.200.03-Feb-2020 4005.51  157.69 65.01 7.00 190.20 3017.14
   06:21:04.400.03-Feb-2020 4005.51  157.83 65.01 7.00 190.40 3017.14
   06:21:04.600.03-Feb-2020 4005.51  157.92 65.01 7.00 190.60 3017.14
   06:21:04.800.03-Feb-2020 4005.51  157.97 65.01 7.00 190.80 3017.14
   06:21:05.000.03-Feb-2020 4005.51  158.06 65.01 7.00 191.00 3017.14
   06:21:05.200.03-Feb-2020 4005.51  158.06 65.01 7.00 191.20 3017.14
   06:21:05.400.03-Feb-2020 4005.51  158.19 65.01 7.00 191.40 3017.14
   06:21:05.600.03-Feb-2020 4005.51  158.25 65.01 7.00 191.60 3017.14
   06:21:05.800.03-Feb-2020 4005.51  158.32 65.00 7.00 191.80 3017.14
   06:21:06.000.03-Feb-2020 4005.51  158.39 65.01 7.00 192.00 3017.14
   06:21:06.200.03-Feb-2020 4005.51  158.39 65.01 7.00 192.20 3017.14
   06:21:06.400.03-Feb-2020 4005.51  158.51 65.00 7.00 192.40 3017.14
   06:21:06.600.03-Feb-2020 4005.51  158.58 65.00 7.00 192.60 3017.14
   06:21:06.800.03-Feb-2020 4005.51  158.64 65.00 7.00 192.80 3017.14
   06:21:07.000.03-Feb-2020 4005.51  158.73 65.00 7.00 193.00 3017.14
   06:21:07.200.03-Feb-2020 4005.51  158.78 65.00 7.00 193.20 3017.14
   06:21:07.400.03-Feb-2020 4005.51  158.85 65.00 7.00 193.40 3017.14
   06:21:07.600.03-Feb-2020 4005.51  158.91 65.00 7.00 193.60 3017.14
   06:21:07.800.03-Feb-2020 4005.51  158.97 65.00 7.00 193.80 3017.14
   06:21:08.000.03-Feb-2020 4005.51  159.02 65.00 7.00 194.00 3017.14
   06:21:08.200.03-Feb-2020 4005.51  159.02 65.00 7.00 194.20 3017.14
   06:21:08.400.03-Feb-2020 4005.51  159.16 65.00 7.00 194.40 3017.14
   06:21:08.600.03-Feb-2020 4005.51  159.21 65.00 7.00 194.60 3017.14
   06:21:08.800.03-Feb-2020 4005.51  159.28 65.00 7.00 194.80 3017.14
   06:21:09.000.03-Feb-2020 4005.51  159.33 65.00 7.00 195.00 3017.14
   06:21:09.200.03-Feb-2020 4005.51  159.33 65.00 7.00 195.20 3017.14
   06:21:09.400.03-Feb-2020 4005.51  159.46 65.00 7.00 195.40 3017.14
   06:21:09.600.03-Feb-2020 4005.51  159.52 65.00 7.00 195.60 3017.14
   06:21:09.800.03-Feb-2020 4005.51  159.59 65.00 7.00 195.80 3017.14
   06:21:10.000.03-Feb-2020 4005.51  159.64 65.00 7.00 196.00 3017.14
   06:21:10.200.03-Feb-2020 4005.51  159.64 65.00 7.00 196.20 3017.14
   06:21:10.400.03-Feb-2020 4005.51  159.78 65.00 7.00 196.40 3017.14
   06:21:10.600.03-Feb-2020 4005.51  159.84 65.00 7.00 196.60 3017.14
   06:21:10.800.03-Feb-2020 4005.51  159.90 65.00 7.00 196.80 3017.14
   06:21:11.000.03-Feb-2020 4005.51  159.95 65.00 7.00 197.00 3017.14
   06:21:11.200.03-Feb-2020 4005.51  159.95 65.00 7.00 197.20 3017.14
   06:21:11.400.03-Feb-2020 4005.51  160.06 65.00 7.00 197.40 3017.14
   06:21:11.600.03-Feb-2020 4005.51  160.12 65.00 7.00 197.60 3017.14
   06:21:11.800.03-Feb-2020 4005.51  160.17 65.00 7.00 197.80 3017.14
   06:21:12.000.03-Feb-2020 4005.51  160.23 65.00 7.00 198.00 3017.14
   06:21:12.200.03-Feb-2020 4005.51  160.23 65.00 7.00 198.20 3017.14
   06:21:12.400.03-Feb-2020 4005.51  160.34 65.00 7.00 198.40 3017.14
   06:21:12.600.03-Feb-2020 4005.51  160.39 65.00 7.00 198.60 3017.14
   06:21:12.800.03-Feb-2020 4005.51  160.44 65.00 7.00 198.80 3017.14
   06:21:13.000.03-Feb-2020 4005.51  160.50 65.00 7.00 199.00 3017.14
   06:21:13.200.03-Feb-2020 4005.51  160.50 65.00 7.00 199.20 3017.14
   06:21:13.400.03-Feb-2020 4005.51  160.61 65.00 7.00 199.40 3017.14
   06:21:13.600.03-Feb-2020 4005.51  160.65 65.00 7.00 199.60 3017.14
   06:21:13.800.03-Feb-2020 4005.51  160.70 65.00 7.00 199.80 3017.14
   06:21:14.000.03-Feb-2020 4005.51  160.75 65.00 7.00 200.00 3017.14
   06:21:14.200.03-Feb-2020 4005.51  160.75 65.00 7.00 200.20 3017.14
   06:21:14.400.03-Feb-2020 4005.51  160.85 65.00 7.00 200.40 3017.14
   06:21:14.600.03-Feb-2020 4005.51  160.90 65.00 7.00 200.60 3017.14
   06:21:14.800.03-Feb-2020 4005.51  160.94 65.00 7.00 200.80 3017.14
   06:21:15.000.03-Feb-2020 4005.51  160.99 65.00 7.00 201.00 3017.14
   06:21:15.200.03-Feb-2020 4005.51  160.99 65.00 7.00 201.20 3017.14
   06:21:15.400.03-Feb-2020 4005.51  161.10 65.00 7.00 201.40 3017.14
   06:21:15.600.03-Feb-2020 4005.51  161.13 65.00 7.00 201.60 3017.14
   06:21:15.800.03-Feb-2020 4005.51  161.19 65.00 7.00 201.80 3017.14
   06:21:16.000.03-Feb-2020 4005.51  161.24 65.00 7.00 202.00 3017.14
   06:21:16.200.03-Feb-2020 4005.51  161.28 65.00 7.00 202.20 3017.14
   06:21:16.400.03-Feb-2020 4005.51  161.33 65.00 7.00 202.40 3017.14
   06:21:16.600.03-Feb-2020 4005.51  161.38 65.00 7.00 202.60 3017.14
   06:21:16.800.03-Feb-2020 4005.51  161.41 65.00 7.00 202.80 3017.14
   06:21:17.000.03-Feb-2020 4005.51  161.48 65.00 7.00 203.00 3017.14
   06:21:17.200.03-Feb-2020 4005.51  161.52 65.00 7.00 203.20 3017.14
   06:21:17.400.03-Feb-2020 4005.51  161.56 65.00 7.00 203.40 3017.14
   06:21:17.600.03-Feb-2020 4005.51  161.61 65.00 7.00 203.60 3017.14
   06:21:17.800.03-Feb-2020 4005.51  161.65 65.00 7.00 203.80 3017.14
   06:21:18.000.03-Feb-2020 4005.51  161.69 65.00 7.00 204.00 3017.14
   06:21:18.200.03-Feb-2020 4005.51  161.69 65.00 7.00 204.20 3017.14
   06:21:18.400.03-Feb-2020 4005.51  161.78 65.00 7.00 204.40 3017.14
   06:21:18.600.03-Feb-2020 4005.51  161.83 65.00 7.00 204.60 3017.14
   06:21:18.800.03-Feb-2020 4005.51  161.88 65.00 7.00 204.80 3017.14
   06:21:19.000.03-Feb-2020 4005.51  161.90 65.00 7.00 205.00 3017.14
   06:21:19.200.03-Feb-2020 4005.51  161.90 65.00 7.00 205.20 3017.14
   06:21:19.400.03-Feb-2020 4005.51  162.00 65.00 7.00 205.40 3017.14
   06:21:19.600.03-Feb-2020 4005.51  162.04 65.00 7.00 205.60 3017.14
   06:21:19.800.03-Feb-2020 4005.51  162.09 65.00 7.00 205.80 3017.14
   06:21:20.000.03-Feb-2020 4005.51  162.13 65.00 7.00 206.00 3017.14
   06:21:20.200.03-Feb-2020 4005.51  162.13 65.00 7.00 206.20 3017.14
   06:21:20.400.03-Feb-2020 4005.51  162.21 65.00 7.00 206.40 3017.14
   06:21:20.600.03-Feb-2020 4005.51  162.25 65.00 7.00 206.60 3017.14
   06:21:20.800.03-Feb-2020 4005.51  162.29 65.00 7.00 206.80 3017.14
