~Version Information
 VERS.                  2.0:   CWLS log ASCII Standard -VERSION 2.0
 WRAP.                   NO:   One line per depth step
~Well Information Block
#MNEM.UNIT     VALUE/NAME     DESCRIPTION
#---------     -----------    ---------------------------
 STRT.S             08:07:30 03-Feb-20: START TIME 08:07:30 03-Feb-20
 STOP.S             08:15:16 03-Feb-20: STOP TIME  08:15:16 03-Feb-20
 STEP.S                   0.00: STEP TIME
 NULL.                 -999.25: NULL VALUE
 DFWT.                        :  DIST FWL TEXT
 DFST.                        :  DIST FSL TEXT
 DMF .             Drill Floor:  DRILL MEAS FROM
 STIM.      09.30.00 26-Dec-19:  START TIME
 DATE.      08.00.00 20-Jan-20:  END TIME
 SPUD.               23-Nov-19:  SPUD DATE
 NREF.                    Grid:  NORTH REFERENCE
 HPTY.       Minimum Curvature:  HOLE POS TYPE
 DMOD.             Drill Model:  DRILL MOD DESC
 SVYD.                  Survey:  SURVEY DESC
 ILTD.               Lithology:  INTERP LTH DESC
 FTOP.          Formation Tops:  FORM TOPS DESC
 SON .        AZ-XX-0906192647:  JOB NUMBER
 WTYP.                Deviated:  WELL TYPE
 COMP.     BP Exploration (Caspian Sea) Ltd:  COMPANY
 BASE.              Azerbaijan:  LOGGING EQUIPMENT BASE LOCATION
 REGN.                 Eurasia:  REGION
 FLD .                     ACG:  FIELD NAME
 SRVC.              KCA Deutag:  CONTRACTOR
 MWDS.                    Baku:  MWD SHOP
 WELL.     A10 (Slot 20) - SCP:  WELL NAME
 JOBN.        AZ-XX-0906192647:  JOB TICKET NUMB
 RIG .                 Chirag1:  RIG NAME
 DCON.     Halliburton Sperry Drilling:  DIRECTNL CONTR
 UNIT.                     N/A:  LOGGING EQUIPMENT ID
 PDAT.          Mean Sea Level:  PERMANENT DATUM
 MDS .        Operator Entered:  MAG DATA SOURCE
 CTRY.              Azerbaijan:  COUNTRY NAME
 UWI .            /AZE00000090:  UNIQUE WELL IDENTIFIER
 API .            /AZE00000090:  API NUMBER
 CNTY.                        :  COUNTY
 PROV.                        :  PROVINCE
 STAT.                        :  STATE
 LOC .                        :  LOCATION
 LMF .             Drill Floor:  LOG MEASURED FROM
 TVDS.m                  36.60:  TVDSS CORRECTN
 LATI.deg                40.08:  LATITUDE
 LONG.deg                51.24:  LONGITUDE
 WHNS.m                  -7.94:  WELL HEAD N/S
 WHEW.m                   1.56:  WELL HEAD E/W
 UTMX.m              520429.26:  UTM X
 UTMY.m             4438973.87:  UTM Y
 DFWL.m                   0.00:  DISTANCE FWL
 DFSL.m                   0.00:  DISTANCE FSL
 SDEP.m                1455.00:  START DEPTH
 TDD .m                4047.51:  TOTAL DEPTH (DRILLER)
 VSDR.deg               112.75:  VERT SEC DIRECT
 GVFD.g                   1.00:  GRAVITY FIELD
 MFLD.nT              50261.00:  MAGNETIC FIELD
 MDIP.deg                59.52:  MAGNETIC DIP
 MDEC.deg                 6.42:  MAGNETIC DECL
 GRDC.deg                 0.17:  GRID CORRECTION
 AZTC.deg                 6.25:  AZM TOTAL CORR
 EPD .m                   0.00:  ELEVATION
 EGL .m                   0.00:  GROUND ELEVATION
 WDMS.m                 121.00:  WD ELEV
 APD .m                  36.60:  DEPTH ABOVE PD
 AGAP.m                  36.60:  AIR GAP
 VSEW.m                   1.56:  VERT SEC E/W
 VSNS.m                  -7.94:  VERT SEC N/S
 DEP .m                1140.01:  DEPTH
 EKB .m                  36.60:  KB ELEVATION
 EDF .m                  36.60:  DF ELEVATION
 VSC .                       0:  VS TO CLOSURE
 MAGU.                 1849206:  MAGUTM CHECKSUM
~Parameter Information Block
#MNEM.UNIT       Value        Description
#---------     -----------    ---------------------------
 AV  .mps                 1.70:  Ann Velocity 
 AVMX.mps                 2.30:  Max Ann Veloc 
 AZIF.deg               137.03:  Azm, Final 
 BHAT.                   Other:  BHA Type 
 BROT.ฐ/30m               0.80:  Build Rotating 
 BS  .in                  8.00:  Bit Size 
 BTPL.psig              161.00:  Bit Press Loss 
 CABU.                      No:  Customer Abuse 
 COMM.                     ิงZ:  Run Comments 1 
 TCS .hr                  9.59:  Time Ciculation Ended 
 CV  .mps                 3.76:  Crit Velocity 
 CVMX.mps                 4.26:  Max Crit Veloc 
 DD1 .         Intigam Rahimov:  Direct Drillr 1 
 DD2 .          Rashad Gojayev:  Direct Drillr 2 
 DDSV.                   Other:  DD Service 
 DEFF.%                 100.00:  % Det Eff 
 DLRX.ฐ/30m               1.44:  Dogleg Rot Max 
 DLSO.ฐ/30m               0.00:  Dogleg Oriented 
 DLSX.ฐ/30m               0.00:  Dogleg Str Max 
 DRET.      03.31.12 02-Feb-20:  Drill End Time 
 DRST.      03.31.12 02-Feb-20:  Drill Start Tim 
 DTIM.hr                  1.99:  Time Drilling 
 EDEP.m                4047.51:  End Depth 
 ENG1.           Eldar Hajiyev:  Engineer 1 
 ENG2.          Rasim Hashimov:  Engineer 2 
 ENG3.          Rustam Safarov:  Engineer 3 
 ETIM.      03.31.12 02-Feb-20:  End Time 
 FLOI.gpm               300.00:  Flow In 
 FLON.gpm               250.00:  Flow In Min 
 FLOS.cptm                0.00:  Fluid Loss 
 FLOX.gpm               330.00:  Flow In Max 
 HFLO.                      No:  High Flow 
 HPRE.                      No:  High Pressure 
 HTEM.                      No:  High Temp 
 HYDO.m                   2.50:  Hydro Offset 
 IFIN.deg                39.54:  Inc, Final 
 IMAX.deg                41.14:  Inc Max 
 IMIN.deg                39.81:  Inc Min 
 IMND.m                4005.21:  Inc Min Depth 
 IMXD.m                3948.42:  Inc Max Depth 
 JARR.                      No:  Jarring 
 LETM.      03.31.12 02-Feb-20:  Log End Time 
 LOST.hr                     0:  Lost Rig Time 
 LSTM.      03.31.12 02-Feb-20:  Log Start Time 
 MDCL.ppm             35000.00:  Mud Chlorides 
 MDES.     Inversion Oil/Synthetic:  Mud Desc 
 DFD .sg                  1.32:  Mud Density 
 MDMN.sg                  1.32:  Dens Mud Min 
 MDMX.sg                  1.32:  Dens Mud Max 
 MOIL.                      59:  Run Mud Oil % 
 MOWR.                   71:29:  Run Mud OWR 
 MSND.                       0:  Run Mud Sand % 
 MSOL.                      17:  Run Mud Solids% 
 DFV .spqt               86.00:  Mud Viscosity 
 MWOD.in                  4.75:  MWD Tool OD 
 MWSI.                      No:  Serv Intrp, MWD 
 OTIM.hr                 46.72:  Time Operating 
 PCON.           Look Like New:  Pad Condition 
 PMAX.psia             3300.00:  Press Op, Max 
 PV  .cP                 30.00:  Mud PV 
 RUN .                     400:  Run Number 
 ROPA.m/hr               35.00:  ROP Avg 
 ROPN.m/hr               25.00:  ROP Min 
 ROPX.m/hr               40.00:  ROP Max 
 RPMA.rpm                80.00:  RPM Surface Avg 
 RPMN.rpm                60.00:  RPM Surface Min 
 RPMX.rpm               100.00:  RPM Surface Max 
 RRUN.                     400:  Rig Run Number 
 RTIM.hr                  1.99:  Time Reaming 
 SAZI.deg               133.93:  Azm, Start 
 SDEP.m                4047.51:  Start Depth 
 SIDD.                      No:  Serv Intrp, DD 
 SINC.deg                40.28:  Inc, Start 
 SPPA.psig             3250.00:  SPP Avg 
 SPPN.psig             3200.00:  SPP Min 
 SPPX.psig             3300.00:  SPP Max 
 STIM.      03.31.12 02-Feb-20:  Start Time 
 SVCS.                 DD, MWD:  Services 
 SVER.                    9.20:  Sperry Version 
 TDAT.m                  47.00:  Tot Depth Attmp 
 TDDF.                      No:  Trip for DD 
 TFF .                      No:  Trip for Fail 
 TQAA.f-kp                0.00:  Torque Abs Avg 
 TQAN.f-kp                0.00:  Torque Abs Min 
 TQAX.f-kp                0.00:  Torque Abs Max 
 TRRT.ฐ/30m               0.70:  Turn Rotating 
 MRT .                    HCIM:  Maximum Recorded Temperature 
 TTMX.degC               70.59:  Max Tool Temp 
 VS01.             90598770F11:  Virtual Str1 SN 
 VS02.             90598769F11:  Virtual Str2 SN 
 VS03.            90515978Z1W1:  Virtual Str3 SN 
 VS04.          90584144R12X14:  Virtual Str4 SN 
 WBMN.klb                 0.00:  WOB Min 
 WITN.            Peter Wilson:  Customer Rep 
 WOBA.klb                 0.00:  WOB Avg 
 WOBX.klb                 0.00:  WOB Max 
 YP  .lhf2               29.00:  Yield Point 
~Curve Information Block
#MNEM.UNIT                 API CODE     Curve Description
#---------               -----------    ---------------------------
 TIME.HHMMSS            00 000 000 000:  GT Time & Date
 GTDEPTH.m              00 000 000 000:  GT Depth
 GTPQH.psia             00 000 000 000:  GT HR Quartz Pressure
 GTTQ.degC              00 000 000 000:  GT Quartz Temperature
 GTTN.NONE              00 000 000 000:  GT Test Number
 GTET.sec               00 000 000 000:  GT Elapsed Test Time
 GTTVD.m                00 000 000 000:  GT True Vertical Depth
#Other Information
#
#WARRANTY: Halliburton will use its best efforts to furnish customers with 
#accurate information and interpretations that are part of, and incident to, the services 
#provided.  However, Halliburton cannot and does not warrant the accuracy 
#or correctness of such information and interpretations.  Under no circumstances should any 
#such information or interpretation be relied upon as the sole basis for any drilling, 
#completion, production, or financial decision or any procedure involving any risk to the 
#safety of any drilling venture, drilling rig or its crew or any other third party.  The 
#Customer has full responsibility for all drilling, completion and production operation.  
#Halliburton makes no representations or warranties, either expressed or 
#implied, including, but not limited to, the implied warranties of merchantability or fitness 
#for a particular purpose, with respect to the services rendered.  In no event will 
#Halliburton be liable for failure to obtain any particular results or for 
#any damages, including, but not limited to, indirect, special or consequential damages, 
#resulting from the use of any information or interpretation provided by Halliburton.
#
~A           TIME           GTDEPTH  GTPQH  GTTQ  GTTN   GTET   GTTVD  
# ...
   08:10:08.244.03-Feb-2020 4023.01 3158.01 65.74 10.00 158.20 3030.56
   08:10:08.444.03-Feb-2020 4023.01 3158.18 65.74 10.00 158.40 3030.56
   08:10:08.644.03-Feb-2020 4023.01 3157.41 65.74 10.00 158.60 3030.56
   08:10:08.844.03-Feb-2020 4023.01 3155.25 65.74 10.00 158.80 3030.56
   08:10:09.044.03-Feb-2020 4023.01 3154.10 65.74 10.00 159.00 3030.56
   08:10:09.244.03-Feb-2020 4023.01 3154.10 65.74 10.00 159.20 3030.56
   08:10:09.444.03-Feb-2020 4023.01 3152.67 65.74 10.00 159.40 3030.56
   08:10:09.644.03-Feb-2020 4023.01 3151.95 65.74 10.00 159.60 3030.56
   08:10:09.844.03-Feb-2020 4023.01 3152.14 65.74 10.00 159.80 3030.56
   08:10:10.044.03-Feb-2020 4023.01 3152.21 65.74 10.00 160.00 3030.56
   08:10:10.244.03-Feb-2020 4023.01 3152.21 65.74 10.00 160.20 3030.56
   08:10:10.444.03-Feb-2020 4023.01 3152.80 65.74 10.00 160.40 3030.56
   08:10:10.644.03-Feb-2020 4023.01 3152.93 65.74 10.00 160.60 3030.56
   08:10:10.844.03-Feb-2020 4023.01 3152.72 65.74 10.00 160.80 3030.56
   08:10:11.044.03-Feb-2020 4023.01 3153.33 65.74 10.00 161.00 3030.56
   08:10:11.244.03-Feb-2020 4023.01 3153.33 65.74 10.00 161.20 3030.56
   08:10:11.444.03-Feb-2020 4023.01 3153.51 65.74 10.00 161.40 3030.56
   08:10:11.644.03-Feb-2020 4023.01 3143.37 65.74 10.00 161.60 3030.56
   08:10:11.844.03-Feb-2020 4023.01 2872.06 65.74 10.00 161.80 3030.56
   08:10:12.044.03-Feb-2020 4023.01 2455.40 65.74 10.00 162.00 3030.56
   08:10:12.244.03-Feb-2020 4023.01 2455.40 65.74 10.00 162.20 3030.56
   08:10:12.444.03-Feb-2020 4023.01 1797.62 65.74 10.00 162.40 3030.56
   08:10:12.644.03-Feb-2020 4023.01 1514.76 65.74 10.00 162.60 3030.56
   08:10:12.844.03-Feb-2020 4023.01 1318.03 65.74 10.00 162.80 3030.56
   08:10:13.044.03-Feb-2020 4023.01 1174.10 65.74 10.00 163.00 3030.56
   08:10:13.244.03-Feb-2020 4023.01 1174.10 65.74 10.00 163.20 3030.56
   08:10:13.444.03-Feb-2020 4023.01  976.43 65.73 10.00 163.40 3030.56
   08:10:13.644.03-Feb-2020 4023.01  919.84 65.73 10.00 163.60 3030.56
   08:10:13.844.03-Feb-2020 4023.01  880.33 65.73 10.00 163.80 3030.56
   08:10:14.044.03-Feb-2020 4023.01  836.65 65.73 10.00 164.00 3030.56
   08:10:14.244.03-Feb-2020 4023.01  836.65 65.73 10.00 164.20 3030.56
   08:10:14.444.03-Feb-2020 4023.01  700.43 65.73 10.00 164.40 3030.56
   08:10:14.644.03-Feb-2020 4023.01  627.46 65.73 10.00 164.60 3030.56
   08:10:14.844.03-Feb-2020 4023.01  562.82 65.73 10.00 164.80 3030.56
   08:10:15.044.03-Feb-2020 4023.01  506.54 65.73 10.00 165.00 3030.56
   08:10:15.244.03-Feb-2020 4023.01  506.54 65.73 10.00 165.20 3030.56
   08:10:15.444.03-Feb-2020 4023.01  405.30 65.73 10.00 165.40 3030.56
   08:10:15.644.03-Feb-2020 4023.01  360.64 65.73 10.00 165.60 3030.56
   08:10:15.844.03-Feb-2020 4023.01  338.51 65.73 10.00 165.80 3030.56
   08:10:16.044.03-Feb-2020 4023.01  333.38 65.73 10.00 166.00 3030.56
   08:10:16.244.03-Feb-2020 4023.01  333.38 65.73 10.00 166.20 3030.56
   08:10:16.444.03-Feb-2020 4023.01  332.92 65.72 10.00 166.40 3030.56
   08:10:16.644.03-Feb-2020 4023.01  326.66 65.72 10.00 166.60 3030.56
   08:10:16.844.03-Feb-2020 4023.01  332.92 65.72 10.00 166.80 3030.56
   08:10:17.044.03-Feb-2020 4023.01  330.22 65.72 10.00 167.00 3030.56
   08:10:17.244.03-Feb-2020 4023.01  330.22 65.72 10.00 167.20 3030.56
   08:10:17.444.03-Feb-2020 4023.01  324.37 65.72 10.00 167.40 3030.56
   08:10:17.644.03-Feb-2020 4023.01  325.18 65.72 10.00 167.60 3030.56
   08:10:17.844.03-Feb-2020 4023.01  326.58 65.72 10.00 167.80 3030.56
   08:10:18.044.03-Feb-2020 4023.01  327.49 65.72 10.00 168.00 3030.56
   08:10:18.244.03-Feb-2020 4023.01  327.49 65.72 10.00 168.20 3030.56
   08:10:18.444.03-Feb-2020 4023.01  329.37 65.71 10.00 168.40 3030.56
   08:10:18.644.03-Feb-2020 4023.01  330.16 65.71 10.00 168.60 3030.56
   08:10:18.844.03-Feb-2020 4023.01  329.82 65.71 10.00 168.80 3030.56
   08:10:19.044.03-Feb-2020 4023.01  322.46 65.71 10.00 169.00 3030.56
   08:10:19.244.03-Feb-2020 4023.01  322.46 65.71 10.00 169.20 3030.56
   08:10:19.444.03-Feb-2020 4023.01  323.12 65.71 10.00 169.40 3030.56
   08:10:19.644.03-Feb-2020 4023.01  321.57 65.71 10.00 169.60 3030.56
   08:10:19.844.03-Feb-2020 4023.01  320.07 65.71 10.00 169.80 3030.56
   08:10:20.044.03-Feb-2020 4023.01  319.65 65.71 10.00 170.00 3030.56
   08:10:20.244.03-Feb-2020 4023.01  319.65 65.70 10.00 170.20 3030.56
   08:10:20.444.03-Feb-2020 4023.01  309.37 65.70 10.00 170.40 3030.56
   08:10:20.644.03-Feb-2020 4023.01  313.20 65.70 10.00 170.60 3030.56
   08:10:20.844.03-Feb-2020 4023.01  315.32 65.70 10.00 170.80 3030.56
   08:10:21.044.03-Feb-2020 4023.01  317.69 65.70 10.00 171.00 3030.56
   08:10:21.244.03-Feb-2020 4023.01  319.46 65.70 10.00 171.20 3030.56
   08:10:21.444.03-Feb-2020 4023.01  322.73 65.70 10.00 171.40 3030.56
   08:10:21.644.03-Feb-2020 4023.01  322.79 65.70 10.00 171.60 3030.56
   08:10:21.845.03-Feb-2020 4023.01  333.23 65.70 10.00 171.80 3030.56
   08:10:22.045.03-Feb-2020 4023.01  435.29 65.70 10.00 172.00 3030.56
   08:10:22.245.03-Feb-2020 4023.01  435.29 65.70 10.00 172.20 3030.56
   08:10:22.445.03-Feb-2020 4023.01  687.71 65.70 10.00 172.40 3030.56
   08:10:22.645.03-Feb-2020 4023.01  809.50 65.69 10.00 172.60 3030.56
   08:10:22.845.03-Feb-2020 4023.01  927.08 65.69 10.00 172.80 3030.56
   08:10:23.045.03-Feb-2020 4023.01 1040.14 65.69 10.00 173.00 3030.56
   08:10:23.245.03-Feb-2020 4023.01 1040.14 65.69 10.00 173.20 3030.56
   08:10:23.445.03-Feb-2020 4023.01 1252.55 65.69 10.00 173.40 3030.56
   08:10:23.645.03-Feb-2020 4023.01 1350.63 65.69 10.00 173.60 3030.56
   08:10:23.845.03-Feb-2020 4023.01 1445.21 65.69 10.00 173.80 3030.56
   08:10:24.045.03-Feb-2020 4023.01 1534.42 65.69 10.00 174.00 3030.56
   08:10:24.245.03-Feb-2020 4023.01 1534.42 65.69 10.00 174.20 3030.56
   08:10:24.445.03-Feb-2020 4023.01 1700.09 65.69 10.00 174.40 3030.56
   08:10:24.645.03-Feb-2020 4023.01 1776.52 65.69 10.00 174.60 3030.56
   08:10:24.845.03-Feb-2020 4023.01 1849.03 65.69 10.00 174.80 3030.56
   08:10:25.045.03-Feb-2020 4023.01 1917.66 65.69 10.00 175.00 3030.56
   08:10:25.245.03-Feb-2020 4023.01 1917.66 65.69 10.00 175.20 3030.56
   08:10:25.445.03-Feb-2020 4023.01 2044.00 65.69 10.00 175.40 3030.56
   08:10:25.645.03-Feb-2020 4023.01 2102.19 65.69 10.00 175.60 3030.56
   08:10:25.845.03-Feb-2020 4023.01 2157.26 65.69 10.00 175.80 3030.56
   08:10:26.045.03-Feb-2020 4023.01 2208.76 65.69 10.00 176.00 3030.56
   08:10:26.245.03-Feb-2020 4023.01 2208.76 65.69 10.00 176.20 3030.56
   08:10:26.445.03-Feb-2020 4023.01 2305.05 65.69 10.00 176.40 3030.56
   08:10:26.645.03-Feb-2020 4023.01 2349.80 65.69 10.00 176.60 3030.56
   08:10:26.845.03-Feb-2020 4023.01 2391.64 65.69 10.00 176.80 3030.56
   08:10:27.045.03-Feb-2020 4023.01 2431.33 65.69 10.00 177.00 3030.56
   08:10:27.245.03-Feb-2020 4023.01 2431.33 65.69 10.00 177.20 3030.56
   08:10:27.445.03-Feb-2020 4023.01 2504.25 65.69 10.00 177.40 3030.56
   08:10:27.645.03-Feb-2020 4023.01 2536.83 65.69 10.00 177.60 3030.56
   08:10:27.845.03-Feb-2020 4023.01 2569.31 65.69 10.00 177.80 3030.56
   08:10:28.045.03-Feb-2020 4023.01 2598.67 65.69 10.00 178.00 3030.56
   08:10:28.245.03-Feb-2020 4023.01 2598.67 65.69 10.00 178.20 3030.56
   08:10:28.445.03-Feb-2020 4023.01 2654.50 65.69 10.00 178.40 3030.56
   08:10:28.645.03-Feb-2020 4023.01 2679.70 65.69 10.00 178.60 3030.56
   08:10:28.845.03-Feb-2020 4023.01 2704.22 65.69 10.00 178.80 3030.56
   08:10:29.045.03-Feb-2020 4023.01 2725.85 65.69 10.00 179.00 3030.56
   08:10:29.245.03-Feb-2020 4023.01 2725.85 65.69 10.00 179.20 3030.56
   08:10:29.445.03-Feb-2020 4023.01 2768.20 65.69 10.00 179.40 3030.56
   08:10:29.645.03-Feb-2020 4023.01 2788.26 65.69 10.00 179.60 3030.56
   08:10:29.845.03-Feb-2020 4023.01 2806.21 65.69 10.00 179.80 3030.56
   08:10:30.045.03-Feb-2020 4023.01 2823.71 65.69 10.00 180.00 3030.56
   08:10:30.245.03-Feb-2020 4023.01 2823.71 65.69 10.00 180.20 3030.56
   08:10:30.445.03-Feb-2020 4023.01 2855.19 65.69 10.00 180.40 3030.56
   08:10:30.645.03-Feb-2020 4023.01 2870.00 65.69 10.00 180.61 3030.56
