~Version Information
 VERS.                  2.0:   CWLS log ASCII Standard -VERSION 2.0
 WRAP.                   NO:   One line per depth step
~Well Information Block
#MNEM.UNIT     VALUE/NAME     DESCRIPTION
#---------     -----------    ---------------------------
 STRT.S             06:17:54 03-Feb-20: START TIME 06:17:54 03-Feb-20
 STOP.S             06:25:43 03-Feb-20: STOP TIME  06:25:43 03-Feb-20
 STEP.S                   0.00: STEP TIME
 NULL.                 -999.25: NULL VALUE
 DFWT.                        :  DIST FWL TEXT
 DFST.                        :  DIST FSL TEXT
 DMF .             Drill Floor:  DRILL MEAS FROM
 STIM.      09.30.00 26-Dec-19:  START TIME
 DATE.      08.00.00 20-Jan-20:  END TIME
 SPUD.               23-Nov-19:  SPUD DATE
 NREF.                    Grid:  NORTH REFERENCE
 HPTY.       Minimum Curvature:  HOLE POS TYPE
 DMOD.             Drill Model:  DRILL MOD DESC
 SVYD.                  Survey:  SURVEY DESC
 ILTD.               Lithology:  INTERP LTH DESC
 FTOP.          Formation Tops:  FORM TOPS DESC
 SON .        AZ-XX-0906192647:  JOB NUMBER
 WTYP.                Deviated:  WELL TYPE
 COMP.     BP Exploration (Caspian Sea) Ltd:  COMPANY
 BASE.              Azerbaijan:  LOGGING EQUIPMENT BASE LOCATION
 REGN.                 Eurasia:  REGION
 FLD .                     ACG:  FIELD NAME
 SRVC.              KCA Deutag:  CONTRACTOR
 MWDS.                    Baku:  MWD SHOP
 WELL.     A10 (Slot 20) - SCP:  WELL NAME
 JOBN.        AZ-XX-0906192647:  JOB TICKET NUMB
 RIG .                 Chirag1:  RIG NAME
 DCON.     Halliburton Sperry Drilling:  DIRECTNL CONTR
 UNIT.                     N/A:  LOGGING EQUIPMENT ID
 PDAT.          Mean Sea Level:  PERMANENT DATUM
 MDS .        Operator Entered:  MAG DATA SOURCE
 CTRY.              Azerbaijan:  COUNTRY NAME
 UWI .            /AZE00000090:  UNIQUE WELL IDENTIFIER
 API .            /AZE00000090:  API NUMBER
 CNTY.                        :  COUNTY
 PROV.                        :  PROVINCE
 STAT.                        :  STATE
 LOC .                        :  LOCATION
 LMF .             Drill Floor:  LOG MEASURED FROM
 TVDS.m                  36.60:  TVDSS CORRECTN
 LATI.deg                40.08:  LATITUDE
 LONG.deg                51.24:  LONGITUDE
 WHNS.m                  -7.94:  WELL HEAD N/S
 WHEW.m                   1.56:  WELL HEAD E/W
 UTMX.m              520429.26:  UTM X
 UTMY.m             4438973.87:  UTM Y
 DFWL.m                   0.00:  DISTANCE FWL
 DFSL.m                   0.00:  DISTANCE FSL
 SDEP.m                1455.00:  START DEPTH
 TDD .m                4047.51:  TOTAL DEPTH (DRILLER)
 VSDR.deg               112.75:  VERT SEC DIRECT
 GVFD.g                   1.00:  GRAVITY FIELD
 MFLD.nT              50261.00:  MAGNETIC FIELD
 MDIP.deg                59.52:  MAGNETIC DIP
 MDEC.deg                 6.42:  MAGNETIC DECL
 GRDC.deg                 0.17:  GRID CORRECTION
 AZTC.deg                 6.25:  AZM TOTAL CORR
 EPD .m                   0.00:  ELEVATION
 EGL .m                   0.00:  GROUND ELEVATION
 WDMS.m                 121.00:  WD ELEV
 APD .m                  36.60:  DEPTH ABOVE PD
 AGAP.m                  36.60:  AIR GAP
 VSEW.m                   1.56:  VERT SEC E/W
 VSNS.m                  -7.94:  VERT SEC N/S
 DEP .m                1140.01:  DEPTH
 EKB .m                  36.60:  KB ELEVATION
 EDF .m                  36.60:  DF ELEVATION
 VSC .                       0:  VS TO CLOSURE
 MAGU.                 1849206:  MAGUTM CHECKSUM
~Parameter Information Block
#MNEM.UNIT       Value        Description
#---------     -----------    ---------------------------
 AV  .mps                 1.70:  Ann Velocity 
 AVMX.mps                 2.30:  Max Ann Veloc 
 AZIF.deg               137.03:  Azm, Final 
 BHAT.                   Other:  BHA Type 
 BROT.°/30m               0.80:  Build Rotating 
 BS  .in                  8.00:  Bit Size 
 BTPL.psig              161.00:  Bit Press Loss 
 CABU.                      No:  Customer Abuse 
 COMM.                     4•z:  Run Comments 1 
 TCS .hr                  9.59:  Time Ciculation Ended 
 CV  .mps                 3.76:  Crit Velocity 
 CVMX.mps                 4.26:  Max Crit Veloc 
 DD1 .         Intigam Rahimov:  Direct Drillr 1 
 DD2 .          Rashad Gojayev:  Direct Drillr 2 
 DDSV.                   Other:  DD Service 
 DEFF.%                 100.00:  % Det Eff 
 DLRX.°/30m               1.44:  Dogleg Rot Max 
 DLSO.°/30m               0.00:  Dogleg Oriented 
 DLSX.°/30m               0.00:  Dogleg Str Max 
 DRET.      03.31.12 02-Feb-20:  Drill End Time 
 DRST.      03.31.12 02-Feb-20:  Drill Start Tim 
 DTIM.hr                  1.99:  Time Drilling 
 EDEP.m                4047.51:  End Depth 
 ENG1.           Eldar Hajiyev:  Engineer 1 
 ENG2.          Rasim Hashimov:  Engineer 2 
 ENG3.          Rustam Safarov:  Engineer 3 
 ETIM.      03.31.12 02-Feb-20:  End Time 
 FLOI.gpm               300.00:  Flow In 
 FLON.gpm               250.00:  Flow In Min 
 FLOS.cptm                0.00:  Fluid Loss 
 FLOX.gpm               330.00:  Flow In Max 
 HFLO.                      No:  High Flow 
 HPRE.                      No:  High Pressure 
 HTEM.                      No:  High Temp 
 HYDO.m                   2.50:  Hydro Offset 
 IFIN.deg                39.54:  Inc, Final 
 IMAX.deg                41.14:  Inc Max 
 IMIN.deg                39.81:  Inc Min 
 IMND.m                4005.21:  Inc Min Depth 
 IMXD.m                3948.42:  Inc Max Depth 
 JARR.                      No:  Jarring 
 LETM.      03.31.12 02-Feb-20:  Log End Time 
 LOST.hr                     0:  Lost Rig Time 
 LSTM.      03.31.12 02-Feb-20:  Log Start Time 
 MDCL.ppm             35000.00:  Mud Chlorides 
 MDES.     Inversion Oil/Synthetic:  Mud Desc 
 DFD .sg                  1.32:  Mud Density 
 MDMN.sg                  1.32:  Dens Mud Min 
 MDMX.sg                  1.32:  Dens Mud Max 
 MOIL.                      59:  Run Mud Oil % 
 MOWR.                   71:29:  Run Mud OWR 
 MSND.                       0:  Run Mud Sand % 
 MSOL.                      17:  Run Mud Solids% 
 DFV .spqt               86.00:  Mud Viscosity 
 MWOD.in                  4.75:  MWD Tool OD 
 MWSI.                      No:  Serv Intrp, MWD 
 OTIM.hr                 46.72:  Time Operating 
 PCON.           Look Like New:  Pad Condition 
 PMAX.psia             3300.00:  Press Op, Max 
 PV  .cP                 30.00:  Mud PV 
 RUN .                     400:  Run Number 
 ROPA.m/hr               35.00:  ROP Avg 
 ROPN.m/hr               25.00:  ROP Min 
 ROPX.m/hr               40.00:  ROP Max 
 RPMA.rpm                80.00:  RPM Surface Avg 
 RPMN.rpm                60.00:  RPM Surface Min 
 RPMX.rpm               100.00:  RPM Surface Max 
 RRUN.                     400:  Rig Run Number 
 RTIM.hr                  1.99:  Time Reaming 
 SAZI.deg               133.93:  Azm, Start 
 SDEP.m                4047.51:  Start Depth 
 SIDD.                      No:  Serv Intrp, DD 
 SINC.deg                40.28:  Inc, Start 
 SPPA.psig             3250.00:  SPP Avg 
 SPPN.psig             3200.00:  SPP Min 
 SPPX.psig             3300.00:  SPP Max 
 STIM.      03.31.12 02-Feb-20:  Start Time 
 SVCS.                 DD, MWD:  Services 
 SVER.                    9.20:  Sperry Version 
 TDAT.m                  47.00:  Tot Depth Attmp 
 TDDF.                      No:  Trip for DD 
 TFF .                      No:  Trip for Fail 
 TQAA.f-kp                0.00:  Torque Abs Avg 
 TQAN.f-kp                0.00:  Torque Abs Min 
 TQAX.f-kp                0.00:  Torque Abs Max 
 TRRT.°/30m               0.70:  Turn Rotating 
 MRT .                    HCIM:  Maximum Recorded Temperature 
 TTMX.degC               70.59:  Max Tool Temp 
 VS01.             90598770F11:  Virtual Str1 SN 
 VS02.             90598769F11:  Virtual Str2 SN 
 VS03.            90515978Z1W1:  Virtual Str3 SN 
 VS04.          90584144R12X14:  Virtual Str4 SN 
 WBMN.klb                 0.00:  WOB Min 
 WITN.            Peter Wilson:  Customer Rep 
 WOBA.klb                 0.00:  WOB Avg 
 WOBX.klb                 0.00:  WOB Max 
 YP  .lhf2               29.00:  Yield Point 
~Curve Information Block
#MNEM.UNIT                 API CODE     Curve Description
#---------               -----------    ---------------------------
 TIME.HHMMSS            00 000 000 000:  GT Time & Date
 GTDEPTH.m              00 000 000 000:  GT Depth
 GTPQH.psia             00 000 000 000:  GT HR Quartz Pressure
 GTTQ.degC              00 000 000 000:  GT Quartz Temperature
 GTTN.NONE              00 000 000 000:  GT Test Number
 GTET.sec               00 000 000 000:  GT Elapsed Test Time
 GTTVD.m                00 000 000 000:  GT True Vertical Depth
#Other Information
#
#WARRANTY: Halliburton will use its best efforts to furnish customers with 
#accurate information and interpretations that are part of, and incident to, the services 
#provided.  However, Halliburton cannot and does not warrant the accuracy 
#or correctness of such information and interpretations.  Under no circumstances should any 
#such information or interpretation be relied upon as the sole basis for any drilling, 
#completion, production, or financial decision or any procedure involving any risk to the 
#safety of any drilling venture, drilling rig or its crew or any other third party.  The 
#Customer has full responsibility for all drilling, completion and production operation.  
#Halliburton makes no representations or warranties, either expressed or 
#implied, including, but not limited to, the implied warranties of merchantability or fitness 
#for a particular purpose, with respect to the services rendered.  In no event will 
#Halliburton be liable for failure to obtain any particular results or for 
#any damages, including, but not limited to, indirect, special or consequential damages, 
#resulting from the use of any information or interpretation provided by Halliburton.
#
~A           TIME           GTDEPTH  GTPQH  GTTQ  GTTN  GTET   GTTVD  
   06:17:54.000.03-Feb-2020 4005.51 6052.16 65.25 7.00   0.00 3017.14
   06:17:54.200.03-Feb-2020 4005.51 6052.16 65.25 7.00   0.20 3017.14
   06:17:54.400.03-Feb-2020 4005.51 6048.05 65.25 7.00   0.40 3017.14
   06:17:54.600.03-Feb-2020 4005.51 6046.32 65.25 7.00   0.60 3017.14
   06:17:54.800.03-Feb-2020 4005.51 6044.33 65.25 7.00   0.80 3017.14
   06:17:55.000.03-Feb-2020 4005.51 6035.64 65.24 7.00   1.00 3017.14
   06:17:55.200.03-Feb-2020 4005.51 6035.64 65.24 7.00   1.20 3017.14
   06:17:55.400.03-Feb-2020 4005.51 6039.80 65.24 7.00   1.40 3017.14
   06:17:55.600.03-Feb-2020 4005.51 6045.06 65.24 7.00   1.60 3017.14
   06:17:55.800.03-Feb-2020 4005.51 6043.75 65.24 7.00   1.80 3017.14
   06:17:56.000.03-Feb-2020 4005.51 6043.86 65.24 7.00   2.00 3017.14
   06:17:56.200.03-Feb-2020 4005.51 6043.86 65.24 7.00   2.20 3017.14
   06:17:56.400.03-Feb-2020 4005.51 6044.38 65.24 7.00   2.40 3017.14
   06:17:56.600.03-Feb-2020 4005.51 6045.58 65.24 7.00   2.60 3017.14
   06:17:56.800.03-Feb-2020 4005.51 6047.77 65.24 7.00   2.80 3017.14
   06:17:57.000.03-Feb-2020 4005.51 6048.88 65.24 7.00   3.00 3017.14
   06:17:57.200.03-Feb-2020 4005.51 6048.88 65.24 7.00   3.20 3017.14
   06:17:57.400.03-Feb-2020 4005.51 6051.76 65.24 7.00   3.40 3017.14
   06:17:57.600.03-Feb-2020 4005.51 6046.44 65.24 7.00   3.60 3017.14
   06:17:57.800.03-Feb-2020 4005.51 6046.95 65.24 7.00   3.80 3017.14
   06:17:58.000.03-Feb-2020 4005.51 6050.40 65.24 7.00   4.00 3017.14
   06:17:58.200.03-Feb-2020 4005.51 6050.40 65.24 7.00   4.20 3017.14
   06:17:58.400.03-Feb-2020 4005.51 6049.05 65.24 7.00   4.40 3017.14
   06:17:58.600.03-Feb-2020 4005.51 6051.24 65.24 7.00   4.60 3017.14
   06:17:58.800.03-Feb-2020 4005.51 6048.79 65.24 7.00   4.80 3017.14
   06:17:59.000.03-Feb-2020 4005.51 6053.49 65.24 7.00   5.00 3017.14
   06:17:59.200.03-Feb-2020 4005.51 6053.49 65.24 7.00   5.20 3017.14
   06:17:59.400.03-Feb-2020 4005.51 6050.19 65.24 7.00   5.40 3017.14
   06:17:59.600.03-Feb-2020 4005.51 6049.12 65.24 7.00   5.60 3017.14
   06:17:59.800.03-Feb-2020 4005.51 6051.75 65.24 7.00   5.80 3017.14
   06:18:00.000.03-Feb-2020 4005.51 6049.72 65.24 7.00   6.00 3017.14
   06:18:00.200.03-Feb-2020 4005.51 6049.72 65.24 7.00   6.20 3017.14
   06:18:00.400.03-Feb-2020 4005.51 6046.89 65.24 7.00   6.40 3017.14
   06:18:00.600.03-Feb-2020 4005.51 6048.09 65.24 7.00   6.60 3017.14
   06:18:00.800.03-Feb-2020 4005.51 6040.11 65.24 7.00   6.80 3017.14
   06:18:01.000.03-Feb-2020 4005.51 6047.42 65.24 7.00   7.00 3017.14
   06:18:01.200.03-Feb-2020 4005.51 6047.42 65.24 7.00   7.20 3017.14
   06:18:01.400.03-Feb-2020 4005.51 6042.69 65.24 7.00   7.40 3017.14
   06:18:01.600.03-Feb-2020 4005.51 6047.27 65.24 7.00   7.60 3017.14
   06:18:01.800.03-Feb-2020 4005.51 6037.71 65.24 7.00   7.80 3017.14
   06:18:02.000.03-Feb-2020 4005.51 6045.73 65.24 7.00   8.00 3017.14
   06:18:02.200.03-Feb-2020 4005.51 6045.73 65.24 7.00   8.20 3017.14
   06:18:02.400.03-Feb-2020 4005.51 6049.20 65.23 7.00   8.40 3017.14
   06:18:02.600.03-Feb-2020 4005.51 6048.58 65.23 7.00   8.60 3017.14
   06:18:02.800.03-Feb-2020 4005.51 6040.62 65.23 7.00   8.80 3017.14
   06:18:03.000.03-Feb-2020 4005.51 6047.86 65.23 7.00   9.00 3017.14
   06:18:03.200.03-Feb-2020 4005.51 6047.86 65.23 7.00   9.20 3017.14
   06:18:03.400.03-Feb-2020 4005.51 6051.44 65.23 7.00   9.40 3017.14
   06:18:03.600.03-Feb-2020 4005.51 6050.50 65.23 7.00   9.60 3017.14
   06:18:03.800.03-Feb-2020 4005.51 6054.25 65.23 7.00   9.80 3017.14
   06:18:04.000.03-Feb-2020 4005.51 6048.38 65.23 7.00  10.00 3017.14
   06:18:04.200.03-Feb-2020 4005.51 6048.38 65.23 7.00  10.20 3017.14
   06:18:04.400.03-Feb-2020 4005.51 6049.51 65.23 7.00  10.40 3017.14
   06:18:04.600.03-Feb-2020 4005.51 6052.05 65.23 7.00  10.60 3017.14
   06:18:04.800.03-Feb-2020 4005.51 6055.64 65.23 7.00  10.80 3017.14
   06:18:05.000.03-Feb-2020 4005.51 6056.06 65.23 7.00  11.00 3017.14
   06:18:05.200.03-Feb-2020 4005.51 6056.06 65.23 7.00  11.20 3017.14
   06:18:05.400.03-Feb-2020 4005.51 6054.26 65.23 7.00  11.40 3017.14
   06:18:05.600.03-Feb-2020 4005.51 6053.26 65.23 7.00  11.60 3017.14
   06:18:05.800.03-Feb-2020 4005.51 6055.73 65.23 7.00  11.80 3017.14
   06:18:06.000.03-Feb-2020 4005.51 6056.02 65.23 7.00  12.00 3017.14
   06:18:06.200.03-Feb-2020 4005.51 6056.02 65.23 7.00  12.20 3017.14
   06:18:06.400.03-Feb-2020 4005.51 6055.09 65.23 7.00  12.40 3017.14
   06:18:06.600.03-Feb-2020 4005.51 6055.14 65.23 7.00  12.60 3017.14
   06:18:06.800.03-Feb-2020 4005.51 6053.39 65.23 7.00  12.80 3017.14
   06:18:07.000.03-Feb-2020 4005.51 6054.73 65.23 7.00  13.00 3017.14
   06:18:07.200.03-Feb-2020 4005.51 6054.73 65.23 7.00  13.20 3017.14
   06:18:07.400.03-Feb-2020 4005.51 6047.04 65.23 7.00  13.40 3017.14
   06:18:07.600.03-Feb-2020 4005.51 6051.88 65.23 7.00  13.60 3017.14
   06:18:07.800.03-Feb-2020 4005.51 6052.52 65.23 7.00  13.80 3017.14
   06:18:08.000.03-Feb-2020 4005.51 6053.53 65.23 7.00  14.00 3017.14
   06:18:08.200.03-Feb-2020 4005.51 6053.53 65.23 7.00  14.20 3017.14
   06:18:08.400.03-Feb-2020 4005.51 6053.53 65.23 7.00  14.40 3017.14
   06:18:08.600.03-Feb-2020 4005.51 6053.10 65.23 7.00  14.60 3017.14
   06:18:08.800.03-Feb-2020 4005.51 6053.95 65.23 7.00  14.80 3017.14
   06:18:09.000.03-Feb-2020 4005.51 6054.94 65.23 7.00  15.00 3017.14
   06:18:09.200.03-Feb-2020 4005.51 6054.94 65.23 7.00  15.20 3017.14
   06:18:09.400.03-Feb-2020 4005.51 6055.21 65.23 7.00  15.40 3017.14
   06:18:09.600.03-Feb-2020 4005.51 6054.72 65.23 7.00  15.60 3017.14
   06:18:09.800.03-Feb-2020 4005.51 6055.03 65.22 7.00  15.80 3017.14
   06:18:10.000.03-Feb-2020 4005.51 6055.64 65.22 7.00  16.00 3017.14
   06:18:10.200.03-Feb-2020 4005.51 6055.64 65.22 7.00  16.20 3017.14
   06:18:10.400.03-Feb-2020 4005.51 6057.87 65.22 7.00  16.40 3017.14
   06:18:10.600.03-Feb-2020 4005.51 6057.34 65.22 7.00  16.60 3017.14
   06:18:10.800.03-Feb-2020 4005.51 6058.35 65.22 7.00  16.80 3017.14
   06:18:11.000.03-Feb-2020 4005.51 6102.50 65.22 7.00  17.00 3017.14
   06:18:11.200.03-Feb-2020 4005.51 6102.50 65.22 7.00  17.20 3017.14
   06:18:11.400.03-Feb-2020 4005.51 6110.04 65.22 7.00  17.40 3017.14
   06:18:11.600.03-Feb-2020 4005.51 6114.39 65.22 7.00  17.60 3017.14
   06:18:11.800.03-Feb-2020 4005.51 6127.22 65.22 7.00  17.80 3017.14
   06:18:12.000.03-Feb-2020 4005.51 6137.15 65.22 7.00  18.00 3017.14
   06:18:12.200.03-Feb-2020 4005.51 6137.15 65.22 7.00  18.20 3017.14
   06:18:12.400.03-Feb-2020 4005.51 6202.36 65.22 7.00  18.40 3017.14
   06:18:12.600.03-Feb-2020 4005.51 6272.24 65.22 7.00  18.60 3017.14
   06:18:12.800.03-Feb-2020 4005.51 6314.15 65.22 7.00  18.80 3017.14
   06:18:13.000.03-Feb-2020 4005.51 6335.76 65.22 7.00  19.00 3017.14
   06:18:13.200.03-Feb-2020 4005.51 6335.76 65.22 7.00  19.20 3017.14
   06:18:13.400.03-Feb-2020 4005.51 6367.77 65.22 7.00  19.40 3017.14
   06:18:13.600.03-Feb-2020 4005.51 6394.81 65.22 7.00  19.60 3017.14
   06:18:13.800.03-Feb-2020 4005.51 6399.19 65.22 7.00  19.80 3017.14
   06:18:14.000.03-Feb-2020 4005.51 6408.54 65.22 7.00  20.00 3017.14
   06:18:14.200.03-Feb-2020 4005.51 6408.54 65.22 7.00  20.20 3017.14
   06:18:14.400.03-Feb-2020 4005.51 6414.88 65.22 7.00  20.40 3017.14
   06:18:14.600.03-Feb-2020 4005.51 6432.74 65.22 7.00  20.60 3017.14
   06:18:14.800.03-Feb-2020 4005.51 6446.91 65.22 7.00  20.80 3017.14
   06:18:15.000.03-Feb-2020 4005.51 6424.01 65.22 7.00  21.00 3017.14
   06:18:15.200.03-Feb-2020 4005.51 6424.01 65.22 7.00  21.20 3017.14
   06:18:15.400.03-Feb-2020 4005.51 6425.90 65.22 7.00  21.40 3017.14
   06:18:15.600.03-Feb-2020 4005.51 6428.61 65.22 7.00  21.60 3017.14
   06:18:15.800.03-Feb-2020 4005.51 6430.54 65.22 7.00  21.80 3017.14
   06:18:16.000.03-Feb-2020 4005.51 6446.36 65.22 7.00  22.00 3017.14
   06:18:16.200.03-Feb-2020 4005.51 6446.36 65.22 7.00  22.20 3017.14
   06:18:16.400.03-Feb-2020 4005.51 6478.63 65.22 7.00  22.40 3017.14
   06:18:16.600.03-Feb-2020 4005.51 6495.80 65.22 7.00  22.60 3017.14
   06:18:16.800.03-Feb-2020 4005.51 6514.41 65.22 7.00  22.80 3017.14
