~Version Information
 VERS.                  2.0:   CWLS log ASCII Standard -VERSION 2.0
 WRAP.                   NO:   One line per depth step
~Well Information Block
#MNEM.UNIT     VALUE/NAME     DESCRIPTION
#---------     -----------    ---------------------------
 STRT.S             06:17:54 03-Feb-20: START TIME 06:17:54 03-Feb-20
 STOP.S             06:25:43 03-Feb-20: STOP TIME  06:25:43 03-Feb-20
 STEP.S                   0.00: STEP TIME
 NULL.                 -999.25: NULL VALUE
 DFWT.                        :  DIST FWL TEXT
 DFST.                        :  DIST FSL TEXT
 DMF .             Drill Floor:  DRILL MEAS FROM
 STIM.      09.30.00 26-Dec-19:  START TIME
 DATE.      08.00.00 20-Jan-20:  END TIME
 SPUD.               23-Nov-19:  SPUD DATE
 NREF.                    Grid:  NORTH REFERENCE
 HPTY.       Minimum Curvature:  HOLE POS TYPE
 DMOD.             Drill Model:  DRILL MOD DESC
 SVYD.                  Survey:  SURVEY DESC
 ILTD.               Lithology:  INTERP LTH DESC
 FTOP.          Formation Tops:  FORM TOPS DESC
 SON .        AZ-XX-0906192647:  JOB NUMBER
 WTYP.                Deviated:  WELL TYPE
 COMP.     BP Exploration (Caspian Sea) Ltd:  COMPANY
 BASE.              Azerbaijan:  LOGGING EQUIPMENT BASE LOCATION
 REGN.                 Eurasia:  REGION
 FLD .                     ACG:  FIELD NAME
 SRVC.              KCA Deutag:  CONTRACTOR
 MWDS.                    Baku:  MWD SHOP
 WELL.     A10 (Slot 20) - SCP:  WELL NAME
 JOBN.        AZ-XX-0906192647:  JOB TICKET NUMB
 RIG .                 Chirag1:  RIG NAME
 DCON.     Halliburton Sperry Drilling:  DIRECTNL CONTR
 UNIT.                     N/A:  LOGGING EQUIPMENT ID
 PDAT.          Mean Sea Level:  PERMANENT DATUM
 MDS .        Operator Entered:  MAG DATA SOURCE
 CTRY.              Azerbaijan:  COUNTRY NAME
 UWI .            /AZE00000090:  UNIQUE WELL IDENTIFIER
 API .            /AZE00000090:  API NUMBER
 CNTY.                        :  COUNTY
 PROV.                        :  PROVINCE
 STAT.                        :  STATE
 LOC .                        :  LOCATION
 LMF .             Drill Floor:  LOG MEASURED FROM
 TVDS.m                  36.60:  TVDSS CORRECTN
 LATI.deg                40.08:  LATITUDE
 LONG.deg                51.24:  LONGITUDE
 WHNS.m                  -7.94:  WELL HEAD N/S
 WHEW.m                   1.56:  WELL HEAD E/W
 UTMX.m              520429.26:  UTM X
 UTMY.m             4438973.87:  UTM Y
 DFWL.m                   0.00:  DISTANCE FWL
 DFSL.m                   0.00:  DISTANCE FSL
 SDEP.m                1455.00:  START DEPTH
 TDD .m                4047.51:  TOTAL DEPTH (DRILLER)
 VSDR.deg               112.75:  VERT SEC DIRECT
 GVFD.g                   1.00:  GRAVITY FIELD
 MFLD.nT              50261.00:  MAGNETIC FIELD
 MDIP.deg                59.52:  MAGNETIC DIP
 MDEC.deg                 6.42:  MAGNETIC DECL
 GRDC.deg                 0.17:  GRID CORRECTION
 AZTC.deg                 6.25:  AZM TOTAL CORR
 EPD .m                   0.00:  ELEVATION
 EGL .m                   0.00:  GROUND ELEVATION
 WDMS.m                 121.00:  WD ELEV
 APD .m                  36.60:  DEPTH ABOVE PD
 AGAP.m                  36.60:  AIR GAP
 VSEW.m                   1.56:  VERT SEC E/W
 VSNS.m                  -7.94:  VERT SEC N/S
 DEP .m                1140.01:  DEPTH
 EKB .m                  36.60:  KB ELEVATION
 EDF .m                  36.60:  DF ELEVATION
 VSC .                       0:  VS TO CLOSURE
 MAGU.                 1849206:  MAGUTM CHECKSUM
~Parameter Information Block
#MNEM.UNIT       Value        Description
#---------     -----------    ---------------------------
 AV  .mps                 1.70:  Ann Velocity 
 AVMX.mps                 2.30:  Max Ann Veloc 
 AZIF.deg               137.03:  Azm, Final 
 BHAT.                   Other:  BHA Type 
 BROT.°/30m               0.80:  Build Rotating 
 BS  .in                  8.00:  Bit Size 
 BTPL.psig              161.00:  Bit Press Loss 
 CABU.                      No:  Customer Abuse 
 COMM.                     4•z:  Run Comments 1 
 TCS .hr                  9.59:  Time Ciculation Ended 
 CV  .mps                 3.76:  Crit Velocity 
 CVMX.mps                 4.26:  Max Crit Veloc 
 DD1 .         Intigam Rahimov:  Direct Drillr 1 
 DD2 .          Rashad Gojayev:  Direct Drillr 2 
 DDSV.                   Other:  DD Service 
 DEFF.%                 100.00:  % Det Eff 
 DLRX.°/30m               1.44:  Dogleg Rot Max 
 DLSO.°/30m               0.00:  Dogleg Oriented 
 DLSX.°/30m               0.00:  Dogleg Str Max 
 DRET.      03.31.12 02-Feb-20:  Drill End Time 
 DRST.      03.31.12 02-Feb-20:  Drill Start Tim 
 DTIM.hr                  1.99:  Time Drilling 
 EDEP.m                4047.51:  End Depth 
 ENG1.           Eldar Hajiyev:  Engineer 1 
 ENG2.          Rasim Hashimov:  Engineer 2 
 ENG3.          Rustam Safarov:  Engineer 3 
 ETIM.      03.31.12 02-Feb-20:  End Time 
 FLOI.gpm               300.00:  Flow In 
 FLON.gpm               250.00:  Flow In Min 
 FLOS.cptm                0.00:  Fluid Loss 
 FLOX.gpm               330.00:  Flow In Max 
 HFLO.                      No:  High Flow 
 HPRE.                      No:  High Pressure 
 HTEM.                      No:  High Temp 
 HYDO.m                   2.50:  Hydro Offset 
 IFIN.deg                39.54:  Inc, Final 
 IMAX.deg                41.14:  Inc Max 
 IMIN.deg                39.81:  Inc Min 
 IMND.m                4005.21:  Inc Min Depth 
 IMXD.m                3948.42:  Inc Max Depth 
 JARR.                      No:  Jarring 
 LETM.      03.31.12 02-Feb-20:  Log End Time 
 LOST.hr                     0:  Lost Rig Time 
 LSTM.      03.31.12 02-Feb-20:  Log Start Time 
 MDCL.ppm             35000.00:  Mud Chlorides 
 MDES.     Inversion Oil/Synthetic:  Mud Desc 
 DFD .sg                  1.32:  Mud Density 
 MDMN.sg                  1.32:  Dens Mud Min 
 MDMX.sg                  1.32:  Dens Mud Max 
 MOIL.                      59:  Run Mud Oil % 
 MOWR.                   71:29:  Run Mud OWR 
 MSND.                       0:  Run Mud Sand % 
 MSOL.                      17:  Run Mud Solids% 
 DFV .spqt               86.00:  Mud Viscosity 
 MWOD.in                  4.75:  MWD Tool OD 
 MWSI.                      No:  Serv Intrp, MWD 
 OTIM.hr                 46.72:  Time Operating 
 PCON.           Look Like New:  Pad Condition 
 PMAX.psia             3300.00:  Press Op, Max 
 PV  .cP                 30.00:  Mud PV 
 RUN .                     400:  Run Number 
 ROPA.m/hr               35.00:  ROP Avg 
 ROPN.m/hr               25.00:  ROP Min 
 ROPX.m/hr               40.00:  ROP Max 
 RPMA.rpm                80.00:  RPM Surface Avg 
 RPMN.rpm                60.00:  RPM Surface Min 
 RPMX.rpm               100.00:  RPM Surface Max 
 RRUN.                     400:  Rig Run Number 
 RTIM.hr                  1.99:  Time Reaming 
 SAZI.deg               133.93:  Azm, Start 
 SDEP.m                4047.51:  Start Depth 
 SIDD.                      No:  Serv Intrp, DD 
 SINC.deg                40.28:  Inc, Start 
 SPPA.psig             3250.00:  SPP Avg 
 SPPN.psig             3200.00:  SPP Min 
 SPPX.psig             3300.00:  SPP Max 
 STIM.      03.31.12 02-Feb-20:  Start Time 
 SVCS.                 DD, MWD:  Services 
 SVER.                    9.20:  Sperry Version 
 TDAT.m                  47.00:  Tot Depth Attmp 
 TDDF.                      No:  Trip for DD 
 TFF .                      No:  Trip for Fail 
 TQAA.f-kp                0.00:  Torque Abs Avg 
 TQAN.f-kp                0.00:  Torque Abs Min 
 TQAX.f-kp                0.00:  Torque Abs Max 
 TRRT.°/30m               0.70:  Turn Rotating 
 MRT .                    HCIM:  Maximum Recorded Temperature 
 TTMX.degC               70.59:  Max Tool Temp 
 VS01.             90598770F11:  Virtual Str1 SN 
 VS02.             90598769F11:  Virtual Str2 SN 
 VS03.            90515978Z1W1:  Virtual Str3 SN 
 VS04.          90584144R12X14:  Virtual Str4 SN 
 WBMN.klb                 0.00:  WOB Min 
 WITN.            Peter Wilson:  Customer Rep 
 WOBA.klb                 0.00:  WOB Avg 
 WOBX.klb                 0.00:  WOB Max 
 YP  .lhf2               29.00:  Yield Point 
~Curve Information Block
#MNEM.UNIT                 API CODE     Curve Description
#---------               -----------    ---------------------------
 TIME.HHMMSS            00 000 000 000:  GT Time & Date
 GTDEPTH.m              00 000 000 000:  GT Depth
 GTPQH.psia             00 000 000 000:  GT HR Quartz Pressure
 GTTQ.degC              00 000 000 000:  GT Quartz Temperature
 GTTN.NONE              00 000 000 000:  GT Test Number
 GTET.sec               00 000 000 000:  GT Elapsed Test Time
 GTTVD.m                00 000 000 000:  GT True Vertical Depth
#Other Information
#
#WARRANTY: Halliburton will use its best efforts to furnish customers with 
#accurate information and interpretations that are part of, and incident to, the services 
#provided.  However, Halliburton cannot and does not warrant the accuracy 
#or correctness of such information and interpretations.  Under no circumstances should any 
#such information or interpretation be relied upon as the sole basis for any drilling, 
#completion, production, or financial decision or any procedure involving any risk to the 
#safety of any drilling venture, drilling rig or its crew or any other third party.  The 
#Customer has full responsibility for all drilling, completion and production operation.  
#Halliburton makes no representations or warranties, either expressed or 
#implied, including, but not limited to, the implied warranties of merchantability or fitness 
#for a particular purpose, with respect to the services rendered.  In no event will 
#Halliburton be liable for failure to obtain any particular results or for 
#any damages, including, but not limited to, indirect, special or consequential damages, 
#resulting from the use of any information or interpretation provided by Halliburton.
#
~A           TIME           GTDEPTH  GTPQH  GTTQ  GTTN  GTET   GTTVD  
# ...
   06:22:07.000.03-Feb-2020 4005.51  168.50 64.98 7.00 253.00 3017.14
   06:22:07.200.03-Feb-2020 4005.51  168.50 64.98 7.00 253.20 3017.14
   06:22:07.400.03-Feb-2020 4005.51  168.54 64.98 7.00 253.40 3017.14
   06:22:07.600.03-Feb-2020 4005.51  168.56 64.98 7.00 253.60 3017.14
   06:22:07.800.03-Feb-2020 4005.51  168.57 64.98 7.00 253.80 3017.14
   06:22:08.000.03-Feb-2020 4005.51  168.59 64.98 7.00 254.00 3017.14
   06:22:08.200.03-Feb-2020 4005.51  168.59 64.98 7.00 254.20 3017.14
   06:22:08.400.03-Feb-2020 4005.51  168.63 64.98 7.00 254.40 3017.14
   06:22:08.600.03-Feb-2020 4005.51  168.64 64.98 7.00 254.60 3017.14
   06:22:08.800.03-Feb-2020 4005.51  168.67 64.98 7.00 254.80 3017.14
   06:22:09.000.03-Feb-2020 4005.51  168.69 64.98 7.00 255.00 3017.14
   06:22:09.200.03-Feb-2020 4005.51  168.69 64.98 7.00 255.20 3017.14
   06:22:09.400.03-Feb-2020 4005.51  168.73 64.98 7.00 255.40 3017.14
   06:22:09.600.03-Feb-2020 4005.51  168.75 64.98 7.00 255.60 3017.14
   06:22:09.800.03-Feb-2020 4005.51  168.77 64.98 7.00 255.80 3017.14
   06:22:10.000.03-Feb-2020 4005.51  168.79 64.98 7.00 256.00 3017.14
   06:22:10.200.03-Feb-2020 4005.51  168.79 64.98 7.00 256.20 3017.14
   06:22:10.400.03-Feb-2020 4005.51  168.83 64.98 7.00 256.40 3017.14
   06:22:10.600.03-Feb-2020 4005.51  168.85 64.98 7.00 256.60 3017.14
   06:22:10.800.03-Feb-2020 4005.51  168.88 64.98 7.00 256.80 3017.14
   06:22:11.000.03-Feb-2020 4005.51  168.89 64.98 7.00 257.00 3017.14
   06:22:11.200.03-Feb-2020 4005.51  168.89 64.98 7.00 257.20 3017.14
   06:22:11.400.03-Feb-2020 4005.51  168.92 64.98 7.00 257.40 3017.14
   06:22:11.600.03-Feb-2020 4005.51  168.96 64.98 7.00 257.60 3017.14
   06:22:11.800.03-Feb-2020 4005.51  168.98 64.98 7.00 257.80 3017.14
   06:22:12.000.03-Feb-2020 4005.51  168.99 64.98 7.00 258.00 3017.14
   06:22:12.200.03-Feb-2020 4005.51  168.99 64.98 7.00 258.20 3017.14
   06:22:12.400.03-Feb-2020 4005.51  169.03 64.98 7.00 258.40 3017.14
   06:22:12.600.03-Feb-2020 4005.51  169.05 64.98 7.00 258.60 3017.14
   06:22:12.800.03-Feb-2020 4005.51  169.07 64.98 7.00 258.80 3017.14
   06:22:13.000.03-Feb-2020 4005.51  169.09 64.98 7.00 259.00 3017.14
   06:22:13.200.03-Feb-2020 4005.51  169.09 64.98 7.00 259.20 3017.14
   06:22:13.400.03-Feb-2020 4005.51  169.12 64.98 7.00 259.40 3017.14
   06:22:13.600.03-Feb-2020 4005.51  169.14 64.98 7.00 259.60 3017.14
   06:22:13.800.03-Feb-2020 4005.51  169.15 64.98 7.00 259.80 3017.14
   06:22:14.000.03-Feb-2020 4005.51  169.17 64.98 7.00 260.00 3017.14
   06:22:14.200.03-Feb-2020 4005.51  169.17 64.98 7.00 260.20 3017.14
   06:22:14.400.03-Feb-2020 4005.51  169.21 64.98 7.00 260.40 3017.14
   06:22:14.600.03-Feb-2020 4005.51  169.22 64.98 7.00 260.60 3017.14
   06:22:14.800.03-Feb-2020 4005.51  169.24 64.98 7.00 260.80 3017.14
   06:22:15.000.03-Feb-2020 4005.51  169.25 64.98 7.00 261.00 3017.14
   06:22:15.200.03-Feb-2020 4005.51  169.25 64.98 7.00 261.20 3017.14
   06:22:15.400.03-Feb-2020 4005.51  169.29 64.98 7.00 261.40 3017.14
   06:22:15.600.03-Feb-2020 4005.51  169.31 64.98 7.00 261.60 3017.14
   06:22:15.800.03-Feb-2020 4005.51  169.33 64.98 7.00 261.80 3017.14
   06:22:16.000.03-Feb-2020 4005.51  169.34 64.98 7.00 262.00 3017.14
   06:22:16.200.03-Feb-2020 4005.51  169.34 64.98 7.00 262.20 3017.14
   06:22:16.400.03-Feb-2020 4005.51  169.38 64.98 7.00 262.40 3017.14
   06:22:16.600.03-Feb-2020 4005.51  169.38 64.98 7.00 262.60 3017.14
   06:22:16.800.03-Feb-2020 4005.51  169.41 64.98 7.00 262.80 3017.14
   06:22:17.000.03-Feb-2020 4005.51  169.42 64.98 7.00 263.00 3017.14
   06:22:17.200.03-Feb-2020 4005.51  169.42 64.98 7.00 263.20 3017.14
   06:22:17.400.03-Feb-2020 4005.51  169.46 64.98 7.00 263.40 3017.14
   06:22:17.600.03-Feb-2020 4005.51  169.48 64.98 7.00 263.60 3017.14
   06:22:17.800.03-Feb-2020 4005.51  169.49 64.98 7.00 263.80 3017.14
   06:22:18.000.03-Feb-2020 4005.51  169.51 64.98 7.00 264.00 3017.14
   06:22:18.200.03-Feb-2020 4005.51  169.51 64.98 7.00 264.20 3017.14
   06:22:18.400.03-Feb-2020 4005.51  169.54 64.98 7.00 264.40 3017.14
   06:22:18.600.03-Feb-2020 4005.51  169.56 64.98 7.00 264.60 3017.14
   06:22:18.800.03-Feb-2020 4005.51  169.58 64.98 7.00 264.80 3017.14
   06:22:19.000.03-Feb-2020 4005.51  169.59 64.98 7.00 265.00 3017.14
   06:22:19.200.03-Feb-2020 4005.51  169.59 64.98 7.00 265.20 3017.14
   06:22:19.400.03-Feb-2020 4005.51  169.61 64.98 7.00 265.40 3017.14
   06:22:19.600.03-Feb-2020 4005.51  169.65 64.98 7.00 265.60 3017.14
   06:22:19.800.03-Feb-2020 4005.51  169.66 64.98 7.00 265.80 3017.14
   06:22:20.000.03-Feb-2020 4005.51  169.68 64.98 7.00 266.00 3017.14
   06:22:20.200.03-Feb-2020 4005.51  169.68 64.98 7.00 266.20 3017.14
   06:22:20.400.03-Feb-2020 4005.51  169.72 64.98 7.00 266.40 3017.14
   06:22:20.600.03-Feb-2020 4005.51  169.72 64.98 7.00 266.60 3017.14
   06:22:20.800.03-Feb-2020 4005.51  169.75 64.98 7.00 266.80 3017.14
   06:22:21.000.03-Feb-2020 4005.51  169.76 64.98 7.00 267.00 3017.14
   06:22:21.200.03-Feb-2020 4005.51  169.76 64.98 7.00 267.20 3017.14
   06:22:21.400.03-Feb-2020 4005.51  169.78 64.98 7.00 267.40 3017.14
   06:22:21.600.03-Feb-2020 4005.51  169.80 64.98 7.00 267.60 3017.14
   06:22:21.800.03-Feb-2020 4005.51  169.82 64.98 7.00 267.80 3017.14
   06:22:22.000.03-Feb-2020 4005.51  169.84 64.98 7.00 268.00 3017.14
   06:22:22.200.03-Feb-2020 4005.51  169.84 64.98 7.00 268.20 3017.14
   06:22:22.400.03-Feb-2020 4005.51  169.86 64.98 7.00 268.40 3017.14
   06:22:22.600.03-Feb-2020 4005.51  169.88 64.98 7.00 268.60 3017.14
   06:22:22.800.03-Feb-2020 4005.51  169.90 64.98 7.00 268.80 3017.14
   06:22:23.000.03-Feb-2020 4005.51  169.90 64.98 7.00 269.00 3017.14
   06:22:23.200.03-Feb-2020 4005.51  169.90 64.98 7.00 269.20 3017.14
   06:22:23.400.03-Feb-2020 4005.51  169.94 64.98 7.00 269.40 3017.14
   06:22:23.600.03-Feb-2020 4005.51  169.96 64.98 7.00 269.60 3017.14
   06:22:23.800.03-Feb-2020 4005.51  169.97 64.98 7.00 269.80 3017.14
   06:22:24.000.03-Feb-2020 4005.51  169.99 64.98 7.00 270.00 3017.14
   06:22:24.200.03-Feb-2020 4005.51  169.99 64.98 7.00 270.20 3017.14
   06:22:24.400.03-Feb-2020 4005.51  170.02 64.98 7.00 270.40 3017.14
   06:22:24.600.03-Feb-2020 4005.51  170.03 64.98 7.00 270.60 3017.14
   06:22:24.800.03-Feb-2020 4005.51  170.05 64.98 7.00 270.80 3017.14
   06:22:25.000.03-Feb-2020 4005.51  170.07 64.98 7.00 271.00 3017.14
   06:22:25.200.03-Feb-2020 4005.51  170.07 64.98 7.00 271.20 3017.14
   06:22:25.400.03-Feb-2020 4005.51  170.09 64.98 7.00 271.40 3017.14
   06:22:25.600.03-Feb-2020 4005.51  170.11 64.98 7.00 271.60 3017.14
   06:22:25.800.03-Feb-2020 4005.51  170.13 64.98 7.00 271.80 3017.14
   06:22:26.000.03-Feb-2020 4005.51  170.14 64.98 7.00 272.00 3017.14
   06:22:26.200.03-Feb-2020 4005.51  170.14 64.98 7.00 272.20 3017.14
   06:22:26.400.03-Feb-2020 4005.51  170.17 64.98 7.00 272.40 3017.14
   06:22:26.600.03-Feb-2020 4005.51  170.18 64.97 7.00 272.60 3017.14
   06:22:26.800.03-Feb-2020 4005.51  170.20 64.97 7.00 272.80 3017.14
   06:22:27.000.03-Feb-2020 4005.51  170.20 64.97 7.00 273.00 3017.14
   06:22:27.200.03-Feb-2020 4005.51  170.23 64.97 7.00 273.20 3017.14
   06:22:27.400.03-Feb-2020 4005.51  170.25 64.97 7.00 273.40 3017.14
   06:22:27.600.03-Feb-2020 4005.51  170.26 64.97 7.00 273.60 3017.14
   06:22:27.800.03-Feb-2020 4005.51  170.28 64.97 7.00 273.80 3017.14
   06:22:28.000.03-Feb-2020 4005.51  170.29 64.97 7.00 274.00 3017.14
   06:22:28.200.03-Feb-2020 4005.51  170.29 64.97 7.00 274.20 3017.14
   06:22:28.400.03-Feb-2020 4005.51  170.32 64.97 7.00 274.40 3017.14
   06:22:28.600.03-Feb-2020 4005.51  170.33 64.97 7.00 274.60 3017.14
   06:22:28.800.03-Feb-2020 4005.51  170.36 64.97 7.00 274.80 3017.14
   06:22:29.000.03-Feb-2020 4005.51  170.37 64.97 7.00 275.00 3017.14
   06:22:29.200.03-Feb-2020 4005.51  170.39 64.97 7.00 275.20 3017.14
   06:22:29.400.03-Feb-2020 4005.51  170.38 64.97 7.00 275.40 3017.14
   06:22:29.600.03-Feb-2020 4005.51  170.42 64.97 7.00 275.60 3017.14
   06:22:29.800.03-Feb-2020 4005.51  170.43 64.97 7.00 275.80 3017.14
