~Version Information
 VERS.                  2.0:   CWLS log ASCII Standard -VERSION 2.0
 WRAP.                   NO:   One line per depth step
~Well Information Block
#MNEM.UNIT     VALUE/NAME     DESCRIPTION
#---------     -----------    ---------------------------
 STRT.S             08:33:17 03-Feb-20: START TIME 08:33:17 03-Feb-20
 STOP.S             08:41:10 03-Feb-20: STOP TIME  08:41:10 03-Feb-20
 STEP.S                   0.00: STEP TIME
 NULL.                 -999.25: NULL VALUE
 DFWT.                        :  DIST FWL TEXT
 DFST.                        :  DIST FSL TEXT
 DMF .             Drill Floor:  DRILL MEAS FROM
 STIM.      09.30.00 26-Dec-19:  START TIME
 DATE.      08.00.00 20-Jan-20:  END TIME
 SPUD.               23-Nov-19:  SPUD DATE
 NREF.                    Grid:  NORTH REFERENCE
 HPTY.       Minimum Curvature:  HOLE POS TYPE
 DMOD.             Drill Model:  DRILL MOD DESC
 SVYD.                  Survey:  SURVEY DESC
 ILTD.               Lithology:  INTERP LTH DESC
 FTOP.          Formation Tops:  FORM TOPS DESC
 SON .        AZ-XX-0906192647:  JOB NUMBER
 WTYP.                Deviated:  WELL TYPE
 COMP.     BP Exploration (Caspian Sea) Ltd:  COMPANY
 BASE.              Azerbaijan:  LOGGING EQUIPMENT BASE LOCATION
 REGN.                 Eurasia:  REGION
 FLD .                     ACG:  FIELD NAME
 SRVC.              KCA Deutag:  CONTRACTOR
 MWDS.                    Baku:  MWD SHOP
 WELL.     A10 (Slot 20) - SCP:  WELL NAME
 JOBN.        AZ-XX-0906192647:  JOB TICKET NUMB
 RIG .                 Chirag1:  RIG NAME
 DCON.     Halliburton Sperry Drilling:  DIRECTNL CONTR
 UNIT.                     N/A:  LOGGING EQUIPMENT ID
 PDAT.          Mean Sea Level:  PERMANENT DATUM
 MDS .        Operator Entered:  MAG DATA SOURCE
 CTRY.              Azerbaijan:  COUNTRY NAME
 UWI .            /AZE00000090:  UNIQUE WELL IDENTIFIER
 API .            /AZE00000090:  API NUMBER
 CNTY.                        :  COUNTY
 PROV.                        :  PROVINCE
 STAT.                        :  STATE
 LOC .                        :  LOCATION
 LMF .             Drill Floor:  LOG MEASURED FROM
 TVDS.m                  36.60:  TVDSS CORRECTN
 LATI.deg                40.08:  LATITUDE
 LONG.deg                51.24:  LONGITUDE
 WHNS.m                  -7.94:  WELL HEAD N/S
 WHEW.m                   1.56:  WELL HEAD E/W
 UTMX.m              520429.26:  UTM X
 UTMY.m             4438973.87:  UTM Y
 DFWL.m                   0.00:  DISTANCE FWL
 DFSL.m                   0.00:  DISTANCE FSL
 SDEP.m                1455.00:  START DEPTH
 TDD .m                4047.51:  TOTAL DEPTH (DRILLER)
 VSDR.deg               112.75:  VERT SEC DIRECT
 GVFD.g                   1.00:  GRAVITY FIELD
 MFLD.nT              50261.00:  MAGNETIC FIELD
 MDIP.deg                59.52:  MAGNETIC DIP
 MDEC.deg                 6.42:  MAGNETIC DECL
 GRDC.deg                 0.17:  GRID CORRECTION
 AZTC.deg                 6.25:  AZM TOTAL CORR
 EPD .m                   0.00:  ELEVATION
 EGL .m                   0.00:  GROUND ELEVATION
 WDMS.m                 121.00:  WD ELEV
 APD .m                  36.60:  DEPTH ABOVE PD
 AGAP.m                  36.60:  AIR GAP
 VSEW.m                   1.56:  VERT SEC E/W
 VSNS.m                  -7.94:  VERT SEC N/S
 DEP .m                1140.01:  DEPTH
 EKB .m                  36.60:  KB ELEVATION
 EDF .m                  36.60:  DF ELEVATION
 VSC .                       0:  VS TO CLOSURE
 MAGU.                 1849206:  MAGUTM CHECKSUM
~Parameter Information Block
#MNEM.UNIT       Value        Description
#---------     -----------    ---------------------------
 AV  .mps                 1.70:  Ann Velocity 
 AVMX.mps                 2.30:  Max Ann Veloc 
 AZIF.deg               137.03:  Azm, Final 
 BHAT.                   Other:  BHA Type 
 BROT.°/30m               0.80:  Build Rotating 
 BS  .in                  8.00:  Bit Size 
 BTPL.psig              161.00:  Bit Press Loss 
 CABU.                      No:  Customer Abuse 
 COMM.                     äör:  Run Comments 1 
 TCS .hr                  9.59:  Time Ciculation Ended 
 CV  .mps                 3.76:  Crit Velocity 
 CVMX.mps                 4.26:  Max Crit Veloc 
 DD1 .         Intigam Rahimov:  Direct Drillr 1 
 DD2 .          Rashad Gojayev:  Direct Drillr 2 
 DDSV.                   Other:  DD Service 
 DEFF.%                 100.00:  % Det Eff 
 DLRX.°/30m               1.44:  Dogleg Rot Max 
 DLSO.°/30m               0.00:  Dogleg Oriented 
 DLSX.°/30m               0.00:  Dogleg Str Max 
 DRET.      03.31.12 02-Feb-20:  Drill End Time 
 DRST.      03.31.12 02-Feb-20:  Drill Start Tim 
 DTIM.hr                  1.99:  Time Drilling 
 EDEP.m                4047.51:  End Depth 
 ENG1.           Eldar Hajiyev:  Engineer 1 
 ENG2.          Rasim Hashimov:  Engineer 2 
 ENG3.          Rustam Safarov:  Engineer 3 
 ETIM.      03.31.12 02-Feb-20:  End Time 
 FLOI.gpm               300.00:  Flow In 
 FLON.gpm               250.00:  Flow In Min 
 FLOS.cptm                0.00:  Fluid Loss 
 FLOX.gpm               330.00:  Flow In Max 
 HFLO.                      No:  High Flow 
 HPRE.                      No:  High Pressure 
 HTEM.                      No:  High Temp 
 HYDO.m                   2.50:  Hydro Offset 
 IFIN.deg                39.54:  Inc, Final 
 IMAX.deg                41.14:  Inc Max 
 IMIN.deg                39.81:  Inc Min 
 IMND.m                4005.21:  Inc Min Depth 
 IMXD.m                3948.42:  Inc Max Depth 
 JARR.                      No:  Jarring 
 LETM.      03.31.12 02-Feb-20:  Log End Time 
 LOST.hr                     0:  Lost Rig Time 
 LSTM.      03.31.12 02-Feb-20:  Log Start Time 
 MDCL.ppm             35000.00:  Mud Chlorides 
 MDES.     Inversion Oil/Synthetic:  Mud Desc 
 DFD .sg                  1.32:  Mud Density 
 MDMN.sg                  1.32:  Dens Mud Min 
 MDMX.sg                  1.32:  Dens Mud Max 
 MOIL.                      59:  Run Mud Oil % 
 MOWR.                   71:29:  Run Mud OWR 
 MSND.                       0:  Run Mud Sand % 
 MSOL.                      17:  Run Mud Solids% 
 DFV .spqt               86.00:  Mud Viscosity 
 MWOD.in                  4.75:  MWD Tool OD 
 MWSI.                      No:  Serv Intrp, MWD 
 OTIM.hr                 46.72:  Time Operating 
 PCON.           Look Like New:  Pad Condition 
 PMAX.psia             3300.00:  Press Op, Max 
 PV  .cP                 30.00:  Mud PV 
 RUN .                     400:  Run Number 
 ROPA.m/hr               35.00:  ROP Avg 
 ROPN.m/hr               25.00:  ROP Min 
 ROPX.m/hr               40.00:  ROP Max 
 RPMA.rpm                80.00:  RPM Surface Avg 
 RPMN.rpm                60.00:  RPM Surface Min 
 RPMX.rpm               100.00:  RPM Surface Max 
 RRUN.                     400:  Rig Run Number 
 RTIM.hr                  1.99:  Time Reaming 
 SAZI.deg               133.93:  Azm, Start 
 SDEP.m                4047.51:  Start Depth 
 SIDD.                      No:  Serv Intrp, DD 
 SINC.deg                40.28:  Inc, Start 
 SPPA.psig             3250.00:  SPP Avg 
 SPPN.psig             3200.00:  SPP Min 
 SPPX.psig             3300.00:  SPP Max 
 STIM.      03.31.12 02-Feb-20:  Start Time 
 SVCS.                 DD, MWD:  Services 
 SVER.                    9.20:  Sperry Version 
 TDAT.m                  47.00:  Tot Depth Attmp 
 TDDF.                      No:  Trip for DD 
 TFF .                      No:  Trip for Fail 
 TQAA.f-kp                0.00:  Torque Abs Avg 
 TQAN.f-kp                0.00:  Torque Abs Min 
 TQAX.f-kp                0.00:  Torque Abs Max 
 TRRT.°/30m               0.70:  Turn Rotating 
 MRT .                    HCIM:  Maximum Recorded Temperature 
 TTMX.degC               70.59:  Max Tool Temp 
 VS01.             90598770F11:  Virtual Str1 SN 
 VS02.             90598769F11:  Virtual Str2 SN 
 VS03.            90515978Z1W1:  Virtual Str3 SN 
 VS04.          90584144R12X14:  Virtual Str4 SN 
 WBMN.klb                 0.00:  WOB Min 
 WITN.            Peter Wilson:  Customer Rep 
 WOBA.klb                 0.00:  WOB Avg 
 WOBX.klb                 0.00:  WOB Max 
 YP  .lhf2               29.00:  Yield Point 
~Curve Information Block
#MNEM.UNIT                 API CODE     Curve Description
#---------               -----------    ---------------------------
 TIME.HHMMSS            00 000 000 000:  GT Time & Date
 GTDEPTH.m              00 000 000 000:  GT Depth
 GTPQH.psia             00 000 000 000:  GT HR Quartz Pressure
 GTTQ.degC              00 000 000 000:  GT Quartz Temperature
 GTTN.NONE              00 000 000 000:  GT Test Number
 GTET.sec               00 000 000 000:  GT Elapsed Test Time
 GTTVD.m                00 000 000 000:  GT True Vertical Depth
#Other Information
#
#WARRANTY: Halliburton will use its best efforts to furnish customers with 
#accurate information and interpretations that are part of, and incident to, the services 
#provided.  However, Halliburton cannot and does not warrant the accuracy 
#or correctness of such information and interpretations.  Under no circumstances should any 
#such information or interpretation be relied upon as the sole basis for any drilling, 
#completion, production, or financial decision or any procedure involving any risk to the 
#safety of any drilling venture, drilling rig or its crew or any other third party.  The 
#Customer has full responsibility for all drilling, completion and production operation.  
#Halliburton makes no representations or warranties, either expressed or 
#implied, including, but not limited to, the implied warranties of merchantability or fitness 
#for a particular purpose, with respect to the services rendered.  In no event will 
#Halliburton be liable for failure to obtain any particular results or for 
#any damages, including, but not limited to, indirect, special or consequential damages, 
#resulting from the use of any information or interpretation provided by Halliburton.
#
~A           TIME           GTDEPTH  GTPQH  GTTQ  GTTN   GTET   GTTVD  
# ...
   08:39:41.293.03-Feb-2020 4013.71 3132.30 64.39 11.00 384.21 3023.43
   08:39:41.493.03-Feb-2020 4013.71 3132.43 64.39 11.00 384.41 3023.43
   08:39:41.693.03-Feb-2020 4013.71 3132.20 64.39 11.00 384.61 3023.43
   08:39:41.893.03-Feb-2020 4013.71 3132.37 64.39 11.00 384.81 3023.43
   08:39:42.093.03-Feb-2020 4013.71 3132.28 64.39 11.00 385.01 3023.43
   08:39:42.293.03-Feb-2020 4013.71 3132.28 64.39 11.00 385.21 3023.43
   08:39:42.493.03-Feb-2020 4013.71 3132.28 64.39 11.00 385.41 3023.43
   08:39:42.693.03-Feb-2020 4013.71 3132.31 64.39 11.00 385.61 3023.43
   08:39:42.893.03-Feb-2020 4013.71 3132.30 64.39 11.00 385.81 3023.43
   08:39:43.093.03-Feb-2020 4013.71 3132.32 64.39 11.00 386.01 3023.43
   08:39:43.293.03-Feb-2020 4013.71 3132.32 64.39 11.00 386.21 3023.43
   08:39:43.493.03-Feb-2020 4013.71 3132.29 64.39 11.00 386.41 3023.43
   08:39:43.693.03-Feb-2020 4013.71 3132.30 64.39 11.00 386.61 3023.43
   08:39:43.893.03-Feb-2020 4013.71 3132.15 64.39 11.00 386.81 3023.43
   08:39:44.093.03-Feb-2020 4013.71 3132.31 64.39 11.00 387.01 3023.43
   08:39:44.293.03-Feb-2020 4013.71 3132.31 64.39 11.00 387.21 3023.43
   08:39:44.493.03-Feb-2020 4013.71 3132.35 64.39 11.00 387.41 3023.43
   08:39:44.693.03-Feb-2020 4013.71 3132.30 64.39 11.00 387.61 3023.43
   08:39:44.893.03-Feb-2020 4013.71 3132.09 64.39 11.00 387.81 3023.43
   08:39:45.093.03-Feb-2020 4013.71 3132.51 64.39 11.00 388.01 3023.43
   08:39:45.293.03-Feb-2020 4013.71 3132.51 64.39 11.00 388.21 3023.43
   08:39:45.493.03-Feb-2020 4013.71 3132.40 64.39 11.00 388.41 3023.43
   08:39:45.693.03-Feb-2020 4013.71 3132.30 64.39 11.00 388.61 3023.43
   08:39:45.893.03-Feb-2020 4013.71 3132.35 64.39 11.00 388.81 3023.43
   08:39:46.093.03-Feb-2020 4013.71 3132.16 64.39 11.00 389.01 3023.43
   08:39:46.293.03-Feb-2020 4013.71 3132.16 64.39 11.00 389.21 3023.43
   08:39:46.493.03-Feb-2020 4013.71 3132.34 64.39 11.00 389.41 3023.43
   08:39:46.693.03-Feb-2020 4013.71 3132.36 64.39 11.00 389.61 3023.43
   08:39:46.893.03-Feb-2020 4013.71 3132.37 64.39 11.00 389.81 3023.43
   08:39:47.093.03-Feb-2020 4013.71 3132.26 64.39 11.00 390.01 3023.43
   08:39:47.293.03-Feb-2020 4013.71 3132.26 64.39 11.00 390.21 3023.43
   08:39:47.493.03-Feb-2020 4013.71 3132.23 64.39 11.00 390.41 3023.43
   08:39:47.693.03-Feb-2020 4013.71 3132.36 64.39 11.00 390.61 3023.43
   08:39:47.893.03-Feb-2020 4013.71 3132.36 64.39 11.00 390.81 3023.43
   08:39:48.093.03-Feb-2020 4013.71 3132.36 64.39 11.00 391.01 3023.43
   08:39:48.293.03-Feb-2020 4013.71 3132.36 64.39 11.00 391.21 3023.43
   08:39:48.493.03-Feb-2020 4013.71 3132.35 64.39 11.00 391.41 3023.43
   08:39:48.693.03-Feb-2020 4013.71 3132.30 64.39 11.00 391.61 3023.43
   08:39:48.893.03-Feb-2020 4013.71 3132.33 64.39 11.00 391.81 3023.43
   08:39:49.093.03-Feb-2020 4013.71 3132.37 64.39 11.00 392.01 3023.43
   08:39:49.293.03-Feb-2020 4013.71 3132.37 64.39 11.00 392.21 3023.43
   08:39:49.493.03-Feb-2020 4013.71 3132.33 64.39 11.00 392.41 3023.43
   08:39:49.693.03-Feb-2020 4013.71 3132.34 64.39 11.00 392.61 3023.43
   08:39:49.893.03-Feb-2020 4013.71 3132.31 64.39 11.00 392.81 3023.43
   08:39:50.094.03-Feb-2020 4013.71 3132.37 64.39 11.00 393.01 3023.43
   08:39:50.294.03-Feb-2020 4013.71 3132.37 64.39 11.00 393.21 3023.43
   08:39:50.494.03-Feb-2020 4013.71 3132.07 64.39 11.00 393.41 3023.43
   08:39:50.694.03-Feb-2020 4013.71 3132.48 64.39 11.00 393.61 3023.43
   08:39:50.894.03-Feb-2020 4013.71 3132.29 64.39 11.00 393.81 3023.43
   08:39:51.094.03-Feb-2020 4013.71 3132.38 64.39 11.00 394.01 3023.43
   08:39:51.294.03-Feb-2020 4013.71 3132.38 64.39 11.00 394.21 3023.43
   08:39:51.494.03-Feb-2020 4013.71 3132.34 64.39 11.00 394.41 3023.43
   08:39:51.694.03-Feb-2020 4013.71 3132.32 64.39 11.00 394.61 3023.43
   08:39:51.894.03-Feb-2020 4013.71 3132.37 64.39 11.00 394.81 3023.43
   08:39:52.094.03-Feb-2020 4013.71 3132.35 64.39 11.00 395.01 3023.43
   08:39:52.294.03-Feb-2020 4013.71 3132.35 64.39 11.00 395.21 3023.43
   08:39:52.494.03-Feb-2020 4013.71 3132.34 64.39 11.00 395.41 3023.43
   08:39:52.694.03-Feb-2020 4013.71 3132.32 64.39 11.00 395.61 3023.43
   08:39:52.894.03-Feb-2020 4013.71 3132.26 64.39 11.00 395.81 3023.43
   08:39:53.094.03-Feb-2020 4013.71 3132.35 64.39 11.00 396.01 3023.43
   08:39:53.294.03-Feb-2020 4013.71 3132.35 64.39 11.00 396.21 3023.43
   08:39:53.494.03-Feb-2020 4013.71 3132.46 64.39 11.00 396.41 3023.43
   08:39:53.694.03-Feb-2020 4013.71 3132.36 64.39 11.00 396.61 3023.43
   08:39:53.894.03-Feb-2020 4013.71 3132.36 64.39 11.00 396.81 3023.43
   08:39:54.094.03-Feb-2020 4013.71 3132.11 64.39 11.00 397.01 3023.43
   08:39:54.294.03-Feb-2020 4013.71 3132.11 64.39 11.00 397.21 3023.43
   08:39:54.494.03-Feb-2020 4013.71 3132.32 64.39 11.00 397.41 3023.43
   08:39:54.694.03-Feb-2020 4013.71 3132.40 64.39 11.00 397.61 3023.43
   08:39:54.894.03-Feb-2020 4013.71 3132.37 64.39 11.00 397.81 3023.43
   08:39:55.094.03-Feb-2020 4013.71 3132.28 64.39 11.00 398.01 3023.43
   08:39:55.294.03-Feb-2020 4013.71 3132.28 64.39 11.00 398.21 3023.43
   08:39:55.494.03-Feb-2020 4013.71 3132.29 64.39 11.00 398.41 3023.43
   08:39:55.694.03-Feb-2020 4013.71 3132.40 64.39 11.00 398.61 3023.43
   08:39:55.894.03-Feb-2020 4013.71 3132.38 64.39 11.00 398.81 3023.43
   08:39:56.094.03-Feb-2020 4013.71 3132.42 64.39 11.00 399.01 3023.43
   08:39:56.294.03-Feb-2020 4013.71 3132.42 64.39 11.00 399.21 3023.43
   08:39:56.494.03-Feb-2020 4013.71 3132.53 64.39 11.00 399.41 3023.43
   08:39:56.694.03-Feb-2020 4013.71 3132.25 64.39 11.00 399.61 3023.43
   08:39:56.894.03-Feb-2020 4013.71 3132.42 64.39 11.00 399.81 3023.43
   08:39:57.094.03-Feb-2020 4013.71 3132.40 64.39 11.00 400.01 3023.43
   08:39:57.294.03-Feb-2020 4013.71 3132.40 64.39 11.00 400.21 3023.43
   08:39:57.494.03-Feb-2020 4013.71 3132.38 64.39 11.00 400.41 3023.43
   08:39:57.694.03-Feb-2020 4013.71 3132.38 64.39 11.00 400.61 3023.43
   08:39:57.894.03-Feb-2020 4013.71 3132.33 64.39 11.00 400.81 3023.43
   08:39:58.094.03-Feb-2020 4013.71 3132.38 64.39 11.00 401.01 3023.43
   08:39:58.294.03-Feb-2020 4013.71 3132.38 64.39 11.00 401.21 3023.43
   08:39:58.494.03-Feb-2020 4013.71 3132.35 64.39 11.00 401.41 3023.43
   08:39:58.694.03-Feb-2020 4013.71 3132.38 64.39 11.00 401.61 3023.43
   08:39:58.894.03-Feb-2020 4013.71 3132.38 64.39 11.00 401.81 3023.43
   08:39:59.094.03-Feb-2020 4013.71 3132.32 64.39 11.00 402.01 3023.43
   08:39:59.294.03-Feb-2020 4013.71 3132.32 64.39 11.00 402.21 3023.43
   08:39:59.494.03-Feb-2020 4013.71 3132.39 64.39 11.00 402.41 3023.43
   08:39:59.694.03-Feb-2020 4013.71 3132.17 64.39 11.00 402.61 3023.43
   08:39:59.894.03-Feb-2020 4013.71 3132.39 64.39 11.00 402.81 3023.43
   08:40:00.094.03-Feb-2020 4013.71 3132.40 64.39 11.00 403.01 3023.43
   08:40:00.294.03-Feb-2020 4013.71 3132.40 64.39 11.00 403.21 3023.43
   08:40:00.494.03-Feb-2020 4013.71 3132.38 64.39 11.00 403.41 3023.43
   08:40:00.694.03-Feb-2020 4013.71 3132.37 64.39 11.00 403.61 3023.43
   08:40:00.894.03-Feb-2020 4013.71 3132.36 64.39 11.00 403.81 3023.43
   08:40:01.094.03-Feb-2020 4013.71 3132.40 64.39 11.00 404.01 3023.43
   08:40:01.294.03-Feb-2020 4013.71 3132.40 64.39 11.00 404.21 3023.43
   08:40:01.494.03-Feb-2020 4013.71 3132.38 64.39 11.00 404.41 3023.43
   08:40:01.694.03-Feb-2020 4013.71 3132.38 64.39 11.00 404.61 3023.43
   08:40:01.894.03-Feb-2020 4013.71 3132.37 64.39 11.00 404.81 3023.43
   08:40:02.094.03-Feb-2020 4013.71 3132.15 64.39 11.00 405.01 3023.43
   08:40:02.294.03-Feb-2020 4013.71 3132.15 64.39 11.00 405.21 3023.43
   08:40:02.494.03-Feb-2020 4013.71 3132.30 64.39 11.00 405.41 3023.43
   08:40:02.694.03-Feb-2020 4013.71 3132.49 64.39 11.00 405.61 3023.43
   08:40:02.894.03-Feb-2020 4013.71 3132.38 64.39 11.00 405.81 3023.43
   08:40:03.094.03-Feb-2020 4013.71 3132.40 64.39 11.00 406.01 3023.43
   08:40:03.294.03-Feb-2020 4013.71 3132.40 64.39 11.00 406.21 3023.43
   08:40:03.494.03-Feb-2020 4013.71 3132.45 64.39 11.00 406.41 3023.43
   08:40:03.694.03-Feb-2020 4013.71 3132.41 64.39 11.00 406.61 3023.43
