~Version Information
 VERS.                  2.0:   CWLS log ASCII Standard -VERSION 2.0
 WRAP.                   NO:   One line per depth step
~Well Information Block
#MNEM.UNIT     VALUE/NAME     DESCRIPTION
#---------     -----------    ---------------------------
 STRT.S             03:46:27 03-Feb-20: START TIME 03:46:27 03-Feb-20
 STOP.S             03:54:17 03-Feb-20: STOP TIME  03:54:17 03-Feb-20
 STEP.S                   0.00: STEP TIME
 NULL.                 -999.25: NULL VALUE
 DFWT.                        :  DIST FWL TEXT
 DFST.                        :  DIST FSL TEXT
 DMF .             Drill Floor:  DRILL MEAS FROM
 STIM.      09.30.00 26-Dec-19:  START TIME
 DATE.      08.00.00 20-Jan-20:  END TIME
 SPUD.               23-Nov-19:  SPUD DATE
 NREF.                    Grid:  NORTH REFERENCE
 HPTY.       Minimum Curvature:  HOLE POS TYPE
 DMOD.             Drill Model:  DRILL MOD DESC
 SVYD.                  Survey:  SURVEY DESC
 ILTD.               Lithology:  INTERP LTH DESC
 FTOP.          Formation Tops:  FORM TOPS DESC
 SON .        AZ-XX-0906192647:  JOB NUMBER
 WTYP.                Deviated:  WELL TYPE
 COMP.     BP Exploration (Caspian Sea) Ltd:  COMPANY
 BASE.              Azerbaijan:  LOGGING EQUIPMENT BASE LOCATION
 REGN.                 Eurasia:  REGION
 FLD .                     ACG:  FIELD NAME
 SRVC.              KCA Deutag:  CONTRACTOR
 MWDS.                    Baku:  MWD SHOP
 WELL.     A10 (Slot 20) - SCP:  WELL NAME
 JOBN.        AZ-XX-0906192647:  JOB TICKET NUMB
 RIG .                 Chirag1:  RIG NAME
 DCON.     Halliburton Sperry Drilling:  DIRECTNL CONTR
 UNIT.                     N/A:  LOGGING EQUIPMENT ID
 PDAT.          Mean Sea Level:  PERMANENT DATUM
 MDS .        Operator Entered:  MAG DATA SOURCE
 CTRY.              Azerbaijan:  COUNTRY NAME
 UWI .            /AZE00000090:  UNIQUE WELL IDENTIFIER
 API .            /AZE00000090:  API NUMBER
 CNTY.                        :  COUNTY
 PROV.                        :  PROVINCE
 STAT.                        :  STATE
 LOC .                        :  LOCATION
 LMF .             Drill Floor:  LOG MEASURED FROM
 TVDS.m                  36.60:  TVDSS CORRECTN
 LATI.deg                40.08:  LATITUDE
 LONG.deg                51.24:  LONGITUDE
 WHNS.m                  -7.94:  WELL HEAD N/S
 WHEW.m                   1.56:  WELL HEAD E/W
 UTMX.m              520429.26:  UTM X
 UTMY.m             4438973.87:  UTM Y
 DFWL.m                   0.00:  DISTANCE FWL
 DFSL.m                   0.00:  DISTANCE FSL
 SDEP.m                1455.00:  START DEPTH
 TDD .m                4047.51:  TOTAL DEPTH (DRILLER)
 VSDR.deg               112.75:  VERT SEC DIRECT
 GVFD.g                   1.00:  GRAVITY FIELD
 MFLD.nT              50261.00:  MAGNETIC FIELD
 MDIP.deg                59.52:  MAGNETIC DIP
 MDEC.deg                 6.42:  MAGNETIC DECL
 GRDC.deg                 0.17:  GRID CORRECTION
 AZTC.deg                 6.25:  AZM TOTAL CORR
 EPD .m                   0.00:  ELEVATION
 EGL .m                   0.00:  GROUND ELEVATION
 WDMS.m                 121.00:  WD ELEV
 APD .m                  36.60:  DEPTH ABOVE PD
 AGAP.m                  36.60:  AIR GAP
 VSEW.m                   1.56:  VERT SEC E/W
 VSNS.m                  -7.94:  VERT SEC N/S
 DEP .m                1140.01:  DEPTH
 EKB .m                  36.60:  KB ELEVATION
 EDF .m                  36.60:  DF ELEVATION
 VSC .                       0:  VS TO CLOSURE
 MAGU.                 1849206:  MAGUTM CHECKSUM
~Parameter Information Block
#MNEM.UNIT       Value        Description
#---------     -----------    ---------------------------
 AV  .mps                 1.70:  Ann Velocity 
 AVMX.mps                 2.30:  Max Ann Veloc 
 AZIF.deg               137.03:  Azm, Final 
 BHAT.                   Other:  BHA Type 
 BROT.°/30m               0.80:  Build Rotating 
 BS  .in                  8.00:  Bit Size 
 BTPL.psig              161.00:  Bit Press Loss 
 CABU.                      No:  Customer Abuse 
 COMM.                     d£g:  Run Comments 1 
 TCS .hr                  9.59:  Time Ciculation Ended 
 CV  .mps                 3.76:  Crit Velocity 
 CVMX.mps                 4.26:  Max Crit Veloc 
 DD1 .         Intigam Rahimov:  Direct Drillr 1 
 DD2 .          Rashad Gojayev:  Direct Drillr 2 
 DDSV.                   Other:  DD Service 
 DEFF.%                 100.00:  % Det Eff 
 DLRX.°/30m               1.44:  Dogleg Rot Max 
 DLSO.°/30m               0.00:  Dogleg Oriented 
 DLSX.°/30m               0.00:  Dogleg Str Max 
 DRET.      03.31.12 02-Feb-20:  Drill End Time 
 DRST.      03.31.12 02-Feb-20:  Drill Start Tim 
 DTIM.hr                  1.99:  Time Drilling 
 EDEP.m                4047.51:  End Depth 
 ENG1.           Eldar Hajiyev:  Engineer 1 
 ENG2.          Rasim Hashimov:  Engineer 2 
 ENG3.          Rustam Safarov:  Engineer 3 
 ETIM.      03.31.12 02-Feb-20:  End Time 
 FLOI.gpm               300.00:  Flow In 
 FLON.gpm               250.00:  Flow In Min 
 FLOS.cptm                0.00:  Fluid Loss 
 FLOX.gpm               330.00:  Flow In Max 
 HFLO.                      No:  High Flow 
 HPRE.                      No:  High Pressure 
 HTEM.                      No:  High Temp 
 HYDO.m                   2.50:  Hydro Offset 
 IFIN.deg                39.54:  Inc, Final 
 IMAX.deg                41.14:  Inc Max 
 IMIN.deg                39.81:  Inc Min 
 IMND.m                4005.21:  Inc Min Depth 
 IMXD.m                3948.42:  Inc Max Depth 
 JARR.                      No:  Jarring 
 LETM.      03.31.12 02-Feb-20:  Log End Time 
 LOST.hr                     0:  Lost Rig Time 
 LSTM.      03.31.12 02-Feb-20:  Log Start Time 
 MDCL.ppm             35000.00:  Mud Chlorides 
 MDES.     Inversion Oil/Synthetic:  Mud Desc 
 DFD .sg                  1.32:  Mud Density 
 MDMN.sg                  1.32:  Dens Mud Min 
 MDMX.sg                  1.32:  Dens Mud Max 
 MOIL.                      59:  Run Mud Oil % 
 MOWR.                   71:29:  Run Mud OWR 
 MSND.                       0:  Run Mud Sand % 
 MSOL.                      17:  Run Mud Solids% 
 DFV .spqt               86.00:  Mud Viscosity 
 MWOD.in                  4.75:  MWD Tool OD 
 MWSI.                      No:  Serv Intrp, MWD 
 OTIM.hr                 46.72:  Time Operating 
 PCON.           Look Like New:  Pad Condition 
 PMAX.psia             3300.00:  Press Op, Max 
 PV  .cP                 30.00:  Mud PV 
 RUN .                     400:  Run Number 
 ROPA.m/hr               35.00:  ROP Avg 
 ROPN.m/hr               25.00:  ROP Min 
 ROPX.m/hr               40.00:  ROP Max 
 RPMA.rpm                80.00:  RPM Surface Avg 
 RPMN.rpm                60.00:  RPM Surface Min 
 RPMX.rpm               100.00:  RPM Surface Max 
 RRUN.                     400:  Rig Run Number 
 RTIM.hr                  1.99:  Time Reaming 
 SAZI.deg               133.93:  Azm, Start 
 SDEP.m                4047.51:  Start Depth 
 SIDD.                      No:  Serv Intrp, DD 
 SINC.deg                40.28:  Inc, Start 
 SPPA.psig             3250.00:  SPP Avg 
 SPPN.psig             3200.00:  SPP Min 
 SPPX.psig             3300.00:  SPP Max 
 STIM.      03.31.12 02-Feb-20:  Start Time 
 SVCS.                 DD, MWD:  Services 
 SVER.                    9.20:  Sperry Version 
 TDAT.m                  47.00:  Tot Depth Attmp 
 TDDF.                      No:  Trip for DD 
 TFF .                      No:  Trip for Fail 
 TQAA.f-kp                0.00:  Torque Abs Avg 
 TQAN.f-kp                0.00:  Torque Abs Min 
 TQAX.f-kp                0.00:  Torque Abs Max 
 TRRT.°/30m               0.70:  Turn Rotating 
 MRT .                    HCIM:  Maximum Recorded Temperature 
 TTMX.degC               70.59:  Max Tool Temp 
 VS01.             90598770F11:  Virtual Str1 SN 
 VS02.             90598769F11:  Virtual Str2 SN 
 VS03.            90515978Z1W1:  Virtual Str3 SN 
 VS04.          90584144R12X14:  Virtual Str4 SN 
 WBMN.klb                 0.00:  WOB Min 
 WITN.            Peter Wilson:  Customer Rep 
 WOBA.klb                 0.00:  WOB Avg 
 WOBX.klb                 0.00:  WOB Max 
 YP  .lhf2               29.00:  Yield Point 
~Curve Information Block
#MNEM.UNIT                 API CODE     Curve Description
#---------               -----------    ---------------------------
 TIME.HHMMSS            00 000 000 000:  GT Time & Date
 GTDEPTH.m              00 000 000 000:  GT Depth
 GTPQH.psia             00 000 000 000:  GT HR Quartz Pressure
 GTTQ.degC              00 000 000 000:  GT Quartz Temperature
 GTTN.NONE              00 000 000 000:  GT Test Number
 GTET.sec               00 000 000 000:  GT Elapsed Test Time
 GTTVD.m                00 000 000 000:  GT True Vertical Depth
#Other Information
#
#WARRANTY: Halliburton will use its best efforts to furnish customers with 
#accurate information and interpretations that are part of, and incident to, the services 
#provided.  However, Halliburton cannot and does not warrant the accuracy 
#or correctness of such information and interpretations.  Under no circumstances should any 
#such information or interpretation be relied upon as the sole basis for any drilling, 
#completion, production, or financial decision or any procedure involving any risk to the 
#safety of any drilling venture, drilling rig or its crew or any other third party.  The 
#Customer has full responsibility for all drilling, completion and production operation.  
#Halliburton makes no representations or warranties, either expressed or 
#implied, including, but not limited to, the implied warranties of merchantability or fitness 
#for a particular purpose, with respect to the services rendered.  In no event will 
#Halliburton be liable for failure to obtain any particular results or for 
#any damages, including, but not limited to, indirect, special or consequential damages, 
#resulting from the use of any information or interpretation provided by Halliburton.
#
~A           TIME           GTDEPTH  GTPQH  GTTQ  GTTN  GTET   GTTVD  
# ...
   03:51:26.542.03-Feb-2020 4013.21 2867.66 64.22 3.00 299.06 3023.05
   03:51:26.742.03-Feb-2020 4013.21 2867.66 64.22 3.00 299.26 3023.05
   03:51:26.942.03-Feb-2020 4013.21 2714.63 64.22 3.00 299.46 3023.05
   03:51:27.142.03-Feb-2020 4013.21 2691.84 64.22 3.00 299.66 3023.05
   03:51:27.342.03-Feb-2020 4013.21 2677.95 64.22 3.00 299.86 3023.05
   03:51:27.542.03-Feb-2020 4013.21 2670.06 64.22 3.00 300.06 3023.05
   03:51:27.742.03-Feb-2020 4013.21 2670.06 64.22 3.00 300.26 3023.05
   03:51:27.942.03-Feb-2020 4013.21 2660.13 64.22 3.00 300.46 3023.05
   03:51:28.143.03-Feb-2020 4013.21 2656.98 64.22 3.00 300.66 3023.05
   03:51:28.343.03-Feb-2020 4013.21 2653.42 64.22 3.00 300.86 3023.05
   03:51:28.543.03-Feb-2020 4013.21 2651.58 64.22 3.00 301.06 3023.05
   03:51:28.743.03-Feb-2020 4013.21 2651.58 64.22 3.00 301.26 3023.05
   03:51:28.943.03-Feb-2020 4013.21 2652.34 64.21 3.00 301.46 3023.05
   03:51:29.143.03-Feb-2020 4013.21 2648.97 64.21 3.00 301.66 3023.05
   03:51:29.343.03-Feb-2020 4013.21 2653.76 64.21 3.00 301.86 3023.05
   03:51:29.543.03-Feb-2020 4013.21 2651.68 64.21 3.00 302.06 3023.05
   03:51:29.743.03-Feb-2020 4013.21 2651.68 64.21 3.00 302.26 3023.05
   03:51:29.943.03-Feb-2020 4013.21 2648.22 64.21 3.00 302.46 3023.05
   03:51:30.143.03-Feb-2020 4013.21 2652.38 64.21 3.00 302.66 3023.05
   03:51:30.343.03-Feb-2020 4013.21 2650.93 64.21 3.00 302.86 3023.05
   03:51:30.543.03-Feb-2020 4013.21 2651.55 64.21 3.00 303.06 3023.05
   03:51:30.743.03-Feb-2020 4013.21 2651.55 64.21 3.00 303.26 3023.05
   03:51:30.943.03-Feb-2020 4013.21 2647.27 64.21 3.00 303.46 3023.05
   03:51:31.143.03-Feb-2020 4013.21 2644.35 64.21 3.00 303.66 3023.05
   03:51:31.343.03-Feb-2020 4013.21 2648.55 64.21 3.00 303.86 3023.05
   03:51:31.543.03-Feb-2020 4013.21 2647.98 64.21 3.00 304.06 3023.05
   03:51:31.743.03-Feb-2020 4013.21 2647.98 64.21 3.00 304.26 3023.05
   03:51:31.943.03-Feb-2020 4013.21 2646.80 64.21 3.00 304.46 3023.05
   03:51:32.143.03-Feb-2020 4013.21 2651.56 64.21 3.00 304.66 3023.05
   03:51:32.343.03-Feb-2020 4013.21 2648.22 64.21 3.00 304.86 3023.05
   03:51:32.543.03-Feb-2020 4013.21 2647.44 64.21 3.00 305.06 3023.05
   03:51:32.743.03-Feb-2020 4013.21 2647.44 64.21 3.00 305.26 3023.05
   03:51:32.944.03-Feb-2020 4013.21 2648.75 64.21 3.00 305.46 3023.05
   03:51:33.144.03-Feb-2020 4013.21 2647.44 64.21 3.00 305.66 3023.05
   03:51:33.344.03-Feb-2020 4013.21 2649.68 64.21 3.00 305.86 3023.05
   03:51:33.544.03-Feb-2020 4013.21 2648.34 64.21 3.00 306.06 3023.05
   03:51:33.744.03-Feb-2020 4013.21 2648.34 64.21 3.00 306.26 3023.05
   03:51:33.944.03-Feb-2020 4013.21 2645.66 64.21 3.00 306.46 3023.05
   03:51:34.144.03-Feb-2020 4013.21 2646.33 64.21 3.00 306.66 3023.05
   03:51:34.344.03-Feb-2020 4013.21 2648.16 64.21 3.00 306.86 3023.05
   03:51:34.544.03-Feb-2020 4013.21 2648.03 64.21 3.00 307.06 3023.05
   03:51:34.744.03-Feb-2020 4013.21 2648.03 64.21 3.00 307.26 3023.05
   03:51:34.944.03-Feb-2020 4013.21 2647.53 64.21 3.00 307.46 3023.05
   03:51:35.144.03-Feb-2020 4013.21 2647.80 64.21 3.00 307.66 3023.05
   03:51:35.344.03-Feb-2020 4013.21 2641.15 64.21 3.00 307.86 3023.05
   03:51:35.544.03-Feb-2020 4013.21 2647.18 64.21 3.00 308.06 3023.05
   03:51:35.744.03-Feb-2020 4013.21 2647.18 64.21 3.00 308.26 3023.05
   03:51:35.944.03-Feb-2020 4013.21 2648.44 64.21 3.00 308.46 3023.05
   03:51:36.144.03-Feb-2020 4013.21 2645.30 64.21 3.00 308.66 3023.05
   03:51:36.344.03-Feb-2020 4013.21 2645.47 64.21 3.00 308.86 3023.05
   03:51:36.544.03-Feb-2020 4013.21 2770.65 64.21 3.00 309.06 3023.05
   03:51:36.744.03-Feb-2020 4013.21 2770.65 64.21 3.00 309.26 3023.05
   03:51:36.944.03-Feb-2020 4013.21 3029.59 64.21 3.00 309.46 3023.05
   03:51:37.144.03-Feb-2020 4013.21 3075.57 64.20 3.00 309.66 3023.05
   03:51:37.344.03-Feb-2020 4013.21 3099.23 64.20 3.00 309.86 3023.05
   03:51:37.545.03-Feb-2020 4013.21 3112.01 64.20 3.00 310.06 3023.05
   03:51:37.745.03-Feb-2020 4013.21 3112.01 64.20 3.00 310.26 3023.05
   03:51:37.945.03-Feb-2020 4013.21 3123.12 64.20 3.00 310.47 3023.05
   03:51:38.145.03-Feb-2020 4013.21 3125.56 64.20 3.00 310.67 3023.05
   03:51:38.345.03-Feb-2020 4013.21 3127.61 64.20 3.00 310.87 3023.05
   03:51:38.545.03-Feb-2020 4013.21 3128.67 64.20 3.00 311.07 3023.05
   03:51:38.745.03-Feb-2020 4013.21 3128.67 64.20 3.00 311.27 3023.05
   03:51:38.945.03-Feb-2020 4013.21 3130.18 64.20 3.00 311.47 3023.05
   03:51:39.145.03-Feb-2020 4013.21 3130.39 64.20 3.00 311.67 3023.05
   03:51:39.345.03-Feb-2020 4013.21 3131.15 64.20 3.00 311.87 3023.05
   03:51:39.545.03-Feb-2020 4013.21 3131.48 64.20 3.00 312.07 3023.05
   03:51:39.745.03-Feb-2020 4013.21 3131.48 64.20 3.00 312.27 3023.05
   03:51:39.945.03-Feb-2020 4013.21 3132.19 64.20 3.00 312.47 3023.05
   03:51:40.145.03-Feb-2020 4013.21 3132.11 64.20 3.00 312.67 3023.05
   03:51:40.345.03-Feb-2020 4013.21 3132.59 64.20 3.00 312.87 3023.05
   03:51:40.545.03-Feb-2020 4013.21 3132.73 64.20 3.00 313.07 3023.05
   03:51:40.745.03-Feb-2020 4013.21 3132.73 64.20 3.00 313.27 3023.05
   03:51:40.945.03-Feb-2020 4013.21 3133.20 64.20 3.00 313.47 3023.05
   03:51:41.145.03-Feb-2020 4013.21 3133.02 64.20 3.00 313.67 3023.05
   03:51:41.345.03-Feb-2020 4013.21 3133.37 64.20 3.00 313.87 3023.05
   03:51:41.545.03-Feb-2020 4013.21 3133.45 64.20 3.00 314.07 3023.05
   03:51:41.745.03-Feb-2020 4013.21 3133.45 64.20 3.00 314.27 3023.05
   03:51:41.945.03-Feb-2020 4013.21 3133.69 64.20 3.00 314.47 3023.05
   03:51:42.145.03-Feb-2020 4013.21 3133.86 64.20 3.00 314.67 3023.05
   03:51:42.346.03-Feb-2020 4013.21 3133.93 64.20 3.00 314.87 3023.05
   03:51:42.546.03-Feb-2020 4013.21 3133.98 64.20 3.00 315.07 3023.05
   03:51:42.746.03-Feb-2020 4013.21 3133.98 64.20 3.00 315.27 3023.05
   03:51:42.946.03-Feb-2020 4013.21 3134.08 64.20 3.00 315.47 3023.05
   03:51:43.146.03-Feb-2020 4013.21 3134.21 64.20 3.00 315.67 3023.05
   03:51:43.346.03-Feb-2020 4013.21 3134.25 64.20 3.00 315.87 3023.05
   03:51:43.546.03-Feb-2020 4013.21 3134.30 64.20 3.00 316.07 3023.05
   03:51:43.746.03-Feb-2020 4013.21 3134.30 64.20 3.00 316.27 3023.05
   03:51:43.946.03-Feb-2020 4013.21 3134.41 64.20 3.00 316.47 3023.05
   03:51:44.146.03-Feb-2020 4013.21 3134.52 64.20 3.00 316.67 3023.05
   03:51:44.346.03-Feb-2020 4013.21 3134.44 64.20 3.00 316.87 3023.05
   03:51:44.546.03-Feb-2020 4013.21 3134.43 64.20 3.00 317.07 3023.05
   03:51:44.746.03-Feb-2020 4013.21 3134.43 64.20 3.00 317.27 3023.05
   03:51:44.946.03-Feb-2020 4013.21 3134.70 64.20 3.00 317.47 3023.05
   03:51:45.146.03-Feb-2020 4013.21 3134.70 64.20 3.00 317.67 3023.05
   03:51:45.346.03-Feb-2020 4013.21 3134.76 64.20 3.00 317.87 3023.05
   03:51:45.546.03-Feb-2020 4013.21 3134.76 64.20 3.00 318.07 3023.05
   03:51:45.746.03-Feb-2020 4013.21 3134.76 64.20 3.00 318.27 3023.05
   03:51:45.946.03-Feb-2020 4013.21 3134.86 64.20 3.00 318.47 3023.05
   03:51:46.146.03-Feb-2020 4013.21 3134.91 64.20 3.00 318.67 3023.05
   03:51:46.346.03-Feb-2020 4013.21 3134.96 64.20 3.00 318.87 3023.05
   03:51:46.546.03-Feb-2020 4013.21 3134.96 64.20 3.00 319.07 3023.05
   03:51:46.746.03-Feb-2020 4013.21 3134.96 64.20 3.00 319.27 3023.05
   03:51:46.946.03-Feb-2020 4013.21 3134.88 64.20 3.00 319.47 3023.05
   03:51:47.147.03-Feb-2020 4013.21 3134.92 64.20 3.00 319.67 3023.05
   03:51:47.347.03-Feb-2020 4013.21 3135.17 64.20 3.00 319.87 3023.05
   03:51:47.547.03-Feb-2020 4013.21 3135.10 64.20 3.00 320.07 3023.05
   03:51:47.747.03-Feb-2020 4013.21 3135.10 64.20 3.00 320.27 3023.05
   03:51:47.947.03-Feb-2020 4013.21 3135.09 64.20 3.00 320.47 3023.05
   03:51:48.147.03-Feb-2020 4013.21 3135.29 64.20 3.00 320.67 3023.05
   03:51:48.347.03-Feb-2020 4013.21 3135.26 64.20 3.00 320.87 3023.05
   03:51:48.547.03-Feb-2020 4013.21 3135.32 64.20 3.00 321.07 3023.05
   03:51:48.747.03-Feb-2020 4013.21 3135.32 64.20 3.00 321.27 3023.05
   03:51:48.947.03-Feb-2020 4013.21 3135.27 64.20 3.00 321.47 3023.05
   03:51:49.147.03-Feb-2020 4013.21 3135.04 64.20 3.00 321.67 3023.05
   03:51:49.347.03-Feb-2020 4013.21 3135.39 64.20 3.00 321.87 3023.05
