~Version Information
 VERS.                  2.0:   CWLS log ASCII Standard -VERSION 2.0
 WRAP.                   NO:   One line per depth step
~Well Information Block
#MNEM.UNIT     VALUE/NAME     DESCRIPTION
#---------     -----------    ---------------------------
 STRT.S             08:07:30 03-Feb-20: START TIME 08:07:30 03-Feb-20
 STOP.S             08:15:16 03-Feb-20: STOP TIME  08:15:16 03-Feb-20
 STEP.S                   0.00: STEP TIME
 NULL.                 -999.25: NULL VALUE
 DFWT.                        :  DIST FWL TEXT
 DFST.                        :  DIST FSL TEXT
 DMF .             Drill Floor:  DRILL MEAS FROM
 STIM.      09.30.00 26-Dec-19:  START TIME
 DATE.      08.00.00 20-Jan-20:  END TIME
 SPUD.               23-Nov-19:  SPUD DATE
 NREF.                    Grid:  NORTH REFERENCE
 HPTY.       Minimum Curvature:  HOLE POS TYPE
 DMOD.             Drill Model:  DRILL MOD DESC
 SVYD.                  Survey:  SURVEY DESC
 ILTD.               Lithology:  INTERP LTH DESC
 FTOP.          Formation Tops:  FORM TOPS DESC
 SON .        AZ-XX-0906192647:  JOB NUMBER
 WTYP.                Deviated:  WELL TYPE
 COMP.     BP Exploration (Caspian Sea) Ltd:  COMPANY
 BASE.              Azerbaijan:  LOGGING EQUIPMENT BASE LOCATION
 REGN.                 Eurasia:  REGION
 FLD .                     ACG:  FIELD NAME
 SRVC.              KCA Deutag:  CONTRACTOR
 MWDS.                    Baku:  MWD SHOP
 WELL.     A10 (Slot 20) - SCP:  WELL NAME
 JOBN.        AZ-XX-0906192647:  JOB TICKET NUMB
 RIG .                 Chirag1:  RIG NAME
 DCON.     Halliburton Sperry Drilling:  DIRECTNL CONTR
 UNIT.                     N/A:  LOGGING EQUIPMENT ID
 PDAT.          Mean Sea Level:  PERMANENT DATUM
 MDS .        Operator Entered:  MAG DATA SOURCE
 CTRY.              Azerbaijan:  COUNTRY NAME
 UWI .            /AZE00000090:  UNIQUE WELL IDENTIFIER
 API .            /AZE00000090:  API NUMBER
 CNTY.                        :  COUNTY
 PROV.                        :  PROVINCE
 STAT.                        :  STATE
 LOC .                        :  LOCATION
 LMF .             Drill Floor:  LOG MEASURED FROM
 TVDS.m                  36.60:  TVDSS CORRECTN
 LATI.deg                40.08:  LATITUDE
 LONG.deg                51.24:  LONGITUDE
 WHNS.m                  -7.94:  WELL HEAD N/S
 WHEW.m                   1.56:  WELL HEAD E/W
 UTMX.m              520429.26:  UTM X
 UTMY.m             4438973.87:  UTM Y
 DFWL.m                   0.00:  DISTANCE FWL
 DFSL.m                   0.00:  DISTANCE FSL
 SDEP.m                1455.00:  START DEPTH
 TDD .m                4047.51:  TOTAL DEPTH (DRILLER)
 VSDR.deg               112.75:  VERT SEC DIRECT
 GVFD.g                   1.00:  GRAVITY FIELD
 MFLD.nT              50261.00:  MAGNETIC FIELD
 MDIP.deg                59.52:  MAGNETIC DIP
 MDEC.deg                 6.42:  MAGNETIC DECL
 GRDC.deg                 0.17:  GRID CORRECTION
 AZTC.deg                 6.25:  AZM TOTAL CORR
 EPD .m                   0.00:  ELEVATION
 EGL .m                   0.00:  GROUND ELEVATION
 WDMS.m                 121.00:  WD ELEV
 APD .m                  36.60:  DEPTH ABOVE PD
 AGAP.m                  36.60:  AIR GAP
 VSEW.m                   1.56:  VERT SEC E/W
 VSNS.m                  -7.94:  VERT SEC N/S
 DEP .m                1140.01:  DEPTH
 EKB .m                  36.60:  KB ELEVATION
 EDF .m                  36.60:  DF ELEVATION
 VSC .                       0:  VS TO CLOSURE
 MAGU.                 1849206:  MAGUTM CHECKSUM
~Parameter Information Block
#MNEM.UNIT       Value        Description
#---------     -----------    ---------------------------
 AV  .mps                 1.70:  Ann Velocity 
 AVMX.mps                 2.30:  Max Ann Veloc 
 AZIF.deg               137.03:  Azm, Final 
 BHAT.                   Other:  BHA Type 
 BROT.ฐ/30m               0.80:  Build Rotating 
 BS  .in                  8.00:  Bit Size 
 BTPL.psig              161.00:  Bit Press Loss 
 CABU.                      No:  Customer Abuse 
 COMM.                     ิงZ:  Run Comments 1 
 TCS .hr                  9.59:  Time Ciculation Ended 
 CV  .mps                 3.76:  Crit Velocity 
 CVMX.mps                 4.26:  Max Crit Veloc 
 DD1 .         Intigam Rahimov:  Direct Drillr 1 
 DD2 .          Rashad Gojayev:  Direct Drillr 2 
 DDSV.                   Other:  DD Service 
 DEFF.%                 100.00:  % Det Eff 
 DLRX.ฐ/30m               1.44:  Dogleg Rot Max 
 DLSO.ฐ/30m               0.00:  Dogleg Oriented 
 DLSX.ฐ/30m               0.00:  Dogleg Str Max 
 DRET.      03.31.12 02-Feb-20:  Drill End Time 
 DRST.      03.31.12 02-Feb-20:  Drill Start Tim 
 DTIM.hr                  1.99:  Time Drilling 
 EDEP.m                4047.51:  End Depth 
 ENG1.           Eldar Hajiyev:  Engineer 1 
 ENG2.          Rasim Hashimov:  Engineer 2 
 ENG3.          Rustam Safarov:  Engineer 3 
 ETIM.      03.31.12 02-Feb-20:  End Time 
 FLOI.gpm               300.00:  Flow In 
 FLON.gpm               250.00:  Flow In Min 
 FLOS.cptm                0.00:  Fluid Loss 
 FLOX.gpm               330.00:  Flow In Max 
 HFLO.                      No:  High Flow 
 HPRE.                      No:  High Pressure 
 HTEM.                      No:  High Temp 
 HYDO.m                   2.50:  Hydro Offset 
 IFIN.deg                39.54:  Inc, Final 
 IMAX.deg                41.14:  Inc Max 
 IMIN.deg                39.81:  Inc Min 
 IMND.m                4005.21:  Inc Min Depth 
 IMXD.m                3948.42:  Inc Max Depth 
 JARR.                      No:  Jarring 
 LETM.      03.31.12 02-Feb-20:  Log End Time 
 LOST.hr                     0:  Lost Rig Time 
 LSTM.      03.31.12 02-Feb-20:  Log Start Time 
 MDCL.ppm             35000.00:  Mud Chlorides 
 MDES.     Inversion Oil/Synthetic:  Mud Desc 
 DFD .sg                  1.32:  Mud Density 
 MDMN.sg                  1.32:  Dens Mud Min 
 MDMX.sg                  1.32:  Dens Mud Max 
 MOIL.                      59:  Run Mud Oil % 
 MOWR.                   71:29:  Run Mud OWR 
 MSND.                       0:  Run Mud Sand % 
 MSOL.                      17:  Run Mud Solids% 
 DFV .spqt               86.00:  Mud Viscosity 
 MWOD.in                  4.75:  MWD Tool OD 
 MWSI.                      No:  Serv Intrp, MWD 
 OTIM.hr                 46.72:  Time Operating 
 PCON.           Look Like New:  Pad Condition 
 PMAX.psia             3300.00:  Press Op, Max 
 PV  .cP                 30.00:  Mud PV 
 RUN .                     400:  Run Number 
 ROPA.m/hr               35.00:  ROP Avg 
 ROPN.m/hr               25.00:  ROP Min 
 ROPX.m/hr               40.00:  ROP Max 
 RPMA.rpm                80.00:  RPM Surface Avg 
 RPMN.rpm                60.00:  RPM Surface Min 
 RPMX.rpm               100.00:  RPM Surface Max 
 RRUN.                     400:  Rig Run Number 
 RTIM.hr                  1.99:  Time Reaming 
 SAZI.deg               133.93:  Azm, Start 
 SDEP.m                4047.51:  Start Depth 
 SIDD.                      No:  Serv Intrp, DD 
 SINC.deg                40.28:  Inc, Start 
 SPPA.psig             3250.00:  SPP Avg 
 SPPN.psig             3200.00:  SPP Min 
 SPPX.psig             3300.00:  SPP Max 
 STIM.      03.31.12 02-Feb-20:  Start Time 
 SVCS.                 DD, MWD:  Services 
 SVER.                    9.20:  Sperry Version 
 TDAT.m                  47.00:  Tot Depth Attmp 
 TDDF.                      No:  Trip for DD 
 TFF .                      No:  Trip for Fail 
 TQAA.f-kp                0.00:  Torque Abs Avg 
 TQAN.f-kp                0.00:  Torque Abs Min 
 TQAX.f-kp                0.00:  Torque Abs Max 
 TRRT.ฐ/30m               0.70:  Turn Rotating 
 MRT .                    HCIM:  Maximum Recorded Temperature 
 TTMX.degC               70.59:  Max Tool Temp 
 VS01.             90598770F11:  Virtual Str1 SN 
 VS02.             90598769F11:  Virtual Str2 SN 
 VS03.            90515978Z1W1:  Virtual Str3 SN 
 VS04.          90584144R12X14:  Virtual Str4 SN 
 WBMN.klb                 0.00:  WOB Min 
 WITN.            Peter Wilson:  Customer Rep 
 WOBA.klb                 0.00:  WOB Avg 
 WOBX.klb                 0.00:  WOB Max 
 YP  .lhf2               29.00:  Yield Point 
~Curve Information Block
#MNEM.UNIT                 API CODE     Curve Description
#---------               -----------    ---------------------------
 TIME.HHMMSS            00 000 000 000:  GT Time & Date
 GTDEPTH.m              00 000 000 000:  GT Depth
 GTPQH.psia             00 000 000 000:  GT HR Quartz Pressure
 GTTQ.degC              00 000 000 000:  GT Quartz Temperature
 GTTN.NONE              00 000 000 000:  GT Test Number
 GTET.sec               00 000 000 000:  GT Elapsed Test Time
 GTTVD.m                00 000 000 000:  GT True Vertical Depth
#Other Information
#
#WARRANTY: Halliburton will use its best efforts to furnish customers with 
#accurate information and interpretations that are part of, and incident to, the services 
#provided.  However, Halliburton cannot and does not warrant the accuracy 
#or correctness of such information and interpretations.  Under no circumstances should any 
#such information or interpretation be relied upon as the sole basis for any drilling, 
#completion, production, or financial decision or any procedure involving any risk to the 
#safety of any drilling venture, drilling rig or its crew or any other third party.  The 
#Customer has full responsibility for all drilling, completion and production operation.  
#Halliburton makes no representations or warranties, either expressed or 
#implied, including, but not limited to, the implied warranties of merchantability or fitness 
#for a particular purpose, with respect to the services rendered.  In no event will 
#Halliburton be liable for failure to obtain any particular results or for 
#any damages, including, but not limited to, indirect, special or consequential damages, 
#resulting from the use of any information or interpretation provided by Halliburton.
#
~A           TIME           GTDEPTH  GTPQH  GTTQ  GTTN   GTET   GTTVD  
# ...
   08:13:09.049.03-Feb-2020 4023.01 3151.40 65.62 10.00 339.01 3030.56
   08:13:09.249.03-Feb-2020 4023.01 3151.40 65.62 10.00 339.21 3030.56
   08:13:09.449.03-Feb-2020 4023.01 3151.84 65.62 10.00 339.41 3030.56
   08:13:09.649.03-Feb-2020 4023.01 3151.61 65.62 10.00 339.61 3030.56
   08:13:09.849.03-Feb-2020 4023.01 3152.29 65.62 10.00 339.81 3030.56
   08:13:10.049.03-Feb-2020 4023.01 3152.25 65.62 10.00 340.01 3030.56
   08:13:10.249.03-Feb-2020 4023.01 3152.25 65.62 10.00 340.21 3030.56
   08:13:10.449.03-Feb-2020 4023.01 3152.63 65.62 10.00 340.41 3030.56
   08:13:10.649.03-Feb-2020 4023.01 3152.53 65.62 10.00 340.61 3030.56
   08:13:10.849.03-Feb-2020 4023.01 3152.88 65.62 10.00 340.81 3030.56
   08:13:11.049.03-Feb-2020 4023.01 3152.90 65.62 10.00 341.01 3030.56
   08:13:11.249.03-Feb-2020 4023.01 3152.90 65.62 10.00 341.21 3030.56
   08:13:11.449.03-Feb-2020 4023.01 3153.27 65.62 10.00 341.41 3030.56
   08:13:11.649.03-Feb-2020 4023.01 3153.55 65.62 10.00 341.61 3030.56
   08:13:11.849.03-Feb-2020 4023.01 3153.63 65.62 10.00 341.81 3030.56
   08:13:12.049.03-Feb-2020 4023.01 3153.35 65.62 10.00 342.01 3030.56
   08:13:12.249.03-Feb-2020 4023.01 3153.35 65.62 10.00 342.21 3030.56
   08:13:12.449.03-Feb-2020 4023.01 3153.75 65.62 10.00 342.41 3030.56
   08:13:12.649.03-Feb-2020 4023.01 3154.13 65.62 10.00 342.61 3030.56
   08:13:12.849.03-Feb-2020 4023.01 3154.16 65.62 10.00 342.81 3030.56
   08:13:13.049.03-Feb-2020 4023.01 3154.26 65.62 10.00 343.01 3030.56
   08:13:13.249.03-Feb-2020 4023.01 3154.26 65.62 10.00 343.21 3030.56
   08:13:13.449.03-Feb-2020 4023.01 3154.42 65.62 10.00 343.41 3030.56
   08:13:13.649.03-Feb-2020 4023.01 3154.56 65.62 10.00 343.61 3030.56
   08:13:13.849.03-Feb-2020 4023.01 3154.72 65.62 10.00 343.81 3030.56
   08:13:14.049.03-Feb-2020 4023.01 3154.80 65.62 10.00 344.01 3030.56
   08:13:14.249.03-Feb-2020 4023.01 3154.80 65.62 10.00 344.21 3030.56
   08:13:14.449.03-Feb-2020 4023.01 3155.00 65.62 10.00 344.41 3030.56
   08:13:14.649.03-Feb-2020 4023.01 3155.08 65.62 10.00 344.61 3030.56
   08:13:14.849.03-Feb-2020 4023.01 3155.09 65.62 10.00 344.81 3030.56
   08:13:15.049.03-Feb-2020 4023.01 3155.25 65.62 10.00 345.01 3030.56
   08:13:15.249.03-Feb-2020 4023.01 3155.25 65.62 10.00 345.21 3030.56
   08:13:15.449.03-Feb-2020 4023.01 3155.10 65.62 10.00 345.41 3030.56
   08:13:15.649.03-Feb-2020 4023.01 3155.41 65.62 10.00 345.61 3030.56
   08:13:15.849.03-Feb-2020 4023.01 3155.47 65.62 10.00 345.81 3030.56
   08:13:16.049.03-Feb-2020 4023.01 3155.53 65.62 10.00 346.01 3030.56
   08:13:16.249.03-Feb-2020 4023.01 3155.53 65.62 10.00 346.21 3030.56
   08:13:16.449.03-Feb-2020 4023.01 3155.66 65.62 10.00 346.41 3030.56
   08:13:16.649.03-Feb-2020 4023.01 3155.74 65.62 10.00 346.61 3030.56
   08:13:16.849.03-Feb-2020 4023.01 3155.82 65.62 10.00 346.81 3030.56
   08:13:17.049.03-Feb-2020 4023.01 3155.89 65.61 10.00 347.01 3030.56
   08:13:17.249.03-Feb-2020 4023.01 3155.89 65.61 10.00 347.21 3030.56
   08:13:17.449.03-Feb-2020 4023.01 3155.91 65.62 10.00 347.41 3030.56
   08:13:17.649.03-Feb-2020 4023.01 3155.93 65.61 10.00 347.61 3030.56
   08:13:17.849.03-Feb-2020 4023.01 3155.52 65.61 10.00 347.81 3030.56
   08:13:18.049.03-Feb-2020 4023.01 3156.00 65.61 10.00 348.01 3030.56
   08:13:18.249.03-Feb-2020 4023.01 3156.00 65.61 10.00 348.21 3030.56
   08:13:18.449.03-Feb-2020 4023.01 3156.04 65.61 10.00 348.41 3030.56
   08:13:18.649.03-Feb-2020 4023.01 3155.97 65.61 10.00 348.61 3030.56
   08:13:18.849.03-Feb-2020 4023.01 3155.80 65.61 10.00 348.81 3030.56
   08:13:19.049.03-Feb-2020 4023.01 3156.09 65.61 10.00 349.01 3030.56
   08:13:19.249.03-Feb-2020 4023.01 3156.09 65.61 10.00 349.21 3030.56
   08:13:19.449.03-Feb-2020 4023.01 3156.25 65.61 10.00 349.41 3030.56
   08:13:19.649.03-Feb-2020 4023.01 3156.31 65.61 10.00 349.61 3030.56
   08:13:19.849.03-Feb-2020 4023.01 3156.36 65.61 10.00 349.81 3030.56
   08:13:20.049.03-Feb-2020 4023.01 3156.17 65.61 10.00 350.01 3030.56
   08:13:20.249.03-Feb-2020 4023.01 3156.17 65.61 10.00 350.21 3030.56
   08:13:20.449.03-Feb-2020 4023.01 3156.41 65.61 10.00 350.41 3030.56
   08:13:20.649.03-Feb-2020 4023.01 3156.55 65.61 10.00 350.61 3030.56
   08:13:20.849.03-Feb-2020 4023.01 3156.65 65.61 10.00 350.81 3030.56
   08:13:21.049.03-Feb-2020 4023.01 3156.76 65.61 10.00 351.01 3030.56
   08:13:21.249.03-Feb-2020 4023.01 3156.76 65.61 10.00 351.21 3030.56
   08:13:21.449.03-Feb-2020 4023.01 3156.73 65.61 10.00 351.41 3030.56
   08:13:21.649.03-Feb-2020 4023.01 3156.54 65.61 10.00 351.61 3030.56
   08:13:21.849.03-Feb-2020 4023.01 3156.86 65.61 10.00 351.81 3030.56
   08:13:22.049.03-Feb-2020 4023.01 3156.94 65.61 10.00 352.01 3030.56
   08:13:22.249.03-Feb-2020 4023.01 3156.94 65.61 10.00 352.21 3030.56
   08:13:22.450.03-Feb-2020 4023.01 3157.01 65.61 10.00 352.41 3030.56
   08:13:22.650.03-Feb-2020 4023.01 3157.05 65.61 10.00 352.61 3030.56
   08:13:22.850.03-Feb-2020 4023.01 3157.02 65.61 10.00 352.81 3030.56
   08:13:23.050.03-Feb-2020 4023.01 3157.11 65.61 10.00 353.01 3030.56
   08:13:23.250.03-Feb-2020 4023.01 3157.11 65.61 10.00 353.21 3030.56
   08:13:23.450.03-Feb-2020 4023.01 3157.22 65.61 10.00 353.41 3030.56
   08:13:23.650.03-Feb-2020 4023.01 3157.31 65.61 10.00 353.61 3030.56
   08:13:23.850.03-Feb-2020 4023.01 3157.39 65.61 10.00 353.81 3030.56
   08:13:24.050.03-Feb-2020 4023.01 3157.41 65.61 10.00 354.01 3030.56
   08:13:24.250.03-Feb-2020 4023.01 3157.41 65.61 10.00 354.21 3030.56
   08:13:24.450.03-Feb-2020 4023.01 3157.46 65.61 10.00 354.41 3030.56
   08:13:24.650.03-Feb-2020 4023.01 3157.54 65.61 10.00 354.61 3030.56
   08:13:24.850.03-Feb-2020 4023.01 3157.16 65.61 10.00 354.81 3030.56
   08:13:25.050.03-Feb-2020 4023.01 3157.72 65.61 10.00 355.01 3030.56
   08:13:25.250.03-Feb-2020 4023.01 3157.72 65.61 10.00 355.21 3030.56
   08:13:25.450.03-Feb-2020 4023.01 3157.67 65.61 10.00 355.41 3030.56
   08:13:25.650.03-Feb-2020 4023.01 3157.61 65.61 10.00 355.61 3030.56
   08:13:25.850.03-Feb-2020 4023.01 3157.70 65.61 10.00 355.81 3030.56
   08:13:26.050.03-Feb-2020 4023.01 3157.74 65.61 10.00 356.01 3030.56
   08:13:26.250.03-Feb-2020 4023.01 3157.74 65.61 10.00 356.21 3030.56
   08:13:26.450.03-Feb-2020 4023.01 3157.80 65.61 10.00 356.41 3030.56
   08:13:26.650.03-Feb-2020 4023.01 3157.84 65.61 10.00 356.61 3030.56
   08:13:26.850.03-Feb-2020 4023.01 3157.88 65.61 10.00 356.81 3030.56
   08:13:27.050.03-Feb-2020 4023.01 3157.92 65.61 10.00 357.01 3030.56
   08:13:27.250.03-Feb-2020 4023.01 3157.92 65.61 10.00 357.21 3030.56
   08:13:27.450.03-Feb-2020 4023.01 3157.73 65.61 10.00 357.41 3030.56
   08:13:27.650.03-Feb-2020 4023.01 3157.93 65.61 10.00 357.61 3030.56
   08:13:27.850.03-Feb-2020 4023.01 3158.02 65.61 10.00 357.81 3030.56
   08:13:28.050.03-Feb-2020 4023.01 3158.07 65.61 10.00 358.01 3030.56
   08:13:28.250.03-Feb-2020 4023.01 3158.07 65.61 10.00 358.21 3030.56
   08:13:28.450.03-Feb-2020 4023.01 3158.19 65.61 10.00 358.41 3030.56
   08:13:28.650.03-Feb-2020 4023.01 3158.08 65.61 10.00 358.61 3030.56
   08:13:28.850.03-Feb-2020 4023.01 3158.22 65.61 10.00 358.81 3030.56
   08:13:29.050.03-Feb-2020 4023.01 3158.20 65.61 10.00 359.01 3030.56
   08:13:29.250.03-Feb-2020 4023.01 3158.20 65.61 10.00 359.21 3030.56
   08:13:29.450.03-Feb-2020 4023.01 3158.22 65.61 10.00 359.41 3030.56
   08:13:29.650.03-Feb-2020 4023.01 3157.88 65.61 10.00 359.61 3030.56
   08:13:29.850.03-Feb-2020 4023.01 3158.47 65.61 10.00 359.81 3030.56
   08:13:30.050.03-Feb-2020 4023.01 3158.20 65.61 10.00 360.01 3030.56
   08:13:30.250.03-Feb-2020 4023.01 3158.20 65.61 10.00 360.21 3030.56
   08:13:30.450.03-Feb-2020 4023.01 3158.43 65.61 10.00 360.41 3030.56
   08:13:30.650.03-Feb-2020 4023.01 3158.49 65.61 10.00 360.61 3030.56
   08:13:30.850.03-Feb-2020 4023.01 3158.50 65.61 10.00 360.81 3030.56
   08:13:31.050.03-Feb-2020 4023.01 3158.20 65.61 10.00 361.01 3030.56
   08:13:31.250.03-Feb-2020 4023.01 3158.20 65.61 10.00 361.21 3030.56
   08:13:31.450.03-Feb-2020 4023.01 3158.45 65.61 10.00 361.41 3030.56
