~Version Information
 VERS.                  2.0:   CWLS log ASCII Standard -VERSION 2.0
 WRAP.                   NO:   One line per depth step
~Well Information Block
#MNEM.UNIT     VALUE/NAME     DESCRIPTION
#---------     -----------    ---------------------------
 STRT.S             08:07:30 03-Feb-20: START TIME 08:07:30 03-Feb-20
 STOP.S             08:15:16 03-Feb-20: STOP TIME  08:15:16 03-Feb-20
 STEP.S                   0.00: STEP TIME
 NULL.                 -999.25: NULL VALUE
 DFWT.                        :  DIST FWL TEXT
 DFST.                        :  DIST FSL TEXT
 DMF .             Drill Floor:  DRILL MEAS FROM
 STIM.      09.30.00 26-Dec-19:  START TIME
 DATE.      08.00.00 20-Jan-20:  END TIME
 SPUD.               23-Nov-19:  SPUD DATE
 NREF.                    Grid:  NORTH REFERENCE
 HPTY.       Minimum Curvature:  HOLE POS TYPE
 DMOD.             Drill Model:  DRILL MOD DESC
 SVYD.                  Survey:  SURVEY DESC
 ILTD.               Lithology:  INTERP LTH DESC
 FTOP.          Formation Tops:  FORM TOPS DESC
 SON .        AZ-XX-0906192647:  JOB NUMBER
 WTYP.                Deviated:  WELL TYPE
 COMP.     BP Exploration (Caspian Sea) Ltd:  COMPANY
 BASE.              Azerbaijan:  LOGGING EQUIPMENT BASE LOCATION
 REGN.                 Eurasia:  REGION
 FLD .                     ACG:  FIELD NAME
 SRVC.              KCA Deutag:  CONTRACTOR
 MWDS.                    Baku:  MWD SHOP
 WELL.     A10 (Slot 20) - SCP:  WELL NAME
 JOBN.        AZ-XX-0906192647:  JOB TICKET NUMB
 RIG .                 Chirag1:  RIG NAME
 DCON.     Halliburton Sperry Drilling:  DIRECTNL CONTR
 UNIT.                     N/A:  LOGGING EQUIPMENT ID
 PDAT.          Mean Sea Level:  PERMANENT DATUM
 MDS .        Operator Entered:  MAG DATA SOURCE
 CTRY.              Azerbaijan:  COUNTRY NAME
 UWI .            /AZE00000090:  UNIQUE WELL IDENTIFIER
 API .            /AZE00000090:  API NUMBER
 CNTY.                        :  COUNTY
 PROV.                        :  PROVINCE
 STAT.                        :  STATE
 LOC .                        :  LOCATION
 LMF .             Drill Floor:  LOG MEASURED FROM
 TVDS.m                  36.60:  TVDSS CORRECTN
 LATI.deg                40.08:  LATITUDE
 LONG.deg                51.24:  LONGITUDE
 WHNS.m                  -7.94:  WELL HEAD N/S
 WHEW.m                   1.56:  WELL HEAD E/W
 UTMX.m              520429.26:  UTM X
 UTMY.m             4438973.87:  UTM Y
 DFWL.m                   0.00:  DISTANCE FWL
 DFSL.m                   0.00:  DISTANCE FSL
 SDEP.m                1455.00:  START DEPTH
 TDD .m                4047.51:  TOTAL DEPTH (DRILLER)
 VSDR.deg               112.75:  VERT SEC DIRECT
 GVFD.g                   1.00:  GRAVITY FIELD
 MFLD.nT              50261.00:  MAGNETIC FIELD
 MDIP.deg                59.52:  MAGNETIC DIP
 MDEC.deg                 6.42:  MAGNETIC DECL
 GRDC.deg                 0.17:  GRID CORRECTION
 AZTC.deg                 6.25:  AZM TOTAL CORR
 EPD .m                   0.00:  ELEVATION
 EGL .m                   0.00:  GROUND ELEVATION
 WDMS.m                 121.00:  WD ELEV
 APD .m                  36.60:  DEPTH ABOVE PD
 AGAP.m                  36.60:  AIR GAP
 VSEW.m                   1.56:  VERT SEC E/W
 VSNS.m                  -7.94:  VERT SEC N/S
 DEP .m                1140.01:  DEPTH
 EKB .m                  36.60:  KB ELEVATION
 EDF .m                  36.60:  DF ELEVATION
 VSC .                       0:  VS TO CLOSURE
 MAGU.                 1849206:  MAGUTM CHECKSUM
~Parameter Information Block
#MNEM.UNIT       Value        Description
#---------     -----------    ---------------------------
 AV  .mps                 1.70:  Ann Velocity 
 AVMX.mps                 2.30:  Max Ann Veloc 
 AZIF.deg               137.03:  Azm, Final 
 BHAT.                   Other:  BHA Type 
 BROT.ฐ/30m               0.80:  Build Rotating 
 BS  .in                  8.00:  Bit Size 
 BTPL.psig              161.00:  Bit Press Loss 
 CABU.                      No:  Customer Abuse 
 COMM.                     ิงZ:  Run Comments 1 
 TCS .hr                  9.59:  Time Ciculation Ended 
 CV  .mps                 3.76:  Crit Velocity 
 CVMX.mps                 4.26:  Max Crit Veloc 
 DD1 .         Intigam Rahimov:  Direct Drillr 1 
 DD2 .          Rashad Gojayev:  Direct Drillr 2 
 DDSV.                   Other:  DD Service 
 DEFF.%                 100.00:  % Det Eff 
 DLRX.ฐ/30m               1.44:  Dogleg Rot Max 
 DLSO.ฐ/30m               0.00:  Dogleg Oriented 
 DLSX.ฐ/30m               0.00:  Dogleg Str Max 
 DRET.      03.31.12 02-Feb-20:  Drill End Time 
 DRST.      03.31.12 02-Feb-20:  Drill Start Tim 
 DTIM.hr                  1.99:  Time Drilling 
 EDEP.m                4047.51:  End Depth 
 ENG1.           Eldar Hajiyev:  Engineer 1 
 ENG2.          Rasim Hashimov:  Engineer 2 
 ENG3.          Rustam Safarov:  Engineer 3 
 ETIM.      03.31.12 02-Feb-20:  End Time 
 FLOI.gpm               300.00:  Flow In 
 FLON.gpm               250.00:  Flow In Min 
 FLOS.cptm                0.00:  Fluid Loss 
 FLOX.gpm               330.00:  Flow In Max 
 HFLO.                      No:  High Flow 
 HPRE.                      No:  High Pressure 
 HTEM.                      No:  High Temp 
 HYDO.m                   2.50:  Hydro Offset 
 IFIN.deg                39.54:  Inc, Final 
 IMAX.deg                41.14:  Inc Max 
 IMIN.deg                39.81:  Inc Min 
 IMND.m                4005.21:  Inc Min Depth 
 IMXD.m                3948.42:  Inc Max Depth 
 JARR.                      No:  Jarring 
 LETM.      03.31.12 02-Feb-20:  Log End Time 
 LOST.hr                     0:  Lost Rig Time 
 LSTM.      03.31.12 02-Feb-20:  Log Start Time 
 MDCL.ppm             35000.00:  Mud Chlorides 
 MDES.     Inversion Oil/Synthetic:  Mud Desc 
 DFD .sg                  1.32:  Mud Density 
 MDMN.sg                  1.32:  Dens Mud Min 
 MDMX.sg                  1.32:  Dens Mud Max 
 MOIL.                      59:  Run Mud Oil % 
 MOWR.                   71:29:  Run Mud OWR 
 MSND.                       0:  Run Mud Sand % 
 MSOL.                      17:  Run Mud Solids% 
 DFV .spqt               86.00:  Mud Viscosity 
 MWOD.in                  4.75:  MWD Tool OD 
 MWSI.                      No:  Serv Intrp, MWD 
 OTIM.hr                 46.72:  Time Operating 
 PCON.           Look Like New:  Pad Condition 
 PMAX.psia             3300.00:  Press Op, Max 
 PV  .cP                 30.00:  Mud PV 
 RUN .                     400:  Run Number 
 ROPA.m/hr               35.00:  ROP Avg 
 ROPN.m/hr               25.00:  ROP Min 
 ROPX.m/hr               40.00:  ROP Max 
 RPMA.rpm                80.00:  RPM Surface Avg 
 RPMN.rpm                60.00:  RPM Surface Min 
 RPMX.rpm               100.00:  RPM Surface Max 
 RRUN.                     400:  Rig Run Number 
 RTIM.hr                  1.99:  Time Reaming 
 SAZI.deg               133.93:  Azm, Start 
 SDEP.m                4047.51:  Start Depth 
 SIDD.                      No:  Serv Intrp, DD 
 SINC.deg                40.28:  Inc, Start 
 SPPA.psig             3250.00:  SPP Avg 
 SPPN.psig             3200.00:  SPP Min 
 SPPX.psig             3300.00:  SPP Max 
 STIM.      03.31.12 02-Feb-20:  Start Time 
 SVCS.                 DD, MWD:  Services 
 SVER.                    9.20:  Sperry Version 
 TDAT.m                  47.00:  Tot Depth Attmp 
 TDDF.                      No:  Trip for DD 
 TFF .                      No:  Trip for Fail 
 TQAA.f-kp                0.00:  Torque Abs Avg 
 TQAN.f-kp                0.00:  Torque Abs Min 
 TQAX.f-kp                0.00:  Torque Abs Max 
 TRRT.ฐ/30m               0.70:  Turn Rotating 
 MRT .                    HCIM:  Maximum Recorded Temperature 
 TTMX.degC               70.59:  Max Tool Temp 
 VS01.             90598770F11:  Virtual Str1 SN 
 VS02.             90598769F11:  Virtual Str2 SN 
 VS03.            90515978Z1W1:  Virtual Str3 SN 
 VS04.          90584144R12X14:  Virtual Str4 SN 
 WBMN.klb                 0.00:  WOB Min 
 WITN.            Peter Wilson:  Customer Rep 
 WOBA.klb                 0.00:  WOB Avg 
 WOBX.klb                 0.00:  WOB Max 
 YP  .lhf2               29.00:  Yield Point 
~Curve Information Block
#MNEM.UNIT                 API CODE     Curve Description
#---------               -----------    ---------------------------
 TIME.HHMMSS            00 000 000 000:  GT Time & Date
 GTDEPTH.m              00 000 000 000:  GT Depth
 GTPQH.psia             00 000 000 000:  GT HR Quartz Pressure
 GTTQ.degC              00 000 000 000:  GT Quartz Temperature
 GTTN.NONE              00 000 000 000:  GT Test Number
 GTET.sec               00 000 000 000:  GT Elapsed Test Time
 GTTVD.m                00 000 000 000:  GT True Vertical Depth
#Other Information
#
#WARRANTY: Halliburton will use its best efforts to furnish customers with 
#accurate information and interpretations that are part of, and incident to, the services 
#provided.  However, Halliburton cannot and does not warrant the accuracy 
#or correctness of such information and interpretations.  Under no circumstances should any 
#such information or interpretation be relied upon as the sole basis for any drilling, 
#completion, production, or financial decision or any procedure involving any risk to the 
#safety of any drilling venture, drilling rig or its crew or any other third party.  The 
#Customer has full responsibility for all drilling, completion and production operation.  
#Halliburton makes no representations or warranties, either expressed or 
#implied, including, but not limited to, the implied warranties of merchantability or fitness 
#for a particular purpose, with respect to the services rendered.  In no event will 
#Halliburton be liable for failure to obtain any particular results or for 
#any damages, including, but not limited to, indirect, special or consequential damages, 
#resulting from the use of any information or interpretation provided by Halliburton.
#
~A           TIME           GTDEPTH  GTPQH  GTTQ  GTTN   GTET   GTTVD  
   08:07:30.040.03-Feb-2020 4023.01 6085.83 65.97 10.00   0.00 3030.56
   08:07:30.240.03-Feb-2020 4023.01 6085.83 65.97 10.00   0.20 3030.56
   08:07:30.440.03-Feb-2020 4023.01 6083.36 65.97 10.00   0.40 3030.56
   08:07:30.640.03-Feb-2020 4023.01 6082.60 65.97 10.00   0.60 3030.56
   08:07:30.840.03-Feb-2020 4023.01 6081.27 65.97 10.00   0.80 3030.56
   08:07:31.040.03-Feb-2020 4023.01 6080.59 65.97 10.00   1.00 3030.56
   08:07:31.240.03-Feb-2020 4023.01 6080.59 65.97 10.00   1.20 3030.56
   08:07:31.440.03-Feb-2020 4023.01 6083.44 65.97 10.00   1.40 3030.56
   08:07:31.640.03-Feb-2020 4023.01 6082.97 65.97 10.00   1.60 3030.56
   08:07:31.840.03-Feb-2020 4023.01 6082.69 65.97 10.00   1.80 3030.56
   08:07:32.040.03-Feb-2020 4023.01 6081.43 65.97 10.00   2.00 3030.56
   08:07:32.240.03-Feb-2020 4023.01 6081.43 65.97 10.00   2.20 3030.56
   08:07:32.440.03-Feb-2020 4023.01 6080.19 65.97 10.00   2.40 3030.56
   08:07:32.640.03-Feb-2020 4023.01 6082.62 65.97 10.00   2.60 3030.56
   08:07:32.840.03-Feb-2020 4023.01 6085.50 65.97 10.00   2.80 3030.56
   08:07:33.040.03-Feb-2020 4023.01 6085.44 65.97 10.00   3.00 3030.56
   08:07:33.240.03-Feb-2020 4023.01 6085.44 65.97 10.00   3.20 3030.56
   08:07:33.440.03-Feb-2020 4023.01 6087.53 65.97 10.00   3.40 3030.56
   08:07:33.640.03-Feb-2020 4023.01 6078.08 65.96 10.00   3.60 3030.56
   08:07:33.840.03-Feb-2020 4023.01 6089.59 65.96 10.00   3.80 3030.56
   08:07:34.040.03-Feb-2020 4023.01 6086.10 65.96 10.00   4.00 3030.56
   08:07:34.240.03-Feb-2020 4023.01 6086.10 65.96 10.00   4.20 3030.56
   08:07:34.440.03-Feb-2020 4023.01 6090.49 65.96 10.00   4.40 3030.56
   08:07:34.640.03-Feb-2020 4023.01 6083.67 65.96 10.00   4.60 3030.56
   08:07:34.840.03-Feb-2020 4023.01 6091.09 65.96 10.00   4.80 3030.56
   08:07:35.040.03-Feb-2020 4023.01 6082.96 65.96 10.00   5.00 3030.56
   08:07:35.240.03-Feb-2020 4023.01 6082.96 65.96 10.00   5.20 3030.56
   08:07:35.440.03-Feb-2020 4023.01 6089.95 65.96 10.00   5.40 3030.56
   08:07:35.640.03-Feb-2020 4023.01 6090.20 65.96 10.00   5.60 3030.56
   08:07:35.840.03-Feb-2020 4023.01 6086.41 65.96 10.00   5.80 3030.56
   08:07:36.040.03-Feb-2020 4023.01 6080.25 65.96 10.00   6.00 3030.56
   08:07:36.240.03-Feb-2020 4023.01 6080.25 65.96 10.00   6.20 3030.56
   08:07:36.440.03-Feb-2020 4023.01 6083.75 65.96 10.00   6.40 3030.56
   08:07:36.640.03-Feb-2020 4023.01 6086.60 65.96 10.00   6.60 3030.56
   08:07:36.840.03-Feb-2020 4023.01 6086.70 65.96 10.00   6.80 3030.56
   08:07:37.040.03-Feb-2020 4023.01 6085.76 65.96 10.00   7.00 3030.56
   08:07:37.240.03-Feb-2020 4023.01 6085.76 65.96 10.00   7.20 3030.56
   08:07:37.440.03-Feb-2020 4023.01 6084.55 65.96 10.00   7.40 3030.56
   08:07:37.640.03-Feb-2020 4023.01 6082.77 65.96 10.00   7.60 3030.56
   08:07:37.840.03-Feb-2020 4023.01 6087.58 65.96 10.00   7.80 3030.56
   08:07:38.040.03-Feb-2020 4023.01 6086.95 65.96 10.00   8.00 3030.56
   08:07:38.240.03-Feb-2020 4023.01 6086.95 65.96 10.00   8.20 3030.56
   08:07:38.440.03-Feb-2020 4023.01 6086.83 65.96 10.00   8.40 3030.56
   08:07:38.640.03-Feb-2020 4023.01 6086.54 65.96 10.00   8.60 3030.56
   08:07:38.840.03-Feb-2020 4023.01 6087.16 65.96 10.00   8.80 3030.56
   08:07:39.040.03-Feb-2020 4023.01 6088.88 65.96 10.00   9.00 3030.56
   08:07:39.240.03-Feb-2020 4023.01 6088.88 65.96 10.00   9.20 3030.56
   08:07:39.440.03-Feb-2020 4023.01 6089.50 65.95 10.00   9.40 3030.56
   08:07:39.640.03-Feb-2020 4023.01 6088.96 65.95 10.00   9.60 3030.56
   08:07:39.840.03-Feb-2020 4023.01 6088.84 65.95 10.00   9.80 3030.56
   08:07:40.040.03-Feb-2020 4023.01 6087.35 65.95 10.00  10.00 3030.56
   08:07:40.240.03-Feb-2020 4023.01 6087.35 65.95 10.00  10.20 3030.56
   08:07:40.440.03-Feb-2020 4023.01 6077.87 65.95 10.00  10.40 3030.56
   08:07:40.640.03-Feb-2020 4023.01 6093.73 65.95 10.00  10.60 3030.56
   08:07:40.840.03-Feb-2020 4023.01 6084.76 65.95 10.00  10.80 3030.56
   08:07:41.040.03-Feb-2020 4023.01 6091.09 65.95 10.00  11.00 3030.56
   08:07:41.240.03-Feb-2020 4023.01 6091.09 65.95 10.00  11.20 3030.56
   08:07:41.440.03-Feb-2020 4023.01 6089.61 65.95 10.00  11.40 3030.56
   08:07:41.640.03-Feb-2020 4023.01 6089.77 65.95 10.00  11.60 3030.56
   08:07:41.840.03-Feb-2020 4023.01 6090.80 65.95 10.00  11.80 3030.56
   08:07:42.040.03-Feb-2020 4023.01 6091.19 65.95 10.00  12.00 3030.56
   08:07:42.240.03-Feb-2020 4023.01 6091.19 65.95 10.00  12.20 3030.56
   08:07:42.440.03-Feb-2020 4023.01 6090.29 65.95 10.00  12.40 3030.56
   08:07:42.640.03-Feb-2020 4023.01 6090.10 65.95 10.00  12.60 3030.56
   08:07:42.840.03-Feb-2020 4023.01 6089.84 65.95 10.00  12.80 3030.56
   08:07:43.040.03-Feb-2020 4023.01 6090.48 65.95 10.00  13.00 3030.56
   08:07:43.240.03-Feb-2020 4023.01 6090.48 65.95 10.00  13.20 3030.56
   08:07:43.440.03-Feb-2020 4023.01 6091.87 65.95 10.00  13.40 3030.56
   08:07:43.640.03-Feb-2020 4023.01 6091.22 65.95 10.00  13.60 3030.56
   08:07:43.840.03-Feb-2020 4023.01 6090.64 65.95 10.00  13.80 3030.56
   08:07:44.040.03-Feb-2020 4023.01 6090.12 65.95 10.00  14.00 3030.56
   08:07:44.240.03-Feb-2020 4023.01 6090.12 65.95 10.00  14.20 3030.56
   08:07:44.440.03-Feb-2020 4023.01 6091.69 65.95 10.00  14.40 3030.56
   08:07:44.640.03-Feb-2020 4023.01 6085.75 65.95 10.00  14.60 3030.56
   08:07:44.840.03-Feb-2020 4023.01 6090.73 65.95 10.00  14.80 3030.56
   08:07:45.040.03-Feb-2020 4023.01 6089.93 65.94 10.00  15.00 3030.56
   08:07:45.240.03-Feb-2020 4023.01 6089.93 65.94 10.00  15.20 3030.56
   08:07:45.440.03-Feb-2020 4023.01 6101.57 65.94 10.00  15.40 3030.56
   08:07:45.640.03-Feb-2020 4023.01 6170.93 65.94 10.00  15.60 3030.56
   08:07:45.840.03-Feb-2020 4023.01 6286.81 65.94 10.00  15.80 3030.56
   08:07:46.040.03-Feb-2020 4023.01 6372.44 65.94 10.00  16.00 3030.56
   08:07:46.240.03-Feb-2020 4023.01 6372.44 65.94 10.00  16.20 3030.56
   08:07:46.440.03-Feb-2020 4023.01 6540.74 65.94 10.00  16.40 3030.56
   08:07:46.640.03-Feb-2020 4023.01 6603.44 65.94 10.00  16.60 3030.56
   08:07:46.840.03-Feb-2020 4023.01 6657.02 65.94 10.00  16.80 3030.56
   08:07:47.040.03-Feb-2020 4023.01 6718.11 65.94 10.00  17.00 3030.56
   08:07:47.240.03-Feb-2020 4023.01 6718.11 65.94 10.00  17.20 3030.56
   08:07:47.440.03-Feb-2020 4023.01 6886.43 65.94 10.00  17.40 3030.56
   08:07:47.640.03-Feb-2020 4023.01 6904.87 65.94 10.00  17.60 3030.56
   08:07:47.840.03-Feb-2020 4023.01 6922.65 65.94 10.00  17.80 3030.56
   08:07:48.040.03-Feb-2020 4023.01 6893.17 65.94 10.00  18.00 3030.56
   08:07:48.240.03-Feb-2020 4023.01 6893.17 65.94 10.00  18.20 3030.56
   08:07:48.440.03-Feb-2020 4023.01 6867.02 65.94 10.00  18.40 3030.56
   08:07:48.640.03-Feb-2020 4023.01 6933.24 65.94 10.00  18.60 3030.56
   08:07:48.840.03-Feb-2020 4023.01 6873.76 65.94 10.00  18.80 3030.56
   08:07:49.040.03-Feb-2020 4023.01 6907.91 65.94 10.00  19.00 3030.56
   08:07:49.240.03-Feb-2020 4023.01 6907.91 65.94 10.00  19.20 3030.56
   08:07:49.440.03-Feb-2020 4023.01 6890.79 65.94 10.00  19.40 3030.56
   08:07:49.640.03-Feb-2020 4023.01 6923.37 65.94 10.00  19.60 3030.56
   08:07:49.840.03-Feb-2020 4023.01 6960.54 65.94 10.00  19.80 3030.56
   08:07:50.040.03-Feb-2020 4023.01 6973.96 65.94 10.00  20.00 3030.56
   08:07:50.240.03-Feb-2020 4023.01 6973.96 65.94 10.00  20.20 3030.56
   08:07:50.440.03-Feb-2020 4023.01 6992.66 65.94 10.00  20.40 3030.56
   08:07:50.640.03-Feb-2020 4023.01 6820.06 65.94 10.00  20.60 3030.56
   08:07:50.840.03-Feb-2020 4023.01 6758.50 65.94 10.00  20.80 3030.56
   08:07:51.040.03-Feb-2020 4023.01 6770.58 65.94 10.00  21.00 3030.56
   08:07:51.240.03-Feb-2020 4023.01 6770.58 65.94 10.00  21.20 3030.56
   08:07:51.440.03-Feb-2020 4023.01 6782.21 65.94 10.00  21.40 3030.56
   08:07:51.640.03-Feb-2020 4023.01 6785.88 65.94 10.00  21.60 3030.56
   08:07:51.840.03-Feb-2020 4023.01 6789.24 65.94 10.00  21.80 3030.56
   08:07:52.040.03-Feb-2020 4023.01 6791.40 65.94 10.00  22.00 3030.56
   08:07:52.240.03-Feb-2020 4023.01 6791.40 65.94 10.00  22.20 3030.56
   08:07:52.440.03-Feb-2020 4023.01 6795.66 65.94 10.00  22.40 3030.56
