~Version Information
 VERS.                  2.0:   CWLS log ASCII Standard -VERSION 2.0
 WRAP.                   NO:   One line per depth step
~Well Information Block
#MNEM.UNIT     VALUE/NAME     DESCRIPTION
#---------     -----------    ---------------------------
 STRT.S             03:46:27 03-Feb-20: START TIME 03:46:27 03-Feb-20
 STOP.S             03:54:17 03-Feb-20: STOP TIME  03:54:17 03-Feb-20
 STEP.S                   0.00: STEP TIME
 NULL.                 -999.25: NULL VALUE
 DFWT.                        :  DIST FWL TEXT
 DFST.                        :  DIST FSL TEXT
 DMF .             Drill Floor:  DRILL MEAS FROM
 STIM.      09.30.00 26-Dec-19:  START TIME
 DATE.      08.00.00 20-Jan-20:  END TIME
 SPUD.               23-Nov-19:  SPUD DATE
 NREF.                    Grid:  NORTH REFERENCE
 HPTY.       Minimum Curvature:  HOLE POS TYPE
 DMOD.             Drill Model:  DRILL MOD DESC
 SVYD.                  Survey:  SURVEY DESC
 ILTD.               Lithology:  INTERP LTH DESC
 FTOP.          Formation Tops:  FORM TOPS DESC
 SON .        AZ-XX-0906192647:  JOB NUMBER
 WTYP.                Deviated:  WELL TYPE
 COMP.     BP Exploration (Caspian Sea) Ltd:  COMPANY
 BASE.              Azerbaijan:  LOGGING EQUIPMENT BASE LOCATION
 REGN.                 Eurasia:  REGION
 FLD .                     ACG:  FIELD NAME
 SRVC.              KCA Deutag:  CONTRACTOR
 MWDS.                    Baku:  MWD SHOP
 WELL.     A10 (Slot 20) - SCP:  WELL NAME
 JOBN.        AZ-XX-0906192647:  JOB TICKET NUMB
 RIG .                 Chirag1:  RIG NAME
 DCON.     Halliburton Sperry Drilling:  DIRECTNL CONTR
 UNIT.                     N/A:  LOGGING EQUIPMENT ID
 PDAT.          Mean Sea Level:  PERMANENT DATUM
 MDS .        Operator Entered:  MAG DATA SOURCE
 CTRY.              Azerbaijan:  COUNTRY NAME
 UWI .            /AZE00000090:  UNIQUE WELL IDENTIFIER
 API .            /AZE00000090:  API NUMBER
 CNTY.                        :  COUNTY
 PROV.                        :  PROVINCE
 STAT.                        :  STATE
 LOC .                        :  LOCATION
 LMF .             Drill Floor:  LOG MEASURED FROM
 TVDS.m                  36.60:  TVDSS CORRECTN
 LATI.deg                40.08:  LATITUDE
 LONG.deg                51.24:  LONGITUDE
 WHNS.m                  -7.94:  WELL HEAD N/S
 WHEW.m                   1.56:  WELL HEAD E/W
 UTMX.m              520429.26:  UTM X
 UTMY.m             4438973.87:  UTM Y
 DFWL.m                   0.00:  DISTANCE FWL
 DFSL.m                   0.00:  DISTANCE FSL
 SDEP.m                1455.00:  START DEPTH
 TDD .m                4047.51:  TOTAL DEPTH (DRILLER)
 VSDR.deg               112.75:  VERT SEC DIRECT
 GVFD.g                   1.00:  GRAVITY FIELD
 MFLD.nT              50261.00:  MAGNETIC FIELD
 MDIP.deg                59.52:  MAGNETIC DIP
 MDEC.deg                 6.42:  MAGNETIC DECL
 GRDC.deg                 0.17:  GRID CORRECTION
 AZTC.deg                 6.25:  AZM TOTAL CORR
 EPD .m                   0.00:  ELEVATION
 EGL .m                   0.00:  GROUND ELEVATION
 WDMS.m                 121.00:  WD ELEV
 APD .m                  36.60:  DEPTH ABOVE PD
 AGAP.m                  36.60:  AIR GAP
 VSEW.m                   1.56:  VERT SEC E/W
 VSNS.m                  -7.94:  VERT SEC N/S
 DEP .m                1140.01:  DEPTH
 EKB .m                  36.60:  KB ELEVATION
 EDF .m                  36.60:  DF ELEVATION
 VSC .                       0:  VS TO CLOSURE
 MAGU.                 1849206:  MAGUTM CHECKSUM
~Parameter Information Block
#MNEM.UNIT       Value        Description
#---------     -----------    ---------------------------
 AV  .mps                 1.70:  Ann Velocity 
 AVMX.mps                 2.30:  Max Ann Veloc 
 AZIF.deg               137.03:  Azm, Final 
 BHAT.                   Other:  BHA Type 
 BROT.°/30m               0.80:  Build Rotating 
 BS  .in                  8.00:  Bit Size 
 BTPL.psig              161.00:  Bit Press Loss 
 CABU.                      No:  Customer Abuse 
 COMM.                     d£g:  Run Comments 1 
 TCS .hr                  9.59:  Time Ciculation Ended 
 CV  .mps                 3.76:  Crit Velocity 
 CVMX.mps                 4.26:  Max Crit Veloc 
 DD1 .         Intigam Rahimov:  Direct Drillr 1 
 DD2 .          Rashad Gojayev:  Direct Drillr 2 
 DDSV.                   Other:  DD Service 
 DEFF.%                 100.00:  % Det Eff 
 DLRX.°/30m               1.44:  Dogleg Rot Max 
 DLSO.°/30m               0.00:  Dogleg Oriented 
 DLSX.°/30m               0.00:  Dogleg Str Max 
 DRET.      03.31.12 02-Feb-20:  Drill End Time 
 DRST.      03.31.12 02-Feb-20:  Drill Start Tim 
 DTIM.hr                  1.99:  Time Drilling 
 EDEP.m                4047.51:  End Depth 
 ENG1.           Eldar Hajiyev:  Engineer 1 
 ENG2.          Rasim Hashimov:  Engineer 2 
 ENG3.          Rustam Safarov:  Engineer 3 
 ETIM.      03.31.12 02-Feb-20:  End Time 
 FLOI.gpm               300.00:  Flow In 
 FLON.gpm               250.00:  Flow In Min 
 FLOS.cptm                0.00:  Fluid Loss 
 FLOX.gpm               330.00:  Flow In Max 
 HFLO.                      No:  High Flow 
 HPRE.                      No:  High Pressure 
 HTEM.                      No:  High Temp 
 HYDO.m                   2.50:  Hydro Offset 
 IFIN.deg                39.54:  Inc, Final 
 IMAX.deg                41.14:  Inc Max 
 IMIN.deg                39.81:  Inc Min 
 IMND.m                4005.21:  Inc Min Depth 
 IMXD.m                3948.42:  Inc Max Depth 
 JARR.                      No:  Jarring 
 LETM.      03.31.12 02-Feb-20:  Log End Time 
 LOST.hr                     0:  Lost Rig Time 
 LSTM.      03.31.12 02-Feb-20:  Log Start Time 
 MDCL.ppm             35000.00:  Mud Chlorides 
 MDES.     Inversion Oil/Synthetic:  Mud Desc 
 DFD .sg                  1.32:  Mud Density 
 MDMN.sg                  1.32:  Dens Mud Min 
 MDMX.sg                  1.32:  Dens Mud Max 
 MOIL.                      59:  Run Mud Oil % 
 MOWR.                   71:29:  Run Mud OWR 
 MSND.                       0:  Run Mud Sand % 
 MSOL.                      17:  Run Mud Solids% 
 DFV .spqt               86.00:  Mud Viscosity 
 MWOD.in                  4.75:  MWD Tool OD 
 MWSI.                      No:  Serv Intrp, MWD 
 OTIM.hr                 46.72:  Time Operating 
 PCON.           Look Like New:  Pad Condition 
 PMAX.psia             3300.00:  Press Op, Max 
 PV  .cP                 30.00:  Mud PV 
 RUN .                     400:  Run Number 
 ROPA.m/hr               35.00:  ROP Avg 
 ROPN.m/hr               25.00:  ROP Min 
 ROPX.m/hr               40.00:  ROP Max 
 RPMA.rpm                80.00:  RPM Surface Avg 
 RPMN.rpm                60.00:  RPM Surface Min 
 RPMX.rpm               100.00:  RPM Surface Max 
 RRUN.                     400:  Rig Run Number 
 RTIM.hr                  1.99:  Time Reaming 
 SAZI.deg               133.93:  Azm, Start 
 SDEP.m                4047.51:  Start Depth 
 SIDD.                      No:  Serv Intrp, DD 
 SINC.deg                40.28:  Inc, Start 
 SPPA.psig             3250.00:  SPP Avg 
 SPPN.psig             3200.00:  SPP Min 
 SPPX.psig             3300.00:  SPP Max 
 STIM.      03.31.12 02-Feb-20:  Start Time 
 SVCS.                 DD, MWD:  Services 
 SVER.                    9.20:  Sperry Version 
 TDAT.m                  47.00:  Tot Depth Attmp 
 TDDF.                      No:  Trip for DD 
 TFF .                      No:  Trip for Fail 
 TQAA.f-kp                0.00:  Torque Abs Avg 
 TQAN.f-kp                0.00:  Torque Abs Min 
 TQAX.f-kp                0.00:  Torque Abs Max 
 TRRT.°/30m               0.70:  Turn Rotating 
 MRT .                    HCIM:  Maximum Recorded Temperature 
 TTMX.degC               70.59:  Max Tool Temp 
 VS01.             90598770F11:  Virtual Str1 SN 
 VS02.             90598769F11:  Virtual Str2 SN 
 VS03.            90515978Z1W1:  Virtual Str3 SN 
 VS04.          90584144R12X14:  Virtual Str4 SN 
 WBMN.klb                 0.00:  WOB Min 
 WITN.            Peter Wilson:  Customer Rep 
 WOBA.klb                 0.00:  WOB Avg 
 WOBX.klb                 0.00:  WOB Max 
 YP  .lhf2               29.00:  Yield Point 
~Curve Information Block
#MNEM.UNIT                 API CODE     Curve Description
#---------               -----------    ---------------------------
 TIME.HHMMSS            00 000 000 000:  GT Time & Date
 GTDEPTH.m              00 000 000 000:  GT Depth
 GTPQH.psia             00 000 000 000:  GT HR Quartz Pressure
 GTTQ.degC              00 000 000 000:  GT Quartz Temperature
 GTTN.NONE              00 000 000 000:  GT Test Number
 GTET.sec               00 000 000 000:  GT Elapsed Test Time
 GTTVD.m                00 000 000 000:  GT True Vertical Depth
#Other Information
#
#WARRANTY: Halliburton will use its best efforts to furnish customers with 
#accurate information and interpretations that are part of, and incident to, the services 
#provided.  However, Halliburton cannot and does not warrant the accuracy 
#or correctness of such information and interpretations.  Under no circumstances should any 
#such information or interpretation be relied upon as the sole basis for any drilling, 
#completion, production, or financial decision or any procedure involving any risk to the 
#safety of any drilling venture, drilling rig or its crew or any other third party.  The 
#Customer has full responsibility for all drilling, completion and production operation.  
#Halliburton makes no representations or warranties, either expressed or 
#implied, including, but not limited to, the implied warranties of merchantability or fitness 
#for a particular purpose, with respect to the services rendered.  In no event will 
#Halliburton be liable for failure to obtain any particular results or for 
#any damages, including, but not limited to, indirect, special or consequential damages, 
#resulting from the use of any information or interpretation provided by Halliburton.
#
~A           TIME           GTDEPTH  GTPQH  GTTQ  GTTN  GTET   GTTVD  
# ...
   03:52:12.552.03-Feb-2020 4013.21 3136.20 64.19 3.00 345.07 3023.05
   03:52:12.752.03-Feb-2020 4013.21 3136.20 64.19 3.00 345.27 3023.05
   03:52:12.952.03-Feb-2020 4013.21 3136.17 64.19 3.00 345.47 3023.05
   03:52:13.152.03-Feb-2020 4013.21 3136.15 64.19 3.00 345.67 3023.05
   03:52:13.352.03-Feb-2020 4013.21 3136.13 64.19 3.00 345.87 3023.05
   03:52:13.552.03-Feb-2020 4013.21 3136.20 64.19 3.00 346.07 3023.05
   03:52:13.752.03-Feb-2020 4013.21 3136.20 64.19 3.00 346.27 3023.05
   03:52:13.952.03-Feb-2020 4013.21 3136.21 64.19 3.00 346.47 3023.05
   03:52:14.152.03-Feb-2020 4013.21 3136.19 64.19 3.00 346.67 3023.05
   03:52:14.352.03-Feb-2020 4013.21 3135.92 64.19 3.00 346.87 3023.05
   03:52:14.552.03-Feb-2020 4013.21 3136.20 64.19 3.00 347.07 3023.05
   03:52:14.752.03-Feb-2020 4013.21 3136.20 64.19 3.00 347.27 3023.05
   03:52:14.952.03-Feb-2020 4013.21 3136.35 64.19 3.00 347.47 3023.05
   03:52:15.152.03-Feb-2020 4013.21 3136.27 64.19 3.00 347.67 3023.05
   03:52:15.352.03-Feb-2020 4013.21 3136.28 64.19 3.00 347.87 3023.05
   03:52:15.552.03-Feb-2020 4013.21 3135.89 64.19 3.00 348.07 3023.05
   03:52:15.753.03-Feb-2020 4013.21 3135.89 64.19 3.00 348.27 3023.05
   03:52:15.953.03-Feb-2020 4013.21 3136.16 64.19 3.00 348.47 3023.05
   03:52:16.153.03-Feb-2020 4013.21 3136.31 64.19 3.00 348.67 3023.05
   03:52:16.353.03-Feb-2020 4013.21 3136.26 64.19 3.00 348.87 3023.05
   03:52:16.553.03-Feb-2020 4013.21 3136.29 64.19 3.00 349.07 3023.05
   03:52:16.753.03-Feb-2020 4013.21 3136.29 64.19 3.00 349.27 3023.05
   03:52:16.953.03-Feb-2020 4013.21 3136.23 64.19 3.00 349.47 3023.05
   03:52:17.153.03-Feb-2020 4013.21 3136.23 64.19 3.00 349.67 3023.05
   03:52:17.353.03-Feb-2020 4013.21 3136.35 64.19 3.00 349.87 3023.05
   03:52:17.553.03-Feb-2020 4013.21 3136.00 64.19 3.00 350.07 3023.05
   03:52:17.753.03-Feb-2020 4013.21 3136.00 64.19 3.00 350.27 3023.05
   03:52:17.953.03-Feb-2020 4013.21 3136.00 64.19 3.00 350.47 3023.05
   03:52:18.153.03-Feb-2020 4013.21 3136.31 64.19 3.00 350.67 3023.05
   03:52:18.353.03-Feb-2020 4013.21 3136.24 64.19 3.00 350.87 3023.05
   03:52:18.553.03-Feb-2020 4013.21 3136.33 64.19 3.00 351.07 3023.05
   03:52:18.753.03-Feb-2020 4013.21 3136.33 64.19 3.00 351.27 3023.05
   03:52:18.953.03-Feb-2020 4013.21 3136.30 64.19 3.00 351.47 3023.05
   03:52:19.153.03-Feb-2020 4013.21 3136.27 64.19 3.00 351.67 3023.05
   03:52:19.353.03-Feb-2020 4013.21 3136.23 64.19 3.00 351.87 3023.05
   03:52:19.553.03-Feb-2020 4013.21 3136.24 64.19 3.00 352.07 3023.05
   03:52:19.753.03-Feb-2020 4013.21 3136.24 64.19 3.00 352.27 3023.05
   03:52:19.953.03-Feb-2020 4013.21 3136.28 64.19 3.00 352.47 3023.05
   03:52:20.153.03-Feb-2020 4013.21 3136.26 64.19 3.00 352.67 3023.05
   03:52:20.353.03-Feb-2020 4013.21 3136.24 64.19 3.00 352.87 3023.05
   03:52:20.554.03-Feb-2020 4013.21 3136.33 64.19 3.00 353.07 3023.05
   03:52:20.754.03-Feb-2020 4013.21 3136.33 64.19 3.00 353.27 3023.05
   03:52:20.954.03-Feb-2020 4013.21 3136.16 64.19 3.00 353.47 3023.05
   03:52:21.154.03-Feb-2020 4013.21 3136.16 64.19 3.00 353.67 3023.05
   03:52:21.354.03-Feb-2020 4013.21 3136.30 64.19 3.00 353.87 3023.05
   03:52:21.554.03-Feb-2020 4013.21 3136.29 64.19 3.00 354.07 3023.05
   03:52:21.754.03-Feb-2020 4013.21 3136.29 64.19 3.00 354.27 3023.05
   03:52:21.954.03-Feb-2020 4013.21 3136.27 64.19 3.00 354.47 3023.05
   03:52:22.154.03-Feb-2020 4013.21 3136.27 64.19 3.00 354.67 3023.05
   03:52:22.354.03-Feb-2020 4013.21 3136.26 64.19 3.00 354.87 3023.05
   03:52:22.554.03-Feb-2020 4013.21 3136.28 64.19 3.00 355.07 3023.05
   03:52:22.754.03-Feb-2020 4013.21 3136.28 64.19 3.00 355.27 3023.05
   03:52:22.954.03-Feb-2020 4013.21 3136.32 64.19 3.00 355.47 3023.05
   03:52:23.154.03-Feb-2020 4013.21 3136.29 64.19 3.00 355.67 3023.05
   03:52:23.354.03-Feb-2020 4013.21 3135.96 64.18 3.00 355.87 3023.05
   03:52:23.554.03-Feb-2020 4013.21 3136.30 64.18 3.00 356.07 3023.05
   03:52:23.754.03-Feb-2020 4013.21 3136.30 64.18 3.00 356.27 3023.05
   03:52:23.954.03-Feb-2020 4013.21 3136.47 64.18 3.00 356.47 3023.05
   03:52:24.154.03-Feb-2020 4013.21 3136.02 64.18 3.00 356.67 3023.05
   03:52:24.354.03-Feb-2020 4013.21 3136.41 64.18 3.00 356.87 3023.05
   03:52:24.554.03-Feb-2020 4013.21 3136.28 64.18 3.00 357.07 3023.05
   03:52:24.754.03-Feb-2020 4013.21 3136.28 64.18 3.00 357.27 3023.05
   03:52:24.954.03-Feb-2020 4013.21 3136.37 64.18 3.00 357.47 3023.05
   03:52:25.154.03-Feb-2020 4013.21 3136.41 64.18 3.00 357.67 3023.05
   03:52:25.355.03-Feb-2020 4013.21 3136.01 64.18 3.00 357.87 3023.05
   03:52:25.555.03-Feb-2020 4013.21 3136.40 64.18 3.00 358.07 3023.05
   03:52:25.755.03-Feb-2020 4013.21 3136.40 64.18 3.00 358.28 3023.05
   03:52:25.955.03-Feb-2020 4013.21 3136.40 64.18 3.00 358.48 3023.05
   03:52:26.155.03-Feb-2020 4013.21 3136.34 64.18 3.00 358.68 3023.05
   03:52:26.355.03-Feb-2020 4013.21 3136.18 64.18 3.00 358.88 3023.05
   03:52:26.555.03-Feb-2020 4013.21 3136.37 64.18 3.00 359.08 3023.05
   03:52:26.755.03-Feb-2020 4013.21 3136.37 64.18 3.00 359.28 3023.05
   03:52:26.955.03-Feb-2020 4013.21 3136.36 64.18 3.00 359.48 3023.05
   03:52:27.155.03-Feb-2020 4013.21 3136.42 64.18 3.00 359.68 3023.05
   03:52:27.355.03-Feb-2020 4013.21 3136.39 64.18 3.00 359.88 3023.05
   03:52:27.555.03-Feb-2020 4013.21 3136.36 64.18 3.00 360.08 3023.05
   03:52:27.755.03-Feb-2020 4013.21 3136.36 64.18 3.00 360.28 3023.05
   03:52:27.955.03-Feb-2020 4013.21 3136.34 64.18 3.00 360.48 3023.05
   03:52:28.155.03-Feb-2020 4013.21 3136.32 64.18 3.00 360.68 3023.05
   03:52:28.355.03-Feb-2020 4013.21 3136.37 64.18 3.00 360.88 3023.05
   03:52:28.555.03-Feb-2020 4013.21 3136.35 64.18 3.00 361.08 3023.05
   03:52:28.755.03-Feb-2020 4013.21 3136.35 64.18 3.00 361.28 3023.05
   03:52:28.955.03-Feb-2020 4013.21 3136.31 64.18 3.00 361.48 3023.05
   03:52:29.155.03-Feb-2020 4013.21 3136.36 64.18 3.00 361.68 3023.05
   03:52:29.355.03-Feb-2020 4013.21 3136.41 64.18 3.00 361.88 3023.05
   03:52:29.555.03-Feb-2020 4013.21 3136.09 64.18 3.00 362.08 3023.05
   03:52:29.755.03-Feb-2020 4013.21 3136.09 64.18 3.00 362.28 3023.05
   03:52:29.955.03-Feb-2020 4013.21 3136.24 64.18 3.00 362.48 3023.05
   03:52:30.156.03-Feb-2020 4013.21 3136.40 64.18 3.00 362.68 3023.05
   03:52:30.356.03-Feb-2020 4013.21 3136.37 64.18 3.00 362.88 3023.05
   03:52:30.556.03-Feb-2020 4013.21 3136.38 64.18 3.00 363.08 3023.05
   03:52:30.756.03-Feb-2020 4013.21 3136.38 64.18 3.00 363.28 3023.05
   03:52:30.956.03-Feb-2020 4013.21 3136.35 64.18 3.00 363.48 3023.05
   03:52:31.156.03-Feb-2020 4013.21 3136.37 64.18 3.00 363.68 3023.05
   03:52:31.356.03-Feb-2020 4013.21 3136.36 64.18 3.00 363.88 3023.05
   03:52:31.556.03-Feb-2020 4013.21 3136.39 64.18 3.00 364.08 3023.05
   03:52:31.756.03-Feb-2020 4013.21 3136.39 64.18 3.00 364.28 3023.05
   03:52:31.956.03-Feb-2020 4013.21 3136.38 64.18 3.00 364.48 3023.05
   03:52:32.156.03-Feb-2020 4013.21 3136.10 64.18 3.00 364.68 3023.05
   03:52:32.356.03-Feb-2020 4013.21 3136.34 64.18 3.00 364.88 3023.05
   03:52:32.556.03-Feb-2020 4013.21 3136.43 64.18 3.00 365.08 3023.05
   03:52:32.756.03-Feb-2020 4013.21 3136.43 64.18 3.00 365.28 3023.05
   03:52:32.956.03-Feb-2020 4013.21 3136.15 64.18 3.00 365.48 3023.05
   03:52:33.156.03-Feb-2020 4013.21 3136.37 64.18 3.00 365.68 3023.05
   03:52:33.356.03-Feb-2020 4013.21 3136.43 64.18 3.00 365.88 3023.05
   03:52:33.556.03-Feb-2020 4013.21 3136.46 64.18 3.00 366.08 3023.05
   03:52:33.756.03-Feb-2020 4013.21 3136.46 64.18 3.00 366.28 3023.05
   03:52:33.956.03-Feb-2020 4013.21 3136.44 64.18 3.00 366.48 3023.05
   03:52:34.156.03-Feb-2020 4013.21 3136.14 64.18 3.00 366.68 3023.05
   03:52:34.356.03-Feb-2020 4013.21 3136.41 64.18 3.00 366.88 3023.05
   03:52:34.556.03-Feb-2020 4013.21 3136.44 64.18 3.00 367.08 3023.05
   03:52:34.756.03-Feb-2020 4013.21 3136.44 64.18 3.00 367.28 3023.05
   03:52:34.957.03-Feb-2020 4013.21 3136.36 64.18 3.00 367.48 3023.05
   03:52:35.157.03-Feb-2020 4013.21 3136.40 64.18 3.00 367.68 3023.05
   03:52:35.357.03-Feb-2020 4013.21 3136.35 64.18 3.00 367.88 3023.05
