~Version Information
 VERS.                  2.0:   CWLS log ASCII Standard -VERSION 2.0
 WRAP.                   NO:   One line per depth step
~Well Information Block
#MNEM.UNIT     VALUE/NAME     DESCRIPTION
#---------     -----------    ---------------------------
 STRT.S             08:07:30 03-Feb-20: START TIME 08:07:30 03-Feb-20
 STOP.S             08:15:16 03-Feb-20: STOP TIME  08:15:16 03-Feb-20
 STEP.S                   0.00: STEP TIME
 NULL.                 -999.25: NULL VALUE
 DFWT.                        :  DIST FWL TEXT
 DFST.                        :  DIST FSL TEXT
 DMF .             Drill Floor:  DRILL MEAS FROM
 STIM.      09.30.00 26-Dec-19:  START TIME
 DATE.      08.00.00 20-Jan-20:  END TIME
 SPUD.               23-Nov-19:  SPUD DATE
 NREF.                    Grid:  NORTH REFERENCE
 HPTY.       Minimum Curvature:  HOLE POS TYPE
 DMOD.             Drill Model:  DRILL MOD DESC
 SVYD.                  Survey:  SURVEY DESC
 ILTD.               Lithology:  INTERP LTH DESC
 FTOP.          Formation Tops:  FORM TOPS DESC
 SON .        AZ-XX-0906192647:  JOB NUMBER
 WTYP.                Deviated:  WELL TYPE
 COMP.     BP Exploration (Caspian Sea) Ltd:  COMPANY
 BASE.              Azerbaijan:  LOGGING EQUIPMENT BASE LOCATION
 REGN.                 Eurasia:  REGION
 FLD .                     ACG:  FIELD NAME
 SRVC.              KCA Deutag:  CONTRACTOR
 MWDS.                    Baku:  MWD SHOP
 WELL.     A10 (Slot 20) - SCP:  WELL NAME
 JOBN.        AZ-XX-0906192647:  JOB TICKET NUMB
 RIG .                 Chirag1:  RIG NAME
 DCON.     Halliburton Sperry Drilling:  DIRECTNL CONTR
 UNIT.                     N/A:  LOGGING EQUIPMENT ID
 PDAT.          Mean Sea Level:  PERMANENT DATUM
 MDS .        Operator Entered:  MAG DATA SOURCE
 CTRY.              Azerbaijan:  COUNTRY NAME
 UWI .            /AZE00000090:  UNIQUE WELL IDENTIFIER
 API .            /AZE00000090:  API NUMBER
 CNTY.                        :  COUNTY
 PROV.                        :  PROVINCE
 STAT.                        :  STATE
 LOC .                        :  LOCATION
 LMF .             Drill Floor:  LOG MEASURED FROM
 TVDS.m                  36.60:  TVDSS CORRECTN
 LATI.deg                40.08:  LATITUDE
 LONG.deg                51.24:  LONGITUDE
 WHNS.m                  -7.94:  WELL HEAD N/S
 WHEW.m                   1.56:  WELL HEAD E/W
 UTMX.m              520429.26:  UTM X
 UTMY.m             4438973.87:  UTM Y
 DFWL.m                   0.00:  DISTANCE FWL
 DFSL.m                   0.00:  DISTANCE FSL
 SDEP.m                1455.00:  START DEPTH
 TDD .m                4047.51:  TOTAL DEPTH (DRILLER)
 VSDR.deg               112.75:  VERT SEC DIRECT
 GVFD.g                   1.00:  GRAVITY FIELD
 MFLD.nT              50261.00:  MAGNETIC FIELD
 MDIP.deg                59.52:  MAGNETIC DIP
 MDEC.deg                 6.42:  MAGNETIC DECL
 GRDC.deg                 0.17:  GRID CORRECTION
 AZTC.deg                 6.25:  AZM TOTAL CORR
 EPD .m                   0.00:  ELEVATION
 EGL .m                   0.00:  GROUND ELEVATION
 WDMS.m                 121.00:  WD ELEV
 APD .m                  36.60:  DEPTH ABOVE PD
 AGAP.m                  36.60:  AIR GAP
 VSEW.m                   1.56:  VERT SEC E/W
 VSNS.m                  -7.94:  VERT SEC N/S
 DEP .m                1140.01:  DEPTH
 EKB .m                  36.60:  KB ELEVATION
 EDF .m                  36.60:  DF ELEVATION
 VSC .                       0:  VS TO CLOSURE
 MAGU.                 1849206:  MAGUTM CHECKSUM
~Parameter Information Block
#MNEM.UNIT       Value        Description
#---------     -----------    ---------------------------
 AV  .mps                 1.70:  Ann Velocity 
 AVMX.mps                 2.30:  Max Ann Veloc 
 AZIF.deg               137.03:  Azm, Final 
 BHAT.                   Other:  BHA Type 
 BROT.ฐ/30m               0.80:  Build Rotating 
 BS  .in                  8.00:  Bit Size 
 BTPL.psig              161.00:  Bit Press Loss 
 CABU.                      No:  Customer Abuse 
 COMM.                     ิงZ:  Run Comments 1 
 TCS .hr                  9.59:  Time Ciculation Ended 
 CV  .mps                 3.76:  Crit Velocity 
 CVMX.mps                 4.26:  Max Crit Veloc 
 DD1 .         Intigam Rahimov:  Direct Drillr 1 
 DD2 .          Rashad Gojayev:  Direct Drillr 2 
 DDSV.                   Other:  DD Service 
 DEFF.%                 100.00:  % Det Eff 
 DLRX.ฐ/30m               1.44:  Dogleg Rot Max 
 DLSO.ฐ/30m               0.00:  Dogleg Oriented 
 DLSX.ฐ/30m               0.00:  Dogleg Str Max 
 DRET.      03.31.12 02-Feb-20:  Drill End Time 
 DRST.      03.31.12 02-Feb-20:  Drill Start Tim 
 DTIM.hr                  1.99:  Time Drilling 
 EDEP.m                4047.51:  End Depth 
 ENG1.           Eldar Hajiyev:  Engineer 1 
 ENG2.          Rasim Hashimov:  Engineer 2 
 ENG3.          Rustam Safarov:  Engineer 3 
 ETIM.      03.31.12 02-Feb-20:  End Time 
 FLOI.gpm               300.00:  Flow In 
 FLON.gpm               250.00:  Flow In Min 
 FLOS.cptm                0.00:  Fluid Loss 
 FLOX.gpm               330.00:  Flow In Max 
 HFLO.                      No:  High Flow 
 HPRE.                      No:  High Pressure 
 HTEM.                      No:  High Temp 
 HYDO.m                   2.50:  Hydro Offset 
 IFIN.deg                39.54:  Inc, Final 
 IMAX.deg                41.14:  Inc Max 
 IMIN.deg                39.81:  Inc Min 
 IMND.m                4005.21:  Inc Min Depth 
 IMXD.m                3948.42:  Inc Max Depth 
 JARR.                      No:  Jarring 
 LETM.      03.31.12 02-Feb-20:  Log End Time 
 LOST.hr                     0:  Lost Rig Time 
 LSTM.      03.31.12 02-Feb-20:  Log Start Time 
 MDCL.ppm             35000.00:  Mud Chlorides 
 MDES.     Inversion Oil/Synthetic:  Mud Desc 
 DFD .sg                  1.32:  Mud Density 
 MDMN.sg                  1.32:  Dens Mud Min 
 MDMX.sg                  1.32:  Dens Mud Max 
 MOIL.                      59:  Run Mud Oil % 
 MOWR.                   71:29:  Run Mud OWR 
 MSND.                       0:  Run Mud Sand % 
 MSOL.                      17:  Run Mud Solids% 
 DFV .spqt               86.00:  Mud Viscosity 
 MWOD.in                  4.75:  MWD Tool OD 
 MWSI.                      No:  Serv Intrp, MWD 
 OTIM.hr                 46.72:  Time Operating 
 PCON.           Look Like New:  Pad Condition 
 PMAX.psia             3300.00:  Press Op, Max 
 PV  .cP                 30.00:  Mud PV 
 RUN .                     400:  Run Number 
 ROPA.m/hr               35.00:  ROP Avg 
 ROPN.m/hr               25.00:  ROP Min 
 ROPX.m/hr               40.00:  ROP Max 
 RPMA.rpm                80.00:  RPM Surface Avg 
 RPMN.rpm                60.00:  RPM Surface Min 
 RPMX.rpm               100.00:  RPM Surface Max 
 RRUN.                     400:  Rig Run Number 
 RTIM.hr                  1.99:  Time Reaming 
 SAZI.deg               133.93:  Azm, Start 
 SDEP.m                4047.51:  Start Depth 
 SIDD.                      No:  Serv Intrp, DD 
 SINC.deg                40.28:  Inc, Start 
 SPPA.psig             3250.00:  SPP Avg 
 SPPN.psig             3200.00:  SPP Min 
 SPPX.psig             3300.00:  SPP Max 
 STIM.      03.31.12 02-Feb-20:  Start Time 
 SVCS.                 DD, MWD:  Services 
 SVER.                    9.20:  Sperry Version 
 TDAT.m                  47.00:  Tot Depth Attmp 
 TDDF.                      No:  Trip for DD 
 TFF .                      No:  Trip for Fail 
 TQAA.f-kp                0.00:  Torque Abs Avg 
 TQAN.f-kp                0.00:  Torque Abs Min 
 TQAX.f-kp                0.00:  Torque Abs Max 
 TRRT.ฐ/30m               0.70:  Turn Rotating 
 MRT .                    HCIM:  Maximum Recorded Temperature 
 TTMX.degC               70.59:  Max Tool Temp 
 VS01.             90598770F11:  Virtual Str1 SN 
 VS02.             90598769F11:  Virtual Str2 SN 
 VS03.            90515978Z1W1:  Virtual Str3 SN 
 VS04.          90584144R12X14:  Virtual Str4 SN 
 WBMN.klb                 0.00:  WOB Min 
 WITN.            Peter Wilson:  Customer Rep 
 WOBA.klb                 0.00:  WOB Avg 
 WOBX.klb                 0.00:  WOB Max 
 YP  .lhf2               29.00:  Yield Point 
~Curve Information Block
#MNEM.UNIT                 API CODE     Curve Description
#---------               -----------    ---------------------------
 TIME.HHMMSS            00 000 000 000:  GT Time & Date
 GTDEPTH.m              00 000 000 000:  GT Depth
 GTPQH.psia             00 000 000 000:  GT HR Quartz Pressure
 GTTQ.degC              00 000 000 000:  GT Quartz Temperature
 GTTN.NONE              00 000 000 000:  GT Test Number
 GTET.sec               00 000 000 000:  GT Elapsed Test Time
 GTTVD.m                00 000 000 000:  GT True Vertical Depth
#Other Information
#
#WARRANTY: Halliburton will use its best efforts to furnish customers with 
#accurate information and interpretations that are part of, and incident to, the services 
#provided.  However, Halliburton cannot and does not warrant the accuracy 
#or correctness of such information and interpretations.  Under no circumstances should any 
#such information or interpretation be relied upon as the sole basis for any drilling, 
#completion, production, or financial decision or any procedure involving any risk to the 
#safety of any drilling venture, drilling rig or its crew or any other third party.  The 
#Customer has full responsibility for all drilling, completion and production operation.  
#Halliburton makes no representations or warranties, either expressed or 
#implied, including, but not limited to, the implied warranties of merchantability or fitness 
#for a particular purpose, with respect to the services rendered.  In no event will 
#Halliburton be liable for failure to obtain any particular results or for 
#any damages, including, but not limited to, indirect, special or consequential damages, 
#resulting from the use of any information or interpretation provided by Halliburton.
#
~A           TIME           GTDEPTH  GTPQH  GTTQ  GTTN   GTET   GTTVD  
# ...
   08:13:31.650.03-Feb-2020 4023.01 3158.55 65.61 10.00 361.61 3030.56
   08:13:31.850.03-Feb-2020 4023.01 3158.54 65.61 10.00 361.81 3030.56
   08:13:32.050.03-Feb-2020 4023.01 3158.58 65.61 10.00 362.01 3030.56
   08:13:32.250.03-Feb-2020 4023.01 3158.58 65.61 10.00 362.21 3030.56
   08:13:32.450.03-Feb-2020 4023.01 3158.54 65.61 10.00 362.41 3030.56
   08:13:32.650.03-Feb-2020 4023.01 3158.62 65.61 10.00 362.61 3030.56
   08:13:32.850.03-Feb-2020 4023.01 3158.64 65.61 10.00 362.81 3030.56
   08:13:33.050.03-Feb-2020 4023.01 3158.66 65.61 10.00 363.01 3030.56
   08:13:33.250.03-Feb-2020 4023.01 3158.66 65.61 10.00 363.21 3030.56
   08:13:33.450.03-Feb-2020 4023.01 3158.74 65.60 10.00 363.41 3030.56
   08:13:33.650.03-Feb-2020 4023.01 3158.76 65.60 10.00 363.61 3030.56
   08:13:33.850.03-Feb-2020 4023.01 3158.72 65.60 10.00 363.81 3030.56
   08:13:34.050.03-Feb-2020 4023.01 3158.78 65.60 10.00 364.01 3030.56
   08:13:34.250.03-Feb-2020 4023.01 3158.78 65.60 10.00 364.21 3030.56
   08:13:34.450.03-Feb-2020 4023.01 3158.42 65.60 10.00 364.41 3030.56
   08:13:34.650.03-Feb-2020 4023.01 3158.89 65.60 10.00 364.61 3030.56
   08:13:34.850.03-Feb-2020 4023.01 3158.75 65.60 10.00 364.81 3030.56
   08:13:35.050.03-Feb-2020 4023.01 3158.84 65.60 10.00 365.01 3030.56
   08:13:35.250.03-Feb-2020 4023.01 3158.84 65.60 10.00 365.21 3030.56
   08:13:35.450.03-Feb-2020 4023.01 3158.89 65.60 10.00 365.41 3030.56
   08:13:35.650.03-Feb-2020 4023.01 3158.91 65.60 10.00 365.61 3030.56
   08:13:35.850.03-Feb-2020 4023.01 3158.94 65.60 10.00 365.81 3030.56
   08:13:36.050.03-Feb-2020 4023.01 3158.96 65.60 10.00 366.01 3030.56
   08:13:36.250.03-Feb-2020 4023.01 3158.96 65.60 10.00 366.21 3030.56
   08:13:36.450.03-Feb-2020 4023.01 3158.98 65.60 10.00 366.41 3030.56
   08:13:36.650.03-Feb-2020 4023.01 3159.03 65.60 10.00 366.61 3030.56
   08:13:36.850.03-Feb-2020 4023.01 3158.82 65.60 10.00 366.81 3030.56
   08:13:37.050.03-Feb-2020 4023.01 3159.02 65.60 10.00 367.01 3030.56
   08:13:37.250.03-Feb-2020 4023.01 3159.02 65.60 10.00 367.21 3030.56
   08:13:37.450.03-Feb-2020 4023.01 3159.07 65.60 10.00 367.41 3030.56
   08:13:37.650.03-Feb-2020 4023.01 3158.78 65.60 10.00 367.61 3030.56
   08:13:37.850.03-Feb-2020 4023.01 3159.05 65.60 10.00 367.81 3030.56
   08:13:38.050.03-Feb-2020 4023.01 3158.91 65.60 10.00 368.01 3030.56
   08:13:38.250.03-Feb-2020 4023.01 3158.91 65.60 10.00 368.21 3030.56
   08:13:38.450.03-Feb-2020 4023.01 3159.07 65.60 10.00 368.41 3030.56
   08:13:38.650.03-Feb-2020 4023.01 3159.06 65.60 10.00 368.61 3030.56
   08:13:38.850.03-Feb-2020 4023.01 3159.08 65.60 10.00 368.81 3030.56
   08:13:39.050.03-Feb-2020 4023.01 3159.03 65.60 10.00 369.01 3030.56
   08:13:39.250.03-Feb-2020 4023.01 3159.03 65.60 10.00 369.21 3030.56
   08:13:39.450.03-Feb-2020 4023.01 3159.17 65.60 10.00 369.41 3030.56
   08:13:39.650.03-Feb-2020 4023.01 3158.85 65.60 10.00 369.61 3030.56
   08:13:39.850.03-Feb-2020 4023.01 3159.06 65.60 10.00 369.81 3030.56
   08:13:40.050.03-Feb-2020 4023.01 3159.02 65.60 10.00 370.01 3030.56
   08:13:40.250.03-Feb-2020 4023.01 3159.02 65.60 10.00 370.21 3030.56
   08:13:40.450.03-Feb-2020 4023.01 3158.95 65.60 10.00 370.41 3030.56
   08:13:40.650.03-Feb-2020 4023.01 3158.75 65.60 10.00 370.61 3030.56
   08:13:40.850.03-Feb-2020 4023.01 3158.97 65.60 10.00 370.81 3030.56
   08:13:41.050.03-Feb-2020 4023.01 3158.84 65.60 10.00 371.01 3030.56
   08:13:41.250.03-Feb-2020 4023.01 3158.84 65.60 10.00 371.21 3030.56
   08:13:41.450.03-Feb-2020 4023.01 3158.96 65.60 10.00 371.41 3030.56
   08:13:41.650.03-Feb-2020 4023.01 3159.02 65.60 10.00 371.61 3030.56
   08:13:41.850.03-Feb-2020 4023.01 3159.02 65.60 10.00 371.81 3030.56
   08:13:42.050.03-Feb-2020 4023.01 3158.97 65.60 10.00 372.01 3030.56
   08:13:42.250.03-Feb-2020 4023.01 3158.97 65.60 10.00 372.21 3030.56
   08:13:42.450.03-Feb-2020 4023.01 3159.08 65.60 10.00 372.41 3030.56
   08:13:42.650.03-Feb-2020 4023.01 3159.07 65.60 10.00 372.61 3030.56
   08:13:42.850.03-Feb-2020 4023.01 3159.14 65.60 10.00 372.81 3030.56
   08:13:43.050.03-Feb-2020 4023.01 3159.16 65.60 10.00 373.01 3030.56
   08:13:43.250.03-Feb-2020 4023.01 3159.16 65.60 10.00 373.21 3030.56
   08:13:43.450.03-Feb-2020 4023.01 3159.13 65.60 10.00 373.41 3030.56
   08:13:43.650.03-Feb-2020 4023.01 3159.16 65.60 10.00 373.61 3030.56
   08:13:43.850.03-Feb-2020 4023.01 3159.18 65.60 10.00 373.81 3030.56
   08:13:44.050.03-Feb-2020 4023.01 3158.84 65.60 10.00 374.01 3030.56
   08:13:44.250.03-Feb-2020 4023.01 3158.84 65.60 10.00 374.21 3030.56
   08:13:44.450.03-Feb-2020 4023.01 3159.09 65.60 10.00 374.41 3030.56
   08:13:44.650.03-Feb-2020 4023.01 3159.22 65.60 10.00 374.61 3030.56
   08:13:44.850.03-Feb-2020 4023.01 3159.18 65.60 10.00 374.81 3030.56
   08:13:45.050.03-Feb-2020 4023.01 3159.19 65.60 10.00 375.01 3030.56
   08:13:45.250.03-Feb-2020 4023.01 3159.19 65.60 10.00 375.21 3030.56
   08:13:45.450.03-Feb-2020 4023.01 3159.21 65.60 10.00 375.41 3030.56
   08:13:45.650.03-Feb-2020 4023.01 3159.24 65.60 10.00 375.61 3030.56
   08:13:45.850.03-Feb-2020 4023.01 3159.29 65.60 10.00 375.81 3030.56
   08:13:46.050.03-Feb-2020 4023.01 3159.31 65.60 10.00 376.01 3030.56
   08:13:46.250.03-Feb-2020 4023.01 3159.31 65.60 10.00 376.21 3030.56
   08:13:46.450.03-Feb-2020 4023.01 3159.15 65.60 10.00 376.41 3030.56
   08:13:46.650.03-Feb-2020 4023.01 3159.29 65.60 10.00 376.61 3030.56
   08:13:46.850.03-Feb-2020 4023.01 3159.16 65.60 10.00 376.81 3030.56
   08:13:47.050.03-Feb-2020 4023.01 3159.35 65.60 10.00 377.01 3030.56
   08:13:47.250.03-Feb-2020 4023.01 3159.35 65.60 10.00 377.21 3030.56
   08:13:47.450.03-Feb-2020 4023.01 3159.09 65.60 10.00 377.41 3030.56
   08:13:47.650.03-Feb-2020 4023.01 3159.30 65.60 10.00 377.61 3030.56
   08:13:47.850.03-Feb-2020 4023.01 3159.35 65.60 10.00 377.81 3030.56
   08:13:48.050.03-Feb-2020 4023.01 3159.41 65.60 10.00 378.01 3030.56
   08:13:48.250.03-Feb-2020 4023.01 3159.41 65.60 10.00 378.21 3030.56
   08:13:48.450.03-Feb-2020 4023.01 3159.38 65.59 10.00 378.41 3030.56
   08:13:48.650.03-Feb-2020 4023.01 3159.41 65.59 10.00 378.61 3030.56
   08:13:48.850.03-Feb-2020 4023.01 3159.04 65.59 10.00 378.81 3030.56
   08:13:49.050.03-Feb-2020 4023.01 3159.53 65.59 10.00 379.01 3030.56
   08:13:49.250.03-Feb-2020 4023.01 3159.53 65.59 10.00 379.21 3030.56
   08:13:49.450.03-Feb-2020 4023.01 3159.49 65.59 10.00 379.41 3030.56
   08:13:49.650.03-Feb-2020 4023.01 3159.47 65.59 10.00 379.61 3030.56
   08:13:49.850.03-Feb-2020 4023.01 3159.50 65.59 10.00 379.81 3030.56
   08:13:50.050.03-Feb-2020 4023.01 3159.47 65.59 10.00 380.01 3030.56
   08:13:50.250.03-Feb-2020 4023.01 3159.47 65.59 10.00 380.21 3030.56
   08:13:50.450.03-Feb-2020 4023.01 3159.63 65.59 10.00 380.41 3030.56
   08:13:50.650.03-Feb-2020 4023.01 3159.46 65.59 10.00 380.61 3030.56
   08:13:50.850.03-Feb-2020 4023.01 3159.53 65.59 10.00 380.81 3030.56
   08:13:51.050.03-Feb-2020 4023.01 3159.53 65.59 10.00 381.01 3030.56
   08:13:51.250.03-Feb-2020 4023.01 3159.53 65.59 10.00 381.21 3030.56
   08:13:51.450.03-Feb-2020 4023.01 3159.54 65.59 10.00 381.41 3030.56
   08:13:51.650.03-Feb-2020 4023.01 3159.52 65.59 10.00 381.61 3030.56
   08:13:51.850.03-Feb-2020 4023.01 3159.59 65.59 10.00 381.81 3030.56
   08:13:52.050.03-Feb-2020 4023.01 3159.61 65.59 10.00 382.01 3030.56
   08:13:52.250.03-Feb-2020 4023.01 3159.61 65.59 10.00 382.21 3030.56
   08:13:52.450.03-Feb-2020 4023.01 3159.65 65.59 10.00 382.41 3030.56
   08:13:52.650.03-Feb-2020 4023.01 3159.65 65.59 10.00 382.61 3030.56
   08:13:52.850.03-Feb-2020 4023.01 3159.65 65.59 10.00 382.81 3030.56
   08:13:53.050.03-Feb-2020 4023.01 3159.61 65.59 10.00 383.01 3030.56
   08:13:53.250.03-Feb-2020 4023.01 3159.61 65.59 10.00 383.21 3030.56
   08:13:53.450.03-Feb-2020 4023.01 3159.46 65.59 10.00 383.41 3030.56
   08:13:53.650.03-Feb-2020 4023.01 3159.66 65.59 10.00 383.61 3030.56
   08:13:53.850.03-Feb-2020 4023.01 3159.59 65.59 10.00 383.81 3030.56
   08:13:54.050.03-Feb-2020 4023.01 3159.71 65.59 10.00 384.01 3030.56
