~Version Information
 VERS.                  2.0:   CWLS log ASCII Standard -VERSION 2.0
 WRAP.                   NO:   One line per depth step
~Well Information Block
#MNEM.UNIT     VALUE/NAME     DESCRIPTION
#---------     -----------    ---------------------------
 STRT.S             07:08:20 03-Feb-20: START TIME 07:08:20 03-Feb-20
 STOP.S             07:16:05 03-Feb-20: STOP TIME  07:16:05 03-Feb-20
 STEP.S                   0.00: STEP TIME
 NULL.                 -999.25: NULL VALUE
 DFWT.                        :  DIST FWL TEXT
 DFST.                        :  DIST FSL TEXT
 DMF .             Drill Floor:  DRILL MEAS FROM
 STIM.      09.30.00 26-Dec-19:  START TIME
 DATE.      08.00.00 20-Jan-20:  END TIME
 SPUD.               23-Nov-19:  SPUD DATE
 NREF.                    Grid:  NORTH REFERENCE
 HPTY.       Minimum Curvature:  HOLE POS TYPE
 DMOD.             Drill Model:  DRILL MOD DESC
 SVYD.                  Survey:  SURVEY DESC
 ILTD.               Lithology:  INTERP LTH DESC
 FTOP.          Formation Tops:  FORM TOPS DESC
 SON .        AZ-XX-0906192647:  JOB NUMBER
 WTYP.                Deviated:  WELL TYPE
 COMP.     BP Exploration (Caspian Sea) Ltd:  COMPANY
 BASE.              Azerbaijan:  LOGGING EQUIPMENT BASE LOCATION
 REGN.                 Eurasia:  REGION
 FLD .                     ACG:  FIELD NAME
 SRVC.              KCA Deutag:  CONTRACTOR
 MWDS.                    Baku:  MWD SHOP
 WELL.     A10 (Slot 20) - SCP:  WELL NAME
 JOBN.        AZ-XX-0906192647:  JOB TICKET NUMB
 RIG .                 Chirag1:  RIG NAME
 DCON.     Halliburton Sperry Drilling:  DIRECTNL CONTR
 UNIT.                     N/A:  LOGGING EQUIPMENT ID
 PDAT.          Mean Sea Level:  PERMANENT DATUM
 MDS .        Operator Entered:  MAG DATA SOURCE
 CTRY.              Azerbaijan:  COUNTRY NAME
 UWI .            /AZE00000090:  UNIQUE WELL IDENTIFIER
 API .            /AZE00000090:  API NUMBER
 CNTY.                        :  COUNTY
 PROV.                        :  PROVINCE
 STAT.                        :  STATE
 LOC .                        :  LOCATION
 LMF .             Drill Floor:  LOG MEASURED FROM
 TVDS.m                  36.60:  TVDSS CORRECTN
 LATI.deg                40.08:  LATITUDE
 LONG.deg                51.24:  LONGITUDE
 WHNS.m                  -7.94:  WELL HEAD N/S
 WHEW.m                   1.56:  WELL HEAD E/W
 UTMX.m              520429.26:  UTM X
 UTMY.m             4438973.87:  UTM Y
 DFWL.m                   0.00:  DISTANCE FWL
 DFSL.m                   0.00:  DISTANCE FSL
 SDEP.m                1455.00:  START DEPTH
 TDD .m                4047.51:  TOTAL DEPTH (DRILLER)
 VSDR.deg               112.75:  VERT SEC DIRECT
 GVFD.g                   1.00:  GRAVITY FIELD
 MFLD.nT              50261.00:  MAGNETIC FIELD
 MDIP.deg                59.52:  MAGNETIC DIP
 MDEC.deg                 6.42:  MAGNETIC DECL
 GRDC.deg                 0.17:  GRID CORRECTION
 AZTC.deg                 6.25:  AZM TOTAL CORR
 EPD .m                   0.00:  ELEVATION
 EGL .m                   0.00:  GROUND ELEVATION
 WDMS.m                 121.00:  WD ELEV
 APD .m                  36.60:  DEPTH ABOVE PD
 AGAP.m                  36.60:  AIR GAP
 VSEW.m                   1.56:  VERT SEC E/W
 VSNS.m                  -7.94:  VERT SEC N/S
 DEP .m                1140.01:  DEPTH
 EKB .m                  36.60:  KB ELEVATION
 EDF .m                  36.60:  DF ELEVATION
 VSC .                       0:  VS TO CLOSURE
 MAGU.                 1849206:  MAGUTM CHECKSUM
~Parameter Information Block
#MNEM.UNIT       Value        Description
#---------     -----------    ---------------------------
 AV  .mps                 1.70:  Ann Velocity 
 AVMX.mps                 2.30:  Max Ann Veloc 
 AZIF.deg               137.03:  Azm, Final 
 BHAT.                   Other:  BHA Type 
 BROT.°/30m               0.80:  Build Rotating 
 BS  .in                  8.00:  Bit Size 
 BTPL.psig              161.00:  Bit Press Loss 
 CABU.                      No:  Customer Abuse 
 COMM.                     ?\:  Run Comments 1 
 TCS .hr                  9.59:  Time Ciculation Ended 
 CV  .mps                 3.76:  Crit Velocity 
 CVMX.mps                 4.26:  Max Crit Veloc 
 DD1 .         Intigam Rahimov:  Direct Drillr 1 
 DD2 .          Rashad Gojayev:  Direct Drillr 2 
 DDSV.                   Other:  DD Service 
 DEFF.%                 100.00:  % Det Eff 
 DLRX.°/30m               1.44:  Dogleg Rot Max 
 DLSO.°/30m               0.00:  Dogleg Oriented 
 DLSX.°/30m               0.00:  Dogleg Str Max 
 DRET.      03.31.12 02-Feb-20:  Drill End Time 
 DRST.      03.31.12 02-Feb-20:  Drill Start Tim 
 DTIM.hr                  1.99:  Time Drilling 
 EDEP.m                4047.51:  End Depth 
 ENG1.           Eldar Hajiyev:  Engineer 1 
 ENG2.          Rasim Hashimov:  Engineer 2 
 ENG3.          Rustam Safarov:  Engineer 3 
 ETIM.      03.31.12 02-Feb-20:  End Time 
 FLOI.gpm               300.00:  Flow In 
 FLON.gpm               250.00:  Flow In Min 
 FLOS.cptm                0.00:  Fluid Loss 
 FLOX.gpm               330.00:  Flow In Max 
 HFLO.                      No:  High Flow 
 HPRE.                      No:  High Pressure 
 HTEM.                      No:  High Temp 
 HYDO.m                   2.50:  Hydro Offset 
 IFIN.deg                39.54:  Inc, Final 
 IMAX.deg                41.14:  Inc Max 
 IMIN.deg                39.81:  Inc Min 
 IMND.m                4005.21:  Inc Min Depth 
 IMXD.m                3948.42:  Inc Max Depth 
 JARR.                      No:  Jarring 
 LETM.      03.31.12 02-Feb-20:  Log End Time 
 LOST.hr                     0:  Lost Rig Time 
 LSTM.      03.31.12 02-Feb-20:  Log Start Time 
 MDCL.ppm             35000.00:  Mud Chlorides 
 MDES.     Inversion Oil/Synthetic:  Mud Desc 
 DFD .sg                  1.32:  Mud Density 
 MDMN.sg                  1.32:  Dens Mud Min 
 MDMX.sg                  1.32:  Dens Mud Max 
 MOIL.                      59:  Run Mud Oil % 
 MOWR.                   71:29:  Run Mud OWR 
 MSND.                       0:  Run Mud Sand % 
 MSOL.                      17:  Run Mud Solids% 
 DFV .spqt               86.00:  Mud Viscosity 
 MWOD.in                  4.75:  MWD Tool OD 
 MWSI.                      No:  Serv Intrp, MWD 
 OTIM.hr                 46.72:  Time Operating 
 PCON.           Look Like New:  Pad Condition 
 PMAX.psia             3300.00:  Press Op, Max 
 PV  .cP                 30.00:  Mud PV 
 RUN .                     400:  Run Number 
 ROPA.m/hr               35.00:  ROP Avg 
 ROPN.m/hr               25.00:  ROP Min 
 ROPX.m/hr               40.00:  ROP Max 
 RPMA.rpm                80.00:  RPM Surface Avg 
 RPMN.rpm                60.00:  RPM Surface Min 
 RPMX.rpm               100.00:  RPM Surface Max 
 RRUN.                     400:  Rig Run Number 
 RTIM.hr                  1.99:  Time Reaming 
 SAZI.deg               133.93:  Azm, Start 
 SDEP.m                4047.51:  Start Depth 
 SIDD.                      No:  Serv Intrp, DD 
 SINC.deg                40.28:  Inc, Start 
 SPPA.psig             3250.00:  SPP Avg 
 SPPN.psig             3200.00:  SPP Min 
 SPPX.psig             3300.00:  SPP Max 
 STIM.      03.31.12 02-Feb-20:  Start Time 
 SVCS.                 DD, MWD:  Services 
 SVER.                    9.20:  Sperry Version 
 TDAT.m                  47.00:  Tot Depth Attmp 
 TDDF.                      No:  Trip for DD 
 TFF .                      No:  Trip for Fail 
 TQAA.f-kp                0.00:  Torque Abs Avg 
 TQAN.f-kp                0.00:  Torque Abs Min 
 TQAX.f-kp                0.00:  Torque Abs Max 
 TRRT.°/30m               0.70:  Turn Rotating 
 MRT .                    HCIM:  Maximum Recorded Temperature 
 TTMX.degC               70.59:  Max Tool Temp 
 VS01.             90598770F11:  Virtual Str1 SN 
 VS02.             90598769F11:  Virtual Str2 SN 
 VS03.            90515978Z1W1:  Virtual Str3 SN 
 VS04.          90584144R12X14:  Virtual Str4 SN 
 WBMN.klb                 0.00:  WOB Min 
 WITN.            Peter Wilson:  Customer Rep 
 WOBA.klb                 0.00:  WOB Avg 
 WOBX.klb                 0.00:  WOB Max 
 YP  .lhf2               29.00:  Yield Point 
~Curve Information Block
#MNEM.UNIT                 API CODE     Curve Description
#---------               -----------    ---------------------------
 TIME.HHMMSS            00 000 000 000:  GT Time & Date
 GTDEPTH.m              00 000 000 000:  GT Depth
 GTPQH.psia             00 000 000 000:  GT HR Quartz Pressure
 GTTQ.degC              00 000 000 000:  GT Quartz Temperature
 GTTN.NONE              00 000 000 000:  GT Test Number
 GTET.sec               00 000 000 000:  GT Elapsed Test Time
 GTTVD.m                00 000 000 000:  GT True Vertical Depth
#Other Information
#
#WARRANTY: Halliburton will use its best efforts to furnish customers with 
#accurate information and interpretations that are part of, and incident to, the services 
#provided.  However, Halliburton cannot and does not warrant the accuracy 
#or correctness of such information and interpretations.  Under no circumstances should any 
#such information or interpretation be relied upon as the sole basis for any drilling, 
#completion, production, or financial decision or any procedure involving any risk to the 
#safety of any drilling venture, drilling rig or its crew or any other third party.  The 
#Customer has full responsibility for all drilling, completion and production operation.  
#Halliburton makes no representations or warranties, either expressed or 
#implied, including, but not limited to, the implied warranties of merchantability or fitness 
#for a particular purpose, with respect to the services rendered.  In no event will 
#Halliburton be liable for failure to obtain any particular results or for 
#any damages, including, but not limited to, indirect, special or consequential damages, 
#resulting from the use of any information or interpretation provided by Halliburton.
#
~A           TIME           GTDEPTH  GTPQH  GTTQ  GTTN  GTET   GTTVD  
# ...
   07:13:19.000.03-Feb-2020 4002.71 1699.51 64.25 9.00 299.00 3014.99
   07:13:19.200.03-Feb-2020 4002.71 1699.51 64.25 9.00 299.20 3014.99
   07:13:19.400.03-Feb-2020 4002.71 1706.49 64.25 9.00 299.40 3014.99
   07:13:19.600.03-Feb-2020 4002.71 1710.02 64.25 9.00 299.60 3014.99
   07:13:19.800.03-Feb-2020 4002.71 1713.19 64.25 9.00 299.80 3014.99
   07:13:20.000.03-Feb-2020 4002.71 1716.89 64.25 9.00 300.00 3014.99
   07:13:20.200.03-Feb-2020 4002.71 1716.89 64.25 9.00 300.20 3014.99
   07:13:20.400.03-Feb-2020 4002.71 1723.93 64.25 9.00 300.40 3014.99
   07:13:20.600.03-Feb-2020 4002.71 1727.33 64.25 9.00 300.60 3014.99
   07:13:20.800.03-Feb-2020 4002.71 1730.80 64.25 9.00 300.80 3014.99
   07:13:21.000.03-Feb-2020 4002.71 1734.10 64.25 9.00 301.00 3014.99
   07:13:21.200.03-Feb-2020 4002.71 1734.10 64.25 9.00 301.20 3014.99
   07:13:21.400.03-Feb-2020 4002.71 1739.39 64.25 9.00 301.40 3014.99
   07:13:21.600.03-Feb-2020 4002.71 1741.69 64.25 9.00 301.60 3014.99
   07:13:21.800.03-Feb-2020 4002.71 1645.02 64.25 9.00 301.80 3014.99
   07:13:22.000.03-Feb-2020 4002.71 1276.59 64.25 9.00 302.00 3014.99
   07:13:22.200.03-Feb-2020 4002.71 1276.59 64.25 9.00 302.20 3014.99
   07:13:22.400.03-Feb-2020 4002.71  648.36 64.25 9.00 302.40 3014.99
   07:13:22.600.03-Feb-2020 4002.71  420.32 64.25 9.00 302.60 3014.99
   07:13:22.800.03-Feb-2020 4002.71  292.08 64.25 9.00 302.80 3014.99
   07:13:23.000.03-Feb-2020 4002.71  242.08 64.25 9.00 303.00 3014.99
   07:13:23.200.03-Feb-2020 4002.71  242.08 64.25 9.00 303.20 3014.99
   07:13:23.400.03-Feb-2020 4002.71  201.12 64.25 9.00 303.40 3014.99
   07:13:23.600.03-Feb-2020 4002.71  189.83 64.25 9.00 303.60 3014.99
   07:13:23.800.03-Feb-2020 4002.71  181.17 64.25 9.00 303.80 3014.99
   07:13:24.000.03-Feb-2020 4002.71  172.80 64.25 9.00 304.00 3014.99
   07:13:24.200.03-Feb-2020 4002.71  172.80 64.25 9.00 304.20 3014.99
   07:13:24.400.03-Feb-2020 4002.71  160.85 64.25 9.00 304.40 3014.99
   07:13:24.600.03-Feb-2020 4002.71  156.73 64.25 9.00 304.60 3014.99
   07:13:24.800.03-Feb-2020 4002.71  153.83 64.25 9.00 304.80 3014.99
   07:13:25.000.03-Feb-2020 4002.71  150.99 64.25 9.00 305.00 3014.99
   07:13:25.200.03-Feb-2020 4002.71  150.99 64.25 9.00 305.20 3014.99
   07:13:25.400.03-Feb-2020 4002.71  146.68 64.25 9.00 305.40 3014.99
   07:13:25.600.03-Feb-2020 4002.71  144.65 64.25 9.00 305.60 3014.99
   07:13:25.800.03-Feb-2020 4002.71  143.08 64.25 9.00 305.80 3014.99
   07:13:26.000.03-Feb-2020 4002.71  141.77 64.25 9.00 306.00 3014.99
   07:13:26.200.03-Feb-2020 4002.71  140.58 64.25 9.00 306.20 3014.99
   07:13:26.400.03-Feb-2020 4002.71  139.36 64.25 9.00 306.40 3014.99
   07:13:26.600.03-Feb-2020 4002.71  138.38 64.25 9.00 306.60 3014.99
   07:13:26.800.03-Feb-2020 4002.71  137.41 64.25 9.00 306.80 3014.99
   07:13:27.000.03-Feb-2020 4002.71  136.50 64.25 9.00 307.00 3014.99
   07:13:27.200.03-Feb-2020 4002.71  136.50 64.25 9.00 307.20 3014.99
   07:13:27.400.03-Feb-2020 4002.71  135.08 64.24 9.00 307.40 3014.99
   07:13:27.600.03-Feb-2020 4002.71  134.46 64.24 9.00 307.60 3014.99
   07:13:27.800.03-Feb-2020 4002.71  133.95 64.24 9.00 307.80 3014.99
   07:13:28.000.03-Feb-2020 4002.71  133.58 64.24 9.00 308.00 3014.99
   07:13:28.200.03-Feb-2020 4002.71  133.58 64.24 9.00 308.20 3014.99
   07:13:28.400.03-Feb-2020 4002.71  133.09 64.24 9.00 308.40 3014.99
   07:13:28.600.03-Feb-2020 4002.71  132.86 64.24 9.00 308.60 3014.99
   07:13:28.800.03-Feb-2020 4002.71  132.54 64.24 9.00 308.80 3014.99
   07:13:29.000.03-Feb-2020 4002.71  132.38 64.24 9.00 309.00 3014.99
   07:13:29.200.03-Feb-2020 4002.71  132.38 64.24 9.00 309.20 3014.99
   07:13:29.400.03-Feb-2020 4002.71  131.57 64.24 9.00 309.40 3014.99
   07:13:29.600.03-Feb-2020 4002.71  131.17 64.24 9.00 309.60 3014.99
   07:13:29.800.03-Feb-2020 4002.71  130.70 64.24 9.00 309.80 3014.99
   07:13:30.000.03-Feb-2020 4002.71  130.19 64.24 9.00 310.00 3014.99
   07:13:30.200.03-Feb-2020 4002.71  130.19 64.24 9.00 310.20 3014.99
   07:13:30.400.03-Feb-2020 4002.71  129.80 64.24 9.00 310.40 3014.99
   07:13:30.600.03-Feb-2020 4002.71  129.51 64.24 9.00 310.60 3014.99
   07:13:30.800.03-Feb-2020 4002.71  129.27 64.24 9.00 310.80 3014.99
   07:13:31.000.03-Feb-2020 4002.71  129.05 64.24 9.00 311.00 3014.99
   07:13:31.200.03-Feb-2020 4002.71  129.05 64.24 9.00 311.20 3014.99
   07:13:31.400.03-Feb-2020 4002.71  128.31 64.24 9.00 311.40 3014.99
   07:13:31.600.03-Feb-2020 4002.71  128.09 64.24 9.00 311.60 3014.99
   07:13:31.800.03-Feb-2020 4002.71  127.91 64.24 9.00 311.80 3014.99
   07:13:32.000.03-Feb-2020 4002.71  128.13 64.24 9.00 312.00 3014.99
   07:13:32.200.03-Feb-2020 4002.71  128.13 64.24 9.00 312.20 3014.99
   07:13:32.400.03-Feb-2020 4002.71  130.90 64.23 9.00 312.40 3014.99
   07:13:32.600.03-Feb-2020 4002.71  132.31 64.23 9.00 312.60 3014.99
   07:13:32.800.03-Feb-2020 4002.71  133.69 64.23 9.00 312.80 3014.99
   07:13:33.000.03-Feb-2020 4002.71  135.03 64.23 9.00 313.00 3014.99
   07:13:33.200.03-Feb-2020 4002.71  135.03 64.23 9.00 313.20 3014.99
   07:13:33.400.03-Feb-2020 4002.71  135.03 64.23 9.00 313.40 3014.99
   07:13:33.600.03-Feb-2020 4002.71  138.93 64.23 9.00 313.60 3014.99
   07:13:33.800.03-Feb-2020 4002.71  140.19 64.23 9.00 313.80 3014.99
   07:13:34.000.03-Feb-2020 4002.71  141.42 64.23 9.00 314.00 3014.99
   07:13:34.200.03-Feb-2020 4002.71  141.42 64.23 9.00 314.20 3014.99
   07:13:34.400.03-Feb-2020 4002.71  143.85 64.23 9.00 314.40 3014.99
   07:13:34.600.03-Feb-2020 4002.71  145.05 64.23 9.00 314.60 3014.99
   07:13:34.800.03-Feb-2020 4002.71  146.24 64.23 9.00 314.80 3014.99
   07:13:35.000.03-Feb-2020 4002.71  147.42 64.23 9.00 315.00 3014.99
   07:13:35.200.03-Feb-2020 4002.71  147.42 64.23 9.00 315.20 3014.99
   07:13:35.400.03-Feb-2020 4002.71  149.76 64.23 9.00 315.40 3014.99
   07:13:35.600.03-Feb-2020 4002.71  150.92 64.23 9.00 315.60 3014.99
   07:13:35.800.03-Feb-2020 4002.71  152.07 64.23 9.00 315.80 3014.99
   07:13:36.000.03-Feb-2020 4002.71  153.22 64.23 9.00 316.00 3014.99
   07:13:36.200.03-Feb-2020 4002.71  153.22 64.23 9.00 316.20 3014.99
   07:13:36.400.03-Feb-2020 4002.71  155.47 64.23 9.00 316.40 3014.99
   07:13:36.600.03-Feb-2020 4002.71  156.59 64.23 9.00 316.60 3014.99
   07:13:36.800.03-Feb-2020 4002.71  157.71 64.23 9.00 316.80 3014.99
   07:13:37.000.03-Feb-2020 4002.71  158.83 64.23 9.00 317.00 3014.99
   07:13:37.200.03-Feb-2020 4002.71  158.83 64.23 9.00 317.20 3014.99
   07:13:37.400.03-Feb-2020 4002.71  161.04 64.23 9.00 317.40 3014.99
   07:13:37.600.03-Feb-2020 4002.71  162.12 64.23 9.00 317.60 3014.99
   07:13:37.800.03-Feb-2020 4002.71  163.22 64.23 9.00 317.80 3014.99
   07:13:38.000.03-Feb-2020 4002.71  164.30 64.23 9.00 318.00 3014.99
   07:13:38.200.03-Feb-2020 4002.71  164.30 64.23 9.00 318.20 3014.99
   07:13:38.400.03-Feb-2020 4002.71  166.47 64.23 9.00 318.40 3014.99
   07:13:38.600.03-Feb-2020 4002.71  167.53 64.23 9.00 318.60 3014.99
   07:13:38.800.03-Feb-2020 4002.71  168.59 64.23 9.00 318.80 3014.99
   07:13:39.000.03-Feb-2020 4002.71  169.66 64.23 9.00 319.00 3014.99
   07:13:39.200.03-Feb-2020 4002.71  169.66 64.23 9.00 319.20 3014.99
   07:13:39.400.03-Feb-2020 4002.71  171.81 64.23 9.00 319.40 3014.99
   07:13:39.600.03-Feb-2020 4002.71  172.88 64.23 9.00 319.60 3014.99
   07:13:39.800.03-Feb-2020 4002.71  173.93 64.23 9.00 319.80 3014.99
   07:13:40.000.03-Feb-2020 4002.71  174.98 64.23 9.00 320.00 3014.99
   07:13:40.200.03-Feb-2020 4002.71  174.98 64.23 9.00 320.20 3014.99
   07:13:40.400.03-Feb-2020 4002.71  177.09 64.23 9.00 320.40 3014.99
   07:13:40.600.03-Feb-2020 4002.71  178.14 64.23 9.00 320.60 3014.99
   07:13:40.800.03-Feb-2020 4002.71  179.17 64.23 9.00 320.80 3014.99
   07:13:41.000.03-Feb-2020 4002.71  180.22 64.23 9.00 321.00 3014.99
   07:13:41.200.03-Feb-2020 4002.71  180.22 64.23 9.00 321.20 3014.99
   07:13:41.400.03-Feb-2020 4002.71  182.31 64.23 9.00 321.40 3014.99
   07:13:41.600.03-Feb-2020 4002.71  183.35 64.23 9.00 321.60 3014.99
   07:13:41.800.03-Feb-2020 4002.71  184.39 64.23 9.00 321.80 3014.99
