~Version Information
 VERS.                  2.0:   CWLS log ASCII Standard -VERSION 2.0
 WRAP.                   NO:   One line per depth step
~Well Information Block
#MNEM.UNIT     VALUE/NAME     DESCRIPTION
#---------     -----------    ---------------------------
 STRT.S             03:10:10 03-Feb-20: START TIME 03:10:10 03-Feb-20
 STOP.S             03:17:58 03-Feb-20: STOP TIME  03:17:58 03-Feb-20
 STEP.S                   0.00: STEP TIME
 NULL.                 -999.25: NULL VALUE
 DFWT.                        :  DIST FWL TEXT
 DFST.                        :  DIST FSL TEXT
 DMF .             Drill Floor:  DRILL MEAS FROM
 STIM.      09.30.00 26-Dec-19:  START TIME
 DATE.      08.00.00 20-Jan-20:  END TIME
 SPUD.               23-Nov-19:  SPUD DATE
 NREF.                    Grid:  NORTH REFERENCE
 HPTY.       Minimum Curvature:  HOLE POS TYPE
 DMOD.             Drill Model:  DRILL MOD DESC
 SVYD.                  Survey:  SURVEY DESC
 ILTD.               Lithology:  INTERP LTH DESC
 FTOP.          Formation Tops:  FORM TOPS DESC
 SON .        AZ-XX-0906192647:  JOB NUMBER
 WTYP.                Deviated:  WELL TYPE
 COMP.     BP Exploration (Caspian Sea) Ltd:  COMPANY
 BASE.              Azerbaijan:  LOGGING EQUIPMENT BASE LOCATION
 REGN.                 Eurasia:  REGION
 FLD .                     ACG:  FIELD NAME
 SRVC.              KCA Deutag:  CONTRACTOR
 MWDS.                    Baku:  MWD SHOP
 WELL.     A10 (Slot 20) - SCP:  WELL NAME
 JOBN.        AZ-XX-0906192647:  JOB TICKET NUMB
 RIG .                 Chirag1:  RIG NAME
 DCON.     Halliburton Sperry Drilling:  DIRECTNL CONTR
 UNIT.                     N/A:  LOGGING EQUIPMENT ID
 PDAT.          Mean Sea Level:  PERMANENT DATUM
 MDS .        Operator Entered:  MAG DATA SOURCE
 CTRY.              Azerbaijan:  COUNTRY NAME
 UWI .            /AZE00000090:  UNIQUE WELL IDENTIFIER
 API .            /AZE00000090:  API NUMBER
 CNTY.                        :  COUNTY
 PROV.                        :  PROVINCE
 STAT.                        :  STATE
 LOC .                        :  LOCATION
 LMF .             Drill Floor:  LOG MEASURED FROM
 TVDS.m                  36.60:  TVDSS CORRECTN
 LATI.deg                40.08:  LATITUDE
 LONG.deg                51.24:  LONGITUDE
 WHNS.m                  -7.94:  WELL HEAD N/S
 WHEW.m                   1.56:  WELL HEAD E/W
 UTMX.m              520429.26:  UTM X
 UTMY.m             4438973.87:  UTM Y
 DFWL.m                   0.00:  DISTANCE FWL
 DFSL.m                   0.00:  DISTANCE FSL
 SDEP.m                1455.00:  START DEPTH
 TDD .m                4047.51:  TOTAL DEPTH (DRILLER)
 VSDR.deg               112.75:  VERT SEC DIRECT
 GVFD.g                   1.00:  GRAVITY FIELD
 MFLD.nT              50261.00:  MAGNETIC FIELD
 MDIP.deg                59.52:  MAGNETIC DIP
 MDEC.deg                 6.42:  MAGNETIC DECL
 GRDC.deg                 0.17:  GRID CORRECTION
 AZTC.deg                 6.25:  AZM TOTAL CORR
 EPD .m                   0.00:  ELEVATION
 EGL .m                   0.00:  GROUND ELEVATION
 WDMS.m                 121.00:  WD ELEV
 APD .m                  36.60:  DEPTH ABOVE PD
 AGAP.m                  36.60:  AIR GAP
 VSEW.m                   1.56:  VERT SEC E/W
 VSNS.m                  -7.94:  VERT SEC N/S
 DEP .m                1140.01:  DEPTH
 EKB .m                  36.60:  KB ELEVATION
 EDF .m                  36.60:  DF ELEVATION
 VSC .                       0:  VS TO CLOSURE
 MAGU.                 1849206:  MAGUTM CHECKSUM
~Parameter Information Block
#MNEM.UNIT       Value        Description
#---------     -----------    ---------------------------
 AV  .mps                 1.70:  Ann Velocity 
 AVMX.mps                 2.30:  Max Ann Veloc 
 AZIF.deg               137.03:  Azm, Final 
 BHAT.                   Other:  BHA Type 
 BROT.°/30m               0.80:  Build Rotating 
 BS  .in                  8.00:  Bit Size 
 BTPL.psig              161.00:  Bit Press Loss 
 CABU.                      No:  Customer Abuse 
 TCS .hr                  9.59:  Time Ciculation Ended 
 CV  .mps                 3.76:  Crit Velocity 
 CVMX.mps                 4.26:  Max Crit Veloc 
 DD1 .         Intigam Rahimov:  Direct Drillr 1 
 DD2 .          Rashad Gojayev:  Direct Drillr 2 
 DDSV.                   Other:  DD Service 
 DEFF.%                 100.00:  % Det Eff 
 DLRX.°/30m               1.44:  Dogleg Rot Max 
 DLSO.°/30m               0.00:  Dogleg Oriented 
 DLSX.°/30m               0.00:  Dogleg Str Max 
 DRET.      03.31.12 02-Feb-20:  Drill End Time 
 DRST.      03.31.12 02-Feb-20:  Drill Start Tim 
 DTIM.hr                  1.99:  Time Drilling 
 EDEP.m                4047.51:  End Depth 
 ENG1.           Eldar Hajiyev:  Engineer 1 
 ENG2.          Rasim Hashimov:  Engineer 2 
 ENG3.          Rustam Safarov:  Engineer 3 
 ETIM.      03.31.12 02-Feb-20:  End Time 
 FLOI.gpm               300.00:  Flow In 
 FLON.gpm               250.00:  Flow In Min 
 FLOS.cptm                0.00:  Fluid Loss 
 FLOX.gpm               330.00:  Flow In Max 
 HFLO.                      No:  High Flow 
 HPRE.                      No:  High Pressure 
 HTEM.                      No:  High Temp 
 HYDO.m                   2.50:  Hydro Offset 
 IFIN.deg                39.54:  Inc, Final 
 IMAX.deg                41.14:  Inc Max 
 IMIN.deg                39.81:  Inc Min 
 IMND.m                4005.21:  Inc Min Depth 
 IMXD.m                3948.42:  Inc Max Depth 
 JARR.                      No:  Jarring 
 LETM.      03.31.12 02-Feb-20:  Log End Time 
 LOST.hr                     0:  Lost Rig Time 
 LSTM.      03.31.12 02-Feb-20:  Log Start Time 
 MDCL.ppm             35000.00:  Mud Chlorides 
 MDES.     Inversion Oil/Synthetic:  Mud Desc 
 DFD .sg                  1.32:  Mud Density 
 MDMN.sg                  1.32:  Dens Mud Min 
 MDMX.sg                  1.32:  Dens Mud Max 
 MOIL.                      59:  Run Mud Oil % 
 MOWR.                   71:29:  Run Mud OWR 
 MSND.                       0:  Run Mud Sand % 
 MSOL.                      17:  Run Mud Solids% 
 DFV .spqt               86.00:  Mud Viscosity 
 MWOD.in                  4.75:  MWD Tool OD 
 MWSI.                      No:  Serv Intrp, MWD 
 OTIM.hr                 46.72:  Time Operating 
 PCON.           Look Like New:  Pad Condition 
 PMAX.psia             3300.00:  Press Op, Max 
 PV  .cP                 30.00:  Mud PV 
 RUN .                     400:  Run Number 
 ROPA.m/hr               35.00:  ROP Avg 
 ROPN.m/hr               25.00:  ROP Min 
 ROPX.m/hr               40.00:  ROP Max 
 RPMA.rpm                80.00:  RPM Surface Avg 
 RPMN.rpm                60.00:  RPM Surface Min 
 RPMX.rpm               100.00:  RPM Surface Max 
 RRUN.                     400:  Rig Run Number 
 RTIM.hr                  1.99:  Time Reaming 
 SAZI.deg               133.93:  Azm, Start 
 SDEP.m                4047.51:  Start Depth 
 SIDD.                      No:  Serv Intrp, DD 
 SINC.deg                40.28:  Inc, Start 
 SPPA.psig             3250.00:  SPP Avg 
 SPPN.psig             3200.00:  SPP Min 
 SPPX.psig             3300.00:  SPP Max 
 STIM.      03.31.12 02-Feb-20:  Start Time 
 SVCS.                 DD, MWD:  Services 
 SVER.                    9.20:  Sperry Version 
 TDAT.m                  47.00:  Tot Depth Attmp 
 TDDF.                      No:  Trip for DD 
 TFF .                      No:  Trip for Fail 
 TQAA.f-kp                0.00:  Torque Abs Avg 
 TQAN.f-kp                0.00:  Torque Abs Min 
 TQAX.f-kp                0.00:  Torque Abs Max 
 TRRT.°/30m               0.70:  Turn Rotating 
 MRT .                    HCIM:  Maximum Recorded Temperature 
 TTMX.degC               70.59:  Max Tool Temp 
 VS01.             90598770F11:  Virtual Str1 SN 
 VS02.             90598769F11:  Virtual Str2 SN 
 VS03.            90515978Z1W1:  Virtual Str3 SN 
 VS04.          90584144R12X14:  Virtual Str4 SN 
 WBMN.klb                 0.00:  WOB Min 
 WITN.            Peter Wilson:  Customer Rep 
 WOBA.klb                 0.00:  WOB Avg 
 WOBX.klb                 0.00:  WOB Max 
 YP  .lhf2               29.00:  Yield Point 
~Curve Information Block
#MNEM.UNIT                 API CODE     Curve Description
#---------               -----------    ---------------------------
 TIME.HHMMSS            00 000 000 000:  GT Time & Date
 GTDEPTH.m              00 000 000 000:  GT Depth
 GTPQH.psia             00 000 000 000:  GT HR Quartz Pressure
 GTTQ.degC              00 000 000 000:  GT Quartz Temperature
 GTTN.NONE              00 000 000 000:  GT Test Number
 GTET.sec               00 000 000 000:  GT Elapsed Test Time
 GTTVD.m                00 000 000 000:  GT True Vertical Depth
#Other Information
#
#WARRANTY: Halliburton will use its best efforts to furnish customers with 
#accurate information and interpretations that are part of, and incident to, the services 
#provided.  However, Halliburton cannot and does not warrant the accuracy 
#or correctness of such information and interpretations.  Under no circumstances should any 
#such information or interpretation be relied upon as the sole basis for any drilling, 
#completion, production, or financial decision or any procedure involving any risk to the 
#safety of any drilling venture, drilling rig or its crew or any other third party.  The 
#Customer has full responsibility for all drilling, completion and production operation.  
#Halliburton makes no representations or warranties, either expressed or 
#implied, including, but not limited to, the implied warranties of merchantability or fitness 
#for a particular purpose, with respect to the services rendered.  In no event will 
#Halliburton be liable for failure to obtain any particular results or for 
#any damages, including, but not limited to, indirect, special or consequential damages, 
#resulting from the use of any information or interpretation provided by Halliburton.
#
~A           TIME           GTDEPTH  GTPQH  GTTQ  GTTN  GTET   GTTVD  
# ...
   03:11:19.038.03-Feb-2020 4017.01 3135.25 63.14 2.00  69.01 3025.96
   03:11:19.238.03-Feb-2020 4017.01 3135.25 63.14 2.00  69.21 3025.96
   03:11:19.438.03-Feb-2020 4017.01 3135.35 63.14 2.00  69.41 3025.96
   03:11:19.638.03-Feb-2020 4017.01 3135.32 63.14 2.00  69.61 3025.96
   03:11:19.838.03-Feb-2020 4017.01 3135.31 63.14 2.00  69.81 3025.96
   03:11:20.038.03-Feb-2020 4017.01 3135.28 63.14 2.00  70.01 3025.96
   03:11:20.238.03-Feb-2020 4017.01 3135.28 63.14 2.00  70.21 3025.96
   03:11:20.438.03-Feb-2020 4017.01 3135.38 63.14 2.00  70.41 3025.96
   03:11:20.638.03-Feb-2020 4017.01 3135.00 63.14 2.00  70.61 3025.96
   03:11:20.838.03-Feb-2020 4017.01 3135.16 63.14 2.00  70.81 3025.96
   03:11:21.038.03-Feb-2020 4017.01 3135.32 63.14 2.00  71.01 3025.96
   03:11:21.238.03-Feb-2020 4017.01 3135.32 63.14 2.00  71.21 3025.96
   03:11:21.438.03-Feb-2020 4017.01 3135.32 63.14 2.00  71.41 3025.96
   03:11:21.639.03-Feb-2020 4017.01 3135.24 63.14 2.00  71.61 3025.96
   03:11:21.839.03-Feb-2020 4017.01 3135.28 63.14 2.00  71.82 3025.96
   03:11:22.039.03-Feb-2020 4017.01 3135.30 63.14 2.00  72.02 3025.96
   03:11:22.239.03-Feb-2020 4017.01 3135.30 63.14 2.00  72.22 3025.96
   03:11:22.439.03-Feb-2020 4017.01 3135.35 63.13 2.00  72.42 3025.96
   03:11:22.639.03-Feb-2020 4017.01 3135.37 63.14 2.00  72.62 3025.96
   03:11:22.839.03-Feb-2020 4017.01 3135.32 63.13 2.00  72.82 3025.96
   03:11:23.039.03-Feb-2020 4017.01 3134.85 63.13 2.00  73.02 3025.96
   03:11:23.239.03-Feb-2020 4017.01 3134.85 63.13 2.00  73.22 3025.96
   03:11:23.439.03-Feb-2020 4017.01 3135.15 63.13 2.00  73.42 3025.96
   03:11:23.639.03-Feb-2020 4017.01 3135.46 63.13 2.00  73.62 3025.96
   03:11:23.839.03-Feb-2020 4017.01 3135.28 63.13 2.00  73.82 3025.96
   03:11:24.039.03-Feb-2020 4017.01 3135.33 63.13 2.00  74.02 3025.96
   03:11:24.239.03-Feb-2020 4017.01 3135.33 63.13 2.00  74.22 3025.96
   03:11:24.439.03-Feb-2020 4017.01 3135.49 63.13 2.00  74.42 3025.96
   03:11:24.639.03-Feb-2020 4017.01 3135.22 63.13 2.00  74.62 3025.96
   03:11:24.839.03-Feb-2020 4017.01 3135.36 63.13 2.00  74.82 3025.96
   03:11:25.039.03-Feb-2020 4017.01 3135.33 63.13 2.00  75.02 3025.96
   03:11:25.239.03-Feb-2020 4017.01 3135.33 63.13 2.00  75.22 3025.96
   03:11:25.439.03-Feb-2020 4017.01 3135.09 63.13 2.00  75.42 3025.96
   03:11:25.639.03-Feb-2020 4017.01 3135.19 63.13 2.00  75.62 3025.96
   03:11:25.839.03-Feb-2020 4017.01 3135.31 63.13 2.00  75.82 3025.96
   03:11:26.039.03-Feb-2020 4017.01 3135.41 63.13 2.00  76.02 3025.96
   03:11:26.239.03-Feb-2020 4017.01 3135.41 63.13 2.00  76.22 3025.96
   03:11:26.440.03-Feb-2020 4017.01 3135.45 63.13 2.00  76.42 3025.96
   03:11:26.640.03-Feb-2020 4017.01 3135.27 63.13 2.00  76.62 3025.96
   03:11:26.840.03-Feb-2020 4017.01 3135.30 63.13 2.00  76.82 3025.96
   03:11:27.040.03-Feb-2020 4017.01 3135.29 63.13 2.00  77.02 3025.96
   03:11:27.240.03-Feb-2020 4017.01 3135.29 63.13 2.00  77.22 3025.96
   03:11:27.440.03-Feb-2020 4017.01 3135.29 63.13 2.00  77.42 3025.96
   03:11:27.640.03-Feb-2020 4017.01 3135.35 63.13 2.00  77.62 3025.96
   03:11:27.840.03-Feb-2020 4017.01 3135.33 63.13 2.00  77.82 3025.96
   03:11:28.040.03-Feb-2020 4017.01 3135.29 63.13 2.00  78.02 3025.96
   03:11:28.240.03-Feb-2020 4017.01 3135.29 63.13 2.00  78.22 3025.96
   03:11:28.440.03-Feb-2020 4017.01 3135.41 63.13 2.00  78.42 3025.96
   03:11:28.640.03-Feb-2020 4017.01 3135.33 63.13 2.00  78.62 3025.96
   03:11:28.840.03-Feb-2020 4017.01 3135.37 63.13 2.00  78.82 3025.96
   03:11:29.040.03-Feb-2020 4017.01 3135.37 63.13 2.00  79.02 3025.96
   03:11:29.240.03-Feb-2020 4017.01 3135.37 63.13 2.00  79.22 3025.96
   03:11:29.440.03-Feb-2020 4017.01 3135.21 63.13 2.00  79.42 3025.96
   03:11:29.640.03-Feb-2020 4017.01 3135.40 63.13 2.00  79.62 3025.96
   03:11:29.840.03-Feb-2020 4017.01 3135.00 63.13 2.00  79.82 3025.96
   03:11:30.040.03-Feb-2020 4017.01 3135.46 63.13 2.00  80.02 3025.96
   03:11:30.240.03-Feb-2020 4017.01 3135.46 63.13 2.00  80.22 3025.96
   03:11:30.440.03-Feb-2020 4017.01 3135.33 63.13 2.00  80.42 3025.96
   03:11:30.640.03-Feb-2020 4017.01 3135.34 63.13 2.00  80.62 3025.96
   03:11:30.840.03-Feb-2020 4017.01 3135.34 63.13 2.00  80.82 3025.96
   03:11:31.040.03-Feb-2020 4017.01 3135.32 63.13 2.00  81.02 3025.96
   03:11:31.241.03-Feb-2020 4017.01 3135.32 63.13 2.00  81.22 3025.96
   03:11:31.441.03-Feb-2020 4017.01 3135.39 63.13 2.00  81.42 3025.96
   03:11:31.641.03-Feb-2020 4017.01 3135.35 63.13 2.00  81.62 3025.96
   03:11:31.841.03-Feb-2020 4017.01 3135.42 63.13 2.00  81.82 3025.96
   03:11:32.041.03-Feb-2020 4017.01 3134.91 63.13 2.00  82.02 3025.96
   03:11:32.241.03-Feb-2020 4017.01 3134.91 63.13 2.00  82.22 3025.96
   03:11:32.441.03-Feb-2020 4017.01 3135.39 63.13 2.00  82.42 3025.96
   03:11:32.641.03-Feb-2020 4017.01 3135.46 63.13 2.00  82.62 3025.96
   03:11:32.841.03-Feb-2020 4017.01 3135.32 63.13 2.00  82.82 3025.96
   03:11:33.041.03-Feb-2020 4017.01 3135.42 63.12 2.00  83.02 3025.96
   03:11:33.241.03-Feb-2020 4017.01 3135.42 63.12 2.00  83.22 3025.96
   03:11:33.441.03-Feb-2020 4017.01 3135.23 63.12 2.00  83.42 3025.96
   03:11:33.641.03-Feb-2020 4017.01 3135.43 63.12 2.00  83.62 3025.96
   03:11:33.841.03-Feb-2020 4017.01 3135.34 63.12 2.00  83.82 3025.96
   03:11:34.041.03-Feb-2020 4017.01 3135.37 63.12 2.00  84.02 3025.96
   03:11:34.241.03-Feb-2020 4017.01 3135.37 63.12 2.00  84.22 3025.96
   03:11:34.441.03-Feb-2020 4017.01 3135.42 63.12 2.00  84.42 3025.96
   03:11:34.641.03-Feb-2020 4017.01 3135.09 63.12 2.00  84.62 3025.96
   03:11:34.841.03-Feb-2020 4017.01 3135.46 63.12 2.00  84.82 3025.96
   03:11:35.041.03-Feb-2020 4017.01 3135.39 63.12 2.00  85.02 3025.96
   03:11:35.241.03-Feb-2020 4017.01 3135.39 63.12 2.00  85.22 3025.96
   03:11:35.441.03-Feb-2020 4017.01 3135.25 63.12 2.00  85.42 3025.96
   03:11:35.641.03-Feb-2020 4017.01 3135.39 63.12 2.00  85.62 3025.96
   03:11:35.841.03-Feb-2020 4017.01 3135.29 63.12 2.00  85.82 3025.96
   03:11:36.042.03-Feb-2020 4017.01 3135.42 63.12 2.00  86.02 3025.96
   03:11:36.242.03-Feb-2020 4017.01 3135.42 63.12 2.00  86.22 3025.96
   03:11:36.442.03-Feb-2020 4017.01 3135.34 63.12 2.00  86.42 3025.96
   03:11:36.642.03-Feb-2020 4017.01 3135.38 63.12 2.00  86.62 3025.96
   03:11:36.842.03-Feb-2020 4017.01 3135.35 63.12 2.00  86.82 3025.96
   03:11:37.042.03-Feb-2020 4017.01 3135.32 63.12 2.00  87.02 3025.96
   03:11:37.242.03-Feb-2020 4017.01 3135.32 63.12 2.00  87.22 3025.96
   03:11:37.442.03-Feb-2020 4017.01 3135.38 63.12 2.00  87.42 3025.96
   03:11:37.642.03-Feb-2020 4017.01 3135.39 63.12 2.00  87.62 3025.96
   03:11:37.842.03-Feb-2020 4017.01 3135.38 63.12 2.00  87.82 3025.96
   03:11:38.042.03-Feb-2020 4017.01 3135.42 63.12 2.00  88.02 3025.96
   03:11:38.242.03-Feb-2020 4017.01 3135.42 63.12 2.00  88.22 3025.96
   03:11:38.442.03-Feb-2020 4017.01 3134.91 63.12 2.00  88.42 3025.96
   03:11:38.642.03-Feb-2020 4017.01 3135.69 63.12 2.00  88.62 3025.96
   03:11:38.842.03-Feb-2020 4017.01 3135.14 63.12 2.00  88.82 3025.96
   03:11:39.042.03-Feb-2020 4017.01 3135.50 63.12 2.00  89.02 3025.96
   03:11:39.242.03-Feb-2020 4017.01 3135.50 63.12 2.00  89.22 3025.96
   03:11:39.442.03-Feb-2020 4017.01 3135.40 63.12 2.00  89.42 3025.96
   03:11:39.642.03-Feb-2020 4017.01 3135.32 63.12 2.00  89.62 3025.96
   03:11:39.842.03-Feb-2020 4017.01 3135.37 63.12 2.00  89.82 3025.96
   03:11:40.042.03-Feb-2020 4017.01 3135.39 63.12 2.00  90.02 3025.96
   03:11:40.242.03-Feb-2020 4017.01 3135.39 63.12 2.00  90.22 3025.96
   03:11:40.442.03-Feb-2020 4017.01 3135.42 63.12 2.00  90.42 3025.96
   03:11:40.643.03-Feb-2020 4017.01 3135.43 63.12 2.00  90.62 3025.96
   03:11:40.843.03-Feb-2020 4017.01 3135.43 63.12 2.00  90.82 3025.96
   03:11:41.043.03-Feb-2020 4017.01 3135.08 63.12 2.00  91.02 3025.96
   03:11:41.243.03-Feb-2020 4017.01 3135.08 63.12 2.00  91.22 3025.96
   03:11:41.443.03-Feb-2020 4017.01 3135.54 63.12 2.00  91.42 3025.96
   03:11:41.643.03-Feb-2020 4017.01 3135.41 63.12 2.00  91.62 3025.96
   03:11:41.843.03-Feb-2020 4017.01 3135.41 63.12 2.00  91.82 3025.96
