~Version Information
 VERS.                  2.0:   CWLS log ASCII Standard -VERSION 2.0
 WRAP.                   NO:   One line per depth step
~Well Information Block
#MNEM.UNIT     VALUE/NAME     DESCRIPTION
#---------     -----------    ---------------------------
 STRT.S             02:50:23 03-Feb-20: START TIME 02:50:23 03-Feb-20
 STOP.S             02:58:14 03-Feb-20: STOP TIME  02:58:14 03-Feb-20
 STEP.S                   0.00: STEP TIME
 NULL.                 -999.25: NULL VALUE
 DFWT.                        :  DIST FWL TEXT
 DFST.                        :  DIST FSL TEXT
 DMF .             Drill Floor:  DRILL MEAS FROM
 STIM.      09.30.00 26-Dec-19:  START TIME
 DATE.      08.00.00 20-Jan-20:  END TIME
 SPUD.               23-Nov-19:  SPUD DATE
 NREF.                    Grid:  NORTH REFERENCE
 HPTY.       Minimum Curvature:  HOLE POS TYPE
 DMOD.             Drill Model:  DRILL MOD DESC
 SVYD.                  Survey:  SURVEY DESC
 ILTD.               Lithology:  INTERP LTH DESC
 FTOP.          Formation Tops:  FORM TOPS DESC
 SON .        AZ-XX-0906192647:  JOB NUMBER
 WTYP.                Deviated:  WELL TYPE
 COMP.     BP Exploration (Caspian Sea) Ltd:  COMPANY
 BASE.              Azerbaijan:  LOGGING EQUIPMENT BASE LOCATION
 REGN.                 Eurasia:  REGION
 FLD .                     ACG:  FIELD NAME
 SRVC.              KCA Deutag:  CONTRACTOR
 MWDS.                    Baku:  MWD SHOP
 WELL.     A10 (Slot 20) - SCP:  WELL NAME
 JOBN.        AZ-XX-0906192647:  JOB TICKET NUMB
 RIG .                 Chirag1:  RIG NAME
 DCON.     Halliburton Sperry Drilling:  DIRECTNL CONTR
 UNIT.                     N/A:  LOGGING EQUIPMENT ID
 PDAT.          Mean Sea Level:  PERMANENT DATUM
 MDS .        Operator Entered:  MAG DATA SOURCE
 CTRY.              Azerbaijan:  COUNTRY NAME
 UWI .            /AZE00000090:  UNIQUE WELL IDENTIFIER
 API .            /AZE00000090:  API NUMBER
 CNTY.                        :  COUNTY
 PROV.                        :  PROVINCE
 STAT.                        :  STATE
 LOC .                        :  LOCATION
 LMF .             Drill Floor:  LOG MEASURED FROM
 TVDS.m                  36.60:  TVDSS CORRECTN
 LATI.deg                40.08:  LATITUDE
 LONG.deg                51.24:  LONGITUDE
 WHNS.m                  -7.94:  WELL HEAD N/S
 WHEW.m                   1.56:  WELL HEAD E/W
 UTMX.m              520429.26:  UTM X
 UTMY.m             4438973.87:  UTM Y
 DFWL.m                   0.00:  DISTANCE FWL
 DFSL.m                   0.00:  DISTANCE FSL
 SDEP.m                1455.00:  START DEPTH
 TDD .m                4047.51:  TOTAL DEPTH (DRILLER)
 VSDR.deg               112.75:  VERT SEC DIRECT
 GVFD.g                   1.00:  GRAVITY FIELD
 MFLD.nT              50261.00:  MAGNETIC FIELD
 MDIP.deg                59.52:  MAGNETIC DIP
 MDEC.deg                 6.42:  MAGNETIC DECL
 GRDC.deg                 0.17:  GRID CORRECTION
 AZTC.deg                 6.25:  AZM TOTAL CORR
 EPD .m                   0.00:  ELEVATION
 EGL .m                   0.00:  GROUND ELEVATION
 WDMS.m                 121.00:  WD ELEV
 APD .m                  36.60:  DEPTH ABOVE PD
 AGAP.m                  36.60:  AIR GAP
 VSEW.m                   1.56:  VERT SEC E/W
 VSNS.m                  -7.94:  VERT SEC N/S
 DEP .m                1140.01:  DEPTH
 EKB .m                  36.60:  KB ELEVATION
 EDF .m                  36.60:  DF ELEVATION
 VSC .                       0:  VS TO CLOSURE
 MAGU.                 1849206:  MAGUTM CHECKSUM
~Parameter Information Block
#MNEM.UNIT       Value        Description
#---------     -----------    ---------------------------
 AV  .mps                 1.70:  Ann Velocity 
 AVMX.mps                 2.30:  Max Ann Veloc 
 AZIF.deg               137.03:  Azm, Final 
 BHAT.                   Other:  BHA Type 
 BROT.°/30m               0.80:  Build Rotating 
 BS  .in                  8.00:  Bit Size 
 BTPL.psig              161.00:  Bit Press Loss 
 CABU.                      No:  Customer Abuse 
 COMM.                     ´Î`:  Run Comments 1 
 TCS .hr                  9.59:  Time Ciculation Ended 
 CV  .mps                 3.76:  Crit Velocity 
 CVMX.mps                 4.26:  Max Crit Veloc 
 DD1 .         Intigam Rahimov:  Direct Drillr 1 
 DD2 .          Rashad Gojayev:  Direct Drillr 2 
 DDSV.                   Other:  DD Service 
 DEFF.%                 100.00:  % Det Eff 
 DLRX.°/30m               1.44:  Dogleg Rot Max 
 DLSO.°/30m               0.00:  Dogleg Oriented 
 DLSX.°/30m               0.00:  Dogleg Str Max 
 DRET.      03.31.12 02-Feb-20:  Drill End Time 
 DRST.      03.31.12 02-Feb-20:  Drill Start Tim 
 DTIM.hr                  1.99:  Time Drilling 
 EDEP.m                4047.51:  End Depth 
 ENG1.           Eldar Hajiyev:  Engineer 1 
 ENG2.          Rasim Hashimov:  Engineer 2 
 ENG3.          Rustam Safarov:  Engineer 3 
 ETIM.      03.31.12 02-Feb-20:  End Time 
 FLOI.gpm               300.00:  Flow In 
 FLON.gpm               250.00:  Flow In Min 
 FLOS.cptm                0.00:  Fluid Loss 
 FLOX.gpm               330.00:  Flow In Max 
 HFLO.                      No:  High Flow 
 HPRE.                      No:  High Pressure 
 HTEM.                      No:  High Temp 
 HYDO.m                   2.50:  Hydro Offset 
 IFIN.deg                39.54:  Inc, Final 
 IMAX.deg                41.14:  Inc Max 
 IMIN.deg                39.81:  Inc Min 
 IMND.m                4005.21:  Inc Min Depth 
 IMXD.m                3948.42:  Inc Max Depth 
 JARR.                      No:  Jarring 
 LETM.      03.31.12 02-Feb-20:  Log End Time 
 LOST.hr                     0:  Lost Rig Time 
 LSTM.      03.31.12 02-Feb-20:  Log Start Time 
 MDCL.ppm             35000.00:  Mud Chlorides 
 MDES.     Inversion Oil/Synthetic:  Mud Desc 
 DFD .sg                  1.32:  Mud Density 
 MDMN.sg                  1.32:  Dens Mud Min 
 MDMX.sg                  1.32:  Dens Mud Max 
 MOIL.                      59:  Run Mud Oil % 
 MOWR.                   71:29:  Run Mud OWR 
 MSND.                       0:  Run Mud Sand % 
 MSOL.                      17:  Run Mud Solids% 
 DFV .spqt               86.00:  Mud Viscosity 
 MWOD.in                  4.75:  MWD Tool OD 
 MWSI.                      No:  Serv Intrp, MWD 
 OTIM.hr                 46.72:  Time Operating 
 PCON.           Look Like New:  Pad Condition 
 PMAX.psia             3300.00:  Press Op, Max 
 PV  .cP                 30.00:  Mud PV 
 RUN .                     400:  Run Number 
 ROPA.m/hr               35.00:  ROP Avg 
 ROPN.m/hr               25.00:  ROP Min 
 ROPX.m/hr               40.00:  ROP Max 
 RPMA.rpm                80.00:  RPM Surface Avg 
 RPMN.rpm                60.00:  RPM Surface Min 
 RPMX.rpm               100.00:  RPM Surface Max 
 RRUN.                     400:  Rig Run Number 
 RTIM.hr                  1.99:  Time Reaming 
 SAZI.deg               133.93:  Azm, Start 
 SDEP.m                4047.51:  Start Depth 
 SIDD.                      No:  Serv Intrp, DD 
 SINC.deg                40.28:  Inc, Start 
 SPPA.psig             3250.00:  SPP Avg 
 SPPN.psig             3200.00:  SPP Min 
 SPPX.psig             3300.00:  SPP Max 
 STIM.      03.31.12 02-Feb-20:  Start Time 
 SVCS.                 DD, MWD:  Services 
 SVER.                    9.20:  Sperry Version 
 TDAT.m                  47.00:  Tot Depth Attmp 
 TDDF.                      No:  Trip for DD 
 TFF .                      No:  Trip for Fail 
 TQAA.f-kp                0.00:  Torque Abs Avg 
 TQAN.f-kp                0.00:  Torque Abs Min 
 TQAX.f-kp                0.00:  Torque Abs Max 
 TRRT.°/30m               0.70:  Turn Rotating 
 MRT .                    HCIM:  Maximum Recorded Temperature 
 TTMX.degC               70.59:  Max Tool Temp 
 VS01.             90598770F11:  Virtual Str1 SN 
 VS02.             90598769F11:  Virtual Str2 SN 
 VS03.            90515978Z1W1:  Virtual Str3 SN 
 VS04.          90584144R12X14:  Virtual Str4 SN 
 WBMN.klb                 0.00:  WOB Min 
 WITN.            Peter Wilson:  Customer Rep 
 WOBA.klb                 0.00:  WOB Avg 
 WOBX.klb                 0.00:  WOB Max 
 YP  .lhf2               29.00:  Yield Point 
~Curve Information Block
#MNEM.UNIT                 API CODE     Curve Description
#---------               -----------    ---------------------------
 TIME.HHMMSS            00 000 000 000:  GT Time & Date
 GTDEPTH.m              00 000 000 000:  GT Depth
 GTPQH.psia             00 000 000 000:  GT HR Quartz Pressure
 GTTQ.degC              00 000 000 000:  GT Quartz Temperature
 GTTN.NONE              00 000 000 000:  GT Test Number
 GTET.sec               00 000 000 000:  GT Elapsed Test Time
 GTTVD.m                00 000 000 000:  GT True Vertical Depth
#Other Information
#
#WARRANTY: Halliburton will use its best efforts to furnish customers with 
#accurate information and interpretations that are part of, and incident to, the services 
#provided.  However, Halliburton cannot and does not warrant the accuracy 
#or correctness of such information and interpretations.  Under no circumstances should any 
#such information or interpretation be relied upon as the sole basis for any drilling, 
#completion, production, or financial decision or any procedure involving any risk to the 
#safety of any drilling venture, drilling rig or its crew or any other third party.  The 
#Customer has full responsibility for all drilling, completion and production operation.  
#Halliburton makes no representations or warranties, either expressed or 
#implied, including, but not limited to, the implied warranties of merchantability or fitness 
#for a particular purpose, with respect to the services rendered.  In no event will 
#Halliburton be liable for failure to obtain any particular results or for 
#any damages, including, but not limited to, indirect, special or consequential damages, 
#resulting from the use of any information or interpretation provided by Halliburton.
#
~A           TIME           GTDEPTH  GTPQH  GTTQ  GTTN  GTET   GTTVD  
# ...
   02:55:45.843.03-Feb-2020 4022.51 3157.06 64.27 1.00 322.07 3030.18
   02:55:46.043.03-Feb-2020 4022.51 3157.06 64.27 1.00 322.27 3030.18
   02:55:46.243.03-Feb-2020 4022.51 3156.93 64.27 1.00 322.47 3030.18
   02:55:46.443.03-Feb-2020 4022.51 3156.93 64.27 1.00 322.67 3030.18
   02:55:46.643.03-Feb-2020 4022.51 3156.51 64.27 1.00 322.87 3030.18
   02:55:46.843.03-Feb-2020 4022.51 3157.25 64.27 1.00 323.07 3030.18
   02:55:47.043.03-Feb-2020 4022.51 3157.25 64.27 1.00 323.27 3030.18
   02:55:47.243.03-Feb-2020 4022.51 3157.19 64.27 1.00 323.47 3030.18
   02:55:47.443.03-Feb-2020 4022.51 3156.99 64.27 1.00 323.67 3030.18
   02:55:47.643.03-Feb-2020 4022.51 3157.07 64.27 1.00 323.87 3030.18
   02:55:47.843.03-Feb-2020 4022.51 3157.03 64.27 1.00 324.07 3030.18
   02:55:48.043.03-Feb-2020 4022.51 3157.03 64.27 1.00 324.27 3030.18
   02:55:48.243.03-Feb-2020 4022.51 3157.11 64.27 1.00 324.47 3030.18
   02:55:48.443.03-Feb-2020 4022.51 3157.14 64.27 1.00 324.67 3030.18
   02:55:48.643.03-Feb-2020 4022.51 3157.05 64.27 1.00 324.87 3030.18
   02:55:48.843.03-Feb-2020 4022.51 3157.11 64.27 1.00 325.07 3030.18
   02:55:49.043.03-Feb-2020 4022.51 3157.11 64.27 1.00 325.27 3030.18
   02:55:49.243.03-Feb-2020 4022.51 3157.07 64.27 1.00 325.47 3030.18
   02:55:49.443.03-Feb-2020 4022.51 3157.04 64.27 1.00 325.67 3030.18
   02:55:49.643.03-Feb-2020 4022.51 3157.19 64.27 1.00 325.87 3030.18
   02:55:49.843.03-Feb-2020 4022.51 3157.11 64.27 1.00 326.07 3030.18
   02:55:50.043.03-Feb-2020 4022.51 3157.11 64.27 1.00 326.27 3030.18
   02:55:50.243.03-Feb-2020 4022.51 3157.32 64.27 1.00 326.47 3030.18
   02:55:50.443.03-Feb-2020 4022.51 3157.15 64.27 1.00 326.67 3030.18
   02:55:50.644.03-Feb-2020 4022.51 3157.32 64.27 1.00 326.87 3030.18
   02:55:50.844.03-Feb-2020 4022.51 3157.21 64.27 1.00 327.07 3030.18
   02:55:51.044.03-Feb-2020 4022.51 3157.21 64.27 1.00 327.27 3030.18
   02:55:51.244.03-Feb-2020 4022.51 3157.32 64.27 1.00 327.47 3030.18
   02:55:51.444.03-Feb-2020 4022.51 3157.22 64.27 1.00 327.67 3030.18
   02:55:51.644.03-Feb-2020 4022.51 3157.23 64.27 1.00 327.87 3030.18
   02:55:51.844.03-Feb-2020 4022.51 3157.27 64.27 1.00 328.07 3030.18
   02:55:52.044.03-Feb-2020 4022.51 3157.27 64.27 1.00 328.27 3030.18
   02:55:52.244.03-Feb-2020 4022.51 3157.27 64.27 1.00 328.47 3030.18
   02:55:52.444.03-Feb-2020 4022.51 3156.92 64.27 1.00 328.67 3030.18
   02:55:52.644.03-Feb-2020 4022.51 3157.56 64.27 1.00 328.87 3030.18
   02:55:52.844.03-Feb-2020 4022.51 3157.14 64.27 1.00 329.07 3030.18
   02:55:53.044.03-Feb-2020 4022.51 3157.14 64.27 1.00 329.27 3030.18
   02:55:53.244.03-Feb-2020 4022.51 3156.89 64.27 1.00 329.47 3030.18
   02:55:53.444.03-Feb-2020 4022.51 3157.72 64.27 1.00 329.67 3030.18
   02:55:53.644.03-Feb-2020 4022.51 3157.26 64.27 1.00 329.87 3030.18
   02:55:53.844.03-Feb-2020 4022.51 3157.57 64.27 1.00 330.07 3030.18
   02:55:54.044.03-Feb-2020 4022.51 3157.57 64.27 1.00 330.27 3030.18
   02:55:54.244.03-Feb-2020 4022.51 3157.47 64.27 1.00 330.47 3030.18
   02:55:54.444.03-Feb-2020 4022.51 3157.36 64.27 1.00 330.67 3030.18
   02:55:54.644.03-Feb-2020 4022.51 3157.47 64.27 1.00 330.87 3030.18
   02:55:54.844.03-Feb-2020 4022.51 3157.06 64.27 1.00 331.07 3030.18
   02:55:55.044.03-Feb-2020 4022.51 3157.06 64.27 1.00 331.27 3030.18
   02:55:55.244.03-Feb-2020 4022.51 3157.45 64.27 1.00 331.47 3030.18
   02:55:55.445.03-Feb-2020 4022.51 3157.67 64.27 1.00 331.67 3030.18
   02:55:55.645.03-Feb-2020 4022.51 3157.51 64.27 1.00 331.87 3030.18
   02:55:55.845.03-Feb-2020 4022.51 3157.54 64.27 1.00 332.07 3030.18
   02:55:56.045.03-Feb-2020 4022.51 3157.54 64.27 1.00 332.27 3030.18
   02:55:56.245.03-Feb-2020 4022.51 3157.44 64.27 1.00 332.47 3030.18
   02:55:56.445.03-Feb-2020 4022.51 3157.49 64.27 1.00 332.67 3030.18
   02:55:56.645.03-Feb-2020 4022.51 3157.40 64.26 1.00 332.87 3030.18
   02:55:56.845.03-Feb-2020 4022.51 3157.60 64.26 1.00 333.07 3030.18
   02:55:57.045.03-Feb-2020 4022.51 3157.60 64.26 1.00 333.27 3030.18
   02:55:57.245.03-Feb-2020 4022.51 3157.55 64.26 1.00 333.47 3030.18
   02:55:57.445.03-Feb-2020 4022.51 3157.51 64.26 1.00 333.67 3030.18
   02:55:57.645.03-Feb-2020 4022.51 3157.59 64.26 1.00 333.87 3030.18
   02:55:57.845.03-Feb-2020 4022.51 3157.61 64.26 1.00 334.07 3030.18
   02:55:58.045.03-Feb-2020 4022.51 3157.61 64.26 1.00 334.27 3030.18
   02:55:58.245.03-Feb-2020 4022.51 3157.61 64.26 1.00 334.47 3030.18
   02:55:58.445.03-Feb-2020 4022.51 3157.54 64.26 1.00 334.67 3030.18
   02:55:58.645.03-Feb-2020 4022.51 3157.61 64.26 1.00 334.87 3030.18
   02:55:58.845.03-Feb-2020 4022.51 3157.61 64.26 1.00 335.07 3030.18
   02:55:59.045.03-Feb-2020 4022.51 3157.61 64.26 1.00 335.27 3030.18
   02:55:59.245.03-Feb-2020 4022.51 3157.61 64.26 1.00 335.47 3030.18
   02:55:59.445.03-Feb-2020 4022.51 3157.65 64.26 1.00 335.67 3030.18
   02:55:59.645.03-Feb-2020 4022.51 3156.97 64.26 1.00 335.87 3030.18
   02:55:59.845.03-Feb-2020 4022.51 3158.06 64.26 1.00 336.07 3030.18
   02:56:00.046.03-Feb-2020 4022.51 3158.06 64.26 1.00 336.27 3030.18
   02:56:00.246.03-Feb-2020 4022.51 3157.76 64.26 1.00 336.47 3030.18
   02:56:00.446.03-Feb-2020 4022.51 3157.68 64.26 1.00 336.67 3030.18
   02:56:00.646.03-Feb-2020 4022.51 3157.69 64.26 1.00 336.87 3030.18
   02:56:00.846.03-Feb-2020 4022.51 3157.66 64.26 1.00 337.07 3030.18
   02:56:01.046.03-Feb-2020 4022.51 3157.66 64.26 1.00 337.27 3030.18
   02:56:01.246.03-Feb-2020 4022.51 3157.68 64.26 1.00 337.47 3030.18
   02:56:01.446.03-Feb-2020 4022.51 3157.62 64.26 1.00 337.67 3030.18
   02:56:01.646.03-Feb-2020 4022.51 3157.71 64.26 1.00 337.87 3030.18
   02:56:01.846.03-Feb-2020 4022.51 3157.72 64.26 1.00 338.07 3030.18
   02:56:02.046.03-Feb-2020 4022.51 3157.72 64.26 1.00 338.27 3030.18
   02:56:02.246.03-Feb-2020 4022.51 3157.63 64.26 1.00 338.47 3030.18
   02:56:02.446.03-Feb-2020 4022.51 3157.51 64.26 1.00 338.67 3030.18
   02:56:02.646.03-Feb-2020 4022.51 3157.89 64.26 1.00 338.87 3030.18
   02:56:02.846.03-Feb-2020 4022.51 3157.63 64.26 1.00 339.07 3030.18
   02:56:03.046.03-Feb-2020 4022.51 3157.63 64.26 1.00 339.27 3030.18
   02:56:03.246.03-Feb-2020 4022.51 3157.66 64.26 1.00 339.47 3030.18
   02:56:03.446.03-Feb-2020 4022.51 3157.94 64.26 1.00 339.67 3030.18
   02:56:03.646.03-Feb-2020 4022.51 3157.79 64.26 1.00 339.87 3030.18
   02:56:03.846.03-Feb-2020 4022.51 3157.78 64.26 1.00 340.07 3030.18
   02:56:04.046.03-Feb-2020 4022.51 3157.78 64.26 1.00 340.27 3030.18
   02:56:04.246.03-Feb-2020 4022.51 3157.74 64.26 1.00 340.47 3030.18
   02:56:04.446.03-Feb-2020 4022.51 3157.35 64.26 1.00 340.67 3030.18
   02:56:04.646.03-Feb-2020 4022.51 3158.15 64.26 1.00 340.87 3030.18
   02:56:04.847.03-Feb-2020 4022.51 3157.53 64.26 1.00 341.07 3030.18
   02:56:05.047.03-Feb-2020 4022.51 3157.53 64.26 1.00 341.27 3030.18
   02:56:05.247.03-Feb-2020 4022.51 3157.84 64.26 1.00 341.47 3030.18
   02:56:05.447.03-Feb-2020 4022.51 3157.87 64.26 1.00 341.67 3030.18
   02:56:05.647.03-Feb-2020 4022.51 3157.77 64.26 1.00 341.87 3030.18
   02:56:05.847.03-Feb-2020 4022.51 3157.77 64.26 1.00 342.07 3030.18
   02:56:06.047.03-Feb-2020 4022.51 3157.77 64.26 1.00 342.27 3030.18
   02:56:06.247.03-Feb-2020 4022.51 3157.75 64.26 1.00 342.47 3030.18
   02:56:06.447.03-Feb-2020 4022.51 3157.90 64.26 1.00 342.67 3030.18
   02:56:06.647.03-Feb-2020 4022.51 3157.85 64.26 1.00 342.87 3030.18
   02:56:06.847.03-Feb-2020 4022.51 3157.91 64.26 1.00 343.07 3030.18
   02:56:07.047.03-Feb-2020 4022.51 3157.91 64.26 1.00 343.27 3030.18
   02:56:07.247.03-Feb-2020 4022.51 3157.77 64.25 1.00 343.47 3030.18
   02:56:07.447.03-Feb-2020 4022.51 3157.95 64.26 1.00 343.67 3030.18
   02:56:07.647.03-Feb-2020 4022.51 3157.88 64.25 1.00 343.87 3030.18
   02:56:07.847.03-Feb-2020 4022.51 3157.86 64.25 1.00 344.07 3030.18
   02:56:08.047.03-Feb-2020 4022.51 3157.86 64.25 1.00 344.27 3030.18
   02:56:08.247.03-Feb-2020 4022.51 3157.82 64.25 1.00 344.47 3030.18
   02:56:08.447.03-Feb-2020 4022.51 3157.84 64.25 1.00 344.67 3030.18
   02:56:08.647.03-Feb-2020 4022.51 3157.84 64.25 1.00 344.87 3030.18
