~Version Information
 VERS.                  2.0:   CWLS log ASCII Standard -VERSION 2.0
 WRAP.                   NO:   One line per depth step
~Well Information Block
#MNEM.UNIT     VALUE/NAME     DESCRIPTION
#---------     -----------    ---------------------------
 STRT.S             06:17:54 03-Feb-20: START TIME 06:17:54 03-Feb-20
 STOP.S             06:25:43 03-Feb-20: STOP TIME  06:25:43 03-Feb-20
 STEP.S                   0.00: STEP TIME
 NULL.                 -999.25: NULL VALUE
 DFWT.                        :  DIST FWL TEXT
 DFST.                        :  DIST FSL TEXT
 DMF .             Drill Floor:  DRILL MEAS FROM
 STIM.      09.30.00 26-Dec-19:  START TIME
 DATE.      08.00.00 20-Jan-20:  END TIME
 SPUD.               23-Nov-19:  SPUD DATE
 NREF.                    Grid:  NORTH REFERENCE
 HPTY.       Minimum Curvature:  HOLE POS TYPE
 DMOD.             Drill Model:  DRILL MOD DESC
 SVYD.                  Survey:  SURVEY DESC
 ILTD.               Lithology:  INTERP LTH DESC
 FTOP.          Formation Tops:  FORM TOPS DESC
 SON .        AZ-XX-0906192647:  JOB NUMBER
 WTYP.                Deviated:  WELL TYPE
 COMP.     BP Exploration (Caspian Sea) Ltd:  COMPANY
 BASE.              Azerbaijan:  LOGGING EQUIPMENT BASE LOCATION
 REGN.                 Eurasia:  REGION
 FLD .                     ACG:  FIELD NAME
 SRVC.              KCA Deutag:  CONTRACTOR
 MWDS.                    Baku:  MWD SHOP
 WELL.     A10 (Slot 20) - SCP:  WELL NAME
 JOBN.        AZ-XX-0906192647:  JOB TICKET NUMB
 RIG .                 Chirag1:  RIG NAME
 DCON.     Halliburton Sperry Drilling:  DIRECTNL CONTR
 UNIT.                     N/A:  LOGGING EQUIPMENT ID
 PDAT.          Mean Sea Level:  PERMANENT DATUM
 MDS .        Operator Entered:  MAG DATA SOURCE
 CTRY.              Azerbaijan:  COUNTRY NAME
 UWI .            /AZE00000090:  UNIQUE WELL IDENTIFIER
 API .            /AZE00000090:  API NUMBER
 CNTY.                        :  COUNTY
 PROV.                        :  PROVINCE
 STAT.                        :  STATE
 LOC .                        :  LOCATION
 LMF .             Drill Floor:  LOG MEASURED FROM
 TVDS.m                  36.60:  TVDSS CORRECTN
 LATI.deg                40.08:  LATITUDE
 LONG.deg                51.24:  LONGITUDE
 WHNS.m                  -7.94:  WELL HEAD N/S
 WHEW.m                   1.56:  WELL HEAD E/W
 UTMX.m              520429.26:  UTM X
 UTMY.m             4438973.87:  UTM Y
 DFWL.m                   0.00:  DISTANCE FWL
 DFSL.m                   0.00:  DISTANCE FSL
 SDEP.m                1455.00:  START DEPTH
 TDD .m                4047.51:  TOTAL DEPTH (DRILLER)
 VSDR.deg               112.75:  VERT SEC DIRECT
 GVFD.g                   1.00:  GRAVITY FIELD
 MFLD.nT              50261.00:  MAGNETIC FIELD
 MDIP.deg                59.52:  MAGNETIC DIP
 MDEC.deg                 6.42:  MAGNETIC DECL
 GRDC.deg                 0.17:  GRID CORRECTION
 AZTC.deg                 6.25:  AZM TOTAL CORR
 EPD .m                   0.00:  ELEVATION
 EGL .m                   0.00:  GROUND ELEVATION
 WDMS.m                 121.00:  WD ELEV
 APD .m                  36.60:  DEPTH ABOVE PD
 AGAP.m                  36.60:  AIR GAP
 VSEW.m                   1.56:  VERT SEC E/W
 VSNS.m                  -7.94:  VERT SEC N/S
 DEP .m                1140.01:  DEPTH
 EKB .m                  36.60:  KB ELEVATION
 EDF .m                  36.60:  DF ELEVATION
 VSC .                       0:  VS TO CLOSURE
 MAGU.                 1849206:  MAGUTM CHECKSUM
~Parameter Information Block
#MNEM.UNIT       Value        Description
#---------     -----------    ---------------------------
 AV  .mps                 1.70:  Ann Velocity 
 AVMX.mps                 2.30:  Max Ann Veloc 
 AZIF.deg               137.03:  Azm, Final 
 BHAT.                   Other:  BHA Type 
 BROT.°/30m               0.80:  Build Rotating 
 BS  .in                  8.00:  Bit Size 
 BTPL.psig              161.00:  Bit Press Loss 
 CABU.                      No:  Customer Abuse 
 COMM.                     4•z:  Run Comments 1 
 TCS .hr                  9.59:  Time Ciculation Ended 
 CV  .mps                 3.76:  Crit Velocity 
 CVMX.mps                 4.26:  Max Crit Veloc 
 DD1 .         Intigam Rahimov:  Direct Drillr 1 
 DD2 .          Rashad Gojayev:  Direct Drillr 2 
 DDSV.                   Other:  DD Service 
 DEFF.%                 100.00:  % Det Eff 
 DLRX.°/30m               1.44:  Dogleg Rot Max 
 DLSO.°/30m               0.00:  Dogleg Oriented 
 DLSX.°/30m               0.00:  Dogleg Str Max 
 DRET.      03.31.12 02-Feb-20:  Drill End Time 
 DRST.      03.31.12 02-Feb-20:  Drill Start Tim 
 DTIM.hr                  1.99:  Time Drilling 
 EDEP.m                4047.51:  End Depth 
 ENG1.           Eldar Hajiyev:  Engineer 1 
 ENG2.          Rasim Hashimov:  Engineer 2 
 ENG3.          Rustam Safarov:  Engineer 3 
 ETIM.      03.31.12 02-Feb-20:  End Time 
 FLOI.gpm               300.00:  Flow In 
 FLON.gpm               250.00:  Flow In Min 
 FLOS.cptm                0.00:  Fluid Loss 
 FLOX.gpm               330.00:  Flow In Max 
 HFLO.                      No:  High Flow 
 HPRE.                      No:  High Pressure 
 HTEM.                      No:  High Temp 
 HYDO.m                   2.50:  Hydro Offset 
 IFIN.deg                39.54:  Inc, Final 
 IMAX.deg                41.14:  Inc Max 
 IMIN.deg                39.81:  Inc Min 
 IMND.m                4005.21:  Inc Min Depth 
 IMXD.m                3948.42:  Inc Max Depth 
 JARR.                      No:  Jarring 
 LETM.      03.31.12 02-Feb-20:  Log End Time 
 LOST.hr                     0:  Lost Rig Time 
 LSTM.      03.31.12 02-Feb-20:  Log Start Time 
 MDCL.ppm             35000.00:  Mud Chlorides 
 MDES.     Inversion Oil/Synthetic:  Mud Desc 
 DFD .sg                  1.32:  Mud Density 
 MDMN.sg                  1.32:  Dens Mud Min 
 MDMX.sg                  1.32:  Dens Mud Max 
 MOIL.                      59:  Run Mud Oil % 
 MOWR.                   71:29:  Run Mud OWR 
 MSND.                       0:  Run Mud Sand % 
 MSOL.                      17:  Run Mud Solids% 
 DFV .spqt               86.00:  Mud Viscosity 
 MWOD.in                  4.75:  MWD Tool OD 
 MWSI.                      No:  Serv Intrp, MWD 
 OTIM.hr                 46.72:  Time Operating 
 PCON.           Look Like New:  Pad Condition 
 PMAX.psia             3300.00:  Press Op, Max 
 PV  .cP                 30.00:  Mud PV 
 RUN .                     400:  Run Number 
 ROPA.m/hr               35.00:  ROP Avg 
 ROPN.m/hr               25.00:  ROP Min 
 ROPX.m/hr               40.00:  ROP Max 
 RPMA.rpm                80.00:  RPM Surface Avg 
 RPMN.rpm                60.00:  RPM Surface Min 
 RPMX.rpm               100.00:  RPM Surface Max 
 RRUN.                     400:  Rig Run Number 
 RTIM.hr                  1.99:  Time Reaming 
 SAZI.deg               133.93:  Azm, Start 
 SDEP.m                4047.51:  Start Depth 
 SIDD.                      No:  Serv Intrp, DD 
 SINC.deg                40.28:  Inc, Start 
 SPPA.psig             3250.00:  SPP Avg 
 SPPN.psig             3200.00:  SPP Min 
 SPPX.psig             3300.00:  SPP Max 
 STIM.      03.31.12 02-Feb-20:  Start Time 
 SVCS.                 DD, MWD:  Services 
 SVER.                    9.20:  Sperry Version 
 TDAT.m                  47.00:  Tot Depth Attmp 
 TDDF.                      No:  Trip for DD 
 TFF .                      No:  Trip for Fail 
 TQAA.f-kp                0.00:  Torque Abs Avg 
 TQAN.f-kp                0.00:  Torque Abs Min 
 TQAX.f-kp                0.00:  Torque Abs Max 
 TRRT.°/30m               0.70:  Turn Rotating 
 MRT .                    HCIM:  Maximum Recorded Temperature 
 TTMX.degC               70.59:  Max Tool Temp 
 VS01.             90598770F11:  Virtual Str1 SN 
 VS02.             90598769F11:  Virtual Str2 SN 
 VS03.            90515978Z1W1:  Virtual Str3 SN 
 VS04.          90584144R12X14:  Virtual Str4 SN 
 WBMN.klb                 0.00:  WOB Min 
 WITN.            Peter Wilson:  Customer Rep 
 WOBA.klb                 0.00:  WOB Avg 
 WOBX.klb                 0.00:  WOB Max 
 YP  .lhf2               29.00:  Yield Point 
~Curve Information Block
#MNEM.UNIT                 API CODE     Curve Description
#---------               -----------    ---------------------------
 TIME.HHMMSS            00 000 000 000:  GT Time & Date
 GTDEPTH.m              00 000 000 000:  GT Depth
 GTPQH.psia             00 000 000 000:  GT HR Quartz Pressure
 GTTQ.degC              00 000 000 000:  GT Quartz Temperature
 GTTN.NONE              00 000 000 000:  GT Test Number
 GTET.sec               00 000 000 000:  GT Elapsed Test Time
 GTTVD.m                00 000 000 000:  GT True Vertical Depth
#Other Information
#
#WARRANTY: Halliburton will use its best efforts to furnish customers with 
#accurate information and interpretations that are part of, and incident to, the services 
#provided.  However, Halliburton cannot and does not warrant the accuracy 
#or correctness of such information and interpretations.  Under no circumstances should any 
#such information or interpretation be relied upon as the sole basis for any drilling, 
#completion, production, or financial decision or any procedure involving any risk to the 
#safety of any drilling venture, drilling rig or its crew or any other third party.  The 
#Customer has full responsibility for all drilling, completion and production operation.  
#Halliburton makes no representations or warranties, either expressed or 
#implied, including, but not limited to, the implied warranties of merchantability or fitness 
#for a particular purpose, with respect to the services rendered.  In no event will 
#Halliburton be liable for failure to obtain any particular results or for 
#any damages, including, but not limited to, indirect, special or consequential damages, 
#resulting from the use of any information or interpretation provided by Halliburton.
#
~A           TIME           GTDEPTH  GTPQH  GTTQ  GTTN  GTET   GTTVD  
# ...
   06:19:49.000.03-Feb-2020 4005.51  341.85 65.04 7.00 115.00 3017.14
   06:19:49.200.03-Feb-2020 4005.51  341.85 65.04 7.00 115.20 3017.14
   06:19:49.400.03-Feb-2020 4005.51  342.03 65.04 7.00 115.40 3017.14
   06:19:49.600.03-Feb-2020 4005.51  342.12 65.04 7.00 115.60 3017.14
   06:19:49.800.03-Feb-2020 4005.51  342.21 65.04 7.00 115.80 3017.14
   06:19:50.000.03-Feb-2020 4005.51  342.30 65.04 7.00 116.00 3017.14
   06:19:50.200.03-Feb-2020 4005.51  342.30 65.04 7.00 116.20 3017.14
   06:19:50.400.03-Feb-2020 4005.51  342.49 65.04 7.00 116.40 3017.14
   06:19:50.600.03-Feb-2020 4005.51  342.56 65.04 7.00 116.60 3017.14
   06:19:50.800.03-Feb-2020 4005.51  342.66 65.04 7.00 116.80 3017.14
   06:19:51.000.03-Feb-2020 4005.51  342.74 65.04 7.00 117.00 3017.14
   06:19:51.200.03-Feb-2020 4005.51  342.74 65.04 7.00 117.20 3017.14
   06:19:51.400.03-Feb-2020 4005.51  342.90 65.04 7.00 117.40 3017.14
   06:19:51.600.03-Feb-2020 4005.51  343.00 65.04 7.00 117.60 3017.14
   06:19:51.800.03-Feb-2020 4005.51  343.09 65.04 7.00 117.80 3017.14
   06:19:52.000.03-Feb-2020 4005.51  343.17 65.04 7.00 118.00 3017.14
   06:19:52.200.03-Feb-2020 4005.51  343.26 65.04 7.00 118.20 3017.14
   06:19:52.400.03-Feb-2020 4005.51  343.34 65.04 7.00 118.40 3017.14
   06:19:52.600.03-Feb-2020 4005.51  343.42 65.04 7.00 118.60 3017.14
   06:19:52.800.03-Feb-2020 4005.51  343.52 65.04 7.00 118.80 3017.14
   06:19:53.000.03-Feb-2020 4005.51  343.60 65.04 7.00 119.00 3017.14
   06:19:53.200.03-Feb-2020 4005.51  343.60 65.04 7.00 119.20 3017.14
   06:19:53.400.03-Feb-2020 4005.51  343.76 65.04 7.00 119.40 3017.14
   06:19:53.600.03-Feb-2020 4005.51  343.87 65.04 7.00 119.60 3017.14
   06:19:53.800.03-Feb-2020 4005.51  343.94 65.04 7.00 119.80 3017.14
   06:19:54.000.03-Feb-2020 4005.51  344.04 65.04 7.00 120.00 3017.14
   06:19:54.200.03-Feb-2020 4005.51  344.12 65.04 7.00 120.20 3017.14
   06:19:54.400.03-Feb-2020 4005.51  344.21 65.04 7.00 120.40 3017.14
   06:19:54.600.03-Feb-2020 4005.51  344.29 65.04 7.00 120.60 3017.14
   06:19:54.800.03-Feb-2020 4005.51  344.37 65.04 7.00 120.80 3017.14
   06:19:55.000.03-Feb-2020 4005.51  344.46 65.04 7.00 121.00 3017.14
   06:19:55.200.03-Feb-2020 4005.51  344.46 65.04 7.00 121.20 3017.14
   06:19:55.400.03-Feb-2020 4005.51  344.61 65.04 7.00 121.40 3017.14
   06:19:55.600.03-Feb-2020 4005.51  344.71 65.04 7.00 121.60 3017.14
   06:19:55.800.03-Feb-2020 4005.51  344.78 65.04 7.00 121.80 3017.14
   06:19:56.000.03-Feb-2020 4005.51  344.88 65.04 7.00 122.00 3017.14
   06:19:56.200.03-Feb-2020 4005.51  344.88 65.04 7.00 122.20 3017.14
   06:19:56.400.03-Feb-2020 4005.51  345.04 65.04 7.00 122.40 3017.14
   06:19:56.600.03-Feb-2020 4005.51  345.12 65.04 7.00 122.60 3017.14
   06:19:56.800.03-Feb-2020 4005.51  345.20 65.04 7.00 122.80 3017.14
   06:19:57.000.03-Feb-2020 4005.51  345.28 65.04 7.00 123.00 3017.14
   06:19:57.200.03-Feb-2020 4005.51  345.28 65.04 7.00 123.20 3017.14
   06:19:57.400.03-Feb-2020 4005.51  345.44 65.04 7.00 123.40 3017.14
   06:19:57.600.03-Feb-2020 4005.51  345.51 65.04 7.00 123.60 3017.14
   06:19:57.800.03-Feb-2020 4005.51  345.59 65.04 7.00 123.80 3017.14
   06:19:58.000.03-Feb-2020 4005.51  345.68 65.04 7.00 124.00 3017.14
   06:19:58.200.03-Feb-2020 4005.51  345.68 65.04 7.00 124.20 3017.14
   06:19:58.400.03-Feb-2020 4005.51  345.83 65.04 7.00 124.40 3017.14
   06:19:58.600.03-Feb-2020 4005.51  345.91 65.04 7.00 124.60 3017.14
   06:19:58.800.03-Feb-2020 4005.51  345.99 65.04 7.00 124.80 3017.14
   06:19:59.000.03-Feb-2020 4005.51  346.07 65.04 7.00 125.00 3017.14
   06:19:59.200.03-Feb-2020 4005.51  346.07 65.04 7.00 125.20 3017.14
   06:19:59.400.03-Feb-2020 4005.51  346.22 65.04 7.00 125.40 3017.14
   06:19:59.600.03-Feb-2020 4005.51  346.31 65.04 7.00 125.60 3017.14
   06:19:59.800.03-Feb-2020 4005.51  346.38 65.04 7.00 125.80 3017.14
   06:20:00.000.03-Feb-2020 4005.51  346.45 65.04 7.00 126.00 3017.14
   06:20:00.200.03-Feb-2020 4005.51  346.45 65.04 7.00 126.20 3017.14
   06:20:00.400.03-Feb-2020 4005.51  346.61 65.04 7.00 126.40 3017.14
   06:20:00.600.03-Feb-2020 4005.51  346.68 65.04 7.00 126.60 3017.14
   06:20:00.800.03-Feb-2020 4005.51  346.76 65.04 7.00 126.80 3017.14
   06:20:01.000.03-Feb-2020 4005.51  346.84 65.04 7.00 127.00 3017.14
   06:20:01.200.03-Feb-2020 4005.51  346.84 65.04 7.00 127.20 3017.14
   06:20:01.400.03-Feb-2020 4005.51  346.99 65.04 7.00 127.40 3017.14
   06:20:01.600.03-Feb-2020 4005.51  347.07 65.04 7.00 127.60 3017.14
   06:20:01.800.03-Feb-2020 4005.51  347.14 65.04 7.00 127.80 3017.14
   06:20:02.000.03-Feb-2020 4005.51  347.22 65.04 7.00 128.00 3017.14
   06:20:02.200.03-Feb-2020 4005.51  347.22 65.04 7.00 128.20 3017.14
   06:20:02.400.03-Feb-2020 4005.51  347.37 65.04 7.00 128.40 3017.14
   06:20:02.600.03-Feb-2020 4005.51  347.46 65.04 7.00 128.60 3017.14
   06:20:02.800.03-Feb-2020 4005.51  347.51 65.04 7.00 128.80 3017.14
   06:20:03.000.03-Feb-2020 4005.51  347.60 65.04 7.00 129.00 3017.14
   06:20:03.200.03-Feb-2020 4005.51  347.60 65.04 7.00 129.20 3017.14
   06:20:03.400.03-Feb-2020 4005.51  347.74 65.04 7.00 129.40 3017.14
   06:20:03.600.03-Feb-2020 4005.51  347.81 65.04 7.00 129.60 3017.14
   06:20:03.800.03-Feb-2020 4005.51  347.89 65.04 7.00 129.80 3017.14
   06:20:04.000.03-Feb-2020 4005.51  347.97 65.04 7.00 130.00 3017.14
   06:20:04.200.03-Feb-2020 4005.51  347.97 65.04 7.00 130.20 3017.14
   06:20:04.400.03-Feb-2020 4005.51  348.12 65.04 7.00 130.40 3017.14
   06:20:04.600.03-Feb-2020 4005.51  348.18 65.04 7.00 130.60 3017.14
   06:20:04.800.03-Feb-2020 4005.51  348.28 65.04 7.00 130.80 3017.14
   06:20:05.000.03-Feb-2020 4005.51  348.33 65.04 7.00 131.00 3017.14
   06:20:05.200.03-Feb-2020 4005.51  348.33 65.04 7.00 131.20 3017.14
   06:20:05.400.03-Feb-2020 4005.51  348.48 65.04 7.00 131.40 3017.14
   06:20:05.600.03-Feb-2020 4005.51  348.56 65.04 7.00 131.60 3017.14
   06:20:05.800.03-Feb-2020 4005.51  348.63 65.04 7.00 131.80 3017.14
   06:20:06.000.03-Feb-2020 4005.51  348.70 65.04 7.00 132.00 3017.14
   06:20:06.200.03-Feb-2020 4005.51  348.70 65.04 7.00 132.20 3017.14
   06:20:06.400.03-Feb-2020 4005.51  348.85 65.03 7.00 132.40 3017.14
   06:20:06.600.03-Feb-2020 4005.51  348.91 65.04 7.00 132.60 3017.14
   06:20:06.800.03-Feb-2020 4005.51  348.99 65.03 7.00 132.80 3017.14
   06:20:07.000.03-Feb-2020 4005.51  349.05 65.03 7.00 133.00 3017.14
   06:20:07.200.03-Feb-2020 4005.51  349.14 65.03 7.00 133.20 3017.14
   06:20:07.400.03-Feb-2020 4005.51  349.20 65.03 7.00 133.40 3017.14
   06:20:07.600.03-Feb-2020 4005.51  349.29 65.03 7.00 133.60 3017.14
   06:20:07.800.03-Feb-2020 4005.51  349.35 65.03 7.00 133.80 3017.14
   06:20:08.000.03-Feb-2020 4005.51  349.43 65.03 7.00 134.00 3017.14
   06:20:08.200.03-Feb-2020 4005.51  349.43 65.03 7.00 134.20 3017.14
   06:20:08.400.03-Feb-2020 4005.51  349.57 65.03 7.00 134.40 3017.14
   06:20:08.600.03-Feb-2020 4005.51  349.64 65.03 7.00 134.60 3017.14
   06:20:08.800.03-Feb-2020 4005.51  349.72 65.03 7.00 134.80 3017.14
   06:20:09.000.03-Feb-2020 4005.51  349.78 65.03 7.00 135.00 3017.14
   06:20:09.200.03-Feb-2020 4005.51  349.78 65.03 7.00 135.20 3017.14
   06:20:09.400.03-Feb-2020 4005.51  349.93 65.03 7.00 135.40 3017.14
   06:20:09.600.03-Feb-2020 4005.51  349.99 65.03 7.00 135.60 3017.14
   06:20:09.800.03-Feb-2020 4005.51  350.06 65.03 7.00 135.80 3017.14
   06:20:10.000.03-Feb-2020 4005.51  350.13 65.03 7.00 136.00 3017.14
   06:20:10.200.03-Feb-2020 4005.51  350.13 65.03 7.00 136.20 3017.14
   06:20:10.400.03-Feb-2020 4005.51  350.27 65.03 7.00 136.40 3017.14
   06:20:10.600.03-Feb-2020 4005.51  350.33 65.03 7.00 136.60 3017.14
   06:20:10.800.03-Feb-2020 4005.51  350.41 65.03 7.00 136.80 3017.14
   06:20:11.000.03-Feb-2020 4005.51  350.49 65.03 7.00 137.00 3017.14
   06:20:11.200.03-Feb-2020 4005.51  350.49 65.03 7.00 137.20 3017.14
   06:20:11.400.03-Feb-2020 4005.51  350.62 65.03 7.00 137.40 3017.14
   06:20:11.600.03-Feb-2020 4005.51  350.69 65.03 7.00 137.60 3017.14
   06:20:11.800.03-Feb-2020 4005.51  350.76 65.03 7.00 137.80 3017.14
