~Version Information
 VERS.                  2.0:   CWLS log ASCII Standard -VERSION 2.0
 WRAP.                   NO:   One line per depth step
~Well Information Block
#MNEM.UNIT     VALUE/NAME     DESCRIPTION
#---------     -----------    ---------------------------
 STRT.S             05:45:18 03-Feb-20: START TIME 05:45:18 03-Feb-20
 STOP.S             05:53:13 03-Feb-20: STOP TIME  05:53:13 03-Feb-20
 STEP.S                   0.00: STEP TIME
 NULL.                 -999.25: NULL VALUE
 DFWT.                        :  DIST FWL TEXT
 DFST.                        :  DIST FSL TEXT
 DMF .             Drill Floor:  DRILL MEAS FROM
 STIM.      09.30.00 26-Dec-19:  START TIME
 DATE.      08.00.00 20-Jan-20:  END TIME
 SPUD.               23-Nov-19:  SPUD DATE
 NREF.                    Grid:  NORTH REFERENCE
 HPTY.       Minimum Curvature:  HOLE POS TYPE
 DMOD.             Drill Model:  DRILL MOD DESC
 SVYD.                  Survey:  SURVEY DESC
 ILTD.               Lithology:  INTERP LTH DESC
 FTOP.          Formation Tops:  FORM TOPS DESC
 SON .        AZ-XX-0906192647:  JOB NUMBER
 WTYP.                Deviated:  WELL TYPE
 COMP.     BP Exploration (Caspian Sea) Ltd:  COMPANY
 BASE.              Azerbaijan:  LOGGING EQUIPMENT BASE LOCATION
 REGN.                 Eurasia:  REGION
 FLD .                     ACG:  FIELD NAME
 SRVC.              KCA Deutag:  CONTRACTOR
 MWDS.                    Baku:  MWD SHOP
 WELL.     A10 (Slot 20) - SCP:  WELL NAME
 JOBN.        AZ-XX-0906192647:  JOB TICKET NUMB
 RIG .                 Chirag1:  RIG NAME
 DCON.     Halliburton Sperry Drilling:  DIRECTNL CONTR
 UNIT.                     N/A:  LOGGING EQUIPMENT ID
 PDAT.          Mean Sea Level:  PERMANENT DATUM
 MDS .        Operator Entered:  MAG DATA SOURCE
 CTRY.              Azerbaijan:  COUNTRY NAME
 UWI .            /AZE00000090:  UNIQUE WELL IDENTIFIER
 API .            /AZE00000090:  API NUMBER
 CNTY.                        :  COUNTY
 PROV.                        :  PROVINCE
 STAT.                        :  STATE
 LOC .                        :  LOCATION
 LMF .             Drill Floor:  LOG MEASURED FROM
 TVDS.m                  36.60:  TVDSS CORRECTN
 LATI.deg                40.08:  LATITUDE
 LONG.deg                51.24:  LONGITUDE
 WHNS.m                  -7.94:  WELL HEAD N/S
 WHEW.m                   1.56:  WELL HEAD E/W
 UTMX.m              520429.26:  UTM X
 UTMY.m             4438973.87:  UTM Y
 DFWL.m                   0.00:  DISTANCE FWL
 DFSL.m                   0.00:  DISTANCE FSL
 SDEP.m                1455.00:  START DEPTH
 TDD .m                4047.51:  TOTAL DEPTH (DRILLER)
 VSDR.deg               112.75:  VERT SEC DIRECT
 GVFD.g                   1.00:  GRAVITY FIELD
 MFLD.nT              50261.00:  MAGNETIC FIELD
 MDIP.deg                59.52:  MAGNETIC DIP
 MDEC.deg                 6.42:  MAGNETIC DECL
 GRDC.deg                 0.17:  GRID CORRECTION
 AZTC.deg                 6.25:  AZM TOTAL CORR
 EPD .m                   0.00:  ELEVATION
 EGL .m                   0.00:  GROUND ELEVATION
 WDMS.m                 121.00:  WD ELEV
 APD .m                  36.60:  DEPTH ABOVE PD
 AGAP.m                  36.60:  AIR GAP
 VSEW.m                   1.56:  VERT SEC E/W
 VSNS.m                  -7.94:  VERT SEC N/S
 DEP .m                1140.01:  DEPTH
 EKB .m                  36.60:  KB ELEVATION
 EDF .m                  36.60:  DF ELEVATION
 VSC .                       0:  VS TO CLOSURE
 MAGU.                 1849206:  MAGUTM CHECKSUM
~Parameter Information Block
#MNEM.UNIT       Value        Description
#---------     -----------    ---------------------------
 AV  .mps                 1.70:  Ann Velocity 
 AVMX.mps                 2.30:  Max Ann Veloc 
 AZIF.deg               137.03:  Azm, Final 
 BHAT.                   Other:  BHA Type 
 BROT.°/30m               0.80:  Build Rotating 
 BS  .in                  8.00:  Bit Size 
 BTPL.psig              161.00:  Bit Press Loss 
 CABU.                      No:  Customer Abuse 
 TCS .hr                  9.59:  Time Ciculation Ended 
 CV  .mps                 3.76:  Crit Velocity 
 CVMX.mps                 4.26:  Max Crit Veloc 
 DD1 .         Intigam Rahimov:  Direct Drillr 1 
 DD2 .          Rashad Gojayev:  Direct Drillr 2 
 DDSV.                   Other:  DD Service 
 DEFF.%                 100.00:  % Det Eff 
 DLRX.°/30m               1.44:  Dogleg Rot Max 
 DLSO.°/30m               0.00:  Dogleg Oriented 
 DLSX.°/30m               0.00:  Dogleg Str Max 
 DRET.      03.31.12 02-Feb-20:  Drill End Time 
 DRST.      03.31.12 02-Feb-20:  Drill Start Tim 
 DTIM.hr                  1.99:  Time Drilling 
 EDEP.m                4047.51:  End Depth 
 ENG1.           Eldar Hajiyev:  Engineer 1 
 ENG2.          Rasim Hashimov:  Engineer 2 
 ENG3.          Rustam Safarov:  Engineer 3 
 ETIM.      03.31.12 02-Feb-20:  End Time 
 FLOI.gpm               300.00:  Flow In 
 FLON.gpm               250.00:  Flow In Min 
 FLOS.cptm                0.00:  Fluid Loss 
 FLOX.gpm               330.00:  Flow In Max 
 HFLO.                      No:  High Flow 
 HPRE.                      No:  High Pressure 
 HTEM.                      No:  High Temp 
 HYDO.m                   2.50:  Hydro Offset 
 IFIN.deg                39.54:  Inc, Final 
 IMAX.deg                41.14:  Inc Max 
 IMIN.deg                39.81:  Inc Min 
 IMND.m                4005.21:  Inc Min Depth 
 IMXD.m                3948.42:  Inc Max Depth 
 JARR.                      No:  Jarring 
 LETM.      03.31.12 02-Feb-20:  Log End Time 
 LOST.hr                     0:  Lost Rig Time 
 LSTM.      03.31.12 02-Feb-20:  Log Start Time 
 MDCL.ppm             35000.00:  Mud Chlorides 
 MDES.     Inversion Oil/Synthetic:  Mud Desc 
 DFD .sg                  1.32:  Mud Density 
 MDMN.sg                  1.32:  Dens Mud Min 
 MDMX.sg                  1.32:  Dens Mud Max 
 MOIL.                      59:  Run Mud Oil % 
 MOWR.                   71:29:  Run Mud OWR 
 MSND.                       0:  Run Mud Sand % 
 MSOL.                      17:  Run Mud Solids% 
 DFV .spqt               86.00:  Mud Viscosity 
 MWOD.in                  4.75:  MWD Tool OD 
 MWSI.                      No:  Serv Intrp, MWD 
 OTIM.hr                 46.72:  Time Operating 
 PCON.           Look Like New:  Pad Condition 
 PMAX.psia             3300.00:  Press Op, Max 
 PV  .cP                 30.00:  Mud PV 
 RUN .                     400:  Run Number 
 ROPA.m/hr               35.00:  ROP Avg 
 ROPN.m/hr               25.00:  ROP Min 
 ROPX.m/hr               40.00:  ROP Max 
 RPMA.rpm                80.00:  RPM Surface Avg 
 RPMN.rpm                60.00:  RPM Surface Min 
 RPMX.rpm               100.00:  RPM Surface Max 
 RRUN.                     400:  Rig Run Number 
 RTIM.hr                  1.99:  Time Reaming 
 SAZI.deg               133.93:  Azm, Start 
 SDEP.m                4047.51:  Start Depth 
 SIDD.                      No:  Serv Intrp, DD 
 SINC.deg                40.28:  Inc, Start 
 SPPA.psig             3250.00:  SPP Avg 
 SPPN.psig             3200.00:  SPP Min 
 SPPX.psig             3300.00:  SPP Max 
 STIM.      03.31.12 02-Feb-20:  Start Time 
 SVCS.                 DD, MWD:  Services 
 SVER.                    9.20:  Sperry Version 
 TDAT.m                  47.00:  Tot Depth Attmp 
 TDDF.                      No:  Trip for DD 
 TFF .                      No:  Trip for Fail 
 TQAA.f-kp                0.00:  Torque Abs Avg 
 TQAN.f-kp                0.00:  Torque Abs Min 
 TQAX.f-kp                0.00:  Torque Abs Max 
 TRRT.°/30m               0.70:  Turn Rotating 
 MRT .                    HCIM:  Maximum Recorded Temperature 
 TTMX.degC               70.59:  Max Tool Temp 
 VS01.             90598770F11:  Virtual Str1 SN 
 VS02.             90598769F11:  Virtual Str2 SN 
 VS03.            90515978Z1W1:  Virtual Str3 SN 
 VS04.          90584144R12X14:  Virtual Str4 SN 
 WBMN.klb                 0.00:  WOB Min 
 WITN.            Peter Wilson:  Customer Rep 
 WOBA.klb                 0.00:  WOB Avg 
 WOBX.klb                 0.00:  WOB Max 
 YP  .lhf2               29.00:  Yield Point 
~Curve Information Block
#MNEM.UNIT                 API CODE     Curve Description
#---------               -----------    ---------------------------
 TIME.HHMMSS            00 000 000 000:  GT Time & Date
 GTDEPTH.m              00 000 000 000:  GT Depth
 GTPQH.psia             00 000 000 000:  GT HR Quartz Pressure
 GTTQ.degC              00 000 000 000:  GT Quartz Temperature
 GTTN.NONE              00 000 000 000:  GT Test Number
 GTET.sec               00 000 000 000:  GT Elapsed Test Time
 GTTVD.m                00 000 000 000:  GT True Vertical Depth
#Other Information
#
#WARRANTY: Halliburton will use its best efforts to furnish customers with 
#accurate information and interpretations that are part of, and incident to, the services 
#provided.  However, Halliburton cannot and does not warrant the accuracy 
#or correctness of such information and interpretations.  Under no circumstances should any 
#such information or interpretation be relied upon as the sole basis for any drilling, 
#completion, production, or financial decision or any procedure involving any risk to the 
#safety of any drilling venture, drilling rig or its crew or any other third party.  The 
#Customer has full responsibility for all drilling, completion and production operation.  
#Halliburton makes no representations or warranties, either expressed or 
#implied, including, but not limited to, the implied warranties of merchantability or fitness 
#for a particular purpose, with respect to the services rendered.  In no event will 
#Halliburton be liable for failure to obtain any particular results or for 
#any damages, including, but not limited to, indirect, special or consequential damages, 
#resulting from the use of any information or interpretation provided by Halliburton.
#
~A           TIME           GTDEPTH  GTPQH  GTTQ  GTTN  GTET   GTTVD  
# ...
   05:50:17.000.03-Feb-2020 4005.21 6047.49 63.90 6.00 299.00 3016.91
   05:50:17.200.03-Feb-2020 4005.21 6047.49 63.90 6.00 299.20 3016.91
   05:50:17.400.03-Feb-2020 4005.21 6049.90 63.90 6.00 299.40 3016.91
   05:50:17.600.03-Feb-2020 4005.21 6043.38 63.90 6.00 299.60 3016.91
   05:50:17.800.03-Feb-2020 4005.21 6049.71 63.90 6.00 299.80 3016.91
   05:50:18.000.03-Feb-2020 4005.21 6048.61 63.90 6.00 300.00 3016.91
   05:50:18.200.03-Feb-2020 4005.21 6048.61 63.90 6.00 300.20 3016.91
   05:50:18.400.03-Feb-2020 4005.21 6053.46 63.90 6.00 300.40 3016.91
   05:50:18.600.03-Feb-2020 4005.21 6052.93 63.90 6.00 300.60 3016.91
   05:50:18.800.03-Feb-2020 4005.21 6052.00 63.90 6.00 300.80 3016.91
   05:50:19.000.03-Feb-2020 4005.21 6042.50 63.90 6.00 301.00 3016.91
   05:50:19.200.03-Feb-2020 4005.21 6042.50 63.90 6.00 301.20 3016.91
   05:50:19.400.03-Feb-2020 4005.21 6046.34 63.90 6.00 301.40 3016.91
   05:50:19.600.03-Feb-2020 4005.21 6052.15 63.90 6.00 301.60 3016.91
   05:50:19.800.03-Feb-2020 4005.21 6052.22 63.90 6.00 301.80 3016.91
   05:50:20.000.03-Feb-2020 4005.21 6051.58 63.90 6.00 302.00 3016.91
   05:50:20.200.03-Feb-2020 4005.21 6051.58 63.90 6.00 302.20 3016.91
   05:50:20.400.03-Feb-2020 4005.21 6051.43 63.90 6.00 302.40 3016.91
   05:50:20.600.03-Feb-2020 4005.21 6053.30 63.90 6.00 302.60 3016.91
   05:50:20.800.03-Feb-2020 4005.21 6053.21 63.90 6.00 302.80 3016.91
   05:50:21.000.03-Feb-2020 4005.21 6053.55 63.90 6.00 303.00 3016.91
   05:50:21.200.03-Feb-2020 4005.21 6053.55 63.90 6.00 303.20 3016.91
   05:50:21.400.03-Feb-2020 4005.21 6052.90 63.90 6.00 303.40 3016.91
   05:50:21.600.03-Feb-2020 4005.21 6052.14 63.90 6.00 303.60 3016.91
   05:50:21.800.03-Feb-2020 4005.21 6051.46 63.90 6.00 303.80 3016.91
   05:50:22.000.03-Feb-2020 4005.21 6053.41 63.90 6.00 304.00 3016.91
   05:50:22.200.03-Feb-2020 4005.21 6053.41 63.90 6.00 304.20 3016.91
   05:50:22.400.03-Feb-2020 4005.21 6052.44 63.90 6.00 304.40 3016.91
   05:50:22.600.03-Feb-2020 4005.21 6046.56 63.90 6.00 304.60 3016.91
   05:50:22.800.03-Feb-2020 4005.21 6047.34 63.90 6.00 304.80 3016.91
   05:50:23.000.03-Feb-2020 4005.21 6046.29 63.90 6.00 305.00 3016.91
   05:50:23.200.03-Feb-2020 4005.21 6046.29 63.90 6.00 305.20 3016.91
   05:50:23.400.03-Feb-2020 4005.21 6047.19 63.90 6.00 305.40 3016.91
   05:50:23.600.03-Feb-2020 4005.21 6047.99 63.90 6.00 305.60 3016.91
   05:50:23.800.03-Feb-2020 4005.21 6049.05 63.90 6.00 305.80 3016.91
   05:50:24.000.03-Feb-2020 4005.21 6048.35 63.90 6.00 306.00 3016.91
   05:50:24.200.03-Feb-2020 4005.21 6048.35 63.90 6.00 306.20 3016.91
   05:50:24.400.03-Feb-2020 4005.21 6047.79 63.90 6.00 306.40 3016.91
   05:50:24.600.03-Feb-2020 4005.21 6048.16 63.90 6.00 306.60 3016.91
   05:50:24.800.03-Feb-2020 4005.21 6047.50 63.90 6.00 306.80 3016.91
   05:50:25.000.03-Feb-2020 4005.21 6038.01 63.90 6.00 307.00 3016.91
   05:50:25.200.03-Feb-2020 4005.21 6038.01 63.90 6.00 307.20 3016.91
   05:50:25.400.03-Feb-2020 4005.21 6046.63 63.90 6.00 307.40 3016.91
   05:50:25.600.03-Feb-2020 4005.21 6048.86 63.90 6.00 307.60 3016.91
   05:50:25.800.03-Feb-2020 4005.21 6048.62 63.90 6.00 307.80 3016.91
   05:50:26.000.03-Feb-2020 4005.21 6050.34 63.90 6.00 308.00 3016.91
   05:50:26.200.03-Feb-2020 4005.21 6050.34 63.90 6.00 308.20 3016.91
   05:50:26.400.03-Feb-2020 4005.21 6038.99 63.90 6.00 308.40 3016.91
   05:50:26.600.03-Feb-2020 4005.21 6048.37 63.90 6.00 308.60 3016.91
   05:50:26.800.03-Feb-2020 4005.21 6043.54 63.90 6.00 308.80 3016.91
   05:50:27.000.03-Feb-2020 4005.21 6047.25 63.90 6.00 309.00 3016.91
   05:50:27.200.03-Feb-2020 4005.21 6047.25 63.90 6.00 309.20 3016.91
   05:50:27.400.03-Feb-2020 4005.21 6046.22 63.90 6.00 309.40 3016.91
   05:50:27.600.03-Feb-2020 4005.21 6042.56 63.90 6.00 309.60 3016.91
   05:50:27.800.03-Feb-2020 4005.21 6047.76 63.90 6.00 309.80 3016.91
   05:50:28.000.03-Feb-2020 4005.21 6049.26 63.90 6.00 310.00 3016.91
   05:50:28.200.03-Feb-2020 4005.21 6049.26 63.90 6.00 310.20 3016.91
   05:50:28.400.03-Feb-2020 4005.21 6049.03 63.90 6.00 310.40 3016.91
   05:50:28.600.03-Feb-2020 4005.21 6047.93 63.90 6.00 310.60 3016.91
   05:50:28.800.03-Feb-2020 4005.21 6038.53 63.90 6.00 310.80 3016.91
   05:50:29.000.03-Feb-2020 4005.21 6045.20 63.90 6.00 311.00 3016.91
   05:50:29.200.03-Feb-2020 4005.21 6045.20 63.90 6.00 311.20 3016.91
   05:50:29.400.03-Feb-2020 4005.21 6048.29 63.90 6.00 311.40 3016.91
   05:50:29.600.03-Feb-2020 4005.21 6047.89 63.90 6.00 311.60 3016.91
   05:50:29.800.03-Feb-2020 4005.21 6047.22 63.90 6.00 311.80 3016.91
   05:50:30.000.03-Feb-2020 4005.21 6046.06 63.90 6.00 312.00 3016.91
   05:50:30.200.03-Feb-2020 4005.21 6046.06 63.90 6.00 312.20 3016.91
   05:50:30.400.03-Feb-2020 4005.21 6048.87 63.90 6.00 312.40 3016.91
   05:50:30.600.03-Feb-2020 4005.21 6048.86 63.90 6.00 312.60 3016.91
   05:50:30.800.03-Feb-2020 4005.21 6049.00 63.90 6.00 312.80 3016.91
   05:50:31.000.03-Feb-2020 4005.21 6047.91 63.90 6.00 313.00 3016.91
   05:50:31.200.03-Feb-2020 4005.21 6047.91 63.90 6.00 313.20 3016.91
   05:50:31.400.03-Feb-2020 4005.21 6046.69 63.90 6.00 313.40 3016.91
   05:50:31.600.03-Feb-2020 4005.21 6046.06 63.90 6.00 313.60 3016.91
   05:50:31.800.03-Feb-2020 4005.21 6047.90 63.90 6.00 313.80 3016.91
   05:50:32.000.03-Feb-2020 4005.21 6037.98 63.90 6.00 314.00 3016.91
   05:50:32.200.03-Feb-2020 4005.21 6037.98 63.90 6.00 314.20 3016.91
   05:50:32.400.03-Feb-2020 4005.21 6042.62 63.90 6.00 314.40 3016.91
   05:50:32.600.03-Feb-2020 4005.21 6046.13 63.90 6.00 314.60 3016.91
   05:50:32.800.03-Feb-2020 4005.21 6046.06 63.90 6.00 314.80 3016.91
   05:50:33.000.03-Feb-2020 4005.21 6050.49 63.90 6.00 315.00 3016.91
   05:50:33.200.03-Feb-2020 4005.21 6050.49 63.90 6.00 315.20 3016.91
   05:50:33.400.03-Feb-2020 4005.21 6051.54 63.90 6.00 315.40 3016.91
   05:50:33.600.03-Feb-2020 4005.21 6052.42 63.90 6.00 315.60 3016.91
   05:50:33.800.03-Feb-2020 4005.21 6051.99 63.90 6.00 315.80 3016.91
   05:50:34.000.03-Feb-2020 4005.21 6051.49 63.90 6.00 316.00 3016.91
   05:50:34.200.03-Feb-2020 4005.21 6051.49 63.90 6.00 316.20 3016.91
   05:50:34.400.03-Feb-2020 4005.21 6052.02 63.90 6.00 316.40 3016.91
   05:50:34.600.03-Feb-2020 4005.21 6051.38 63.90 6.00 316.60 3016.91
   05:50:34.800.03-Feb-2020 4005.21 6042.01 63.90 6.00 316.80 3016.91
   05:50:35.000.03-Feb-2020 4005.21 6051.93 63.90 6.00 317.00 3016.91
   05:50:35.200.03-Feb-2020 4005.21 6051.93 63.90 6.00 317.20 3016.91
   05:50:35.400.03-Feb-2020 4005.21 6053.04 63.90 6.00 317.40 3016.91
   05:50:35.600.03-Feb-2020 4005.21 6052.78 63.90 6.00 317.60 3016.91
   05:50:35.800.03-Feb-2020 4005.21 6054.31 63.90 6.00 317.80 3016.91
   05:50:36.000.03-Feb-2020 4005.21 6053.59 63.90 6.00 318.00 3016.91
   05:50:36.200.03-Feb-2020 4005.21 6053.59 63.90 6.00 318.20 3016.91
   05:50:36.400.03-Feb-2020 4005.21 6051.03 63.90 6.00 318.40 3016.91
   05:50:36.600.03-Feb-2020 4005.21 6048.90 63.90 6.00 318.60 3016.91
   05:50:36.800.03-Feb-2020 4005.21 6051.24 63.90 6.00 318.80 3016.91
   05:50:37.000.03-Feb-2020 4005.21 6041.57 63.90 6.00 319.00 3016.91
   05:50:37.200.03-Feb-2020 4005.21 6041.57 63.90 6.00 319.20 3016.91
   05:50:37.400.03-Feb-2020 4005.21 6047.16 63.90 6.00 319.40 3016.91
   05:50:37.600.03-Feb-2020 4005.21 6051.79 63.90 6.00 319.60 3016.91
   05:50:37.800.03-Feb-2020 4005.21 6053.08 63.90 6.00 319.80 3016.91
   05:50:38.000.03-Feb-2020 4005.21 6053.05 63.90 6.00 320.00 3016.91
   05:50:38.200.03-Feb-2020 4005.21 6053.05 63.90 6.00 320.20 3016.91
   05:50:38.400.03-Feb-2020 4005.21 6045.51 63.90 6.00 320.40 3016.91
   05:50:38.600.03-Feb-2020 4005.21 6047.61 63.90 6.00 320.60 3016.91
   05:50:38.800.03-Feb-2020 4005.21 6048.46 63.90 6.00 320.80 3016.91
   05:50:39.000.03-Feb-2020 4005.21 6049.42 63.90 6.00 321.00 3016.91
   05:50:39.200.03-Feb-2020 4005.21 6049.42 63.90 6.00 321.20 3016.91
   05:50:39.400.03-Feb-2020 4005.21 6051.94 63.90 6.00 321.40 3016.91
   05:50:39.600.03-Feb-2020 4005.21 6051.08 63.90 6.00 321.60 3016.91
   05:50:39.800.03-Feb-2020 4005.21 6050.40 63.90 6.00 321.80 3016.91
