~Version Information
 VERS.                  2.0:   CWLS log ASCII Standard -VERSION 2.0
 WRAP.                   NO:   One line per depth step
~Well Information Block
#MNEM.UNIT     VALUE/NAME     DESCRIPTION
#---------     -----------    ---------------------------
 STRT.S             02:50:23 03-Feb-20: START TIME 02:50:23 03-Feb-20
 STOP.S             02:58:14 03-Feb-20: STOP TIME  02:58:14 03-Feb-20
 STEP.S                   0.00: STEP TIME
 NULL.                 -999.25: NULL VALUE
 DFWT.                        :  DIST FWL TEXT
 DFST.                        :  DIST FSL TEXT
 DMF .             Drill Floor:  DRILL MEAS FROM
 STIM.      09.30.00 26-Dec-19:  START TIME
 DATE.      08.00.00 20-Jan-20:  END TIME
 SPUD.               23-Nov-19:  SPUD DATE
 NREF.                    Grid:  NORTH REFERENCE
 HPTY.       Minimum Curvature:  HOLE POS TYPE
 DMOD.             Drill Model:  DRILL MOD DESC
 SVYD.                  Survey:  SURVEY DESC
 ILTD.               Lithology:  INTERP LTH DESC
 FTOP.          Formation Tops:  FORM TOPS DESC
 SON .        AZ-XX-0906192647:  JOB NUMBER
 WTYP.                Deviated:  WELL TYPE
 COMP.     BP Exploration (Caspian Sea) Ltd:  COMPANY
 BASE.              Azerbaijan:  LOGGING EQUIPMENT BASE LOCATION
 REGN.                 Eurasia:  REGION
 FLD .                     ACG:  FIELD NAME
 SRVC.              KCA Deutag:  CONTRACTOR
 MWDS.                    Baku:  MWD SHOP
 WELL.     A10 (Slot 20) - SCP:  WELL NAME
 JOBN.        AZ-XX-0906192647:  JOB TICKET NUMB
 RIG .                 Chirag1:  RIG NAME
 DCON.     Halliburton Sperry Drilling:  DIRECTNL CONTR
 UNIT.                     N/A:  LOGGING EQUIPMENT ID
 PDAT.          Mean Sea Level:  PERMANENT DATUM
 MDS .        Operator Entered:  MAG DATA SOURCE
 CTRY.              Azerbaijan:  COUNTRY NAME
 UWI .            /AZE00000090:  UNIQUE WELL IDENTIFIER
 API .            /AZE00000090:  API NUMBER
 CNTY.                        :  COUNTY
 PROV.                        :  PROVINCE
 STAT.                        :  STATE
 LOC .                        :  LOCATION
 LMF .             Drill Floor:  LOG MEASURED FROM
 TVDS.m                  36.60:  TVDSS CORRECTN
 LATI.deg                40.08:  LATITUDE
 LONG.deg                51.24:  LONGITUDE
 WHNS.m                  -7.94:  WELL HEAD N/S
 WHEW.m                   1.56:  WELL HEAD E/W
 UTMX.m              520429.26:  UTM X
 UTMY.m             4438973.87:  UTM Y
 DFWL.m                   0.00:  DISTANCE FWL
 DFSL.m                   0.00:  DISTANCE FSL
 SDEP.m                1455.00:  START DEPTH
 TDD .m                4047.51:  TOTAL DEPTH (DRILLER)
 VSDR.deg               112.75:  VERT SEC DIRECT
 GVFD.g                   1.00:  GRAVITY FIELD
 MFLD.nT              50261.00:  MAGNETIC FIELD
 MDIP.deg                59.52:  MAGNETIC DIP
 MDEC.deg                 6.42:  MAGNETIC DECL
 GRDC.deg                 0.17:  GRID CORRECTION
 AZTC.deg                 6.25:  AZM TOTAL CORR
 EPD .m                   0.00:  ELEVATION
 EGL .m                   0.00:  GROUND ELEVATION
 WDMS.m                 121.00:  WD ELEV
 APD .m                  36.60:  DEPTH ABOVE PD
 AGAP.m                  36.60:  AIR GAP
 VSEW.m                   1.56:  VERT SEC E/W
 VSNS.m                  -7.94:  VERT SEC N/S
 DEP .m                1140.01:  DEPTH
 EKB .m                  36.60:  KB ELEVATION
 EDF .m                  36.60:  DF ELEVATION
 VSC .                       0:  VS TO CLOSURE
 MAGU.                 1849206:  MAGUTM CHECKSUM
~Parameter Information Block
#MNEM.UNIT       Value        Description
#---------     -----------    ---------------------------
 AV  .mps                 1.70:  Ann Velocity 
 AVMX.mps                 2.30:  Max Ann Veloc 
 AZIF.deg               137.03:  Azm, Final 
 BHAT.                   Other:  BHA Type 
 BROT.°/30m               0.80:  Build Rotating 
 BS  .in                  8.00:  Bit Size 
 BTPL.psig              161.00:  Bit Press Loss 
 CABU.                      No:  Customer Abuse 
 COMM.                     ´Î`:  Run Comments 1 
 TCS .hr                  9.59:  Time Ciculation Ended 
 CV  .mps                 3.76:  Crit Velocity 
 CVMX.mps                 4.26:  Max Crit Veloc 
 DD1 .         Intigam Rahimov:  Direct Drillr 1 
 DD2 .          Rashad Gojayev:  Direct Drillr 2 
 DDSV.                   Other:  DD Service 
 DEFF.%                 100.00:  % Det Eff 
 DLRX.°/30m               1.44:  Dogleg Rot Max 
 DLSO.°/30m               0.00:  Dogleg Oriented 
 DLSX.°/30m               0.00:  Dogleg Str Max 
 DRET.      03.31.12 02-Feb-20:  Drill End Time 
 DRST.      03.31.12 02-Feb-20:  Drill Start Tim 
 DTIM.hr                  1.99:  Time Drilling 
 EDEP.m                4047.51:  End Depth 
 ENG1.           Eldar Hajiyev:  Engineer 1 
 ENG2.          Rasim Hashimov:  Engineer 2 
 ENG3.          Rustam Safarov:  Engineer 3 
 ETIM.      03.31.12 02-Feb-20:  End Time 
 FLOI.gpm               300.00:  Flow In 
 FLON.gpm               250.00:  Flow In Min 
 FLOS.cptm                0.00:  Fluid Loss 
 FLOX.gpm               330.00:  Flow In Max 
 HFLO.                      No:  High Flow 
 HPRE.                      No:  High Pressure 
 HTEM.                      No:  High Temp 
 HYDO.m                   2.50:  Hydro Offset 
 IFIN.deg                39.54:  Inc, Final 
 IMAX.deg                41.14:  Inc Max 
 IMIN.deg                39.81:  Inc Min 
 IMND.m                4005.21:  Inc Min Depth 
 IMXD.m                3948.42:  Inc Max Depth 
 JARR.                      No:  Jarring 
 LETM.      03.31.12 02-Feb-20:  Log End Time 
 LOST.hr                     0:  Lost Rig Time 
 LSTM.      03.31.12 02-Feb-20:  Log Start Time 
 MDCL.ppm             35000.00:  Mud Chlorides 
 MDES.     Inversion Oil/Synthetic:  Mud Desc 
 DFD .sg                  1.32:  Mud Density 
 MDMN.sg                  1.32:  Dens Mud Min 
 MDMX.sg                  1.32:  Dens Mud Max 
 MOIL.                      59:  Run Mud Oil % 
 MOWR.                   71:29:  Run Mud OWR 
 MSND.                       0:  Run Mud Sand % 
 MSOL.                      17:  Run Mud Solids% 
 DFV .spqt               86.00:  Mud Viscosity 
 MWOD.in                  4.75:  MWD Tool OD 
 MWSI.                      No:  Serv Intrp, MWD 
 OTIM.hr                 46.72:  Time Operating 
 PCON.           Look Like New:  Pad Condition 
 PMAX.psia             3300.00:  Press Op, Max 
 PV  .cP                 30.00:  Mud PV 
 RUN .                     400:  Run Number 
 ROPA.m/hr               35.00:  ROP Avg 
 ROPN.m/hr               25.00:  ROP Min 
 ROPX.m/hr               40.00:  ROP Max 
 RPMA.rpm                80.00:  RPM Surface Avg 
 RPMN.rpm                60.00:  RPM Surface Min 
 RPMX.rpm               100.00:  RPM Surface Max 
 RRUN.                     400:  Rig Run Number 
 RTIM.hr                  1.99:  Time Reaming 
 SAZI.deg               133.93:  Azm, Start 
 SDEP.m                4047.51:  Start Depth 
 SIDD.                      No:  Serv Intrp, DD 
 SINC.deg                40.28:  Inc, Start 
 SPPA.psig             3250.00:  SPP Avg 
 SPPN.psig             3200.00:  SPP Min 
 SPPX.psig             3300.00:  SPP Max 
 STIM.      03.31.12 02-Feb-20:  Start Time 
 SVCS.                 DD, MWD:  Services 
 SVER.                    9.20:  Sperry Version 
 TDAT.m                  47.00:  Tot Depth Attmp 
 TDDF.                      No:  Trip for DD 
 TFF .                      No:  Trip for Fail 
 TQAA.f-kp                0.00:  Torque Abs Avg 
 TQAN.f-kp                0.00:  Torque Abs Min 
 TQAX.f-kp                0.00:  Torque Abs Max 
 TRRT.°/30m               0.70:  Turn Rotating 
 MRT .                    HCIM:  Maximum Recorded Temperature 
 TTMX.degC               70.59:  Max Tool Temp 
 VS01.             90598770F11:  Virtual Str1 SN 
 VS02.             90598769F11:  Virtual Str2 SN 
 VS03.            90515978Z1W1:  Virtual Str3 SN 
 VS04.          90584144R12X14:  Virtual Str4 SN 
 WBMN.klb                 0.00:  WOB Min 
 WITN.            Peter Wilson:  Customer Rep 
 WOBA.klb                 0.00:  WOB Avg 
 WOBX.klb                 0.00:  WOB Max 
 YP  .lhf2               29.00:  Yield Point 
~Curve Information Block
#MNEM.UNIT                 API CODE     Curve Description
#---------               -----------    ---------------------------
 TIME.HHMMSS            00 000 000 000:  GT Time & Date
 GTDEPTH.m              00 000 000 000:  GT Depth
 GTPQH.psia             00 000 000 000:  GT HR Quartz Pressure
 GTTQ.degC              00 000 000 000:  GT Quartz Temperature
 GTTN.NONE              00 000 000 000:  GT Test Number
 GTET.sec               00 000 000 000:  GT Elapsed Test Time
 GTTVD.m                00 000 000 000:  GT True Vertical Depth
#Other Information
#
#WARRANTY: Halliburton will use its best efforts to furnish customers with 
#accurate information and interpretations that are part of, and incident to, the services 
#provided.  However, Halliburton cannot and does not warrant the accuracy 
#or correctness of such information and interpretations.  Under no circumstances should any 
#such information or interpretation be relied upon as the sole basis for any drilling, 
#completion, production, or financial decision or any procedure involving any risk to the 
#safety of any drilling venture, drilling rig or its crew or any other third party.  The 
#Customer has full responsibility for all drilling, completion and production operation.  
#Halliburton makes no representations or warranties, either expressed or 
#implied, including, but not limited to, the implied warranties of merchantability or fitness 
#for a particular purpose, with respect to the services rendered.  In no event will 
#Halliburton be liable for failure to obtain any particular results or for 
#any damages, including, but not limited to, indirect, special or consequential damages, 
#resulting from the use of any information or interpretation provided by Halliburton.
#
~A           TIME           GTDEPTH  GTPQH  GTTQ  GTTN  GTET   GTTVD  
# ...
   02:57:17.862.03-Feb-2020 4022.51 3158.81 64.19 1.00 414.09 3030.18
   02:57:18.062.03-Feb-2020 4022.51 3158.81 64.19 1.00 414.29 3030.18
   02:57:18.262.03-Feb-2020 4022.51 3158.94 64.19 1.00 414.49 3030.18
   02:57:18.462.03-Feb-2020 4022.51 3158.23 64.19 1.00 414.69 3030.18
   02:57:18.662.03-Feb-2020 4022.51 3159.26 64.19 1.00 414.89 3030.18
   02:57:18.862.03-Feb-2020 4022.51 3158.78 64.18 1.00 415.09 3030.18
   02:57:19.062.03-Feb-2020 4022.51 3158.78 64.18 1.00 415.29 3030.18
   02:57:19.262.03-Feb-2020 4022.51 3158.41 64.18 1.00 415.49 3030.18
   02:57:19.462.03-Feb-2020 4022.51 3159.26 64.18 1.00 415.69 3030.18
   02:57:19.662.03-Feb-2020 4022.51 3158.74 64.18 1.00 415.89 3030.18
   02:57:19.862.03-Feb-2020 4022.51 3159.11 64.18 1.00 416.09 3030.18
   02:57:20.062.03-Feb-2020 4022.51 3159.11 64.18 1.00 416.29 3030.18
   02:57:20.262.03-Feb-2020 4022.51 3158.94 64.18 1.00 416.49 3030.18
   02:57:20.462.03-Feb-2020 4022.51 3158.89 64.18 1.00 416.69 3030.18
   02:57:20.662.03-Feb-2020 4022.51 3158.95 64.18 1.00 416.89 3030.18
   02:57:20.862.03-Feb-2020 4022.51 3158.49 64.18 1.00 417.09 3030.18
   02:57:21.062.03-Feb-2020 4022.51 3158.49 64.18 1.00 417.29 3030.18
   02:57:21.263.03-Feb-2020 4022.51 3158.92 64.18 1.00 417.49 3030.18
   02:57:21.463.03-Feb-2020 4022.51 3159.05 64.18 1.00 417.69 3030.18
   02:57:21.663.03-Feb-2020 4022.51 3159.01 64.18 1.00 417.89 3030.18
   02:57:21.863.03-Feb-2020 4022.51 3158.95 64.18 1.00 418.09 3030.18
   02:57:22.063.03-Feb-2020 4022.51 3158.95 64.18 1.00 418.29 3030.18
   02:57:22.263.03-Feb-2020 4022.51 3159.03 64.18 1.00 418.49 3030.18
   02:57:22.463.03-Feb-2020 4022.51 3158.83 64.18 1.00 418.69 3030.18
   02:57:22.663.03-Feb-2020 4022.51 3159.02 64.18 1.00 418.89 3030.18
   02:57:22.863.03-Feb-2020 4022.51 3159.01 64.18 1.00 419.09 3030.18
   02:57:23.063.03-Feb-2020 4022.51 3159.01 64.18 1.00 419.29 3030.18
   02:57:23.263.03-Feb-2020 4022.51 3158.96 64.18 1.00 419.49 3030.18
   02:57:23.463.03-Feb-2020 4022.51 3158.96 64.18 1.00 419.69 3030.18
   02:57:23.663.03-Feb-2020 4022.51 3158.95 64.18 1.00 419.89 3030.18
   02:57:23.863.03-Feb-2020 4022.51 3159.03 64.18 1.00 420.09 3030.18
   02:57:24.063.03-Feb-2020 4022.51 3159.03 64.18 1.00 420.29 3030.18
   02:57:24.263.03-Feb-2020 4022.51 3158.94 64.18 1.00 420.49 3030.18
   02:57:24.463.03-Feb-2020 4022.51 3159.01 64.18 1.00 420.69 3030.18
   02:57:24.663.03-Feb-2020 4022.51 3158.97 64.18 1.00 420.89 3030.18
   02:57:24.863.03-Feb-2020 4022.51 3158.88 64.18 1.00 421.09 3030.18
   02:57:25.063.03-Feb-2020 4022.51 3158.88 64.18 1.00 421.29 3030.18
   02:57:25.263.03-Feb-2020 4022.51 3159.02 64.18 1.00 421.49 3030.18
   02:57:25.463.03-Feb-2020 4022.51 3158.35 64.18 1.00 421.69 3030.18
   02:57:25.663.03-Feb-2020 4022.51 3159.46 64.18 1.00 421.89 3030.18
   02:57:25.863.03-Feb-2020 4022.51 3158.83 64.18 1.00 422.09 3030.18
   02:57:26.064.03-Feb-2020 4022.51 3158.83 64.18 1.00 422.29 3030.18
   02:57:26.264.03-Feb-2020 4022.51 3159.06 64.18 1.00 422.49 3030.18
   02:57:26.464.03-Feb-2020 4022.51 3159.01 64.18 1.00 422.69 3030.18
   02:57:26.664.03-Feb-2020 4022.51 3159.02 64.18 1.00 422.89 3030.18
   02:57:26.864.03-Feb-2020 4022.51 3159.04 64.18 1.00 423.09 3030.18
   02:57:27.064.03-Feb-2020 4022.51 3159.04 64.18 1.00 423.29 3030.18
   02:57:27.264.03-Feb-2020 4022.51 3158.98 64.18 1.00 423.49 3030.18
   02:57:27.464.03-Feb-2020 4022.51 3159.00 64.18 1.00 423.69 3030.18
   02:57:27.664.03-Feb-2020 4022.51 3159.01 64.18 1.00 423.89 3030.18
   02:57:27.864.03-Feb-2020 4022.51 3158.90 64.18 1.00 424.09 3030.18
   02:57:28.064.03-Feb-2020 4022.51 3158.90 64.18 1.00 424.29 3030.18
   02:57:28.264.03-Feb-2020 4022.51 3158.84 64.18 1.00 424.49 3030.18
   02:57:28.464.03-Feb-2020 4022.51 3159.16 64.18 1.00 424.69 3030.18
   02:57:28.664.03-Feb-2020 4022.51 3159.07 64.18 1.00 424.89 3030.18
   02:57:28.864.03-Feb-2020 4022.51 3158.61 64.17 1.00 425.09 3030.18
   02:57:29.064.03-Feb-2020 4022.51 3158.61 64.17 1.00 425.29 3030.18
   02:57:29.264.03-Feb-2020 4022.51 3159.13 64.17 1.00 425.49 3030.18
   02:57:29.464.03-Feb-2020 4022.51 3159.11 64.17 1.00 425.69 3030.18
   02:57:29.664.03-Feb-2020 4022.51 3159.09 64.17 1.00 425.89 3030.18
   02:57:29.864.03-Feb-2020 4022.51 3159.05 64.17 1.00 426.09 3030.18
   02:57:30.064.03-Feb-2020 4022.51 3159.05 64.17 1.00 426.29 3030.18
   02:57:30.264.03-Feb-2020 4022.51 3158.55 64.17 1.00 426.49 3030.18
   02:57:30.464.03-Feb-2020 4022.51 3159.48 64.17 1.00 426.69 3030.18
   02:57:30.664.03-Feb-2020 4022.51 3158.78 64.17 1.00 426.89 3030.18
   02:57:30.865.03-Feb-2020 4022.51 3159.27 64.17 1.00 427.09 3030.18
   02:57:31.065.03-Feb-2020 4022.51 3159.27 64.17 1.00 427.29 3030.18
   02:57:31.265.03-Feb-2020 4022.51 3159.07 64.17 1.00 427.49 3030.18
   02:57:31.465.03-Feb-2020 4022.51 3159.05 64.17 1.00 427.69 3030.18
   02:57:31.665.03-Feb-2020 4022.51 3158.49 64.17 1.00 427.89 3030.18
   02:57:31.865.03-Feb-2020 4022.51 3159.55 64.17 1.00 428.09 3030.18
   02:57:32.065.03-Feb-2020 4022.51 3159.55 64.17 1.00 428.29 3030.18
   02:57:32.265.03-Feb-2020 4022.51 3159.16 64.17 1.00 428.49 3030.18
   02:57:32.465.03-Feb-2020 4022.51 3159.06 64.17 1.00 428.69 3030.18
   02:57:32.665.03-Feb-2020 4022.51 3159.14 64.17 1.00 428.89 3030.18
   02:57:32.865.03-Feb-2020 4022.51 3159.07 64.17 1.00 429.09 3030.18
   02:57:33.065.03-Feb-2020 4022.51 3159.07 64.17 1.00 429.29 3030.18
   02:57:33.265.03-Feb-2020 4022.51 3159.16 64.17 1.00 429.49 3030.18
   02:57:33.465.03-Feb-2020 4022.51 3159.11 64.17 1.00 429.69 3030.18
   02:57:33.665.03-Feb-2020 4022.51 3159.05 64.17 1.00 429.89 3030.18
   02:57:33.865.03-Feb-2020 4022.51 3159.14 64.17 1.00 430.09 3030.18
   02:57:34.065.03-Feb-2020 4022.51 3159.14 64.17 1.00 430.29 3030.18
   02:57:34.265.03-Feb-2020 4022.51 3159.02 64.17 1.00 430.49 3030.18
   02:57:34.465.03-Feb-2020 4022.51 3159.06 64.17 1.00 430.69 3030.18
   02:57:34.665.03-Feb-2020 4022.51 3159.13 64.17 1.00 430.89 3030.18
   02:57:34.865.03-Feb-2020 4022.51 3158.92 64.17 1.00 431.09 3030.18
   02:57:35.065.03-Feb-2020 4022.51 3158.92 64.17 1.00 431.29 3030.18
   02:57:35.265.03-Feb-2020 4022.51 3158.90 64.17 1.00 431.49 3030.18
   02:57:35.465.03-Feb-2020 4022.51 3159.20 64.17 1.00 431.69 3030.18
   02:57:35.666.03-Feb-2020 4022.51 3159.07 64.17 1.00 431.89 3030.18
   02:57:35.866.03-Feb-2020 4022.51 3159.14 64.17 1.00 432.09 3030.18
   02:57:36.066.03-Feb-2020 4022.51 3159.14 64.17 1.00 432.29 3030.18
   02:57:36.266.03-Feb-2020 4022.51 3159.14 64.17 1.00 432.49 3030.18
   02:57:36.466.03-Feb-2020 4022.51 3159.06 64.17 1.00 432.69 3030.18
   02:57:36.666.03-Feb-2020 4022.51 3159.08 64.17 1.00 432.89 3030.18
   02:57:36.866.03-Feb-2020 4022.51 3159.11 64.17 1.00 433.09 3030.18
   02:57:37.066.03-Feb-2020 4022.51 3159.11 64.17 1.00 433.29 3030.18
   02:57:37.266.03-Feb-2020 4022.51 3159.15 64.17 1.00 433.49 3030.18
   02:57:37.466.03-Feb-2020 4022.51 3158.51 64.17 1.00 433.69 3030.18
   02:57:37.666.03-Feb-2020 4022.51 3159.45 64.17 1.00 433.89 3030.18
   02:57:37.866.03-Feb-2020 4022.51 3159.04 64.17 1.00 434.09 3030.18
   02:57:38.066.03-Feb-2020 4022.51 3159.04 64.17 1.00 434.29 3030.18
   02:57:38.266.03-Feb-2020 4022.51 3158.61 64.17 1.00 434.49 3030.18
   02:57:38.466.03-Feb-2020 4022.51 3159.51 64.17 1.00 434.69 3030.18
   02:57:38.666.03-Feb-2020 4022.51 3159.00 64.16 1.00 434.89 3030.18
   02:57:38.866.03-Feb-2020 4022.51 3159.28 64.16 1.00 435.09 3030.18
   02:57:39.066.03-Feb-2020 4022.51 3159.28 64.16 1.00 435.29 3030.18
   02:57:39.266.03-Feb-2020 4022.51 3159.14 64.16 1.00 435.49 3030.18
   02:57:39.466.03-Feb-2020 4022.51 3159.14 64.16 1.00 435.69 3030.18
   02:57:39.666.03-Feb-2020 4022.51 3159.15 64.16 1.00 435.89 3030.18
   02:57:39.866.03-Feb-2020 4022.51 3158.49 64.16 1.00 436.09 3030.18
   02:57:40.066.03-Feb-2020 4022.51 3158.49 64.16 1.00 436.29 3030.18
   02:57:40.266.03-Feb-2020 4022.51 3158.99 64.16 1.00 436.49 3030.18
   02:57:40.467.03-Feb-2020 4022.51 3159.41 64.16 1.00 436.69 3030.18
   02:57:40.667.03-Feb-2020 4022.51 3159.25 64.16 1.00 436.89 3030.18
