~Version Information
 VERS.                  2.0:   CWLS log ASCII Standard -VERSION 2.0
 WRAP.                   NO:   One line per depth step
~Well Information Block
#MNEM.UNIT     VALUE/NAME     DESCRIPTION
#---------     -----------    ---------------------------
 STRT.S             03:10:10 03-Feb-20: START TIME 03:10:10 03-Feb-20
 STOP.S             03:17:58 03-Feb-20: STOP TIME  03:17:58 03-Feb-20
 STEP.S                   0.00: STEP TIME
 NULL.                 -999.25: NULL VALUE
 DFWT.                        :  DIST FWL TEXT
 DFST.                        :  DIST FSL TEXT
 DMF .             Drill Floor:  DRILL MEAS FROM
 STIM.      09.30.00 26-Dec-19:  START TIME
 DATE.      08.00.00 20-Jan-20:  END TIME
 SPUD.               23-Nov-19:  SPUD DATE
 NREF.                    Grid:  NORTH REFERENCE
 HPTY.       Minimum Curvature:  HOLE POS TYPE
 DMOD.             Drill Model:  DRILL MOD DESC
 SVYD.                  Survey:  SURVEY DESC
 ILTD.               Lithology:  INTERP LTH DESC
 FTOP.          Formation Tops:  FORM TOPS DESC
 SON .        AZ-XX-0906192647:  JOB NUMBER
 WTYP.                Deviated:  WELL TYPE
 COMP.     BP Exploration (Caspian Sea) Ltd:  COMPANY
 BASE.              Azerbaijan:  LOGGING EQUIPMENT BASE LOCATION
 REGN.                 Eurasia:  REGION
 FLD .                     ACG:  FIELD NAME
 SRVC.              KCA Deutag:  CONTRACTOR
 MWDS.                    Baku:  MWD SHOP
 WELL.     A10 (Slot 20) - SCP:  WELL NAME
 JOBN.        AZ-XX-0906192647:  JOB TICKET NUMB
 RIG .                 Chirag1:  RIG NAME
 DCON.     Halliburton Sperry Drilling:  DIRECTNL CONTR
 UNIT.                     N/A:  LOGGING EQUIPMENT ID
 PDAT.          Mean Sea Level:  PERMANENT DATUM
 MDS .        Operator Entered:  MAG DATA SOURCE
 CTRY.              Azerbaijan:  COUNTRY NAME
 UWI .            /AZE00000090:  UNIQUE WELL IDENTIFIER
 API .            /AZE00000090:  API NUMBER
 CNTY.                        :  COUNTY
 PROV.                        :  PROVINCE
 STAT.                        :  STATE
 LOC .                        :  LOCATION
 LMF .             Drill Floor:  LOG MEASURED FROM
 TVDS.m                  36.60:  TVDSS CORRECTN
 LATI.deg                40.08:  LATITUDE
 LONG.deg                51.24:  LONGITUDE
 WHNS.m                  -7.94:  WELL HEAD N/S
 WHEW.m                   1.56:  WELL HEAD E/W
 UTMX.m              520429.26:  UTM X
 UTMY.m             4438973.87:  UTM Y
 DFWL.m                   0.00:  DISTANCE FWL
 DFSL.m                   0.00:  DISTANCE FSL
 SDEP.m                1455.00:  START DEPTH
 TDD .m                4047.51:  TOTAL DEPTH (DRILLER)
 VSDR.deg               112.75:  VERT SEC DIRECT
 GVFD.g                   1.00:  GRAVITY FIELD
 MFLD.nT              50261.00:  MAGNETIC FIELD
 MDIP.deg                59.52:  MAGNETIC DIP
 MDEC.deg                 6.42:  MAGNETIC DECL
 GRDC.deg                 0.17:  GRID CORRECTION
 AZTC.deg                 6.25:  AZM TOTAL CORR
 EPD .m                   0.00:  ELEVATION
 EGL .m                   0.00:  GROUND ELEVATION
 WDMS.m                 121.00:  WD ELEV
 APD .m                  36.60:  DEPTH ABOVE PD
 AGAP.m                  36.60:  AIR GAP
 VSEW.m                   1.56:  VERT SEC E/W
 VSNS.m                  -7.94:  VERT SEC N/S
 DEP .m                1140.01:  DEPTH
 EKB .m                  36.60:  KB ELEVATION
 EDF .m                  36.60:  DF ELEVATION
 VSC .                       0:  VS TO CLOSURE
 MAGU.                 1849206:  MAGUTM CHECKSUM
~Parameter Information Block
#MNEM.UNIT       Value        Description
#---------     -----------    ---------------------------
 AV  .mps                 1.70:  Ann Velocity 
 AVMX.mps                 2.30:  Max Ann Veloc 
 AZIF.deg               137.03:  Azm, Final 
 BHAT.                   Other:  BHA Type 
 BROT.°/30m               0.80:  Build Rotating 
 BS  .in                  8.00:  Bit Size 
 BTPL.psig              161.00:  Bit Press Loss 
 CABU.                      No:  Customer Abuse 
 TCS .hr                  9.59:  Time Ciculation Ended 
 CV  .mps                 3.76:  Crit Velocity 
 CVMX.mps                 4.26:  Max Crit Veloc 
 DD1 .         Intigam Rahimov:  Direct Drillr 1 
 DD2 .          Rashad Gojayev:  Direct Drillr 2 
 DDSV.                   Other:  DD Service 
 DEFF.%                 100.00:  % Det Eff 
 DLRX.°/30m               1.44:  Dogleg Rot Max 
 DLSO.°/30m               0.00:  Dogleg Oriented 
 DLSX.°/30m               0.00:  Dogleg Str Max 
 DRET.      03.31.12 02-Feb-20:  Drill End Time 
 DRST.      03.31.12 02-Feb-20:  Drill Start Tim 
 DTIM.hr                  1.99:  Time Drilling 
 EDEP.m                4047.51:  End Depth 
 ENG1.           Eldar Hajiyev:  Engineer 1 
 ENG2.          Rasim Hashimov:  Engineer 2 
 ENG3.          Rustam Safarov:  Engineer 3 
 ETIM.      03.31.12 02-Feb-20:  End Time 
 FLOI.gpm               300.00:  Flow In 
 FLON.gpm               250.00:  Flow In Min 
 FLOS.cptm                0.00:  Fluid Loss 
 FLOX.gpm               330.00:  Flow In Max 
 HFLO.                      No:  High Flow 
 HPRE.                      No:  High Pressure 
 HTEM.                      No:  High Temp 
 HYDO.m                   2.50:  Hydro Offset 
 IFIN.deg                39.54:  Inc, Final 
 IMAX.deg                41.14:  Inc Max 
 IMIN.deg                39.81:  Inc Min 
 IMND.m                4005.21:  Inc Min Depth 
 IMXD.m                3948.42:  Inc Max Depth 
 JARR.                      No:  Jarring 
 LETM.      03.31.12 02-Feb-20:  Log End Time 
 LOST.hr                     0:  Lost Rig Time 
 LSTM.      03.31.12 02-Feb-20:  Log Start Time 
 MDCL.ppm             35000.00:  Mud Chlorides 
 MDES.     Inversion Oil/Synthetic:  Mud Desc 
 DFD .sg                  1.32:  Mud Density 
 MDMN.sg                  1.32:  Dens Mud Min 
 MDMX.sg                  1.32:  Dens Mud Max 
 MOIL.                      59:  Run Mud Oil % 
 MOWR.                   71:29:  Run Mud OWR 
 MSND.                       0:  Run Mud Sand % 
 MSOL.                      17:  Run Mud Solids% 
 DFV .spqt               86.00:  Mud Viscosity 
 MWOD.in                  4.75:  MWD Tool OD 
 MWSI.                      No:  Serv Intrp, MWD 
 OTIM.hr                 46.72:  Time Operating 
 PCON.           Look Like New:  Pad Condition 
 PMAX.psia             3300.00:  Press Op, Max 
 PV  .cP                 30.00:  Mud PV 
 RUN .                     400:  Run Number 
 ROPA.m/hr               35.00:  ROP Avg 
 ROPN.m/hr               25.00:  ROP Min 
 ROPX.m/hr               40.00:  ROP Max 
 RPMA.rpm                80.00:  RPM Surface Avg 
 RPMN.rpm                60.00:  RPM Surface Min 
 RPMX.rpm               100.00:  RPM Surface Max 
 RRUN.                     400:  Rig Run Number 
 RTIM.hr                  1.99:  Time Reaming 
 SAZI.deg               133.93:  Azm, Start 
 SDEP.m                4047.51:  Start Depth 
 SIDD.                      No:  Serv Intrp, DD 
 SINC.deg                40.28:  Inc, Start 
 SPPA.psig             3250.00:  SPP Avg 
 SPPN.psig             3200.00:  SPP Min 
 SPPX.psig             3300.00:  SPP Max 
 STIM.      03.31.12 02-Feb-20:  Start Time 
 SVCS.                 DD, MWD:  Services 
 SVER.                    9.20:  Sperry Version 
 TDAT.m                  47.00:  Tot Depth Attmp 
 TDDF.                      No:  Trip for DD 
 TFF .                      No:  Trip for Fail 
 TQAA.f-kp                0.00:  Torque Abs Avg 
 TQAN.f-kp                0.00:  Torque Abs Min 
 TQAX.f-kp                0.00:  Torque Abs Max 
 TRRT.°/30m               0.70:  Turn Rotating 
 MRT .                    HCIM:  Maximum Recorded Temperature 
 TTMX.degC               70.59:  Max Tool Temp 
 VS01.             90598770F11:  Virtual Str1 SN 
 VS02.             90598769F11:  Virtual Str2 SN 
 VS03.            90515978Z1W1:  Virtual Str3 SN 
 VS04.          90584144R12X14:  Virtual Str4 SN 
 WBMN.klb                 0.00:  WOB Min 
 WITN.            Peter Wilson:  Customer Rep 
 WOBA.klb                 0.00:  WOB Avg 
 WOBX.klb                 0.00:  WOB Max 
 YP  .lhf2               29.00:  Yield Point 
~Curve Information Block
#MNEM.UNIT                 API CODE     Curve Description
#---------               -----------    ---------------------------
 TIME.HHMMSS            00 000 000 000:  GT Time & Date
 GTDEPTH.m              00 000 000 000:  GT Depth
 GTPQH.psia             00 000 000 000:  GT HR Quartz Pressure
 GTTQ.degC              00 000 000 000:  GT Quartz Temperature
 GTTN.NONE              00 000 000 000:  GT Test Number
 GTET.sec               00 000 000 000:  GT Elapsed Test Time
 GTTVD.m                00 000 000 000:  GT True Vertical Depth
#Other Information
#
#WARRANTY: Halliburton will use its best efforts to furnish customers with 
#accurate information and interpretations that are part of, and incident to, the services 
#provided.  However, Halliburton cannot and does not warrant the accuracy 
#or correctness of such information and interpretations.  Under no circumstances should any 
#such information or interpretation be relied upon as the sole basis for any drilling, 
#completion, production, or financial decision or any procedure involving any risk to the 
#safety of any drilling venture, drilling rig or its crew or any other third party.  The 
#Customer has full responsibility for all drilling, completion and production operation.  
#Halliburton makes no representations or warranties, either expressed or 
#implied, including, but not limited to, the implied warranties of merchantability or fitness 
#for a particular purpose, with respect to the services rendered.  In no event will 
#Halliburton be liable for failure to obtain any particular results or for 
#any damages, including, but not limited to, indirect, special or consequential damages, 
#resulting from the use of any information or interpretation provided by Halliburton.
#
~A           TIME           GTDEPTH  GTPQH  GTTQ  GTTN  GTET   GTTVD  
# ...
   03:17:27.115.03-Feb-2020 4017.01 6077.15 62.95 2.00 437.09 3025.96
   03:17:27.315.03-Feb-2020 4017.01 6077.15 62.95 2.00 437.29 3025.96
   03:17:27.515.03-Feb-2020 4017.01 6078.48 62.95 2.00 437.49 3025.96
   03:17:27.715.03-Feb-2020 4017.01 6077.80 62.95 2.00 437.69 3025.96
   03:17:27.915.03-Feb-2020 4017.01 6077.19 62.95 2.00 437.89 3025.96
   03:17:28.115.03-Feb-2020 4017.01 6081.10 62.95 2.00 438.09 3025.96
   03:17:28.315.03-Feb-2020 4017.01 6081.10 62.95 2.00 438.29 3025.96
   03:17:28.515.03-Feb-2020 4017.01 6081.19 62.95 2.00 438.49 3025.96
   03:17:28.715.03-Feb-2020 4017.01 6081.13 62.95 2.00 438.69 3025.96
   03:17:28.915.03-Feb-2020 4017.01 6083.64 62.95 2.00 438.89 3025.96
   03:17:29.115.03-Feb-2020 4017.01 6083.02 62.95 2.00 439.09 3025.96
   03:17:29.316.03-Feb-2020 4017.01 6083.02 62.95 2.00 439.29 3025.96
   03:17:29.516.03-Feb-2020 4017.01 6081.40 62.95 2.00 439.49 3025.96
   03:17:29.716.03-Feb-2020 4017.01 6081.00 62.95 2.00 439.69 3025.96
   03:17:29.916.03-Feb-2020 4017.01 6084.15 62.95 2.00 439.89 3025.96
   03:17:30.116.03-Feb-2020 4017.01 6083.50 62.95 2.00 440.09 3025.96
   03:17:30.316.03-Feb-2020 4017.01 6083.50 62.95 2.00 440.29 3025.96
   03:17:30.516.03-Feb-2020 4017.01 6083.85 62.96 2.00 440.49 3025.96
   03:17:30.716.03-Feb-2020 4017.01 6083.12 62.96 2.00 440.69 3025.96
   03:17:30.916.03-Feb-2020 4017.01 6084.66 62.96 2.00 440.89 3025.96
   03:17:31.116.03-Feb-2020 4017.01 6085.63 62.96 2.00 441.09 3025.96
   03:17:31.316.03-Feb-2020 4017.01 6085.63 62.96 2.00 441.29 3025.96
   03:17:31.516.03-Feb-2020 4017.01 6086.08 62.96 2.00 441.49 3025.96
   03:17:31.716.03-Feb-2020 4017.01 6075.06 62.96 2.00 441.69 3025.96
   03:17:31.916.03-Feb-2020 4017.01 6085.66 62.96 2.00 441.89 3025.96
   03:17:32.116.03-Feb-2020 4017.01 6079.16 62.96 2.00 442.09 3025.96
   03:17:32.316.03-Feb-2020 4017.01 6079.16 62.96 2.00 442.29 3025.96
   03:17:32.516.03-Feb-2020 4017.01 6086.22 62.96 2.00 442.49 3025.96
   03:17:32.716.03-Feb-2020 4017.01 6087.22 62.96 2.00 442.69 3025.96
   03:17:32.916.03-Feb-2020 4017.01 6074.36 62.97 2.00 442.89 3025.96
   03:17:33.116.03-Feb-2020 4017.01 6088.34 62.97 2.00 443.09 3025.96
   03:17:33.316.03-Feb-2020 4017.01 6088.34 62.97 2.00 443.29 3025.96
   03:17:33.516.03-Feb-2020 4017.01 6087.21 62.97 2.00 443.49 3025.96
   03:17:33.716.03-Feb-2020 4017.01 6085.94 62.97 2.00 443.69 3025.96
   03:17:33.916.03-Feb-2020 4017.01 6086.06 62.97 2.00 443.89 3025.96
   03:17:34.117.03-Feb-2020 4017.01 6077.26 62.97 2.00 444.09 3025.96
   03:17:34.317.03-Feb-2020 4017.01 6077.26 62.97 2.00 444.29 3025.96
   03:17:34.517.03-Feb-2020 4017.01 6083.16 62.97 2.00 444.49 3025.96
   03:17:34.717.03-Feb-2020 4017.01 6086.74 62.97 2.00 444.69 3025.96
   03:17:34.917.03-Feb-2020 4017.01 6075.48 62.97 2.00 444.89 3025.96
   03:17:35.117.03-Feb-2020 4017.01 6088.74 62.97 2.00 445.09 3025.96
   03:17:35.317.03-Feb-2020 4017.01 6088.74 62.97 2.00 445.29 3025.96
   03:17:35.517.03-Feb-2020 4017.01 6085.57 62.97 2.00 445.49 3025.96
   03:17:35.717.03-Feb-2020 4017.01 6083.64 62.97 2.00 445.69 3025.96
   03:17:35.917.03-Feb-2020 4017.01 6086.38 62.98 2.00 445.89 3025.96
   03:17:36.117.03-Feb-2020 4017.01 6086.01 62.98 2.00 446.09 3025.96
   03:17:36.317.03-Feb-2020 4017.01 6086.01 62.98 2.00 446.29 3025.96
   03:17:36.517.03-Feb-2020 4017.01 6085.57 62.98 2.00 446.49 3025.96
   03:17:36.717.03-Feb-2020 4017.01 6084.69 62.98 2.00 446.69 3025.96
   03:17:36.917.03-Feb-2020 4017.01 6084.62 62.98 2.00 446.89 3025.96
   03:17:37.117.03-Feb-2020 4017.01 6086.05 62.98 2.00 447.09 3025.96
   03:17:37.317.03-Feb-2020 4017.01 6086.05 62.98 2.00 447.29 3025.96
   03:17:37.517.03-Feb-2020 4017.01 6085.63 62.98 2.00 447.49 3025.96
   03:17:37.717.03-Feb-2020 4017.01 6084.64 62.98 2.00 447.69 3025.96
   03:17:37.917.03-Feb-2020 4017.01 6087.87 62.98 2.00 447.89 3025.96
   03:17:38.117.03-Feb-2020 4017.01 6076.52 62.98 2.00 448.09 3025.96
   03:17:38.317.03-Feb-2020 4017.01 6076.52 62.98 2.00 448.29 3025.96
   03:17:38.517.03-Feb-2020 4017.01 6079.34 62.98 2.00 448.49 3025.96
   03:17:38.717.03-Feb-2020 4017.01 6085.92 62.98 2.00 448.69 3025.96
   03:17:38.918.03-Feb-2020 4017.01 6084.17 62.98 2.00 448.89 3025.96
   03:17:39.118.03-Feb-2020 4017.01 6085.91 62.98 2.00 449.09 3025.96
   03:17:39.318.03-Feb-2020 4017.01 6085.91 62.98 2.00 449.29 3025.96
   03:17:39.518.03-Feb-2020 4017.01 6084.36 62.98 2.00 449.49 3025.96
   03:17:39.718.03-Feb-2020 4017.01 6084.50 62.98 2.00 449.69 3025.96
   03:17:39.918.03-Feb-2020 4017.01 6085.13 62.98 2.00 449.89 3025.96
   03:17:40.118.03-Feb-2020 4017.01 6086.14 62.98 2.00 450.09 3025.96
   03:17:40.318.03-Feb-2020 4017.01 6086.14 62.98 2.00 450.29 3025.96
   03:17:40.518.03-Feb-2020 4017.01 6085.68 62.98 2.00 450.49 3025.96
   03:17:40.718.03-Feb-2020 4017.01 6085.52 62.98 2.00 450.69 3025.96
   03:17:40.918.03-Feb-2020 4017.01 6071.27 62.98 2.00 450.89 3025.96
   03:17:41.118.03-Feb-2020 4017.01 6088.21 62.98 2.00 451.09 3025.96
   03:17:41.318.03-Feb-2020 4017.01 6088.21 62.98 2.00 451.29 3025.96
   03:17:41.518.03-Feb-2020 4017.01 6087.17 62.98 2.00 451.49 3025.96
   03:17:41.718.03-Feb-2020 4017.01 6084.89 62.98 2.00 451.69 3025.96
   03:17:41.918.03-Feb-2020 4017.01 6086.53 62.98 2.00 451.89 3025.96
   03:17:42.118.03-Feb-2020 4017.01 6074.14 62.98 2.00 452.09 3025.96
   03:17:42.318.03-Feb-2020 4017.01 6074.14 62.98 2.00 452.29 3025.96
   03:17:42.518.03-Feb-2020 4017.01 6081.45 62.98 2.00 452.49 3025.96
   03:17:42.718.03-Feb-2020 4017.01 6086.65 62.98 2.00 452.69 3025.96
   03:17:42.918.03-Feb-2020 4017.01 6085.03 62.98 2.00 452.89 3025.96
   03:17:43.118.03-Feb-2020 4017.01 6086.76 62.98 2.00 453.09 3025.96
   03:17:43.318.03-Feb-2020 4017.01 6086.76 62.98 2.00 453.29 3025.96
   03:17:43.519.03-Feb-2020 4017.01 6087.76 62.98 2.00 453.49 3025.96
   03:17:43.719.03-Feb-2020 4017.01 6079.04 62.98 2.00 453.70 3025.96
   03:17:43.919.03-Feb-2020 4017.01 6088.33 62.98 2.00 453.90 3025.96
   03:17:44.119.03-Feb-2020 4017.01 6085.91 62.98 2.00 454.10 3025.96
   03:17:44.319.03-Feb-2020 4017.01 6085.91 62.98 2.00 454.30 3025.96
   03:17:44.519.03-Feb-2020 4017.01 6084.36 62.98 2.00 454.50 3025.96
   03:17:44.719.03-Feb-2020 4017.01 6075.49 62.98 2.00 454.70 3025.96
   03:17:44.919.03-Feb-2020 4017.01 6081.30 62.98 2.00 454.90 3025.96
   03:17:45.119.03-Feb-2020 4017.01 6083.60 62.98 2.00 455.10 3025.96
   03:17:45.319.03-Feb-2020 4017.01 6083.60 62.98 2.00 455.30 3025.96
   03:17:45.519.03-Feb-2020 4017.01 6085.73 62.98 2.00 455.50 3025.96
   03:17:45.719.03-Feb-2020 4017.01 6084.63 62.98 2.00 455.70 3025.96
   03:17:45.919.03-Feb-2020 4017.01 6084.76 62.98 2.00 455.90 3025.96
   03:17:46.119.03-Feb-2020 4017.01 6083.31 62.98 2.00 456.10 3025.96
   03:17:46.319.03-Feb-2020 4017.01 6083.31 62.98 2.00 456.30 3025.96
   03:17:46.519.03-Feb-2020 4017.01 6086.90 62.98 2.00 456.50 3025.96
   03:17:46.719.03-Feb-2020 4017.01 6086.74 62.98 2.00 456.70 3025.96
   03:17:46.919.03-Feb-2020 4017.01 6086.01 62.98 2.00 456.90 3025.96
   03:17:47.119.03-Feb-2020 4017.01 6085.99 62.98 2.00 457.10 3025.96
   03:17:47.319.03-Feb-2020 4017.01 6085.99 62.98 2.00 457.30 3025.96
   03:17:47.519.03-Feb-2020 4017.01 6084.39 62.98 2.00 457.50 3025.96
   03:17:47.719.03-Feb-2020 4017.01 6087.41 62.98 2.00 457.70 3025.96
   03:17:47.919.03-Feb-2020 4017.01 6074.92 62.98 2.00 457.90 3025.96
   03:17:48.119.03-Feb-2020 4017.01 6087.54 62.98 2.00 458.10 3025.96
   03:17:48.320.03-Feb-2020 4017.01 6087.54 62.98 2.00 458.30 3025.96
   03:17:48.520.03-Feb-2020 4017.01 6085.47 62.98 2.00 458.50 3025.96
   03:17:48.720.03-Feb-2020 4017.01 6083.53 62.98 2.00 458.70 3025.96
   03:17:48.920.03-Feb-2020 4017.01 6084.61 62.98 2.00 458.90 3025.96
   03:17:49.120.03-Feb-2020 4017.01 6085.41 62.98 2.00 459.10 3025.96
   03:17:49.320.03-Feb-2020 4017.01 6085.41 62.98 2.00 459.30 3025.96
   03:17:49.520.03-Feb-2020 4017.01 6086.26 62.98 2.00 459.50 3025.96
   03:17:49.720.03-Feb-2020 4017.01 6085.54 62.98 2.00 459.70 3025.96
   03:17:49.920.03-Feb-2020 4017.01 6085.12 62.98 2.00 459.90 3025.96
