~Version Information
 VERS.                  2.0:   CWLS log ASCII Standard -VERSION 2.0
 WRAP.                   NO:   One line per depth step
~Well Information Block
#MNEM.UNIT     VALUE/NAME     DESCRIPTION
#---------     -----------    ---------------------------
 STRT.S             08:33:17 03-Feb-20: START TIME 08:33:17 03-Feb-20
 STOP.S             08:41:10 03-Feb-20: STOP TIME  08:41:10 03-Feb-20
 STEP.S                   0.00: STEP TIME
 NULL.                 -999.25: NULL VALUE
 DFWT.                        :  DIST FWL TEXT
 DFST.                        :  DIST FSL TEXT
 DMF .             Drill Floor:  DRILL MEAS FROM
 STIM.      09.30.00 26-Dec-19:  START TIME
 DATE.      08.00.00 20-Jan-20:  END TIME
 SPUD.               23-Nov-19:  SPUD DATE
 NREF.                    Grid:  NORTH REFERENCE
 HPTY.       Minimum Curvature:  HOLE POS TYPE
 DMOD.             Drill Model:  DRILL MOD DESC
 SVYD.                  Survey:  SURVEY DESC
 ILTD.               Lithology:  INTERP LTH DESC
 FTOP.          Formation Tops:  FORM TOPS DESC
 SON .        AZ-XX-0906192647:  JOB NUMBER
 WTYP.                Deviated:  WELL TYPE
 COMP.     BP Exploration (Caspian Sea) Ltd:  COMPANY
 BASE.              Azerbaijan:  LOGGING EQUIPMENT BASE LOCATION
 REGN.                 Eurasia:  REGION
 FLD .                     ACG:  FIELD NAME
 SRVC.              KCA Deutag:  CONTRACTOR
 MWDS.                    Baku:  MWD SHOP
 WELL.     A10 (Slot 20) - SCP:  WELL NAME
 JOBN.        AZ-XX-0906192647:  JOB TICKET NUMB
 RIG .                 Chirag1:  RIG NAME
 DCON.     Halliburton Sperry Drilling:  DIRECTNL CONTR
 UNIT.                     N/A:  LOGGING EQUIPMENT ID
 PDAT.          Mean Sea Level:  PERMANENT DATUM
 MDS .        Operator Entered:  MAG DATA SOURCE
 CTRY.              Azerbaijan:  COUNTRY NAME
 UWI .            /AZE00000090:  UNIQUE WELL IDENTIFIER
 API .            /AZE00000090:  API NUMBER
 CNTY.                        :  COUNTY
 PROV.                        :  PROVINCE
 STAT.                        :  STATE
 LOC .                        :  LOCATION
 LMF .             Drill Floor:  LOG MEASURED FROM
 TVDS.m                  36.60:  TVDSS CORRECTN
 LATI.deg                40.08:  LATITUDE
 LONG.deg                51.24:  LONGITUDE
 WHNS.m                  -7.94:  WELL HEAD N/S
 WHEW.m                   1.56:  WELL HEAD E/W
 UTMX.m              520429.26:  UTM X
 UTMY.m             4438973.87:  UTM Y
 DFWL.m                   0.00:  DISTANCE FWL
 DFSL.m                   0.00:  DISTANCE FSL
 SDEP.m                1455.00:  START DEPTH
 TDD .m                4047.51:  TOTAL DEPTH (DRILLER)
 VSDR.deg               112.75:  VERT SEC DIRECT
 GVFD.g                   1.00:  GRAVITY FIELD
 MFLD.nT              50261.00:  MAGNETIC FIELD
 MDIP.deg                59.52:  MAGNETIC DIP
 MDEC.deg                 6.42:  MAGNETIC DECL
 GRDC.deg                 0.17:  GRID CORRECTION
 AZTC.deg                 6.25:  AZM TOTAL CORR
 EPD .m                   0.00:  ELEVATION
 EGL .m                   0.00:  GROUND ELEVATION
 WDMS.m                 121.00:  WD ELEV
 APD .m                  36.60:  DEPTH ABOVE PD
 AGAP.m                  36.60:  AIR GAP
 VSEW.m                   1.56:  VERT SEC E/W
 VSNS.m                  -7.94:  VERT SEC N/S
 DEP .m                1140.01:  DEPTH
 EKB .m                  36.60:  KB ELEVATION
 EDF .m                  36.60:  DF ELEVATION
 VSC .                       0:  VS TO CLOSURE
 MAGU.                 1849206:  MAGUTM CHECKSUM
~Parameter Information Block
#MNEM.UNIT       Value        Description
#---------     -----------    ---------------------------
 AV  .mps                 1.70:  Ann Velocity 
 AVMX.mps                 2.30:  Max Ann Veloc 
 AZIF.deg               137.03:  Azm, Final 
 BHAT.                   Other:  BHA Type 
 BROT.°/30m               0.80:  Build Rotating 
 BS  .in                  8.00:  Bit Size 
 BTPL.psig              161.00:  Bit Press Loss 
 CABU.                      No:  Customer Abuse 
 COMM.                     äör:  Run Comments 1 
 TCS .hr                  9.59:  Time Ciculation Ended 
 CV  .mps                 3.76:  Crit Velocity 
 CVMX.mps                 4.26:  Max Crit Veloc 
 DD1 .         Intigam Rahimov:  Direct Drillr 1 
 DD2 .          Rashad Gojayev:  Direct Drillr 2 
 DDSV.                   Other:  DD Service 
 DEFF.%                 100.00:  % Det Eff 
 DLRX.°/30m               1.44:  Dogleg Rot Max 
 DLSO.°/30m               0.00:  Dogleg Oriented 
 DLSX.°/30m               0.00:  Dogleg Str Max 
 DRET.      03.31.12 02-Feb-20:  Drill End Time 
 DRST.      03.31.12 02-Feb-20:  Drill Start Tim 
 DTIM.hr                  1.99:  Time Drilling 
 EDEP.m                4047.51:  End Depth 
 ENG1.           Eldar Hajiyev:  Engineer 1 
 ENG2.          Rasim Hashimov:  Engineer 2 
 ENG3.          Rustam Safarov:  Engineer 3 
 ETIM.      03.31.12 02-Feb-20:  End Time 
 FLOI.gpm               300.00:  Flow In 
 FLON.gpm               250.00:  Flow In Min 
 FLOS.cptm                0.00:  Fluid Loss 
 FLOX.gpm               330.00:  Flow In Max 
 HFLO.                      No:  High Flow 
 HPRE.                      No:  High Pressure 
 HTEM.                      No:  High Temp 
 HYDO.m                   2.50:  Hydro Offset 
 IFIN.deg                39.54:  Inc, Final 
 IMAX.deg                41.14:  Inc Max 
 IMIN.deg                39.81:  Inc Min 
 IMND.m                4005.21:  Inc Min Depth 
 IMXD.m                3948.42:  Inc Max Depth 
 JARR.                      No:  Jarring 
 LETM.      03.31.12 02-Feb-20:  Log End Time 
 LOST.hr                     0:  Lost Rig Time 
 LSTM.      03.31.12 02-Feb-20:  Log Start Time 
 MDCL.ppm             35000.00:  Mud Chlorides 
 MDES.     Inversion Oil/Synthetic:  Mud Desc 
 DFD .sg                  1.32:  Mud Density 
 MDMN.sg                  1.32:  Dens Mud Min 
 MDMX.sg                  1.32:  Dens Mud Max 
 MOIL.                      59:  Run Mud Oil % 
 MOWR.                   71:29:  Run Mud OWR 
 MSND.                       0:  Run Mud Sand % 
 MSOL.                      17:  Run Mud Solids% 
 DFV .spqt               86.00:  Mud Viscosity 
 MWOD.in                  4.75:  MWD Tool OD 
 MWSI.                      No:  Serv Intrp, MWD 
 OTIM.hr                 46.72:  Time Operating 
 PCON.           Look Like New:  Pad Condition 
 PMAX.psia             3300.00:  Press Op, Max 
 PV  .cP                 30.00:  Mud PV 
 RUN .                     400:  Run Number 
 ROPA.m/hr               35.00:  ROP Avg 
 ROPN.m/hr               25.00:  ROP Min 
 ROPX.m/hr               40.00:  ROP Max 
 RPMA.rpm                80.00:  RPM Surface Avg 
 RPMN.rpm                60.00:  RPM Surface Min 
 RPMX.rpm               100.00:  RPM Surface Max 
 RRUN.                     400:  Rig Run Number 
 RTIM.hr                  1.99:  Time Reaming 
 SAZI.deg               133.93:  Azm, Start 
 SDEP.m                4047.51:  Start Depth 
 SIDD.                      No:  Serv Intrp, DD 
 SINC.deg                40.28:  Inc, Start 
 SPPA.psig             3250.00:  SPP Avg 
 SPPN.psig             3200.00:  SPP Min 
 SPPX.psig             3300.00:  SPP Max 
 STIM.      03.31.12 02-Feb-20:  Start Time 
 SVCS.                 DD, MWD:  Services 
 SVER.                    9.20:  Sperry Version 
 TDAT.m                  47.00:  Tot Depth Attmp 
 TDDF.                      No:  Trip for DD 
 TFF .                      No:  Trip for Fail 
 TQAA.f-kp                0.00:  Torque Abs Avg 
 TQAN.f-kp                0.00:  Torque Abs Min 
 TQAX.f-kp                0.00:  Torque Abs Max 
 TRRT.°/30m               0.70:  Turn Rotating 
 MRT .                    HCIM:  Maximum Recorded Temperature 
 TTMX.degC               70.59:  Max Tool Temp 
 VS01.             90598770F11:  Virtual Str1 SN 
 VS02.             90598769F11:  Virtual Str2 SN 
 VS03.            90515978Z1W1:  Virtual Str3 SN 
 VS04.          90584144R12X14:  Virtual Str4 SN 
 WBMN.klb                 0.00:  WOB Min 
 WITN.            Peter Wilson:  Customer Rep 
 WOBA.klb                 0.00:  WOB Avg 
 WOBX.klb                 0.00:  WOB Max 
 YP  .lhf2               29.00:  Yield Point 
~Curve Information Block
#MNEM.UNIT                 API CODE     Curve Description
#---------               -----------    ---------------------------
 TIME.HHMMSS            00 000 000 000:  GT Time & Date
 GTDEPTH.m              00 000 000 000:  GT Depth
 GTPQH.psia             00 000 000 000:  GT HR Quartz Pressure
 GTTQ.degC              00 000 000 000:  GT Quartz Temperature
 GTTN.NONE              00 000 000 000:  GT Test Number
 GTET.sec               00 000 000 000:  GT Elapsed Test Time
 GTTVD.m                00 000 000 000:  GT True Vertical Depth
#Other Information
#
#WARRANTY: Halliburton will use its best efforts to furnish customers with 
#accurate information and interpretations that are part of, and incident to, the services 
#provided.  However, Halliburton cannot and does not warrant the accuracy 
#or correctness of such information and interpretations.  Under no circumstances should any 
#such information or interpretation be relied upon as the sole basis for any drilling, 
#completion, production, or financial decision or any procedure involving any risk to the 
#safety of any drilling venture, drilling rig or its crew or any other third party.  The 
#Customer has full responsibility for all drilling, completion and production operation.  
#Halliburton makes no representations or warranties, either expressed or 
#implied, including, but not limited to, the implied warranties of merchantability or fitness 
#for a particular purpose, with respect to the services rendered.  In no event will 
#Halliburton be liable for failure to obtain any particular results or for 
#any damages, including, but not limited to, indirect, special or consequential damages, 
#resulting from the use of any information or interpretation provided by Halliburton.
#
~A           TIME           GTDEPTH  GTPQH  GTTQ  GTTN   GTET   GTTVD  
# ...
   08:38:56.092.03-Feb-2020 4013.71 3131.82 64.40 11.00 339.01 3023.43
   08:38:56.292.03-Feb-2020 4013.71 3131.82 64.40 11.00 339.21 3023.43
   08:38:56.492.03-Feb-2020 4013.71 3131.89 64.40 11.00 339.41 3023.43
   08:38:56.692.03-Feb-2020 4013.71 3131.93 64.40 11.00 339.61 3023.43
   08:38:56.892.03-Feb-2020 4013.71 3131.90 64.40 11.00 339.81 3023.43
   08:38:57.092.03-Feb-2020 4013.71 3131.90 64.40 11.00 340.01 3023.43
   08:38:57.292.03-Feb-2020 4013.71 3131.90 64.40 11.00 340.21 3023.43
   08:38:57.492.03-Feb-2020 4013.71 3131.95 64.40 11.00 340.41 3023.43
   08:38:57.692.03-Feb-2020 4013.71 3131.93 64.40 11.00 340.61 3023.43
   08:38:57.892.03-Feb-2020 4013.71 3131.93 64.40 11.00 340.81 3023.43
   08:38:58.092.03-Feb-2020 4013.71 3131.93 64.40 11.00 341.01 3023.43
   08:38:58.292.03-Feb-2020 4013.71 3131.93 64.40 11.00 341.21 3023.43
   08:38:58.492.03-Feb-2020 4013.71 3132.08 64.40 11.00 341.41 3023.43
   08:38:58.692.03-Feb-2020 4013.71 3131.94 64.40 11.00 341.61 3023.43
   08:38:58.892.03-Feb-2020 4013.71 3132.03 64.40 11.00 341.81 3023.43
   08:38:59.092.03-Feb-2020 4013.71 3131.94 64.40 11.00 342.01 3023.43
   08:38:59.292.03-Feb-2020 4013.71 3131.94 64.40 11.00 342.21 3023.43
   08:38:59.492.03-Feb-2020 4013.71 3131.80 64.40 11.00 342.41 3023.43
   08:38:59.692.03-Feb-2020 4013.71 3132.01 64.40 11.00 342.61 3023.43
   08:38:59.892.03-Feb-2020 4013.71 3132.00 64.40 11.00 342.81 3023.43
   08:39:00.092.03-Feb-2020 4013.71 3131.99 64.40 11.00 343.01 3023.43
   08:39:00.292.03-Feb-2020 4013.71 3131.99 64.40 11.00 343.21 3023.43
   08:39:00.492.03-Feb-2020 4013.71 3131.73 64.40 11.00 343.41 3023.43
   08:39:00.692.03-Feb-2020 4013.71 3132.14 64.40 11.00 343.61 3023.43
   08:39:00.892.03-Feb-2020 4013.71 3131.96 64.40 11.00 343.81 3023.43
   08:39:01.092.03-Feb-2020 4013.71 3132.03 64.40 11.00 344.01 3023.43
   08:39:01.292.03-Feb-2020 4013.71 3132.03 64.40 11.00 344.21 3023.43
   08:39:01.492.03-Feb-2020 4013.71 3131.80 64.40 11.00 344.41 3023.43
   08:39:01.692.03-Feb-2020 4013.71 3132.15 64.40 11.00 344.61 3023.43
   08:39:01.892.03-Feb-2020 4013.71 3131.89 64.40 11.00 344.81 3023.43
   08:39:02.092.03-Feb-2020 4013.71 3132.06 64.40 11.00 345.01 3023.43
   08:39:02.292.03-Feb-2020 4013.71 3132.06 64.40 11.00 345.21 3023.43
   08:39:02.492.03-Feb-2020 4013.71 3132.06 64.40 11.00 345.41 3023.43
   08:39:02.692.03-Feb-2020 4013.71 3132.00 64.40 11.00 345.61 3023.43
   08:39:02.892.03-Feb-2020 4013.71 3132.02 64.40 11.00 345.81 3023.43
   08:39:03.092.03-Feb-2020 4013.71 3132.00 64.40 11.00 346.01 3023.43
   08:39:03.292.03-Feb-2020 4013.71 3132.00 64.40 11.00 346.21 3023.43
   08:39:03.492.03-Feb-2020 4013.71 3132.04 64.40 11.00 346.41 3023.43
   08:39:03.692.03-Feb-2020 4013.71 3132.02 64.40 11.00 346.61 3023.43
   08:39:03.892.03-Feb-2020 4013.71 3132.01 64.40 11.00 346.81 3023.43
   08:39:04.092.03-Feb-2020 4013.71 3132.01 64.40 11.00 347.01 3023.43
   08:39:04.292.03-Feb-2020 4013.71 3132.01 64.40 11.00 347.21 3023.43
   08:39:04.492.03-Feb-2020 4013.71 3132.06 64.40 11.00 347.41 3023.43
   08:39:04.692.03-Feb-2020 4013.71 3132.03 64.40 11.00 347.61 3023.43
   08:39:04.892.03-Feb-2020 4013.71 3131.85 64.40 11.00 347.81 3023.43
   08:39:05.092.03-Feb-2020 4013.71 3132.03 64.40 11.00 348.01 3023.43
   08:39:05.292.03-Feb-2020 4013.71 3132.03 64.40 11.00 348.21 3023.43
   08:39:05.492.03-Feb-2020 4013.71 3132.07 64.40 11.00 348.41 3023.43
   08:39:05.692.03-Feb-2020 4013.71 3132.03 64.40 11.00 348.61 3023.43
   08:39:05.892.03-Feb-2020 4013.71 3132.03 64.40 11.00 348.81 3023.43
   08:39:06.092.03-Feb-2020 4013.71 3132.03 64.40 11.00 349.01 3023.43
   08:39:06.292.03-Feb-2020 4013.71 3132.03 64.40 11.00 349.21 3023.43
   08:39:06.492.03-Feb-2020 4013.71 3132.05 64.40 11.00 349.41 3023.43
   08:39:06.692.03-Feb-2020 4013.71 3132.05 64.40 11.00 349.61 3023.43
   08:39:06.892.03-Feb-2020 4013.71 3132.04 64.40 11.00 349.81 3023.43
   08:39:07.092.03-Feb-2020 4013.71 3132.04 64.40 11.00 350.01 3023.43
   08:39:07.292.03-Feb-2020 4013.71 3132.04 64.40 11.00 350.21 3023.43
   08:39:07.492.03-Feb-2020 4013.71 3132.18 64.40 11.00 350.41 3023.43
   08:39:07.692.03-Feb-2020 4013.71 3131.98 64.40 11.00 350.61 3023.43
   08:39:07.892.03-Feb-2020 4013.71 3132.17 64.40 11.00 350.81 3023.43
   08:39:08.092.03-Feb-2020 4013.71 3132.03 64.40 11.00 351.01 3023.43
   08:39:08.292.03-Feb-2020 4013.71 3132.03 64.40 11.00 351.21 3023.43
   08:39:08.492.03-Feb-2020 4013.71 3131.82 64.40 11.00 351.41 3023.43
   08:39:08.692.03-Feb-2020 4013.71 3132.24 64.40 11.00 351.61 3023.43
   08:39:08.892.03-Feb-2020 4013.71 3132.03 64.40 11.00 351.81 3023.43
   08:39:09.092.03-Feb-2020 4013.71 3132.15 64.40 11.00 352.01 3023.43
   08:39:09.292.03-Feb-2020 4013.71 3132.15 64.40 11.00 352.21 3023.43
   08:39:09.492.03-Feb-2020 4013.71 3131.87 64.40 11.00 352.41 3023.43
   08:39:09.692.03-Feb-2020 4013.71 3132.24 64.40 11.00 352.61 3023.43
   08:39:09.892.03-Feb-2020 4013.71 3131.98 64.40 11.00 352.81 3023.43
   08:39:10.092.03-Feb-2020 4013.71 3132.15 64.40 11.00 353.01 3023.43
   08:39:10.292.03-Feb-2020 4013.71 3132.15 64.40 11.00 353.21 3023.43
   08:39:10.492.03-Feb-2020 4013.71 3132.06 64.40 11.00 353.41 3023.43
   08:39:10.692.03-Feb-2020 4013.71 3132.09 64.40 11.00 353.61 3023.43
   08:39:10.892.03-Feb-2020 4013.71 3132.02 64.40 11.00 353.81 3023.43
   08:39:11.092.03-Feb-2020 4013.71 3132.14 64.40 11.00 354.01 3023.43
   08:39:11.292.03-Feb-2020 4013.71 3132.14 64.40 11.00 354.21 3023.43
   08:39:11.492.03-Feb-2020 4013.71 3132.16 64.40 11.00 354.41 3023.43
   08:39:11.692.03-Feb-2020 4013.71 3132.09 64.40 11.00 354.61 3023.43
   08:39:11.892.03-Feb-2020 4013.71 3132.12 64.40 11.00 354.81 3023.43
   08:39:12.092.03-Feb-2020 4013.71 3132.09 64.40 11.00 355.01 3023.43
   08:39:12.292.03-Feb-2020 4013.71 3132.09 64.40 11.00 355.21 3023.43
   08:39:12.492.03-Feb-2020 4013.71 3132.14 64.40 11.00 355.41 3023.43
   08:39:12.692.03-Feb-2020 4013.71 3132.11 64.40 11.00 355.61 3023.43
   08:39:12.892.03-Feb-2020 4013.71 3132.09 64.40 11.00 355.81 3023.43
   08:39:13.092.03-Feb-2020 4013.71 3132.11 64.40 11.00 356.01 3023.43
   08:39:13.292.03-Feb-2020 4013.71 3132.11 64.40 11.00 356.21 3023.43
   08:39:13.492.03-Feb-2020 4013.71 3132.14 64.40 11.00 356.41 3023.43
   08:39:13.692.03-Feb-2020 4013.71 3132.14 64.40 11.00 356.61 3023.43
   08:39:13.892.03-Feb-2020 4013.71 3131.84 64.40 11.00 356.81 3023.43
   08:39:14.093.03-Feb-2020 4013.71 3132.26 64.40 11.00 357.01 3023.43
   08:39:14.293.03-Feb-2020 4013.71 3132.26 64.40 11.00 357.21 3023.43
   08:39:14.493.03-Feb-2020 4013.71 3132.16 64.40 11.00 357.41 3023.43
   08:39:14.693.03-Feb-2020 4013.71 3132.12 64.40 11.00 357.61 3023.43
   08:39:14.893.03-Feb-2020 4013.71 3132.13 64.40 11.00 357.81 3023.43
   08:39:15.093.03-Feb-2020 4013.71 3132.10 64.40 11.00 358.01 3023.43
   08:39:15.293.03-Feb-2020 4013.71 3132.10 64.40 11.00 358.21 3023.43
   08:39:15.493.03-Feb-2020 4013.71 3132.14 64.40 11.00 358.41 3023.43
   08:39:15.693.03-Feb-2020 4013.71 3132.12 64.40 11.00 358.61 3023.43
   08:39:15.893.03-Feb-2020 4013.71 3132.14 64.40 11.00 358.81 3023.43
   08:39:16.093.03-Feb-2020 4013.71 3132.13 64.40 11.00 359.01 3023.43
   08:39:16.293.03-Feb-2020 4013.71 3132.13 64.40 11.00 359.21 3023.43
   08:39:16.493.03-Feb-2020 4013.71 3132.11 64.40 11.00 359.41 3023.43
   08:39:16.693.03-Feb-2020 4013.71 3132.05 64.40 11.00 359.61 3023.43
   08:39:16.893.03-Feb-2020 4013.71 3132.23 64.40 11.00 359.81 3023.43
   08:39:17.093.03-Feb-2020 4013.71 3132.16 64.40 11.00 360.01 3023.43
   08:39:17.293.03-Feb-2020 4013.71 3132.16 64.40 11.00 360.21 3023.43
   08:39:17.493.03-Feb-2020 4013.71 3131.88 64.40 11.00 360.41 3023.43
   08:39:17.693.03-Feb-2020 4013.71 3132.33 64.40 11.00 360.61 3023.43
   08:39:17.893.03-Feb-2020 4013.71 3132.11 64.40 11.00 360.81 3023.43
   08:39:18.093.03-Feb-2020 4013.71 3132.22 64.40 11.00 361.01 3023.43
   08:39:18.293.03-Feb-2020 4013.71 3132.22 64.40 11.00 361.21 3023.43
   08:39:18.493.03-Feb-2020 4013.71 3132.09 64.40 11.00 361.41 3023.43
