~Version Information
 VERS.                  2.0:   CWLS log ASCII Standard -VERSION 2.0
 WRAP.                   NO:   One line per depth step
~Well Information Block
#MNEM.UNIT     VALUE/NAME     DESCRIPTION
#---------     -----------    ---------------------------
 STRT.S             05:00:30 03-Feb-20: START TIME 05:00:30 03-Feb-20
 STOP.S             05:08:21 03-Feb-20: STOP TIME  05:08:21 03-Feb-20
 STEP.S                   0.00: STEP TIME
 NULL.                 -999.25: NULL VALUE
 DFWT.                        :  DIST FWL TEXT
 DFST.                        :  DIST FSL TEXT
 DMF .             Drill Floor:  DRILL MEAS FROM
 STIM.      09.30.00 26-Dec-19:  START TIME
 DATE.      08.00.00 20-Jan-20:  END TIME
 SPUD.               23-Nov-19:  SPUD DATE
 NREF.                    Grid:  NORTH REFERENCE
 HPTY.       Minimum Curvature:  HOLE POS TYPE
 DMOD.             Drill Model:  DRILL MOD DESC
 SVYD.                  Survey:  SURVEY DESC
 ILTD.               Lithology:  INTERP LTH DESC
 FTOP.          Formation Tops:  FORM TOPS DESC
 SON .        AZ-XX-0906192647:  JOB NUMBER
 WTYP.                Deviated:  WELL TYPE
 COMP.     BP Exploration (Caspian Sea) Ltd:  COMPANY
 BASE.              Azerbaijan:  LOGGING EQUIPMENT BASE LOCATION
 REGN.                 Eurasia:  REGION
 FLD .                     ACG:  FIELD NAME
 SRVC.              KCA Deutag:  CONTRACTOR
 MWDS.                    Baku:  MWD SHOP
 WELL.     A10 (Slot 20) - SCP:  WELL NAME
 JOBN.        AZ-XX-0906192647:  JOB TICKET NUMB
 RIG .                 Chirag1:  RIG NAME
 DCON.     Halliburton Sperry Drilling:  DIRECTNL CONTR
 UNIT.                     N/A:  LOGGING EQUIPMENT ID
 PDAT.          Mean Sea Level:  PERMANENT DATUM
 MDS .        Operator Entered:  MAG DATA SOURCE
 CTRY.              Azerbaijan:  COUNTRY NAME
 UWI .            /AZE00000090:  UNIQUE WELL IDENTIFIER
 API .            /AZE00000090:  API NUMBER
 CNTY.                        :  COUNTY
 PROV.                        :  PROVINCE
 STAT.                        :  STATE
 LOC .                        :  LOCATION
 LMF .             Drill Floor:  LOG MEASURED FROM
 TVDS.m                  36.60:  TVDSS CORRECTN
 LATI.deg                40.08:  LATITUDE
 LONG.deg                51.24:  LONGITUDE
 WHNS.m                  -7.94:  WELL HEAD N/S
 WHEW.m                   1.56:  WELL HEAD E/W
 UTMX.m              520429.26:  UTM X
 UTMY.m             4438973.87:  UTM Y
 DFWL.m                   0.00:  DISTANCE FWL
 DFSL.m                   0.00:  DISTANCE FSL
 SDEP.m                1455.00:  START DEPTH
 TDD .m                4047.51:  TOTAL DEPTH (DRILLER)
 VSDR.deg               112.75:  VERT SEC DIRECT
 GVFD.g                   1.00:  GRAVITY FIELD
 MFLD.nT              50261.00:  MAGNETIC FIELD
 MDIP.deg                59.52:  MAGNETIC DIP
 MDEC.deg                 6.42:  MAGNETIC DECL
 GRDC.deg                 0.17:  GRID CORRECTION
 AZTC.deg                 6.25:  AZM TOTAL CORR
 EPD .m                   0.00:  ELEVATION
 EGL .m                   0.00:  GROUND ELEVATION
 WDMS.m                 121.00:  WD ELEV
 APD .m                  36.60:  DEPTH ABOVE PD
 AGAP.m                  36.60:  AIR GAP
 VSEW.m                   1.56:  VERT SEC E/W
 VSNS.m                  -7.94:  VERT SEC N/S
 DEP .m                1140.01:  DEPTH
 EKB .m                  36.60:  KB ELEVATION
 EDF .m                  36.60:  DF ELEVATION
 VSC .                       0:  VS TO CLOSURE
 MAGU.                 1849206:  MAGUTM CHECKSUM
~Parameter Information Block
#MNEM.UNIT       Value        Description
#---------     -----------    ---------------------------
 AV  .mps                 1.70:  Ann Velocity 
 AVMX.mps                 2.30:  Max Ann Veloc 
 AZIF.deg               137.03:  Azm, Final 
 BHAT.                   Other:  BHA Type 
 BROT.°/30m               0.80:  Build Rotating 
 BS  .in                  8.00:  Bit Size 
 BTPL.psig              161.00:  Bit Press Loss 
 CABU.                      No:  Customer Abuse 
 COMM.                     ,¶W:  Run Comments 1 
 TCS .hr                  9.59:  Time Ciculation Ended 
 CV  .mps                 3.76:  Crit Velocity 
 CVMX.mps                 4.26:  Max Crit Veloc 
 DD1 .         Intigam Rahimov:  Direct Drillr 1 
 DD2 .          Rashad Gojayev:  Direct Drillr 2 
 DDSV.                   Other:  DD Service 
 DEFF.%                 100.00:  % Det Eff 
 DLRX.°/30m               1.44:  Dogleg Rot Max 
 DLSO.°/30m               0.00:  Dogleg Oriented 
 DLSX.°/30m               0.00:  Dogleg Str Max 
 DRET.      03.31.12 02-Feb-20:  Drill End Time 
 DRST.      03.31.12 02-Feb-20:  Drill Start Tim 
 DTIM.hr                  1.99:  Time Drilling 
 EDEP.m                4047.51:  End Depth 
 ENG1.           Eldar Hajiyev:  Engineer 1 
 ENG2.          Rasim Hashimov:  Engineer 2 
 ENG3.          Rustam Safarov:  Engineer 3 
 ETIM.      03.31.12 02-Feb-20:  End Time 
 FLOI.gpm               300.00:  Flow In 
 FLON.gpm               250.00:  Flow In Min 
 FLOS.cptm                0.00:  Fluid Loss 
 FLOX.gpm               330.00:  Flow In Max 
 HFLO.                      No:  High Flow 
 HPRE.                      No:  High Pressure 
 HTEM.                      No:  High Temp 
 HYDO.m                   2.50:  Hydro Offset 
 IFIN.deg                39.54:  Inc, Final 
 IMAX.deg                41.14:  Inc Max 
 IMIN.deg                39.81:  Inc Min 
 IMND.m                4005.21:  Inc Min Depth 
 IMXD.m                3948.42:  Inc Max Depth 
 JARR.                      No:  Jarring 
 LETM.      03.31.12 02-Feb-20:  Log End Time 
 LOST.hr                     0:  Lost Rig Time 
 LSTM.      03.31.12 02-Feb-20:  Log Start Time 
 MDCL.ppm             35000.00:  Mud Chlorides 
 MDES.     Inversion Oil/Synthetic:  Mud Desc 
 DFD .sg                  1.32:  Mud Density 
 MDMN.sg                  1.32:  Dens Mud Min 
 MDMX.sg                  1.32:  Dens Mud Max 
 MOIL.                      59:  Run Mud Oil % 
 MOWR.                   71:29:  Run Mud OWR 
 MSND.                       0:  Run Mud Sand % 
 MSOL.                      17:  Run Mud Solids% 
 DFV .spqt               86.00:  Mud Viscosity 
 MWOD.in                  4.75:  MWD Tool OD 
 MWSI.                      No:  Serv Intrp, MWD 
 OTIM.hr                 46.72:  Time Operating 
 PCON.           Look Like New:  Pad Condition 
 PMAX.psia             3300.00:  Press Op, Max 
 PV  .cP                 30.00:  Mud PV 
 RUN .                     400:  Run Number 
 ROPA.m/hr               35.00:  ROP Avg 
 ROPN.m/hr               25.00:  ROP Min 
 ROPX.m/hr               40.00:  ROP Max 
 RPMA.rpm                80.00:  RPM Surface Avg 
 RPMN.rpm                60.00:  RPM Surface Min 
 RPMX.rpm               100.00:  RPM Surface Max 
 RRUN.                     400:  Rig Run Number 
 RTIM.hr                  1.99:  Time Reaming 
 SAZI.deg               133.93:  Azm, Start 
 SDEP.m                4047.51:  Start Depth 
 SIDD.                      No:  Serv Intrp, DD 
 SINC.deg                40.28:  Inc, Start 
 SPPA.psig             3250.00:  SPP Avg 
 SPPN.psig             3200.00:  SPP Min 
 SPPX.psig             3300.00:  SPP Max 
 STIM.      03.31.12 02-Feb-20:  Start Time 
 SVCS.                 DD, MWD:  Services 
 SVER.                    9.20:  Sperry Version 
 TDAT.m                  47.00:  Tot Depth Attmp 
 TDDF.                      No:  Trip for DD 
 TFF .                      No:  Trip for Fail 
 TQAA.f-kp                0.00:  Torque Abs Avg 
 TQAN.f-kp                0.00:  Torque Abs Min 
 TQAX.f-kp                0.00:  Torque Abs Max 
 TRRT.°/30m               0.70:  Turn Rotating 
 MRT .                    HCIM:  Maximum Recorded Temperature 
 TTMX.degC               70.59:  Max Tool Temp 
 VS01.             90598770F11:  Virtual Str1 SN 
 VS02.             90598769F11:  Virtual Str2 SN 
 VS03.            90515978Z1W1:  Virtual Str3 SN 
 VS04.          90584144R12X14:  Virtual Str4 SN 
 WBMN.klb                 0.00:  WOB Min 
 WITN.            Peter Wilson:  Customer Rep 
 WOBA.klb                 0.00:  WOB Avg 
 WOBX.klb                 0.00:  WOB Max 
 YP  .lhf2               29.00:  Yield Point 
~Curve Information Block
#MNEM.UNIT                 API CODE     Curve Description
#---------               -----------    ---------------------------
 TIME.HHMMSS            00 000 000 000:  GT Time & Date
 GTDEPTH.m              00 000 000 000:  GT Depth
 GTPQH.psia             00 000 000 000:  GT HR Quartz Pressure
 GTTQ.degC              00 000 000 000:  GT Quartz Temperature
 GTTN.NONE              00 000 000 000:  GT Test Number
 GTET.sec               00 000 000 000:  GT Elapsed Test Time
 GTTVD.m                00 000 000 000:  GT True Vertical Depth
#Other Information
#
#WARRANTY: Halliburton will use its best efforts to furnish customers with 
#accurate information and interpretations that are part of, and incident to, the services 
#provided.  However, Halliburton cannot and does not warrant the accuracy 
#or correctness of such information and interpretations.  Under no circumstances should any 
#such information or interpretation be relied upon as the sole basis for any drilling, 
#completion, production, or financial decision or any procedure involving any risk to the 
#safety of any drilling venture, drilling rig or its crew or any other third party.  The 
#Customer has full responsibility for all drilling, completion and production operation.  
#Halliburton makes no representations or warranties, either expressed or 
#implied, including, but not limited to, the implied warranties of merchantability or fitness 
#for a particular purpose, with respect to the services rendered.  In no event will 
#Halliburton be liable for failure to obtain any particular results or for 
#any damages, including, but not limited to, indirect, special or consequential damages, 
#resulting from the use of any information or interpretation provided by Halliburton.
#
~A           TIME           GTDEPTH  GTPQH  GTTQ  GTTN  GTET   GTTVD  
# ...
   05:03:34.000.03-Feb-2020 4009.01 6075.37 66.00 4.00 184.00 3019.83
   05:03:34.200.03-Feb-2020 4009.01 6075.37 66.00 4.00 184.20 3019.83
   05:03:34.400.03-Feb-2020 4009.01 6080.36 66.00 4.00 184.40 3019.83
   05:03:34.600.03-Feb-2020 4009.01 6082.48 65.99 4.00 184.60 3019.83
   05:03:34.800.03-Feb-2020 4009.01 6082.95 65.99 4.00 184.80 3019.83
   05:03:35.000.03-Feb-2020 4009.01 6084.44 65.99 4.00 185.00 3019.83
   05:03:35.200.03-Feb-2020 4009.01 6084.44 65.99 4.00 185.20 3019.83
   05:03:35.400.03-Feb-2020 4009.01 6084.59 65.99 4.00 185.40 3019.83
   05:03:35.600.03-Feb-2020 4009.01 6084.00 65.99 4.00 185.60 3019.83
   05:03:35.800.03-Feb-2020 4009.01 6084.38 65.99 4.00 185.80 3019.83
   05:03:36.000.03-Feb-2020 4009.01 6083.82 65.99 4.00 186.00 3019.83
   05:03:36.200.03-Feb-2020 4009.01 6083.82 65.99 4.00 186.20 3019.83
   05:03:36.400.03-Feb-2020 4009.01 6085.68 65.99 4.00 186.40 3019.83
   05:03:36.600.03-Feb-2020 4009.01 6079.70 65.99 4.00 186.60 3019.83
   05:03:36.800.03-Feb-2020 4009.01 6079.40 65.99 4.00 186.80 3019.83
   05:03:37.000.03-Feb-2020 4009.01 6081.45 65.99 4.00 187.00 3019.83
   05:03:37.200.03-Feb-2020 4009.01 6081.45 65.99 4.00 187.20 3019.83
   05:03:37.400.03-Feb-2020 4009.01 6083.77 65.99 4.00 187.40 3019.83
   05:03:37.600.03-Feb-2020 4009.01 6085.44 65.99 4.00 187.60 3019.83
   05:03:37.800.03-Feb-2020 4009.01 6080.69 65.99 4.00 187.80 3019.83
   05:03:38.000.03-Feb-2020 4009.01 6080.53 65.99 4.00 188.00 3019.83
   05:03:38.200.03-Feb-2020 4009.01 6080.53 65.99 4.00 188.20 3019.83
   05:03:38.400.03-Feb-2020 4009.01 6082.42 65.99 4.00 188.40 3019.83
   05:03:38.600.03-Feb-2020 4009.01 6082.21 65.99 4.00 188.60 3019.83
   05:03:38.800.03-Feb-2020 4009.01 6084.11 65.99 4.00 188.80 3019.83
   05:03:39.000.03-Feb-2020 4009.01 6084.17 65.99 4.00 189.00 3019.83
   05:03:39.200.03-Feb-2020 4009.01 6084.17 65.99 4.00 189.20 3019.83
   05:03:39.400.03-Feb-2020 4009.01 6083.18 65.99 4.00 189.40 3019.83
   05:03:39.600.03-Feb-2020 4009.01 6079.99 65.99 4.00 189.60 3019.83
   05:03:39.800.03-Feb-2020 4009.01 6085.84 65.99 4.00 189.80 3019.83
   05:03:40.000.03-Feb-2020 4009.01 6084.04 65.99 4.00 190.00 3019.83
   05:03:40.200.03-Feb-2020 4009.01 6084.04 65.99 4.00 190.20 3019.83
   05:03:40.400.03-Feb-2020 4009.01 6083.78 65.99 4.00 190.40 3019.83
   05:03:40.600.03-Feb-2020 4009.01 6071.63 65.99 4.00 190.60 3019.83
   05:03:40.800.03-Feb-2020 4009.01 6082.70 65.99 4.00 190.80 3019.83
   05:03:41.000.03-Feb-2020 4009.01 6080.65 65.99 4.00 191.00 3019.83
   05:03:41.200.03-Feb-2020 4009.01 6080.65 65.99 4.00 191.20 3019.83
   05:03:41.400.03-Feb-2020 4009.01 6082.36 65.98 4.00 191.40 3019.83
   05:03:41.600.03-Feb-2020 4009.01 6083.47 65.98 4.00 191.60 3019.83
   05:03:41.800.03-Feb-2020 4009.01 6082.92 65.98 4.00 191.80 3019.83
   05:03:42.000.03-Feb-2020 4009.01 6082.04 65.98 4.00 192.00 3019.83
   05:03:42.200.03-Feb-2020 4009.01 6082.04 65.98 4.00 192.20 3019.83
   05:03:42.400.03-Feb-2020 4009.01 6085.59 65.98 4.00 192.40 3019.83
   05:03:42.600.03-Feb-2020 4009.01 6084.86 65.98 4.00 192.60 3019.83
   05:03:42.800.03-Feb-2020 4009.01 6085.08 65.98 4.00 192.80 3019.83
   05:03:43.000.03-Feb-2020 4009.01 6084.48 65.98 4.00 193.00 3019.83
   05:03:43.200.03-Feb-2020 4009.01 6084.48 65.98 4.00 193.20 3019.83
   05:03:43.400.03-Feb-2020 4009.01 6082.46 65.98 4.00 193.40 3019.83
   05:03:43.600.03-Feb-2020 4009.01 6084.78 65.98 4.00 193.60 3019.83
   05:03:43.800.03-Feb-2020 4009.01 6075.99 65.98 4.00 193.80 3019.83
   05:03:44.000.03-Feb-2020 4009.01 6083.67 65.98 4.00 194.00 3019.83
   05:03:44.200.03-Feb-2020 4009.01 6083.67 65.98 4.00 194.20 3019.83
   05:03:44.400.03-Feb-2020 4009.01 6082.74 65.98 4.00 194.40 3019.83
   05:03:44.600.03-Feb-2020 4009.01 6081.54 65.98 4.00 194.60 3019.83
   05:03:44.800.03-Feb-2020 4009.01 6082.86 65.98 4.00 194.80 3019.83
   05:03:45.000.03-Feb-2020 4009.01 6084.06 65.98 4.00 195.00 3019.83
   05:03:45.200.03-Feb-2020 4009.01 6084.06 65.98 4.00 195.20 3019.83
   05:03:45.400.03-Feb-2020 4009.01 6083.49 65.98 4.00 195.40 3019.83
   05:03:45.600.03-Feb-2020 4009.01 6083.53 65.98 4.00 195.60 3019.83
   05:03:45.800.03-Feb-2020 4009.01 6083.57 65.98 4.00 195.80 3019.83
   05:03:46.000.03-Feb-2020 4009.01 6082.83 65.98 4.00 196.00 3019.83
   05:03:46.200.03-Feb-2020 4009.01 6082.83 65.98 4.00 196.20 3019.83
   05:03:46.400.03-Feb-2020 4009.01 6084.77 65.98 4.00 196.40 3019.83
   05:03:46.600.03-Feb-2020 4009.01 6072.22 65.98 4.00 196.60 3019.83
   05:03:46.800.03-Feb-2020 4009.01 6084.83 65.98 4.00 196.80 3019.83
   05:03:47.000.03-Feb-2020 4009.01 6080.78 65.98 4.00 197.00 3019.83
   05:03:47.200.03-Feb-2020 4009.01 6080.78 65.98 4.00 197.20 3019.83
   05:03:47.400.03-Feb-2020 4009.01 6083.46 65.98 4.00 197.40 3019.83
   05:03:47.600.03-Feb-2020 4009.01 6085.19 65.98 4.00 197.60 3019.83
   05:03:47.800.03-Feb-2020 4009.01 6075.85 65.98 4.00 197.80 3019.83
   05:03:48.000.03-Feb-2020 4009.01 6084.05 65.98 4.00 198.00 3019.83
   05:03:48.200.03-Feb-2020 4009.01 6084.05 65.98 4.00 198.20 3019.83
   05:03:48.400.03-Feb-2020 4009.01 6083.12 65.97 4.00 198.40 3019.83
   05:03:48.600.03-Feb-2020 4009.01 6082.54 65.97 4.00 198.60 3019.83
   05:03:48.800.03-Feb-2020 4009.01 6084.12 65.97 4.00 198.80 3019.83
   05:03:49.000.03-Feb-2020 4009.01 6079.42 65.97 4.00 199.00 3019.83
   05:03:49.200.03-Feb-2020 4009.01 6079.42 65.97 4.00 199.20 3019.83
   05:03:49.400.03-Feb-2020 4009.01 6078.43 65.97 4.00 199.40 3019.83
   05:03:49.600.03-Feb-2020 4009.01 6084.68 65.97 4.00 199.60 3019.83
   05:03:49.800.03-Feb-2020 4009.01 6084.76 65.97 4.00 199.80 3019.83
   05:03:50.000.03-Feb-2020 4009.01 6084.46 65.97 4.00 200.00 3019.83
   05:03:50.200.03-Feb-2020 4009.01 6084.46 65.97 4.00 200.20 3019.83
   05:03:50.400.03-Feb-2020 4009.01 6084.04 65.97 4.00 200.40 3019.83
   05:03:50.600.03-Feb-2020 4009.01 6070.84 65.97 4.00 200.60 3019.83
   05:03:50.800.03-Feb-2020 4009.01 6083.98 65.97 4.00 200.80 3019.83
   05:03:51.000.03-Feb-2020 4009.01 6080.48 65.97 4.00 201.00 3019.83
   05:03:51.200.03-Feb-2020 4009.01 6080.48 65.97 4.00 201.20 3019.83
   05:03:51.400.03-Feb-2020 4009.01 6082.51 65.97 4.00 201.40 3019.83
   05:03:51.600.03-Feb-2020 4009.01 6083.36 65.97 4.00 201.60 3019.83
   05:03:51.800.03-Feb-2020 4009.01 6081.63 65.97 4.00 201.80 3019.83
   05:03:52.000.03-Feb-2020 4009.01 6084.08 65.97 4.00 202.00 3019.83
   05:03:52.200.03-Feb-2020 4009.01 6084.08 65.97 4.00 202.20 3019.83
   05:03:52.400.03-Feb-2020 4009.01 6084.90 65.97 4.00 202.40 3019.83
   05:03:52.600.03-Feb-2020 4009.01 6085.12 65.97 4.00 202.60 3019.83
   05:03:52.800.03-Feb-2020 4009.01 6084.53 65.97 4.00 202.80 3019.83
   05:03:53.000.03-Feb-2020 4009.01 6083.90 65.97 4.00 203.00 3019.83
   05:03:53.200.03-Feb-2020 4009.01 6083.90 65.97 4.00 203.20 3019.83
   05:03:53.400.03-Feb-2020 4009.01 6081.66 65.97 4.00 203.40 3019.83
   05:03:53.600.03-Feb-2020 4009.01 6084.79 65.97 4.00 203.60 3019.83
   05:03:53.800.03-Feb-2020 4009.01 6075.88 65.97 4.00 203.80 3019.83
   05:03:54.000.03-Feb-2020 4009.01 6082.72 65.97 4.00 204.00 3019.83
   05:03:54.200.03-Feb-2020 4009.01 6082.72 65.97 4.00 204.20 3019.83
   05:03:54.400.03-Feb-2020 4009.01 6082.68 65.97 4.00 204.40 3019.83
   05:03:54.600.03-Feb-2020 4009.01 6080.96 65.97 4.00 204.60 3019.83
   05:03:54.800.03-Feb-2020 4009.01 6083.48 65.97 4.00 204.80 3019.83
   05:03:55.000.03-Feb-2020 4009.01 6084.25 65.97 4.00 205.00 3019.83
   05:03:55.200.03-Feb-2020 4009.01 6084.25 65.97 4.00 205.20 3019.83
   05:03:55.400.03-Feb-2020 4009.01 6083.56 65.96 4.00 205.40 3019.83
   05:03:55.600.03-Feb-2020 4009.01 6083.57 65.96 4.00 205.60 3019.83
   05:03:55.800.03-Feb-2020 4009.01 6083.00 65.96 4.00 205.80 3019.83
   05:03:56.000.03-Feb-2020 4009.01 6083.49 65.96 4.00 206.00 3019.83
   05:03:56.200.03-Feb-2020 4009.01 6083.49 65.96 4.00 206.20 3019.83
   05:03:56.400.03-Feb-2020 4009.01 6084.73 65.96 4.00 206.40 3019.83
   05:03:56.600.03-Feb-2020 4009.01 6072.07 65.96 4.00 206.60 3019.83
   05:03:56.800.03-Feb-2020 4009.01 6084.66 65.96 4.00 206.80 3019.83
