~Version Information
 VERS.                  2.0:   CWLS log ASCII Standard -VERSION 2.0
 WRAP.                   NO:   One line per depth step
~Well Information Block
#MNEM.UNIT     VALUE/NAME     DESCRIPTION
#---------     -----------    ---------------------------
 STRT.S             07:08:20 03-Feb-20: START TIME 07:08:20 03-Feb-20
 STOP.S             07:16:05 03-Feb-20: STOP TIME  07:16:05 03-Feb-20
 STEP.S                   0.00: STEP TIME
 NULL.                 -999.25: NULL VALUE
 DFWT.                        :  DIST FWL TEXT
 DFST.                        :  DIST FSL TEXT
 DMF .             Drill Floor:  DRILL MEAS FROM
 STIM.      09.30.00 26-Dec-19:  START TIME
 DATE.      08.00.00 20-Jan-20:  END TIME
 SPUD.               23-Nov-19:  SPUD DATE
 NREF.                    Grid:  NORTH REFERENCE
 HPTY.       Minimum Curvature:  HOLE POS TYPE
 DMOD.             Drill Model:  DRILL MOD DESC
 SVYD.                  Survey:  SURVEY DESC
 ILTD.               Lithology:  INTERP LTH DESC
 FTOP.          Formation Tops:  FORM TOPS DESC
 SON .        AZ-XX-0906192647:  JOB NUMBER
 WTYP.                Deviated:  WELL TYPE
 COMP.     BP Exploration (Caspian Sea) Ltd:  COMPANY
 BASE.              Azerbaijan:  LOGGING EQUIPMENT BASE LOCATION
 REGN.                 Eurasia:  REGION
 FLD .                     ACG:  FIELD NAME
 SRVC.              KCA Deutag:  CONTRACTOR
 MWDS.                    Baku:  MWD SHOP
 WELL.     A10 (Slot 20) - SCP:  WELL NAME
 JOBN.        AZ-XX-0906192647:  JOB TICKET NUMB
 RIG .                 Chirag1:  RIG NAME
 DCON.     Halliburton Sperry Drilling:  DIRECTNL CONTR
 UNIT.                     N/A:  LOGGING EQUIPMENT ID
 PDAT.          Mean Sea Level:  PERMANENT DATUM
 MDS .        Operator Entered:  MAG DATA SOURCE
 CTRY.              Azerbaijan:  COUNTRY NAME
 UWI .            /AZE00000090:  UNIQUE WELL IDENTIFIER
 API .            /AZE00000090:  API NUMBER
 CNTY.                        :  COUNTY
 PROV.                        :  PROVINCE
 STAT.                        :  STATE
 LOC .                        :  LOCATION
 LMF .             Drill Floor:  LOG MEASURED FROM
 TVDS.m                  36.60:  TVDSS CORRECTN
 LATI.deg                40.08:  LATITUDE
 LONG.deg                51.24:  LONGITUDE
 WHNS.m                  -7.94:  WELL HEAD N/S
 WHEW.m                   1.56:  WELL HEAD E/W
 UTMX.m              520429.26:  UTM X
 UTMY.m             4438973.87:  UTM Y
 DFWL.m                   0.00:  DISTANCE FWL
 DFSL.m                   0.00:  DISTANCE FSL
 SDEP.m                1455.00:  START DEPTH
 TDD .m                4047.51:  TOTAL DEPTH (DRILLER)
 VSDR.deg               112.75:  VERT SEC DIRECT
 GVFD.g                   1.00:  GRAVITY FIELD
 MFLD.nT              50261.00:  MAGNETIC FIELD
 MDIP.deg                59.52:  MAGNETIC DIP
 MDEC.deg                 6.42:  MAGNETIC DECL
 GRDC.deg                 0.17:  GRID CORRECTION
 AZTC.deg                 6.25:  AZM TOTAL CORR
 EPD .m                   0.00:  ELEVATION
 EGL .m                   0.00:  GROUND ELEVATION
 WDMS.m                 121.00:  WD ELEV
 APD .m                  36.60:  DEPTH ABOVE PD
 AGAP.m                  36.60:  AIR GAP
 VSEW.m                   1.56:  VERT SEC E/W
 VSNS.m                  -7.94:  VERT SEC N/S
 DEP .m                1140.01:  DEPTH
 EKB .m                  36.60:  KB ELEVATION
 EDF .m                  36.60:  DF ELEVATION
 VSC .                       0:  VS TO CLOSURE
 MAGU.                 1849206:  MAGUTM CHECKSUM
~Parameter Information Block
#MNEM.UNIT       Value        Description
#---------     -----------    ---------------------------
 AV  .mps                 1.70:  Ann Velocity 
 AVMX.mps                 2.30:  Max Ann Veloc 
 AZIF.deg               137.03:  Azm, Final 
 BHAT.                   Other:  BHA Type 
 BROT.°/30m               0.80:  Build Rotating 
 BS  .in                  8.00:  Bit Size 
 BTPL.psig              161.00:  Bit Press Loss 
 CABU.                      No:  Customer Abuse 
 COMM.                     ?\:  Run Comments 1 
 TCS .hr                  9.59:  Time Ciculation Ended 
 CV  .mps                 3.76:  Crit Velocity 
 CVMX.mps                 4.26:  Max Crit Veloc 
 DD1 .         Intigam Rahimov:  Direct Drillr 1 
 DD2 .          Rashad Gojayev:  Direct Drillr 2 
 DDSV.                   Other:  DD Service 
 DEFF.%                 100.00:  % Det Eff 
 DLRX.°/30m               1.44:  Dogleg Rot Max 
 DLSO.°/30m               0.00:  Dogleg Oriented 
 DLSX.°/30m               0.00:  Dogleg Str Max 
 DRET.      03.31.12 02-Feb-20:  Drill End Time 
 DRST.      03.31.12 02-Feb-20:  Drill Start Tim 
 DTIM.hr                  1.99:  Time Drilling 
 EDEP.m                4047.51:  End Depth 
 ENG1.           Eldar Hajiyev:  Engineer 1 
 ENG2.          Rasim Hashimov:  Engineer 2 
 ENG3.          Rustam Safarov:  Engineer 3 
 ETIM.      03.31.12 02-Feb-20:  End Time 
 FLOI.gpm               300.00:  Flow In 
 FLON.gpm               250.00:  Flow In Min 
 FLOS.cptm                0.00:  Fluid Loss 
 FLOX.gpm               330.00:  Flow In Max 
 HFLO.                      No:  High Flow 
 HPRE.                      No:  High Pressure 
 HTEM.                      No:  High Temp 
 HYDO.m                   2.50:  Hydro Offset 
 IFIN.deg                39.54:  Inc, Final 
 IMAX.deg                41.14:  Inc Max 
 IMIN.deg                39.81:  Inc Min 
 IMND.m                4005.21:  Inc Min Depth 
 IMXD.m                3948.42:  Inc Max Depth 
 JARR.                      No:  Jarring 
 LETM.      03.31.12 02-Feb-20:  Log End Time 
 LOST.hr                     0:  Lost Rig Time 
 LSTM.      03.31.12 02-Feb-20:  Log Start Time 
 MDCL.ppm             35000.00:  Mud Chlorides 
 MDES.     Inversion Oil/Synthetic:  Mud Desc 
 DFD .sg                  1.32:  Mud Density 
 MDMN.sg                  1.32:  Dens Mud Min 
 MDMX.sg                  1.32:  Dens Mud Max 
 MOIL.                      59:  Run Mud Oil % 
 MOWR.                   71:29:  Run Mud OWR 
 MSND.                       0:  Run Mud Sand % 
 MSOL.                      17:  Run Mud Solids% 
 DFV .spqt               86.00:  Mud Viscosity 
 MWOD.in                  4.75:  MWD Tool OD 
 MWSI.                      No:  Serv Intrp, MWD 
 OTIM.hr                 46.72:  Time Operating 
 PCON.           Look Like New:  Pad Condition 
 PMAX.psia             3300.00:  Press Op, Max 
 PV  .cP                 30.00:  Mud PV 
 RUN .                     400:  Run Number 
 ROPA.m/hr               35.00:  ROP Avg 
 ROPN.m/hr               25.00:  ROP Min 
 ROPX.m/hr               40.00:  ROP Max 
 RPMA.rpm                80.00:  RPM Surface Avg 
 RPMN.rpm                60.00:  RPM Surface Min 
 RPMX.rpm               100.00:  RPM Surface Max 
 RRUN.                     400:  Rig Run Number 
 RTIM.hr                  1.99:  Time Reaming 
 SAZI.deg               133.93:  Azm, Start 
 SDEP.m                4047.51:  Start Depth 
 SIDD.                      No:  Serv Intrp, DD 
 SINC.deg                40.28:  Inc, Start 
 SPPA.psig             3250.00:  SPP Avg 
 SPPN.psig             3200.00:  SPP Min 
 SPPX.psig             3300.00:  SPP Max 
 STIM.      03.31.12 02-Feb-20:  Start Time 
 SVCS.                 DD, MWD:  Services 
 SVER.                    9.20:  Sperry Version 
 TDAT.m                  47.00:  Tot Depth Attmp 
 TDDF.                      No:  Trip for DD 
 TFF .                      No:  Trip for Fail 
 TQAA.f-kp                0.00:  Torque Abs Avg 
 TQAN.f-kp                0.00:  Torque Abs Min 
 TQAX.f-kp                0.00:  Torque Abs Max 
 TRRT.°/30m               0.70:  Turn Rotating 
 MRT .                    HCIM:  Maximum Recorded Temperature 
 TTMX.degC               70.59:  Max Tool Temp 
 VS01.             90598770F11:  Virtual Str1 SN 
 VS02.             90598769F11:  Virtual Str2 SN 
 VS03.            90515978Z1W1:  Virtual Str3 SN 
 VS04.          90584144R12X14:  Virtual Str4 SN 
 WBMN.klb                 0.00:  WOB Min 
 WITN.            Peter Wilson:  Customer Rep 
 WOBA.klb                 0.00:  WOB Avg 
 WOBX.klb                 0.00:  WOB Max 
 YP  .lhf2               29.00:  Yield Point 
~Curve Information Block
#MNEM.UNIT                 API CODE     Curve Description
#---------               -----------    ---------------------------
 TIME.HHMMSS            00 000 000 000:  GT Time & Date
 GTDEPTH.m              00 000 000 000:  GT Depth
 GTPQH.psia             00 000 000 000:  GT HR Quartz Pressure
 GTTQ.degC              00 000 000 000:  GT Quartz Temperature
 GTTN.NONE              00 000 000 000:  GT Test Number
 GTET.sec               00 000 000 000:  GT Elapsed Test Time
 GTTVD.m                00 000 000 000:  GT True Vertical Depth
#Other Information
#
#WARRANTY: Halliburton will use its best efforts to furnish customers with 
#accurate information and interpretations that are part of, and incident to, the services 
#provided.  However, Halliburton cannot and does not warrant the accuracy 
#or correctness of such information and interpretations.  Under no circumstances should any 
#such information or interpretation be relied upon as the sole basis for any drilling, 
#completion, production, or financial decision or any procedure involving any risk to the 
#safety of any drilling venture, drilling rig or its crew or any other third party.  The 
#Customer has full responsibility for all drilling, completion and production operation.  
#Halliburton makes no representations or warranties, either expressed or 
#implied, including, but not limited to, the implied warranties of merchantability or fitness 
#for a particular purpose, with respect to the services rendered.  In no event will 
#Halliburton be liable for failure to obtain any particular results or for 
#any damages, including, but not limited to, indirect, special or consequential damages, 
#resulting from the use of any information or interpretation provided by Halliburton.
#
~A           TIME           GTDEPTH  GTPQH  GTTQ  GTTN  GTET   GTTVD  
# ...
   07:10:38.000.03-Feb-2020 4002.71 1394.01 64.23 9.00 138.00 3014.99
   07:10:38.200.03-Feb-2020 4002.71 1394.01 64.23 9.00 138.20 3014.99
   07:10:38.400.03-Feb-2020 4002.71 1401.40 64.23 9.00 138.40 3014.99
   07:10:38.600.03-Feb-2020 4002.71 1405.23 64.23 9.00 138.60 3014.99
   07:10:38.800.03-Feb-2020 4002.71 1408.82 64.23 9.00 138.80 3014.99
   07:10:39.000.03-Feb-2020 4002.71 1412.51 64.23 9.00 139.00 3014.99
   07:10:39.200.03-Feb-2020 4002.71 1412.51 64.23 9.00 139.20 3014.99
   07:10:39.400.03-Feb-2020 4002.71 1419.98 64.23 9.00 139.40 3014.99
   07:10:39.600.03-Feb-2020 4002.71 1423.58 64.23 9.00 139.60 3014.99
   07:10:39.800.03-Feb-2020 4002.71 1427.27 64.23 9.00 139.80 3014.99
   07:10:40.000.03-Feb-2020 4002.71 1430.87 64.23 9.00 140.00 3014.99
   07:10:40.200.03-Feb-2020 4002.71 1430.87 64.23 9.00 140.20 3014.99
   07:10:40.400.03-Feb-2020 4002.71 1438.27 64.23 9.00 140.40 3014.99
   07:10:40.600.03-Feb-2020 4002.71 1441.85 64.23 9.00 140.60 3014.99
   07:10:40.800.03-Feb-2020 4002.71 1445.38 64.23 9.00 140.80 3014.99
   07:10:41.000.03-Feb-2020 4002.71 1448.90 64.23 9.00 141.00 3014.99
   07:10:41.200.03-Feb-2020 4002.71 1448.90 64.23 9.00 141.20 3014.99
   07:10:41.400.03-Feb-2020 4002.71 1455.35 64.23 9.00 141.40 3014.99
   07:10:41.600.03-Feb-2020 4002.71 1458.99 64.23 9.00 141.60 3014.99
   07:10:41.800.03-Feb-2020 4002.71 1462.81 64.23 9.00 141.80 3014.99
   07:10:42.000.03-Feb-2020 4002.71 1466.47 64.23 9.00 142.00 3014.99
   07:10:42.200.03-Feb-2020 4002.71 1466.47 64.23 9.00 142.20 3014.99
   07:10:42.400.03-Feb-2020 4002.71 1473.96 64.23 9.00 142.40 3014.99
   07:10:42.600.03-Feb-2020 4002.71 1477.68 64.23 9.00 142.60 3014.99
   07:10:42.800.03-Feb-2020 4002.71 1481.38 64.23 9.00 142.80 3014.99
   07:10:43.000.03-Feb-2020 4002.71 1485.09 64.23 9.00 143.00 3014.99
   07:10:43.200.03-Feb-2020 4002.71 1485.09 64.23 9.00 143.20 3014.99
   07:10:43.400.03-Feb-2020 4002.71 1492.46 64.23 9.00 143.40 3014.99
   07:10:43.600.03-Feb-2020 4002.71 1495.48 64.23 9.00 143.60 3014.99
   07:10:43.800.03-Feb-2020 4002.71 1498.44 64.23 9.00 143.80 3014.99
   07:10:44.000.03-Feb-2020 4002.71 1502.29 64.23 9.00 144.00 3014.99
   07:10:44.200.03-Feb-2020 4002.71 1502.29 64.23 9.00 144.20 3014.99
   07:10:44.400.03-Feb-2020 4002.71 1509.93 64.23 9.00 144.40 3014.99
   07:10:44.600.03-Feb-2020 4002.71 1513.46 64.23 9.00 144.60 3014.99
   07:10:44.800.03-Feb-2020 4002.71 1517.26 64.23 9.00 144.80 3014.99
   07:10:45.000.03-Feb-2020 4002.71 1520.96 64.23 9.00 145.00 3014.99
   07:10:45.200.03-Feb-2020 4002.71 1520.96 64.23 9.00 145.20 3014.99
   07:10:45.400.03-Feb-2020 4002.71 1528.58 64.23 9.00 145.40 3014.99
   07:10:45.600.03-Feb-2020 4002.71 1532.41 64.23 9.00 145.60 3014.99
   07:10:45.800.03-Feb-2020 4002.71 1535.79 64.23 9.00 145.80 3014.99
   07:10:46.000.03-Feb-2020 4002.71 1539.74 64.23 9.00 146.00 3014.99
   07:10:46.200.03-Feb-2020 4002.71 1539.74 64.23 9.00 146.20 3014.99
   07:10:46.400.03-Feb-2020 4002.71 1547.09 64.23 9.00 146.40 3014.99
   07:10:46.600.03-Feb-2020 4002.71 1549.88 64.23 9.00 146.60 3014.99
   07:10:46.800.03-Feb-2020 4002.71 1552.98 64.23 9.00 146.80 3014.99
   07:10:47.000.03-Feb-2020 4002.71 1556.81 64.23 9.00 147.00 3014.99
   07:10:47.200.03-Feb-2020 4002.71 1556.81 64.23 9.00 147.20 3014.99
   07:10:47.400.03-Feb-2020 4002.71 1564.41 64.23 9.00 147.40 3014.99
   07:10:47.600.03-Feb-2020 4002.71 1568.30 64.23 9.00 147.60 3014.99
   07:10:47.800.03-Feb-2020 4002.71 1572.12 64.23 9.00 147.80 3014.99
   07:10:48.000.03-Feb-2020 4002.71 1575.88 64.23 9.00 148.00 3014.99
   07:10:48.200.03-Feb-2020 4002.71 1575.88 64.23 9.00 148.20 3014.99
   07:10:48.400.03-Feb-2020 4002.71 1583.44 64.23 9.00 148.40 3014.99
   07:10:48.600.03-Feb-2020 4002.71 1587.19 64.23 9.00 148.60 3014.99
   07:10:48.800.03-Feb-2020 4002.71 1591.05 64.23 9.00 148.80 3014.99
   07:10:49.000.03-Feb-2020 4002.71 1594.82 64.23 9.00 149.00 3014.99
   07:10:49.200.03-Feb-2020 4002.71 1594.82 64.23 9.00 149.20 3014.99
   07:10:49.400.03-Feb-2020 4002.71 1602.30 64.23 9.00 149.40 3014.99
   07:10:49.600.03-Feb-2020 4002.71 1606.12 64.23 9.00 149.60 3014.99
   07:10:49.800.03-Feb-2020 4002.71 1609.83 64.23 9.00 149.80 3014.99
   07:10:50.000.03-Feb-2020 4002.71 1613.00 64.23 9.00 150.00 3014.99
   07:10:50.200.03-Feb-2020 4002.71 1613.00 64.23 9.00 150.20 3014.99
   07:10:50.400.03-Feb-2020 4002.71 1619.48 64.23 9.00 150.40 3014.99
   07:10:50.600.03-Feb-2020 4002.71 1623.29 64.23 9.00 150.60 3014.99
   07:10:50.800.03-Feb-2020 4002.71 1627.14 64.23 9.00 150.80 3014.99
   07:10:51.000.03-Feb-2020 4002.71 1630.94 64.23 9.00 151.00 3014.99
   07:10:51.200.03-Feb-2020 4002.71 1630.94 64.23 9.00 151.20 3014.99
   07:10:51.400.03-Feb-2020 4002.71 1638.56 64.23 9.00 151.40 3014.99
   07:10:51.600.03-Feb-2020 4002.71 1642.38 64.23 9.00 151.60 3014.99
   07:10:51.800.03-Feb-2020 4002.71 1646.21 64.23 9.00 151.80 3014.99
   07:10:52.000.03-Feb-2020 4002.71 1650.02 64.23 9.00 152.00 3014.99
   07:10:52.200.03-Feb-2020 4002.71 1650.02 64.23 9.00 152.20 3014.99
   07:10:52.400.03-Feb-2020 4002.71 1657.40 64.23 9.00 152.40 3014.99
   07:10:52.600.03-Feb-2020 4002.71 1661.13 64.23 9.00 152.60 3014.99
   07:10:52.800.03-Feb-2020 4002.71 1664.92 64.23 9.00 152.80 3014.99
   07:10:53.000.03-Feb-2020 4002.71 1668.89 64.23 9.00 153.00 3014.99
   07:10:53.200.03-Feb-2020 4002.71 1668.89 64.23 9.00 153.20 3014.99
   07:10:53.400.03-Feb-2020 4002.71 1676.28 64.23 9.00 153.40 3014.99
   07:10:53.600.03-Feb-2020 4002.71 1679.61 64.23 9.00 153.60 3014.99
   07:10:53.800.03-Feb-2020 4002.71 1682.43 64.23 9.00 153.80 3014.99
   07:10:54.000.03-Feb-2020 4002.71 1685.80 64.23 9.00 154.00 3014.99
   07:10:54.200.03-Feb-2020 4002.71 1685.80 64.23 9.00 154.20 3014.99
   07:10:54.400.03-Feb-2020 4002.71 1693.57 64.23 9.00 154.40 3014.99
   07:10:54.600.03-Feb-2020 4002.71 1697.45 64.23 9.00 154.60 3014.99
   07:10:54.800.03-Feb-2020 4002.71 1701.29 64.23 9.00 154.80 3014.99
   07:10:55.000.03-Feb-2020 4002.71 1704.77 64.23 9.00 155.00 3014.99
   07:10:55.200.03-Feb-2020 4002.71 1704.77 64.23 9.00 155.20 3014.99
   07:10:55.400.03-Feb-2020 4002.71 1712.55 64.23 9.00 155.40 3014.99
   07:10:55.600.03-Feb-2020 4002.71 1716.48 64.23 9.00 155.60 3014.99
   07:10:55.800.03-Feb-2020 4002.71 1720.22 64.23 9.00 155.80 3014.99
   07:10:56.000.03-Feb-2020 4002.71 1724.04 64.23 9.00 156.00 3014.99
   07:10:56.200.03-Feb-2020 4002.71 1724.04 64.23 9.00 156.20 3014.99
   07:10:56.400.03-Feb-2020 4002.71 1731.57 64.23 9.00 156.40 3014.99
   07:10:56.600.03-Feb-2020 4002.71 1734.88 64.23 9.00 156.60 3014.99
   07:10:56.800.03-Feb-2020 4002.71 1738.60 64.23 9.00 156.80 3014.99
   07:10:57.000.03-Feb-2020 4002.71 1741.13 64.23 9.00 157.00 3014.99
   07:10:57.200.03-Feb-2020 4002.71 1741.13 64.23 9.00 157.20 3014.99
   07:10:57.400.03-Feb-2020 4002.71 1748.62 64.23 9.00 157.40 3014.99
   07:10:57.600.03-Feb-2020 4002.71 1752.43 64.23 9.00 157.60 3014.99
   07:10:57.800.03-Feb-2020 4002.71 1756.21 64.23 9.00 157.80 3014.99
   07:10:58.000.03-Feb-2020 4002.71 1760.09 64.23 9.00 158.00 3014.99
   07:10:58.200.03-Feb-2020 4002.71 1760.09 64.23 9.00 158.20 3014.99
   07:10:58.400.03-Feb-2020 4002.71 1767.64 64.23 9.00 158.40 3014.99
   07:10:58.600.03-Feb-2020 4002.71 1771.40 64.23 9.00 158.60 3014.99
   07:10:58.800.03-Feb-2020 4002.71 1775.18 64.23 9.00 158.80 3014.99
   07:10:59.000.03-Feb-2020 4002.71 1778.92 64.23 9.00 159.00 3014.99
   07:10:59.200.03-Feb-2020 4002.71 1778.92 64.23 9.00 159.20 3014.99
   07:10:59.400.03-Feb-2020 4002.71 1786.38 64.23 9.00 159.40 3014.99
   07:10:59.600.03-Feb-2020 4002.71 1790.22 64.23 9.00 159.60 3014.99
   07:10:59.800.03-Feb-2020 4002.71 1793.55 64.23 9.00 159.80 3014.99
   07:11:00.000.03-Feb-2020 4002.71 1797.41 64.23 9.00 160.00 3014.99
   07:11:00.200.03-Feb-2020 4002.71 1797.41 64.23 9.00 160.20 3014.99
   07:11:00.400.03-Feb-2020 4002.71 1803.50 64.23 9.00 160.40 3014.99
   07:11:00.600.03-Feb-2020 4002.71 1807.07 64.23 9.00 160.60 3014.99
   07:11:00.800.03-Feb-2020 4002.71 1810.85 64.23 9.00 160.80 3014.99
