~Version Information
 VERS.                  2.0:   CWLS log ASCII Standard -VERSION 2.0
 WRAP.                   NO:   One line per depth step
~Well Information Block
#MNEM.UNIT     VALUE/NAME     DESCRIPTION
#---------     -----------    ---------------------------
 STRT.S             05:26:39 03-Feb-20: START TIME 05:26:39 03-Feb-20
 STOP.S             05:34:31 03-Feb-20: STOP TIME  05:34:31 03-Feb-20
 STEP.S                   0.00: STEP TIME
 NULL.                 -999.25: NULL VALUE
 DFWT.                        :  DIST FWL TEXT
 DFST.                        :  DIST FSL TEXT
 DMF .             Drill Floor:  DRILL MEAS FROM
 STIM.      09.30.00 26-Dec-19:  START TIME
 DATE.      08.00.00 20-Jan-20:  END TIME
 SPUD.               23-Nov-19:  SPUD DATE
 NREF.                    Grid:  NORTH REFERENCE
 HPTY.       Minimum Curvature:  HOLE POS TYPE
 DMOD.             Drill Model:  DRILL MOD DESC
 SVYD.                  Survey:  SURVEY DESC
 ILTD.               Lithology:  INTERP LTH DESC
 FTOP.          Formation Tops:  FORM TOPS DESC
 SON .        AZ-XX-0906192647:  JOB NUMBER
 WTYP.                Deviated:  WELL TYPE
 COMP.     BP Exploration (Caspian Sea) Ltd:  COMPANY
 BASE.              Azerbaijan:  LOGGING EQUIPMENT BASE LOCATION
 REGN.                 Eurasia:  REGION
 FLD .                     ACG:  FIELD NAME
 SRVC.              KCA Deutag:  CONTRACTOR
 MWDS.                    Baku:  MWD SHOP
 WELL.     A10 (Slot 20) - SCP:  WELL NAME
 JOBN.        AZ-XX-0906192647:  JOB TICKET NUMB
 RIG .                 Chirag1:  RIG NAME
 DCON.     Halliburton Sperry Drilling:  DIRECTNL CONTR
 UNIT.                     N/A:  LOGGING EQUIPMENT ID
 PDAT.          Mean Sea Level:  PERMANENT DATUM
 MDS .        Operator Entered:  MAG DATA SOURCE
 CTRY.              Azerbaijan:  COUNTRY NAME
 UWI .            /AZE00000090:  UNIQUE WELL IDENTIFIER
 API .            /AZE00000090:  API NUMBER
 CNTY.                        :  COUNTY
 PROV.                        :  PROVINCE
 STAT.                        :  STATE
 LOC .                        :  LOCATION
 LMF .             Drill Floor:  LOG MEASURED FROM
 TVDS.m                  36.60:  TVDSS CORRECTN
 LATI.deg                40.08:  LATITUDE
 LONG.deg                51.24:  LONGITUDE
 WHNS.m                  -7.94:  WELL HEAD N/S
 WHEW.m                   1.56:  WELL HEAD E/W
 UTMX.m              520429.26:  UTM X
 UTMY.m             4438973.87:  UTM Y
 DFWL.m                   0.00:  DISTANCE FWL
 DFSL.m                   0.00:  DISTANCE FSL
 SDEP.m                1455.00:  START DEPTH
 TDD .m                4047.51:  TOTAL DEPTH (DRILLER)
 VSDR.deg               112.75:  VERT SEC DIRECT
 GVFD.g                   1.00:  GRAVITY FIELD
 MFLD.nT              50261.00:  MAGNETIC FIELD
 MDIP.deg                59.52:  MAGNETIC DIP
 MDEC.deg                 6.42:  MAGNETIC DECL
 GRDC.deg                 0.17:  GRID CORRECTION
 AZTC.deg                 6.25:  AZM TOTAL CORR
 EPD .m                   0.00:  ELEVATION
 EGL .m                   0.00:  GROUND ELEVATION
 WDMS.m                 121.00:  WD ELEV
 APD .m                  36.60:  DEPTH ABOVE PD
 AGAP.m                  36.60:  AIR GAP
 VSEW.m                   1.56:  VERT SEC E/W
 VSNS.m                  -7.94:  VERT SEC N/S
 DEP .m                1140.01:  DEPTH
 EKB .m                  36.60:  KB ELEVATION
 EDF .m                  36.60:  DF ELEVATION
 VSC .                       0:  VS TO CLOSURE
 MAGU.                 1849206:  MAGUTM CHECKSUM
~Parameter Information Block
#MNEM.UNIT       Value        Description
#---------     -----------    ---------------------------
 AV  .mps                 1.70:  Ann Velocity 
 AVMX.mps                 2.30:  Max Ann Veloc 
 AZIF.deg               137.03:  Azm, Final 
 BHAT.                   Other:  BHA Type 
 BROT.°/30m               0.80:  Build Rotating 
 BS  .in                  8.00:  Bit Size 
 BTPL.psig              161.00:  Bit Press Loss 
 CABU.                      No:  Customer Abuse 
 COMM.                     ¬]P:  Run Comments 1 
 TCS .hr                  9.59:  Time Ciculation Ended 
 CV  .mps                 3.76:  Crit Velocity 
 CVMX.mps                 4.26:  Max Crit Veloc 
 DD1 .         Intigam Rahimov:  Direct Drillr 1 
 DD2 .          Rashad Gojayev:  Direct Drillr 2 
 DDSV.                   Other:  DD Service 
 DEFF.%                 100.00:  % Det Eff 
 DLRX.°/30m               1.44:  Dogleg Rot Max 
 DLSO.°/30m               0.00:  Dogleg Oriented 
 DLSX.°/30m               0.00:  Dogleg Str Max 
 DRET.      03.31.12 02-Feb-20:  Drill End Time 
 DRST.      03.31.12 02-Feb-20:  Drill Start Tim 
 DTIM.hr                  1.99:  Time Drilling 
 EDEP.m                4047.51:  End Depth 
 ENG1.           Eldar Hajiyev:  Engineer 1 
 ENG2.          Rasim Hashimov:  Engineer 2 
 ENG3.          Rustam Safarov:  Engineer 3 
 ETIM.      03.31.12 02-Feb-20:  End Time 
 FLOI.gpm               300.00:  Flow In 
 FLON.gpm               250.00:  Flow In Min 
 FLOS.cptm                0.00:  Fluid Loss 
 FLOX.gpm               330.00:  Flow In Max 
 HFLO.                      No:  High Flow 
 HPRE.                      No:  High Pressure 
 HTEM.                      No:  High Temp 
 HYDO.m                   2.50:  Hydro Offset 
 IFIN.deg                39.54:  Inc, Final 
 IMAX.deg                41.14:  Inc Max 
 IMIN.deg                39.81:  Inc Min 
 IMND.m                4005.21:  Inc Min Depth 
 IMXD.m                3948.42:  Inc Max Depth 
 JARR.                      No:  Jarring 
 LETM.      03.31.12 02-Feb-20:  Log End Time 
 LOST.hr                     0:  Lost Rig Time 
 LSTM.      03.31.12 02-Feb-20:  Log Start Time 
 MDCL.ppm             35000.00:  Mud Chlorides 
 MDES.     Inversion Oil/Synthetic:  Mud Desc 
 DFD .sg                  1.32:  Mud Density 
 MDMN.sg                  1.32:  Dens Mud Min 
 MDMX.sg                  1.32:  Dens Mud Max 
 MOIL.                      59:  Run Mud Oil % 
 MOWR.                   71:29:  Run Mud OWR 
 MSND.                       0:  Run Mud Sand % 
 MSOL.                      17:  Run Mud Solids% 
 DFV .spqt               86.00:  Mud Viscosity 
 MWOD.in                  4.75:  MWD Tool OD 
 MWSI.                      No:  Serv Intrp, MWD 
 OTIM.hr                 46.72:  Time Operating 
 PCON.           Look Like New:  Pad Condition 
 PMAX.psia             3300.00:  Press Op, Max 
 PV  .cP                 30.00:  Mud PV 
 RUN .                     400:  Run Number 
 ROPA.m/hr               35.00:  ROP Avg 
 ROPN.m/hr               25.00:  ROP Min 
 ROPX.m/hr               40.00:  ROP Max 
 RPMA.rpm                80.00:  RPM Surface Avg 
 RPMN.rpm                60.00:  RPM Surface Min 
 RPMX.rpm               100.00:  RPM Surface Max 
 RRUN.                     400:  Rig Run Number 
 RTIM.hr                  1.99:  Time Reaming 
 SAZI.deg               133.93:  Azm, Start 
 SDEP.m                4047.51:  Start Depth 
 SIDD.                      No:  Serv Intrp, DD 
 SINC.deg                40.28:  Inc, Start 
 SPPA.psig             3250.00:  SPP Avg 
 SPPN.psig             3200.00:  SPP Min 
 SPPX.psig             3300.00:  SPP Max 
 STIM.      03.31.12 02-Feb-20:  Start Time 
 SVCS.                 DD, MWD:  Services 
 SVER.                    9.20:  Sperry Version 
 TDAT.m                  47.00:  Tot Depth Attmp 
 TDDF.                      No:  Trip for DD 
 TFF .                      No:  Trip for Fail 
 TQAA.f-kp                0.00:  Torque Abs Avg 
 TQAN.f-kp                0.00:  Torque Abs Min 
 TQAX.f-kp                0.00:  Torque Abs Max 
 TRRT.°/30m               0.70:  Turn Rotating 
 MRT .                    HCIM:  Maximum Recorded Temperature 
 TTMX.degC               70.59:  Max Tool Temp 
 VS01.             90598770F11:  Virtual Str1 SN 
 VS02.             90598769F11:  Virtual Str2 SN 
 VS03.            90515978Z1W1:  Virtual Str3 SN 
 VS04.          90584144R12X14:  Virtual Str4 SN 
 WBMN.klb                 0.00:  WOB Min 
 WITN.            Peter Wilson:  Customer Rep 
 WOBA.klb                 0.00:  WOB Avg 
 WOBX.klb                 0.00:  WOB Max 
 YP  .lhf2               29.00:  Yield Point 
~Curve Information Block
#MNEM.UNIT                 API CODE     Curve Description
#---------               -----------    ---------------------------
 TIME.HHMMSS            00 000 000 000:  GT Time & Date
 GTDEPTH.m              00 000 000 000:  GT Depth
 GTPQH.psia             00 000 000 000:  GT HR Quartz Pressure
 GTTQ.degC              00 000 000 000:  GT Quartz Temperature
 GTTN.NONE              00 000 000 000:  GT Test Number
 GTET.sec               00 000 000 000:  GT Elapsed Test Time
 GTTVD.m                00 000 000 000:  GT True Vertical Depth
#Other Information
#
#WARRANTY: Halliburton will use its best efforts to furnish customers with 
#accurate information and interpretations that are part of, and incident to, the services 
#provided.  However, Halliburton cannot and does not warrant the accuracy 
#or correctness of such information and interpretations.  Under no circumstances should any 
#such information or interpretation be relied upon as the sole basis for any drilling, 
#completion, production, or financial decision or any procedure involving any risk to the 
#safety of any drilling venture, drilling rig or its crew or any other third party.  The 
#Customer has full responsibility for all drilling, completion and production operation.  
#Halliburton makes no representations or warranties, either expressed or 
#implied, including, but not limited to, the implied warranties of merchantability or fitness 
#for a particular purpose, with respect to the services rendered.  In no event will 
#Halliburton be liable for failure to obtain any particular results or for 
#any damages, including, but not limited to, indirect, special or consequential damages, 
#resulting from the use of any information or interpretation provided by Halliburton.
#
~A           TIME           GTDEPTH  GTPQH  GTTQ  GTTN  GTET   GTTVD  
# ...
   05:33:10.000.03-Feb-2020 4009.51 3032.67 64.51 5.00 391.00 3020.21
   05:33:10.200.03-Feb-2020 4009.51 3032.67 64.51 5.00 391.20 3020.21
   05:33:10.400.03-Feb-2020 4009.51 3033.94 64.51 5.00 391.40 3020.21
   05:33:10.600.03-Feb-2020 4009.51 3034.58 64.51 5.00 391.60 3020.21
   05:33:10.800.03-Feb-2020 4009.51 3035.20 64.51 5.00 391.80 3020.21
   05:33:11.000.03-Feb-2020 4009.51 3035.92 64.51 5.00 392.00 3020.21
   05:33:11.200.03-Feb-2020 4009.51 3035.92 64.51 5.00 392.20 3020.21
   05:33:11.400.03-Feb-2020 4009.51 3037.20 64.51 5.00 392.40 3020.21
   05:33:11.600.03-Feb-2020 4009.51 3037.81 64.51 5.00 392.60 3020.21
   05:33:11.800.03-Feb-2020 4009.51 3038.28 64.51 5.00 392.80 3020.21
   05:33:12.000.03-Feb-2020 4009.51 3038.98 64.51 5.00 393.00 3020.21
   05:33:12.200.03-Feb-2020 4009.51 3038.98 64.51 5.00 393.20 3020.21
   05:33:12.400.03-Feb-2020 4009.51 3040.21 64.51 5.00 393.40 3020.21
   05:33:12.600.03-Feb-2020 4009.51 3040.82 64.51 5.00 393.60 3020.21
   05:33:12.800.03-Feb-2020 4009.51 3041.43 64.51 5.00 393.80 3020.21
   05:33:13.000.03-Feb-2020 4009.51 3042.04 64.51 5.00 394.00 3020.21
   05:33:13.200.03-Feb-2020 4009.51 3042.04 64.51 5.00 394.20 3020.21
   05:33:13.400.03-Feb-2020 4009.51 3043.10 64.51 5.00 394.40 3020.21
   05:33:13.600.03-Feb-2020 4009.51 3043.47 64.51 5.00 394.60 3020.21
   05:33:13.800.03-Feb-2020 4009.51 3044.27 64.51 5.00 394.80 3020.21
   05:33:14.000.03-Feb-2020 4009.51 3044.78 64.51 5.00 395.00 3020.21
   05:33:14.200.03-Feb-2020 4009.51 3044.78 64.51 5.00 395.20 3020.21
   05:33:14.400.03-Feb-2020 4009.51 3045.61 64.51 5.00 395.40 3020.21
   05:33:14.600.03-Feb-2020 4009.51 3046.40 64.51 5.00 395.60 3020.21
   05:33:14.800.03-Feb-2020 4009.51 3046.74 64.51 5.00 395.80 3020.21
   05:33:15.000.03-Feb-2020 4009.51 3047.59 64.51 5.00 396.00 3020.21
   05:33:15.200.03-Feb-2020 4009.51 3047.59 64.51 5.00 396.20 3020.21
   05:33:15.400.03-Feb-2020 4009.51 3048.59 64.51 5.00 396.40 3020.21
   05:33:15.600.03-Feb-2020 4009.51 3048.61 64.51 5.00 396.60 3020.21
   05:33:15.800.03-Feb-2020 4009.51 3049.36 64.51 5.00 396.80 3020.21
   05:33:16.000.03-Feb-2020 4009.51 3049.56 64.51 5.00 397.00 3020.21
   05:33:16.200.03-Feb-2020 4009.51 3049.56 64.51 5.00 397.20 3020.21
   05:33:16.400.03-Feb-2020 4009.51 3050.80 64.51 5.00 397.40 3020.21
   05:33:16.600.03-Feb-2020 4009.51 3051.36 64.51 5.00 397.60 3020.21
   05:33:16.800.03-Feb-2020 4009.51 3051.83 64.51 5.00 397.80 3020.21
   05:33:17.000.03-Feb-2020 4009.51 3052.25 64.51 5.00 398.00 3020.21
   05:33:17.200.03-Feb-2020 4009.51 3052.25 64.51 5.00 398.20 3020.21
   05:33:17.400.03-Feb-2020 4009.51 3053.31 64.51 5.00 398.40 3020.21
   05:33:17.600.03-Feb-2020 4009.51 3053.85 64.51 5.00 398.60 3020.21
   05:33:17.800.03-Feb-2020 4009.51 3054.39 64.51 5.00 398.80 3020.21
   05:33:18.000.03-Feb-2020 4009.51 3054.83 64.51 5.00 399.00 3020.21
   05:33:18.200.03-Feb-2020 4009.51 3054.83 64.51 5.00 399.20 3020.21
   05:33:18.400.03-Feb-2020 4009.51 3055.70 64.51 5.00 399.40 3020.21
   05:33:18.600.03-Feb-2020 4009.51 3056.26 64.51 5.00 399.60 3020.21
   05:33:18.800.03-Feb-2020 4009.51 3056.73 64.51 5.00 399.80 3020.21
   05:33:19.000.03-Feb-2020 4009.51 3056.89 64.51 5.00 400.00 3020.21
   05:33:19.200.03-Feb-2020 4009.51 3056.89 64.51 5.00 400.20 3020.21
   05:33:19.400.03-Feb-2020 4009.51 3057.89 64.51 5.00 400.40 3020.21
   05:33:19.600.03-Feb-2020 4009.51 3058.42 64.50 5.00 400.60 3020.21
   05:33:19.800.03-Feb-2020 4009.51 3058.83 64.51 5.00 400.80 3020.21
   05:33:20.000.03-Feb-2020 4009.51 3059.34 64.50 5.00 401.00 3020.21
   05:33:20.200.03-Feb-2020 4009.51 3059.34 64.50 5.00 401.20 3020.21
   05:33:20.400.03-Feb-2020 4009.51 3060.30 64.50 5.00 401.40 3020.21
   05:33:20.600.03-Feb-2020 4009.51 3060.75 64.50 5.00 401.60 3020.21
   05:33:20.800.03-Feb-2020 4009.51 3061.14 64.50 5.00 401.80 3020.21
   05:33:21.000.03-Feb-2020 4009.51 3061.55 64.50 5.00 402.00 3020.21
   05:33:21.200.03-Feb-2020 4009.51 3061.55 64.50 5.00 402.20 3020.21
   05:33:21.400.03-Feb-2020 4009.51 3062.01 64.50 5.00 402.40 3020.21
   05:33:21.600.03-Feb-2020 4009.51 3062.76 64.50 5.00 402.60 3020.21
   05:33:21.800.03-Feb-2020 4009.51 3063.04 64.50 5.00 402.80 3020.21
   05:33:22.000.03-Feb-2020 4009.51 3063.74 64.50 5.00 403.00 3020.21
   05:33:22.200.03-Feb-2020 4009.51 3063.74 64.50 5.00 403.20 3020.21
   05:33:22.400.03-Feb-2020 4009.51 3064.49 64.50 5.00 403.40 3020.21
   05:33:22.600.03-Feb-2020 4009.51 3064.92 64.50 5.00 403.60 3020.21
   05:33:22.800.03-Feb-2020 4009.51 3065.00 64.50 5.00 403.80 3020.21
   05:33:23.000.03-Feb-2020 4009.51 3065.52 64.50 5.00 404.00 3020.21
   05:33:23.200.03-Feb-2020 4009.51 3065.52 64.50 5.00 404.20 3020.21
   05:33:23.400.03-Feb-2020 4009.51 3066.37 64.50 5.00 404.40 3020.21
   05:33:23.600.03-Feb-2020 4009.51 3066.80 64.50 5.00 404.60 3020.21
   05:33:23.800.03-Feb-2020 4009.51 3067.22 64.50 5.00 404.80 3020.21
   05:33:24.000.03-Feb-2020 4009.51 3067.56 64.50 5.00 405.00 3020.21
   05:33:24.200.03-Feb-2020 4009.51 3067.56 64.50 5.00 405.20 3020.21
   05:33:24.400.03-Feb-2020 4009.51 3068.25 64.50 5.00 405.40 3020.21
   05:33:24.600.03-Feb-2020 4009.51 3068.64 64.50 5.00 405.60 3020.21
   05:33:24.800.03-Feb-2020 4009.51 3069.10 64.50 5.00 405.80 3020.21
   05:33:25.000.03-Feb-2020 4009.51 3069.38 64.50 5.00 406.00 3020.21
   05:33:25.200.03-Feb-2020 4009.51 3069.38 64.50 5.00 406.20 3020.21
   05:33:25.400.03-Feb-2020 4009.51 3070.11 64.50 5.00 406.40 3020.21
   05:33:25.600.03-Feb-2020 4009.51 3070.04 64.50 5.00 406.60 3020.21
   05:33:25.800.03-Feb-2020 4009.51 3070.81 64.50 5.00 406.80 3020.21
   05:33:26.000.03-Feb-2020 4009.51 3070.96 64.50 5.00 407.00 3020.21
   05:33:26.200.03-Feb-2020 4009.51 3070.96 64.50 5.00 407.20 3020.21
   05:33:26.400.03-Feb-2020 4009.51 3071.78 64.50 5.00 407.40 3020.21
   05:33:26.600.03-Feb-2020 4009.51 3072.19 64.50 5.00 407.60 3020.21
   05:33:26.800.03-Feb-2020 4009.51 3072.43 64.50 5.00 407.80 3020.21
   05:33:27.000.03-Feb-2020 4009.51 3072.81 64.50 5.00 408.00 3020.21
   05:33:27.200.03-Feb-2020 4009.51 3072.81 64.50 5.00 408.20 3020.21
   05:33:27.400.03-Feb-2020 4009.51 3073.61 64.50 5.00 408.40 3020.21
   05:33:27.600.03-Feb-2020 4009.51 3073.95 64.50 5.00 408.60 3020.21
   05:33:27.800.03-Feb-2020 4009.51 3074.28 64.50 5.00 408.80 3020.21
   05:33:28.000.03-Feb-2020 4009.51 3074.58 64.50 5.00 409.00 3020.21
   05:33:28.200.03-Feb-2020 4009.51 3074.58 64.50 5.00 409.20 3020.21
   05:33:28.400.03-Feb-2020 4009.51 3075.17 64.50 5.00 409.40 3020.21
   05:33:28.600.03-Feb-2020 4009.51 3075.60 64.50 5.00 409.60 3020.21
   05:33:28.800.03-Feb-2020 4009.51 3075.87 64.50 5.00 409.80 3020.21
   05:33:29.000.03-Feb-2020 4009.51 3075.80 64.50 5.00 410.00 3020.21
   05:33:29.200.03-Feb-2020 4009.51 3075.80 64.50 5.00 410.20 3020.21
   05:33:29.400.03-Feb-2020 4009.51 3076.58 64.50 5.00 410.40 3020.21
   05:33:29.600.03-Feb-2020 4009.51 3076.92 64.50 5.00 410.60 3020.21
   05:33:29.800.03-Feb-2020 4009.51 3077.28 64.50 5.00 410.80 3020.21
   05:33:30.000.03-Feb-2020 4009.51 3077.70 64.50 5.00 411.00 3020.21
   05:33:30.200.03-Feb-2020 4009.51 3077.70 64.50 5.00 411.20 3020.21
   05:33:30.400.03-Feb-2020 4009.51 3077.94 64.50 5.00 411.40 3020.21
   05:33:30.600.03-Feb-2020 4009.51 3078.53 64.50 5.00 411.60 3020.21
   05:33:30.800.03-Feb-2020 4009.51 3078.76 64.50 5.00 411.80 3020.21
   05:33:31.000.03-Feb-2020 4009.51 3079.07 64.50 5.00 412.00 3020.21
   05:33:31.200.03-Feb-2020 4009.51 3079.07 64.50 5.00 412.20 3020.21
   05:33:31.400.03-Feb-2020 4009.51 3079.32 64.50 5.00 412.40 3020.21
   05:33:31.600.03-Feb-2020 4009.51 3079.89 64.50 5.00 412.60 3020.21
   05:33:31.800.03-Feb-2020 4009.51 3079.95 64.50 5.00 412.80 3020.21
   05:33:32.000.03-Feb-2020 4009.51 3080.52 64.50 5.00 413.00 3020.21
   05:33:32.200.03-Feb-2020 4009.51 3080.52 64.50 5.00 413.20 3020.21
   05:33:32.400.03-Feb-2020 4009.51 3081.05 64.50 5.00 413.40 3020.21
   05:33:32.600.03-Feb-2020 4009.51 3081.39 64.50 5.00 413.60 3020.21
   05:33:32.800.03-Feb-2020 4009.51 3081.25 64.50 5.00 413.80 3020.21
