~Version Information
 VERS.                  2.0:   CWLS log ASCII Standard -VERSION 2.0
 WRAP.                   NO:   One line per depth step
~Well Information Block
#MNEM.UNIT     VALUE/NAME     DESCRIPTION
#---------     -----------    ---------------------------
 STRT.S             06:42:18 03-Feb-20: START TIME 06:42:18 03-Feb-20
 STOP.S             06:50:14 03-Feb-20: STOP TIME  06:50:14 03-Feb-20
 STEP.S                   0.00: STEP TIME
 NULL.                 -999.25: NULL VALUE
 DFWT.                        :  DIST FWL TEXT
 DFST.                        :  DIST FSL TEXT
 DMF .             Drill Floor:  DRILL MEAS FROM
 STIM.      09.30.00 26-Dec-19:  START TIME
 DATE.      08.00.00 20-Jan-20:  END TIME
 SPUD.               23-Nov-19:  SPUD DATE
 NREF.                    Grid:  NORTH REFERENCE
 HPTY.       Minimum Curvature:  HOLE POS TYPE
 DMOD.             Drill Model:  DRILL MOD DESC
 SVYD.                  Survey:  SURVEY DESC
 ILTD.               Lithology:  INTERP LTH DESC
 FTOP.          Formation Tops:  FORM TOPS DESC
 SON .        AZ-XX-0906192647:  JOB NUMBER
 WTYP.                Deviated:  WELL TYPE
 COMP.     BP Exploration (Caspian Sea) Ltd:  COMPANY
 BASE.              Azerbaijan:  LOGGING EQUIPMENT BASE LOCATION
 REGN.                 Eurasia:  REGION
 FLD .                     ACG:  FIELD NAME
 SRVC.              KCA Deutag:  CONTRACTOR
 MWDS.                    Baku:  MWD SHOP
 WELL.     A10 (Slot 20) - SCP:  WELL NAME
 JOBN.        AZ-XX-0906192647:  JOB TICKET NUMB
 RIG .                 Chirag1:  RIG NAME
 DCON.     Halliburton Sperry Drilling:  DIRECTNL CONTR
 UNIT.                     N/A:  LOGGING EQUIPMENT ID
 PDAT.          Mean Sea Level:  PERMANENT DATUM
 MDS .        Operator Entered:  MAG DATA SOURCE
 CTRY.              Azerbaijan:  COUNTRY NAME
 UWI .            /AZE00000090:  UNIQUE WELL IDENTIFIER
 API .            /AZE00000090:  API NUMBER
 CNTY.                        :  COUNTY
 PROV.                        :  PROVINCE
 STAT.                        :  STATE
 LOC .                        :  LOCATION
 LMF .             Drill Floor:  LOG MEASURED FROM
 TVDS.m                  36.60:  TVDSS CORRECTN
 LATI.deg                40.08:  LATITUDE
 LONG.deg                51.24:  LONGITUDE
 WHNS.m                  -7.94:  WELL HEAD N/S
 WHEW.m                   1.56:  WELL HEAD E/W
 UTMX.m              520429.26:  UTM X
 UTMY.m             4438973.87:  UTM Y
 DFWL.m                   0.00:  DISTANCE FWL
 DFSL.m                   0.00:  DISTANCE FSL
 SDEP.m                1455.00:  START DEPTH
 TDD .m                4047.51:  TOTAL DEPTH (DRILLER)
 VSDR.deg               112.75:  VERT SEC DIRECT
 GVFD.g                   1.00:  GRAVITY FIELD
 MFLD.nT              50261.00:  MAGNETIC FIELD
 MDIP.deg                59.52:  MAGNETIC DIP
 MDEC.deg                 6.42:  MAGNETIC DECL
 GRDC.deg                 0.17:  GRID CORRECTION
 AZTC.deg                 6.25:  AZM TOTAL CORR
 EPD .m                   0.00:  ELEVATION
 EGL .m                   0.00:  GROUND ELEVATION
 WDMS.m                 121.00:  WD ELEV
 APD .m                  36.60:  DEPTH ABOVE PD
 AGAP.m                  36.60:  AIR GAP
 VSEW.m                   1.56:  VERT SEC E/W
 VSNS.m                  -7.94:  VERT SEC N/S
 DEP .m                1140.01:  DEPTH
 EKB .m                  36.60:  KB ELEVATION
 EDF .m                  36.60:  DF ELEVATION
 VSC .                       0:  VS TO CLOSURE
 MAGU.                 1849206:  MAGUTM CHECKSUM
~Parameter Information Block
#MNEM.UNIT       Value        Description
#---------     -----------    ---------------------------
 AV  .mps                 1.70:  Ann Velocity 
 AVMX.mps                 2.30:  Max Ann Veloc 
 AZIF.deg               137.03:  Azm, Final 
 BHAT.                   Other:  BHA Type 
 BROT.°/30m               0.80:  Build Rotating 
 BS  .in                  8.00:  Bit Size 
 BTPL.psig              161.00:  Bit Press Loss 
 CABU.                      No:  Customer Abuse 
 TCS .hr                  9.59:  Time Ciculation Ended 
 CV  .mps                 3.76:  Crit Velocity 
 CVMX.mps                 4.26:  Max Crit Veloc 
 DD1 .         Intigam Rahimov:  Direct Drillr 1 
 DD2 .          Rashad Gojayev:  Direct Drillr 2 
 DDSV.                   Other:  DD Service 
 DEFF.%                 100.00:  % Det Eff 
 DLRX.°/30m               1.44:  Dogleg Rot Max 
 DLSO.°/30m               0.00:  Dogleg Oriented 
 DLSX.°/30m               0.00:  Dogleg Str Max 
 DRET.      03.31.12 02-Feb-20:  Drill End Time 
 DRST.      03.31.12 02-Feb-20:  Drill Start Tim 
 DTIM.hr                  1.99:  Time Drilling 
 EDEP.m                4047.51:  End Depth 
 ENG1.           Eldar Hajiyev:  Engineer 1 
 ENG2.          Rasim Hashimov:  Engineer 2 
 ENG3.          Rustam Safarov:  Engineer 3 
 ETIM.      03.31.12 02-Feb-20:  End Time 
 FLOI.gpm               300.00:  Flow In 
 FLON.gpm               250.00:  Flow In Min 
 FLOS.cptm                0.00:  Fluid Loss 
 FLOX.gpm               330.00:  Flow In Max 
 HFLO.                      No:  High Flow 
 HPRE.                      No:  High Pressure 
 HTEM.                      No:  High Temp 
 HYDO.m                   2.50:  Hydro Offset 
 IFIN.deg                39.54:  Inc, Final 
 IMAX.deg                41.14:  Inc Max 
 IMIN.deg                39.81:  Inc Min 
 IMND.m                4005.21:  Inc Min Depth 
 IMXD.m                3948.42:  Inc Max Depth 
 JARR.                      No:  Jarring 
 LETM.      03.31.12 02-Feb-20:  Log End Time 
 LOST.hr                     0:  Lost Rig Time 
 LSTM.      03.31.12 02-Feb-20:  Log Start Time 
 MDCL.ppm             35000.00:  Mud Chlorides 
 MDES.     Inversion Oil/Synthetic:  Mud Desc 
 DFD .sg                  1.32:  Mud Density 
 MDMN.sg                  1.32:  Dens Mud Min 
 MDMX.sg                  1.32:  Dens Mud Max 
 MOIL.                      59:  Run Mud Oil % 
 MOWR.                   71:29:  Run Mud OWR 
 MSND.                       0:  Run Mud Sand % 
 MSOL.                      17:  Run Mud Solids% 
 DFV .spqt               86.00:  Mud Viscosity 
 MWOD.in                  4.75:  MWD Tool OD 
 MWSI.                      No:  Serv Intrp, MWD 
 OTIM.hr                 46.72:  Time Operating 
 PCON.           Look Like New:  Pad Condition 
 PMAX.psia             3300.00:  Press Op, Max 
 PV  .cP                 30.00:  Mud PV 
 RUN .                     400:  Run Number 
 ROPA.m/hr               35.00:  ROP Avg 
 ROPN.m/hr               25.00:  ROP Min 
 ROPX.m/hr               40.00:  ROP Max 
 RPMA.rpm                80.00:  RPM Surface Avg 
 RPMN.rpm                60.00:  RPM Surface Min 
 RPMX.rpm               100.00:  RPM Surface Max 
 RRUN.                     400:  Rig Run Number 
 RTIM.hr                  1.99:  Time Reaming 
 SAZI.deg               133.93:  Azm, Start 
 SDEP.m                4047.51:  Start Depth 
 SIDD.                      No:  Serv Intrp, DD 
 SINC.deg                40.28:  Inc, Start 
 SPPA.psig             3250.00:  SPP Avg 
 SPPN.psig             3200.00:  SPP Min 
 SPPX.psig             3300.00:  SPP Max 
 STIM.      03.31.12 02-Feb-20:  Start Time 
 SVCS.                 DD, MWD:  Services 
 SVER.                    9.20:  Sperry Version 
 TDAT.m                  47.00:  Tot Depth Attmp 
 TDDF.                      No:  Trip for DD 
 TFF .                      No:  Trip for Fail 
 TQAA.f-kp                0.00:  Torque Abs Avg 
 TQAN.f-kp                0.00:  Torque Abs Min 
 TQAX.f-kp                0.00:  Torque Abs Max 
 TRRT.°/30m               0.70:  Turn Rotating 
 MRT .                    HCIM:  Maximum Recorded Temperature 
 TTMX.degC               70.59:  Max Tool Temp 
 VS01.             90598770F11:  Virtual Str1 SN 
 VS02.             90598769F11:  Virtual Str2 SN 
 VS03.            90515978Z1W1:  Virtual Str3 SN 
 VS04.          90584144R12X14:  Virtual Str4 SN 
 WBMN.klb                 0.00:  WOB Min 
 WITN.            Peter Wilson:  Customer Rep 
 WOBA.klb                 0.00:  WOB Avg 
 WOBX.klb                 0.00:  WOB Max 
 YP  .lhf2               29.00:  Yield Point 
~Curve Information Block
#MNEM.UNIT                 API CODE     Curve Description
#---------               -----------    ---------------------------
 TIME.HHMMSS            00 000 000 000:  GT Time & Date
 GTDEPTH.m              00 000 000 000:  GT Depth
 GTPQH.psia             00 000 000 000:  GT HR Quartz Pressure
 GTTQ.degC              00 000 000 000:  GT Quartz Temperature
 GTTN.NONE              00 000 000 000:  GT Test Number
 GTET.sec               00 000 000 000:  GT Elapsed Test Time
 GTTVD.m                00 000 000 000:  GT True Vertical Depth
#Other Information
#
#WARRANTY: Halliburton will use its best efforts to furnish customers with 
#accurate information and interpretations that are part of, and incident to, the services 
#provided.  However, Halliburton cannot and does not warrant the accuracy 
#or correctness of such information and interpretations.  Under no circumstances should any 
#such information or interpretation be relied upon as the sole basis for any drilling, 
#completion, production, or financial decision or any procedure involving any risk to the 
#safety of any drilling venture, drilling rig or its crew or any other third party.  The 
#Customer has full responsibility for all drilling, completion and production operation.  
#Halliburton makes no representations or warranties, either expressed or 
#implied, including, but not limited to, the implied warranties of merchantability or fitness 
#for a particular purpose, with respect to the services rendered.  In no event will 
#Halliburton be liable for failure to obtain any particular results or for 
#any damages, including, but not limited to, indirect, special or consequential damages, 
#resulting from the use of any information or interpretation provided by Halliburton.
#
~A           TIME           GTDEPTH  GTPQH  GTTQ  GTTN  GTET   GTTVD  
# ...
   06:45:45.000.03-Feb-2020 4003.01 6048.21 64.34 8.00 207.00 3015.22
   06:45:45.200.03-Feb-2020 4003.01 6048.21 64.34 8.00 207.20 3015.22
   06:45:45.400.03-Feb-2020 4003.01 6047.71 64.34 8.00 207.40 3015.22
   06:45:45.600.03-Feb-2020 4003.01 6048.22 64.34 8.00 207.60 3015.22
   06:45:45.800.03-Feb-2020 4003.01 6042.81 64.34 8.00 207.80 3015.22
   06:45:46.000.03-Feb-2020 4003.01 6044.90 64.34 8.00 208.00 3015.22
   06:45:46.200.03-Feb-2020 4003.01 6044.90 64.34 8.00 208.20 3015.22
   06:45:46.400.03-Feb-2020 4003.01 6048.38 64.34 8.00 208.40 3015.22
   06:45:46.600.03-Feb-2020 4003.01 6048.02 64.34 8.00 208.60 3015.22
   06:45:46.800.03-Feb-2020 4003.01 6048.94 64.34 8.00 208.80 3015.22
   06:45:47.000.03-Feb-2020 4003.01 6050.04 64.34 8.00 209.00 3015.22
   06:45:47.200.03-Feb-2020 4003.01 6050.04 64.34 8.00 209.20 3015.22
   06:45:47.400.03-Feb-2020 4003.01 6047.64 64.34 8.00 209.40 3015.22
   06:45:47.600.03-Feb-2020 4003.01 6044.12 64.34 8.00 209.60 3015.22
   06:45:47.800.03-Feb-2020 4003.01 6047.57 64.34 8.00 209.80 3015.22
   06:45:48.000.03-Feb-2020 4003.01 6047.32 64.34 8.00 210.00 3015.22
   06:45:48.200.03-Feb-2020 4003.01 6047.32 64.34 8.00 210.20 3015.22
   06:45:48.400.03-Feb-2020 4003.01 6039.21 64.34 8.00 210.40 3015.22
   06:45:48.600.03-Feb-2020 4003.01 6046.16 64.34 8.00 210.60 3015.22
   06:45:48.800.03-Feb-2020 4003.01 6046.06 64.34 8.00 210.80 3015.22
   06:45:49.000.03-Feb-2020 4003.01 6049.77 64.34 8.00 211.00 3015.22
   06:45:49.200.03-Feb-2020 4003.01 6049.77 64.34 8.00 211.20 3015.22
   06:45:49.400.03-Feb-2020 4003.01 6048.86 64.34 8.00 211.40 3015.22
   06:45:49.600.03-Feb-2020 4003.01 6046.40 64.34 8.00 211.60 3015.22
   06:45:49.800.03-Feb-2020 4003.01 6040.23 64.34 8.00 211.80 3015.22
   06:45:50.000.03-Feb-2020 4003.01 6042.89 64.34 8.00 212.00 3015.22
   06:45:50.200.03-Feb-2020 4003.01 6042.89 64.34 8.00 212.20 3015.22
   06:45:50.400.03-Feb-2020 4003.01 6048.40 64.34 8.00 212.40 3015.22
   06:45:50.600.03-Feb-2020 4003.01 6047.83 64.34 8.00 212.60 3015.22
   06:45:50.800.03-Feb-2020 4003.01 6047.80 64.34 8.00 212.80 3015.22
   06:45:51.000.03-Feb-2020 4003.01 6047.27 64.34 8.00 213.00 3015.22
   06:45:51.200.03-Feb-2020 4003.01 6047.27 64.34 8.00 213.20 3015.22
   06:45:51.400.03-Feb-2020 4003.01 6049.49 64.34 8.00 213.40 3015.22
   06:45:51.600.03-Feb-2020 4003.01 6049.94 64.34 8.00 213.60 3015.22
   06:45:51.800.03-Feb-2020 4003.01 6049.34 64.34 8.00 213.80 3015.22
   06:45:52.000.03-Feb-2020 4003.01 6049.01 64.34 8.00 214.00 3015.22
   06:45:52.200.03-Feb-2020 4003.01 6049.01 64.34 8.00 214.20 3015.22
   06:45:52.400.03-Feb-2020 4003.01 6047.27 64.34 8.00 214.40 3015.22
   06:45:52.600.03-Feb-2020 4003.01 6047.60 64.34 8.00 214.60 3015.22
   06:45:52.800.03-Feb-2020 4003.01 6048.97 64.34 8.00 214.80 3015.22
   06:45:53.000.03-Feb-2020 4003.01 6039.67 64.34 8.00 215.00 3015.22
   06:45:53.200.03-Feb-2020 4003.01 6039.67 64.34 8.00 215.20 3015.22
   06:45:53.400.03-Feb-2020 4003.01 6044.06 64.34 8.00 215.40 3015.22
   06:45:53.600.03-Feb-2020 4003.01 6046.72 64.34 8.00 215.60 3015.22
   06:45:53.800.03-Feb-2020 4003.01 6046.47 64.34 8.00 215.80 3015.22
   06:45:54.000.03-Feb-2020 4003.01 6047.26 64.34 8.00 216.00 3015.22
   06:45:54.200.03-Feb-2020 4003.01 6048.17 64.34 8.00 216.20 3015.22
   06:45:54.400.03-Feb-2020 4003.01 6048.93 64.34 8.00 216.40 3015.22
   06:45:54.600.03-Feb-2020 4003.01 6048.67 64.34 8.00 216.60 3015.22
   06:45:54.800.03-Feb-2020 4003.01 6048.14 64.34 8.00 216.80 3015.22
   06:45:55.000.03-Feb-2020 4003.01 6048.09 64.34 8.00 217.00 3015.22
   06:45:55.200.03-Feb-2020 4003.01 6048.09 64.34 8.00 217.20 3015.22
   06:45:55.400.03-Feb-2020 4003.01 6048.47 64.34 8.00 217.40 3015.22
   06:45:55.600.03-Feb-2020 4003.01 6046.51 64.34 8.00 217.60 3015.22
   06:45:55.800.03-Feb-2020 4003.01 6040.31 64.34 8.00 217.80 3015.22
   06:45:56.000.03-Feb-2020 4003.01 6046.68 64.34 8.00 218.00 3015.22
   06:45:56.200.03-Feb-2020 4003.01 6046.68 64.34 8.00 218.20 3015.22
   06:45:56.400.03-Feb-2020 4003.01 6048.28 64.34 8.00 218.40 3015.22
   06:45:56.600.03-Feb-2020 4003.01 6048.54 64.34 8.00 218.60 3015.22
   06:45:56.800.03-Feb-2020 4003.01 6049.96 64.34 8.00 218.80 3015.22
   06:45:57.000.03-Feb-2020 4003.01 6047.65 64.34 8.00 219.00 3015.22
   06:45:57.200.03-Feb-2020 4003.01 6047.65 64.34 8.00 219.20 3015.22
   06:45:57.400.03-Feb-2020 4003.01 6045.29 64.34 8.00 219.40 3015.22
   06:45:57.600.03-Feb-2020 4003.01 6045.61 64.34 8.00 219.60 3015.22
   06:45:57.800.03-Feb-2020 4003.01 6044.97 64.34 8.00 219.80 3015.22
   06:45:58.000.03-Feb-2020 4003.01 6040.70 64.34 8.00 220.00 3015.22
   06:45:58.200.03-Feb-2020 4003.01 6040.70 64.34 8.00 220.20 3015.22
   06:45:58.400.03-Feb-2020 4003.01 6045.76 64.34 8.00 220.40 3015.22
   06:45:58.600.03-Feb-2020 4003.01 6048.03 64.33 8.00 220.60 3015.22
   06:45:58.800.03-Feb-2020 4003.01 6049.72 64.33 8.00 220.80 3015.22
   06:45:59.000.03-Feb-2020 4003.01 6047.33 64.33 8.00 221.00 3015.22
   06:45:59.200.03-Feb-2020 4003.01 6047.33 64.33 8.00 221.20 3015.22
   06:45:59.400.03-Feb-2020 4003.01 6045.12 64.33 8.00 221.40 3015.22
   06:45:59.600.03-Feb-2020 4003.01 6046.10 64.33 8.00 221.60 3015.22
   06:45:59.800.03-Feb-2020 4003.01 6045.78 64.33 8.00 221.80 3015.22
   06:46:00.000.03-Feb-2020 4003.01 6047.10 64.33 8.00 222.00 3015.22
   06:46:00.200.03-Feb-2020 4003.01 6047.10 64.33 8.00 222.20 3015.22
   06:46:00.400.03-Feb-2020 4003.01 6048.42 64.33 8.00 222.40 3015.22
   06:46:00.600.03-Feb-2020 4003.01 6046.95 64.33 8.00 222.60 3015.22
   06:46:00.800.03-Feb-2020 4003.01 6048.02 64.33 8.00 222.80 3015.22
   06:46:01.000.03-Feb-2020 4003.01 6049.38 64.33 8.00 223.00 3015.22
   06:46:01.200.03-Feb-2020 4003.01 6049.38 64.33 8.00 223.20 3015.22
   06:46:01.400.03-Feb-2020 4003.01 6049.48 64.33 8.00 223.40 3015.22
   06:46:01.600.03-Feb-2020 4003.01 6049.20 64.33 8.00 223.60 3015.22
   06:46:01.800.03-Feb-2020 4003.01 6047.96 64.33 8.00 223.80 3015.22
   06:46:02.000.03-Feb-2020 4003.01 6048.49 64.33 8.00 224.00 3015.22
   06:46:02.200.03-Feb-2020 4003.01 6048.49 64.33 8.00 224.20 3015.22
   06:46:02.400.03-Feb-2020 4003.01 6039.18 64.33 8.00 224.40 3015.22
   06:46:02.600.03-Feb-2020 4003.01 6046.24 64.33 8.00 224.60 3015.22
   06:46:02.800.03-Feb-2020 4003.01 6044.43 64.33 8.00 224.80 3015.22
   06:46:03.000.03-Feb-2020 4003.01 6047.50 64.33 8.00 225.00 3015.22
   06:46:03.200.03-Feb-2020 4003.01 6047.50 64.33 8.00 225.20 3015.22
   06:46:03.400.03-Feb-2020 4003.01 6046.45 64.33 8.00 225.40 3015.22
   06:46:03.600.03-Feb-2020 4003.01 6046.77 64.33 8.00 225.60 3015.22
   06:46:03.800.03-Feb-2020 4003.01 6047.03 64.33 8.00 225.80 3015.22
   06:46:04.000.03-Feb-2020 4003.01 6046.85 64.33 8.00 226.00 3015.22
   06:46:04.200.03-Feb-2020 4003.01 6046.85 64.33 8.00 226.20 3015.22
   06:46:04.400.03-Feb-2020 4003.01 6048.28 64.33 8.00 226.40 3015.22
   06:46:04.600.03-Feb-2020 4003.01 6047.90 64.33 8.00 226.60 3015.22
   06:46:04.800.03-Feb-2020 4003.01 6047.77 64.33 8.00 226.80 3015.22
   06:46:05.000.03-Feb-2020 4003.01 6045.64 64.33 8.00 227.00 3015.22
   06:46:05.200.03-Feb-2020 4003.01 6045.64 64.33 8.00 227.20 3015.22
   06:46:05.400.03-Feb-2020 4003.01 6046.80 64.33 8.00 227.40 3015.22
   06:46:05.600.03-Feb-2020 4003.01 6047.30 64.33 8.00 227.60 3015.22
   06:46:05.800.03-Feb-2020 4003.01 6048.29 64.33 8.00 227.80 3015.22
   06:46:06.000.03-Feb-2020 4003.01 6048.72 64.33 8.00 228.00 3015.22
   06:46:06.200.03-Feb-2020 4003.01 6048.72 64.33 8.00 228.20 3015.22
   06:46:06.400.03-Feb-2020 4003.01 6044.17 64.33 8.00 228.40 3015.22
   06:46:06.600.03-Feb-2020 4003.01 6045.82 64.33 8.00 228.60 3015.22
   06:46:06.800.03-Feb-2020 4003.01 6044.28 64.33 8.00 228.80 3015.22
   06:46:07.000.03-Feb-2020 4003.01 6047.30 64.33 8.00 229.00 3015.22
   06:46:07.200.03-Feb-2020 4003.01 6047.30 64.33 8.00 229.20 3015.22
   06:46:07.400.03-Feb-2020 4003.01 6047.98 64.33 8.00 229.40 3015.22
   06:46:07.600.03-Feb-2020 4003.01 6040.00 64.33 8.00 229.60 3015.22
   06:46:07.800.03-Feb-2020 4003.01 6045.91 64.33 8.00 229.80 3015.22
