~Version Information
 VERS.                  2.0:   CWLS log ASCII Standard -VERSION 2.0
 WRAP.                   NO:   One line per depth step
~Well Information Block
#MNEM.UNIT     VALUE/NAME     DESCRIPTION
#---------     -----------    ---------------------------
 STRT.S             05:00:30 03-Feb-20: START TIME 05:00:30 03-Feb-20
 STOP.S             05:08:21 03-Feb-20: STOP TIME  05:08:21 03-Feb-20
 STEP.S                   0.00: STEP TIME
 NULL.                 -999.25: NULL VALUE
 DFWT.                        :  DIST FWL TEXT
 DFST.                        :  DIST FSL TEXT
 DMF .             Drill Floor:  DRILL MEAS FROM
 STIM.      09.30.00 26-Dec-19:  START TIME
 DATE.      08.00.00 20-Jan-20:  END TIME
 SPUD.               23-Nov-19:  SPUD DATE
 NREF.                    Grid:  NORTH REFERENCE
 HPTY.       Minimum Curvature:  HOLE POS TYPE
 DMOD.             Drill Model:  DRILL MOD DESC
 SVYD.                  Survey:  SURVEY DESC
 ILTD.               Lithology:  INTERP LTH DESC
 FTOP.          Formation Tops:  FORM TOPS DESC
 SON .        AZ-XX-0906192647:  JOB NUMBER
 WTYP.                Deviated:  WELL TYPE
 COMP.     BP Exploration (Caspian Sea) Ltd:  COMPANY
 BASE.              Azerbaijan:  LOGGING EQUIPMENT BASE LOCATION
 REGN.                 Eurasia:  REGION
 FLD .                     ACG:  FIELD NAME
 SRVC.              KCA Deutag:  CONTRACTOR
 MWDS.                    Baku:  MWD SHOP
 WELL.     A10 (Slot 20) - SCP:  WELL NAME
 JOBN.        AZ-XX-0906192647:  JOB TICKET NUMB
 RIG .                 Chirag1:  RIG NAME
 DCON.     Halliburton Sperry Drilling:  DIRECTNL CONTR
 UNIT.                     N/A:  LOGGING EQUIPMENT ID
 PDAT.          Mean Sea Level:  PERMANENT DATUM
 MDS .        Operator Entered:  MAG DATA SOURCE
 CTRY.              Azerbaijan:  COUNTRY NAME
 UWI .            /AZE00000090:  UNIQUE WELL IDENTIFIER
 API .            /AZE00000090:  API NUMBER
 CNTY.                        :  COUNTY
 PROV.                        :  PROVINCE
 STAT.                        :  STATE
 LOC .                        :  LOCATION
 LMF .             Drill Floor:  LOG MEASURED FROM
 TVDS.m                  36.60:  TVDSS CORRECTN
 LATI.deg                40.08:  LATITUDE
 LONG.deg                51.24:  LONGITUDE
 WHNS.m                  -7.94:  WELL HEAD N/S
 WHEW.m                   1.56:  WELL HEAD E/W
 UTMX.m              520429.26:  UTM X
 UTMY.m             4438973.87:  UTM Y
 DFWL.m                   0.00:  DISTANCE FWL
 DFSL.m                   0.00:  DISTANCE FSL
 SDEP.m                1455.00:  START DEPTH
 TDD .m                4047.51:  TOTAL DEPTH (DRILLER)
 VSDR.deg               112.75:  VERT SEC DIRECT
 GVFD.g                   1.00:  GRAVITY FIELD
 MFLD.nT              50261.00:  MAGNETIC FIELD
 MDIP.deg                59.52:  MAGNETIC DIP
 MDEC.deg                 6.42:  MAGNETIC DECL
 GRDC.deg                 0.17:  GRID CORRECTION
 AZTC.deg                 6.25:  AZM TOTAL CORR
 EPD .m                   0.00:  ELEVATION
 EGL .m                   0.00:  GROUND ELEVATION
 WDMS.m                 121.00:  WD ELEV
 APD .m                  36.60:  DEPTH ABOVE PD
 AGAP.m                  36.60:  AIR GAP
 VSEW.m                   1.56:  VERT SEC E/W
 VSNS.m                  -7.94:  VERT SEC N/S
 DEP .m                1140.01:  DEPTH
 EKB .m                  36.60:  KB ELEVATION
 EDF .m                  36.60:  DF ELEVATION
 VSC .                       0:  VS TO CLOSURE
 MAGU.                 1849206:  MAGUTM CHECKSUM
~Parameter Information Block
#MNEM.UNIT       Value        Description
#---------     -----------    ---------------------------
 AV  .mps                 1.70:  Ann Velocity 
 AVMX.mps                 2.30:  Max Ann Veloc 
 AZIF.deg               137.03:  Azm, Final 
 BHAT.                   Other:  BHA Type 
 BROT.°/30m               0.80:  Build Rotating 
 BS  .in                  8.00:  Bit Size 
 BTPL.psig              161.00:  Bit Press Loss 
 CABU.                      No:  Customer Abuse 
 COMM.                     ,¶W:  Run Comments 1 
 TCS .hr                  9.59:  Time Ciculation Ended 
 CV  .mps                 3.76:  Crit Velocity 
 CVMX.mps                 4.26:  Max Crit Veloc 
 DD1 .         Intigam Rahimov:  Direct Drillr 1 
 DD2 .          Rashad Gojayev:  Direct Drillr 2 
 DDSV.                   Other:  DD Service 
 DEFF.%                 100.00:  % Det Eff 
 DLRX.°/30m               1.44:  Dogleg Rot Max 
 DLSO.°/30m               0.00:  Dogleg Oriented 
 DLSX.°/30m               0.00:  Dogleg Str Max 
 DRET.      03.31.12 02-Feb-20:  Drill End Time 
 DRST.      03.31.12 02-Feb-20:  Drill Start Tim 
 DTIM.hr                  1.99:  Time Drilling 
 EDEP.m                4047.51:  End Depth 
 ENG1.           Eldar Hajiyev:  Engineer 1 
 ENG2.          Rasim Hashimov:  Engineer 2 
 ENG3.          Rustam Safarov:  Engineer 3 
 ETIM.      03.31.12 02-Feb-20:  End Time 
 FLOI.gpm               300.00:  Flow In 
 FLON.gpm               250.00:  Flow In Min 
 FLOS.cptm                0.00:  Fluid Loss 
 FLOX.gpm               330.00:  Flow In Max 
 HFLO.                      No:  High Flow 
 HPRE.                      No:  High Pressure 
 HTEM.                      No:  High Temp 
 HYDO.m                   2.50:  Hydro Offset 
 IFIN.deg                39.54:  Inc, Final 
 IMAX.deg                41.14:  Inc Max 
 IMIN.deg                39.81:  Inc Min 
 IMND.m                4005.21:  Inc Min Depth 
 IMXD.m                3948.42:  Inc Max Depth 
 JARR.                      No:  Jarring 
 LETM.      03.31.12 02-Feb-20:  Log End Time 
 LOST.hr                     0:  Lost Rig Time 
 LSTM.      03.31.12 02-Feb-20:  Log Start Time 
 MDCL.ppm             35000.00:  Mud Chlorides 
 MDES.     Inversion Oil/Synthetic:  Mud Desc 
 DFD .sg                  1.32:  Mud Density 
 MDMN.sg                  1.32:  Dens Mud Min 
 MDMX.sg                  1.32:  Dens Mud Max 
 MOIL.                      59:  Run Mud Oil % 
 MOWR.                   71:29:  Run Mud OWR 
 MSND.                       0:  Run Mud Sand % 
 MSOL.                      17:  Run Mud Solids% 
 DFV .spqt               86.00:  Mud Viscosity 
 MWOD.in                  4.75:  MWD Tool OD 
 MWSI.                      No:  Serv Intrp, MWD 
 OTIM.hr                 46.72:  Time Operating 
 PCON.           Look Like New:  Pad Condition 
 PMAX.psia             3300.00:  Press Op, Max 
 PV  .cP                 30.00:  Mud PV 
 RUN .                     400:  Run Number 
 ROPA.m/hr               35.00:  ROP Avg 
 ROPN.m/hr               25.00:  ROP Min 
 ROPX.m/hr               40.00:  ROP Max 
 RPMA.rpm                80.00:  RPM Surface Avg 
 RPMN.rpm                60.00:  RPM Surface Min 
 RPMX.rpm               100.00:  RPM Surface Max 
 RRUN.                     400:  Rig Run Number 
 RTIM.hr                  1.99:  Time Reaming 
 SAZI.deg               133.93:  Azm, Start 
 SDEP.m                4047.51:  Start Depth 
 SIDD.                      No:  Serv Intrp, DD 
 SINC.deg                40.28:  Inc, Start 
 SPPA.psig             3250.00:  SPP Avg 
 SPPN.psig             3200.00:  SPP Min 
 SPPX.psig             3300.00:  SPP Max 
 STIM.      03.31.12 02-Feb-20:  Start Time 
 SVCS.                 DD, MWD:  Services 
 SVER.                    9.20:  Sperry Version 
 TDAT.m                  47.00:  Tot Depth Attmp 
 TDDF.                      No:  Trip for DD 
 TFF .                      No:  Trip for Fail 
 TQAA.f-kp                0.00:  Torque Abs Avg 
 TQAN.f-kp                0.00:  Torque Abs Min 
 TQAX.f-kp                0.00:  Torque Abs Max 
 TRRT.°/30m               0.70:  Turn Rotating 
 MRT .                    HCIM:  Maximum Recorded Temperature 
 TTMX.degC               70.59:  Max Tool Temp 
 VS01.             90598770F11:  Virtual Str1 SN 
 VS02.             90598769F11:  Virtual Str2 SN 
 VS03.            90515978Z1W1:  Virtual Str3 SN 
 VS04.          90584144R12X14:  Virtual Str4 SN 
 WBMN.klb                 0.00:  WOB Min 
 WITN.            Peter Wilson:  Customer Rep 
 WOBA.klb                 0.00:  WOB Avg 
 WOBX.klb                 0.00:  WOB Max 
 YP  .lhf2               29.00:  Yield Point 
~Curve Information Block
#MNEM.UNIT                 API CODE     Curve Description
#---------               -----------    ---------------------------
 TIME.HHMMSS            00 000 000 000:  GT Time & Date
 GTDEPTH.m              00 000 000 000:  GT Depth
 GTPQH.psia             00 000 000 000:  GT HR Quartz Pressure
 GTTQ.degC              00 000 000 000:  GT Quartz Temperature
 GTTN.NONE              00 000 000 000:  GT Test Number
 GTET.sec               00 000 000 000:  GT Elapsed Test Time
 GTTVD.m                00 000 000 000:  GT True Vertical Depth
#Other Information
#
#WARRANTY: Halliburton will use its best efforts to furnish customers with 
#accurate information and interpretations that are part of, and incident to, the services 
#provided.  However, Halliburton cannot and does not warrant the accuracy 
#or correctness of such information and interpretations.  Under no circumstances should any 
#such information or interpretation be relied upon as the sole basis for any drilling, 
#completion, production, or financial decision or any procedure involving any risk to the 
#safety of any drilling venture, drilling rig or its crew or any other third party.  The 
#Customer has full responsibility for all drilling, completion and production operation.  
#Halliburton makes no representations or warranties, either expressed or 
#implied, including, but not limited to, the implied warranties of merchantability or fitness 
#for a particular purpose, with respect to the services rendered.  In no event will 
#Halliburton be liable for failure to obtain any particular results or for 
#any damages, including, but not limited to, indirect, special or consequential damages, 
#resulting from the use of any information or interpretation provided by Halliburton.
#
~A           TIME           GTDEPTH  GTPQH  GTTQ  GTTN  GTET   GTTVD  
# ...
   05:00:53.000.03-Feb-2020 4009.01 6081.16 66.27 4.00  23.00 3019.83
   05:00:53.200.03-Feb-2020 4009.01 6081.16 66.27 4.00  23.20 3019.83
   05:00:53.400.03-Feb-2020 4009.01 6079.72 66.27 4.00  23.40 3019.83
   05:00:53.600.03-Feb-2020 4009.01 6078.34 66.27 4.00  23.60 3019.83
   05:00:53.800.03-Feb-2020 4009.01 6078.52 66.27 4.00  23.80 3019.83
   05:00:54.000.03-Feb-2020 4009.01 6081.48 66.27 4.00  24.00 3019.83
   05:00:54.200.03-Feb-2020 4009.01 6081.48 66.27 4.00  24.20 3019.83
   05:00:54.400.03-Feb-2020 4009.01 6081.92 66.26 4.00  24.40 3019.83
   05:00:54.600.03-Feb-2020 4009.01 6082.76 66.26 4.00  24.60 3019.83
   05:00:54.800.03-Feb-2020 4009.01 6082.77 66.26 4.00  24.80 3019.83
   05:00:55.000.03-Feb-2020 4009.01 6082.04 66.26 4.00  25.00 3019.83
   05:00:55.200.03-Feb-2020 4009.01 6082.04 66.26 4.00  25.20 3019.83
   05:00:55.400.03-Feb-2020 4009.01 6082.95 66.26 4.00  25.40 3019.83
   05:00:55.600.03-Feb-2020 4009.01 6083.80 66.26 4.00  25.60 3019.83
   05:00:55.800.03-Feb-2020 4009.01 6084.11 66.26 4.00  25.80 3019.83
   05:00:56.000.03-Feb-2020 4009.01 6083.58 66.26 4.00  26.00 3019.83
   05:00:56.200.03-Feb-2020 4009.01 6083.58 66.26 4.00  26.20 3019.83
   05:00:56.400.03-Feb-2020 4009.01 6084.07 66.26 4.00  26.40 3019.83
   05:00:56.600.03-Feb-2020 4009.01 6080.58 66.26 4.00  26.60 3019.83
   05:00:56.800.03-Feb-2020 4009.01 6084.86 66.26 4.00  26.80 3019.83
   05:00:57.000.03-Feb-2020 4009.01 6083.24 66.26 4.00  27.00 3019.83
   05:00:57.200.03-Feb-2020 4009.01 6083.24 66.26 4.00  27.20 3019.83
   05:00:57.400.03-Feb-2020 4009.01 6076.83 66.26 4.00  27.40 3019.83
   05:00:57.600.03-Feb-2020 4009.01 6084.72 66.26 4.00  27.60 3019.83
   05:00:57.800.03-Feb-2020 4009.01 6079.02 66.26 4.00  27.80 3019.83
   05:00:58.000.03-Feb-2020 4009.01 6084.09 66.26 4.00  28.00 3019.83
   05:00:58.200.03-Feb-2020 4009.01 6084.09 66.26 4.00  28.20 3019.83
   05:00:58.400.03-Feb-2020 4009.01 6084.27 66.26 4.00  28.40 3019.83
   05:00:58.600.03-Feb-2020 4009.01 6083.52 66.26 4.00  28.60 3019.83
   05:00:58.800.03-Feb-2020 4009.01 6075.44 66.26 4.00  28.80 3019.83
   05:00:59.000.03-Feb-2020 4009.01 6080.62 66.25 4.00  29.00 3019.83
   05:00:59.200.03-Feb-2020 4009.01 6080.62 66.25 4.00  29.20 3019.83
   05:00:59.400.03-Feb-2020 4009.01 6085.18 66.25 4.00  29.40 3019.83
   05:00:59.600.03-Feb-2020 4009.01 6083.75 66.25 4.00  29.60 3019.83
   05:00:59.800.03-Feb-2020 4009.01 6084.15 66.25 4.00  29.80 3019.83
   05:01:00.000.03-Feb-2020 4009.01 6082.34 66.25 4.00  30.00 3019.83
   05:01:00.200.03-Feb-2020 4009.01 6082.34 66.25 4.00  30.20 3019.83
   05:01:00.400.03-Feb-2020 4009.01 6081.81 66.25 4.00  30.40 3019.83
   05:01:00.600.03-Feb-2020 4009.01 6081.76 66.25 4.00  30.60 3019.83
   05:01:00.800.03-Feb-2020 4009.01 6083.05 66.25 4.00  30.80 3019.83
   05:01:01.000.03-Feb-2020 4009.01 6083.16 66.25 4.00  31.00 3019.83
   05:01:01.200.03-Feb-2020 4009.01 6083.16 66.25 4.00  31.20 3019.83
   05:01:01.400.03-Feb-2020 4009.01 6082.42 66.25 4.00  31.40 3019.83
   05:01:01.600.03-Feb-2020 4009.01 6082.99 66.25 4.00  31.60 3019.83
   05:01:01.800.03-Feb-2020 4009.01 6085.44 66.25 4.00  31.80 3019.83
   05:01:02.000.03-Feb-2020 4009.01 6085.36 66.25 4.00  32.00 3019.83
   05:01:02.200.03-Feb-2020 4009.01 6085.36 66.25 4.00  32.20 3019.83
   05:01:02.400.03-Feb-2020 4009.01 6084.30 66.25 4.00  32.40 3019.83
   05:01:02.600.03-Feb-2020 4009.01 6084.54 66.25 4.00  32.60 3019.83
   05:01:02.800.03-Feb-2020 4009.01 6083.23 66.25 4.00  32.80 3019.83
   05:01:03.000.03-Feb-2020 4009.01 6082.39 66.25 4.00  33.00 3019.83
   05:01:03.200.03-Feb-2020 4009.01 6082.39 66.25 4.00  33.20 3019.83
   05:01:03.400.03-Feb-2020 4009.01 6073.94 66.25 4.00  33.40 3019.83
   05:01:03.600.03-Feb-2020 4009.01 6083.65 66.25 4.00  33.60 3019.83
   05:01:03.800.03-Feb-2020 4009.01 6078.64 66.24 4.00  33.80 3019.83
   05:01:04.000.03-Feb-2020 4009.01 6082.65 66.24 4.00  34.00 3019.83
   05:01:04.200.03-Feb-2020 4009.01 6082.65 66.24 4.00  34.20 3019.83
   05:01:04.400.03-Feb-2020 4009.01 6083.86 66.24 4.00  34.40 3019.83
   05:01:04.600.03-Feb-2020 4009.01 6084.94 66.24 4.00  34.60 3019.83
   05:01:04.800.03-Feb-2020 4009.01 6084.68 66.24 4.00  34.80 3019.83
   05:01:05.000.03-Feb-2020 4009.01 6084.84 66.24 4.00  35.00 3019.83
   05:01:05.200.03-Feb-2020 4009.01 6084.84 66.24 4.00  35.20 3019.83
   05:01:05.400.03-Feb-2020 4009.01 6084.23 66.24 4.00  35.40 3019.83
   05:01:05.600.03-Feb-2020 4009.01 6084.45 66.24 4.00  35.60 3019.83
   05:01:05.800.03-Feb-2020 4009.01 6085.46 66.24 4.00  35.80 3019.83
   05:01:06.000.03-Feb-2020 4009.01 6084.24 66.24 4.00  36.00 3019.83
   05:01:06.200.03-Feb-2020 4009.01 6084.24 66.24 4.00  36.20 3019.83
   05:01:06.400.03-Feb-2020 4009.01 6084.06 66.24 4.00  36.40 3019.83
   05:01:06.600.03-Feb-2020 4009.01 6082.96 66.24 4.00  36.60 3019.83
   05:01:06.800.03-Feb-2020 4009.01 6084.99 66.24 4.00  36.80 3019.83
   05:01:07.000.03-Feb-2020 4009.01 6084.73 66.24 4.00  37.00 3019.83
   05:01:07.200.03-Feb-2020 4009.01 6084.73 66.24 4.00  37.20 3019.83
   05:01:07.400.03-Feb-2020 4009.01 6075.68 66.24 4.00  37.40 3019.83
   05:01:07.600.03-Feb-2020 4009.01 6085.21 66.24 4.00  37.60 3019.83
   05:01:07.800.03-Feb-2020 4009.01 6080.35 66.24 4.00  37.80 3019.83
   05:01:08.000.03-Feb-2020 4009.01 6084.80 66.24 4.00  38.00 3019.83
   05:01:08.200.03-Feb-2020 4009.01 6084.80 66.24 4.00  38.20 3019.83
   05:01:08.400.03-Feb-2020 4009.01 6085.53 66.24 4.00  38.40 3019.83
   05:01:08.600.03-Feb-2020 4009.01 6074.97 66.24 4.00  38.60 3019.83
   05:01:08.800.03-Feb-2020 4009.01 6084.74 66.24 4.00  38.80 3019.83
   05:01:09.000.03-Feb-2020 4009.01 6080.54 66.23 4.00  39.00 3019.83
   05:01:09.200.03-Feb-2020 4009.01 6080.54 66.23 4.00  39.20 3019.83
   05:01:09.400.03-Feb-2020 4009.01 6085.29 66.23 4.00  39.40 3019.83
   05:01:09.600.03-Feb-2020 4009.01 6086.03 66.23 4.00  39.60 3019.83
   05:01:09.800.03-Feb-2020 4009.01 6085.42 66.23 4.00  39.80 3019.83
   05:01:10.000.03-Feb-2020 4009.01 6073.81 66.23 4.00  40.00 3019.83
   05:01:10.200.03-Feb-2020 4009.01 6073.81 66.23 4.00  40.20 3019.83
   05:01:10.400.03-Feb-2020 4009.01 6081.63 66.23 4.00  40.40 3019.83
   05:01:10.600.03-Feb-2020 4009.01 6085.73 66.23 4.00  40.60 3019.83
   05:01:10.800.03-Feb-2020 4009.01 6084.24 66.23 4.00  40.80 3019.83
   05:01:11.000.03-Feb-2020 4009.01 6084.73 66.23 4.00  41.00 3019.83
   05:01:11.200.03-Feb-2020 4009.01 6084.73 66.23 4.00  41.20 3019.83
   05:01:11.400.03-Feb-2020 4009.01 6083.79 66.23 4.00  41.40 3019.83
   05:01:11.600.03-Feb-2020 4009.01 6086.65 66.23 4.00  41.60 3019.83
   05:01:11.800.03-Feb-2020 4009.01 6086.90 66.23 4.00  41.80 3019.83
   05:01:12.000.03-Feb-2020 4009.01 6086.75 66.23 4.00  42.00 3019.83
   05:01:12.200.03-Feb-2020 4009.01 6086.75 66.23 4.00  42.20 3019.83
   05:01:12.400.03-Feb-2020 4009.01 6085.92 66.23 4.00  42.40 3019.83
   05:01:12.600.03-Feb-2020 4009.01 6085.51 66.23 4.00  42.60 3019.83
   05:01:12.800.03-Feb-2020 4009.01 6083.66 66.23 4.00  42.80 3019.83
   05:01:13.000.03-Feb-2020 4009.01 6086.17 66.23 4.00  43.00 3019.83
   05:01:13.200.03-Feb-2020 4009.01 6086.17 66.23 4.00  43.20 3019.83
   05:01:13.400.03-Feb-2020 4009.01 6084.57 66.23 4.00  43.40 3019.83
   05:01:13.600.03-Feb-2020 4009.01 6079.47 66.23 4.00  43.60 3019.83
   05:01:13.800.03-Feb-2020 4009.01 6084.40 66.23 4.00  43.80 3019.83
   05:01:14.000.03-Feb-2020 4009.01 6082.83 66.22 4.00  44.00 3019.83
   05:01:14.200.03-Feb-2020 4009.01 6082.83 66.22 4.00  44.20 3019.83
   05:01:14.400.03-Feb-2020 4009.01 6085.35 66.22 4.00  44.40 3019.83
   05:01:14.600.03-Feb-2020 4009.01 6085.61 66.22 4.00  44.60 3019.83
   05:01:14.800.03-Feb-2020 4009.01 6085.71 66.22 4.00  44.80 3019.83
   05:01:15.000.03-Feb-2020 4009.01 6085.30 66.22 4.00  45.00 3019.83
   05:01:15.200.03-Feb-2020 4009.01 6085.30 66.22 4.00  45.20 3019.83
   05:01:15.400.03-Feb-2020 4009.01 6084.83 66.22 4.00  45.40 3019.83
   05:01:15.600.03-Feb-2020 4009.01 6085.86 66.22 4.00  45.60 3019.83
   05:01:15.800.03-Feb-2020 4009.01 6086.23 66.22 4.00  45.80 3019.83
