~Version Information
 VERS.                  2.0:   CWLS log ASCII Standard -VERSION 2.0
 WRAP.                   NO:   One line per depth step
~Well Information Block
#MNEM.UNIT     VALUE/NAME     DESCRIPTION
#---------     -----------    ---------------------------
 STRT.S             06:17:54 03-Feb-20: START TIME 06:17:54 03-Feb-20
 STOP.S             06:25:43 03-Feb-20: STOP TIME  06:25:43 03-Feb-20
 STEP.S                   0.00: STEP TIME
 NULL.                 -999.25: NULL VALUE
 DFWT.                        :  DIST FWL TEXT
 DFST.                        :  DIST FSL TEXT
 DMF .             Drill Floor:  DRILL MEAS FROM
 STIM.      09.30.00 26-Dec-19:  START TIME
 DATE.      08.00.00 20-Jan-20:  END TIME
 SPUD.               23-Nov-19:  SPUD DATE
 NREF.                    Grid:  NORTH REFERENCE
 HPTY.       Minimum Curvature:  HOLE POS TYPE
 DMOD.             Drill Model:  DRILL MOD DESC
 SVYD.                  Survey:  SURVEY DESC
 ILTD.               Lithology:  INTERP LTH DESC
 FTOP.          Formation Tops:  FORM TOPS DESC
 SON .        AZ-XX-0906192647:  JOB NUMBER
 WTYP.                Deviated:  WELL TYPE
 COMP.     BP Exploration (Caspian Sea) Ltd:  COMPANY
 BASE.              Azerbaijan:  LOGGING EQUIPMENT BASE LOCATION
 REGN.                 Eurasia:  REGION
 FLD .                     ACG:  FIELD NAME
 SRVC.              KCA Deutag:  CONTRACTOR
 MWDS.                    Baku:  MWD SHOP
 WELL.     A10 (Slot 20) - SCP:  WELL NAME
 JOBN.        AZ-XX-0906192647:  JOB TICKET NUMB
 RIG .                 Chirag1:  RIG NAME
 DCON.     Halliburton Sperry Drilling:  DIRECTNL CONTR
 UNIT.                     N/A:  LOGGING EQUIPMENT ID
 PDAT.          Mean Sea Level:  PERMANENT DATUM
 MDS .        Operator Entered:  MAG DATA SOURCE
 CTRY.              Azerbaijan:  COUNTRY NAME
 UWI .            /AZE00000090:  UNIQUE WELL IDENTIFIER
 API .            /AZE00000090:  API NUMBER
 CNTY.                        :  COUNTY
 PROV.                        :  PROVINCE
 STAT.                        :  STATE
 LOC .                        :  LOCATION
 LMF .             Drill Floor:  LOG MEASURED FROM
 TVDS.m                  36.60:  TVDSS CORRECTN
 LATI.deg                40.08:  LATITUDE
 LONG.deg                51.24:  LONGITUDE
 WHNS.m                  -7.94:  WELL HEAD N/S
 WHEW.m                   1.56:  WELL HEAD E/W
 UTMX.m              520429.26:  UTM X
 UTMY.m             4438973.87:  UTM Y
 DFWL.m                   0.00:  DISTANCE FWL
 DFSL.m                   0.00:  DISTANCE FSL
 SDEP.m                1455.00:  START DEPTH
 TDD .m                4047.51:  TOTAL DEPTH (DRILLER)
 VSDR.deg               112.75:  VERT SEC DIRECT
 GVFD.g                   1.00:  GRAVITY FIELD
 MFLD.nT              50261.00:  MAGNETIC FIELD
 MDIP.deg                59.52:  MAGNETIC DIP
 MDEC.deg                 6.42:  MAGNETIC DECL
 GRDC.deg                 0.17:  GRID CORRECTION
 AZTC.deg                 6.25:  AZM TOTAL CORR
 EPD .m                   0.00:  ELEVATION
 EGL .m                   0.00:  GROUND ELEVATION
 WDMS.m                 121.00:  WD ELEV
 APD .m                  36.60:  DEPTH ABOVE PD
 AGAP.m                  36.60:  AIR GAP
 VSEW.m                   1.56:  VERT SEC E/W
 VSNS.m                  -7.94:  VERT SEC N/S
 DEP .m                1140.01:  DEPTH
 EKB .m                  36.60:  KB ELEVATION
 EDF .m                  36.60:  DF ELEVATION
 VSC .                       0:  VS TO CLOSURE
 MAGU.                 1849206:  MAGUTM CHECKSUM
~Parameter Information Block
#MNEM.UNIT       Value        Description
#---------     -----------    ---------------------------
 AV  .mps                 1.70:  Ann Velocity 
 AVMX.mps                 2.30:  Max Ann Veloc 
 AZIF.deg               137.03:  Azm, Final 
 BHAT.                   Other:  BHA Type 
 BROT.°/30m               0.80:  Build Rotating 
 BS  .in                  8.00:  Bit Size 
 BTPL.psig              161.00:  Bit Press Loss 
 CABU.                      No:  Customer Abuse 
 COMM.                     4•z:  Run Comments 1 
 TCS .hr                  9.59:  Time Ciculation Ended 
 CV  .mps                 3.76:  Crit Velocity 
 CVMX.mps                 4.26:  Max Crit Veloc 
 DD1 .         Intigam Rahimov:  Direct Drillr 1 
 DD2 .          Rashad Gojayev:  Direct Drillr 2 
 DDSV.                   Other:  DD Service 
 DEFF.%                 100.00:  % Det Eff 
 DLRX.°/30m               1.44:  Dogleg Rot Max 
 DLSO.°/30m               0.00:  Dogleg Oriented 
 DLSX.°/30m               0.00:  Dogleg Str Max 
 DRET.      03.31.12 02-Feb-20:  Drill End Time 
 DRST.      03.31.12 02-Feb-20:  Drill Start Tim 
 DTIM.hr                  1.99:  Time Drilling 
 EDEP.m                4047.51:  End Depth 
 ENG1.           Eldar Hajiyev:  Engineer 1 
 ENG2.          Rasim Hashimov:  Engineer 2 
 ENG3.          Rustam Safarov:  Engineer 3 
 ETIM.      03.31.12 02-Feb-20:  End Time 
 FLOI.gpm               300.00:  Flow In 
 FLON.gpm               250.00:  Flow In Min 
 FLOS.cptm                0.00:  Fluid Loss 
 FLOX.gpm               330.00:  Flow In Max 
 HFLO.                      No:  High Flow 
 HPRE.                      No:  High Pressure 
 HTEM.                      No:  High Temp 
 HYDO.m                   2.50:  Hydro Offset 
 IFIN.deg                39.54:  Inc, Final 
 IMAX.deg                41.14:  Inc Max 
 IMIN.deg                39.81:  Inc Min 
 IMND.m                4005.21:  Inc Min Depth 
 IMXD.m                3948.42:  Inc Max Depth 
 JARR.                      No:  Jarring 
 LETM.      03.31.12 02-Feb-20:  Log End Time 
 LOST.hr                     0:  Lost Rig Time 
 LSTM.      03.31.12 02-Feb-20:  Log Start Time 
 MDCL.ppm             35000.00:  Mud Chlorides 
 MDES.     Inversion Oil/Synthetic:  Mud Desc 
 DFD .sg                  1.32:  Mud Density 
 MDMN.sg                  1.32:  Dens Mud Min 
 MDMX.sg                  1.32:  Dens Mud Max 
 MOIL.                      59:  Run Mud Oil % 
 MOWR.                   71:29:  Run Mud OWR 
 MSND.                       0:  Run Mud Sand % 
 MSOL.                      17:  Run Mud Solids% 
 DFV .spqt               86.00:  Mud Viscosity 
 MWOD.in                  4.75:  MWD Tool OD 
 MWSI.                      No:  Serv Intrp, MWD 
 OTIM.hr                 46.72:  Time Operating 
 PCON.           Look Like New:  Pad Condition 
 PMAX.psia             3300.00:  Press Op, Max 
 PV  .cP                 30.00:  Mud PV 
 RUN .                     400:  Run Number 
 ROPA.m/hr               35.00:  ROP Avg 
 ROPN.m/hr               25.00:  ROP Min 
 ROPX.m/hr               40.00:  ROP Max 
 RPMA.rpm                80.00:  RPM Surface Avg 
 RPMN.rpm                60.00:  RPM Surface Min 
 RPMX.rpm               100.00:  RPM Surface Max 
 RRUN.                     400:  Rig Run Number 
 RTIM.hr                  1.99:  Time Reaming 
 SAZI.deg               133.93:  Azm, Start 
 SDEP.m                4047.51:  Start Depth 
 SIDD.                      No:  Serv Intrp, DD 
 SINC.deg                40.28:  Inc, Start 
 SPPA.psig             3250.00:  SPP Avg 
 SPPN.psig             3200.00:  SPP Min 
 SPPX.psig             3300.00:  SPP Max 
 STIM.      03.31.12 02-Feb-20:  Start Time 
 SVCS.                 DD, MWD:  Services 
 SVER.                    9.20:  Sperry Version 
 TDAT.m                  47.00:  Tot Depth Attmp 
 TDDF.                      No:  Trip for DD 
 TFF .                      No:  Trip for Fail 
 TQAA.f-kp                0.00:  Torque Abs Avg 
 TQAN.f-kp                0.00:  Torque Abs Min 
 TQAX.f-kp                0.00:  Torque Abs Max 
 TRRT.°/30m               0.70:  Turn Rotating 
 MRT .                    HCIM:  Maximum Recorded Temperature 
 TTMX.degC               70.59:  Max Tool Temp 
 VS01.             90598770F11:  Virtual Str1 SN 
 VS02.             90598769F11:  Virtual Str2 SN 
 VS03.            90515978Z1W1:  Virtual Str3 SN 
 VS04.          90584144R12X14:  Virtual Str4 SN 
 WBMN.klb                 0.00:  WOB Min 
 WITN.            Peter Wilson:  Customer Rep 
 WOBA.klb                 0.00:  WOB Avg 
 WOBX.klb                 0.00:  WOB Max 
 YP  .lhf2               29.00:  Yield Point 
~Curve Information Block
#MNEM.UNIT                 API CODE     Curve Description
#---------               -----------    ---------------------------
 TIME.HHMMSS            00 000 000 000:  GT Time & Date
 GTDEPTH.m              00 000 000 000:  GT Depth
 GTPQH.psia             00 000 000 000:  GT HR Quartz Pressure
 GTTQ.degC              00 000 000 000:  GT Quartz Temperature
 GTTN.NONE              00 000 000 000:  GT Test Number
 GTET.sec               00 000 000 000:  GT Elapsed Test Time
 GTTVD.m                00 000 000 000:  GT True Vertical Depth
#Other Information
#
#WARRANTY: Halliburton will use its best efforts to furnish customers with 
#accurate information and interpretations that are part of, and incident to, the services 
#provided.  However, Halliburton cannot and does not warrant the accuracy 
#or correctness of such information and interpretations.  Under no circumstances should any 
#such information or interpretation be relied upon as the sole basis for any drilling, 
#completion, production, or financial decision or any procedure involving any risk to the 
#safety of any drilling venture, drilling rig or its crew or any other third party.  The 
#Customer has full responsibility for all drilling, completion and production operation.  
#Halliburton makes no representations or warranties, either expressed or 
#implied, including, but not limited to, the implied warranties of merchantability or fitness 
#for a particular purpose, with respect to the services rendered.  In no event will 
#Halliburton be liable for failure to obtain any particular results or for 
#any damages, including, but not limited to, indirect, special or consequential damages, 
#resulting from the use of any information or interpretation provided by Halliburton.
#
~A           TIME           GTDEPTH  GTPQH  GTTQ  GTTN  GTET   GTTVD  
# ...
   06:24:02.000.03-Feb-2020 4005.51  136.52 64.94 7.00 368.00 3017.14
   06:24:02.200.03-Feb-2020 4005.51  136.52 64.94 7.00 368.20 3017.14
   06:24:02.400.03-Feb-2020 4005.51  136.55 64.94 7.00 368.40 3017.14
   06:24:02.600.03-Feb-2020 4005.51  136.56 64.94 7.00 368.60 3017.14
   06:24:02.800.03-Feb-2020 4005.51  136.56 64.94 7.00 368.80 3017.14
   06:24:03.000.03-Feb-2020 4005.51  136.57 64.94 7.00 369.00 3017.14
   06:24:03.200.03-Feb-2020 4005.51  136.57 64.94 7.00 369.20 3017.14
   06:24:03.400.03-Feb-2020 4005.51  136.60 64.94 7.00 369.40 3017.14
   06:24:03.600.03-Feb-2020 4005.51  136.61 64.94 7.00 369.60 3017.14
   06:24:03.800.03-Feb-2020 4005.51  136.61 64.94 7.00 369.80 3017.14
   06:24:04.000.03-Feb-2020 4005.51  136.62 64.94 7.00 370.00 3017.14
   06:24:04.200.03-Feb-2020 4005.51  136.62 64.94 7.00 370.20 3017.14
   06:24:04.400.03-Feb-2020 4005.51  136.63 64.94 7.00 370.40 3017.14
   06:24:04.600.03-Feb-2020 4005.51  136.65 64.94 7.00 370.60 3017.14
   06:24:04.800.03-Feb-2020 4005.51  136.67 64.94 7.00 370.80 3017.14
   06:24:05.000.03-Feb-2020 4005.51  136.68 64.94 7.00 371.00 3017.14
   06:24:05.200.03-Feb-2020 4005.51  136.68 64.94 7.00 371.20 3017.14
   06:24:05.400.03-Feb-2020 4005.51  136.69 64.94 7.00 371.40 3017.14
   06:24:05.600.03-Feb-2020 4005.51  136.70 64.94 7.00 371.60 3017.14
   06:24:05.800.03-Feb-2020 4005.51  136.71 64.94 7.00 371.80 3017.14
   06:24:06.000.03-Feb-2020 4005.51  136.72 64.94 7.00 372.00 3017.14
   06:24:06.200.03-Feb-2020 4005.51  136.73 64.94 7.00 372.20 3017.14
   06:24:06.400.03-Feb-2020 4005.51  136.74 64.94 7.00 372.40 3017.14
   06:24:06.600.03-Feb-2020 4005.51  136.75 64.94 7.00 372.60 3017.14
   06:24:06.800.03-Feb-2020 4005.51  136.74 64.94 7.00 372.80 3017.14
   06:24:07.000.03-Feb-2020 4005.51  136.77 64.94 7.00 373.00 3017.14
   06:24:07.200.03-Feb-2020 4005.51  136.77 64.94 7.00 373.20 3017.14
   06:24:07.400.03-Feb-2020 4005.51  136.79 64.94 7.00 373.40 3017.14
   06:24:07.600.03-Feb-2020 4005.51  136.80 64.94 7.00 373.60 3017.14
   06:24:07.800.03-Feb-2020 4005.51  136.80 64.94 7.00 373.80 3017.14
   06:24:08.000.03-Feb-2020 4005.51  136.81 64.94 7.00 374.00 3017.14
   06:24:08.200.03-Feb-2020 4005.51  136.81 64.94 7.00 374.20 3017.14
   06:24:08.400.03-Feb-2020 4005.51  136.84 64.94 7.00 374.40 3017.14
   06:24:08.600.03-Feb-2020 4005.51  136.84 64.93 7.00 374.60 3017.14
   06:24:08.800.03-Feb-2020 4005.51  136.85 64.94 7.00 374.80 3017.14
   06:24:09.000.03-Feb-2020 4005.51  136.86 64.93 7.00 375.00 3017.14
   06:24:09.200.03-Feb-2020 4005.51  136.87 64.93 7.00 375.20 3017.14
   06:24:09.400.03-Feb-2020 4005.51  136.88 64.93 7.00 375.40 3017.14
   06:24:09.600.03-Feb-2020 4005.51  136.89 64.93 7.00 375.60 3017.14
   06:24:09.800.03-Feb-2020 4005.51  136.91 64.93 7.00 375.80 3017.14
   06:24:10.000.03-Feb-2020 4005.51  136.91 64.93 7.00 376.00 3017.14
   06:24:10.200.03-Feb-2020 4005.51  136.91 64.93 7.00 376.20 3017.14
   06:24:10.400.03-Feb-2020 4005.51  136.93 64.93 7.00 376.40 3017.14
   06:24:10.600.03-Feb-2020 4005.51  136.94 64.93 7.00 376.60 3017.14
   06:24:10.800.03-Feb-2020 4005.51  136.94 64.93 7.00 376.80 3017.14
   06:24:11.000.03-Feb-2020 4005.51  136.96 64.93 7.00 377.00 3017.14
   06:24:11.200.03-Feb-2020 4005.51  136.96 64.93 7.00 377.20 3017.14
   06:24:11.400.03-Feb-2020 4005.51  136.97 64.93 7.00 377.40 3017.14
   06:24:11.600.03-Feb-2020 4005.51  136.98 64.93 7.00 377.60 3017.14
   06:24:11.800.03-Feb-2020 4005.51  136.98 64.93 7.00 377.80 3017.14
   06:24:12.000.03-Feb-2020 4005.51  137.00 64.93 7.00 378.00 3017.14
   06:24:12.200.03-Feb-2020 4005.51  137.01 64.93 7.00 378.20 3017.14
   06:24:12.400.03-Feb-2020 4005.51  137.02 64.93 7.00 378.40 3017.14
   06:24:12.600.03-Feb-2020 4005.51  137.02 64.93 7.00 378.60 3017.14
   06:24:12.800.03-Feb-2020 4005.51  137.03 64.93 7.00 378.80 3017.14
   06:24:13.000.03-Feb-2020 4005.51  137.04 64.93 7.00 379.00 3017.14
   06:24:13.200.03-Feb-2020 4005.51  137.04 64.93 7.00 379.20 3017.14
   06:24:13.400.03-Feb-2020 4005.51  137.04 64.93 7.00 379.40 3017.14
   06:24:13.600.03-Feb-2020 4005.51  137.07 64.93 7.00 379.60 3017.14
   06:24:13.800.03-Feb-2020 4005.51  137.08 64.93 7.00 379.80 3017.14
   06:24:14.000.03-Feb-2020 4005.51  137.09 64.93 7.00 380.00 3017.14
   06:24:14.200.03-Feb-2020 4005.51  137.09 64.93 7.00 380.20 3017.14
   06:24:14.400.03-Feb-2020 4005.51  137.10 64.93 7.00 380.40 3017.14
   06:24:14.600.03-Feb-2020 4005.51  137.12 64.93 7.00 380.60 3017.14
   06:24:14.800.03-Feb-2020 4005.51  137.12 64.93 7.00 380.80 3017.14
   06:24:15.000.03-Feb-2020 4005.51  137.13 64.93 7.00 381.00 3017.14
   06:24:15.200.03-Feb-2020 4005.51  137.13 64.93 7.00 381.20 3017.14
   06:24:15.400.03-Feb-2020 4005.51  137.14 64.93 7.00 381.40 3017.14
   06:24:15.600.03-Feb-2020 4005.51  137.16 64.93 7.00 381.60 3017.14
   06:24:15.800.03-Feb-2020 4005.51  137.15 64.93 7.00 381.80 3017.14
   06:24:16.000.03-Feb-2020 4005.51  137.17 64.93 7.00 382.00 3017.14
   06:24:16.200.03-Feb-2020 4005.51  137.17 64.93 7.00 382.20 3017.14
   06:24:16.400.03-Feb-2020 4005.51  137.19 64.93 7.00 382.40 3017.14
   06:24:16.600.03-Feb-2020 4005.51  137.20 64.93 7.00 382.60 3017.14
   06:24:16.800.03-Feb-2020 4005.51  137.21 64.93 7.00 382.80 3017.14
   06:24:17.000.03-Feb-2020 4005.51  137.22 64.93 7.00 383.00 3017.14
   06:24:17.200.03-Feb-2020 4005.51  137.22 64.93 7.00 383.20 3017.14
   06:24:17.400.03-Feb-2020 4005.51  137.24 64.93 7.00 383.40 3017.14
   06:24:17.600.03-Feb-2020 4005.51  137.24 64.93 7.00 383.60 3017.14
   06:24:17.800.03-Feb-2020 4005.51  137.25 64.93 7.00 383.80 3017.14
   06:24:18.000.03-Feb-2020 4005.51  137.25 64.93 7.00 384.00 3017.14
   06:24:18.200.03-Feb-2020 4005.51  137.25 64.93 7.00 384.20 3017.14
   06:24:18.400.03-Feb-2020 4005.51  137.27 64.93 7.00 384.40 3017.14
   06:24:18.600.03-Feb-2020 4005.51  137.29 64.93 7.00 384.60 3017.14
   06:24:18.800.03-Feb-2020 4005.51  137.29 64.93 7.00 384.80 3017.14
   06:24:19.000.03-Feb-2020 4005.51  137.30 64.93 7.00 385.00 3017.14
   06:24:19.200.03-Feb-2020 4005.51  137.30 64.93 7.00 385.20 3017.14
   06:24:19.400.03-Feb-2020 4005.51  137.31 64.93 7.00 385.40 3017.14
   06:24:19.600.03-Feb-2020 4005.51  137.34 64.93 7.00 385.60 3017.14
   06:24:19.800.03-Feb-2020 4005.51  137.33 64.93 7.00 385.80 3017.14
   06:24:20.000.03-Feb-2020 4005.51  137.35 64.93 7.00 386.00 3017.14
   06:24:20.200.03-Feb-2020 4005.51  137.35 64.93 7.00 386.20 3017.14
   06:24:20.400.03-Feb-2020 4005.51  137.36 64.93 7.00 386.40 3017.14
   06:24:20.600.03-Feb-2020 4005.51  137.37 64.93 7.00 386.60 3017.14
   06:24:20.800.03-Feb-2020 4005.51  137.38 64.93 7.00 386.80 3017.14
   06:24:21.000.03-Feb-2020 4005.51  137.38 64.93 7.00 387.00 3017.14
   06:24:21.200.03-Feb-2020 4005.51  137.38 64.93 7.00 387.20 3017.14
   06:24:21.400.03-Feb-2020 4005.51  137.40 64.93 7.00 387.40 3017.14
   06:24:21.600.03-Feb-2020 4005.51  137.41 64.93 7.00 387.60 3017.14
   06:24:21.800.03-Feb-2020 4005.51  137.42 64.93 7.00 387.80 3017.14
   06:24:22.000.03-Feb-2020 4005.51  137.42 64.93 7.00 388.00 3017.14
   06:24:22.200.03-Feb-2020 4005.51  137.42 64.93 7.00 388.20 3017.14
   06:24:22.400.03-Feb-2020 4005.51  137.43 64.93 7.00 388.40 3017.14
   06:24:22.600.03-Feb-2020 4005.51  137.45 64.93 7.00 388.60 3017.14
   06:24:22.800.03-Feb-2020 4005.51  137.46 64.93 7.00 388.80 3017.14
   06:24:23.000.03-Feb-2020 4005.51  137.46 64.93 7.00 389.00 3017.14
   06:24:23.200.03-Feb-2020 4005.51  137.46 64.93 7.00 389.20 3017.14
   06:24:23.400.03-Feb-2020 4005.51  137.49 64.93 7.00 389.40 3017.14
   06:24:23.600.03-Feb-2020 4005.51  137.49 64.93 7.00 389.60 3017.14
   06:24:23.800.03-Feb-2020 4005.51  137.50 64.93 7.00 389.80 3017.14
   06:24:24.000.03-Feb-2020 4005.51  137.51 64.93 7.00 390.00 3017.14
   06:24:24.200.03-Feb-2020 4005.51  137.51 64.93 7.00 390.20 3017.14
   06:24:24.400.03-Feb-2020 4005.51  137.53 64.93 7.00 390.40 3017.14
   06:24:24.600.03-Feb-2020 4005.51  137.53 64.93 7.00 390.60 3017.14
   06:24:24.800.03-Feb-2020 4005.51  137.53 64.93 7.00 390.80 3017.14
