~Version Information
 VERS.                  2.0:   CWLS log ASCII Standard -VERSION 2.0
 WRAP.                   NO:   One line per depth step
~Well Information Block
#MNEM.UNIT     VALUE/NAME     DESCRIPTION
#---------     -----------    ---------------------------
 STRT.S             02:50:23 03-Feb-20: START TIME 02:50:23 03-Feb-20
 STOP.S             02:58:14 03-Feb-20: STOP TIME  02:58:14 03-Feb-20
 STEP.S                   0.00: STEP TIME
 NULL.                 -999.25: NULL VALUE
 DFWT.                        :  DIST FWL TEXT
 DFST.                        :  DIST FSL TEXT
 DMF .             Drill Floor:  DRILL MEAS FROM
 STIM.      09.30.00 26-Dec-19:  START TIME
 DATE.      08.00.00 20-Jan-20:  END TIME
 SPUD.               23-Nov-19:  SPUD DATE
 NREF.                    Grid:  NORTH REFERENCE
 HPTY.       Minimum Curvature:  HOLE POS TYPE
 DMOD.             Drill Model:  DRILL MOD DESC
 SVYD.                  Survey:  SURVEY DESC
 ILTD.               Lithology:  INTERP LTH DESC
 FTOP.          Formation Tops:  FORM TOPS DESC
 SON .        AZ-XX-0906192647:  JOB NUMBER
 WTYP.                Deviated:  WELL TYPE
 COMP.     BP Exploration (Caspian Sea) Ltd:  COMPANY
 BASE.              Azerbaijan:  LOGGING EQUIPMENT BASE LOCATION
 REGN.                 Eurasia:  REGION
 FLD .                     ACG:  FIELD NAME
 SRVC.              KCA Deutag:  CONTRACTOR
 MWDS.                    Baku:  MWD SHOP
 WELL.     A10 (Slot 20) - SCP:  WELL NAME
 JOBN.        AZ-XX-0906192647:  JOB TICKET NUMB
 RIG .                 Chirag1:  RIG NAME
 DCON.     Halliburton Sperry Drilling:  DIRECTNL CONTR
 UNIT.                     N/A:  LOGGING EQUIPMENT ID
 PDAT.          Mean Sea Level:  PERMANENT DATUM
 MDS .        Operator Entered:  MAG DATA SOURCE
 CTRY.              Azerbaijan:  COUNTRY NAME
 UWI .            /AZE00000090:  UNIQUE WELL IDENTIFIER
 API .            /AZE00000090:  API NUMBER
 CNTY.                        :  COUNTY
 PROV.                        :  PROVINCE
 STAT.                        :  STATE
 LOC .                        :  LOCATION
 LMF .             Drill Floor:  LOG MEASURED FROM
 TVDS.m                  36.60:  TVDSS CORRECTN
 LATI.deg                40.08:  LATITUDE
 LONG.deg                51.24:  LONGITUDE
 WHNS.m                  -7.94:  WELL HEAD N/S
 WHEW.m                   1.56:  WELL HEAD E/W
 UTMX.m              520429.26:  UTM X
 UTMY.m             4438973.87:  UTM Y
 DFWL.m                   0.00:  DISTANCE FWL
 DFSL.m                   0.00:  DISTANCE FSL
 SDEP.m                1455.00:  START DEPTH
 TDD .m                4047.51:  TOTAL DEPTH (DRILLER)
 VSDR.deg               112.75:  VERT SEC DIRECT
 GVFD.g                   1.00:  GRAVITY FIELD
 MFLD.nT              50261.00:  MAGNETIC FIELD
 MDIP.deg                59.52:  MAGNETIC DIP
 MDEC.deg                 6.42:  MAGNETIC DECL
 GRDC.deg                 0.17:  GRID CORRECTION
 AZTC.deg                 6.25:  AZM TOTAL CORR
 EPD .m                   0.00:  ELEVATION
 EGL .m                   0.00:  GROUND ELEVATION
 WDMS.m                 121.00:  WD ELEV
 APD .m                  36.60:  DEPTH ABOVE PD
 AGAP.m                  36.60:  AIR GAP
 VSEW.m                   1.56:  VERT SEC E/W
 VSNS.m                  -7.94:  VERT SEC N/S
 DEP .m                1140.01:  DEPTH
 EKB .m                  36.60:  KB ELEVATION
 EDF .m                  36.60:  DF ELEVATION
 VSC .                       0:  VS TO CLOSURE
 MAGU.                 1849206:  MAGUTM CHECKSUM
~Parameter Information Block
#MNEM.UNIT       Value        Description
#---------     -----------    ---------------------------
 AV  .mps                 1.70:  Ann Velocity 
 AVMX.mps                 2.30:  Max Ann Veloc 
 AZIF.deg               137.03:  Azm, Final 
 BHAT.                   Other:  BHA Type 
 BROT.°/30m               0.80:  Build Rotating 
 BS  .in                  8.00:  Bit Size 
 BTPL.psig              161.00:  Bit Press Loss 
 CABU.                      No:  Customer Abuse 
 COMM.                     ´Î`:  Run Comments 1 
 TCS .hr                  9.59:  Time Ciculation Ended 
 CV  .mps                 3.76:  Crit Velocity 
 CVMX.mps                 4.26:  Max Crit Veloc 
 DD1 .         Intigam Rahimov:  Direct Drillr 1 
 DD2 .          Rashad Gojayev:  Direct Drillr 2 
 DDSV.                   Other:  DD Service 
 DEFF.%                 100.00:  % Det Eff 
 DLRX.°/30m               1.44:  Dogleg Rot Max 
 DLSO.°/30m               0.00:  Dogleg Oriented 
 DLSX.°/30m               0.00:  Dogleg Str Max 
 DRET.      03.31.12 02-Feb-20:  Drill End Time 
 DRST.      03.31.12 02-Feb-20:  Drill Start Tim 
 DTIM.hr                  1.99:  Time Drilling 
 EDEP.m                4047.51:  End Depth 
 ENG1.           Eldar Hajiyev:  Engineer 1 
 ENG2.          Rasim Hashimov:  Engineer 2 
 ENG3.          Rustam Safarov:  Engineer 3 
 ETIM.      03.31.12 02-Feb-20:  End Time 
 FLOI.gpm               300.00:  Flow In 
 FLON.gpm               250.00:  Flow In Min 
 FLOS.cptm                0.00:  Fluid Loss 
 FLOX.gpm               330.00:  Flow In Max 
 HFLO.                      No:  High Flow 
 HPRE.                      No:  High Pressure 
 HTEM.                      No:  High Temp 
 HYDO.m                   2.50:  Hydro Offset 
 IFIN.deg                39.54:  Inc, Final 
 IMAX.deg                41.14:  Inc Max 
 IMIN.deg                39.81:  Inc Min 
 IMND.m                4005.21:  Inc Min Depth 
 IMXD.m                3948.42:  Inc Max Depth 
 JARR.                      No:  Jarring 
 LETM.      03.31.12 02-Feb-20:  Log End Time 
 LOST.hr                     0:  Lost Rig Time 
 LSTM.      03.31.12 02-Feb-20:  Log Start Time 
 MDCL.ppm             35000.00:  Mud Chlorides 
 MDES.     Inversion Oil/Synthetic:  Mud Desc 
 DFD .sg                  1.32:  Mud Density 
 MDMN.sg                  1.32:  Dens Mud Min 
 MDMX.sg                  1.32:  Dens Mud Max 
 MOIL.                      59:  Run Mud Oil % 
 MOWR.                   71:29:  Run Mud OWR 
 MSND.                       0:  Run Mud Sand % 
 MSOL.                      17:  Run Mud Solids% 
 DFV .spqt               86.00:  Mud Viscosity 
 MWOD.in                  4.75:  MWD Tool OD 
 MWSI.                      No:  Serv Intrp, MWD 
 OTIM.hr                 46.72:  Time Operating 
 PCON.           Look Like New:  Pad Condition 
 PMAX.psia             3300.00:  Press Op, Max 
 PV  .cP                 30.00:  Mud PV 
 RUN .                     400:  Run Number 
 ROPA.m/hr               35.00:  ROP Avg 
 ROPN.m/hr               25.00:  ROP Min 
 ROPX.m/hr               40.00:  ROP Max 
 RPMA.rpm                80.00:  RPM Surface Avg 
 RPMN.rpm                60.00:  RPM Surface Min 
 RPMX.rpm               100.00:  RPM Surface Max 
 RRUN.                     400:  Rig Run Number 
 RTIM.hr                  1.99:  Time Reaming 
 SAZI.deg               133.93:  Azm, Start 
 SDEP.m                4047.51:  Start Depth 
 SIDD.                      No:  Serv Intrp, DD 
 SINC.deg                40.28:  Inc, Start 
 SPPA.psig             3250.00:  SPP Avg 
 SPPN.psig             3200.00:  SPP Min 
 SPPX.psig             3300.00:  SPP Max 
 STIM.      03.31.12 02-Feb-20:  Start Time 
 SVCS.                 DD, MWD:  Services 
 SVER.                    9.20:  Sperry Version 
 TDAT.m                  47.00:  Tot Depth Attmp 
 TDDF.                      No:  Trip for DD 
 TFF .                      No:  Trip for Fail 
 TQAA.f-kp                0.00:  Torque Abs Avg 
 TQAN.f-kp                0.00:  Torque Abs Min 
 TQAX.f-kp                0.00:  Torque Abs Max 
 TRRT.°/30m               0.70:  Turn Rotating 
 MRT .                    HCIM:  Maximum Recorded Temperature 
 TTMX.degC               70.59:  Max Tool Temp 
 VS01.             90598770F11:  Virtual Str1 SN 
 VS02.             90598769F11:  Virtual Str2 SN 
 VS03.            90515978Z1W1:  Virtual Str3 SN 
 VS04.          90584144R12X14:  Virtual Str4 SN 
 WBMN.klb                 0.00:  WOB Min 
 WITN.            Peter Wilson:  Customer Rep 
 WOBA.klb                 0.00:  WOB Avg 
 WOBX.klb                 0.00:  WOB Max 
 YP  .lhf2               29.00:  Yield Point 
~Curve Information Block
#MNEM.UNIT                 API CODE     Curve Description
#---------               -----------    ---------------------------
 TIME.HHMMSS            00 000 000 000:  GT Time & Date
 GTDEPTH.m              00 000 000 000:  GT Depth
 GTPQH.psia             00 000 000 000:  GT HR Quartz Pressure
 GTTQ.degC              00 000 000 000:  GT Quartz Temperature
 GTTN.NONE              00 000 000 000:  GT Test Number
 GTET.sec               00 000 000 000:  GT Elapsed Test Time
 GTTVD.m                00 000 000 000:  GT True Vertical Depth
#Other Information
#
#WARRANTY: Halliburton will use its best efforts to furnish customers with 
#accurate information and interpretations that are part of, and incident to, the services 
#provided.  However, Halliburton cannot and does not warrant the accuracy 
#or correctness of such information and interpretations.  Under no circumstances should any 
#such information or interpretation be relied upon as the sole basis for any drilling, 
#completion, production, or financial decision or any procedure involving any risk to the 
#safety of any drilling venture, drilling rig or its crew or any other third party.  The 
#Customer has full responsibility for all drilling, completion and production operation.  
#Halliburton makes no representations or warranties, either expressed or 
#implied, including, but not limited to, the implied warranties of merchantability or fitness 
#for a particular purpose, with respect to the services rendered.  In no event will 
#Halliburton be liable for failure to obtain any particular results or for 
#any damages, including, but not limited to, indirect, special or consequential damages, 
#resulting from the use of any information or interpretation provided by Halliburton.
#
~A           TIME           GTDEPTH  GTPQH  GTTQ  GTTN  GTET   GTTVD  
# ...
   02:52:41.804.03-Feb-2020 4022.51 3157.95 64.45 1.00 138.03 3030.18
   02:52:42.004.03-Feb-2020 4022.51 3157.95 64.45 1.00 138.23 3030.18
   02:52:42.204.03-Feb-2020 4022.51 3158.65 64.45 1.00 138.43 3030.18
   02:52:42.404.03-Feb-2020 4022.51 3159.01 64.45 1.00 138.63 3030.18
   02:52:42.604.03-Feb-2020 4022.51 3158.77 64.45 1.00 138.83 3030.18
   02:52:42.804.03-Feb-2020 4022.51 3158.90 64.45 1.00 139.03 3030.18
   02:52:43.004.03-Feb-2020 4022.51 3158.90 64.45 1.00 139.23 3030.18
   02:52:43.204.03-Feb-2020 4022.51 3158.62 64.45 1.00 139.43 3030.18
   02:52:43.404.03-Feb-2020 4022.51 3159.02 64.45 1.00 139.63 3030.18
   02:52:43.604.03-Feb-2020 4022.51 3158.55 64.45 1.00 139.83 3030.18
   02:52:43.804.03-Feb-2020 4022.51 3158.93 64.45 1.00 140.03 3030.18
   02:52:44.004.03-Feb-2020 4022.51 3158.93 64.45 1.00 140.23 3030.18
   02:52:44.204.03-Feb-2020 4022.51 3158.84 64.45 1.00 140.43 3030.18
   02:52:44.405.03-Feb-2020 4022.51 3158.74 64.45 1.00 140.63 3030.18
   02:52:44.605.03-Feb-2020 4022.51 3158.16 64.45 1.00 140.83 3030.18
   02:52:44.805.03-Feb-2020 4022.51 3159.61 64.45 1.00 141.03 3030.18
   02:52:45.005.03-Feb-2020 4022.51 3159.61 64.45 1.00 141.23 3030.18
   02:52:45.205.03-Feb-2020 4022.51 3158.95 64.45 1.00 141.43 3030.18
   02:52:45.405.03-Feb-2020 4022.51 3158.77 64.45 1.00 141.63 3030.18
   02:52:45.605.03-Feb-2020 4022.51 3158.86 64.45 1.00 141.83 3030.18
   02:52:45.805.03-Feb-2020 4022.51 3158.85 64.45 1.00 142.03 3030.18
   02:52:46.005.03-Feb-2020 4022.51 3158.85 64.45 1.00 142.23 3030.18
   02:52:46.205.03-Feb-2020 4022.51 3159.00 64.45 1.00 142.43 3030.18
   02:52:46.405.03-Feb-2020 4022.51 3158.93 64.45 1.00 142.63 3030.18
   02:52:46.605.03-Feb-2020 4022.51 3158.77 64.45 1.00 142.83 3030.18
   02:52:46.805.03-Feb-2020 4022.51 3158.96 64.45 1.00 143.03 3030.18
   02:52:47.005.03-Feb-2020 4022.51 3158.96 64.45 1.00 143.23 3030.18
   02:52:47.205.03-Feb-2020 4022.51 3158.83 64.45 1.00 143.43 3030.18
   02:52:47.405.03-Feb-2020 4022.51 3158.84 64.44 1.00 143.63 3030.18
   02:52:47.605.03-Feb-2020 4022.51 3158.98 64.44 1.00 143.83 3030.18
   02:52:47.805.03-Feb-2020 4022.51 3158.79 64.44 1.00 144.03 3030.18
   02:52:48.005.03-Feb-2020 4022.51 3158.79 64.44 1.00 144.23 3030.18
   02:52:48.205.03-Feb-2020 4022.51 3159.01 64.44 1.00 144.43 3030.18
   02:52:48.405.03-Feb-2020 4022.51 3158.76 64.44 1.00 144.63 3030.18
   02:52:48.605.03-Feb-2020 4022.51 3158.97 64.44 1.00 144.83 3030.18
   02:52:48.805.03-Feb-2020 4022.51 3158.96 64.44 1.00 145.03 3030.18
   02:52:49.005.03-Feb-2020 4022.51 3158.96 64.44 1.00 145.23 3030.18
   02:52:49.206.03-Feb-2020 4022.51 3158.97 64.44 1.00 145.43 3030.18
   02:52:49.406.03-Feb-2020 4022.51 3158.85 64.44 1.00 145.63 3030.18
   02:52:49.606.03-Feb-2020 4022.51 3158.91 64.44 1.00 145.83 3030.18
   02:52:49.806.03-Feb-2020 4022.51 3158.96 64.44 1.00 146.03 3030.18
   02:52:50.006.03-Feb-2020 4022.51 3158.96 64.44 1.00 146.23 3030.18
   02:52:50.206.03-Feb-2020 4022.51 3158.91 64.44 1.00 146.43 3030.18
   02:52:50.406.03-Feb-2020 4022.51 3158.31 64.44 1.00 146.63 3030.18
   02:52:50.606.03-Feb-2020 4022.51 3159.46 64.44 1.00 146.83 3030.18
   02:52:50.806.03-Feb-2020 4022.51 3158.47 64.44 1.00 147.03 3030.18
   02:52:51.006.03-Feb-2020 4022.51 3158.47 64.44 1.00 147.23 3030.18
   02:52:51.206.03-Feb-2020 4022.51 3158.57 64.44 1.00 147.43 3030.18
   02:52:51.406.03-Feb-2020 4022.51 3159.12 64.44 1.00 147.63 3030.18
   02:52:51.606.03-Feb-2020 4022.51 3158.72 64.44 1.00 147.83 3030.18
   02:52:51.806.03-Feb-2020 4022.51 3159.04 64.44 1.00 148.03 3030.18
   02:52:52.006.03-Feb-2020 4022.51 3159.04 64.44 1.00 148.23 3030.18
   02:52:52.206.03-Feb-2020 4022.51 3158.98 64.44 1.00 148.43 3030.18
   02:52:52.406.03-Feb-2020 4022.51 3158.80 64.44 1.00 148.63 3030.18
   02:52:52.606.03-Feb-2020 4022.51 3158.93 64.44 1.00 148.83 3030.18
   02:52:52.806.03-Feb-2020 4022.51 3158.04 64.44 1.00 149.03 3030.18
   02:52:53.006.03-Feb-2020 4022.51 3158.04 64.44 1.00 149.23 3030.18
   02:52:53.206.03-Feb-2020 4022.51 3158.51 64.44 1.00 149.43 3030.18
   02:52:53.406.03-Feb-2020 4022.51 3159.27 64.44 1.00 149.63 3030.18
   02:52:53.606.03-Feb-2020 4022.51 3158.96 64.44 1.00 149.83 3030.18
   02:52:53.806.03-Feb-2020 4022.51 3158.94 64.44 1.00 150.03 3030.18
   02:52:54.007.03-Feb-2020 4022.51 3158.94 64.44 1.00 150.23 3030.18
   02:52:54.207.03-Feb-2020 4022.51 3158.54 64.44 1.00 150.43 3030.18
   02:52:54.407.03-Feb-2020 4022.51 3159.25 64.44 1.00 150.63 3030.18
   02:52:54.607.03-Feb-2020 4022.51 3158.73 64.44 1.00 150.83 3030.18
   02:52:54.807.03-Feb-2020 4022.51 3158.95 64.44 1.00 151.03 3030.18
   02:52:55.007.03-Feb-2020 4022.51 3158.95 64.44 1.00 151.23 3030.18
   02:52:55.207.03-Feb-2020 4022.51 3158.88 64.44 1.00 151.43 3030.18
   02:52:55.407.03-Feb-2020 4022.51 3158.85 64.44 1.00 151.63 3030.18
   02:52:55.607.03-Feb-2020 4022.51 3158.90 64.44 1.00 151.83 3030.18
   02:52:55.807.03-Feb-2020 4022.51 3159.03 64.44 1.00 152.03 3030.18
   02:52:56.007.03-Feb-2020 4022.51 3159.03 64.44 1.00 152.23 3030.18
   02:52:56.207.03-Feb-2020 4022.51 3159.01 64.44 1.00 152.43 3030.18
   02:52:56.407.03-Feb-2020 4022.51 3158.85 64.44 1.00 152.63 3030.18
   02:52:56.607.03-Feb-2020 4022.51 3158.92 64.44 1.00 152.83 3030.18
   02:52:56.807.03-Feb-2020 4022.51 3158.86 64.44 1.00 153.03 3030.18
   02:52:57.007.03-Feb-2020 4022.51 3158.86 64.44 1.00 153.23 3030.18
   02:52:57.207.03-Feb-2020 4022.51 3158.97 64.43 1.00 153.43 3030.18
   02:52:57.407.03-Feb-2020 4022.51 3158.32 64.43 1.00 153.63 3030.18
   02:52:57.607.03-Feb-2020 4022.51 3159.51 64.43 1.00 153.83 3030.18
   02:52:57.807.03-Feb-2020 4022.51 3158.54 64.43 1.00 154.03 3030.18
   02:52:58.007.03-Feb-2020 4022.51 3158.54 64.43 1.00 154.23 3030.18
   02:52:58.207.03-Feb-2020 4022.51 3158.83 64.43 1.00 154.43 3030.18
   02:52:58.407.03-Feb-2020 4022.51 3159.01 64.43 1.00 154.63 3030.18
   02:52:58.608.03-Feb-2020 4022.51 3158.91 64.43 1.00 154.83 3030.18
   02:52:58.808.03-Feb-2020 4022.51 3158.88 64.43 1.00 155.03 3030.18
   02:52:59.008.03-Feb-2020 4022.51 3158.88 64.43 1.00 155.23 3030.18
   02:52:59.208.03-Feb-2020 4022.51 3158.92 64.43 1.00 155.43 3030.18
   02:52:59.408.03-Feb-2020 4022.51 3158.88 64.43 1.00 155.63 3030.18
   02:52:59.608.03-Feb-2020 4022.51 3158.92 64.43 1.00 155.83 3030.18
   02:52:59.808.03-Feb-2020 4022.51 3158.98 64.43 1.00 156.03 3030.18
   02:53:00.008.03-Feb-2020 4022.51 3158.98 64.43 1.00 156.23 3030.18
   02:53:00.208.03-Feb-2020 4022.51 3159.02 64.43 1.00 156.43 3030.18
   02:53:00.408.03-Feb-2020 4022.51 3158.92 64.43 1.00 156.63 3030.18
   02:53:00.608.03-Feb-2020 4022.51 3158.96 64.43 1.00 156.83 3030.18
   02:53:00.808.03-Feb-2020 4022.51 3158.11 64.43 1.00 157.03 3030.18
   02:53:01.008.03-Feb-2020 4022.51 3158.11 64.43 1.00 157.23 3030.18
   02:53:01.208.03-Feb-2020 4022.51 3158.76 64.43 1.00 157.43 3030.18
   02:53:01.408.03-Feb-2020 4022.51 3159.13 64.43 1.00 157.63 3030.18
   02:53:01.608.03-Feb-2020 4022.51 3158.86 64.43 1.00 157.83 3030.18
   02:53:01.808.03-Feb-2020 4022.51 3158.95 64.43 1.00 158.03 3030.18
   02:53:02.008.03-Feb-2020 4022.51 3158.95 64.43 1.00 158.23 3030.18
   02:53:02.208.03-Feb-2020 4022.51 3158.63 64.43 1.00 158.43 3030.18
   02:53:02.408.03-Feb-2020 4022.51 3159.15 64.43 1.00 158.63 3030.18
   02:53:02.608.03-Feb-2020 4022.51 3158.67 64.43 1.00 158.83 3030.18
   02:53:02.808.03-Feb-2020 4022.51 3159.02 64.43 1.00 159.03 3030.18
   02:53:03.008.03-Feb-2020 4022.51 3159.02 64.43 1.00 159.23 3030.18
   02:53:03.208.03-Feb-2020 4022.51 3158.98 64.43 1.00 159.43 3030.18
   02:53:03.409.03-Feb-2020 4022.51 3158.79 64.43 1.00 159.63 3030.18
   02:53:03.609.03-Feb-2020 4022.51 3158.22 64.43 1.00 159.83 3030.18
   02:53:03.809.03-Feb-2020 4022.51 3159.69 64.43 1.00 160.03 3030.18
   02:53:04.009.03-Feb-2020 4022.51 3159.69 64.43 1.00 160.23 3030.18
   02:53:04.209.03-Feb-2020 4022.51 3159.05 64.43 1.00 160.43 3030.18
   02:53:04.409.03-Feb-2020 4022.51 3158.85 64.43 1.00 160.63 3030.18
   02:53:04.609.03-Feb-2020 4022.51 3158.97 64.43 1.00 160.83 3030.18
