~Version Information
 VERS.                  2.0:   CWLS log ASCII Standard -VERSION 2.0
 WRAP.                   NO:   One line per depth step
~Well Information Block
#MNEM.UNIT     VALUE/NAME     DESCRIPTION
#---------     -----------    ---------------------------
 STRT.S             06:17:54 03-Feb-20: START TIME 06:17:54 03-Feb-20
 STOP.S             06:25:43 03-Feb-20: STOP TIME  06:25:43 03-Feb-20
 STEP.S                   0.00: STEP TIME
 NULL.                 -999.25: NULL VALUE
 DFWT.                        :  DIST FWL TEXT
 DFST.                        :  DIST FSL TEXT
 DMF .             Drill Floor:  DRILL MEAS FROM
 STIM.      09.30.00 26-Dec-19:  START TIME
 DATE.      08.00.00 20-Jan-20:  END TIME
 SPUD.               23-Nov-19:  SPUD DATE
 NREF.                    Grid:  NORTH REFERENCE
 HPTY.       Minimum Curvature:  HOLE POS TYPE
 DMOD.             Drill Model:  DRILL MOD DESC
 SVYD.                  Survey:  SURVEY DESC
 ILTD.               Lithology:  INTERP LTH DESC
 FTOP.          Formation Tops:  FORM TOPS DESC
 SON .        AZ-XX-0906192647:  JOB NUMBER
 WTYP.                Deviated:  WELL TYPE
 COMP.     BP Exploration (Caspian Sea) Ltd:  COMPANY
 BASE.              Azerbaijan:  LOGGING EQUIPMENT BASE LOCATION
 REGN.                 Eurasia:  REGION
 FLD .                     ACG:  FIELD NAME
 SRVC.              KCA Deutag:  CONTRACTOR
 MWDS.                    Baku:  MWD SHOP
 WELL.     A10 (Slot 20) - SCP:  WELL NAME
 JOBN.        AZ-XX-0906192647:  JOB TICKET NUMB
 RIG .                 Chirag1:  RIG NAME
 DCON.     Halliburton Sperry Drilling:  DIRECTNL CONTR
 UNIT.                     N/A:  LOGGING EQUIPMENT ID
 PDAT.          Mean Sea Level:  PERMANENT DATUM
 MDS .        Operator Entered:  MAG DATA SOURCE
 CTRY.              Azerbaijan:  COUNTRY NAME
 UWI .            /AZE00000090:  UNIQUE WELL IDENTIFIER
 API .            /AZE00000090:  API NUMBER
 CNTY.                        :  COUNTY
 PROV.                        :  PROVINCE
 STAT.                        :  STATE
 LOC .                        :  LOCATION
 LMF .             Drill Floor:  LOG MEASURED FROM
 TVDS.m                  36.60:  TVDSS CORRECTN
 LATI.deg                40.08:  LATITUDE
 LONG.deg                51.24:  LONGITUDE
 WHNS.m                  -7.94:  WELL HEAD N/S
 WHEW.m                   1.56:  WELL HEAD E/W
 UTMX.m              520429.26:  UTM X
 UTMY.m             4438973.87:  UTM Y
 DFWL.m                   0.00:  DISTANCE FWL
 DFSL.m                   0.00:  DISTANCE FSL
 SDEP.m                1455.00:  START DEPTH
 TDD .m                4047.51:  TOTAL DEPTH (DRILLER)
 VSDR.deg               112.75:  VERT SEC DIRECT
 GVFD.g                   1.00:  GRAVITY FIELD
 MFLD.nT              50261.00:  MAGNETIC FIELD
 MDIP.deg                59.52:  MAGNETIC DIP
 MDEC.deg                 6.42:  MAGNETIC DECL
 GRDC.deg                 0.17:  GRID CORRECTION
 AZTC.deg                 6.25:  AZM TOTAL CORR
 EPD .m                   0.00:  ELEVATION
 EGL .m                   0.00:  GROUND ELEVATION
 WDMS.m                 121.00:  WD ELEV
 APD .m                  36.60:  DEPTH ABOVE PD
 AGAP.m                  36.60:  AIR GAP
 VSEW.m                   1.56:  VERT SEC E/W
 VSNS.m                  -7.94:  VERT SEC N/S
 DEP .m                1140.01:  DEPTH
 EKB .m                  36.60:  KB ELEVATION
 EDF .m                  36.60:  DF ELEVATION
 VSC .                       0:  VS TO CLOSURE
 MAGU.                 1849206:  MAGUTM CHECKSUM
~Parameter Information Block
#MNEM.UNIT       Value        Description
#---------     -----------    ---------------------------
 AV  .mps                 1.70:  Ann Velocity 
 AVMX.mps                 2.30:  Max Ann Veloc 
 AZIF.deg               137.03:  Azm, Final 
 BHAT.                   Other:  BHA Type 
 BROT.°/30m               0.80:  Build Rotating 
 BS  .in                  8.00:  Bit Size 
 BTPL.psig              161.00:  Bit Press Loss 
 CABU.                      No:  Customer Abuse 
 COMM.                     4•z:  Run Comments 1 
 TCS .hr                  9.59:  Time Ciculation Ended 
 CV  .mps                 3.76:  Crit Velocity 
 CVMX.mps                 4.26:  Max Crit Veloc 
 DD1 .         Intigam Rahimov:  Direct Drillr 1 
 DD2 .          Rashad Gojayev:  Direct Drillr 2 
 DDSV.                   Other:  DD Service 
 DEFF.%                 100.00:  % Det Eff 
 DLRX.°/30m               1.44:  Dogleg Rot Max 
 DLSO.°/30m               0.00:  Dogleg Oriented 
 DLSX.°/30m               0.00:  Dogleg Str Max 
 DRET.      03.31.12 02-Feb-20:  Drill End Time 
 DRST.      03.31.12 02-Feb-20:  Drill Start Tim 
 DTIM.hr                  1.99:  Time Drilling 
 EDEP.m                4047.51:  End Depth 
 ENG1.           Eldar Hajiyev:  Engineer 1 
 ENG2.          Rasim Hashimov:  Engineer 2 
 ENG3.          Rustam Safarov:  Engineer 3 
 ETIM.      03.31.12 02-Feb-20:  End Time 
 FLOI.gpm               300.00:  Flow In 
 FLON.gpm               250.00:  Flow In Min 
 FLOS.cptm                0.00:  Fluid Loss 
 FLOX.gpm               330.00:  Flow In Max 
 HFLO.                      No:  High Flow 
 HPRE.                      No:  High Pressure 
 HTEM.                      No:  High Temp 
 HYDO.m                   2.50:  Hydro Offset 
 IFIN.deg                39.54:  Inc, Final 
 IMAX.deg                41.14:  Inc Max 
 IMIN.deg                39.81:  Inc Min 
 IMND.m                4005.21:  Inc Min Depth 
 IMXD.m                3948.42:  Inc Max Depth 
 JARR.                      No:  Jarring 
 LETM.      03.31.12 02-Feb-20:  Log End Time 
 LOST.hr                     0:  Lost Rig Time 
 LSTM.      03.31.12 02-Feb-20:  Log Start Time 
 MDCL.ppm             35000.00:  Mud Chlorides 
 MDES.     Inversion Oil/Synthetic:  Mud Desc 
 DFD .sg                  1.32:  Mud Density 
 MDMN.sg                  1.32:  Dens Mud Min 
 MDMX.sg                  1.32:  Dens Mud Max 
 MOIL.                      59:  Run Mud Oil % 
 MOWR.                   71:29:  Run Mud OWR 
 MSND.                       0:  Run Mud Sand % 
 MSOL.                      17:  Run Mud Solids% 
 DFV .spqt               86.00:  Mud Viscosity 
 MWOD.in                  4.75:  MWD Tool OD 
 MWSI.                      No:  Serv Intrp, MWD 
 OTIM.hr                 46.72:  Time Operating 
 PCON.           Look Like New:  Pad Condition 
 PMAX.psia             3300.00:  Press Op, Max 
 PV  .cP                 30.00:  Mud PV 
 RUN .                     400:  Run Number 
 ROPA.m/hr               35.00:  ROP Avg 
 ROPN.m/hr               25.00:  ROP Min 
 ROPX.m/hr               40.00:  ROP Max 
 RPMA.rpm                80.00:  RPM Surface Avg 
 RPMN.rpm                60.00:  RPM Surface Min 
 RPMX.rpm               100.00:  RPM Surface Max 
 RRUN.                     400:  Rig Run Number 
 RTIM.hr                  1.99:  Time Reaming 
 SAZI.deg               133.93:  Azm, Start 
 SDEP.m                4047.51:  Start Depth 
 SIDD.                      No:  Serv Intrp, DD 
 SINC.deg                40.28:  Inc, Start 
 SPPA.psig             3250.00:  SPP Avg 
 SPPN.psig             3200.00:  SPP Min 
 SPPX.psig             3300.00:  SPP Max 
 STIM.      03.31.12 02-Feb-20:  Start Time 
 SVCS.                 DD, MWD:  Services 
 SVER.                    9.20:  Sperry Version 
 TDAT.m                  47.00:  Tot Depth Attmp 
 TDDF.                      No:  Trip for DD 
 TFF .                      No:  Trip for Fail 
 TQAA.f-kp                0.00:  Torque Abs Avg 
 TQAN.f-kp                0.00:  Torque Abs Min 
 TQAX.f-kp                0.00:  Torque Abs Max 
 TRRT.°/30m               0.70:  Turn Rotating 
 MRT .                    HCIM:  Maximum Recorded Temperature 
 TTMX.degC               70.59:  Max Tool Temp 
 VS01.             90598770F11:  Virtual Str1 SN 
 VS02.             90598769F11:  Virtual Str2 SN 
 VS03.            90515978Z1W1:  Virtual Str3 SN 
 VS04.          90584144R12X14:  Virtual Str4 SN 
 WBMN.klb                 0.00:  WOB Min 
 WITN.            Peter Wilson:  Customer Rep 
 WOBA.klb                 0.00:  WOB Avg 
 WOBX.klb                 0.00:  WOB Max 
 YP  .lhf2               29.00:  Yield Point 
~Curve Information Block
#MNEM.UNIT                 API CODE     Curve Description
#---------               -----------    ---------------------------
 TIME.HHMMSS            00 000 000 000:  GT Time & Date
 GTDEPTH.m              00 000 000 000:  GT Depth
 GTPQH.psia             00 000 000 000:  GT HR Quartz Pressure
 GTTQ.degC              00 000 000 000:  GT Quartz Temperature
 GTTN.NONE              00 000 000 000:  GT Test Number
 GTET.sec               00 000 000 000:  GT Elapsed Test Time
 GTTVD.m                00 000 000 000:  GT True Vertical Depth
#Other Information
#
#WARRANTY: Halliburton will use its best efforts to furnish customers with 
#accurate information and interpretations that are part of, and incident to, the services 
#provided.  However, Halliburton cannot and does not warrant the accuracy 
#or correctness of such information and interpretations.  Under no circumstances should any 
#such information or interpretation be relied upon as the sole basis for any drilling, 
#completion, production, or financial decision or any procedure involving any risk to the 
#safety of any drilling venture, drilling rig or its crew or any other third party.  The 
#Customer has full responsibility for all drilling, completion and production operation.  
#Halliburton makes no representations or warranties, either expressed or 
#implied, including, but not limited to, the implied warranties of merchantability or fitness 
#for a particular purpose, with respect to the services rendered.  In no event will 
#Halliburton be liable for failure to obtain any particular results or for 
#any damages, including, but not limited to, indirect, special or consequential damages, 
#resulting from the use of any information or interpretation provided by Halliburton.
#
~A           TIME           GTDEPTH  GTPQH  GTTQ  GTTN  GTET   GTTVD  
# ...
   06:22:53.000.03-Feb-2020 4005.51  172.07 64.97 7.00 299.00 3017.14
   06:22:53.200.03-Feb-2020 4005.51  172.07 64.97 7.00 299.20 3017.14
   06:22:53.400.03-Feb-2020 4005.51  172.07 64.97 7.00 299.40 3017.14
   06:22:53.600.03-Feb-2020 4005.51  172.11 64.96 7.00 299.60 3017.14
   06:22:53.800.03-Feb-2020 4005.51  172.12 64.96 7.00 299.80 3017.14
   06:22:54.000.03-Feb-2020 4005.51  172.13 64.96 7.00 300.00 3017.14
   06:22:54.200.03-Feb-2020 4005.51  172.13 64.96 7.00 300.20 3017.14
   06:22:54.400.03-Feb-2020 4005.51  172.17 64.96 7.00 300.40 3017.14
   06:22:54.600.03-Feb-2020 4005.51  172.17 64.96 7.00 300.60 3017.14
   06:22:54.800.03-Feb-2020 4005.51  172.19 64.96 7.00 300.80 3017.14
   06:22:55.000.03-Feb-2020 4005.51  172.21 64.96 7.00 301.00 3017.14
   06:22:55.200.03-Feb-2020 4005.51  172.21 64.96 7.00 301.20 3017.14
   06:22:55.400.03-Feb-2020 4005.51  172.24 64.96 7.00 301.40 3017.14
   06:22:55.600.03-Feb-2020 4005.51  172.24 64.96 7.00 301.60 3017.14
   06:22:55.800.03-Feb-2020 4005.51  172.26 64.96 7.00 301.80 3017.14
   06:22:56.000.03-Feb-2020 4005.51  172.27 64.96 7.00 302.00 3017.14
   06:22:56.200.03-Feb-2020 4005.51  172.28 64.96 7.00 302.20 3017.14
   06:22:56.400.03-Feb-2020 4005.51  172.29 64.96 7.00 302.40 3017.14
   06:22:56.600.03-Feb-2020 4005.51  172.30 64.96 7.00 302.60 3017.14
   06:22:56.800.03-Feb-2020 4005.51  172.32 64.96 7.00 302.80 3017.14
   06:22:57.000.03-Feb-2020 4005.51  172.34 64.96 7.00 303.00 3017.14
   06:22:57.200.03-Feb-2020 4005.51  172.35 64.96 7.00 303.20 3017.14
   06:22:57.400.03-Feb-2020 4005.51  172.37 64.96 7.00 303.40 3017.14
   06:22:57.600.03-Feb-2020 4005.51  172.36 64.96 7.00 303.60 3017.14
   06:22:57.800.03-Feb-2020 4005.51  172.40 64.96 7.00 303.80 3017.14
   06:22:58.000.03-Feb-2020 4005.51  172.40 64.96 7.00 304.00 3017.14
   06:22:58.200.03-Feb-2020 4005.51  172.40 64.96 7.00 304.20 3017.14
   06:22:58.400.03-Feb-2020 4005.51  172.44 64.96 7.00 304.40 3017.14
   06:22:58.600.03-Feb-2020 4005.51  172.45 64.96 7.00 304.60 3017.14
   06:22:58.800.03-Feb-2020 4005.51  172.47 64.96 7.00 304.80 3017.14
   06:22:59.000.03-Feb-2020 4005.51  172.47 64.96 7.00 305.00 3017.14
   06:22:59.200.03-Feb-2020 4005.51  172.47 64.96 7.00 305.20 3017.14
   06:22:59.400.03-Feb-2020 4005.51  172.09 64.96 7.00 305.40 3017.14
   06:22:59.600.03-Feb-2020 4005.51  170.05 64.96 7.00 305.60 3017.14
   06:22:59.800.03-Feb-2020 4005.51  167.90 64.96 7.00 305.80 3017.14
   06:23:00.000.03-Feb-2020 4005.51  165.92 64.96 7.00 306.00 3017.14
   06:23:00.200.03-Feb-2020 4005.51  165.92 64.96 7.00 306.20 3017.14
   06:23:00.400.03-Feb-2020 4005.51  162.24 64.96 7.00 306.40 3017.14
   06:23:00.600.03-Feb-2020 4005.51  160.60 64.96 7.00 306.60 3017.14
   06:23:00.800.03-Feb-2020 4005.51  159.13 64.96 7.00 306.80 3017.14
   06:23:01.000.03-Feb-2020 4005.51  157.73 64.96 7.00 307.00 3017.14
   06:23:01.200.03-Feb-2020 4005.51  157.73 64.96 7.00 307.20 3017.14
   06:23:01.400.03-Feb-2020 4005.51  155.21 64.96 7.00 307.40 3017.14
   06:23:01.600.03-Feb-2020 4005.51  154.08 64.96 7.00 307.60 3017.14
   06:23:01.800.03-Feb-2020 4005.51  153.07 64.96 7.00 307.80 3017.14
   06:23:02.000.03-Feb-2020 4005.51  152.26 64.96 7.00 308.00 3017.14
   06:23:02.200.03-Feb-2020 4005.51  152.26 64.96 7.00 308.20 3017.14
   06:23:02.400.03-Feb-2020 4005.51  150.55 64.96 7.00 308.40 3017.14
   06:23:02.600.03-Feb-2020 4005.51  149.73 64.96 7.00 308.60 3017.14
   06:23:02.800.03-Feb-2020 4005.51  148.97 64.96 7.00 308.80 3017.14
   06:23:03.000.03-Feb-2020 4005.51  148.26 64.96 7.00 309.00 3017.14
   06:23:03.200.03-Feb-2020 4005.51  148.26 64.96 7.00 309.20 3017.14
   06:23:03.400.03-Feb-2020 4005.51  146.83 64.96 7.00 309.40 3017.14
   06:23:03.600.03-Feb-2020 4005.51  146.23 64.96 7.00 309.60 3017.14
   06:23:03.800.03-Feb-2020 4005.51  145.68 64.96 7.00 309.80 3017.14
   06:23:04.000.03-Feb-2020 4005.51  145.13 64.96 7.00 310.00 3017.14
   06:23:04.200.03-Feb-2020 4005.51  145.13 64.96 7.00 310.20 3017.14
   06:23:04.400.03-Feb-2020 4005.51  144.05 64.96 7.00 310.40 3017.14
   06:23:04.600.03-Feb-2020 4005.51  143.35 64.96 7.00 310.60 3017.14
   06:23:04.800.03-Feb-2020 4005.51  142.71 64.96 7.00 310.80 3017.14
   06:23:05.000.03-Feb-2020 4005.51  142.06 64.96 7.00 311.00 3017.14
   06:23:05.200.03-Feb-2020 4005.51  142.06 64.96 7.00 311.20 3017.14
   06:23:05.400.03-Feb-2020 4005.51  140.92 64.96 7.00 311.40 3017.14
   06:23:05.600.03-Feb-2020 4005.51  140.35 64.96 7.00 311.60 3017.14
   06:23:05.800.03-Feb-2020 4005.51  139.74 64.96 7.00 311.80 3017.14
   06:23:06.000.03-Feb-2020 4005.51  139.20 64.96 7.00 312.00 3017.14
   06:23:06.200.03-Feb-2020 4005.51  139.20 64.96 7.00 312.20 3017.14
   06:23:06.400.03-Feb-2020 4005.51  138.27 64.96 7.00 312.40 3017.14
   06:23:06.600.03-Feb-2020 4005.51  137.78 64.96 7.00 312.60 3017.14
   06:23:06.800.03-Feb-2020 4005.51  137.35 64.96 7.00 312.80 3017.14
   06:23:07.000.03-Feb-2020 4005.51  136.85 64.96 7.00 313.00 3017.14
   06:23:07.200.03-Feb-2020 4005.51  136.85 64.96 7.00 313.20 3017.14
   06:23:07.400.03-Feb-2020 4005.51  136.01 64.96 7.00 313.40 3017.14
   06:23:07.600.03-Feb-2020 4005.51  135.62 64.96 7.00 313.60 3017.14
   06:23:07.800.03-Feb-2020 4005.51  135.24 64.96 7.00 313.80 3017.14
   06:23:08.000.03-Feb-2020 4005.51  134.87 64.96 7.00 314.00 3017.14
   06:23:08.200.03-Feb-2020 4005.51  134.87 64.96 7.00 314.20 3017.14
   06:23:08.400.03-Feb-2020 4005.51  134.23 64.96 7.00 314.40 3017.14
   06:23:08.600.03-Feb-2020 4005.51  133.84 64.96 7.00 314.60 3017.14
   06:23:08.800.03-Feb-2020 4005.51  133.45 64.96 7.00 314.80 3017.14
   06:23:09.000.03-Feb-2020 4005.51  133.08 64.96 7.00 315.00 3017.14
   06:23:09.200.03-Feb-2020 4005.51  133.08 64.96 7.00 315.20 3017.14
   06:23:09.400.03-Feb-2020 4005.51  132.41 64.96 7.00 315.40 3017.14
   06:23:09.600.03-Feb-2020 4005.51  132.29 64.96 7.00 315.60 3017.14
   06:23:09.800.03-Feb-2020 4005.51  132.32 64.96 7.00 315.80 3017.14
   06:23:10.000.03-Feb-2020 4005.51  132.36 64.96 7.00 316.00 3017.14
   06:23:10.200.03-Feb-2020 4005.51  132.36 64.96 7.00 316.20 3017.14
   06:23:10.400.03-Feb-2020 4005.51  132.44 64.96 7.00 316.40 3017.14
   06:23:10.600.03-Feb-2020 4005.51  132.48 64.96 7.00 316.60 3017.14
   06:23:10.800.03-Feb-2020 4005.51  132.52 64.96 7.00 316.80 3017.14
   06:23:11.000.03-Feb-2020 4005.51  132.55 64.96 7.00 317.00 3017.14
   06:23:11.200.03-Feb-2020 4005.51  132.55 64.96 7.00 317.20 3017.14
   06:23:11.400.03-Feb-2020 4005.51  132.62 64.96 7.00 317.40 3017.14
   06:23:11.600.03-Feb-2020 4005.51  132.64 64.96 7.00 317.60 3017.14
   06:23:11.800.03-Feb-2020 4005.51  132.68 64.96 7.00 317.80 3017.14
   06:23:12.000.03-Feb-2020 4005.51  132.71 64.96 7.00 318.00 3017.14
   06:23:12.200.03-Feb-2020 4005.51  132.74 64.96 7.00 318.20 3017.14
   06:23:12.400.03-Feb-2020 4005.51  132.77 64.96 7.00 318.40 3017.14
   06:23:12.600.03-Feb-2020 4005.51  132.80 64.96 7.00 318.60 3017.14
   06:23:12.800.03-Feb-2020 4005.51  132.83 64.96 7.00 318.80 3017.14
   06:23:13.000.03-Feb-2020 4005.51  132.86 64.96 7.00 319.00 3017.14
   06:23:13.200.03-Feb-2020 4005.51  132.86 64.96 7.00 319.20 3017.14
   06:23:13.400.03-Feb-2020 4005.51  132.91 64.96 7.00 319.40 3017.14
   06:23:13.600.03-Feb-2020 4005.51  132.94 64.96 7.00 319.60 3017.14
   06:23:13.800.03-Feb-2020 4005.51  132.96 64.96 7.00 319.80 3017.14
   06:23:14.000.03-Feb-2020 4005.51  132.98 64.96 7.00 320.00 3017.14
   06:23:14.200.03-Feb-2020 4005.51  132.98 64.96 7.00 320.20 3017.14
   06:23:14.400.03-Feb-2020 4005.51  133.04 64.96 7.00 320.40 3017.14
   06:23:14.600.03-Feb-2020 4005.51  133.06 64.96 7.00 320.60 3017.14
   06:23:14.800.03-Feb-2020 4005.51  133.09 64.96 7.00 320.80 3017.14
   06:23:15.000.03-Feb-2020 4005.51  133.11 64.96 7.00 321.00 3017.14
   06:23:15.200.03-Feb-2020 4005.51  133.11 64.96 7.00 321.20 3017.14
   06:23:15.400.03-Feb-2020 4005.51  133.16 64.96 7.00 321.40 3017.14
   06:23:15.600.03-Feb-2020 4005.51  133.19 64.96 7.00 321.60 3017.14
   06:23:15.800.03-Feb-2020 4005.51  133.21 64.96 7.00 321.80 3017.14
