~Version Information
 VERS.                  2.0:   CWLS log ASCII Standard -VERSION 2.0
 WRAP.                   NO:   One line per depth step
~Well Information Block
#MNEM.UNIT     VALUE/NAME     DESCRIPTION
#---------     -----------    ---------------------------
 STRT.S             05:26:39 03-Feb-20: START TIME 05:26:39 03-Feb-20
 STOP.S             05:34:31 03-Feb-20: STOP TIME  05:34:31 03-Feb-20
 STEP.S                   0.00: STEP TIME
 NULL.                 -999.25: NULL VALUE
 DFWT.                        :  DIST FWL TEXT
 DFST.                        :  DIST FSL TEXT
 DMF .             Drill Floor:  DRILL MEAS FROM
 STIM.      09.30.00 26-Dec-19:  START TIME
 DATE.      08.00.00 20-Jan-20:  END TIME
 SPUD.               23-Nov-19:  SPUD DATE
 NREF.                    Grid:  NORTH REFERENCE
 HPTY.       Minimum Curvature:  HOLE POS TYPE
 DMOD.             Drill Model:  DRILL MOD DESC
 SVYD.                  Survey:  SURVEY DESC
 ILTD.               Lithology:  INTERP LTH DESC
 FTOP.          Formation Tops:  FORM TOPS DESC
 SON .        AZ-XX-0906192647:  JOB NUMBER
 WTYP.                Deviated:  WELL TYPE
 COMP.     BP Exploration (Caspian Sea) Ltd:  COMPANY
 BASE.              Azerbaijan:  LOGGING EQUIPMENT BASE LOCATION
 REGN.                 Eurasia:  REGION
 FLD .                     ACG:  FIELD NAME
 SRVC.              KCA Deutag:  CONTRACTOR
 MWDS.                    Baku:  MWD SHOP
 WELL.     A10 (Slot 20) - SCP:  WELL NAME
 JOBN.        AZ-XX-0906192647:  JOB TICKET NUMB
 RIG .                 Chirag1:  RIG NAME
 DCON.     Halliburton Sperry Drilling:  DIRECTNL CONTR
 UNIT.                     N/A:  LOGGING EQUIPMENT ID
 PDAT.          Mean Sea Level:  PERMANENT DATUM
 MDS .        Operator Entered:  MAG DATA SOURCE
 CTRY.              Azerbaijan:  COUNTRY NAME
 UWI .            /AZE00000090:  UNIQUE WELL IDENTIFIER
 API .            /AZE00000090:  API NUMBER
 CNTY.                        :  COUNTY
 PROV.                        :  PROVINCE
 STAT.                        :  STATE
 LOC .                        :  LOCATION
 LMF .             Drill Floor:  LOG MEASURED FROM
 TVDS.m                  36.60:  TVDSS CORRECTN
 LATI.deg                40.08:  LATITUDE
 LONG.deg                51.24:  LONGITUDE
 WHNS.m                  -7.94:  WELL HEAD N/S
 WHEW.m                   1.56:  WELL HEAD E/W
 UTMX.m              520429.26:  UTM X
 UTMY.m             4438973.87:  UTM Y
 DFWL.m                   0.00:  DISTANCE FWL
 DFSL.m                   0.00:  DISTANCE FSL
 SDEP.m                1455.00:  START DEPTH
 TDD .m                4047.51:  TOTAL DEPTH (DRILLER)
 VSDR.deg               112.75:  VERT SEC DIRECT
 GVFD.g                   1.00:  GRAVITY FIELD
 MFLD.nT              50261.00:  MAGNETIC FIELD
 MDIP.deg                59.52:  MAGNETIC DIP
 MDEC.deg                 6.42:  MAGNETIC DECL
 GRDC.deg                 0.17:  GRID CORRECTION
 AZTC.deg                 6.25:  AZM TOTAL CORR
 EPD .m                   0.00:  ELEVATION
 EGL .m                   0.00:  GROUND ELEVATION
 WDMS.m                 121.00:  WD ELEV
 APD .m                  36.60:  DEPTH ABOVE PD
 AGAP.m                  36.60:  AIR GAP
 VSEW.m                   1.56:  VERT SEC E/W
 VSNS.m                  -7.94:  VERT SEC N/S
 DEP .m                1140.01:  DEPTH
 EKB .m                  36.60:  KB ELEVATION
 EDF .m                  36.60:  DF ELEVATION
 VSC .                       0:  VS TO CLOSURE
 MAGU.                 1849206:  MAGUTM CHECKSUM
~Parameter Information Block
#MNEM.UNIT       Value        Description
#---------     -----------    ---------------------------
 AV  .mps                 1.70:  Ann Velocity 
 AVMX.mps                 2.30:  Max Ann Veloc 
 AZIF.deg               137.03:  Azm, Final 
 BHAT.                   Other:  BHA Type 
 BROT.°/30m               0.80:  Build Rotating 
 BS  .in                  8.00:  Bit Size 
 BTPL.psig              161.00:  Bit Press Loss 
 CABU.                      No:  Customer Abuse 
 COMM.                     ¬]P:  Run Comments 1 
 TCS .hr                  9.59:  Time Ciculation Ended 
 CV  .mps                 3.76:  Crit Velocity 
 CVMX.mps                 4.26:  Max Crit Veloc 
 DD1 .         Intigam Rahimov:  Direct Drillr 1 
 DD2 .          Rashad Gojayev:  Direct Drillr 2 
 DDSV.                   Other:  DD Service 
 DEFF.%                 100.00:  % Det Eff 
 DLRX.°/30m               1.44:  Dogleg Rot Max 
 DLSO.°/30m               0.00:  Dogleg Oriented 
 DLSX.°/30m               0.00:  Dogleg Str Max 
 DRET.      03.31.12 02-Feb-20:  Drill End Time 
 DRST.      03.31.12 02-Feb-20:  Drill Start Tim 
 DTIM.hr                  1.99:  Time Drilling 
 EDEP.m                4047.51:  End Depth 
 ENG1.           Eldar Hajiyev:  Engineer 1 
 ENG2.          Rasim Hashimov:  Engineer 2 
 ENG3.          Rustam Safarov:  Engineer 3 
 ETIM.      03.31.12 02-Feb-20:  End Time 
 FLOI.gpm               300.00:  Flow In 
 FLON.gpm               250.00:  Flow In Min 
 FLOS.cptm                0.00:  Fluid Loss 
 FLOX.gpm               330.00:  Flow In Max 
 HFLO.                      No:  High Flow 
 HPRE.                      No:  High Pressure 
 HTEM.                      No:  High Temp 
 HYDO.m                   2.50:  Hydro Offset 
 IFIN.deg                39.54:  Inc, Final 
 IMAX.deg                41.14:  Inc Max 
 IMIN.deg                39.81:  Inc Min 
 IMND.m                4005.21:  Inc Min Depth 
 IMXD.m                3948.42:  Inc Max Depth 
 JARR.                      No:  Jarring 
 LETM.      03.31.12 02-Feb-20:  Log End Time 
 LOST.hr                     0:  Lost Rig Time 
 LSTM.      03.31.12 02-Feb-20:  Log Start Time 
 MDCL.ppm             35000.00:  Mud Chlorides 
 MDES.     Inversion Oil/Synthetic:  Mud Desc 
 DFD .sg                  1.32:  Mud Density 
 MDMN.sg                  1.32:  Dens Mud Min 
 MDMX.sg                  1.32:  Dens Mud Max 
 MOIL.                      59:  Run Mud Oil % 
 MOWR.                   71:29:  Run Mud OWR 
 MSND.                       0:  Run Mud Sand % 
 MSOL.                      17:  Run Mud Solids% 
 DFV .spqt               86.00:  Mud Viscosity 
 MWOD.in                  4.75:  MWD Tool OD 
 MWSI.                      No:  Serv Intrp, MWD 
 OTIM.hr                 46.72:  Time Operating 
 PCON.           Look Like New:  Pad Condition 
 PMAX.psia             3300.00:  Press Op, Max 
 PV  .cP                 30.00:  Mud PV 
 RUN .                     400:  Run Number 
 ROPA.m/hr               35.00:  ROP Avg 
 ROPN.m/hr               25.00:  ROP Min 
 ROPX.m/hr               40.00:  ROP Max 
 RPMA.rpm                80.00:  RPM Surface Avg 
 RPMN.rpm                60.00:  RPM Surface Min 
 RPMX.rpm               100.00:  RPM Surface Max 
 RRUN.                     400:  Rig Run Number 
 RTIM.hr                  1.99:  Time Reaming 
 SAZI.deg               133.93:  Azm, Start 
 SDEP.m                4047.51:  Start Depth 
 SIDD.                      No:  Serv Intrp, DD 
 SINC.deg                40.28:  Inc, Start 
 SPPA.psig             3250.00:  SPP Avg 
 SPPN.psig             3200.00:  SPP Min 
 SPPX.psig             3300.00:  SPP Max 
 STIM.      03.31.12 02-Feb-20:  Start Time 
 SVCS.                 DD, MWD:  Services 
 SVER.                    9.20:  Sperry Version 
 TDAT.m                  47.00:  Tot Depth Attmp 
 TDDF.                      No:  Trip for DD 
 TFF .                      No:  Trip for Fail 
 TQAA.f-kp                0.00:  Torque Abs Avg 
 TQAN.f-kp                0.00:  Torque Abs Min 
 TQAX.f-kp                0.00:  Torque Abs Max 
 TRRT.°/30m               0.70:  Turn Rotating 
 MRT .                    HCIM:  Maximum Recorded Temperature 
 TTMX.degC               70.59:  Max Tool Temp 
 VS01.             90598770F11:  Virtual Str1 SN 
 VS02.             90598769F11:  Virtual Str2 SN 
 VS03.            90515978Z1W1:  Virtual Str3 SN 
 VS04.          90584144R12X14:  Virtual Str4 SN 
 WBMN.klb                 0.00:  WOB Min 
 WITN.            Peter Wilson:  Customer Rep 
 WOBA.klb                 0.00:  WOB Avg 
 WOBX.klb                 0.00:  WOB Max 
 YP  .lhf2               29.00:  Yield Point 
~Curve Information Block
#MNEM.UNIT                 API CODE     Curve Description
#---------               -----------    ---------------------------
 TIME.HHMMSS            00 000 000 000:  GT Time & Date
 GTDEPTH.m              00 000 000 000:  GT Depth
 GTPQH.psia             00 000 000 000:  GT HR Quartz Pressure
 GTTQ.degC              00 000 000 000:  GT Quartz Temperature
 GTTN.NONE              00 000 000 000:  GT Test Number
 GTET.sec               00 000 000 000:  GT Elapsed Test Time
 GTTVD.m                00 000 000 000:  GT True Vertical Depth
#Other Information
#
#WARRANTY: Halliburton will use its best efforts to furnish customers with 
#accurate information and interpretations that are part of, and incident to, the services 
#provided.  However, Halliburton cannot and does not warrant the accuracy 
#or correctness of such information and interpretations.  Under no circumstances should any 
#such information or interpretation be relied upon as the sole basis for any drilling, 
#completion, production, or financial decision or any procedure involving any risk to the 
#safety of any drilling venture, drilling rig or its crew or any other third party.  The 
#Customer has full responsibility for all drilling, completion and production operation.  
#Halliburton makes no representations or warranties, either expressed or 
#implied, including, but not limited to, the implied warranties of merchantability or fitness 
#for a particular purpose, with respect to the services rendered.  In no event will 
#Halliburton be liable for failure to obtain any particular results or for 
#any damages, including, but not limited to, indirect, special or consequential damages, 
#resulting from the use of any information or interpretation provided by Halliburton.
#
~A           TIME           GTDEPTH  GTPQH  GTTQ  GTTN  GTET   GTTVD  
# ...
   05:30:06.000.03-Feb-2020 4009.51 2751.98 64.58 5.00 207.00 3020.21
   05:30:06.200.03-Feb-2020 4009.51 2751.98 64.58 5.00 207.20 3020.21
   05:30:06.400.03-Feb-2020 4009.51 2760.14 64.58 5.00 207.40 3020.21
   05:30:06.600.03-Feb-2020 4009.51 2764.18 64.58 5.00 207.60 3020.21
   05:30:06.800.03-Feb-2020 4009.51 2768.10 64.58 5.00 207.80 3020.21
   05:30:07.000.03-Feb-2020 4009.51 2771.98 64.58 5.00 208.00 3020.21
   05:30:07.200.03-Feb-2020 4009.51 2771.98 64.58 5.00 208.20 3020.21
   05:30:07.400.03-Feb-2020 4009.51 2778.99 64.58 5.00 208.40 3020.21
   05:30:07.600.03-Feb-2020 4009.51 2782.25 64.58 5.00 208.60 3020.21
   05:30:07.800.03-Feb-2020 4009.51 2785.73 64.58 5.00 208.80 3020.21
   05:30:08.000.03-Feb-2020 4009.51 2789.02 64.58 5.00 209.00 3020.21
   05:30:08.200.03-Feb-2020 4009.51 2789.02 64.58 5.00 209.20 3020.21
   05:30:08.400.03-Feb-2020 4009.51 2795.83 64.58 5.00 209.40 3020.21
   05:30:08.600.03-Feb-2020 4009.51 2799.81 64.58 5.00 209.60 3020.21
   05:30:08.800.03-Feb-2020 4009.51 2803.10 64.58 5.00 209.80 3020.21
   05:30:09.000.03-Feb-2020 4009.51 2806.47 64.58 5.00 210.00 3020.21
   05:30:09.200.03-Feb-2020 4009.51 2806.47 64.58 5.00 210.20 3020.21
   05:30:09.400.03-Feb-2020 4009.51 2812.37 64.58 5.00 210.40 3020.21
   05:30:09.600.03-Feb-2020 4009.51 2815.46 64.58 5.00 210.60 3020.21
   05:30:09.800.03-Feb-2020 4009.51 2818.16 64.58 5.00 210.80 3020.21
   05:30:10.000.03-Feb-2020 4009.51 2821.54 64.58 5.00 211.00 3020.21
   05:30:10.200.03-Feb-2020 4009.51 2821.54 64.58 5.00 211.20 3020.21
   05:30:10.400.03-Feb-2020 4009.51 2827.80 64.58 5.00 211.40 3020.21
   05:30:10.600.03-Feb-2020 4009.51 2830.64 64.58 5.00 211.60 3020.21
   05:30:10.800.03-Feb-2020 4009.51 2833.64 64.58 5.00 211.80 3020.21
   05:30:11.000.03-Feb-2020 4009.51 2836.57 64.58 5.00 212.00 3020.21
   05:30:11.200.03-Feb-2020 4009.51 2836.57 64.58 5.00 212.20 3020.21
   05:30:11.400.03-Feb-2020 4009.51 2842.69 64.58 5.00 212.40 3020.21
   05:30:11.600.03-Feb-2020 4009.51 2845.66 64.58 5.00 212.60 3020.21
   05:30:11.800.03-Feb-2020 4009.51 2847.95 64.58 5.00 212.80 3020.21
   05:30:12.000.03-Feb-2020 4009.51 2850.86 64.58 5.00 213.00 3020.21
   05:30:12.200.03-Feb-2020 4009.51 2850.86 64.58 5.00 213.20 3020.21
   05:30:12.400.03-Feb-2020 4009.51 2855.41 64.58 5.00 213.40 3020.21
   05:30:12.600.03-Feb-2020 4009.51 2858.09 64.58 5.00 213.60 3020.21
   05:30:12.800.03-Feb-2020 4009.51 2860.87 64.58 5.00 213.80 3020.21
   05:30:13.000.03-Feb-2020 4009.51 2863.53 64.58 5.00 214.00 3020.21
   05:30:13.200.03-Feb-2020 4009.51 2863.53 64.58 5.00 214.20 3020.21
   05:30:13.400.03-Feb-2020 4009.51 2868.65 64.58 5.00 214.40 3020.21
   05:30:13.600.03-Feb-2020 4009.51 2871.38 64.58 5.00 214.60 3020.21
   05:30:13.800.03-Feb-2020 4009.51 2873.96 64.58 5.00 214.80 3020.21
   05:30:14.000.03-Feb-2020 4009.51 2876.46 64.58 5.00 215.00 3020.21
   05:30:14.200.03-Feb-2020 4009.51 2876.46 64.58 5.00 215.20 3020.21
   05:30:14.400.03-Feb-2020 4009.51 2881.32 64.58 5.00 215.40 3020.21
   05:30:14.600.03-Feb-2020 4009.51 2883.75 64.58 5.00 215.60 3020.21
   05:30:14.800.03-Feb-2020 4009.51 2886.18 64.58 5.00 215.80 3020.21
   05:30:15.000.03-Feb-2020 4009.51 2888.50 64.58 5.00 216.00 3020.21
   05:30:15.200.03-Feb-2020 4009.51 2888.50 64.58 5.00 216.20 3020.21
   05:30:15.400.03-Feb-2020 4009.51 2892.72 64.58 5.00 216.40 3020.21
   05:30:15.600.03-Feb-2020 4009.51 2894.86 64.58 5.00 216.60 3020.21
   05:30:15.800.03-Feb-2020 4009.51 2896.14 64.58 5.00 216.80 3020.21
   05:30:16.000.03-Feb-2020 4009.51 2898.21 64.58 5.00 217.00 3020.21
   05:30:16.200.03-Feb-2020 4009.51 2898.21 64.58 5.00 217.20 3020.21
   05:30:16.400.03-Feb-2020 4009.51 2902.81 64.58 5.00 217.40 3020.21
   05:30:16.600.03-Feb-2020 4009.51 2905.00 64.58 5.00 217.60 3020.21
   05:30:16.800.03-Feb-2020 4009.51 2907.17 64.58 5.00 217.80 3020.21
   05:30:17.000.03-Feb-2020 4009.51 2909.24 64.58 5.00 218.00 3020.21
   05:30:17.200.03-Feb-2020 4009.51 2909.24 64.58 5.00 218.20 3020.21
   05:30:17.400.03-Feb-2020 4009.51 2913.38 64.58 5.00 218.40 3020.21
   05:30:17.600.03-Feb-2020 4009.51 2915.07 64.58 5.00 218.60 3020.21
   05:30:17.800.03-Feb-2020 4009.51 2917.17 64.58 5.00 218.80 3020.21
   05:30:18.000.03-Feb-2020 4009.51 2919.32 64.58 5.00 219.00 3020.21
   05:30:18.200.03-Feb-2020 4009.51 2919.32 64.58 5.00 219.20 3020.21
   05:30:18.400.03-Feb-2020 4009.51 2923.34 64.58 5.00 219.40 3020.21
   05:30:18.600.03-Feb-2020 4009.51 2925.27 64.58 5.00 219.60 3020.21
   05:30:18.800.03-Feb-2020 4009.51 2926.83 64.58 5.00 219.80 3020.21
   05:30:19.000.03-Feb-2020 4009.51 2929.09 64.58 5.00 220.00 3020.21
   05:30:19.200.03-Feb-2020 4009.51 2929.09 64.58 5.00 220.20 3020.21
   05:30:19.400.03-Feb-2020 4009.51 2932.71 64.58 5.00 220.40 3020.21
   05:30:19.600.03-Feb-2020 4009.51 2934.41 64.58 5.00 220.60 3020.21
   05:30:19.800.03-Feb-2020 4009.51 2936.24 64.58 5.00 220.80 3020.21
   05:30:20.000.03-Feb-2020 4009.51 2938.06 64.58 5.00 221.00 3020.21
   05:30:20.200.03-Feb-2020 4009.51 2938.06 64.58 5.00 221.20 3020.21
   05:30:20.400.03-Feb-2020 4009.51 2940.85 64.58 5.00 221.40 3020.21
   05:30:20.600.03-Feb-2020 4009.51 2942.19 64.58 5.00 221.60 3020.21
   05:30:20.800.03-Feb-2020 4009.51 2943.86 64.58 5.00 221.80 3020.21
   05:30:21.000.03-Feb-2020 4009.51 2945.50 64.58 5.00 222.00 3020.21
   05:30:21.200.03-Feb-2020 4009.51 2945.50 64.58 5.00 222.20 3020.21
   05:30:21.400.03-Feb-2020 4009.51 2948.91 64.58 5.00 222.40 3020.21
   05:30:21.600.03-Feb-2020 4009.51 2949.98 64.58 5.00 222.60 3020.21
   05:30:21.800.03-Feb-2020 4009.51 2952.11 64.58 5.00 222.80 3020.21
   05:30:22.000.03-Feb-2020 4009.51 2953.53 64.58 5.00 223.00 3020.21
   05:30:22.200.03-Feb-2020 4009.51 2953.53 64.58 5.00 223.20 3020.21
   05:30:22.400.03-Feb-2020 4009.51 2956.85 64.58 5.00 223.40 3020.21
   05:30:22.600.03-Feb-2020 4009.51 2958.47 64.58 5.00 223.60 3020.21
   05:30:22.800.03-Feb-2020 4009.51 2959.91 64.58 5.00 223.80 3020.21
   05:30:23.000.03-Feb-2020 4009.51 2961.48 64.58 5.00 224.00 3020.21
   05:30:23.200.03-Feb-2020 4009.51 2961.48 64.58 5.00 224.20 3020.21
   05:30:23.400.03-Feb-2020 4009.51 2964.58 64.58 5.00 224.40 3020.21
   05:30:23.600.03-Feb-2020 4009.51 2966.12 64.58 5.00 224.60 3020.21
   05:30:23.800.03-Feb-2020 4009.51 2967.58 64.58 5.00 224.80 3020.21
   05:30:24.000.03-Feb-2020 4009.51 2968.99 64.58 5.00 225.00 3020.21
   05:30:24.200.03-Feb-2020 4009.51 2968.99 64.58 5.00 225.20 3020.21
   05:30:24.400.03-Feb-2020 4009.51 2971.72 64.58 5.00 225.40 3020.21
   05:30:24.600.03-Feb-2020 4009.51 2973.30 64.58 5.00 225.60 3020.21
   05:30:24.800.03-Feb-2020 4009.51 2974.64 64.58 5.00 225.80 3020.21
   05:30:25.000.03-Feb-2020 4009.51 2975.53 64.58 5.00 226.00 3020.21
   05:30:25.200.03-Feb-2020 4009.51 2975.53 64.58 5.00 226.20 3020.21
   05:30:25.400.03-Feb-2020 4009.51 2978.29 64.58 5.00 226.40 3020.21
   05:30:25.600.03-Feb-2020 4009.51 2979.66 64.58 5.00 226.60 3020.21
   05:30:25.800.03-Feb-2020 4009.51 2981.03 64.58 5.00 226.80 3020.21
   05:30:26.000.03-Feb-2020 4009.51 2982.28 64.58 5.00 227.00 3020.21
   05:30:26.200.03-Feb-2020 4009.51 2982.28 64.58 5.00 227.20 3020.21
   05:30:26.400.03-Feb-2020 4009.51 2984.10 64.58 5.00 227.40 3020.21
   05:30:26.600.03-Feb-2020 4009.51 2985.24 64.58 5.00 227.60 3020.21
   05:30:26.800.03-Feb-2020 4009.51 2986.46 64.58 5.00 227.80 3020.21
   05:30:27.000.03-Feb-2020 4009.51 2987.79 64.58 5.00 228.00 3020.21
   05:30:27.200.03-Feb-2020 4009.51 2987.79 64.58 5.00 228.20 3020.21
   05:30:27.400.03-Feb-2020 4009.51 2989.86 64.58 5.00 228.40 3020.21
   05:30:27.600.03-Feb-2020 4009.51 2991.34 64.58 5.00 228.60 3020.21
   05:30:27.800.03-Feb-2020 4009.51 2992.30 64.58 5.00 228.80 3020.21
   05:30:28.000.03-Feb-2020 4009.51 2993.82 64.58 5.00 229.00 3020.21
   05:30:28.200.03-Feb-2020 4009.51 2993.82 64.58 5.00 229.20 3020.21
   05:30:28.400.03-Feb-2020 4009.51 2995.91 64.58 5.00 229.40 3020.21
   05:30:28.600.03-Feb-2020 4009.51 2996.95 64.58 5.00 229.60 3020.21
   05:30:28.800.03-Feb-2020 4009.51 2998.33 64.58 5.00 229.80 3020.21
