~Version Information
 VERS.                  2.0:   CWLS log ASCII Standard -VERSION 2.0
 WRAP.                   NO:   One line per depth step
~Well Information Block
#MNEM.UNIT     VALUE/NAME     DESCRIPTION
#---------     -----------    ---------------------------
 STRT.S             03:10:10 03-Feb-20: START TIME 03:10:10 03-Feb-20
 STOP.S             03:17:58 03-Feb-20: STOP TIME  03:17:58 03-Feb-20
 STEP.S                   0.00: STEP TIME
 NULL.                 -999.25: NULL VALUE
 DFWT.                        :  DIST FWL TEXT
 DFST.                        :  DIST FSL TEXT
 DMF .             Drill Floor:  DRILL MEAS FROM
 STIM.      09.30.00 26-Dec-19:  START TIME
 DATE.      08.00.00 20-Jan-20:  END TIME
 SPUD.               23-Nov-19:  SPUD DATE
 NREF.                    Grid:  NORTH REFERENCE
 HPTY.       Minimum Curvature:  HOLE POS TYPE
 DMOD.             Drill Model:  DRILL MOD DESC
 SVYD.                  Survey:  SURVEY DESC
 ILTD.               Lithology:  INTERP LTH DESC
 FTOP.          Formation Tops:  FORM TOPS DESC
 SON .        AZ-XX-0906192647:  JOB NUMBER
 WTYP.                Deviated:  WELL TYPE
 COMP.     BP Exploration (Caspian Sea) Ltd:  COMPANY
 BASE.              Azerbaijan:  LOGGING EQUIPMENT BASE LOCATION
 REGN.                 Eurasia:  REGION
 FLD .                     ACG:  FIELD NAME
 SRVC.              KCA Deutag:  CONTRACTOR
 MWDS.                    Baku:  MWD SHOP
 WELL.     A10 (Slot 20) - SCP:  WELL NAME
 JOBN.        AZ-XX-0906192647:  JOB TICKET NUMB
 RIG .                 Chirag1:  RIG NAME
 DCON.     Halliburton Sperry Drilling:  DIRECTNL CONTR
 UNIT.                     N/A:  LOGGING EQUIPMENT ID
 PDAT.          Mean Sea Level:  PERMANENT DATUM
 MDS .        Operator Entered:  MAG DATA SOURCE
 CTRY.              Azerbaijan:  COUNTRY NAME
 UWI .            /AZE00000090:  UNIQUE WELL IDENTIFIER
 API .            /AZE00000090:  API NUMBER
 CNTY.                        :  COUNTY
 PROV.                        :  PROVINCE
 STAT.                        :  STATE
 LOC .                        :  LOCATION
 LMF .             Drill Floor:  LOG MEASURED FROM
 TVDS.m                  36.60:  TVDSS CORRECTN
 LATI.deg                40.08:  LATITUDE
 LONG.deg                51.24:  LONGITUDE
 WHNS.m                  -7.94:  WELL HEAD N/S
 WHEW.m                   1.56:  WELL HEAD E/W
 UTMX.m              520429.26:  UTM X
 UTMY.m             4438973.87:  UTM Y
 DFWL.m                   0.00:  DISTANCE FWL
 DFSL.m                   0.00:  DISTANCE FSL
 SDEP.m                1455.00:  START DEPTH
 TDD .m                4047.51:  TOTAL DEPTH (DRILLER)
 VSDR.deg               112.75:  VERT SEC DIRECT
 GVFD.g                   1.00:  GRAVITY FIELD
 MFLD.nT              50261.00:  MAGNETIC FIELD
 MDIP.deg                59.52:  MAGNETIC DIP
 MDEC.deg                 6.42:  MAGNETIC DECL
 GRDC.deg                 0.17:  GRID CORRECTION
 AZTC.deg                 6.25:  AZM TOTAL CORR
 EPD .m                   0.00:  ELEVATION
 EGL .m                   0.00:  GROUND ELEVATION
 WDMS.m                 121.00:  WD ELEV
 APD .m                  36.60:  DEPTH ABOVE PD
 AGAP.m                  36.60:  AIR GAP
 VSEW.m                   1.56:  VERT SEC E/W
 VSNS.m                  -7.94:  VERT SEC N/S
 DEP .m                1140.01:  DEPTH
 EKB .m                  36.60:  KB ELEVATION
 EDF .m                  36.60:  DF ELEVATION
 VSC .                       0:  VS TO CLOSURE
 MAGU.                 1849206:  MAGUTM CHECKSUM
~Parameter Information Block
#MNEM.UNIT       Value        Description
#---------     -----------    ---------------------------
 AV  .mps                 1.70:  Ann Velocity 
 AVMX.mps                 2.30:  Max Ann Veloc 
 AZIF.deg               137.03:  Azm, Final 
 BHAT.                   Other:  BHA Type 
 BROT.°/30m               0.80:  Build Rotating 
 BS  .in                  8.00:  Bit Size 
 BTPL.psig              161.00:  Bit Press Loss 
 CABU.                      No:  Customer Abuse 
 TCS .hr                  9.59:  Time Ciculation Ended 
 CV  .mps                 3.76:  Crit Velocity 
 CVMX.mps                 4.26:  Max Crit Veloc 
 DD1 .         Intigam Rahimov:  Direct Drillr 1 
 DD2 .          Rashad Gojayev:  Direct Drillr 2 
 DDSV.                   Other:  DD Service 
 DEFF.%                 100.00:  % Det Eff 
 DLRX.°/30m               1.44:  Dogleg Rot Max 
 DLSO.°/30m               0.00:  Dogleg Oriented 
 DLSX.°/30m               0.00:  Dogleg Str Max 
 DRET.      03.31.12 02-Feb-20:  Drill End Time 
 DRST.      03.31.12 02-Feb-20:  Drill Start Tim 
 DTIM.hr                  1.99:  Time Drilling 
 EDEP.m                4047.51:  End Depth 
 ENG1.           Eldar Hajiyev:  Engineer 1 
 ENG2.          Rasim Hashimov:  Engineer 2 
 ENG3.          Rustam Safarov:  Engineer 3 
 ETIM.      03.31.12 02-Feb-20:  End Time 
 FLOI.gpm               300.00:  Flow In 
 FLON.gpm               250.00:  Flow In Min 
 FLOS.cptm                0.00:  Fluid Loss 
 FLOX.gpm               330.00:  Flow In Max 
 HFLO.                      No:  High Flow 
 HPRE.                      No:  High Pressure 
 HTEM.                      No:  High Temp 
 HYDO.m                   2.50:  Hydro Offset 
 IFIN.deg                39.54:  Inc, Final 
 IMAX.deg                41.14:  Inc Max 
 IMIN.deg                39.81:  Inc Min 
 IMND.m                4005.21:  Inc Min Depth 
 IMXD.m                3948.42:  Inc Max Depth 
 JARR.                      No:  Jarring 
 LETM.      03.31.12 02-Feb-20:  Log End Time 
 LOST.hr                     0:  Lost Rig Time 
 LSTM.      03.31.12 02-Feb-20:  Log Start Time 
 MDCL.ppm             35000.00:  Mud Chlorides 
 MDES.     Inversion Oil/Synthetic:  Mud Desc 
 DFD .sg                  1.32:  Mud Density 
 MDMN.sg                  1.32:  Dens Mud Min 
 MDMX.sg                  1.32:  Dens Mud Max 
 MOIL.                      59:  Run Mud Oil % 
 MOWR.                   71:29:  Run Mud OWR 
 MSND.                       0:  Run Mud Sand % 
 MSOL.                      17:  Run Mud Solids% 
 DFV .spqt               86.00:  Mud Viscosity 
 MWOD.in                  4.75:  MWD Tool OD 
 MWSI.                      No:  Serv Intrp, MWD 
 OTIM.hr                 46.72:  Time Operating 
 PCON.           Look Like New:  Pad Condition 
 PMAX.psia             3300.00:  Press Op, Max 
 PV  .cP                 30.00:  Mud PV 
 RUN .                     400:  Run Number 
 ROPA.m/hr               35.00:  ROP Avg 
 ROPN.m/hr               25.00:  ROP Min 
 ROPX.m/hr               40.00:  ROP Max 
 RPMA.rpm                80.00:  RPM Surface Avg 
 RPMN.rpm                60.00:  RPM Surface Min 
 RPMX.rpm               100.00:  RPM Surface Max 
 RRUN.                     400:  Rig Run Number 
 RTIM.hr                  1.99:  Time Reaming 
 SAZI.deg               133.93:  Azm, Start 
 SDEP.m                4047.51:  Start Depth 
 SIDD.                      No:  Serv Intrp, DD 
 SINC.deg                40.28:  Inc, Start 
 SPPA.psig             3250.00:  SPP Avg 
 SPPN.psig             3200.00:  SPP Min 
 SPPX.psig             3300.00:  SPP Max 
 STIM.      03.31.12 02-Feb-20:  Start Time 
 SVCS.                 DD, MWD:  Services 
 SVER.                    9.20:  Sperry Version 
 TDAT.m                  47.00:  Tot Depth Attmp 
 TDDF.                      No:  Trip for DD 
 TFF .                      No:  Trip for Fail 
 TQAA.f-kp                0.00:  Torque Abs Avg 
 TQAN.f-kp                0.00:  Torque Abs Min 
 TQAX.f-kp                0.00:  Torque Abs Max 
 TRRT.°/30m               0.70:  Turn Rotating 
 MRT .                    HCIM:  Maximum Recorded Temperature 
 TTMX.degC               70.59:  Max Tool Temp 
 VS01.             90598770F11:  Virtual Str1 SN 
 VS02.             90598769F11:  Virtual Str2 SN 
 VS03.            90515978Z1W1:  Virtual Str3 SN 
 VS04.          90584144R12X14:  Virtual Str4 SN 
 WBMN.klb                 0.00:  WOB Min 
 WITN.            Peter Wilson:  Customer Rep 
 WOBA.klb                 0.00:  WOB Avg 
 WOBX.klb                 0.00:  WOB Max 
 YP  .lhf2               29.00:  Yield Point 
~Curve Information Block
#MNEM.UNIT                 API CODE     Curve Description
#---------               -----------    ---------------------------
 TIME.HHMMSS            00 000 000 000:  GT Time & Date
 GTDEPTH.m              00 000 000 000:  GT Depth
 GTPQH.psia             00 000 000 000:  GT HR Quartz Pressure
 GTTQ.degC              00 000 000 000:  GT Quartz Temperature
 GTTN.NONE              00 000 000 000:  GT Test Number
 GTET.sec               00 000 000 000:  GT Elapsed Test Time
 GTTVD.m                00 000 000 000:  GT True Vertical Depth
#Other Information
#
#WARRANTY: Halliburton will use its best efforts to furnish customers with 
#accurate information and interpretations that are part of, and incident to, the services 
#provided.  However, Halliburton cannot and does not warrant the accuracy 
#or correctness of such information and interpretations.  Under no circumstances should any 
#such information or interpretation be relied upon as the sole basis for any drilling, 
#completion, production, or financial decision or any procedure involving any risk to the 
#safety of any drilling venture, drilling rig or its crew or any other third party.  The 
#Customer has full responsibility for all drilling, completion and production operation.  
#Halliburton makes no representations or warranties, either expressed or 
#implied, including, but not limited to, the implied warranties of merchantability or fitness 
#for a particular purpose, with respect to the services rendered.  In no event will 
#Halliburton be liable for failure to obtain any particular results or for 
#any damages, including, but not limited to, indirect, special or consequential damages, 
#resulting from the use of any information or interpretation provided by Halliburton.
#
~A           TIME           GTDEPTH  GTPQH  GTTQ  GTTN  GTET   GTTVD  
# ...
   03:15:32.091.03-Feb-2020 4017.01 3134.55 62.99 2.00 322.07 3025.96
   03:15:32.291.03-Feb-2020 4017.01 3134.55 62.99 2.00 322.27 3025.96
   03:15:32.491.03-Feb-2020 4017.01 3134.62 62.99 2.00 322.47 3025.96
   03:15:32.691.03-Feb-2020 4017.01 3134.34 62.99 2.00 322.67 3025.96
   03:15:32.891.03-Feb-2020 4017.01 3134.56 62.99 2.00 322.87 3025.96
   03:15:33.091.03-Feb-2020 4017.01 3134.67 62.99 2.00 323.07 3025.96
   03:15:33.291.03-Feb-2020 4017.01 3134.67 62.99 2.00 323.27 3025.96
   03:15:33.491.03-Feb-2020 4017.01 3134.64 62.99 2.00 323.47 3025.96
   03:15:33.691.03-Feb-2020 4017.01 3134.63 62.99 2.00 323.67 3025.96
   03:15:33.891.03-Feb-2020 4017.01 3134.68 62.99 2.00 323.87 3025.96
   03:15:34.091.03-Feb-2020 4017.01 3134.66 62.99 2.00 324.07 3025.96
   03:15:34.291.03-Feb-2020 4017.01 3134.66 62.99 2.00 324.27 3025.96
   03:15:34.491.03-Feb-2020 4017.01 3134.65 62.99 2.00 324.47 3025.96
   03:15:34.692.03-Feb-2020 4017.01 3134.62 62.99 2.00 324.67 3025.96
   03:15:34.892.03-Feb-2020 4017.01 3134.64 62.99 2.00 324.87 3025.96
   03:15:35.092.03-Feb-2020 4017.01 3134.22 62.99 2.00 325.07 3025.96
   03:15:35.292.03-Feb-2020 4017.01 3134.22 62.99 2.00 325.27 3025.96
   03:15:35.492.03-Feb-2020 4017.01 3134.57 62.99 2.00 325.47 3025.96
   03:15:35.692.03-Feb-2020 4017.01 3134.90 62.99 2.00 325.67 3025.96
   03:15:35.892.03-Feb-2020 4017.01 3134.65 62.99 2.00 325.87 3025.96
   03:15:36.092.03-Feb-2020 4017.01 3134.74 62.99 2.00 326.07 3025.96
   03:15:36.292.03-Feb-2020 4017.01 3134.74 62.99 2.00 326.27 3025.96
   03:15:36.492.03-Feb-2020 4017.01 3134.97 62.99 2.00 326.47 3025.96
   03:15:36.692.03-Feb-2020 4017.01 3134.69 62.99 2.00 326.67 3025.96
   03:15:36.892.03-Feb-2020 4017.01 3134.80 62.99 2.00 326.87 3025.96
   03:15:37.092.03-Feb-2020 4017.01 3134.75 62.99 2.00 327.07 3025.96
   03:15:37.292.03-Feb-2020 4017.01 3134.75 62.99 2.00 327.27 3025.96
   03:15:37.492.03-Feb-2020 4017.01 3134.77 62.99 2.00 327.47 3025.96
   03:15:37.692.03-Feb-2020 4017.01 3134.58 62.99 2.00 327.67 3025.96
   03:15:37.892.03-Feb-2020 4017.01 3134.88 62.99 2.00 327.87 3025.96
   03:15:38.092.03-Feb-2020 4017.01 3134.83 62.99 2.00 328.07 3025.96
   03:15:38.292.03-Feb-2020 4017.01 3134.83 62.99 2.00 328.27 3025.96
   03:15:38.492.03-Feb-2020 4017.01 3135.10 62.99 2.00 328.47 3025.96
   03:15:38.692.03-Feb-2020 4017.01 3134.58 62.99 2.00 328.67 3025.96
   03:15:38.892.03-Feb-2020 4017.01 3134.88 62.99 2.00 328.87 3025.96
   03:15:39.092.03-Feb-2020 4017.01 3134.76 62.99 2.00 329.07 3025.96
   03:15:39.292.03-Feb-2020 4017.01 3134.76 62.99 2.00 329.27 3025.96
   03:15:39.493.03-Feb-2020 4017.01 3134.79 62.99 2.00 329.47 3025.96
   03:15:39.693.03-Feb-2020 4017.01 3134.82 62.99 2.00 329.67 3025.96
   03:15:39.893.03-Feb-2020 4017.01 3134.76 62.99 2.00 329.87 3025.96
   03:15:40.093.03-Feb-2020 4017.01 3134.73 62.99 2.00 330.07 3025.96
   03:15:40.293.03-Feb-2020 4017.01 3134.73 62.99 2.00 330.27 3025.96
   03:15:40.493.03-Feb-2020 4017.01 3134.80 62.99 2.00 330.47 3025.96
   03:15:40.693.03-Feb-2020 4017.01 3134.80 62.99 2.00 330.67 3025.96
   03:15:40.893.03-Feb-2020 4017.01 3134.81 62.99 2.00 330.87 3025.96
   03:15:41.093.03-Feb-2020 4017.01 3134.73 62.99 2.00 331.07 3025.96
   03:15:41.293.03-Feb-2020 4017.01 3134.73 62.99 2.00 331.27 3025.96
   03:15:41.493.03-Feb-2020 4017.01 3134.85 62.99 2.00 331.47 3025.96
   03:15:41.693.03-Feb-2020 4017.01 3134.50 62.99 2.00 331.67 3025.96
   03:15:41.893.03-Feb-2020 4017.01 3134.78 62.99 2.00 331.87 3025.96
   03:15:42.093.03-Feb-2020 4017.01 3134.90 62.99 2.00 332.07 3025.96
   03:15:42.293.03-Feb-2020 4017.01 3134.90 62.99 2.00 332.27 3025.96
   03:15:42.493.03-Feb-2020 4017.01 3134.86 62.99 2.00 332.47 3025.96
   03:15:42.693.03-Feb-2020 4017.01 3134.82 62.99 2.00 332.67 3025.96
   03:15:42.893.03-Feb-2020 4017.01 3134.81 62.99 2.00 332.87 3025.96
   03:15:43.093.03-Feb-2020 4017.01 3134.83 62.99 2.00 333.07 3025.96
   03:15:43.293.03-Feb-2020 4017.01 3134.83 62.99 2.00 333.27 3025.96
   03:15:43.493.03-Feb-2020 4017.01 3134.85 62.99 2.00 333.47 3025.96
   03:15:43.693.03-Feb-2020 4017.01 3134.86 62.99 2.00 333.67 3025.96
   03:15:43.893.03-Feb-2020 4017.01 3134.83 62.99 2.00 333.87 3025.96
   03:15:44.093.03-Feb-2020 4017.01 3134.39 62.99 2.00 334.07 3025.96
   03:15:44.294.03-Feb-2020 4017.01 3134.39 62.99 2.00 334.27 3025.96
   03:15:44.494.03-Feb-2020 4017.01 3134.70 62.99 2.00 334.47 3025.96
   03:15:44.694.03-Feb-2020 4017.01 3135.08 62.99 2.00 334.67 3025.96
   03:15:44.894.03-Feb-2020 4017.01 3134.85 62.99 2.00 334.87 3025.96
   03:15:45.094.03-Feb-2020 4017.01 3134.91 62.99 2.00 335.07 3025.96
   03:15:45.294.03-Feb-2020 4017.01 3134.91 62.99 2.00 335.27 3025.96
   03:15:45.494.03-Feb-2020 4017.01 3135.16 62.99 2.00 335.47 3025.96
   03:15:45.694.03-Feb-2020 4017.01 3134.82 62.99 2.00 335.67 3025.96
   03:15:45.894.03-Feb-2020 4017.01 3134.99 62.99 2.00 335.87 3025.96
   03:15:46.094.03-Feb-2020 4017.01 3134.90 62.99 2.00 336.07 3025.96
   03:15:46.294.03-Feb-2020 4017.01 3134.90 62.99 2.00 336.27 3025.96
   03:15:46.494.03-Feb-2020 4017.01 3134.95 62.99 2.00 336.47 3025.96
   03:15:46.694.03-Feb-2020 4017.01 3134.73 62.99 2.00 336.67 3025.96
   03:15:46.894.03-Feb-2020 4017.01 3134.98 62.99 2.00 336.87 3025.96
   03:15:47.094.03-Feb-2020 4017.01 3134.97 62.99 2.00 337.07 3025.96
   03:15:47.294.03-Feb-2020 4017.01 3134.97 62.99 2.00 337.27 3025.96
   03:15:47.494.03-Feb-2020 4017.01 3135.22 62.99 2.00 337.47 3025.96
   03:15:47.694.03-Feb-2020 4017.01 3134.75 62.99 2.00 337.67 3025.96
   03:15:47.894.03-Feb-2020 4017.01 3135.01 62.99 2.00 337.87 3025.96
   03:15:48.094.03-Feb-2020 4017.01 3134.86 62.99 2.00 338.07 3025.96
   03:15:48.294.03-Feb-2020 4017.01 3134.86 62.99 2.00 338.27 3025.96
   03:15:48.494.03-Feb-2020 4017.01 3134.90 62.98 2.00 338.47 3025.96
   03:15:48.694.03-Feb-2020 4017.01 3134.92 62.98 2.00 338.67 3025.96
   03:15:48.894.03-Feb-2020 4017.01 3134.93 62.98 2.00 338.87 3025.96
   03:15:49.095.03-Feb-2020 4017.01 3134.86 62.98 2.00 339.07 3025.96
   03:15:49.295.03-Feb-2020 4017.01 3134.86 62.98 2.00 339.27 3025.96
   03:15:49.495.03-Feb-2020 4017.01 3134.97 62.98 2.00 339.47 3025.96
   03:15:49.695.03-Feb-2020 4017.01 3134.90 62.98 2.00 339.67 3025.96
   03:15:49.895.03-Feb-2020 4017.01 3134.93 62.98 2.00 339.87 3025.96
   03:15:50.095.03-Feb-2020 4017.01 3134.90 62.98 2.00 340.07 3025.96
   03:15:50.295.03-Feb-2020 4017.01 3134.90 62.98 2.00 340.27 3025.96
   03:15:50.495.03-Feb-2020 4017.01 3134.97 62.98 2.00 340.47 3025.96
   03:15:50.695.03-Feb-2020 4017.01 3134.67 62.98 2.00 340.67 3025.96
   03:15:50.895.03-Feb-2020 4017.01 3134.87 62.98 2.00 340.87 3025.96
   03:15:51.095.03-Feb-2020 4017.01 3135.04 62.98 2.00 341.07 3025.96
   03:15:51.295.03-Feb-2020 4017.01 3135.04 62.98 2.00 341.27 3025.96
   03:15:51.495.03-Feb-2020 4017.01 3134.97 62.98 2.00 341.47 3025.96
   03:15:51.695.03-Feb-2020 4017.01 3134.93 62.98 2.00 341.67 3025.96
   03:15:51.895.03-Feb-2020 4017.01 3134.97 62.98 2.00 341.87 3025.96
   03:15:52.095.03-Feb-2020 4017.01 3134.90 62.98 2.00 342.07 3025.96
   03:15:52.295.03-Feb-2020 4017.01 3134.90 62.98 2.00 342.27 3025.96
   03:15:52.495.03-Feb-2020 4017.01 3134.99 62.98 2.00 342.47 3025.96
   03:15:52.695.03-Feb-2020 4017.01 3134.93 62.98 2.00 342.67 3025.96
   03:15:52.895.03-Feb-2020 4017.01 3134.96 62.98 2.00 342.87 3025.96
   03:15:53.095.03-Feb-2020 4017.01 3134.51 62.98 2.00 343.07 3025.96
   03:15:53.295.03-Feb-2020 4017.01 3134.51 62.98 2.00 343.27 3025.96
   03:15:53.495.03-Feb-2020 4017.01 3134.83 62.98 2.00 343.47 3025.96
   03:15:53.695.03-Feb-2020 4017.01 3135.18 62.98 2.00 343.67 3025.96
   03:15:53.896.03-Feb-2020 4017.01 3134.92 62.98 2.00 343.87 3025.96
   03:15:54.096.03-Feb-2020 4017.01 3135.04 62.98 2.00 344.07 3025.96
   03:15:54.296.03-Feb-2020 4017.01 3135.04 62.98 2.00 344.27 3025.96
   03:15:54.496.03-Feb-2020 4017.01 3135.24 62.98 2.00 344.47 3025.96
   03:15:54.696.03-Feb-2020 4017.01 3134.95 62.98 2.00 344.67 3025.96
   03:15:54.896.03-Feb-2020 4017.01 3135.10 62.98 2.00 344.87 3025.96
