~Version Information
 VERS.                  2.0:   CWLS log ASCII Standard -VERSION 2.0
 WRAP.                   NO:   One line per depth step
~Well Information Block
#MNEM.UNIT     VALUE/NAME     DESCRIPTION
#---------     -----------    ---------------------------
 STRT.S             03:46:27 03-Feb-20: START TIME 03:46:27 03-Feb-20
 STOP.S             03:54:17 03-Feb-20: STOP TIME  03:54:17 03-Feb-20
 STEP.S                   0.00: STEP TIME
 NULL.                 -999.25: NULL VALUE
 DFWT.                        :  DIST FWL TEXT
 DFST.                        :  DIST FSL TEXT
 DMF .             Drill Floor:  DRILL MEAS FROM
 STIM.      09.30.00 26-Dec-19:  START TIME
 DATE.      08.00.00 20-Jan-20:  END TIME
 SPUD.               23-Nov-19:  SPUD DATE
 NREF.                    Grid:  NORTH REFERENCE
 HPTY.       Minimum Curvature:  HOLE POS TYPE
 DMOD.             Drill Model:  DRILL MOD DESC
 SVYD.                  Survey:  SURVEY DESC
 ILTD.               Lithology:  INTERP LTH DESC
 FTOP.          Formation Tops:  FORM TOPS DESC
 SON .        AZ-XX-0906192647:  JOB NUMBER
 WTYP.                Deviated:  WELL TYPE
 COMP.     BP Exploration (Caspian Sea) Ltd:  COMPANY
 BASE.              Azerbaijan:  LOGGING EQUIPMENT BASE LOCATION
 REGN.                 Eurasia:  REGION
 FLD .                     ACG:  FIELD NAME
 SRVC.              KCA Deutag:  CONTRACTOR
 MWDS.                    Baku:  MWD SHOP
 WELL.     A10 (Slot 20) - SCP:  WELL NAME
 JOBN.        AZ-XX-0906192647:  JOB TICKET NUMB
 RIG .                 Chirag1:  RIG NAME
 DCON.     Halliburton Sperry Drilling:  DIRECTNL CONTR
 UNIT.                     N/A:  LOGGING EQUIPMENT ID
 PDAT.          Mean Sea Level:  PERMANENT DATUM
 MDS .        Operator Entered:  MAG DATA SOURCE
 CTRY.              Azerbaijan:  COUNTRY NAME
 UWI .            /AZE00000090:  UNIQUE WELL IDENTIFIER
 API .            /AZE00000090:  API NUMBER
 CNTY.                        :  COUNTY
 PROV.                        :  PROVINCE
 STAT.                        :  STATE
 LOC .                        :  LOCATION
 LMF .             Drill Floor:  LOG MEASURED FROM
 TVDS.m                  36.60:  TVDSS CORRECTN
 LATI.deg                40.08:  LATITUDE
 LONG.deg                51.24:  LONGITUDE
 WHNS.m                  -7.94:  WELL HEAD N/S
 WHEW.m                   1.56:  WELL HEAD E/W
 UTMX.m              520429.26:  UTM X
 UTMY.m             4438973.87:  UTM Y
 DFWL.m                   0.00:  DISTANCE FWL
 DFSL.m                   0.00:  DISTANCE FSL
 SDEP.m                1455.00:  START DEPTH
 TDD .m                4047.51:  TOTAL DEPTH (DRILLER)
 VSDR.deg               112.75:  VERT SEC DIRECT
 GVFD.g                   1.00:  GRAVITY FIELD
 MFLD.nT              50261.00:  MAGNETIC FIELD
 MDIP.deg                59.52:  MAGNETIC DIP
 MDEC.deg                 6.42:  MAGNETIC DECL
 GRDC.deg                 0.17:  GRID CORRECTION
 AZTC.deg                 6.25:  AZM TOTAL CORR
 EPD .m                   0.00:  ELEVATION
 EGL .m                   0.00:  GROUND ELEVATION
 WDMS.m                 121.00:  WD ELEV
 APD .m                  36.60:  DEPTH ABOVE PD
 AGAP.m                  36.60:  AIR GAP
 VSEW.m                   1.56:  VERT SEC E/W
 VSNS.m                  -7.94:  VERT SEC N/S
 DEP .m                1140.01:  DEPTH
 EKB .m                  36.60:  KB ELEVATION
 EDF .m                  36.60:  DF ELEVATION
 VSC .                       0:  VS TO CLOSURE
 MAGU.                 1849206:  MAGUTM CHECKSUM
~Parameter Information Block
#MNEM.UNIT       Value        Description
#---------     -----------    ---------------------------
 AV  .mps                 1.70:  Ann Velocity 
 AVMX.mps                 2.30:  Max Ann Veloc 
 AZIF.deg               137.03:  Azm, Final 
 BHAT.                   Other:  BHA Type 
 BROT.°/30m               0.80:  Build Rotating 
 BS  .in                  8.00:  Bit Size 
 BTPL.psig              161.00:  Bit Press Loss 
 CABU.                      No:  Customer Abuse 
 COMM.                     d£g:  Run Comments 1 
 TCS .hr                  9.59:  Time Ciculation Ended 
 CV  .mps                 3.76:  Crit Velocity 
 CVMX.mps                 4.26:  Max Crit Veloc 
 DD1 .         Intigam Rahimov:  Direct Drillr 1 
 DD2 .          Rashad Gojayev:  Direct Drillr 2 
 DDSV.                   Other:  DD Service 
 DEFF.%                 100.00:  % Det Eff 
 DLRX.°/30m               1.44:  Dogleg Rot Max 
 DLSO.°/30m               0.00:  Dogleg Oriented 
 DLSX.°/30m               0.00:  Dogleg Str Max 
 DRET.      03.31.12 02-Feb-20:  Drill End Time 
 DRST.      03.31.12 02-Feb-20:  Drill Start Tim 
 DTIM.hr                  1.99:  Time Drilling 
 EDEP.m                4047.51:  End Depth 
 ENG1.           Eldar Hajiyev:  Engineer 1 
 ENG2.          Rasim Hashimov:  Engineer 2 
 ENG3.          Rustam Safarov:  Engineer 3 
 ETIM.      03.31.12 02-Feb-20:  End Time 
 FLOI.gpm               300.00:  Flow In 
 FLON.gpm               250.00:  Flow In Min 
 FLOS.cptm                0.00:  Fluid Loss 
 FLOX.gpm               330.00:  Flow In Max 
 HFLO.                      No:  High Flow 
 HPRE.                      No:  High Pressure 
 HTEM.                      No:  High Temp 
 HYDO.m                   2.50:  Hydro Offset 
 IFIN.deg                39.54:  Inc, Final 
 IMAX.deg                41.14:  Inc Max 
 IMIN.deg                39.81:  Inc Min 
 IMND.m                4005.21:  Inc Min Depth 
 IMXD.m                3948.42:  Inc Max Depth 
 JARR.                      No:  Jarring 
 LETM.      03.31.12 02-Feb-20:  Log End Time 
 LOST.hr                     0:  Lost Rig Time 
 LSTM.      03.31.12 02-Feb-20:  Log Start Time 
 MDCL.ppm             35000.00:  Mud Chlorides 
 MDES.     Inversion Oil/Synthetic:  Mud Desc 
 DFD .sg                  1.32:  Mud Density 
 MDMN.sg                  1.32:  Dens Mud Min 
 MDMX.sg                  1.32:  Dens Mud Max 
 MOIL.                      59:  Run Mud Oil % 
 MOWR.                   71:29:  Run Mud OWR 
 MSND.                       0:  Run Mud Sand % 
 MSOL.                      17:  Run Mud Solids% 
 DFV .spqt               86.00:  Mud Viscosity 
 MWOD.in                  4.75:  MWD Tool OD 
 MWSI.                      No:  Serv Intrp, MWD 
 OTIM.hr                 46.72:  Time Operating 
 PCON.           Look Like New:  Pad Condition 
 PMAX.psia             3300.00:  Press Op, Max 
 PV  .cP                 30.00:  Mud PV 
 RUN .                     400:  Run Number 
 ROPA.m/hr               35.00:  ROP Avg 
 ROPN.m/hr               25.00:  ROP Min 
 ROPX.m/hr               40.00:  ROP Max 
 RPMA.rpm                80.00:  RPM Surface Avg 
 RPMN.rpm                60.00:  RPM Surface Min 
 RPMX.rpm               100.00:  RPM Surface Max 
 RRUN.                     400:  Rig Run Number 
 RTIM.hr                  1.99:  Time Reaming 
 SAZI.deg               133.93:  Azm, Start 
 SDEP.m                4047.51:  Start Depth 
 SIDD.                      No:  Serv Intrp, DD 
 SINC.deg                40.28:  Inc, Start 
 SPPA.psig             3250.00:  SPP Avg 
 SPPN.psig             3200.00:  SPP Min 
 SPPX.psig             3300.00:  SPP Max 
 STIM.      03.31.12 02-Feb-20:  Start Time 
 SVCS.                 DD, MWD:  Services 
 SVER.                    9.20:  Sperry Version 
 TDAT.m                  47.00:  Tot Depth Attmp 
 TDDF.                      No:  Trip for DD 
 TFF .                      No:  Trip for Fail 
 TQAA.f-kp                0.00:  Torque Abs Avg 
 TQAN.f-kp                0.00:  Torque Abs Min 
 TQAX.f-kp                0.00:  Torque Abs Max 
 TRRT.°/30m               0.70:  Turn Rotating 
 MRT .                    HCIM:  Maximum Recorded Temperature 
 TTMX.degC               70.59:  Max Tool Temp 
 VS01.             90598770F11:  Virtual Str1 SN 
 VS02.             90598769F11:  Virtual Str2 SN 
 VS03.            90515978Z1W1:  Virtual Str3 SN 
 VS04.          90584144R12X14:  Virtual Str4 SN 
 WBMN.klb                 0.00:  WOB Min 
 WITN.            Peter Wilson:  Customer Rep 
 WOBA.klb                 0.00:  WOB Avg 
 WOBX.klb                 0.00:  WOB Max 
 YP  .lhf2               29.00:  Yield Point 
~Curve Information Block
#MNEM.UNIT                 API CODE     Curve Description
#---------               -----------    ---------------------------
 TIME.HHMMSS            00 000 000 000:  GT Time & Date
 GTDEPTH.m              00 000 000 000:  GT Depth
 GTPQH.psia             00 000 000 000:  GT HR Quartz Pressure
 GTTQ.degC              00 000 000 000:  GT Quartz Temperature
 GTTN.NONE              00 000 000 000:  GT Test Number
 GTET.sec               00 000 000 000:  GT Elapsed Test Time
 GTTVD.m                00 000 000 000:  GT True Vertical Depth
#Other Information
#
#WARRANTY: Halliburton will use its best efforts to furnish customers with 
#accurate information and interpretations that are part of, and incident to, the services 
#provided.  However, Halliburton cannot and does not warrant the accuracy 
#or correctness of such information and interpretations.  Under no circumstances should any 
#such information or interpretation be relied upon as the sole basis for any drilling, 
#completion, production, or financial decision or any procedure involving any risk to the 
#safety of any drilling venture, drilling rig or its crew or any other third party.  The 
#Customer has full responsibility for all drilling, completion and production operation.  
#Halliburton makes no representations or warranties, either expressed or 
#implied, including, but not limited to, the implied warranties of merchantability or fitness 
#for a particular purpose, with respect to the services rendered.  In no event will 
#Halliburton be liable for failure to obtain any particular results or for 
#any damages, including, but not limited to, indirect, special or consequential damages, 
#resulting from the use of any information or interpretation provided by Halliburton.
#
~A           TIME           GTDEPTH  GTPQH  GTTQ  GTTN  GTET   GTTVD  
# ...
   03:53:21.566.03-Feb-2020 4013.21 3136.58 64.15 3.00 414.09 3023.05
   03:53:21.766.03-Feb-2020 4013.21 3136.58 64.15 3.00 414.29 3023.05
   03:53:21.966.03-Feb-2020 4013.21 3136.68 64.15 3.00 414.49 3023.05
   03:53:22.166.03-Feb-2020 4013.21 3136.35 64.15 3.00 414.69 3023.05
   03:53:22.366.03-Feb-2020 4013.21 3136.59 64.15 3.00 414.89 3023.05
   03:53:22.566.03-Feb-2020 4013.21 3136.61 64.15 3.00 415.09 3023.05
   03:53:22.767.03-Feb-2020 4013.21 3136.61 64.15 3.00 415.29 3023.05
   03:53:22.967.03-Feb-2020 4013.21 3136.65 64.15 3.00 415.49 3023.05
   03:53:23.167.03-Feb-2020 4013.21 3136.66 64.15 3.00 415.69 3023.05
   03:53:23.367.03-Feb-2020 4013.21 3136.61 64.15 3.00 415.89 3023.05
   03:53:23.567.03-Feb-2020 4013.21 3136.61 64.15 3.00 416.09 3023.05
   03:53:23.767.03-Feb-2020 4013.21 3136.61 64.15 3.00 416.29 3023.05
   03:53:23.967.03-Feb-2020 4013.21 3136.62 64.15 3.00 416.49 3023.05
   03:53:24.167.03-Feb-2020 4013.21 3136.63 64.15 3.00 416.69 3023.05
   03:53:24.367.03-Feb-2020 4013.21 3136.64 64.15 3.00 416.89 3023.05
   03:53:24.567.03-Feb-2020 4013.21 3136.34 64.15 3.00 417.09 3023.05
   03:53:24.767.03-Feb-2020 4013.21 3136.34 64.15 3.00 417.29 3023.05
   03:53:24.967.03-Feb-2020 4013.21 3136.55 64.15 3.00 417.49 3023.05
   03:53:25.167.03-Feb-2020 4013.21 3136.78 64.15 3.00 417.69 3023.05
   03:53:25.367.03-Feb-2020 4013.21 3136.38 64.15 3.00 417.89 3023.05
   03:53:25.567.03-Feb-2020 4013.21 3136.77 64.15 3.00 418.09 3023.05
   03:53:25.767.03-Feb-2020 4013.21 3136.77 64.15 3.00 418.29 3023.05
   03:53:25.967.03-Feb-2020 4013.21 3136.77 64.15 3.00 418.49 3023.05
   03:53:26.167.03-Feb-2020 4013.21 3136.70 64.15 3.00 418.69 3023.05
   03:53:26.367.03-Feb-2020 4013.21 3136.70 64.15 3.00 418.89 3023.05
   03:53:26.567.03-Feb-2020 4013.21 3136.39 64.15 3.00 419.09 3023.05
   03:53:26.767.03-Feb-2020 4013.21 3136.39 64.15 3.00 419.29 3023.05
   03:53:26.967.03-Feb-2020 4013.21 3136.54 64.15 3.00 419.49 3023.05
   03:53:27.167.03-Feb-2020 4013.21 3136.75 64.15 3.00 419.69 3023.05
   03:53:27.368.03-Feb-2020 4013.21 3136.65 64.15 3.00 419.89 3023.05
   03:53:27.568.03-Feb-2020 4013.21 3136.42 64.15 3.00 420.09 3023.05
   03:53:27.768.03-Feb-2020 4013.21 3136.42 64.15 3.00 420.29 3023.05
   03:53:27.968.03-Feb-2020 4013.21 3136.61 64.15 3.00 420.49 3023.05
   03:53:28.168.03-Feb-2020 4013.21 3136.68 64.14 3.00 420.69 3023.05
   03:53:28.368.03-Feb-2020 4013.21 3136.72 64.15 3.00 420.89 3023.05
   03:53:28.568.03-Feb-2020 4013.21 3136.71 64.14 3.00 421.09 3023.05
   03:53:28.768.03-Feb-2020 4013.21 3136.71 64.14 3.00 421.29 3023.05
   03:53:28.968.03-Feb-2020 4013.21 3136.66 64.14 3.00 421.49 3023.05
   03:53:29.168.03-Feb-2020 4013.21 3136.64 64.14 3.00 421.69 3023.05
   03:53:29.368.03-Feb-2020 4013.21 3136.60 64.14 3.00 421.89 3023.05
   03:53:29.568.03-Feb-2020 4013.21 3136.69 64.14 3.00 422.09 3023.05
   03:53:29.768.03-Feb-2020 4013.21 3136.69 64.14 3.00 422.29 3023.05
   03:53:29.968.03-Feb-2020 4013.21 3136.63 64.14 3.00 422.49 3023.05
   03:53:30.168.03-Feb-2020 4013.21 3136.63 64.14 3.00 422.69 3023.05
   03:53:30.368.03-Feb-2020 4013.21 3136.62 64.14 3.00 422.89 3023.05
   03:53:30.568.03-Feb-2020 4013.21 3136.72 64.14 3.00 423.09 3023.05
   03:53:30.768.03-Feb-2020 4013.21 3136.72 64.14 3.00 423.29 3023.05
   03:53:30.968.03-Feb-2020 4013.21 3136.53 64.14 3.00 423.49 3023.05
   03:53:31.168.03-Feb-2020 4013.21 3136.55 64.14 3.00 423.69 3023.05
   03:53:31.368.03-Feb-2020 4013.21 3136.69 64.14 3.00 423.89 3023.05
   03:53:31.568.03-Feb-2020 4013.21 3136.64 64.14 3.00 424.09 3023.05
   03:53:31.768.03-Feb-2020 4013.21 3136.64 64.14 3.00 424.29 3023.05
   03:53:31.968.03-Feb-2020 4013.21 3136.67 64.14 3.00 424.49 3023.05
   03:53:32.169.03-Feb-2020 4013.21 3136.64 64.14 3.00 424.69 3023.05
   03:53:32.369.03-Feb-2020 4013.21 3136.67 64.14 3.00 424.89 3023.05
   03:53:32.569.03-Feb-2020 4013.21 3136.66 64.14 3.00 425.09 3023.05
   03:53:32.769.03-Feb-2020 4013.21 3136.66 64.14 3.00 425.29 3023.05
   03:53:32.969.03-Feb-2020 4013.21 3136.68 64.14 3.00 425.49 3023.05
   03:53:33.169.03-Feb-2020 4013.21 3136.67 64.14 3.00 425.69 3023.05
   03:53:33.369.03-Feb-2020 4013.21 3136.31 64.14 3.00 425.89 3023.05
   03:53:33.569.03-Feb-2020 4013.21 3136.71 64.14 3.00 426.09 3023.05
   03:53:33.769.03-Feb-2020 4013.21 3136.71 64.14 3.00 426.29 3023.05
   03:53:33.969.03-Feb-2020 4013.21 3136.82 64.14 3.00 426.49 3023.05
   03:53:34.169.03-Feb-2020 4013.21 3136.38 64.14 3.00 426.69 3023.05
   03:53:34.369.03-Feb-2020 4013.21 3136.76 64.14 3.00 426.89 3023.05
   03:53:34.569.03-Feb-2020 4013.21 3136.61 64.14 3.00 427.09 3023.05
   03:53:34.769.03-Feb-2020 4013.21 3136.61 64.14 3.00 427.29 3023.05
   03:53:34.969.03-Feb-2020 4013.21 3136.73 64.14 3.00 427.49 3023.05
   03:53:35.169.03-Feb-2020 4013.21 3136.73 64.14 3.00 427.69 3023.05
   03:53:35.369.03-Feb-2020 4013.21 3136.38 64.14 3.00 427.89 3023.05
   03:53:35.569.03-Feb-2020 4013.21 3136.75 64.14 3.00 428.09 3023.05
   03:53:35.769.03-Feb-2020 4013.21 3136.75 64.14 3.00 428.29 3023.05
   03:53:35.969.03-Feb-2020 4013.21 3136.77 64.14 3.00 428.49 3023.05
   03:53:36.169.03-Feb-2020 4013.21 3136.70 64.14 3.00 428.69 3023.05
   03:53:36.369.03-Feb-2020 4013.21 3136.51 64.14 3.00 428.89 3023.05
   03:53:36.569.03-Feb-2020 4013.21 3136.72 64.14 3.00 429.09 3023.05
   03:53:36.769.03-Feb-2020 4013.21 3136.72 64.14 3.00 429.29 3023.05
   03:53:36.970.03-Feb-2020 4013.21 3136.71 64.14 3.00 429.49 3023.05
   03:53:37.170.03-Feb-2020 4013.21 3136.79 64.14 3.00 429.69 3023.05
   03:53:37.370.03-Feb-2020 4013.21 3136.72 64.14 3.00 429.89 3023.05
   03:53:37.570.03-Feb-2020 4013.21 3136.70 64.14 3.00 430.09 3023.05
   03:53:37.770.03-Feb-2020 4013.21 3136.70 64.14 3.00 430.29 3023.05
   03:53:37.970.03-Feb-2020 4013.21 3136.67 64.14 3.00 430.49 3023.05
   03:53:38.170.03-Feb-2020 4013.21 3136.65 64.14 3.00 430.69 3023.05
   03:53:38.370.03-Feb-2020 4013.21 3136.72 64.14 3.00 430.89 3023.05
   03:53:38.570.03-Feb-2020 4013.21 3136.67 64.14 3.00 431.09 3023.05
   03:53:38.770.03-Feb-2020 4013.21 3136.67 64.14 3.00 431.29 3023.05
   03:53:38.970.03-Feb-2020 4013.21 3136.64 64.14 3.00 431.49 3023.05
   03:53:39.170.03-Feb-2020 4013.21 3136.68 64.14 3.00 431.69 3023.05
   03:53:39.370.03-Feb-2020 4013.21 3136.74 64.14 3.00 431.89 3023.05
   03:53:39.570.03-Feb-2020 4013.21 3136.41 64.14 3.00 432.09 3023.05
   03:53:39.770.03-Feb-2020 4013.21 3136.41 64.14 3.00 432.29 3023.05
   03:53:39.970.03-Feb-2020 4013.21 3136.56 64.14 3.00 432.49 3023.05
   03:53:40.170.03-Feb-2020 4013.21 3136.71 64.14 3.00 432.69 3023.05
   03:53:40.370.03-Feb-2020 4013.21 3136.67 64.14 3.00 432.89 3023.05
   03:53:40.570.03-Feb-2020 4013.21 3136.72 64.14 3.00 433.09 3023.05
   03:53:40.770.03-Feb-2020 4013.21 3136.72 64.14 3.00 433.29 3023.05
   03:53:40.970.03-Feb-2020 4013.21 3136.64 64.14 3.00 433.49 3023.05
   03:53:41.170.03-Feb-2020 4013.21 3136.67 64.14 3.00 433.69 3023.05
   03:53:41.370.03-Feb-2020 4013.21 3136.66 64.14 3.00 433.89 3023.05
   03:53:41.570.03-Feb-2020 4013.21 3136.69 64.14 3.00 434.09 3023.05
   03:53:41.771.03-Feb-2020 4013.21 3136.69 64.14 3.00 434.29 3023.05
   03:53:41.971.03-Feb-2020 4013.21 3136.67 64.14 3.00 434.49 3023.05
   03:53:42.171.03-Feb-2020 4013.21 3136.39 64.14 3.00 434.69 3023.05
   03:53:42.371.03-Feb-2020 4013.21 3136.65 64.14 3.00 434.89 3023.05
   03:53:42.571.03-Feb-2020 4013.21 3136.74 64.14 3.00 435.09 3023.05
   03:53:42.771.03-Feb-2020 4013.21 3136.74 64.14 3.00 435.29 3023.05
   03:53:42.971.03-Feb-2020 4013.21 3136.46 64.14 3.00 435.49 3023.05
   03:53:43.171.03-Feb-2020 4013.21 3136.67 64.14 3.00 435.69 3023.05
   03:53:43.371.03-Feb-2020 4013.21 3136.74 64.14 3.00 435.89 3023.05
   03:53:43.571.03-Feb-2020 4013.21 3136.77 64.14 3.00 436.09 3023.05
   03:53:43.771.03-Feb-2020 4013.21 3136.77 64.14 3.00 436.29 3023.05
   03:53:43.971.03-Feb-2020 4013.21 3136.76 64.13 3.00 436.49 3023.05
   03:53:44.171.03-Feb-2020 4013.21 3136.45 64.13 3.00 436.69 3023.05
   03:53:44.371.03-Feb-2020 4013.21 3150.36 64.13 3.00 436.89 3023.05
