~Version Information
 VERS.                  2.0:   CWLS log ASCII Standard -VERSION 2.0
 WRAP.                   NO:   One line per depth step
~Well Information Block
#MNEM.UNIT     VALUE/NAME     DESCRIPTION
#---------     -----------    ---------------------------
 STRT.S             05:26:39 03-Feb-20: START TIME 05:26:39 03-Feb-20
 STOP.S             05:34:31 03-Feb-20: STOP TIME  05:34:31 03-Feb-20
 STEP.S                   0.00: STEP TIME
 NULL.                 -999.25: NULL VALUE
 DFWT.                        :  DIST FWL TEXT
 DFST.                        :  DIST FSL TEXT
 DMF .             Drill Floor:  DRILL MEAS FROM
 STIM.      09.30.00 26-Dec-19:  START TIME
 DATE.      08.00.00 20-Jan-20:  END TIME
 SPUD.               23-Nov-19:  SPUD DATE
 NREF.                    Grid:  NORTH REFERENCE
 HPTY.       Minimum Curvature:  HOLE POS TYPE
 DMOD.             Drill Model:  DRILL MOD DESC
 SVYD.                  Survey:  SURVEY DESC
 ILTD.               Lithology:  INTERP LTH DESC
 FTOP.          Formation Tops:  FORM TOPS DESC
 SON .        AZ-XX-0906192647:  JOB NUMBER
 WTYP.                Deviated:  WELL TYPE
 COMP.     BP Exploration (Caspian Sea) Ltd:  COMPANY
 BASE.              Azerbaijan:  LOGGING EQUIPMENT BASE LOCATION
 REGN.                 Eurasia:  REGION
 FLD .                     ACG:  FIELD NAME
 SRVC.              KCA Deutag:  CONTRACTOR
 MWDS.                    Baku:  MWD SHOP
 WELL.     A10 (Slot 20) - SCP:  WELL NAME
 JOBN.        AZ-XX-0906192647:  JOB TICKET NUMB
 RIG .                 Chirag1:  RIG NAME
 DCON.     Halliburton Sperry Drilling:  DIRECTNL CONTR
 UNIT.                     N/A:  LOGGING EQUIPMENT ID
 PDAT.          Mean Sea Level:  PERMANENT DATUM
 MDS .        Operator Entered:  MAG DATA SOURCE
 CTRY.              Azerbaijan:  COUNTRY NAME
 UWI .            /AZE00000090:  UNIQUE WELL IDENTIFIER
 API .            /AZE00000090:  API NUMBER
 CNTY.                        :  COUNTY
 PROV.                        :  PROVINCE
 STAT.                        :  STATE
 LOC .                        :  LOCATION
 LMF .             Drill Floor:  LOG MEASURED FROM
 TVDS.m                  36.60:  TVDSS CORRECTN
 LATI.deg                40.08:  LATITUDE
 LONG.deg                51.24:  LONGITUDE
 WHNS.m                  -7.94:  WELL HEAD N/S
 WHEW.m                   1.56:  WELL HEAD E/W
 UTMX.m              520429.26:  UTM X
 UTMY.m             4438973.87:  UTM Y
 DFWL.m                   0.00:  DISTANCE FWL
 DFSL.m                   0.00:  DISTANCE FSL
 SDEP.m                1455.00:  START DEPTH
 TDD .m                4047.51:  TOTAL DEPTH (DRILLER)
 VSDR.deg               112.75:  VERT SEC DIRECT
 GVFD.g                   1.00:  GRAVITY FIELD
 MFLD.nT              50261.00:  MAGNETIC FIELD
 MDIP.deg                59.52:  MAGNETIC DIP
 MDEC.deg                 6.42:  MAGNETIC DECL
 GRDC.deg                 0.17:  GRID CORRECTION
 AZTC.deg                 6.25:  AZM TOTAL CORR
 EPD .m                   0.00:  ELEVATION
 EGL .m                   0.00:  GROUND ELEVATION
 WDMS.m                 121.00:  WD ELEV
 APD .m                  36.60:  DEPTH ABOVE PD
 AGAP.m                  36.60:  AIR GAP
 VSEW.m                   1.56:  VERT SEC E/W
 VSNS.m                  -7.94:  VERT SEC N/S
 DEP .m                1140.01:  DEPTH
 EKB .m                  36.60:  KB ELEVATION
 EDF .m                  36.60:  DF ELEVATION
 VSC .                       0:  VS TO CLOSURE
 MAGU.                 1849206:  MAGUTM CHECKSUM
~Parameter Information Block
#MNEM.UNIT       Value        Description
#---------     -----------    ---------------------------
 AV  .mps                 1.70:  Ann Velocity 
 AVMX.mps                 2.30:  Max Ann Veloc 
 AZIF.deg               137.03:  Azm, Final 
 BHAT.                   Other:  BHA Type 
 BROT.°/30m               0.80:  Build Rotating 
 BS  .in                  8.00:  Bit Size 
 BTPL.psig              161.00:  Bit Press Loss 
 CABU.                      No:  Customer Abuse 
 COMM.                     ¬]P:  Run Comments 1 
 TCS .hr                  9.59:  Time Ciculation Ended 
 CV  .mps                 3.76:  Crit Velocity 
 CVMX.mps                 4.26:  Max Crit Veloc 
 DD1 .         Intigam Rahimov:  Direct Drillr 1 
 DD2 .          Rashad Gojayev:  Direct Drillr 2 
 DDSV.                   Other:  DD Service 
 DEFF.%                 100.00:  % Det Eff 
 DLRX.°/30m               1.44:  Dogleg Rot Max 
 DLSO.°/30m               0.00:  Dogleg Oriented 
 DLSX.°/30m               0.00:  Dogleg Str Max 
 DRET.      03.31.12 02-Feb-20:  Drill End Time 
 DRST.      03.31.12 02-Feb-20:  Drill Start Tim 
 DTIM.hr                  1.99:  Time Drilling 
 EDEP.m                4047.51:  End Depth 
 ENG1.           Eldar Hajiyev:  Engineer 1 
 ENG2.          Rasim Hashimov:  Engineer 2 
 ENG3.          Rustam Safarov:  Engineer 3 
 ETIM.      03.31.12 02-Feb-20:  End Time 
 FLOI.gpm               300.00:  Flow In 
 FLON.gpm               250.00:  Flow In Min 
 FLOS.cptm                0.00:  Fluid Loss 
 FLOX.gpm               330.00:  Flow In Max 
 HFLO.                      No:  High Flow 
 HPRE.                      No:  High Pressure 
 HTEM.                      No:  High Temp 
 HYDO.m                   2.50:  Hydro Offset 
 IFIN.deg                39.54:  Inc, Final 
 IMAX.deg                41.14:  Inc Max 
 IMIN.deg                39.81:  Inc Min 
 IMND.m                4005.21:  Inc Min Depth 
 IMXD.m                3948.42:  Inc Max Depth 
 JARR.                      No:  Jarring 
 LETM.      03.31.12 02-Feb-20:  Log End Time 
 LOST.hr                     0:  Lost Rig Time 
 LSTM.      03.31.12 02-Feb-20:  Log Start Time 
 MDCL.ppm             35000.00:  Mud Chlorides 
 MDES.     Inversion Oil/Synthetic:  Mud Desc 
 DFD .sg                  1.32:  Mud Density 
 MDMN.sg                  1.32:  Dens Mud Min 
 MDMX.sg                  1.32:  Dens Mud Max 
 MOIL.                      59:  Run Mud Oil % 
 MOWR.                   71:29:  Run Mud OWR 
 MSND.                       0:  Run Mud Sand % 
 MSOL.                      17:  Run Mud Solids% 
 DFV .spqt               86.00:  Mud Viscosity 
 MWOD.in                  4.75:  MWD Tool OD 
 MWSI.                      No:  Serv Intrp, MWD 
 OTIM.hr                 46.72:  Time Operating 
 PCON.           Look Like New:  Pad Condition 
 PMAX.psia             3300.00:  Press Op, Max 
 PV  .cP                 30.00:  Mud PV 
 RUN .                     400:  Run Number 
 ROPA.m/hr               35.00:  ROP Avg 
 ROPN.m/hr               25.00:  ROP Min 
 ROPX.m/hr               40.00:  ROP Max 
 RPMA.rpm                80.00:  RPM Surface Avg 
 RPMN.rpm                60.00:  RPM Surface Min 
 RPMX.rpm               100.00:  RPM Surface Max 
 RRUN.                     400:  Rig Run Number 
 RTIM.hr                  1.99:  Time Reaming 
 SAZI.deg               133.93:  Azm, Start 
 SDEP.m                4047.51:  Start Depth 
 SIDD.                      No:  Serv Intrp, DD 
 SINC.deg                40.28:  Inc, Start 
 SPPA.psig             3250.00:  SPP Avg 
 SPPN.psig             3200.00:  SPP Min 
 SPPX.psig             3300.00:  SPP Max 
 STIM.      03.31.12 02-Feb-20:  Start Time 
 SVCS.                 DD, MWD:  Services 
 SVER.                    9.20:  Sperry Version 
 TDAT.m                  47.00:  Tot Depth Attmp 
 TDDF.                      No:  Trip for DD 
 TFF .                      No:  Trip for Fail 
 TQAA.f-kp                0.00:  Torque Abs Avg 
 TQAN.f-kp                0.00:  Torque Abs Min 
 TQAX.f-kp                0.00:  Torque Abs Max 
 TRRT.°/30m               0.70:  Turn Rotating 
 MRT .                    HCIM:  Maximum Recorded Temperature 
 TTMX.degC               70.59:  Max Tool Temp 
 VS01.             90598770F11:  Virtual Str1 SN 
 VS02.             90598769F11:  Virtual Str2 SN 
 VS03.            90515978Z1W1:  Virtual Str3 SN 
 VS04.          90584144R12X14:  Virtual Str4 SN 
 WBMN.klb                 0.00:  WOB Min 
 WITN.            Peter Wilson:  Customer Rep 
 WOBA.klb                 0.00:  WOB Avg 
 WOBX.klb                 0.00:  WOB Max 
 YP  .lhf2               29.00:  Yield Point 
~Curve Information Block
#MNEM.UNIT                 API CODE     Curve Description
#---------               -----------    ---------------------------
 TIME.HHMMSS            00 000 000 000:  GT Time & Date
 GTDEPTH.m              00 000 000 000:  GT Depth
 GTPQH.psia             00 000 000 000:  GT HR Quartz Pressure
 GTTQ.degC              00 000 000 000:  GT Quartz Temperature
 GTTN.NONE              00 000 000 000:  GT Test Number
 GTET.sec               00 000 000 000:  GT Elapsed Test Time
 GTTVD.m                00 000 000 000:  GT True Vertical Depth
#Other Information
#
#WARRANTY: Halliburton will use its best efforts to furnish customers with 
#accurate information and interpretations that are part of, and incident to, the services 
#provided.  However, Halliburton cannot and does not warrant the accuracy 
#or correctness of such information and interpretations.  Under no circumstances should any 
#such information or interpretation be relied upon as the sole basis for any drilling, 
#completion, production, or financial decision or any procedure involving any risk to the 
#safety of any drilling venture, drilling rig or its crew or any other third party.  The 
#Customer has full responsibility for all drilling, completion and production operation.  
#Halliburton makes no representations or warranties, either expressed or 
#implied, including, but not limited to, the implied warranties of merchantability or fitness 
#for a particular purpose, with respect to the services rendered.  In no event will 
#Halliburton be liable for failure to obtain any particular results or for 
#any damages, including, but not limited to, indirect, special or consequential damages, 
#resulting from the use of any information or interpretation provided by Halliburton.
#
~A           TIME           GTDEPTH  GTPQH  GTTQ  GTTN  GTET   GTTVD  
# ...
   05:33:56.000.03-Feb-2020 4009.51 3102.21 64.49 5.00 437.00 3020.21
   05:33:56.200.03-Feb-2020 4009.51 3102.21 64.49 5.00 437.20 3020.21
   05:33:56.400.03-Feb-2020 4009.51 3102.32 64.49 5.00 437.40 3020.21
   05:33:56.600.03-Feb-2020 4009.51 3102.25 64.49 5.00 437.60 3020.21
   05:33:56.800.03-Feb-2020 4009.51 3102.56 64.49 5.00 437.80 3020.21
   05:33:57.000.03-Feb-2020 4009.51 3102.65 64.49 5.00 438.00 3020.21
   05:33:57.200.03-Feb-2020 4009.51 3102.65 64.49 5.00 438.20 3020.21
   05:33:57.400.03-Feb-2020 4009.51 3102.90 64.49 5.00 438.40 3020.21
   05:33:57.600.03-Feb-2020 4009.51 3103.02 64.49 5.00 438.60 3020.21
   05:33:57.800.03-Feb-2020 4009.51 3103.20 64.49 5.00 438.80 3020.21
   05:33:58.000.03-Feb-2020 4009.51 3103.31 64.49 5.00 439.00 3020.21
   05:33:58.200.03-Feb-2020 4009.51 3103.31 64.49 5.00 439.20 3020.21
   05:33:58.400.03-Feb-2020 4009.51 3103.72 64.49 5.00 439.40 3020.21
   05:33:58.600.03-Feb-2020 4009.51 3103.72 64.49 5.00 439.60 3020.21
   05:33:58.800.03-Feb-2020 4009.51 3103.90 64.49 5.00 439.80 3020.21
   05:33:59.000.03-Feb-2020 4009.51 3103.89 64.49 5.00 440.00 3020.21
   05:33:59.200.03-Feb-2020 4009.51 3103.89 64.49 5.00 440.20 3020.21
   05:33:59.400.03-Feb-2020 4009.51 3104.41 64.49 5.00 440.40 3020.21
   05:33:59.600.03-Feb-2020 4009.51 3104.22 64.49 5.00 440.60 3020.21
   05:33:59.800.03-Feb-2020 4009.51 3104.51 64.49 5.00 440.80 3020.21
   05:34:00.000.03-Feb-2020 4009.51 3104.75 64.49 5.00 441.00 3020.21
   05:34:00.200.03-Feb-2020 4009.51 3104.75 64.49 5.00 441.20 3020.21
   05:34:00.400.03-Feb-2020 4009.51 3105.04 64.49 5.00 441.40 3020.21
   05:34:00.600.03-Feb-2020 4009.51 3105.02 64.49 5.00 441.60 3020.21
   05:34:00.800.03-Feb-2020 4009.51 3105.21 64.49 5.00 441.80 3020.21
   05:34:01.000.03-Feb-2020 4009.51 3105.20 64.49 5.00 442.00 3020.21
   05:34:01.200.03-Feb-2020 4009.51 3105.20 64.49 5.00 442.20 3020.21
   05:34:01.400.03-Feb-2020 4009.51 3105.64 64.49 5.00 442.40 3020.21
   05:34:01.600.03-Feb-2020 4009.51 3105.93 64.49 5.00 442.60 3020.21
   05:34:01.800.03-Feb-2020 4009.51 3105.88 64.49 5.00 442.80 3020.21
   05:34:02.000.03-Feb-2020 4009.51 3106.03 64.49 5.00 443.00 3020.21
   05:34:02.200.03-Feb-2020 4009.51 3106.03 64.49 5.00 443.20 3020.21
   05:34:02.400.03-Feb-2020 4009.51 3118.36 64.49 5.00 443.40 3020.21
   05:34:02.600.03-Feb-2020 4009.51 3284.98 64.48 5.00 443.60 3020.21
   05:34:02.800.03-Feb-2020 4009.51 3374.98 64.48 5.00 443.80 3020.21
   05:34:03.000.03-Feb-2020 4009.51 4946.49 64.48 5.00 444.00 3020.21
   05:34:03.200.03-Feb-2020 4009.51 4946.49 64.48 5.00 444.20 3020.21
   05:34:03.400.03-Feb-2020 4009.51 6056.93 64.48 5.00 444.40 3020.21
   05:34:03.600.03-Feb-2020 4009.51 6058.04 64.48 5.00 444.60 3020.21
   05:34:03.800.03-Feb-2020 4009.51 6059.12 64.48 5.00 444.80 3020.21
   05:34:04.000.03-Feb-2020 4009.51 6058.93 64.48 5.00 445.00 3020.21
   05:34:04.200.03-Feb-2020 4009.51 6058.93 64.48 5.00 445.20 3020.21
   05:34:04.400.03-Feb-2020 4009.51 6060.83 64.49 5.00 445.40 3020.21
   05:34:04.600.03-Feb-2020 4009.51 6061.34 64.49 5.00 445.60 3020.21
   05:34:04.800.03-Feb-2020 4009.51 6063.12 64.49 5.00 445.80 3020.21
   05:34:05.000.03-Feb-2020 4009.51 6064.65 64.49 5.00 446.00 3020.21
   05:34:05.200.03-Feb-2020 4009.51 6064.65 64.49 5.00 446.20 3020.21
   05:34:05.400.03-Feb-2020 4009.51 6063.08 64.49 5.00 446.40 3020.21
   05:34:05.600.03-Feb-2020 4009.51 6060.64 64.49 5.00 446.60 3020.21
   05:34:05.800.03-Feb-2020 4009.51 6064.37 64.49 5.00 446.80 3020.21
   05:34:06.000.03-Feb-2020 4009.51 6063.06 64.49 5.00 447.00 3020.21
   05:34:06.200.03-Feb-2020 4009.51 6063.06 64.49 5.00 447.20 3020.21
   05:34:06.400.03-Feb-2020 4009.51 6063.81 64.49 5.00 447.40 3020.21
   05:34:06.600.03-Feb-2020 4009.51 6064.55 64.49 5.00 447.60 3020.21
   05:34:06.800.03-Feb-2020 4009.51 6065.07 64.49 5.00 447.80 3020.21
   05:34:07.000.03-Feb-2020 4009.51 6065.22 64.49 5.00 448.00 3020.21
   05:34:07.200.03-Feb-2020 4009.51 6065.22 64.49 5.00 448.20 3020.21
   05:34:07.400.03-Feb-2020 4009.51 6065.32 64.49 5.00 448.40 3020.21
   05:34:07.600.03-Feb-2020 4009.51 6058.76 64.50 5.00 448.60 3020.21
   05:34:07.800.03-Feb-2020 4009.51 6063.56 64.50 5.00 448.80 3020.21
   05:34:08.000.03-Feb-2020 4009.51 6060.39 64.50 5.00 449.00 3020.21
   05:34:08.200.03-Feb-2020 4009.51 6060.39 64.50 5.00 449.20 3020.21
   05:34:08.400.03-Feb-2020 4009.51 6065.21 64.50 5.00 449.40 3020.21
   05:34:08.600.03-Feb-2020 4009.51 6054.97 64.50 5.00 449.60 3020.21
   05:34:08.800.03-Feb-2020 4009.51 6066.00 64.50 5.00 449.80 3020.21
   05:34:09.000.03-Feb-2020 4009.51 6061.20 64.50 5.00 450.00 3020.21
   05:34:09.200.03-Feb-2020 4009.51 6061.20 64.50 5.00 450.20 3020.21
   05:34:09.400.03-Feb-2020 4009.51 6064.89 64.50 5.00 450.40 3020.21
   05:34:09.600.03-Feb-2020 4009.51 6065.53 64.50 5.00 450.60 3020.21
   05:34:09.800.03-Feb-2020 4009.51 6055.49 64.50 5.00 450.80 3020.21
   05:34:10.000.03-Feb-2020 4009.51 6064.61 64.50 5.00 451.00 3020.21
   05:34:10.200.03-Feb-2020 4009.51 6064.61 64.50 5.00 451.20 3020.21
   05:34:10.400.03-Feb-2020 4009.51 6064.54 64.51 5.00 451.40 3020.21
   05:34:10.600.03-Feb-2020 4009.51 6055.78 64.51 5.00 451.60 3020.21
   05:34:10.800.03-Feb-2020 4009.51 6066.43 64.51 5.00 451.80 3020.21
   05:34:11.000.03-Feb-2020 4009.51 6063.39 64.51 5.00 452.00 3020.21
   05:34:11.200.03-Feb-2020 4009.51 6063.39 64.51 5.00 452.20 3020.21
   05:34:11.400.03-Feb-2020 4009.51 6063.99 64.51 5.00 452.40 3020.21
   05:34:11.600.03-Feb-2020 4009.51 6067.06 64.51 5.00 452.60 3020.21
   05:34:11.800.03-Feb-2020 4009.51 6066.65 64.51 5.00 452.80 3020.21
   05:34:12.000.03-Feb-2020 4009.51 6065.66 64.51 5.00 453.00 3020.21
   05:34:12.200.03-Feb-2020 4009.51 6065.66 64.51 5.00 453.20 3020.21
   05:34:12.400.03-Feb-2020 4009.51 6065.12 64.51 5.00 453.40 3020.21
   05:34:12.600.03-Feb-2020 4009.51 6064.83 64.51 5.00 453.60 3020.21
   05:34:12.800.03-Feb-2020 4009.51 6066.45 64.51 5.00 453.80 3020.21
   05:34:13.000.03-Feb-2020 4009.51 6065.71 64.51 5.00 454.00 3020.21
   05:34:13.200.03-Feb-2020 4009.51 6065.71 64.51 5.00 454.20 3020.21
   05:34:13.400.03-Feb-2020 4009.51 6064.97 64.51 5.00 454.40 3020.21
   05:34:13.600.03-Feb-2020 4009.51 6067.80 64.51 5.00 454.60 3020.21
   05:34:13.800.03-Feb-2020 4009.51 6057.28 64.51 5.00 454.80 3020.21
   05:34:14.000.03-Feb-2020 4009.51 6066.78 64.51 5.00 455.00 3020.21
   05:34:14.200.03-Feb-2020 4009.51 6066.78 64.51 5.00 455.20 3020.21
   05:34:14.400.03-Feb-2020 4009.51 6065.80 64.52 5.00 455.40 3020.21
   05:34:14.600.03-Feb-2020 4009.51 6064.21 64.52 5.00 455.60 3020.21
   05:34:14.800.03-Feb-2020 4009.51 6065.52 64.52 5.00 455.80 3020.21
   05:34:15.000.03-Feb-2020 4009.51 6065.20 64.52 5.00 456.00 3020.21
   05:34:15.200.03-Feb-2020 4009.51 6065.20 64.52 5.00 456.20 3020.21
   05:34:15.400.03-Feb-2020 4009.51 6064.07 64.52 5.00 456.40 3020.21
   05:34:15.600.03-Feb-2020 4009.51 6065.01 64.52 5.00 456.60 3020.21
   05:34:15.800.03-Feb-2020 4009.51 6065.07 64.52 5.00 456.80 3020.21
   05:34:16.000.03-Feb-2020 4009.51 6065.47 64.52 5.00 457.00 3020.21
   05:34:16.200.03-Feb-2020 4009.51 6065.47 64.52 5.00 457.20 3020.21
   05:34:16.400.03-Feb-2020 4009.51 6064.65 64.52 5.00 457.40 3020.21
   05:34:16.600.03-Feb-2020 4009.51 6053.37 64.52 5.00 457.60 3020.21
   05:34:16.800.03-Feb-2020 4009.51 6066.41 64.52 5.00 457.80 3020.21
   05:34:17.000.03-Feb-2020 4009.51 6063.78 64.52 5.00 458.00 3020.21
   05:34:17.200.03-Feb-2020 4009.51 6063.78 64.52 5.00 458.20 3020.21
   05:34:17.400.03-Feb-2020 4009.51 6065.13 64.52 5.00 458.40 3020.21
   05:34:17.600.03-Feb-2020 4009.51 6066.13 64.52 5.00 458.60 3020.21
   05:34:17.800.03-Feb-2020 4009.51 6066.37 64.52 5.00 458.80 3020.21
   05:34:18.000.03-Feb-2020 4009.51 6058.73 64.52 5.00 459.00 3020.21
   05:34:18.200.03-Feb-2020 4009.51 6058.73 64.52 5.00 459.20 3020.21
   05:34:18.400.03-Feb-2020 4009.51 6060.90 64.52 5.00 459.40 3020.21
   05:34:18.600.03-Feb-2020 4009.51 6065.39 64.52 5.00 459.60 3020.21
   05:34:18.800.03-Feb-2020 4009.51 6064.51 64.52 5.00 459.80 3020.21
