~Version Information
 VERS.                  2.0:   CWLS log ASCII Standard -VERSION 2.0
 WRAP.                   NO:   One line per depth step
~Well Information Block
#MNEM.UNIT     VALUE/NAME     DESCRIPTION
#---------     -----------    ---------------------------
 STRT.S             08:33:17 03-Feb-20: START TIME 08:33:17 03-Feb-20
 STOP.S             08:41:10 03-Feb-20: STOP TIME  08:41:10 03-Feb-20
 STEP.S                   0.00: STEP TIME
 NULL.                 -999.25: NULL VALUE
 DFWT.                        :  DIST FWL TEXT
 DFST.                        :  DIST FSL TEXT
 DMF .             Drill Floor:  DRILL MEAS FROM
 STIM.      09.30.00 26-Dec-19:  START TIME
 DATE.      08.00.00 20-Jan-20:  END TIME
 SPUD.               23-Nov-19:  SPUD DATE
 NREF.                    Grid:  NORTH REFERENCE
 HPTY.       Minimum Curvature:  HOLE POS TYPE
 DMOD.             Drill Model:  DRILL MOD DESC
 SVYD.                  Survey:  SURVEY DESC
 ILTD.               Lithology:  INTERP LTH DESC
 FTOP.          Formation Tops:  FORM TOPS DESC
 SON .        AZ-XX-0906192647:  JOB NUMBER
 WTYP.                Deviated:  WELL TYPE
 COMP.     BP Exploration (Caspian Sea) Ltd:  COMPANY
 BASE.              Azerbaijan:  LOGGING EQUIPMENT BASE LOCATION
 REGN.                 Eurasia:  REGION
 FLD .                     ACG:  FIELD NAME
 SRVC.              KCA Deutag:  CONTRACTOR
 MWDS.                    Baku:  MWD SHOP
 WELL.     A10 (Slot 20) - SCP:  WELL NAME
 JOBN.        AZ-XX-0906192647:  JOB TICKET NUMB
 RIG .                 Chirag1:  RIG NAME
 DCON.     Halliburton Sperry Drilling:  DIRECTNL CONTR
 UNIT.                     N/A:  LOGGING EQUIPMENT ID
 PDAT.          Mean Sea Level:  PERMANENT DATUM
 MDS .        Operator Entered:  MAG DATA SOURCE
 CTRY.              Azerbaijan:  COUNTRY NAME
 UWI .            /AZE00000090:  UNIQUE WELL IDENTIFIER
 API .            /AZE00000090:  API NUMBER
 CNTY.                        :  COUNTY
 PROV.                        :  PROVINCE
 STAT.                        :  STATE
 LOC .                        :  LOCATION
 LMF .             Drill Floor:  LOG MEASURED FROM
 TVDS.m                  36.60:  TVDSS CORRECTN
 LATI.deg                40.08:  LATITUDE
 LONG.deg                51.24:  LONGITUDE
 WHNS.m                  -7.94:  WELL HEAD N/S
 WHEW.m                   1.56:  WELL HEAD E/W
 UTMX.m              520429.26:  UTM X
 UTMY.m             4438973.87:  UTM Y
 DFWL.m                   0.00:  DISTANCE FWL
 DFSL.m                   0.00:  DISTANCE FSL
 SDEP.m                1455.00:  START DEPTH
 TDD .m                4047.51:  TOTAL DEPTH (DRILLER)
 VSDR.deg               112.75:  VERT SEC DIRECT
 GVFD.g                   1.00:  GRAVITY FIELD
 MFLD.nT              50261.00:  MAGNETIC FIELD
 MDIP.deg                59.52:  MAGNETIC DIP
 MDEC.deg                 6.42:  MAGNETIC DECL
 GRDC.deg                 0.17:  GRID CORRECTION
 AZTC.deg                 6.25:  AZM TOTAL CORR
 EPD .m                   0.00:  ELEVATION
 EGL .m                   0.00:  GROUND ELEVATION
 WDMS.m                 121.00:  WD ELEV
 APD .m                  36.60:  DEPTH ABOVE PD
 AGAP.m                  36.60:  AIR GAP
 VSEW.m                   1.56:  VERT SEC E/W
 VSNS.m                  -7.94:  VERT SEC N/S
 DEP .m                1140.01:  DEPTH
 EKB .m                  36.60:  KB ELEVATION
 EDF .m                  36.60:  DF ELEVATION
 VSC .                       0:  VS TO CLOSURE
 MAGU.                 1849206:  MAGUTM CHECKSUM
~Parameter Information Block
#MNEM.UNIT       Value        Description
#---------     -----------    ---------------------------
 AV  .mps                 1.70:  Ann Velocity 
 AVMX.mps                 2.30:  Max Ann Veloc 
 AZIF.deg               137.03:  Azm, Final 
 BHAT.                   Other:  BHA Type 
 BROT.°/30m               0.80:  Build Rotating 
 BS  .in                  8.00:  Bit Size 
 BTPL.psig              161.00:  Bit Press Loss 
 CABU.                      No:  Customer Abuse 
 COMM.                     äör:  Run Comments 1 
 TCS .hr                  9.59:  Time Ciculation Ended 
 CV  .mps                 3.76:  Crit Velocity 
 CVMX.mps                 4.26:  Max Crit Veloc 
 DD1 .         Intigam Rahimov:  Direct Drillr 1 
 DD2 .          Rashad Gojayev:  Direct Drillr 2 
 DDSV.                   Other:  DD Service 
 DEFF.%                 100.00:  % Det Eff 
 DLRX.°/30m               1.44:  Dogleg Rot Max 
 DLSO.°/30m               0.00:  Dogleg Oriented 
 DLSX.°/30m               0.00:  Dogleg Str Max 
 DRET.      03.31.12 02-Feb-20:  Drill End Time 
 DRST.      03.31.12 02-Feb-20:  Drill Start Tim 
 DTIM.hr                  1.99:  Time Drilling 
 EDEP.m                4047.51:  End Depth 
 ENG1.           Eldar Hajiyev:  Engineer 1 
 ENG2.          Rasim Hashimov:  Engineer 2 
 ENG3.          Rustam Safarov:  Engineer 3 
 ETIM.      03.31.12 02-Feb-20:  End Time 
 FLOI.gpm               300.00:  Flow In 
 FLON.gpm               250.00:  Flow In Min 
 FLOS.cptm                0.00:  Fluid Loss 
 FLOX.gpm               330.00:  Flow In Max 
 HFLO.                      No:  High Flow 
 HPRE.                      No:  High Pressure 
 HTEM.                      No:  High Temp 
 HYDO.m                   2.50:  Hydro Offset 
 IFIN.deg                39.54:  Inc, Final 
 IMAX.deg                41.14:  Inc Max 
 IMIN.deg                39.81:  Inc Min 
 IMND.m                4005.21:  Inc Min Depth 
 IMXD.m                3948.42:  Inc Max Depth 
 JARR.                      No:  Jarring 
 LETM.      03.31.12 02-Feb-20:  Log End Time 
 LOST.hr                     0:  Lost Rig Time 
 LSTM.      03.31.12 02-Feb-20:  Log Start Time 
 MDCL.ppm             35000.00:  Mud Chlorides 
 MDES.     Inversion Oil/Synthetic:  Mud Desc 
 DFD .sg                  1.32:  Mud Density 
 MDMN.sg                  1.32:  Dens Mud Min 
 MDMX.sg                  1.32:  Dens Mud Max 
 MOIL.                      59:  Run Mud Oil % 
 MOWR.                   71:29:  Run Mud OWR 
 MSND.                       0:  Run Mud Sand % 
 MSOL.                      17:  Run Mud Solids% 
 DFV .spqt               86.00:  Mud Viscosity 
 MWOD.in                  4.75:  MWD Tool OD 
 MWSI.                      No:  Serv Intrp, MWD 
 OTIM.hr                 46.72:  Time Operating 
 PCON.           Look Like New:  Pad Condition 
 PMAX.psia             3300.00:  Press Op, Max 
 PV  .cP                 30.00:  Mud PV 
 RUN .                     400:  Run Number 
 ROPA.m/hr               35.00:  ROP Avg 
 ROPN.m/hr               25.00:  ROP Min 
 ROPX.m/hr               40.00:  ROP Max 
 RPMA.rpm                80.00:  RPM Surface Avg 
 RPMN.rpm                60.00:  RPM Surface Min 
 RPMX.rpm               100.00:  RPM Surface Max 
 RRUN.                     400:  Rig Run Number 
 RTIM.hr                  1.99:  Time Reaming 
 SAZI.deg               133.93:  Azm, Start 
 SDEP.m                4047.51:  Start Depth 
 SIDD.                      No:  Serv Intrp, DD 
 SINC.deg                40.28:  Inc, Start 
 SPPA.psig             3250.00:  SPP Avg 
 SPPN.psig             3200.00:  SPP Min 
 SPPX.psig             3300.00:  SPP Max 
 STIM.      03.31.12 02-Feb-20:  Start Time 
 SVCS.                 DD, MWD:  Services 
 SVER.                    9.20:  Sperry Version 
 TDAT.m                  47.00:  Tot Depth Attmp 
 TDDF.                      No:  Trip for DD 
 TFF .                      No:  Trip for Fail 
 TQAA.f-kp                0.00:  Torque Abs Avg 
 TQAN.f-kp                0.00:  Torque Abs Min 
 TQAX.f-kp                0.00:  Torque Abs Max 
 TRRT.°/30m               0.70:  Turn Rotating 
 MRT .                    HCIM:  Maximum Recorded Temperature 
 TTMX.degC               70.59:  Max Tool Temp 
 VS01.             90598770F11:  Virtual Str1 SN 
 VS02.             90598769F11:  Virtual Str2 SN 
 VS03.            90515978Z1W1:  Virtual Str3 SN 
 VS04.          90584144R12X14:  Virtual Str4 SN 
 WBMN.klb                 0.00:  WOB Min 
 WITN.            Peter Wilson:  Customer Rep 
 WOBA.klb                 0.00:  WOB Avg 
 WOBX.klb                 0.00:  WOB Max 
 YP  .lhf2               29.00:  Yield Point 
~Curve Information Block
#MNEM.UNIT                 API CODE     Curve Description
#---------               -----------    ---------------------------
 TIME.HHMMSS            00 000 000 000:  GT Time & Date
 GTDEPTH.m              00 000 000 000:  GT Depth
 GTPQH.psia             00 000 000 000:  GT HR Quartz Pressure
 GTTQ.degC              00 000 000 000:  GT Quartz Temperature
 GTTN.NONE              00 000 000 000:  GT Test Number
 GTET.sec               00 000 000 000:  GT Elapsed Test Time
 GTTVD.m                00 000 000 000:  GT True Vertical Depth
#Other Information
#
#WARRANTY: Halliburton will use its best efforts to furnish customers with 
#accurate information and interpretations that are part of, and incident to, the services 
#provided.  However, Halliburton cannot and does not warrant the accuracy 
#or correctness of such information and interpretations.  Under no circumstances should any 
#such information or interpretation be relied upon as the sole basis for any drilling, 
#completion, production, or financial decision or any procedure involving any risk to the 
#safety of any drilling venture, drilling rig or its crew or any other third party.  The 
#Customer has full responsibility for all drilling, completion and production operation.  
#Halliburton makes no representations or warranties, either expressed or 
#implied, including, but not limited to, the implied warranties of merchantability or fitness 
#for a particular purpose, with respect to the services rendered.  In no event will 
#Halliburton be liable for failure to obtain any particular results or for 
#any damages, including, but not limited to, indirect, special or consequential damages, 
#resulting from the use of any information or interpretation provided by Halliburton.
#
~A           TIME           GTDEPTH  GTPQH  GTTQ  GTTN   GTET   GTTVD  
# ...
   08:37:48.290.03-Feb-2020 4013.71 3132.08 64.42 11.00 271.21 3023.43
   08:37:48.490.03-Feb-2020 4013.71 3132.19 64.42 11.00 271.41 3023.43
   08:37:48.690.03-Feb-2020 4013.71 3132.33 64.42 11.00 271.61 3023.43
   08:37:48.890.03-Feb-2020 4013.71 3132.33 64.42 11.00 271.81 3023.43
   08:37:49.090.03-Feb-2020 4013.71 3132.33 64.42 11.00 272.01 3023.43
   08:37:49.290.03-Feb-2020 4013.71 3132.33 64.42 11.00 272.21 3023.43
   08:37:49.490.03-Feb-2020 4013.71 3132.31 64.42 11.00 272.41 3023.43
   08:37:49.690.03-Feb-2020 4013.71 3132.28 64.42 11.00 272.61 3023.43
   08:37:49.890.03-Feb-2020 4013.71 3132.31 64.42 11.00 272.81 3023.43
   08:37:50.090.03-Feb-2020 4013.71 3132.35 64.42 11.00 273.01 3023.43
   08:37:50.290.03-Feb-2020 4013.71 3132.35 64.42 11.00 273.21 3023.43
   08:37:50.490.03-Feb-2020 4013.71 3132.30 64.42 11.00 273.41 3023.43
   08:37:50.690.03-Feb-2020 4013.71 3132.33 64.42 11.00 273.61 3023.43
   08:37:50.890.03-Feb-2020 4013.71 3132.29 64.42 11.00 273.81 3023.43
   08:37:51.090.03-Feb-2020 4013.71 3132.33 64.42 11.00 274.01 3023.43
   08:37:51.290.03-Feb-2020 4013.71 3132.33 64.42 11.00 274.21 3023.43
   08:37:51.490.03-Feb-2020 4013.71 3132.12 64.42 11.00 274.41 3023.43
   08:37:51.690.03-Feb-2020 4013.71 3132.32 64.42 11.00 274.61 3023.43
   08:37:51.890.03-Feb-2020 4013.71 3132.33 64.42 11.00 274.81 3023.43
   08:37:52.090.03-Feb-2020 4013.71 3132.32 64.42 11.00 275.01 3023.43
   08:37:52.290.03-Feb-2020 4013.71 3132.32 64.42 11.00 275.21 3023.43
   08:37:52.490.03-Feb-2020 4013.71 3132.32 64.42 11.00 275.41 3023.43
   08:37:52.690.03-Feb-2020 4013.71 3132.31 64.42 11.00 275.61 3023.43
   08:37:52.890.03-Feb-2020 4013.71 3132.32 64.42 11.00 275.81 3023.43
   08:37:53.090.03-Feb-2020 4013.71 3132.34 64.42 11.00 276.01 3023.43
   08:37:53.290.03-Feb-2020 4013.71 3132.34 64.42 11.00 276.21 3023.43
   08:37:53.490.03-Feb-2020 4013.71 3132.32 64.42 11.00 276.41 3023.43
   08:37:53.690.03-Feb-2020 4013.71 3132.31 64.42 11.00 276.61 3023.43
   08:37:53.890.03-Feb-2020 4013.71 3132.10 64.42 11.00 276.81 3023.43
   08:37:54.090.03-Feb-2020 4013.71 3132.47 64.42 11.00 277.01 3023.43
   08:37:54.290.03-Feb-2020 4013.71 3132.47 64.42 11.00 277.21 3023.43
   08:37:54.490.03-Feb-2020 4013.71 3132.41 64.42 11.00 277.41 3023.43
   08:37:54.690.03-Feb-2020 4013.71 3132.32 64.42 11.00 277.61 3023.43
   08:37:54.890.03-Feb-2020 4013.71 3132.35 64.42 11.00 277.81 3023.43
   08:37:55.090.03-Feb-2020 4013.71 3132.15 64.42 11.00 278.01 3023.43
   08:37:55.290.03-Feb-2020 4013.71 3132.15 64.42 11.00 278.21 3023.43
   08:37:55.490.03-Feb-2020 4013.71 3132.34 64.42 11.00 278.41 3023.43
   08:37:55.690.03-Feb-2020 4013.71 3132.33 64.42 11.00 278.61 3023.43
   08:37:55.890.03-Feb-2020 4013.71 3132.34 64.42 11.00 278.81 3023.43
   08:37:56.090.03-Feb-2020 4013.71 3132.11 64.42 11.00 279.01 3023.43
   08:37:56.290.03-Feb-2020 4013.71 3132.11 64.42 11.00 279.21 3023.43
   08:37:56.490.03-Feb-2020 4013.71 3132.24 64.42 11.00 279.41 3023.43
   08:37:56.690.03-Feb-2020 4013.71 3132.38 64.42 11.00 279.61 3023.43
   08:37:56.890.03-Feb-2020 4013.71 3132.34 64.42 11.00 279.81 3023.43
   08:37:57.090.03-Feb-2020 4013.71 3132.38 64.42 11.00 280.01 3023.43
   08:37:57.290.03-Feb-2020 4013.71 3132.38 64.42 11.00 280.21 3023.43
   08:37:57.490.03-Feb-2020 4013.71 3132.47 64.42 11.00 280.41 3023.43
   08:37:57.690.03-Feb-2020 4013.71 3132.26 64.42 11.00 280.61 3023.43
   08:37:57.890.03-Feb-2020 4013.71 3132.38 64.42 11.00 280.81 3023.43
   08:37:58.090.03-Feb-2020 4013.71 3132.35 64.42 11.00 281.01 3023.43
   08:37:58.290.03-Feb-2020 4013.71 3132.35 64.42 11.00 281.21 3023.43
   08:37:58.490.03-Feb-2020 4013.71 3132.34 64.42 11.00 281.41 3023.43
   08:37:58.690.03-Feb-2020 4013.71 3132.32 64.42 11.00 281.61 3023.43
   08:37:58.890.03-Feb-2020 4013.71 3132.30 64.42 11.00 281.81 3023.43
   08:37:59.090.03-Feb-2020 4013.71 3132.36 64.42 11.00 282.01 3023.43
   08:37:59.290.03-Feb-2020 4013.71 3132.36 64.42 11.00 282.21 3023.43
   08:37:59.490.03-Feb-2020 4013.71 3132.32 64.42 11.00 282.41 3023.43
   08:37:59.690.03-Feb-2020 4013.71 3132.33 64.42 11.00 282.61 3023.43
   08:37:59.890.03-Feb-2020 4013.71 3132.34 64.42 11.00 282.81 3023.43
   08:38:00.090.03-Feb-2020 4013.71 3132.32 64.42 11.00 283.01 3023.43
   08:38:00.290.03-Feb-2020 4013.71 3132.32 64.42 11.00 283.21 3023.43
   08:38:00.490.03-Feb-2020 4013.71 3132.27 64.42 11.00 283.41 3023.43
   08:38:00.690.03-Feb-2020 4013.71 3132.30 64.42 11.00 283.61 3023.43
   08:38:00.890.03-Feb-2020 4013.71 3132.24 64.42 11.00 283.81 3023.43
   08:38:01.090.03-Feb-2020 4013.71 3132.39 64.42 11.00 284.01 3023.43
   08:38:01.290.03-Feb-2020 4013.71 3132.39 64.42 11.00 284.21 3023.43
   08:38:01.490.03-Feb-2020 4013.71 3132.33 64.42 11.00 284.41 3023.43
   08:38:01.690.03-Feb-2020 4013.71 3132.32 64.42 11.00 284.61 3023.43
   08:38:01.891.03-Feb-2020 4013.71 3132.33 64.42 11.00 284.81 3023.43
   08:38:02.091.03-Feb-2020 4013.71 3132.33 64.42 11.00 285.01 3023.43
   08:38:02.291.03-Feb-2020 4013.71 3132.33 64.42 11.00 285.21 3023.43
   08:38:02.491.03-Feb-2020 4013.71 3132.32 64.42 11.00 285.41 3023.43
   08:38:02.691.03-Feb-2020 4013.71 3132.32 64.42 11.00 285.61 3023.43
   08:38:02.891.03-Feb-2020 4013.71 3132.34 64.42 11.00 285.81 3023.43
   08:38:03.091.03-Feb-2020 4013.71 3132.10 64.42 11.00 286.01 3023.43
   08:38:03.291.03-Feb-2020 4013.71 3132.10 64.42 11.00 286.21 3023.43
   08:38:03.491.03-Feb-2020 4013.71 3132.33 64.42 11.00 286.41 3023.43
   08:38:03.691.03-Feb-2020 4013.71 3132.40 64.42 11.00 286.61 3023.43
   08:38:03.891.03-Feb-2020 4013.71 3132.32 64.42 11.00 286.81 3023.43
   08:38:04.091.03-Feb-2020 4013.71 3132.27 64.42 11.00 287.01 3023.43
   08:38:04.291.03-Feb-2020 4013.71 3132.27 64.42 11.00 287.21 3023.43
   08:38:04.491.03-Feb-2020 4013.71 3132.28 64.42 11.00 287.41 3023.43
   08:38:04.691.03-Feb-2020 4013.71 3132.41 64.42 11.00 287.61 3023.43
   08:38:04.891.03-Feb-2020 4013.71 3132.32 64.42 11.00 287.81 3023.43
   08:38:05.091.03-Feb-2020 4013.71 3132.39 64.42 11.00 288.01 3023.43
   08:38:05.291.03-Feb-2020 4013.71 3132.39 64.42 11.00 288.21 3023.43
   08:38:05.491.03-Feb-2020 4013.71 3132.49 64.42 11.00 288.41 3023.43
   08:38:05.691.03-Feb-2020 4013.71 3132.31 64.42 11.00 288.61 3023.43
   08:38:05.891.03-Feb-2020 4013.71 3132.38 64.42 11.00 288.81 3023.43
   08:38:06.091.03-Feb-2020 4013.71 3132.38 64.42 11.00 289.01 3023.43
   08:38:06.291.03-Feb-2020 4013.71 3132.38 64.42 11.00 289.21 3023.43
   08:38:06.491.03-Feb-2020 4013.71 3132.17 64.42 11.00 289.41 3023.43
   08:38:06.691.03-Feb-2020 4013.71 3132.34 64.42 11.00 289.61 3023.43
   08:38:06.891.03-Feb-2020 4013.71 3132.33 64.42 11.00 289.81 3023.43
   08:38:07.091.03-Feb-2020 4013.71 3132.38 64.42 11.00 290.01 3023.43
   08:38:07.291.03-Feb-2020 4013.71 3132.38 64.42 11.00 290.21 3023.43
   08:38:07.491.03-Feb-2020 4013.71 3132.34 64.42 11.00 290.41 3023.43
   08:38:07.691.03-Feb-2020 4013.71 3132.35 64.42 11.00 290.61 3023.43
   08:38:07.891.03-Feb-2020 4013.71 3132.33 64.42 11.00 290.81 3023.43
   08:38:08.091.03-Feb-2020 4013.71 3132.34 64.42 11.00 291.01 3023.43
   08:38:08.291.03-Feb-2020 4013.71 3132.34 64.42 11.00 291.21 3023.43
   08:38:08.491.03-Feb-2020 4013.71 3132.34 64.42 11.00 291.41 3023.43
   08:38:08.691.03-Feb-2020 4013.71 3132.36 64.42 11.00 291.61 3023.43
   08:38:08.891.03-Feb-2020 4013.71 3132.34 64.42 11.00 291.81 3023.43
   08:38:09.091.03-Feb-2020 4013.71 3132.33 64.42 11.00 292.01 3023.43
   08:38:09.291.03-Feb-2020 4013.71 3132.33 64.42 11.00 292.21 3023.43
   08:38:09.491.03-Feb-2020 4013.71 3132.37 64.42 11.00 292.41 3023.43
   08:38:09.691.03-Feb-2020 4013.71 3132.12 64.42 11.00 292.61 3023.43
   08:38:09.891.03-Feb-2020 4013.71 3132.48 64.42 11.00 292.81 3023.43
   08:38:10.091.03-Feb-2020 4013.71 3132.27 64.42 11.00 293.01 3023.43
   08:38:10.291.03-Feb-2020 4013.71 3132.27 64.42 11.00 293.21 3023.43
   08:38:10.491.03-Feb-2020 4013.71 3132.33 64.42 11.00 293.41 3023.43
   08:38:10.691.03-Feb-2020 4013.71 3132.35 64.42 11.00 293.61 3023.43
