~Version Information
 VERS.                  2.0:   CWLS log ASCII Standard -VERSION 2.0
 WRAP.                   NO:   One line per depth step
~Well Information Block
#MNEM.UNIT     VALUE/NAME     DESCRIPTION
#---------     -----------    ---------------------------
 STRT.S             07:08:20 03-Feb-20: START TIME 07:08:20 03-Feb-20
 STOP.S             07:16:05 03-Feb-20: STOP TIME  07:16:05 03-Feb-20
 STEP.S                   0.00: STEP TIME
 NULL.                 -999.25: NULL VALUE
 DFWT.                        :  DIST FWL TEXT
 DFST.                        :  DIST FSL TEXT
 DMF .             Drill Floor:  DRILL MEAS FROM
 STIM.      09.30.00 26-Dec-19:  START TIME
 DATE.      08.00.00 20-Jan-20:  END TIME
 SPUD.               23-Nov-19:  SPUD DATE
 NREF.                    Grid:  NORTH REFERENCE
 HPTY.       Minimum Curvature:  HOLE POS TYPE
 DMOD.             Drill Model:  DRILL MOD DESC
 SVYD.                  Survey:  SURVEY DESC
 ILTD.               Lithology:  INTERP LTH DESC
 FTOP.          Formation Tops:  FORM TOPS DESC
 SON .        AZ-XX-0906192647:  JOB NUMBER
 WTYP.                Deviated:  WELL TYPE
 COMP.     BP Exploration (Caspian Sea) Ltd:  COMPANY
 BASE.              Azerbaijan:  LOGGING EQUIPMENT BASE LOCATION
 REGN.                 Eurasia:  REGION
 FLD .                     ACG:  FIELD NAME
 SRVC.              KCA Deutag:  CONTRACTOR
 MWDS.                    Baku:  MWD SHOP
 WELL.     A10 (Slot 20) - SCP:  WELL NAME
 JOBN.        AZ-XX-0906192647:  JOB TICKET NUMB
 RIG .                 Chirag1:  RIG NAME
 DCON.     Halliburton Sperry Drilling:  DIRECTNL CONTR
 UNIT.                     N/A:  LOGGING EQUIPMENT ID
 PDAT.          Mean Sea Level:  PERMANENT DATUM
 MDS .        Operator Entered:  MAG DATA SOURCE
 CTRY.              Azerbaijan:  COUNTRY NAME
 UWI .            /AZE00000090:  UNIQUE WELL IDENTIFIER
 API .            /AZE00000090:  API NUMBER
 CNTY.                        :  COUNTY
 PROV.                        :  PROVINCE
 STAT.                        :  STATE
 LOC .                        :  LOCATION
 LMF .             Drill Floor:  LOG MEASURED FROM
 TVDS.m                  36.60:  TVDSS CORRECTN
 LATI.deg                40.08:  LATITUDE
 LONG.deg                51.24:  LONGITUDE
 WHNS.m                  -7.94:  WELL HEAD N/S
 WHEW.m                   1.56:  WELL HEAD E/W
 UTMX.m              520429.26:  UTM X
 UTMY.m             4438973.87:  UTM Y
 DFWL.m                   0.00:  DISTANCE FWL
 DFSL.m                   0.00:  DISTANCE FSL
 SDEP.m                1455.00:  START DEPTH
 TDD .m                4047.51:  TOTAL DEPTH (DRILLER)
 VSDR.deg               112.75:  VERT SEC DIRECT
 GVFD.g                   1.00:  GRAVITY FIELD
 MFLD.nT              50261.00:  MAGNETIC FIELD
 MDIP.deg                59.52:  MAGNETIC DIP
 MDEC.deg                 6.42:  MAGNETIC DECL
 GRDC.deg                 0.17:  GRID CORRECTION
 AZTC.deg                 6.25:  AZM TOTAL CORR
 EPD .m                   0.00:  ELEVATION
 EGL .m                   0.00:  GROUND ELEVATION
 WDMS.m                 121.00:  WD ELEV
 APD .m                  36.60:  DEPTH ABOVE PD
 AGAP.m                  36.60:  AIR GAP
 VSEW.m                   1.56:  VERT SEC E/W
 VSNS.m                  -7.94:  VERT SEC N/S
 DEP .m                1140.01:  DEPTH
 EKB .m                  36.60:  KB ELEVATION
 EDF .m                  36.60:  DF ELEVATION
 VSC .                       0:  VS TO CLOSURE
 MAGU.                 1849206:  MAGUTM CHECKSUM
~Parameter Information Block
#MNEM.UNIT       Value        Description
#---------     -----------    ---------------------------
 AV  .mps                 1.70:  Ann Velocity 
 AVMX.mps                 2.30:  Max Ann Veloc 
 AZIF.deg               137.03:  Azm, Final 
 BHAT.                   Other:  BHA Type 
 BROT.°/30m               0.80:  Build Rotating 
 BS  .in                  8.00:  Bit Size 
 BTPL.psig              161.00:  Bit Press Loss 
 CABU.                      No:  Customer Abuse 
 COMM.                     ?\:  Run Comments 1 
 TCS .hr                  9.59:  Time Ciculation Ended 
 CV  .mps                 3.76:  Crit Velocity 
 CVMX.mps                 4.26:  Max Crit Veloc 
 DD1 .         Intigam Rahimov:  Direct Drillr 1 
 DD2 .          Rashad Gojayev:  Direct Drillr 2 
 DDSV.                   Other:  DD Service 
 DEFF.%                 100.00:  % Det Eff 
 DLRX.°/30m               1.44:  Dogleg Rot Max 
 DLSO.°/30m               0.00:  Dogleg Oriented 
 DLSX.°/30m               0.00:  Dogleg Str Max 
 DRET.      03.31.12 02-Feb-20:  Drill End Time 
 DRST.      03.31.12 02-Feb-20:  Drill Start Tim 
 DTIM.hr                  1.99:  Time Drilling 
 EDEP.m                4047.51:  End Depth 
 ENG1.           Eldar Hajiyev:  Engineer 1 
 ENG2.          Rasim Hashimov:  Engineer 2 
 ENG3.          Rustam Safarov:  Engineer 3 
 ETIM.      03.31.12 02-Feb-20:  End Time 
 FLOI.gpm               300.00:  Flow In 
 FLON.gpm               250.00:  Flow In Min 
 FLOS.cptm                0.00:  Fluid Loss 
 FLOX.gpm               330.00:  Flow In Max 
 HFLO.                      No:  High Flow 
 HPRE.                      No:  High Pressure 
 HTEM.                      No:  High Temp 
 HYDO.m                   2.50:  Hydro Offset 
 IFIN.deg                39.54:  Inc, Final 
 IMAX.deg                41.14:  Inc Max 
 IMIN.deg                39.81:  Inc Min 
 IMND.m                4005.21:  Inc Min Depth 
 IMXD.m                3948.42:  Inc Max Depth 
 JARR.                      No:  Jarring 
 LETM.      03.31.12 02-Feb-20:  Log End Time 
 LOST.hr                     0:  Lost Rig Time 
 LSTM.      03.31.12 02-Feb-20:  Log Start Time 
 MDCL.ppm             35000.00:  Mud Chlorides 
 MDES.     Inversion Oil/Synthetic:  Mud Desc 
 DFD .sg                  1.32:  Mud Density 
 MDMN.sg                  1.32:  Dens Mud Min 
 MDMX.sg                  1.32:  Dens Mud Max 
 MOIL.                      59:  Run Mud Oil % 
 MOWR.                   71:29:  Run Mud OWR 
 MSND.                       0:  Run Mud Sand % 
 MSOL.                      17:  Run Mud Solids% 
 DFV .spqt               86.00:  Mud Viscosity 
 MWOD.in                  4.75:  MWD Tool OD 
 MWSI.                      No:  Serv Intrp, MWD 
 OTIM.hr                 46.72:  Time Operating 
 PCON.           Look Like New:  Pad Condition 
 PMAX.psia             3300.00:  Press Op, Max 
 PV  .cP                 30.00:  Mud PV 
 RUN .                     400:  Run Number 
 ROPA.m/hr               35.00:  ROP Avg 
 ROPN.m/hr               25.00:  ROP Min 
 ROPX.m/hr               40.00:  ROP Max 
 RPMA.rpm                80.00:  RPM Surface Avg 
 RPMN.rpm                60.00:  RPM Surface Min 
 RPMX.rpm               100.00:  RPM Surface Max 
 RRUN.                     400:  Rig Run Number 
 RTIM.hr                  1.99:  Time Reaming 
 SAZI.deg               133.93:  Azm, Start 
 SDEP.m                4047.51:  Start Depth 
 SIDD.                      No:  Serv Intrp, DD 
 SINC.deg                40.28:  Inc, Start 
 SPPA.psig             3250.00:  SPP Avg 
 SPPN.psig             3200.00:  SPP Min 
 SPPX.psig             3300.00:  SPP Max 
 STIM.      03.31.12 02-Feb-20:  Start Time 
 SVCS.                 DD, MWD:  Services 
 SVER.                    9.20:  Sperry Version 
 TDAT.m                  47.00:  Tot Depth Attmp 
 TDDF.                      No:  Trip for DD 
 TFF .                      No:  Trip for Fail 
 TQAA.f-kp                0.00:  Torque Abs Avg 
 TQAN.f-kp                0.00:  Torque Abs Min 
 TQAX.f-kp                0.00:  Torque Abs Max 
 TRRT.°/30m               0.70:  Turn Rotating 
 MRT .                    HCIM:  Maximum Recorded Temperature 
 TTMX.degC               70.59:  Max Tool Temp 
 VS01.             90598770F11:  Virtual Str1 SN 
 VS02.             90598769F11:  Virtual Str2 SN 
 VS03.            90515978Z1W1:  Virtual Str3 SN 
 VS04.          90584144R12X14:  Virtual Str4 SN 
 WBMN.klb                 0.00:  WOB Min 
 WITN.            Peter Wilson:  Customer Rep 
 WOBA.klb                 0.00:  WOB Avg 
 WOBX.klb                 0.00:  WOB Max 
 YP  .lhf2               29.00:  Yield Point 
~Curve Information Block
#MNEM.UNIT                 API CODE     Curve Description
#---------               -----------    ---------------------------
 TIME.HHMMSS            00 000 000 000:  GT Time & Date
 GTDEPTH.m              00 000 000 000:  GT Depth
 GTPQH.psia             00 000 000 000:  GT HR Quartz Pressure
 GTTQ.degC              00 000 000 000:  GT Quartz Temperature
 GTTN.NONE              00 000 000 000:  GT Test Number
 GTET.sec               00 000 000 000:  GT Elapsed Test Time
 GTTVD.m                00 000 000 000:  GT True Vertical Depth
#Other Information
#
#WARRANTY: Halliburton will use its best efforts to furnish customers with 
#accurate information and interpretations that are part of, and incident to, the services 
#provided.  However, Halliburton cannot and does not warrant the accuracy 
#or correctness of such information and interpretations.  Under no circumstances should any 
#such information or interpretation be relied upon as the sole basis for any drilling, 
#completion, production, or financial decision or any procedure involving any risk to the 
#safety of any drilling venture, drilling rig or its crew or any other third party.  The 
#Customer has full responsibility for all drilling, completion and production operation.  
#Halliburton makes no representations or warranties, either expressed or 
#implied, including, but not limited to, the implied warranties of merchantability or fitness 
#for a particular purpose, with respect to the services rendered.  In no event will 
#Halliburton be liable for failure to obtain any particular results or for 
#any damages, including, but not limited to, indirect, special or consequential damages, 
#resulting from the use of any information or interpretation provided by Halliburton.
#
~A           TIME           GTDEPTH  GTPQH  GTTQ  GTTN  GTET   GTTVD  
# ...
   07:13:42.000.03-Feb-2020 4002.71  185.42 64.23 9.00 322.00 3014.99
   07:13:42.200.03-Feb-2020 4002.71  185.42 64.23 9.00 322.20 3014.99
   07:13:42.400.03-Feb-2020 4002.71  187.48 64.23 9.00 322.40 3014.99
   07:13:42.600.03-Feb-2020 4002.71  188.50 64.23 9.00 322.60 3014.99
   07:13:42.800.03-Feb-2020 4002.71  189.53 64.23 9.00 322.80 3014.99
   07:13:43.000.03-Feb-2020 4002.71  190.56 64.23 9.00 323.00 3014.99
   07:13:43.200.03-Feb-2020 4002.71  190.56 64.23 9.00 323.20 3014.99
   07:13:43.400.03-Feb-2020 4002.71  192.60 64.23 9.00 323.40 3014.99
   07:13:43.600.03-Feb-2020 4002.71  193.61 64.23 9.00 323.60 3014.99
   07:13:43.800.03-Feb-2020 4002.71  194.63 64.23 9.00 323.80 3014.99
   07:13:44.000.03-Feb-2020 4002.71  195.65 64.23 9.00 324.00 3014.99
   07:13:44.200.03-Feb-2020 4002.71  195.65 64.23 9.00 324.20 3014.99
   07:13:44.400.03-Feb-2020 4002.71  197.68 64.23 9.00 324.40 3014.99
   07:13:44.600.03-Feb-2020 4002.71  198.69 64.23 9.00 324.60 3014.99
   07:13:44.800.03-Feb-2020 4002.71  199.70 64.23 9.00 324.80 3014.99
   07:13:45.000.03-Feb-2020 4002.71  200.71 64.23 9.00 325.00 3014.99
   07:13:45.200.03-Feb-2020 4002.71  200.71 64.23 9.00 325.20 3014.99
   07:13:45.400.03-Feb-2020 4002.71  202.72 64.23 9.00 325.40 3014.99
   07:13:45.600.03-Feb-2020 4002.71  203.74 64.23 9.00 325.60 3014.99
   07:13:45.800.03-Feb-2020 4002.71  204.74 64.23 9.00 325.80 3014.99
   07:13:46.000.03-Feb-2020 4002.71  205.75 64.23 9.00 326.00 3014.99
   07:13:46.200.03-Feb-2020 4002.71  205.75 64.23 9.00 326.20 3014.99
   07:13:46.400.03-Feb-2020 4002.71  207.76 64.23 9.00 326.40 3014.99
   07:13:46.600.03-Feb-2020 4002.71  208.77 64.23 9.00 326.60 3014.99
   07:13:46.800.03-Feb-2020 4002.71  209.77 64.23 9.00 326.80 3014.99
   07:13:47.000.03-Feb-2020 4002.71  210.77 64.23 9.00 327.00 3014.99
   07:13:47.200.03-Feb-2020 4002.71  211.78 64.23 9.00 327.20 3014.99
   07:13:47.400.03-Feb-2020 4002.71  212.76 64.23 9.00 327.40 3014.99
   07:13:47.600.03-Feb-2020 4002.71  213.76 64.23 9.00 327.60 3014.99
   07:13:47.800.03-Feb-2020 4002.71  214.75 64.23 9.00 327.80 3014.99
   07:13:48.000.03-Feb-2020 4002.71  215.78 64.23 9.00 328.00 3014.99
   07:13:48.200.03-Feb-2020 4002.71  215.78 64.23 9.00 328.20 3014.99
   07:13:48.400.03-Feb-2020 4002.71  217.77 64.23 9.00 328.40 3014.99
   07:13:48.600.03-Feb-2020 4002.71  218.77 64.23 9.00 328.60 3014.99
   07:13:48.800.03-Feb-2020 4002.71  219.75 64.23 9.00 328.80 3014.99
   07:13:49.000.03-Feb-2020 4002.71  220.76 64.23 9.00 329.00 3014.99
   07:13:49.200.03-Feb-2020 4002.71  221.76 64.23 9.00 329.20 3014.99
   07:13:49.400.03-Feb-2020 4002.71  222.77 64.23 9.00 329.40 3014.99
   07:13:49.600.03-Feb-2020 4002.71  223.76 64.23 9.00 329.60 3014.99
   07:13:49.800.03-Feb-2020 4002.71  224.76 64.23 9.00 329.80 3014.99
   07:13:50.000.03-Feb-2020 4002.71  225.74 64.23 9.00 330.00 3014.99
   07:13:50.200.03-Feb-2020 4002.71  226.74 64.23 9.00 330.20 3014.99
   07:13:50.400.03-Feb-2020 4002.71  227.75 64.23 9.00 330.40 3014.99
   07:13:50.600.03-Feb-2020 4002.71  228.75 64.23 9.00 330.60 3014.99
   07:13:50.800.03-Feb-2020 4002.71  229.73 64.23 9.00 330.80 3014.99
   07:13:51.000.03-Feb-2020 4002.71  230.74 64.23 9.00 331.00 3014.99
   07:13:51.200.03-Feb-2020 4002.71  230.74 64.23 9.00 331.20 3014.99
   07:13:51.400.03-Feb-2020 4002.71  232.74 64.23 9.00 331.40 3014.99
   07:13:51.600.03-Feb-2020 4002.71  233.73 64.23 9.00 331.60 3014.99
   07:13:51.800.03-Feb-2020 4002.71  234.75 64.23 9.00 331.80 3014.99
   07:13:52.000.03-Feb-2020 4002.71  235.75 64.23 9.00 332.00 3014.99
   07:13:52.200.03-Feb-2020 4002.71  235.75 64.23 9.00 332.20 3014.99
   07:13:52.400.03-Feb-2020 4002.71  237.76 64.23 9.00 332.40 3014.99
   07:13:52.600.03-Feb-2020 4002.71  238.75 64.23 9.00 332.60 3014.99
   07:13:52.800.03-Feb-2020 4002.71  239.76 64.23 9.00 332.80 3014.99
   07:13:53.000.03-Feb-2020 4002.71  240.77 64.23 9.00 333.00 3014.99
   07:13:53.200.03-Feb-2020 4002.71  240.77 64.23 9.00 333.20 3014.99
   07:13:53.400.03-Feb-2020 4002.71  242.78 64.23 9.00 333.40 3014.99
   07:13:53.600.03-Feb-2020 4002.71  243.78 64.23 9.00 333.60 3014.99
   07:13:53.800.03-Feb-2020 4002.71  244.81 64.23 9.00 333.80 3014.99
   07:13:54.000.03-Feb-2020 4002.71  245.79 64.23 9.00 334.00 3014.99
   07:13:54.200.03-Feb-2020 4002.71  246.81 64.23 9.00 334.20 3014.99
   07:13:54.400.03-Feb-2020 4002.71  247.81 64.23 9.00 334.40 3014.99
   07:13:54.600.03-Feb-2020 4002.71  248.84 64.23 9.00 334.60 3014.99
   07:13:54.800.03-Feb-2020 4002.71  249.84 64.23 9.00 334.80 3014.99
   07:13:55.000.03-Feb-2020 4002.71  250.86 64.23 9.00 335.00 3014.99
   07:13:55.200.03-Feb-2020 4002.71  250.86 64.23 9.00 335.20 3014.99
   07:13:55.400.03-Feb-2020 4002.71  252.89 64.23 9.00 335.40 3014.99
   07:13:55.600.03-Feb-2020 4002.71  253.90 64.23 9.00 335.60 3014.99
   07:13:55.800.03-Feb-2020 4002.71  254.92 64.23 9.00 335.80 3014.99
   07:13:56.000.03-Feb-2020 4002.71  255.94 64.23 9.00 336.00 3014.99
   07:13:56.200.03-Feb-2020 4002.71  255.94 64.23 9.00 336.20 3014.99
   07:13:56.400.03-Feb-2020 4002.71  257.96 64.23 9.00 336.40 3014.99
   07:13:56.600.03-Feb-2020 4002.71  258.99 64.23 9.00 336.60 3014.99
   07:13:56.800.03-Feb-2020 4002.71  259.99 64.23 9.00 336.80 3014.99
   07:13:57.000.03-Feb-2020 4002.71  261.04 64.23 9.00 337.00 3014.99
   07:13:57.200.03-Feb-2020 4002.71  262.08 64.23 9.00 337.20 3014.99
   07:13:57.400.03-Feb-2020 4002.71  263.10 64.23 9.00 337.40 3014.99
   07:13:57.600.03-Feb-2020 4002.71  264.12 64.23 9.00 337.60 3014.99
   07:13:57.800.03-Feb-2020 4002.71  265.12 64.23 9.00 337.80 3014.99
   07:13:58.000.03-Feb-2020 4002.71  266.18 64.23 9.00 338.00 3014.99
   07:13:58.200.03-Feb-2020 4002.71  266.18 64.23 9.00 338.20 3014.99
   07:13:58.400.03-Feb-2020 4002.71  268.24 64.23 9.00 338.40 3014.99
   07:13:58.600.03-Feb-2020 4002.71  269.29 64.23 9.00 338.60 3014.99
   07:13:58.800.03-Feb-2020 4002.71  270.32 64.23 9.00 338.80 3014.99
   07:13:59.000.03-Feb-2020 4002.71  271.36 64.23 9.00 339.00 3014.99
   07:13:59.200.03-Feb-2020 4002.71  271.36 64.23 9.00 339.20 3014.99
   07:13:59.400.03-Feb-2020 4002.71  273.43 64.23 9.00 339.40 3014.99
   07:13:59.600.03-Feb-2020 4002.71  274.48 64.23 9.00 339.60 3014.99
   07:13:59.800.03-Feb-2020 4002.71  275.52 64.23 9.00 339.80 3014.99
   07:14:00.000.03-Feb-2020 4002.71  276.57 64.23 9.00 340.00 3014.99
   07:14:00.200.03-Feb-2020 4002.71  276.57 64.23 9.00 340.20 3014.99
   07:14:00.400.03-Feb-2020 4002.71  278.64 64.23 9.00 340.40 3014.99
   07:14:00.600.03-Feb-2020 4002.71  279.69 64.23 9.00 340.60 3014.99
   07:14:00.800.03-Feb-2020 4002.71  280.75 64.23 9.00 340.80 3014.99
   07:14:01.000.03-Feb-2020 4002.71  281.81 64.23 9.00 341.00 3014.99
   07:14:01.200.03-Feb-2020 4002.71  281.81 64.23 9.00 341.20 3014.99
   07:14:01.400.03-Feb-2020 4002.71  283.93 64.23 9.00 341.40 3014.99
   07:14:01.600.03-Feb-2020 4002.71  284.99 64.23 9.00 341.60 3014.99
   07:14:01.800.03-Feb-2020 4002.71  286.04 64.23 9.00 341.80 3014.99
   07:14:02.000.03-Feb-2020 4002.71  287.11 64.23 9.00 342.00 3014.99
   07:14:02.200.03-Feb-2020 4002.71  288.19 64.23 9.00 342.20 3014.99
   07:14:02.400.03-Feb-2020 4002.71  289.25 64.23 9.00 342.40 3014.99
   07:14:02.600.03-Feb-2020 4002.71  290.32 64.23 9.00 342.60 3014.99
   07:14:02.800.03-Feb-2020 4002.71  291.39 64.23 9.00 342.80 3014.99
   07:14:03.000.03-Feb-2020 4002.71  292.47 64.23 9.00 343.00 3014.99
   07:14:03.200.03-Feb-2020 4002.71  292.47 64.23 9.00 343.20 3014.99
   07:14:03.400.03-Feb-2020 4002.71  294.62 64.23 9.00 343.40 3014.99
   07:14:03.600.03-Feb-2020 4002.71  295.70 64.23 9.00 343.60 3014.99
   07:14:03.800.03-Feb-2020 4002.71  296.74 64.23 9.00 343.80 3014.99
   07:14:04.000.03-Feb-2020 4002.71  297.84 64.23 9.00 344.00 3014.99
   07:14:04.200.03-Feb-2020 4002.71  297.84 64.23 9.00 344.20 3014.99
   07:14:04.400.03-Feb-2020 4002.71  300.02 64.24 9.00 344.40 3014.99
   07:14:04.600.03-Feb-2020 4002.71  301.12 64.24 9.00 344.60 3014.99
   07:14:04.800.03-Feb-2020 4002.71  302.21 64.24 9.00 344.80 3014.99
