~Version Information
 VERS.                  2.0:   CWLS log ASCII Standard -VERSION 2.0
 WRAP.                   NO:   One line per depth step
~Well Information Block
#MNEM.UNIT     VALUE/NAME     DESCRIPTION
#---------     -----------    ---------------------------
 STRT.S             03:10:10 03-Feb-20: START TIME 03:10:10 03-Feb-20
 STOP.S             03:17:58 03-Feb-20: STOP TIME  03:17:58 03-Feb-20
 STEP.S                   0.00: STEP TIME
 NULL.                 -999.25: NULL VALUE
 DFWT.                        :  DIST FWL TEXT
 DFST.                        :  DIST FSL TEXT
 DMF .             Drill Floor:  DRILL MEAS FROM
 STIM.      09.30.00 26-Dec-19:  START TIME
 DATE.      08.00.00 20-Jan-20:  END TIME
 SPUD.               23-Nov-19:  SPUD DATE
 NREF.                    Grid:  NORTH REFERENCE
 HPTY.       Minimum Curvature:  HOLE POS TYPE
 DMOD.             Drill Model:  DRILL MOD DESC
 SVYD.                  Survey:  SURVEY DESC
 ILTD.               Lithology:  INTERP LTH DESC
 FTOP.          Formation Tops:  FORM TOPS DESC
 SON .        AZ-XX-0906192647:  JOB NUMBER
 WTYP.                Deviated:  WELL TYPE
 COMP.     BP Exploration (Caspian Sea) Ltd:  COMPANY
 BASE.              Azerbaijan:  LOGGING EQUIPMENT BASE LOCATION
 REGN.                 Eurasia:  REGION
 FLD .                     ACG:  FIELD NAME
 SRVC.              KCA Deutag:  CONTRACTOR
 MWDS.                    Baku:  MWD SHOP
 WELL.     A10 (Slot 20) - SCP:  WELL NAME
 JOBN.        AZ-XX-0906192647:  JOB TICKET NUMB
 RIG .                 Chirag1:  RIG NAME
 DCON.     Halliburton Sperry Drilling:  DIRECTNL CONTR
 UNIT.                     N/A:  LOGGING EQUIPMENT ID
 PDAT.          Mean Sea Level:  PERMANENT DATUM
 MDS .        Operator Entered:  MAG DATA SOURCE
 CTRY.              Azerbaijan:  COUNTRY NAME
 UWI .            /AZE00000090:  UNIQUE WELL IDENTIFIER
 API .            /AZE00000090:  API NUMBER
 CNTY.                        :  COUNTY
 PROV.                        :  PROVINCE
 STAT.                        :  STATE
 LOC .                        :  LOCATION
 LMF .             Drill Floor:  LOG MEASURED FROM
 TVDS.m                  36.60:  TVDSS CORRECTN
 LATI.deg                40.08:  LATITUDE
 LONG.deg                51.24:  LONGITUDE
 WHNS.m                  -7.94:  WELL HEAD N/S
 WHEW.m                   1.56:  WELL HEAD E/W
 UTMX.m              520429.26:  UTM X
 UTMY.m             4438973.87:  UTM Y
 DFWL.m                   0.00:  DISTANCE FWL
 DFSL.m                   0.00:  DISTANCE FSL
 SDEP.m                1455.00:  START DEPTH
 TDD .m                4047.51:  TOTAL DEPTH (DRILLER)
 VSDR.deg               112.75:  VERT SEC DIRECT
 GVFD.g                   1.00:  GRAVITY FIELD
 MFLD.nT              50261.00:  MAGNETIC FIELD
 MDIP.deg                59.52:  MAGNETIC DIP
 MDEC.deg                 6.42:  MAGNETIC DECL
 GRDC.deg                 0.17:  GRID CORRECTION
 AZTC.deg                 6.25:  AZM TOTAL CORR
 EPD .m                   0.00:  ELEVATION
 EGL .m                   0.00:  GROUND ELEVATION
 WDMS.m                 121.00:  WD ELEV
 APD .m                  36.60:  DEPTH ABOVE PD
 AGAP.m                  36.60:  AIR GAP
 VSEW.m                   1.56:  VERT SEC E/W
 VSNS.m                  -7.94:  VERT SEC N/S
 DEP .m                1140.01:  DEPTH
 EKB .m                  36.60:  KB ELEVATION
 EDF .m                  36.60:  DF ELEVATION
 VSC .                       0:  VS TO CLOSURE
 MAGU.                 1849206:  MAGUTM CHECKSUM
~Parameter Information Block
#MNEM.UNIT       Value        Description
#---------     -----------    ---------------------------
 AV  .mps                 1.70:  Ann Velocity 
 AVMX.mps                 2.30:  Max Ann Veloc 
 AZIF.deg               137.03:  Azm, Final 
 BHAT.                   Other:  BHA Type 
 BROT.°/30m               0.80:  Build Rotating 
 BS  .in                  8.00:  Bit Size 
 BTPL.psig              161.00:  Bit Press Loss 
 CABU.                      No:  Customer Abuse 
 TCS .hr                  9.59:  Time Ciculation Ended 
 CV  .mps                 3.76:  Crit Velocity 
 CVMX.mps                 4.26:  Max Crit Veloc 
 DD1 .         Intigam Rahimov:  Direct Drillr 1 
 DD2 .          Rashad Gojayev:  Direct Drillr 2 
 DDSV.                   Other:  DD Service 
 DEFF.%                 100.00:  % Det Eff 
 DLRX.°/30m               1.44:  Dogleg Rot Max 
 DLSO.°/30m               0.00:  Dogleg Oriented 
 DLSX.°/30m               0.00:  Dogleg Str Max 
 DRET.      03.31.12 02-Feb-20:  Drill End Time 
 DRST.      03.31.12 02-Feb-20:  Drill Start Tim 
 DTIM.hr                  1.99:  Time Drilling 
 EDEP.m                4047.51:  End Depth 
 ENG1.           Eldar Hajiyev:  Engineer 1 
 ENG2.          Rasim Hashimov:  Engineer 2 
 ENG3.          Rustam Safarov:  Engineer 3 
 ETIM.      03.31.12 02-Feb-20:  End Time 
 FLOI.gpm               300.00:  Flow In 
 FLON.gpm               250.00:  Flow In Min 
 FLOS.cptm                0.00:  Fluid Loss 
 FLOX.gpm               330.00:  Flow In Max 
 HFLO.                      No:  High Flow 
 HPRE.                      No:  High Pressure 
 HTEM.                      No:  High Temp 
 HYDO.m                   2.50:  Hydro Offset 
 IFIN.deg                39.54:  Inc, Final 
 IMAX.deg                41.14:  Inc Max 
 IMIN.deg                39.81:  Inc Min 
 IMND.m                4005.21:  Inc Min Depth 
 IMXD.m                3948.42:  Inc Max Depth 
 JARR.                      No:  Jarring 
 LETM.      03.31.12 02-Feb-20:  Log End Time 
 LOST.hr                     0:  Lost Rig Time 
 LSTM.      03.31.12 02-Feb-20:  Log Start Time 
 MDCL.ppm             35000.00:  Mud Chlorides 
 MDES.     Inversion Oil/Synthetic:  Mud Desc 
 DFD .sg                  1.32:  Mud Density 
 MDMN.sg                  1.32:  Dens Mud Min 
 MDMX.sg                  1.32:  Dens Mud Max 
 MOIL.                      59:  Run Mud Oil % 
 MOWR.                   71:29:  Run Mud OWR 
 MSND.                       0:  Run Mud Sand % 
 MSOL.                      17:  Run Mud Solids% 
 DFV .spqt               86.00:  Mud Viscosity 
 MWOD.in                  4.75:  MWD Tool OD 
 MWSI.                      No:  Serv Intrp, MWD 
 OTIM.hr                 46.72:  Time Operating 
 PCON.           Look Like New:  Pad Condition 
 PMAX.psia             3300.00:  Press Op, Max 
 PV  .cP                 30.00:  Mud PV 
 RUN .                     400:  Run Number 
 ROPA.m/hr               35.00:  ROP Avg 
 ROPN.m/hr               25.00:  ROP Min 
 ROPX.m/hr               40.00:  ROP Max 
 RPMA.rpm                80.00:  RPM Surface Avg 
 RPMN.rpm                60.00:  RPM Surface Min 
 RPMX.rpm               100.00:  RPM Surface Max 
 RRUN.                     400:  Rig Run Number 
 RTIM.hr                  1.99:  Time Reaming 
 SAZI.deg               133.93:  Azm, Start 
 SDEP.m                4047.51:  Start Depth 
 SIDD.                      No:  Serv Intrp, DD 
 SINC.deg                40.28:  Inc, Start 
 SPPA.psig             3250.00:  SPP Avg 
 SPPN.psig             3200.00:  SPP Min 
 SPPX.psig             3300.00:  SPP Max 
 STIM.      03.31.12 02-Feb-20:  Start Time 
 SVCS.                 DD, MWD:  Services 
 SVER.                    9.20:  Sperry Version 
 TDAT.m                  47.00:  Tot Depth Attmp 
 TDDF.                      No:  Trip for DD 
 TFF .                      No:  Trip for Fail 
 TQAA.f-kp                0.00:  Torque Abs Avg 
 TQAN.f-kp                0.00:  Torque Abs Min 
 TQAX.f-kp                0.00:  Torque Abs Max 
 TRRT.°/30m               0.70:  Turn Rotating 
 MRT .                    HCIM:  Maximum Recorded Temperature 
 TTMX.degC               70.59:  Max Tool Temp 
 VS01.             90598770F11:  Virtual Str1 SN 
 VS02.             90598769F11:  Virtual Str2 SN 
 VS03.            90515978Z1W1:  Virtual Str3 SN 
 VS04.          90584144R12X14:  Virtual Str4 SN 
 WBMN.klb                 0.00:  WOB Min 
 WITN.            Peter Wilson:  Customer Rep 
 WOBA.klb                 0.00:  WOB Avg 
 WOBX.klb                 0.00:  WOB Max 
 YP  .lhf2               29.00:  Yield Point 
~Curve Information Block
#MNEM.UNIT                 API CODE     Curve Description
#---------               -----------    ---------------------------
 TIME.HHMMSS            00 000 000 000:  GT Time & Date
 GTDEPTH.m              00 000 000 000:  GT Depth
 GTPQH.psia             00 000 000 000:  GT HR Quartz Pressure
 GTTQ.degC              00 000 000 000:  GT Quartz Temperature
 GTTN.NONE              00 000 000 000:  GT Test Number
 GTET.sec               00 000 000 000:  GT Elapsed Test Time
 GTTVD.m                00 000 000 000:  GT True Vertical Depth
#Other Information
#
#WARRANTY: Halliburton will use its best efforts to furnish customers with 
#accurate information and interpretations that are part of, and incident to, the services 
#provided.  However, Halliburton cannot and does not warrant the accuracy 
#or correctness of such information and interpretations.  Under no circumstances should any 
#such information or interpretation be relied upon as the sole basis for any drilling, 
#completion, production, or financial decision or any procedure involving any risk to the 
#safety of any drilling venture, drilling rig or its crew or any other third party.  The 
#Customer has full responsibility for all drilling, completion and production operation.  
#Halliburton makes no representations or warranties, either expressed or 
#implied, including, but not limited to, the implied warranties of merchantability or fitness 
#for a particular purpose, with respect to the services rendered.  In no event will 
#Halliburton be liable for failure to obtain any particular results or for 
#any damages, including, but not limited to, indirect, special or consequential damages, 
#resulting from the use of any information or interpretation provided by Halliburton.
#
~A           TIME           GTDEPTH  GTPQH  GTTQ  GTTN  GTET   GTTVD  
# ...
   03:15:55.096.03-Feb-2020 4017.01 3135.00 62.98 2.00 345.07 3025.96
   03:15:55.296.03-Feb-2020 4017.01 3135.00 62.98 2.00 345.27 3025.96
   03:15:55.496.03-Feb-2020 4017.01 3135.04 62.98 2.00 345.47 3025.96
   03:15:55.696.03-Feb-2020 4017.01 3134.82 62.98 2.00 345.67 3025.96
   03:15:55.896.03-Feb-2020 4017.01 3135.11 62.98 2.00 345.87 3025.96
   03:15:56.096.03-Feb-2020 4017.01 3135.04 62.98 2.00 346.07 3025.96
   03:15:56.296.03-Feb-2020 4017.01 3135.04 62.98 2.00 346.27 3025.96
   03:15:56.496.03-Feb-2020 4017.01 3135.35 62.98 2.00 346.47 3025.96
   03:15:56.696.03-Feb-2020 4017.01 3134.81 62.98 2.00 346.67 3025.96
   03:15:56.896.03-Feb-2020 4017.01 3135.11 62.98 2.00 346.87 3025.96
   03:15:57.096.03-Feb-2020 4017.01 3134.99 62.98 2.00 347.07 3025.96
   03:15:57.296.03-Feb-2020 4017.01 3134.99 62.98 2.00 347.27 3025.96
   03:15:57.496.03-Feb-2020 4017.01 3135.02 62.98 2.00 347.47 3025.96
   03:15:57.696.03-Feb-2020 4017.01 3135.04 62.98 2.00 347.67 3025.96
   03:15:57.896.03-Feb-2020 4017.01 3134.99 62.98 2.00 347.87 3025.96
   03:15:58.096.03-Feb-2020 4017.01 3134.96 62.98 2.00 348.07 3025.96
   03:15:58.296.03-Feb-2020 4017.01 3134.96 62.98 2.00 348.27 3025.96
   03:15:58.497.03-Feb-2020 4017.01 3135.02 62.98 2.00 348.47 3025.96
   03:15:58.697.03-Feb-2020 4017.01 3135.01 62.98 2.00 348.67 3025.96
   03:15:58.897.03-Feb-2020 4017.01 3135.01 62.98 2.00 348.87 3025.96
   03:15:59.097.03-Feb-2020 4017.01 3134.95 62.98 2.00 349.07 3025.96
   03:15:59.297.03-Feb-2020 4017.01 3134.95 62.98 2.00 349.27 3025.96
   03:15:59.497.03-Feb-2020 4017.01 3135.06 62.98 2.00 349.47 3025.96
   03:15:59.697.03-Feb-2020 4017.01 3134.71 62.98 2.00 349.67 3025.96
   03:15:59.897.03-Feb-2020 4017.01 3134.97 62.98 2.00 349.87 3025.96
   03:16:00.097.03-Feb-2020 4017.01 3135.10 62.98 2.00 350.07 3025.96
   03:16:00.297.03-Feb-2020 4017.01 3135.10 62.98 2.00 350.27 3025.96
   03:16:00.497.03-Feb-2020 4017.01 3135.06 62.98 2.00 350.47 3025.96
   03:16:00.697.03-Feb-2020 4017.01 3134.98 62.98 2.00 350.67 3025.96
   03:16:00.897.03-Feb-2020 4017.01 3135.01 62.98 2.00 350.87 3025.96
   03:16:01.097.03-Feb-2020 4017.01 3135.02 62.98 2.00 351.07 3025.96
   03:16:01.297.03-Feb-2020 4017.01 3135.02 62.98 2.00 351.27 3025.96
   03:16:01.497.03-Feb-2020 4017.01 3135.05 62.98 2.00 351.47 3025.96
   03:16:01.697.03-Feb-2020 4017.01 3135.05 62.98 2.00 351.67 3025.96
   03:16:01.897.03-Feb-2020 4017.01 3135.02 62.98 2.00 351.87 3025.96
   03:16:02.097.03-Feb-2020 4017.01 3134.59 62.98 2.00 352.07 3025.96
   03:16:02.297.03-Feb-2020 4017.01 3134.59 62.98 2.00 352.27 3025.96
   03:16:02.497.03-Feb-2020 4017.01 3134.90 62.98 2.00 352.47 3025.96
   03:16:02.697.03-Feb-2020 4017.01 3135.24 62.98 2.00 352.67 3025.96
   03:16:02.897.03-Feb-2020 4017.01 3135.05 62.98 2.00 352.87 3025.96
   03:16:03.097.03-Feb-2020 4017.01 3135.07 62.98 2.00 353.07 3025.96
   03:16:03.298.03-Feb-2020 4017.01 3135.07 62.98 2.00 353.27 3025.96
   03:16:03.498.03-Feb-2020 4017.01 3135.31 62.98 2.00 353.47 3025.96
   03:16:03.698.03-Feb-2020 4017.01 3135.00 62.98 2.00 353.67 3025.96
   03:16:03.898.03-Feb-2020 4017.01 3135.16 62.98 2.00 353.87 3025.96
   03:16:04.098.03-Feb-2020 4017.01 3135.08 62.98 2.00 354.07 3025.96
   03:16:04.298.03-Feb-2020 4017.01 3135.08 62.98 2.00 354.27 3025.96
   03:16:04.498.03-Feb-2020 4017.01 3135.11 62.98 2.00 354.47 3025.96
   03:16:04.698.03-Feb-2020 4017.01 3134.89 62.98 2.00 354.67 3025.96
   03:16:04.898.03-Feb-2020 4017.01 3135.14 62.98 2.00 354.87 3025.96
   03:16:05.098.03-Feb-2020 4017.01 3135.14 62.98 2.00 355.07 3025.96
   03:16:05.298.03-Feb-2020 4017.01 3135.14 62.98 2.00 355.27 3025.96
   03:16:05.498.03-Feb-2020 4017.01 3135.37 62.98 2.00 355.47 3025.96
   03:16:05.698.03-Feb-2020 4017.01 3134.89 62.98 2.00 355.67 3025.96
   03:16:05.898.03-Feb-2020 4017.01 3135.17 62.98 2.00 355.87 3025.96
   03:16:06.098.03-Feb-2020 4017.01 3135.01 62.98 2.00 356.07 3025.96
   03:16:06.298.03-Feb-2020 4017.01 3135.01 62.98 2.00 356.27 3025.96
   03:16:06.498.03-Feb-2020 4017.01 3135.07 62.98 2.00 356.47 3025.96
   03:16:06.698.03-Feb-2020 4017.01 3135.09 62.98 2.00 356.67 3025.96
   03:16:06.898.03-Feb-2020 4017.01 3135.09 62.98 2.00 356.87 3025.96
   03:16:07.098.03-Feb-2020 4017.01 3134.99 62.98 2.00 357.07 3025.96
   03:16:07.298.03-Feb-2020 4017.01 3134.99 62.98 2.00 357.27 3025.96
   03:16:07.498.03-Feb-2020 4017.01 3135.12 62.98 2.00 357.47 3025.96
   03:16:07.698.03-Feb-2020 4017.01 3135.04 62.98 2.00 357.67 3025.96
   03:16:07.898.03-Feb-2020 4017.01 3135.09 62.98 2.00 357.87 3025.96
   03:16:08.099.03-Feb-2020 4017.01 3135.05 62.98 2.00 358.07 3025.96
   03:16:08.299.03-Feb-2020 4017.01 3135.05 62.98 2.00 358.28 3025.96
   03:16:08.499.03-Feb-2020 4017.01 3135.12 62.98 2.00 358.48 3025.96
   03:16:08.699.03-Feb-2020 4017.01 3134.79 62.98 2.00 358.68 3025.96
   03:16:08.899.03-Feb-2020 4017.01 3135.00 62.98 2.00 358.88 3025.96
   03:16:09.099.03-Feb-2020 4017.01 3135.16 62.98 2.00 359.08 3025.96
   03:16:09.299.03-Feb-2020 4017.01 3135.16 62.98 2.00 359.28 3025.96
   03:16:09.499.03-Feb-2020 4017.01 3135.09 62.98 2.00 359.48 3025.96
   03:16:09.699.03-Feb-2020 4017.01 3135.07 62.98 2.00 359.68 3025.96
   03:16:09.899.03-Feb-2020 4017.01 3135.10 62.98 2.00 359.88 3025.96
   03:16:10.099.03-Feb-2020 4017.01 3135.05 62.98 2.00 360.08 3025.96
   03:16:10.299.03-Feb-2020 4017.01 3135.05 62.98 2.00 360.28 3025.96
   03:16:10.499.03-Feb-2020 4017.01 3135.13 62.98 2.00 360.48 3025.96
   03:16:10.699.03-Feb-2020 4017.01 3135.08 62.98 2.00 360.68 3025.96
   03:16:10.899.03-Feb-2020 4017.01 3135.10 62.98 2.00 360.88 3025.96
   03:16:11.099.03-Feb-2020 4017.01 3134.64 62.98 2.00 361.08 3025.96
   03:16:11.299.03-Feb-2020 4017.01 3134.64 62.98 2.00 361.28 3025.96
   03:16:11.499.03-Feb-2020 4017.01 3134.98 62.98 2.00 361.48 3025.96
   03:16:11.699.03-Feb-2020 4017.01 3135.30 62.98 2.00 361.68 3025.96
   03:16:11.899.03-Feb-2020 4017.01 3135.08 62.98 2.00 361.88 3025.96
   03:16:12.099.03-Feb-2020 4017.01 3135.15 62.98 2.00 362.08 3025.96
   03:16:12.299.03-Feb-2020 4017.01 3135.15 62.98 2.00 362.28 3025.96
   03:16:12.499.03-Feb-2020 4017.01 3135.34 62.98 2.00 362.48 3025.96
   03:16:12.699.03-Feb-2020 4017.01 3135.07 62.98 2.00 362.68 3025.96
   03:16:12.900.03-Feb-2020 4017.01 3135.19 62.98 2.00 362.88 3025.96
   03:16:13.100.03-Feb-2020 4017.01 3135.13 62.98 2.00 363.08 3025.96
   03:16:13.300.03-Feb-2020 4017.01 3135.13 62.98 2.00 363.28 3025.96
   03:16:13.500.03-Feb-2020 4017.01 3135.15 62.98 2.00 363.48 3025.96
   03:16:13.700.03-Feb-2020 4017.01 3134.93 62.98 2.00 363.68 3025.96
   03:16:13.900.03-Feb-2020 4017.01 3135.23 62.98 2.00 363.88 3025.96
   03:16:14.100.03-Feb-2020 4017.01 3135.17 62.98 2.00 364.08 3025.96
   03:16:14.300.03-Feb-2020 4017.01 3135.17 62.98 2.00 364.28 3025.96
   03:16:14.500.03-Feb-2020 4017.01 3135.47 62.97 2.00 364.48 3025.96
   03:16:14.700.03-Feb-2020 4017.01 3134.91 62.98 2.00 364.68 3025.96
   03:16:14.900.03-Feb-2020 4017.01 3135.23 62.97 2.00 364.88 3025.96
   03:16:15.100.03-Feb-2020 4017.01 3135.11 62.97 2.00 365.08 3025.96
   03:16:15.300.03-Feb-2020 4017.01 3135.11 62.97 2.00 365.28 3025.96
   03:16:15.500.03-Feb-2020 4017.01 3135.13 62.97 2.00 365.48 3025.96
   03:16:15.700.03-Feb-2020 4017.01 3135.16 62.97 2.00 365.68 3025.96
   03:16:15.900.03-Feb-2020 4017.01 3135.11 62.97 2.00 365.88 3025.96
   03:16:16.100.03-Feb-2020 4017.01 3135.07 62.97 2.00 366.08 3025.96
   03:16:16.300.03-Feb-2020 4017.01 3135.07 62.97 2.00 366.28 3025.96
   03:16:16.500.03-Feb-2020 4017.01 3135.07 62.97 2.00 366.48 3025.96
   03:16:16.700.03-Feb-2020 4017.01 3135.13 62.97 2.00 366.68 3025.96
   03:16:16.900.03-Feb-2020 4017.01 3135.13 62.97 2.00 366.88 3025.96
   03:16:17.100.03-Feb-2020 4017.01 3135.07 62.97 2.00 367.08 3025.96
   03:16:17.300.03-Feb-2020 4017.01 3135.07 62.97 2.00 367.28 3025.96
   03:16:17.500.03-Feb-2020 4017.01 3135.17 62.97 2.00 367.48 3025.96
   03:16:17.701.03-Feb-2020 4017.01 3134.81 62.97 2.00 367.68 3025.96
   03:16:17.901.03-Feb-2020 4017.01 3135.09 62.97 2.00 367.88 3025.96
