~Version Information
 VERS.                  2.0:   CWLS log ASCII Standard -VERSION 2.0
 WRAP.                   NO:   One line per depth step
~Well Information Block
#MNEM.UNIT     VALUE/NAME     DESCRIPTION
#---------     -----------    ---------------------------
 STRT.S             06:42:18 03-Feb-20: START TIME 06:42:18 03-Feb-20
 STOP.S             06:50:14 03-Feb-20: STOP TIME  06:50:14 03-Feb-20
 STEP.S                   0.00: STEP TIME
 NULL.                 -999.25: NULL VALUE
 DFWT.                        :  DIST FWL TEXT
 DFST.                        :  DIST FSL TEXT
 DMF .             Drill Floor:  DRILL MEAS FROM
 STIM.      09.30.00 26-Dec-19:  START TIME
 DATE.      08.00.00 20-Jan-20:  END TIME
 SPUD.               23-Nov-19:  SPUD DATE
 NREF.                    Grid:  NORTH REFERENCE
 HPTY.       Minimum Curvature:  HOLE POS TYPE
 DMOD.             Drill Model:  DRILL MOD DESC
 SVYD.                  Survey:  SURVEY DESC
 ILTD.               Lithology:  INTERP LTH DESC
 FTOP.          Formation Tops:  FORM TOPS DESC
 SON .        AZ-XX-0906192647:  JOB NUMBER
 WTYP.                Deviated:  WELL TYPE
 COMP.     BP Exploration (Caspian Sea) Ltd:  COMPANY
 BASE.              Azerbaijan:  LOGGING EQUIPMENT BASE LOCATION
 REGN.                 Eurasia:  REGION
 FLD .                     ACG:  FIELD NAME
 SRVC.              KCA Deutag:  CONTRACTOR
 MWDS.                    Baku:  MWD SHOP
 WELL.     A10 (Slot 20) - SCP:  WELL NAME
 JOBN.        AZ-XX-0906192647:  JOB TICKET NUMB
 RIG .                 Chirag1:  RIG NAME
 DCON.     Halliburton Sperry Drilling:  DIRECTNL CONTR
 UNIT.                     N/A:  LOGGING EQUIPMENT ID
 PDAT.          Mean Sea Level:  PERMANENT DATUM
 MDS .        Operator Entered:  MAG DATA SOURCE
 CTRY.              Azerbaijan:  COUNTRY NAME
 UWI .            /AZE00000090:  UNIQUE WELL IDENTIFIER
 API .            /AZE00000090:  API NUMBER
 CNTY.                        :  COUNTY
 PROV.                        :  PROVINCE
 STAT.                        :  STATE
 LOC .                        :  LOCATION
 LMF .             Drill Floor:  LOG MEASURED FROM
 TVDS.m                  36.60:  TVDSS CORRECTN
 LATI.deg                40.08:  LATITUDE
 LONG.deg                51.24:  LONGITUDE
 WHNS.m                  -7.94:  WELL HEAD N/S
 WHEW.m                   1.56:  WELL HEAD E/W
 UTMX.m              520429.26:  UTM X
 UTMY.m             4438973.87:  UTM Y
 DFWL.m                   0.00:  DISTANCE FWL
 DFSL.m                   0.00:  DISTANCE FSL
 SDEP.m                1455.00:  START DEPTH
 TDD .m                4047.51:  TOTAL DEPTH (DRILLER)
 VSDR.deg               112.75:  VERT SEC DIRECT
 GVFD.g                   1.00:  GRAVITY FIELD
 MFLD.nT              50261.00:  MAGNETIC FIELD
 MDIP.deg                59.52:  MAGNETIC DIP
 MDEC.deg                 6.42:  MAGNETIC DECL
 GRDC.deg                 0.17:  GRID CORRECTION
 AZTC.deg                 6.25:  AZM TOTAL CORR
 EPD .m                   0.00:  ELEVATION
 EGL .m                   0.00:  GROUND ELEVATION
 WDMS.m                 121.00:  WD ELEV
 APD .m                  36.60:  DEPTH ABOVE PD
 AGAP.m                  36.60:  AIR GAP
 VSEW.m                   1.56:  VERT SEC E/W
 VSNS.m                  -7.94:  VERT SEC N/S
 DEP .m                1140.01:  DEPTH
 EKB .m                  36.60:  KB ELEVATION
 EDF .m                  36.60:  DF ELEVATION
 VSC .                       0:  VS TO CLOSURE
 MAGU.                 1849206:  MAGUTM CHECKSUM
~Parameter Information Block
#MNEM.UNIT       Value        Description
#---------     -----------    ---------------------------
 AV  .mps                 1.70:  Ann Velocity 
 AVMX.mps                 2.30:  Max Ann Veloc 
 AZIF.deg               137.03:  Azm, Final 
 BHAT.                   Other:  BHA Type 
 BROT.°/30m               0.80:  Build Rotating 
 BS  .in                  8.00:  Bit Size 
 BTPL.psig              161.00:  Bit Press Loss 
 CABU.                      No:  Customer Abuse 
 TCS .hr                  9.59:  Time Ciculation Ended 
 CV  .mps                 3.76:  Crit Velocity 
 CVMX.mps                 4.26:  Max Crit Veloc 
 DD1 .         Intigam Rahimov:  Direct Drillr 1 
 DD2 .          Rashad Gojayev:  Direct Drillr 2 
 DDSV.                   Other:  DD Service 
 DEFF.%                 100.00:  % Det Eff 
 DLRX.°/30m               1.44:  Dogleg Rot Max 
 DLSO.°/30m               0.00:  Dogleg Oriented 
 DLSX.°/30m               0.00:  Dogleg Str Max 
 DRET.      03.31.12 02-Feb-20:  Drill End Time 
 DRST.      03.31.12 02-Feb-20:  Drill Start Tim 
 DTIM.hr                  1.99:  Time Drilling 
 EDEP.m                4047.51:  End Depth 
 ENG1.           Eldar Hajiyev:  Engineer 1 
 ENG2.          Rasim Hashimov:  Engineer 2 
 ENG3.          Rustam Safarov:  Engineer 3 
 ETIM.      03.31.12 02-Feb-20:  End Time 
 FLOI.gpm               300.00:  Flow In 
 FLON.gpm               250.00:  Flow In Min 
 FLOS.cptm                0.00:  Fluid Loss 
 FLOX.gpm               330.00:  Flow In Max 
 HFLO.                      No:  High Flow 
 HPRE.                      No:  High Pressure 
 HTEM.                      No:  High Temp 
 HYDO.m                   2.50:  Hydro Offset 
 IFIN.deg                39.54:  Inc, Final 
 IMAX.deg                41.14:  Inc Max 
 IMIN.deg                39.81:  Inc Min 
 IMND.m                4005.21:  Inc Min Depth 
 IMXD.m                3948.42:  Inc Max Depth 
 JARR.                      No:  Jarring 
 LETM.      03.31.12 02-Feb-20:  Log End Time 
 LOST.hr                     0:  Lost Rig Time 
 LSTM.      03.31.12 02-Feb-20:  Log Start Time 
 MDCL.ppm             35000.00:  Mud Chlorides 
 MDES.     Inversion Oil/Synthetic:  Mud Desc 
 DFD .sg                  1.32:  Mud Density 
 MDMN.sg                  1.32:  Dens Mud Min 
 MDMX.sg                  1.32:  Dens Mud Max 
 MOIL.                      59:  Run Mud Oil % 
 MOWR.                   71:29:  Run Mud OWR 
 MSND.                       0:  Run Mud Sand % 
 MSOL.                      17:  Run Mud Solids% 
 DFV .spqt               86.00:  Mud Viscosity 
 MWOD.in                  4.75:  MWD Tool OD 
 MWSI.                      No:  Serv Intrp, MWD 
 OTIM.hr                 46.72:  Time Operating 
 PCON.           Look Like New:  Pad Condition 
 PMAX.psia             3300.00:  Press Op, Max 
 PV  .cP                 30.00:  Mud PV 
 RUN .                     400:  Run Number 
 ROPA.m/hr               35.00:  ROP Avg 
 ROPN.m/hr               25.00:  ROP Min 
 ROPX.m/hr               40.00:  ROP Max 
 RPMA.rpm                80.00:  RPM Surface Avg 
 RPMN.rpm                60.00:  RPM Surface Min 
 RPMX.rpm               100.00:  RPM Surface Max 
 RRUN.                     400:  Rig Run Number 
 RTIM.hr                  1.99:  Time Reaming 
 SAZI.deg               133.93:  Azm, Start 
 SDEP.m                4047.51:  Start Depth 
 SIDD.                      No:  Serv Intrp, DD 
 SINC.deg                40.28:  Inc, Start 
 SPPA.psig             3250.00:  SPP Avg 
 SPPN.psig             3200.00:  SPP Min 
 SPPX.psig             3300.00:  SPP Max 
 STIM.      03.31.12 02-Feb-20:  Start Time 
 SVCS.                 DD, MWD:  Services 
 SVER.                    9.20:  Sperry Version 
 TDAT.m                  47.00:  Tot Depth Attmp 
 TDDF.                      No:  Trip for DD 
 TFF .                      No:  Trip for Fail 
 TQAA.f-kp                0.00:  Torque Abs Avg 
 TQAN.f-kp                0.00:  Torque Abs Min 
 TQAX.f-kp                0.00:  Torque Abs Max 
 TRRT.°/30m               0.70:  Turn Rotating 
 MRT .                    HCIM:  Maximum Recorded Temperature 
 TTMX.degC               70.59:  Max Tool Temp 
 VS01.             90598770F11:  Virtual Str1 SN 
 VS02.             90598769F11:  Virtual Str2 SN 
 VS03.            90515978Z1W1:  Virtual Str3 SN 
 VS04.          90584144R12X14:  Virtual Str4 SN 
 WBMN.klb                 0.00:  WOB Min 
 WITN.            Peter Wilson:  Customer Rep 
 WOBA.klb                 0.00:  WOB Avg 
 WOBX.klb                 0.00:  WOB Max 
 YP  .lhf2               29.00:  Yield Point 
~Curve Information Block
#MNEM.UNIT                 API CODE     Curve Description
#---------               -----------    ---------------------------
 TIME.HHMMSS            00 000 000 000:  GT Time & Date
 GTDEPTH.m              00 000 000 000:  GT Depth
 GTPQH.psia             00 000 000 000:  GT HR Quartz Pressure
 GTTQ.degC              00 000 000 000:  GT Quartz Temperature
 GTTN.NONE              00 000 000 000:  GT Test Number
 GTET.sec               00 000 000 000:  GT Elapsed Test Time
 GTTVD.m                00 000 000 000:  GT True Vertical Depth
#Other Information
#
#WARRANTY: Halliburton will use its best efforts to furnish customers with 
#accurate information and interpretations that are part of, and incident to, the services 
#provided.  However, Halliburton cannot and does not warrant the accuracy 
#or correctness of such information and interpretations.  Under no circumstances should any 
#such information or interpretation be relied upon as the sole basis for any drilling, 
#completion, production, or financial decision or any procedure involving any risk to the 
#safety of any drilling venture, drilling rig or its crew or any other third party.  The 
#Customer has full responsibility for all drilling, completion and production operation.  
#Halliburton makes no representations or warranties, either expressed or 
#implied, including, but not limited to, the implied warranties of merchantability or fitness 
#for a particular purpose, with respect to the services rendered.  In no event will 
#Halliburton be liable for failure to obtain any particular results or for 
#any damages, including, but not limited to, indirect, special or consequential damages, 
#resulting from the use of any information or interpretation provided by Halliburton.
#
~A           TIME           GTDEPTH  GTPQH  GTTQ  GTTN  GTET   GTTVD  
# ...
   06:45:22.000.03-Feb-2020 4003.01 6048.27 64.35 8.00 184.00 3015.22
   06:45:22.200.03-Feb-2020 4003.01 6048.27 64.35 8.00 184.20 3015.22
   06:45:22.400.03-Feb-2020 4003.01 6046.92 64.35 8.00 184.40 3015.22
   06:45:22.600.03-Feb-2020 4003.01 6049.64 64.35 8.00 184.60 3015.22
   06:45:22.800.03-Feb-2020 4003.01 6050.51 64.35 8.00 184.80 3015.22
   06:45:23.000.03-Feb-2020 4003.01 6049.95 64.35 8.00 185.00 3015.22
   06:45:23.200.03-Feb-2020 4003.01 6049.95 64.35 8.00 185.20 3015.22
   06:45:23.400.03-Feb-2020 4003.01 6049.00 64.35 8.00 185.40 3015.22
   06:45:23.600.03-Feb-2020 4003.01 6048.18 64.35 8.00 185.60 3015.22
   06:45:23.800.03-Feb-2020 4003.01 6050.20 64.35 8.00 185.80 3015.22
   06:45:24.000.03-Feb-2020 4003.01 6041.23 64.35 8.00 186.00 3015.22
   06:45:24.200.03-Feb-2020 4003.01 6041.23 64.35 8.00 186.20 3015.22
   06:45:24.400.03-Feb-2020 4003.01 6044.28 64.35 8.00 186.40 3015.22
   06:45:24.600.03-Feb-2020 4003.01 6047.68 64.35 8.00 186.60 3015.22
   06:45:24.800.03-Feb-2020 4003.01 6046.66 64.35 8.00 186.80 3015.22
   06:45:25.000.03-Feb-2020 4003.01 6047.50 64.35 8.00 187.00 3015.22
   06:45:25.200.03-Feb-2020 4003.01 6047.50 64.35 8.00 187.20 3015.22
   06:45:25.400.03-Feb-2020 4003.01 6049.01 64.35 8.00 187.40 3015.22
   06:45:25.600.03-Feb-2020 4003.01 6049.06 64.35 8.00 187.60 3015.22
   06:45:25.800.03-Feb-2020 4003.01 6048.76 64.35 8.00 187.80 3015.22
   06:45:26.000.03-Feb-2020 4003.01 6048.61 64.35 8.00 188.00 3015.22
   06:45:26.200.03-Feb-2020 4003.01 6048.61 64.35 8.00 188.20 3015.22
   06:45:26.400.03-Feb-2020 4003.01 6048.93 64.35 8.00 188.40 3015.22
   06:45:26.600.03-Feb-2020 4003.01 6049.08 64.35 8.00 188.60 3015.22
   06:45:26.800.03-Feb-2020 4003.01 6039.50 64.35 8.00 188.80 3015.22
   06:45:27.000.03-Feb-2020 4003.01 6048.88 64.35 8.00 189.00 3015.22
   06:45:27.200.03-Feb-2020 4003.01 6048.88 64.35 8.00 189.20 3015.22
   06:45:27.400.03-Feb-2020 4003.01 6048.86 64.35 8.00 189.40 3015.22
   06:45:27.600.03-Feb-2020 4003.01 6047.82 64.35 8.00 189.60 3015.22
   06:45:27.800.03-Feb-2020 4003.01 6049.42 64.35 8.00 189.80 3015.22
   06:45:28.000.03-Feb-2020 4003.01 6049.75 64.35 8.00 190.00 3015.22
   06:45:28.200.03-Feb-2020 4003.01 6049.75 64.35 8.00 190.20 3015.22
   06:45:28.400.03-Feb-2020 4003.01 6047.45 64.35 8.00 190.40 3015.22
   06:45:28.600.03-Feb-2020 4003.01 6045.28 64.35 8.00 190.60 3015.22
   06:45:28.800.03-Feb-2020 4003.01 6047.71 64.35 8.00 190.80 3015.22
   06:45:29.000.03-Feb-2020 4003.01 6038.96 64.35 8.00 191.00 3015.22
   06:45:29.200.03-Feb-2020 4003.01 6038.96 64.35 8.00 191.20 3015.22
   06:45:29.400.03-Feb-2020 4003.01 6044.94 64.35 8.00 191.40 3015.22
   06:45:29.600.03-Feb-2020 4003.01 6048.22 64.35 8.00 191.60 3015.22
   06:45:29.800.03-Feb-2020 4003.01 6049.87 64.35 8.00 191.80 3015.22
   06:45:30.000.03-Feb-2020 4003.01 6049.66 64.35 8.00 192.00 3015.22
   06:45:30.200.03-Feb-2020 4003.01 6049.66 64.35 8.00 192.20 3015.22
   06:45:30.400.03-Feb-2020 4003.01 6047.44 64.35 8.00 192.40 3015.22
   06:45:30.600.03-Feb-2020 4003.01 6044.92 64.35 8.00 192.60 3015.22
   06:45:30.800.03-Feb-2020 4003.01 6047.40 64.35 8.00 192.80 3015.22
   06:45:31.000.03-Feb-2020 4003.01 6046.89 64.35 8.00 193.00 3015.22
   06:45:31.200.03-Feb-2020 4003.01 6046.89 64.35 8.00 193.20 3015.22
   06:45:31.400.03-Feb-2020 4003.01 6049.49 64.35 8.00 193.40 3015.22
   06:45:31.600.03-Feb-2020 4003.01 6048.21 64.35 8.00 193.60 3015.22
   06:45:31.800.03-Feb-2020 4003.01 6047.45 64.35 8.00 193.80 3015.22
   06:45:32.000.03-Feb-2020 4003.01 6050.06 64.35 8.00 194.00 3015.22
   06:45:32.200.03-Feb-2020 4003.01 6050.06 64.35 8.00 194.20 3015.22
   06:45:32.400.03-Feb-2020 4003.01 6049.71 64.35 8.00 194.40 3015.22
   06:45:32.600.03-Feb-2020 4003.01 6049.85 64.35 8.00 194.60 3015.22
   06:45:32.800.03-Feb-2020 4003.01 6048.83 64.35 8.00 194.80 3015.22
   06:45:33.000.03-Feb-2020 4003.01 6048.19 64.35 8.00 195.00 3015.22
   06:45:33.200.03-Feb-2020 4003.01 6048.19 64.35 8.00 195.20 3015.22
   06:45:33.400.03-Feb-2020 4003.01 6048.19 64.35 8.00 195.40 3015.22
   06:45:33.600.03-Feb-2020 4003.01 6047.04 64.35 8.00 195.60 3015.22
   06:45:33.800.03-Feb-2020 4003.01 6044.53 64.34 8.00 195.80 3015.22
   06:45:34.000.03-Feb-2020 4003.01 6048.18 64.34 8.00 196.00 3015.22
   06:45:34.200.03-Feb-2020 4003.01 6048.18 64.34 8.00 196.20 3015.22
   06:45:34.400.03-Feb-2020 4003.01 6047.59 64.34 8.00 196.40 3015.22
   06:45:34.600.03-Feb-2020 4003.01 6047.07 64.34 8.00 196.60 3015.22
   06:45:34.800.03-Feb-2020 4003.01 6047.79 64.34 8.00 196.80 3015.22
   06:45:35.000.03-Feb-2020 4003.01 6047.58 64.34 8.00 197.00 3015.22
   06:45:35.200.03-Feb-2020 4003.01 6047.58 64.34 8.00 197.20 3015.22
   06:45:35.400.03-Feb-2020 4003.01 6048.96 64.34 8.00 197.40 3015.22
   06:45:35.600.03-Feb-2020 4003.01 6048.72 64.34 8.00 197.60 3015.22
   06:45:35.800.03-Feb-2020 4003.01 6048.05 64.34 8.00 197.80 3015.22
   06:45:36.000.03-Feb-2020 4003.01 6048.37 64.34 8.00 198.00 3015.22
   06:45:36.200.03-Feb-2020 4003.01 6048.37 64.34 8.00 198.20 3015.22
   06:45:36.400.03-Feb-2020 4003.01 6048.14 64.34 8.00 198.40 3015.22
   06:45:36.600.03-Feb-2020 4003.01 6046.85 64.34 8.00 198.60 3015.22
   06:45:36.800.03-Feb-2020 4003.01 6049.12 64.34 8.00 198.80 3015.22
   06:45:37.000.03-Feb-2020 4003.01 6048.49 64.34 8.00 199.00 3015.22
   06:45:37.200.03-Feb-2020 4003.01 6048.49 64.34 8.00 199.20 3015.22
   06:45:37.400.03-Feb-2020 4003.01 6048.32 64.34 8.00 199.40 3015.22
   06:45:37.600.03-Feb-2020 4003.01 6042.28 64.34 8.00 199.60 3015.22
   06:45:37.800.03-Feb-2020 4003.01 6046.49 64.34 8.00 199.80 3015.22
   06:45:38.000.03-Feb-2020 4003.01 6046.85 64.34 8.00 200.00 3015.22
   06:45:38.200.03-Feb-2020 4003.01 6046.85 64.34 8.00 200.20 3015.22
   06:45:38.400.03-Feb-2020 4003.01 6048.94 64.34 8.00 200.40 3015.22
   06:45:38.600.03-Feb-2020 4003.01 6040.36 64.34 8.00 200.60 3015.22
   06:45:38.800.03-Feb-2020 4003.01 6047.33 64.34 8.00 200.80 3015.22
   06:45:39.000.03-Feb-2020 4003.01 6043.98 64.34 8.00 201.00 3015.22
   06:45:39.200.03-Feb-2020 4003.01 6043.98 64.34 8.00 201.20 3015.22
   06:45:39.400.03-Feb-2020 4003.01 6049.51 64.34 8.00 201.40 3015.22
   06:45:39.600.03-Feb-2020 4003.01 6049.45 64.34 8.00 201.60 3015.22
   06:45:39.800.03-Feb-2020 4003.01 6043.29 64.34 8.00 201.80 3015.22
   06:45:40.000.03-Feb-2020 4003.01 6044.88 64.34 8.00 202.00 3015.22
   06:45:40.200.03-Feb-2020 4003.01 6044.88 64.34 8.00 202.20 3015.22
   06:45:40.400.03-Feb-2020 4003.01 6046.64 64.34 8.00 202.40 3015.22
   06:45:40.600.03-Feb-2020 4003.01 6048.95 64.34 8.00 202.60 3015.22
   06:45:40.800.03-Feb-2020 4003.01 6048.81 64.34 8.00 202.80 3015.22
   06:45:41.000.03-Feb-2020 4003.01 6048.31 64.34 8.00 203.00 3015.22
   06:45:41.200.03-Feb-2020 4003.01 6048.31 64.34 8.00 203.20 3015.22
   06:45:41.400.03-Feb-2020 4003.01 6046.84 64.34 8.00 203.40 3015.22
   06:45:41.600.03-Feb-2020 4003.01 6049.49 64.34 8.00 203.60 3015.22
   06:45:41.800.03-Feb-2020 4003.01 6050.21 64.34 8.00 203.80 3015.22
   06:45:42.000.03-Feb-2020 4003.01 6049.66 64.34 8.00 204.00 3015.22
   06:45:42.200.03-Feb-2020 4003.01 6049.66 64.34 8.00 204.20 3015.22
   06:45:42.400.03-Feb-2020 4003.01 6048.92 64.34 8.00 204.40 3015.22
   06:45:42.600.03-Feb-2020 4003.01 6047.30 64.34 8.00 204.60 3015.22
   06:45:42.800.03-Feb-2020 4003.01 6048.58 64.34 8.00 204.80 3015.22
   06:45:43.000.03-Feb-2020 4003.01 6047.26 64.34 8.00 205.00 3015.22
   06:45:43.200.03-Feb-2020 4003.01 6047.26 64.34 8.00 205.20 3015.22
   06:45:43.400.03-Feb-2020 4003.01 6045.84 64.34 8.00 205.40 3015.22
   06:45:43.600.03-Feb-2020 4003.01 6045.95 64.34 8.00 205.60 3015.22
   06:45:43.800.03-Feb-2020 4003.01 6046.65 64.34 8.00 205.80 3015.22
   06:45:44.000.03-Feb-2020 4003.01 6046.99 64.34 8.00 206.00 3015.22
   06:45:44.200.03-Feb-2020 4003.01 6046.99 64.34 8.00 206.20 3015.22
   06:45:44.400.03-Feb-2020 4003.01 6047.70 64.34 8.00 206.40 3015.22
   06:45:44.600.03-Feb-2020 4003.01 6048.92 64.34 8.00 206.60 3015.22
   06:45:44.800.03-Feb-2020 4003.01 6048.82 64.34 8.00 206.80 3015.22
