~Version Information
 VERS.                  2.0:   CWLS log ASCII Standard -VERSION 2.0
 WRAP.                   NO:   One line per depth step
~Well Information Block
#MNEM.UNIT     VALUE/NAME     DESCRIPTION
#---------     -----------    ---------------------------
 STRT.S             07:08:20 03-Feb-20: START TIME 07:08:20 03-Feb-20
 STOP.S             07:16:05 03-Feb-20: STOP TIME  07:16:05 03-Feb-20
 STEP.S                   0.00: STEP TIME
 NULL.                 -999.25: NULL VALUE
 DFWT.                        :  DIST FWL TEXT
 DFST.                        :  DIST FSL TEXT
 DMF .             Drill Floor:  DRILL MEAS FROM
 STIM.      09.30.00 26-Dec-19:  START TIME
 DATE.      08.00.00 20-Jan-20:  END TIME
 SPUD.               23-Nov-19:  SPUD DATE
 NREF.                    Grid:  NORTH REFERENCE
 HPTY.       Minimum Curvature:  HOLE POS TYPE
 DMOD.             Drill Model:  DRILL MOD DESC
 SVYD.                  Survey:  SURVEY DESC
 ILTD.               Lithology:  INTERP LTH DESC
 FTOP.          Formation Tops:  FORM TOPS DESC
 SON .        AZ-XX-0906192647:  JOB NUMBER
 WTYP.                Deviated:  WELL TYPE
 COMP.     BP Exploration (Caspian Sea) Ltd:  COMPANY
 BASE.              Azerbaijan:  LOGGING EQUIPMENT BASE LOCATION
 REGN.                 Eurasia:  REGION
 FLD .                     ACG:  FIELD NAME
 SRVC.              KCA Deutag:  CONTRACTOR
 MWDS.                    Baku:  MWD SHOP
 WELL.     A10 (Slot 20) - SCP:  WELL NAME
 JOBN.        AZ-XX-0906192647:  JOB TICKET NUMB
 RIG .                 Chirag1:  RIG NAME
 DCON.     Halliburton Sperry Drilling:  DIRECTNL CONTR
 UNIT.                     N/A:  LOGGING EQUIPMENT ID
 PDAT.          Mean Sea Level:  PERMANENT DATUM
 MDS .        Operator Entered:  MAG DATA SOURCE
 CTRY.              Azerbaijan:  COUNTRY NAME
 UWI .            /AZE00000090:  UNIQUE WELL IDENTIFIER
 API .            /AZE00000090:  API NUMBER
 CNTY.                        :  COUNTY
 PROV.                        :  PROVINCE
 STAT.                        :  STATE
 LOC .                        :  LOCATION
 LMF .             Drill Floor:  LOG MEASURED FROM
 TVDS.m                  36.60:  TVDSS CORRECTN
 LATI.deg                40.08:  LATITUDE
 LONG.deg                51.24:  LONGITUDE
 WHNS.m                  -7.94:  WELL HEAD N/S
 WHEW.m                   1.56:  WELL HEAD E/W
 UTMX.m              520429.26:  UTM X
 UTMY.m             4438973.87:  UTM Y
 DFWL.m                   0.00:  DISTANCE FWL
 DFSL.m                   0.00:  DISTANCE FSL
 SDEP.m                1455.00:  START DEPTH
 TDD .m                4047.51:  TOTAL DEPTH (DRILLER)
 VSDR.deg               112.75:  VERT SEC DIRECT
 GVFD.g                   1.00:  GRAVITY FIELD
 MFLD.nT              50261.00:  MAGNETIC FIELD
 MDIP.deg                59.52:  MAGNETIC DIP
 MDEC.deg                 6.42:  MAGNETIC DECL
 GRDC.deg                 0.17:  GRID CORRECTION
 AZTC.deg                 6.25:  AZM TOTAL CORR
 EPD .m                   0.00:  ELEVATION
 EGL .m                   0.00:  GROUND ELEVATION
 WDMS.m                 121.00:  WD ELEV
 APD .m                  36.60:  DEPTH ABOVE PD
 AGAP.m                  36.60:  AIR GAP
 VSEW.m                   1.56:  VERT SEC E/W
 VSNS.m                  -7.94:  VERT SEC N/S
 DEP .m                1140.01:  DEPTH
 EKB .m                  36.60:  KB ELEVATION
 EDF .m                  36.60:  DF ELEVATION
 VSC .                       0:  VS TO CLOSURE
 MAGU.                 1849206:  MAGUTM CHECKSUM
~Parameter Information Block
#MNEM.UNIT       Value        Description
#---------     -----------    ---------------------------
 AV  .mps                 1.70:  Ann Velocity 
 AVMX.mps                 2.30:  Max Ann Veloc 
 AZIF.deg               137.03:  Azm, Final 
 BHAT.                   Other:  BHA Type 
 BROT.°/30m               0.80:  Build Rotating 
 BS  .in                  8.00:  Bit Size 
 BTPL.psig              161.00:  Bit Press Loss 
 CABU.                      No:  Customer Abuse 
 COMM.                     ?\:  Run Comments 1 
 TCS .hr                  9.59:  Time Ciculation Ended 
 CV  .mps                 3.76:  Crit Velocity 
 CVMX.mps                 4.26:  Max Crit Veloc 
 DD1 .         Intigam Rahimov:  Direct Drillr 1 
 DD2 .          Rashad Gojayev:  Direct Drillr 2 
 DDSV.                   Other:  DD Service 
 DEFF.%                 100.00:  % Det Eff 
 DLRX.°/30m               1.44:  Dogleg Rot Max 
 DLSO.°/30m               0.00:  Dogleg Oriented 
 DLSX.°/30m               0.00:  Dogleg Str Max 
 DRET.      03.31.12 02-Feb-20:  Drill End Time 
 DRST.      03.31.12 02-Feb-20:  Drill Start Tim 
 DTIM.hr                  1.99:  Time Drilling 
 EDEP.m                4047.51:  End Depth 
 ENG1.           Eldar Hajiyev:  Engineer 1 
 ENG2.          Rasim Hashimov:  Engineer 2 
 ENG3.          Rustam Safarov:  Engineer 3 
 ETIM.      03.31.12 02-Feb-20:  End Time 
 FLOI.gpm               300.00:  Flow In 
 FLON.gpm               250.00:  Flow In Min 
 FLOS.cptm                0.00:  Fluid Loss 
 FLOX.gpm               330.00:  Flow In Max 
 HFLO.                      No:  High Flow 
 HPRE.                      No:  High Pressure 
 HTEM.                      No:  High Temp 
 HYDO.m                   2.50:  Hydro Offset 
 IFIN.deg                39.54:  Inc, Final 
 IMAX.deg                41.14:  Inc Max 
 IMIN.deg                39.81:  Inc Min 
 IMND.m                4005.21:  Inc Min Depth 
 IMXD.m                3948.42:  Inc Max Depth 
 JARR.                      No:  Jarring 
 LETM.      03.31.12 02-Feb-20:  Log End Time 
 LOST.hr                     0:  Lost Rig Time 
 LSTM.      03.31.12 02-Feb-20:  Log Start Time 
 MDCL.ppm             35000.00:  Mud Chlorides 
 MDES.     Inversion Oil/Synthetic:  Mud Desc 
 DFD .sg                  1.32:  Mud Density 
 MDMN.sg                  1.32:  Dens Mud Min 
 MDMX.sg                  1.32:  Dens Mud Max 
 MOIL.                      59:  Run Mud Oil % 
 MOWR.                   71:29:  Run Mud OWR 
 MSND.                       0:  Run Mud Sand % 
 MSOL.                      17:  Run Mud Solids% 
 DFV .spqt               86.00:  Mud Viscosity 
 MWOD.in                  4.75:  MWD Tool OD 
 MWSI.                      No:  Serv Intrp, MWD 
 OTIM.hr                 46.72:  Time Operating 
 PCON.           Look Like New:  Pad Condition 
 PMAX.psia             3300.00:  Press Op, Max 
 PV  .cP                 30.00:  Mud PV 
 RUN .                     400:  Run Number 
 ROPA.m/hr               35.00:  ROP Avg 
 ROPN.m/hr               25.00:  ROP Min 
 ROPX.m/hr               40.00:  ROP Max 
 RPMA.rpm                80.00:  RPM Surface Avg 
 RPMN.rpm                60.00:  RPM Surface Min 
 RPMX.rpm               100.00:  RPM Surface Max 
 RRUN.                     400:  Rig Run Number 
 RTIM.hr                  1.99:  Time Reaming 
 SAZI.deg               133.93:  Azm, Start 
 SDEP.m                4047.51:  Start Depth 
 SIDD.                      No:  Serv Intrp, DD 
 SINC.deg                40.28:  Inc, Start 
 SPPA.psig             3250.00:  SPP Avg 
 SPPN.psig             3200.00:  SPP Min 
 SPPX.psig             3300.00:  SPP Max 
 STIM.      03.31.12 02-Feb-20:  Start Time 
 SVCS.                 DD, MWD:  Services 
 SVER.                    9.20:  Sperry Version 
 TDAT.m                  47.00:  Tot Depth Attmp 
 TDDF.                      No:  Trip for DD 
 TFF .                      No:  Trip for Fail 
 TQAA.f-kp                0.00:  Torque Abs Avg 
 TQAN.f-kp                0.00:  Torque Abs Min 
 TQAX.f-kp                0.00:  Torque Abs Max 
 TRRT.°/30m               0.70:  Turn Rotating 
 MRT .                    HCIM:  Maximum Recorded Temperature 
 TTMX.degC               70.59:  Max Tool Temp 
 VS01.             90598770F11:  Virtual Str1 SN 
 VS02.             90598769F11:  Virtual Str2 SN 
 VS03.            90515978Z1W1:  Virtual Str3 SN 
 VS04.          90584144R12X14:  Virtual Str4 SN 
 WBMN.klb                 0.00:  WOB Min 
 WITN.            Peter Wilson:  Customer Rep 
 WOBA.klb                 0.00:  WOB Avg 
 WOBX.klb                 0.00:  WOB Max 
 YP  .lhf2               29.00:  Yield Point 
~Curve Information Block
#MNEM.UNIT                 API CODE     Curve Description
#---------               -----------    ---------------------------
 TIME.HHMMSS            00 000 000 000:  GT Time & Date
 GTDEPTH.m              00 000 000 000:  GT Depth
 GTPQH.psia             00 000 000 000:  GT HR Quartz Pressure
 GTTQ.degC              00 000 000 000:  GT Quartz Temperature
 GTTN.NONE              00 000 000 000:  GT Test Number
 GTET.sec               00 000 000 000:  GT Elapsed Test Time
 GTTVD.m                00 000 000 000:  GT True Vertical Depth
#Other Information
#
#WARRANTY: Halliburton will use its best efforts to furnish customers with 
#accurate information and interpretations that are part of, and incident to, the services 
#provided.  However, Halliburton cannot and does not warrant the accuracy 
#or correctness of such information and interpretations.  Under no circumstances should any 
#such information or interpretation be relied upon as the sole basis for any drilling, 
#completion, production, or financial decision or any procedure involving any risk to the 
#safety of any drilling venture, drilling rig or its crew or any other third party.  The 
#Customer has full responsibility for all drilling, completion and production operation.  
#Halliburton makes no representations or warranties, either expressed or 
#implied, including, but not limited to, the implied warranties of merchantability or fitness 
#for a particular purpose, with respect to the services rendered.  In no event will 
#Halliburton be liable for failure to obtain any particular results or for 
#any damages, including, but not limited to, indirect, special or consequential damages, 
#resulting from the use of any information or interpretation provided by Halliburton.
#
~A           TIME           GTDEPTH  GTPQH  GTTQ  GTTN  GTET   GTTVD  
   07:08:20.000.03-Feb-2020 4002.71 6025.75 64.37 9.00   0.00 3014.99
   07:08:20.200.03-Feb-2020 4002.71 6025.75 64.37 9.00   0.20 3014.99
   07:08:20.400.03-Feb-2020 4002.71 6029.56 64.37 9.00   0.40 3014.99
   07:08:20.600.03-Feb-2020 4002.71 6031.15 64.37 9.00   0.60 3014.99
   07:08:20.800.03-Feb-2020 4002.71 6023.46 64.37 9.00   0.80 3014.99
   07:08:21.000.03-Feb-2020 4002.71 6028.65 64.37 9.00   1.00 3014.99
   07:08:21.200.03-Feb-2020 4002.71 6028.65 64.37 9.00   1.20 3014.99
   07:08:21.400.03-Feb-2020 4002.71 6029.51 64.37 9.00   1.40 3014.99
   07:08:21.600.03-Feb-2020 4002.71 6025.15 64.37 9.00   1.60 3014.99
   07:08:21.800.03-Feb-2020 4002.71 6031.45 64.37 9.00   1.80 3014.99
   07:08:22.000.03-Feb-2020 4002.71 6028.87 64.37 9.00   2.00 3014.99
   07:08:22.200.03-Feb-2020 4002.71 6028.87 64.37 9.00   2.20 3014.99
   07:08:22.400.03-Feb-2020 4002.71 6034.51 64.37 9.00   2.40 3014.99
   07:08:22.600.03-Feb-2020 4002.71 6035.20 64.37 9.00   2.60 3014.99
   07:08:22.800.03-Feb-2020 4002.71 6034.57 64.37 9.00   2.80 3014.99
   07:08:23.000.03-Feb-2020 4002.71 6030.46 64.37 9.00   3.00 3014.99
   07:08:23.200.03-Feb-2020 4002.71 6030.46 64.37 9.00   3.20 3014.99
   07:08:23.400.03-Feb-2020 4002.71 6035.61 64.37 9.00   3.40 3014.99
   07:08:23.600.03-Feb-2020 4002.71 6038.24 64.37 9.00   3.60 3014.99
   07:08:23.800.03-Feb-2020 4002.71 6040.06 64.37 9.00   3.80 3014.99
   07:08:24.000.03-Feb-2020 4002.71 6036.04 64.37 9.00   4.00 3014.99
   07:08:24.200.03-Feb-2020 4002.71 6036.04 64.37 9.00   4.20 3014.99
   07:08:24.400.03-Feb-2020 4002.71 6034.21 64.37 9.00   4.40 3014.99
   07:08:24.600.03-Feb-2020 4002.71 6039.67 64.37 9.00   4.60 3014.99
   07:08:24.800.03-Feb-2020 4002.71 6035.47 64.37 9.00   4.80 3014.99
   07:08:25.000.03-Feb-2020 4002.71 6033.68 64.37 9.00   5.00 3014.99
   07:08:25.200.03-Feb-2020 4002.71 6033.68 64.37 9.00   5.20 3014.99
   07:08:25.400.03-Feb-2020 4002.71 6035.36 64.37 9.00   5.40 3014.99
   07:08:25.600.03-Feb-2020 4002.71 6034.25 64.37 9.00   5.60 3014.99
   07:08:25.800.03-Feb-2020 4002.71 6036.41 64.37 9.00   5.80 3014.99
   07:08:26.000.03-Feb-2020 4002.71 6037.26 64.37 9.00   6.00 3014.99
   07:08:26.200.03-Feb-2020 4002.71 6037.26 64.37 9.00   6.20 3014.99
   07:08:26.400.03-Feb-2020 4002.71 6033.31 64.37 9.00   6.40 3014.99
   07:08:26.600.03-Feb-2020 4002.71 6029.74 64.37 9.00   6.60 3014.99
   07:08:26.800.03-Feb-2020 4002.71 6031.18 64.37 9.00   6.80 3014.99
   07:08:27.000.03-Feb-2020 4002.71 6033.51 64.37 9.00   7.00 3014.99
   07:08:27.200.03-Feb-2020 4002.71 6033.51 64.37 9.00   7.20 3014.99
   07:08:27.400.03-Feb-2020 4002.71 6034.33 64.37 9.00   7.40 3014.99
   07:08:27.600.03-Feb-2020 4002.71 6032.58 64.36 9.00   7.60 3014.99
   07:08:27.800.03-Feb-2020 4002.71 6034.58 64.36 9.00   7.80 3014.99
   07:08:28.000.03-Feb-2020 4002.71 6036.07 64.36 9.00   8.00 3014.99
   07:08:28.200.03-Feb-2020 4002.71 6036.07 64.36 9.00   8.20 3014.99
   07:08:28.400.03-Feb-2020 4002.71 6036.20 64.36 9.00   8.40 3014.99
   07:08:28.600.03-Feb-2020 4002.71 6036.16 64.36 9.00   8.60 3014.99
   07:08:28.800.03-Feb-2020 4002.71 6036.94 64.36 9.00   8.80 3014.99
   07:08:29.000.03-Feb-2020 4002.71 6036.57 64.36 9.00   9.00 3014.99
   07:08:29.200.03-Feb-2020 4002.71 6036.57 64.36 9.00   9.20 3014.99
   07:08:29.400.03-Feb-2020 4002.71 6032.46 64.36 9.00   9.40 3014.99
   07:08:29.600.03-Feb-2020 4002.71 6036.70 64.36 9.00   9.60 3014.99
   07:08:29.800.03-Feb-2020 4002.71 6034.56 64.36 9.00   9.80 3014.99
   07:08:30.000.03-Feb-2020 4002.71 6039.80 64.36 9.00  10.00 3014.99
   07:08:30.200.03-Feb-2020 4002.71 6039.80 64.36 9.00  10.20 3014.99
   07:08:30.400.03-Feb-2020 4002.71 6039.64 64.36 9.00  10.40 3014.99
   07:08:30.600.03-Feb-2020 4002.71 6039.12 64.36 9.00  10.60 3014.99
   07:08:30.800.03-Feb-2020 4002.71 6038.65 64.36 9.00  10.80 3014.99
   07:08:31.000.03-Feb-2020 4002.71 6038.56 64.36 9.00  11.00 3014.99
   07:08:31.200.03-Feb-2020 4002.71 6038.56 64.36 9.00  11.20 3014.99
   07:08:31.400.03-Feb-2020 4002.71 6039.59 64.36 9.00  11.40 3014.99
   07:08:31.600.03-Feb-2020 4002.71 6039.48 64.36 9.00  11.60 3014.99
   07:08:31.800.03-Feb-2020 4002.71 6038.88 64.36 9.00  11.80 3014.99
   07:08:32.000.03-Feb-2020 4002.71 6039.10 64.36 9.00  12.00 3014.99
   07:08:32.200.03-Feb-2020 4002.71 6039.10 64.36 9.00  12.20 3014.99
   07:08:32.400.03-Feb-2020 4002.71 6039.10 64.36 9.00  12.40 3014.99
   07:08:32.600.03-Feb-2020 4002.71 6040.23 64.36 9.00  12.60 3014.99
   07:08:32.800.03-Feb-2020 4002.71 6039.66 64.36 9.00  12.80 3014.99
   07:08:33.000.03-Feb-2020 4002.71 6039.07 64.36 9.00  13.00 3014.99
   07:08:33.200.03-Feb-2020 4002.71 6039.07 64.36 9.00  13.20 3014.99
   07:08:33.400.03-Feb-2020 4002.71 6039.07 64.36 9.00  13.40 3014.99
   07:08:33.600.03-Feb-2020 4002.71 6035.39 64.36 9.00  13.60 3014.99
   07:08:33.800.03-Feb-2020 4002.71 6037.38 64.36 9.00  13.80 3014.99
   07:08:34.000.03-Feb-2020 4002.71 6037.83 64.36 9.00  14.00 3014.99
   07:08:34.200.03-Feb-2020 4002.71 6037.83 64.36 9.00  14.20 3014.99
   07:08:34.400.03-Feb-2020 4002.71 6036.35 64.36 9.00  14.40 3014.99
   07:08:34.600.03-Feb-2020 4002.71 6034.65 64.36 9.00  14.60 3014.99
   07:08:34.800.03-Feb-2020 4002.71 6038.65 64.36 9.00  14.80 3014.99
   07:08:35.000.03-Feb-2020 4002.71 6030.91 64.36 9.00  15.00 3014.99
   07:08:35.200.03-Feb-2020 4002.71 6030.91 64.36 9.00  15.20 3014.99
   07:08:35.400.03-Feb-2020 4002.71 6034.50 64.36 9.00  15.40 3014.99
   07:08:35.600.03-Feb-2020 4002.71 6038.58 64.36 9.00  15.60 3014.99
   07:08:35.800.03-Feb-2020 4002.71 6033.74 64.36 9.00  15.80 3014.99
   07:08:36.000.03-Feb-2020 4002.71 6032.67 64.36 9.00  16.00 3014.99
   07:08:36.200.03-Feb-2020 4002.71 6032.67 64.36 9.00  16.20 3014.99
   07:08:36.400.03-Feb-2020 4002.71 6039.01 64.36 9.00  16.40 3014.99
   07:08:36.600.03-Feb-2020 4002.71 6039.12 64.36 9.00  16.60 3014.99
   07:08:36.800.03-Feb-2020 4002.71 6039.92 64.35 9.00  16.80 3014.99
   07:08:37.000.03-Feb-2020 4002.71 6031.27 64.35 9.00  17.00 3014.99
   07:08:37.200.03-Feb-2020 4002.71 6031.27 64.35 9.00  17.20 3014.99
   07:08:37.400.03-Feb-2020 4002.71 6062.37 64.35 9.00  17.40 3014.99
   07:08:37.600.03-Feb-2020 4002.71 6120.89 64.35 9.00  17.60 3014.99
   07:08:37.800.03-Feb-2020 4002.71 6165.92 64.35 9.00  17.80 3014.99
   07:08:38.000.03-Feb-2020 4002.71 6271.23 64.35 9.00  18.00 3014.99
   07:08:38.200.03-Feb-2020 4002.71 6271.23 64.35 9.00  18.20 3014.99
   07:08:38.400.03-Feb-2020 4002.71 6792.89 64.35 9.00  18.40 3014.99
   07:08:38.600.03-Feb-2020 4002.71 6861.08 64.35 9.00  18.60 3014.99
   07:08:38.800.03-Feb-2020 4002.71 6884.40 64.35 9.00  18.80 3014.99
   07:08:39.000.03-Feb-2020 4002.71 6888.18 64.35 9.00  19.00 3014.99
   07:08:39.200.03-Feb-2020 4002.71 6888.18 64.35 9.00  19.20 3014.99
   07:08:39.400.03-Feb-2020 4002.71 6862.01 64.35 9.00  19.40 3014.99
   07:08:39.600.03-Feb-2020 4002.71 6886.02 64.35 9.00  19.60 3014.99
   07:08:39.800.03-Feb-2020 4002.71 6728.80 64.35 9.00  19.80 3014.99
   07:08:40.000.03-Feb-2020 4002.71 6845.32 64.35 9.00  20.00 3014.99
   07:08:40.200.03-Feb-2020 4002.71 6845.32 64.35 9.00  20.20 3014.99
   07:08:40.400.03-Feb-2020 4002.71 6857.33 64.35 9.00  20.40 3014.99
   07:08:40.600.03-Feb-2020 4002.71 6777.58 64.35 9.00  20.60 3014.99
   07:08:40.800.03-Feb-2020 4002.71 6748.74 64.35 9.00  20.80 3014.99
   07:08:41.000.03-Feb-2020 4002.71 6800.35 64.35 9.00  21.00 3014.99
   07:08:41.200.03-Feb-2020 4002.71 6800.35 64.35 9.00  21.20 3014.99
   07:08:41.400.03-Feb-2020 4002.71 6885.50 64.35 9.00  21.40 3014.99
   07:08:41.600.03-Feb-2020 4002.71 6917.74 64.35 9.00  21.60 3014.99
   07:08:41.800.03-Feb-2020 4002.71 6963.96 64.35 9.00  21.80 3014.99
   07:08:42.000.03-Feb-2020 4002.71 6979.50 64.35 9.00  22.00 3014.99
   07:08:42.200.03-Feb-2020 4002.71 6979.50 64.35 9.00  22.20 3014.99
   07:08:42.400.03-Feb-2020 4002.71 7008.04 64.35 9.00  22.40 3014.99
   07:08:42.600.03-Feb-2020 4002.71 7023.58 64.35 9.00  22.60 3014.99
   07:08:42.800.03-Feb-2020 4002.71 7030.79 64.35 9.00  22.80 3014.99
