~Version Information
 VERS.                  2.0:   CWLS log ASCII Standard -VERSION 2.0
 WRAP.                   NO:   One line per depth step
~Well Information Block
#MNEM.UNIT     VALUE/NAME     DESCRIPTION
#---------     -----------    ---------------------------
 STRT.S             02:50:23 03-Feb-20: START TIME 02:50:23 03-Feb-20
 STOP.S             02:58:14 03-Feb-20: STOP TIME  02:58:14 03-Feb-20
 STEP.S                   0.00: STEP TIME
 NULL.                 -999.25: NULL VALUE
 DFWT.                        :  DIST FWL TEXT
 DFST.                        :  DIST FSL TEXT
 DMF .             Drill Floor:  DRILL MEAS FROM
 STIM.      09.30.00 26-Dec-19:  START TIME
 DATE.      08.00.00 20-Jan-20:  END TIME
 SPUD.               23-Nov-19:  SPUD DATE
 NREF.                    Grid:  NORTH REFERENCE
 HPTY.       Minimum Curvature:  HOLE POS TYPE
 DMOD.             Drill Model:  DRILL MOD DESC
 SVYD.                  Survey:  SURVEY DESC
 ILTD.               Lithology:  INTERP LTH DESC
 FTOP.          Formation Tops:  FORM TOPS DESC
 SON .        AZ-XX-0906192647:  JOB NUMBER
 WTYP.                Deviated:  WELL TYPE
 COMP.     BP Exploration (Caspian Sea) Ltd:  COMPANY
 BASE.              Azerbaijan:  LOGGING EQUIPMENT BASE LOCATION
 REGN.                 Eurasia:  REGION
 FLD .                     ACG:  FIELD NAME
 SRVC.              KCA Deutag:  CONTRACTOR
 MWDS.                    Baku:  MWD SHOP
 WELL.     A10 (Slot 20) - SCP:  WELL NAME
 JOBN.        AZ-XX-0906192647:  JOB TICKET NUMB
 RIG .                 Chirag1:  RIG NAME
 DCON.     Halliburton Sperry Drilling:  DIRECTNL CONTR
 UNIT.                     N/A:  LOGGING EQUIPMENT ID
 PDAT.          Mean Sea Level:  PERMANENT DATUM
 MDS .        Operator Entered:  MAG DATA SOURCE
 CTRY.              Azerbaijan:  COUNTRY NAME
 UWI .            /AZE00000090:  UNIQUE WELL IDENTIFIER
 API .            /AZE00000090:  API NUMBER
 CNTY.                        :  COUNTY
 PROV.                        :  PROVINCE
 STAT.                        :  STATE
 LOC .                        :  LOCATION
 LMF .             Drill Floor:  LOG MEASURED FROM
 TVDS.m                  36.60:  TVDSS CORRECTN
 LATI.deg                40.08:  LATITUDE
 LONG.deg                51.24:  LONGITUDE
 WHNS.m                  -7.94:  WELL HEAD N/S
 WHEW.m                   1.56:  WELL HEAD E/W
 UTMX.m              520429.26:  UTM X
 UTMY.m             4438973.87:  UTM Y
 DFWL.m                   0.00:  DISTANCE FWL
 DFSL.m                   0.00:  DISTANCE FSL
 SDEP.m                1455.00:  START DEPTH
 TDD .m                4047.51:  TOTAL DEPTH (DRILLER)
 VSDR.deg               112.75:  VERT SEC DIRECT
 GVFD.g                   1.00:  GRAVITY FIELD
 MFLD.nT              50261.00:  MAGNETIC FIELD
 MDIP.deg                59.52:  MAGNETIC DIP
 MDEC.deg                 6.42:  MAGNETIC DECL
 GRDC.deg                 0.17:  GRID CORRECTION
 AZTC.deg                 6.25:  AZM TOTAL CORR
 EPD .m                   0.00:  ELEVATION
 EGL .m                   0.00:  GROUND ELEVATION
 WDMS.m                 121.00:  WD ELEV
 APD .m                  36.60:  DEPTH ABOVE PD
 AGAP.m                  36.60:  AIR GAP
 VSEW.m                   1.56:  VERT SEC E/W
 VSNS.m                  -7.94:  VERT SEC N/S
 DEP .m                1140.01:  DEPTH
 EKB .m                  36.60:  KB ELEVATION
 EDF .m                  36.60:  DF ELEVATION
 VSC .                       0:  VS TO CLOSURE
 MAGU.                 1849206:  MAGUTM CHECKSUM
~Parameter Information Block
#MNEM.UNIT       Value        Description
#---------     -----------    ---------------------------
 AV  .mps                 1.70:  Ann Velocity 
 AVMX.mps                 2.30:  Max Ann Veloc 
 AZIF.deg               137.03:  Azm, Final 
 BHAT.                   Other:  BHA Type 
 BROT.°/30m               0.80:  Build Rotating 
 BS  .in                  8.00:  Bit Size 
 BTPL.psig              161.00:  Bit Press Loss 
 CABU.                      No:  Customer Abuse 
 COMM.                     ´Î`:  Run Comments 1 
 TCS .hr                  9.59:  Time Ciculation Ended 
 CV  .mps                 3.76:  Crit Velocity 
 CVMX.mps                 4.26:  Max Crit Veloc 
 DD1 .         Intigam Rahimov:  Direct Drillr 1 
 DD2 .          Rashad Gojayev:  Direct Drillr 2 
 DDSV.                   Other:  DD Service 
 DEFF.%                 100.00:  % Det Eff 
 DLRX.°/30m               1.44:  Dogleg Rot Max 
 DLSO.°/30m               0.00:  Dogleg Oriented 
 DLSX.°/30m               0.00:  Dogleg Str Max 
 DRET.      03.31.12 02-Feb-20:  Drill End Time 
 DRST.      03.31.12 02-Feb-20:  Drill Start Tim 
 DTIM.hr                  1.99:  Time Drilling 
 EDEP.m                4047.51:  End Depth 
 ENG1.           Eldar Hajiyev:  Engineer 1 
 ENG2.          Rasim Hashimov:  Engineer 2 
 ENG3.          Rustam Safarov:  Engineer 3 
 ETIM.      03.31.12 02-Feb-20:  End Time 
 FLOI.gpm               300.00:  Flow In 
 FLON.gpm               250.00:  Flow In Min 
 FLOS.cptm                0.00:  Fluid Loss 
 FLOX.gpm               330.00:  Flow In Max 
 HFLO.                      No:  High Flow 
 HPRE.                      No:  High Pressure 
 HTEM.                      No:  High Temp 
 HYDO.m                   2.50:  Hydro Offset 
 IFIN.deg                39.54:  Inc, Final 
 IMAX.deg                41.14:  Inc Max 
 IMIN.deg                39.81:  Inc Min 
 IMND.m                4005.21:  Inc Min Depth 
 IMXD.m                3948.42:  Inc Max Depth 
 JARR.                      No:  Jarring 
 LETM.      03.31.12 02-Feb-20:  Log End Time 
 LOST.hr                     0:  Lost Rig Time 
 LSTM.      03.31.12 02-Feb-20:  Log Start Time 
 MDCL.ppm             35000.00:  Mud Chlorides 
 MDES.     Inversion Oil/Synthetic:  Mud Desc 
 DFD .sg                  1.32:  Mud Density 
 MDMN.sg                  1.32:  Dens Mud Min 
 MDMX.sg                  1.32:  Dens Mud Max 
 MOIL.                      59:  Run Mud Oil % 
 MOWR.                   71:29:  Run Mud OWR 
 MSND.                       0:  Run Mud Sand % 
 MSOL.                      17:  Run Mud Solids% 
 DFV .spqt               86.00:  Mud Viscosity 
 MWOD.in                  4.75:  MWD Tool OD 
 MWSI.                      No:  Serv Intrp, MWD 
 OTIM.hr                 46.72:  Time Operating 
 PCON.           Look Like New:  Pad Condition 
 PMAX.psia             3300.00:  Press Op, Max 
 PV  .cP                 30.00:  Mud PV 
 RUN .                     400:  Run Number 
 ROPA.m/hr               35.00:  ROP Avg 
 ROPN.m/hr               25.00:  ROP Min 
 ROPX.m/hr               40.00:  ROP Max 
 RPMA.rpm                80.00:  RPM Surface Avg 
 RPMN.rpm                60.00:  RPM Surface Min 
 RPMX.rpm               100.00:  RPM Surface Max 
 RRUN.                     400:  Rig Run Number 
 RTIM.hr                  1.99:  Time Reaming 
 SAZI.deg               133.93:  Azm, Start 
 SDEP.m                4047.51:  Start Depth 
 SIDD.                      No:  Serv Intrp, DD 
 SINC.deg                40.28:  Inc, Start 
 SPPA.psig             3250.00:  SPP Avg 
 SPPN.psig             3200.00:  SPP Min 
 SPPX.psig             3300.00:  SPP Max 
 STIM.      03.31.12 02-Feb-20:  Start Time 
 SVCS.                 DD, MWD:  Services 
 SVER.                    9.20:  Sperry Version 
 TDAT.m                  47.00:  Tot Depth Attmp 
 TDDF.                      No:  Trip for DD 
 TFF .                      No:  Trip for Fail 
 TQAA.f-kp                0.00:  Torque Abs Avg 
 TQAN.f-kp                0.00:  Torque Abs Min 
 TQAX.f-kp                0.00:  Torque Abs Max 
 TRRT.°/30m               0.70:  Turn Rotating 
 MRT .                    HCIM:  Maximum Recorded Temperature 
 TTMX.degC               70.59:  Max Tool Temp 
 VS01.             90598770F11:  Virtual Str1 SN 
 VS02.             90598769F11:  Virtual Str2 SN 
 VS03.            90515978Z1W1:  Virtual Str3 SN 
 VS04.          90584144R12X14:  Virtual Str4 SN 
 WBMN.klb                 0.00:  WOB Min 
 WITN.            Peter Wilson:  Customer Rep 
 WOBA.klb                 0.00:  WOB Avg 
 WOBX.klb                 0.00:  WOB Max 
 YP  .lhf2               29.00:  Yield Point 
~Curve Information Block
#MNEM.UNIT                 API CODE     Curve Description
#---------               -----------    ---------------------------
 TIME.HHMMSS            00 000 000 000:  GT Time & Date
 GTDEPTH.m              00 000 000 000:  GT Depth
 GTPQH.psia             00 000 000 000:  GT HR Quartz Pressure
 GTTQ.degC              00 000 000 000:  GT Quartz Temperature
 GTTN.NONE              00 000 000 000:  GT Test Number
 GTET.sec               00 000 000 000:  GT Elapsed Test Time
 GTTVD.m                00 000 000 000:  GT True Vertical Depth
#Other Information
#
#WARRANTY: Halliburton will use its best efforts to furnish customers with 
#accurate information and interpretations that are part of, and incident to, the services 
#provided.  However, Halliburton cannot and does not warrant the accuracy 
#or correctness of such information and interpretations.  Under no circumstances should any 
#such information or interpretation be relied upon as the sole basis for any drilling, 
#completion, production, or financial decision or any procedure involving any risk to the 
#safety of any drilling venture, drilling rig or its crew or any other third party.  The 
#Customer has full responsibility for all drilling, completion and production operation.  
#Halliburton makes no representations or warranties, either expressed or 
#implied, including, but not limited to, the implied warranties of merchantability or fitness 
#for a particular purpose, with respect to the services rendered.  In no event will 
#Halliburton be liable for failure to obtain any particular results or for 
#any damages, including, but not limited to, indirect, special or consequential damages, 
#resulting from the use of any information or interpretation provided by Halliburton.
#
~A           TIME           GTDEPTH  GTPQH  GTTQ  GTTN  GTET   GTTVD  
# ...
   02:50:46.780.03-Feb-2020 4022.51 6966.23 64.67 1.00  23.00 3030.18
   02:50:46.980.03-Feb-2020 4022.51 6966.23 64.67 1.00  23.20 3030.18
   02:50:47.180.03-Feb-2020 4022.51 6970.62 64.67 1.00  23.40 3030.18
   02:50:47.380.03-Feb-2020 4022.51 6972.62 64.67 1.00  23.60 3030.18
   02:50:47.580.03-Feb-2020 4022.51 6975.41 64.67 1.00  23.80 3030.18
   02:50:47.780.03-Feb-2020 4022.51 6933.03 64.67 1.00  24.01 3030.18
   02:50:47.980.03-Feb-2020 4022.51 6933.03 64.67 1.00  24.21 3030.18
   02:50:48.180.03-Feb-2020 4022.51 5811.44 64.66 1.00  24.41 3030.18
   02:50:48.380.03-Feb-2020 4022.51 5543.12 64.66 1.00  24.61 3030.18
   02:50:48.580.03-Feb-2020 4022.51 5212.92 64.66 1.00  24.81 3030.18
   02:50:48.780.03-Feb-2020 4022.51 4873.13 64.66 1.00  25.01 3030.18
   02:50:48.980.03-Feb-2020 4022.51 4873.13 64.66 1.00  25.21 3030.18
   02:50:49.180.03-Feb-2020 4022.51 4017.86 64.66 1.00  25.41 3030.18
   02:50:49.380.03-Feb-2020 4022.51 3592.33 64.66 1.00  25.61 3030.18
   02:50:49.580.03-Feb-2020 4022.51 3221.25 64.66 1.00  25.81 3030.18
   02:50:49.781.03-Feb-2020 4022.51 3022.74 64.66 1.00  26.01 3030.18
   02:50:49.981.03-Feb-2020 4022.51 3022.74 64.66 1.00  26.21 3030.18
   02:50:50.181.03-Feb-2020 4022.51 3029.09 64.66 1.00  26.41 3030.18
   02:50:50.381.03-Feb-2020 4022.51 3040.72 64.66 1.00  26.61 3030.18
   02:50:50.581.03-Feb-2020 4022.51 3038.29 64.66 1.00  26.81 3030.18
   02:50:50.781.03-Feb-2020 4022.51 3039.78 64.66 1.00  27.01 3030.18
   02:50:50.981.03-Feb-2020 4022.51 3039.78 64.66 1.00  27.21 3030.18
   02:50:51.181.03-Feb-2020 4022.51 3056.84 64.66 1.00  27.41 3030.18
   02:50:51.381.03-Feb-2020 4022.51 3032.58 64.65 1.00  27.61 3030.18
   02:50:51.581.03-Feb-2020 4022.51 3053.27 64.65 1.00  27.81 3030.18
   02:50:51.781.03-Feb-2020 4022.51 3094.05 64.65 1.00  28.01 3030.18
   02:50:51.981.03-Feb-2020 4022.51 3094.05 64.65 1.00  28.21 3030.18
   02:50:52.181.03-Feb-2020 4022.51 3110.14 64.65 1.00  28.41 3030.18
   02:50:52.381.03-Feb-2020 4022.51 3069.73 64.65 1.00  28.61 3030.18
   02:50:52.581.03-Feb-2020 4022.51 3037.10 64.65 1.00  28.81 3030.18
   02:50:52.781.03-Feb-2020 4022.51 3028.34 64.65 1.00  29.01 3030.18
   02:50:52.981.03-Feb-2020 4022.51 3028.34 64.65 1.00  29.21 3030.18
   02:50:53.181.03-Feb-2020 4022.51 3017.83 64.64 1.00  29.41 3030.18
   02:50:53.381.03-Feb-2020 4022.51 3013.77 64.64 1.00  29.61 3030.18
   02:50:53.581.03-Feb-2020 4022.51 3009.80 64.64 1.00  29.81 3030.18
   02:50:53.781.03-Feb-2020 4022.51 3007.09 64.64 1.00  30.01 3030.18
   02:50:53.981.03-Feb-2020 4022.51 3007.09 64.64 1.00  30.21 3030.18
   02:50:54.181.03-Feb-2020 4022.51 3003.53 64.64 1.00  30.41 3030.18
   02:50:54.381.03-Feb-2020 4022.51 3001.06 64.63 1.00  30.61 3030.18
   02:50:54.582.03-Feb-2020 4022.51 2998.48 64.63 1.00  30.81 3030.18
   02:50:54.782.03-Feb-2020 4022.51 2998.79 64.63 1.00  31.01 3030.18
   02:50:54.982.03-Feb-2020 4022.51 2998.79 64.63 1.00  31.21 3030.18
   02:50:55.182.03-Feb-2020 4022.51 2994.14 64.63 1.00  31.41 3030.18
   02:50:55.382.03-Feb-2020 4022.51 2995.72 64.63 1.00  31.61 3030.18
   02:50:55.582.03-Feb-2020 4022.51 2993.95 64.63 1.00  31.81 3030.18
   02:50:55.782.03-Feb-2020 4022.51 2994.29 64.62 1.00  32.01 3030.18
   02:50:55.982.03-Feb-2020 4022.51 2994.29 64.62 1.00  32.21 3030.18
   02:50:56.182.03-Feb-2020 4022.51 2991.42 64.62 1.00  32.41 3030.18
   02:50:56.382.03-Feb-2020 4022.51 2990.01 64.62 1.00  32.61 3030.18
   02:50:56.582.03-Feb-2020 4022.51 2990.25 64.62 1.00  32.81 3030.18
   02:50:56.782.03-Feb-2020 4022.51 2988.11 64.62 1.00  33.01 3030.18
   02:50:56.982.03-Feb-2020 4022.51 2988.11 64.62 1.00  33.21 3030.18
   02:50:57.182.03-Feb-2020 4022.51 2989.19 64.62 1.00  33.41 3030.18
   02:50:57.382.03-Feb-2020 4022.51 3024.24 64.61 1.00  33.61 3030.18
   02:50:57.582.03-Feb-2020 4022.51 3131.08 64.61 1.00  33.81 3030.18
   02:50:57.782.03-Feb-2020 4022.51 3145.84 64.61 1.00  34.01 3030.18
   02:50:57.982.03-Feb-2020 4022.51 3145.84 64.61 1.00  34.21 3030.18
   02:50:58.182.03-Feb-2020 4022.51 3152.66 64.61 1.00  34.41 3030.18
   02:50:58.382.03-Feb-2020 4022.51 3153.15 64.61 1.00  34.61 3030.18
   02:50:58.582.03-Feb-2020 4022.51 3153.39 64.61 1.00  34.81 3030.18
   02:50:58.782.03-Feb-2020 4022.51 3153.09 64.61 1.00  35.01 3030.18
   02:50:58.982.03-Feb-2020 4022.51 3153.09 64.61 1.00  35.21 3030.18
   02:50:59.182.03-Feb-2020 4022.51 3154.91 64.60 1.00  35.41 3030.18
   02:50:59.383.03-Feb-2020 4022.51 3155.73 64.60 1.00  35.61 3030.18
   02:50:59.583.03-Feb-2020 4022.51 3155.82 64.60 1.00  35.81 3030.18
   02:50:59.783.03-Feb-2020 4022.51 3155.90 64.60 1.00  36.01 3030.18
   02:50:59.983.03-Feb-2020 4022.51 3155.90 64.60 1.00  36.21 3030.18
   02:51:00.183.03-Feb-2020 4022.51 3156.27 64.60 1.00  36.41 3030.18
   02:51:00.383.03-Feb-2020 4022.51 3156.32 64.60 1.00  36.61 3030.18
   02:51:00.583.03-Feb-2020 4022.51 3156.63 64.60 1.00  36.81 3030.18
   02:51:00.783.03-Feb-2020 4022.51 3156.87 64.60 1.00  37.01 3030.18
   02:51:00.983.03-Feb-2020 4022.51 3156.76 64.60 1.00  37.21 3030.18
   02:51:01.183.03-Feb-2020 4022.51 3156.87 64.60 1.00  37.41 3030.18
   02:51:01.383.03-Feb-2020 4022.51 3156.99 64.60 1.00  37.61 3030.18
   02:51:01.583.03-Feb-2020 4022.51 3156.99 64.59 1.00  37.81 3030.18
   02:51:01.783.03-Feb-2020 4022.51 3157.30 64.59 1.00  38.01 3030.18
   02:51:01.983.03-Feb-2020 4022.51 3157.30 64.59 1.00  38.21 3030.18
   02:51:02.183.03-Feb-2020 4022.51 3157.86 64.59 1.00  38.41 3030.18
   02:51:02.383.03-Feb-2020 4022.51 3156.88 64.59 1.00  38.61 3030.18
   02:51:02.583.03-Feb-2020 4022.51 3157.54 64.59 1.00  38.81 3030.18
   02:51:02.783.03-Feb-2020 4022.51 3157.32 64.59 1.00  39.01 3030.18
   02:51:02.983.03-Feb-2020 4022.51 3157.32 64.59 1.00  39.21 3030.18
   02:51:03.183.03-Feb-2020 4022.51 3157.51 64.59 1.00  39.41 3030.18
   02:51:03.383.03-Feb-2020 4022.51 3157.57 64.59 1.00  39.61 3030.18
   02:51:03.583.03-Feb-2020 4022.51 3157.75 64.59 1.00  39.81 3030.18
   02:51:03.783.03-Feb-2020 4022.51 3157.75 64.59 1.00  40.01 3030.18
   02:51:03.983.03-Feb-2020 4022.51 3157.75 64.59 1.00  40.21 3030.18
   02:51:04.184.03-Feb-2020 4022.51 3157.85 64.59 1.00  40.41 3030.18
   02:51:04.384.03-Feb-2020 4022.51 3157.78 64.59 1.00  40.61 3030.18
   02:51:04.584.03-Feb-2020 4022.51 3157.87 64.59 1.00  40.81 3030.18
   02:51:04.784.03-Feb-2020 4022.51 3157.94 64.59 1.00  41.01 3030.18
   02:51:04.984.03-Feb-2020 4022.51 3157.94 64.59 1.00  41.21 3030.18
   02:51:05.184.03-Feb-2020 4022.51 3158.06 64.58 1.00  41.41 3030.18
   02:51:05.384.03-Feb-2020 4022.51 3158.10 64.58 1.00  41.61 3030.18
   02:51:05.584.03-Feb-2020 4022.51 3158.00 64.58 1.00  41.81 3030.18
   02:51:05.784.03-Feb-2020 4022.51 3157.98 64.58 1.00  42.01 3030.18
   02:51:05.984.03-Feb-2020 4022.51 3157.98 64.58 1.00  42.21 3030.18
   02:51:06.184.03-Feb-2020 4022.51 3157.83 64.58 1.00  42.41 3030.18
   02:51:06.384.03-Feb-2020 4022.51 3158.27 64.58 1.00  42.61 3030.18
   02:51:06.584.03-Feb-2020 4022.51 3158.24 64.58 1.00  42.81 3030.18
   02:51:06.784.03-Feb-2020 4022.51 3157.48 64.58 1.00  43.01 3030.18
   02:51:06.984.03-Feb-2020 4022.51 3157.48 64.58 1.00  43.21 3030.18
   02:51:07.184.03-Feb-2020 4022.51 3157.83 64.58 1.00  43.41 3030.18
   02:51:07.384.03-Feb-2020 4022.51 3158.43 64.58 1.00  43.61 3030.18
   02:51:07.584.03-Feb-2020 4022.51 3157.57 64.58 1.00  43.81 3030.18
   02:51:07.784.03-Feb-2020 4022.51 3158.93 64.58 1.00  44.01 3030.18
   02:51:07.984.03-Feb-2020 4022.51 3158.93 64.58 1.00  44.21 3030.18
   02:51:08.184.03-Feb-2020 4022.51 3158.53 64.58 1.00  44.41 3030.18
   02:51:08.384.03-Feb-2020 4022.51 3157.96 64.58 1.00  44.61 3030.18
   02:51:08.584.03-Feb-2020 4022.51 3158.37 64.58 1.00  44.81 3030.18
   02:51:08.785.03-Feb-2020 4022.51 3158.21 64.58 1.00  45.01 3030.18
   02:51:08.985.03-Feb-2020 4022.51 3158.21 64.58 1.00  45.21 3030.18
   02:51:09.185.03-Feb-2020 4022.51 3158.36 64.58 1.00  45.41 3030.18
   02:51:09.385.03-Feb-2020 4022.51 3158.53 64.58 1.00  45.61 3030.18
   02:51:09.585.03-Feb-2020 4022.51 3157.58 64.57 1.00  45.81 3030.18
