~Version Information
 VERS.                  2.0:   CWLS log ASCII Standard -VERSION 2.0
 WRAP.                   NO:   One line per depth step
~Well Information Block
#MNEM.UNIT     VALUE/NAME     DESCRIPTION
#---------     -----------    ---------------------------
 STRT.S             03:46:27 03-Feb-20: START TIME 03:46:27 03-Feb-20
 STOP.S             03:54:17 03-Feb-20: STOP TIME  03:54:17 03-Feb-20
 STEP.S                   0.00: STEP TIME
 NULL.                 -999.25: NULL VALUE
 DFWT.                        :  DIST FWL TEXT
 DFST.                        :  DIST FSL TEXT
 DMF .             Drill Floor:  DRILL MEAS FROM
 STIM.      09.30.00 26-Dec-19:  START TIME
 DATE.      08.00.00 20-Jan-20:  END TIME
 SPUD.               23-Nov-19:  SPUD DATE
 NREF.                    Grid:  NORTH REFERENCE
 HPTY.       Minimum Curvature:  HOLE POS TYPE
 DMOD.             Drill Model:  DRILL MOD DESC
 SVYD.                  Survey:  SURVEY DESC
 ILTD.               Lithology:  INTERP LTH DESC
 FTOP.          Formation Tops:  FORM TOPS DESC
 SON .        AZ-XX-0906192647:  JOB NUMBER
 WTYP.                Deviated:  WELL TYPE
 COMP.     BP Exploration (Caspian Sea) Ltd:  COMPANY
 BASE.              Azerbaijan:  LOGGING EQUIPMENT BASE LOCATION
 REGN.                 Eurasia:  REGION
 FLD .                     ACG:  FIELD NAME
 SRVC.              KCA Deutag:  CONTRACTOR
 MWDS.                    Baku:  MWD SHOP
 WELL.     A10 (Slot 20) - SCP:  WELL NAME
 JOBN.        AZ-XX-0906192647:  JOB TICKET NUMB
 RIG .                 Chirag1:  RIG NAME
 DCON.     Halliburton Sperry Drilling:  DIRECTNL CONTR
 UNIT.                     N/A:  LOGGING EQUIPMENT ID
 PDAT.          Mean Sea Level:  PERMANENT DATUM
 MDS .        Operator Entered:  MAG DATA SOURCE
 CTRY.              Azerbaijan:  COUNTRY NAME
 UWI .            /AZE00000090:  UNIQUE WELL IDENTIFIER
 API .            /AZE00000090:  API NUMBER
 CNTY.                        :  COUNTY
 PROV.                        :  PROVINCE
 STAT.                        :  STATE
 LOC .                        :  LOCATION
 LMF .             Drill Floor:  LOG MEASURED FROM
 TVDS.m                  36.60:  TVDSS CORRECTN
 LATI.deg                40.08:  LATITUDE
 LONG.deg                51.24:  LONGITUDE
 WHNS.m                  -7.94:  WELL HEAD N/S
 WHEW.m                   1.56:  WELL HEAD E/W
 UTMX.m              520429.26:  UTM X
 UTMY.m             4438973.87:  UTM Y
 DFWL.m                   0.00:  DISTANCE FWL
 DFSL.m                   0.00:  DISTANCE FSL
 SDEP.m                1455.00:  START DEPTH
 TDD .m                4047.51:  TOTAL DEPTH (DRILLER)
 VSDR.deg               112.75:  VERT SEC DIRECT
 GVFD.g                   1.00:  GRAVITY FIELD
 MFLD.nT              50261.00:  MAGNETIC FIELD
 MDIP.deg                59.52:  MAGNETIC DIP
 MDEC.deg                 6.42:  MAGNETIC DECL
 GRDC.deg                 0.17:  GRID CORRECTION
 AZTC.deg                 6.25:  AZM TOTAL CORR
 EPD .m                   0.00:  ELEVATION
 EGL .m                   0.00:  GROUND ELEVATION
 WDMS.m                 121.00:  WD ELEV
 APD .m                  36.60:  DEPTH ABOVE PD
 AGAP.m                  36.60:  AIR GAP
 VSEW.m                   1.56:  VERT SEC E/W
 VSNS.m                  -7.94:  VERT SEC N/S
 DEP .m                1140.01:  DEPTH
 EKB .m                  36.60:  KB ELEVATION
 EDF .m                  36.60:  DF ELEVATION
 VSC .                       0:  VS TO CLOSURE
 MAGU.                 1849206:  MAGUTM CHECKSUM
~Parameter Information Block
#MNEM.UNIT       Value        Description
#---------     -----------    ---------------------------
 AV  .mps                 1.70:  Ann Velocity 
 AVMX.mps                 2.30:  Max Ann Veloc 
 AZIF.deg               137.03:  Azm, Final 
 BHAT.                   Other:  BHA Type 
 BROT.°/30m               0.80:  Build Rotating 
 BS  .in                  8.00:  Bit Size 
 BTPL.psig              161.00:  Bit Press Loss 
 CABU.                      No:  Customer Abuse 
 COMM.                     d£g:  Run Comments 1 
 TCS .hr                  9.59:  Time Ciculation Ended 
 CV  .mps                 3.76:  Crit Velocity 
 CVMX.mps                 4.26:  Max Crit Veloc 
 DD1 .         Intigam Rahimov:  Direct Drillr 1 
 DD2 .          Rashad Gojayev:  Direct Drillr 2 
 DDSV.                   Other:  DD Service 
 DEFF.%                 100.00:  % Det Eff 
 DLRX.°/30m               1.44:  Dogleg Rot Max 
 DLSO.°/30m               0.00:  Dogleg Oriented 
 DLSX.°/30m               0.00:  Dogleg Str Max 
 DRET.      03.31.12 02-Feb-20:  Drill End Time 
 DRST.      03.31.12 02-Feb-20:  Drill Start Tim 
 DTIM.hr                  1.99:  Time Drilling 
 EDEP.m                4047.51:  End Depth 
 ENG1.           Eldar Hajiyev:  Engineer 1 
 ENG2.          Rasim Hashimov:  Engineer 2 
 ENG3.          Rustam Safarov:  Engineer 3 
 ETIM.      03.31.12 02-Feb-20:  End Time 
 FLOI.gpm               300.00:  Flow In 
 FLON.gpm               250.00:  Flow In Min 
 FLOS.cptm                0.00:  Fluid Loss 
 FLOX.gpm               330.00:  Flow In Max 
 HFLO.                      No:  High Flow 
 HPRE.                      No:  High Pressure 
 HTEM.                      No:  High Temp 
 HYDO.m                   2.50:  Hydro Offset 
 IFIN.deg                39.54:  Inc, Final 
 IMAX.deg                41.14:  Inc Max 
 IMIN.deg                39.81:  Inc Min 
 IMND.m                4005.21:  Inc Min Depth 
 IMXD.m                3948.42:  Inc Max Depth 
 JARR.                      No:  Jarring 
 LETM.      03.31.12 02-Feb-20:  Log End Time 
 LOST.hr                     0:  Lost Rig Time 
 LSTM.      03.31.12 02-Feb-20:  Log Start Time 
 MDCL.ppm             35000.00:  Mud Chlorides 
 MDES.     Inversion Oil/Synthetic:  Mud Desc 
 DFD .sg                  1.32:  Mud Density 
 MDMN.sg                  1.32:  Dens Mud Min 
 MDMX.sg                  1.32:  Dens Mud Max 
 MOIL.                      59:  Run Mud Oil % 
 MOWR.                   71:29:  Run Mud OWR 
 MSND.                       0:  Run Mud Sand % 
 MSOL.                      17:  Run Mud Solids% 
 DFV .spqt               86.00:  Mud Viscosity 
 MWOD.in                  4.75:  MWD Tool OD 
 MWSI.                      No:  Serv Intrp, MWD 
 OTIM.hr                 46.72:  Time Operating 
 PCON.           Look Like New:  Pad Condition 
 PMAX.psia             3300.00:  Press Op, Max 
 PV  .cP                 30.00:  Mud PV 
 RUN .                     400:  Run Number 
 ROPA.m/hr               35.00:  ROP Avg 
 ROPN.m/hr               25.00:  ROP Min 
 ROPX.m/hr               40.00:  ROP Max 
 RPMA.rpm                80.00:  RPM Surface Avg 
 RPMN.rpm                60.00:  RPM Surface Min 
 RPMX.rpm               100.00:  RPM Surface Max 
 RRUN.                     400:  Rig Run Number 
 RTIM.hr                  1.99:  Time Reaming 
 SAZI.deg               133.93:  Azm, Start 
 SDEP.m                4047.51:  Start Depth 
 SIDD.                      No:  Serv Intrp, DD 
 SINC.deg                40.28:  Inc, Start 
 SPPA.psig             3250.00:  SPP Avg 
 SPPN.psig             3200.00:  SPP Min 
 SPPX.psig             3300.00:  SPP Max 
 STIM.      03.31.12 02-Feb-20:  Start Time 
 SVCS.                 DD, MWD:  Services 
 SVER.                    9.20:  Sperry Version 
 TDAT.m                  47.00:  Tot Depth Attmp 
 TDDF.                      No:  Trip for DD 
 TFF .                      No:  Trip for Fail 
 TQAA.f-kp                0.00:  Torque Abs Avg 
 TQAN.f-kp                0.00:  Torque Abs Min 
 TQAX.f-kp                0.00:  Torque Abs Max 
 TRRT.°/30m               0.70:  Turn Rotating 
 MRT .                    HCIM:  Maximum Recorded Temperature 
 TTMX.degC               70.59:  Max Tool Temp 
 VS01.             90598770F11:  Virtual Str1 SN 
 VS02.             90598769F11:  Virtual Str2 SN 
 VS03.            90515978Z1W1:  Virtual Str3 SN 
 VS04.          90584144R12X14:  Virtual Str4 SN 
 WBMN.klb                 0.00:  WOB Min 
 WITN.            Peter Wilson:  Customer Rep 
 WOBA.klb                 0.00:  WOB Avg 
 WOBX.klb                 0.00:  WOB Max 
 YP  .lhf2               29.00:  Yield Point 
~Curve Information Block
#MNEM.UNIT                 API CODE     Curve Description
#---------               -----------    ---------------------------
 TIME.HHMMSS            00 000 000 000:  GT Time & Date
 GTDEPTH.m              00 000 000 000:  GT Depth
 GTPQH.psia             00 000 000 000:  GT HR Quartz Pressure
 GTTQ.degC              00 000 000 000:  GT Quartz Temperature
 GTTN.NONE              00 000 000 000:  GT Test Number
 GTET.sec               00 000 000 000:  GT Elapsed Test Time
 GTTVD.m                00 000 000 000:  GT True Vertical Depth
#Other Information
#
#WARRANTY: Halliburton will use its best efforts to furnish customers with 
#accurate information and interpretations that are part of, and incident to, the services 
#provided.  However, Halliburton cannot and does not warrant the accuracy 
#or correctness of such information and interpretations.  Under no circumstances should any 
#such information or interpretation be relied upon as the sole basis for any drilling, 
#completion, production, or financial decision or any procedure involving any risk to the 
#safety of any drilling venture, drilling rig or its crew or any other third party.  The 
#Customer has full responsibility for all drilling, completion and production operation.  
#Halliburton makes no representations or warranties, either expressed or 
#implied, including, but not limited to, the implied warranties of merchantability or fitness 
#for a particular purpose, with respect to the services rendered.  In no event will 
#Halliburton be liable for failure to obtain any particular results or for 
#any damages, including, but not limited to, indirect, special or consequential damages, 
#resulting from the use of any information or interpretation provided by Halliburton.
#
~A           TIME           GTDEPTH  GTPQH  GTTQ  GTTN  GTET   GTTVD  
# ...
   03:50:40.533.03-Feb-2020 4013.21 3138.33 64.24 3.00 253.05 3023.05
   03:50:40.733.03-Feb-2020 4013.21 3138.33 64.24 3.00 253.25 3023.05
   03:50:40.933.03-Feb-2020 4013.21 3138.38 64.24 3.00 253.45 3023.05
   03:50:41.133.03-Feb-2020 4013.21 3138.44 64.24 3.00 253.65 3023.05
   03:50:41.333.03-Feb-2020 4013.21 3138.78 64.24 3.00 253.85 3023.05
   03:50:41.533.03-Feb-2020 4013.21 3137.89 64.24 3.00 254.05 3023.05
   03:50:41.733.03-Feb-2020 4013.21 3137.89 64.24 3.00 254.25 3023.05
   03:50:41.933.03-Feb-2020 4013.21 3138.34 64.24 3.00 254.45 3023.05
   03:50:42.133.03-Feb-2020 4013.21 3138.41 64.24 3.00 254.65 3023.05
   03:50:42.333.03-Feb-2020 4013.21 3138.44 64.24 3.00 254.85 3023.05
   03:50:42.533.03-Feb-2020 4013.21 3138.50 64.24 3.00 255.05 3023.05
   03:50:42.733.03-Feb-2020 4013.21 3138.50 64.24 3.00 255.25 3023.05
   03:50:42.933.03-Feb-2020 4013.21 3138.57 64.24 3.00 255.45 3023.05
   03:50:43.133.03-Feb-2020 4013.21 3138.46 64.24 3.00 255.65 3023.05
   03:50:43.333.03-Feb-2020 4013.21 3138.52 64.24 3.00 255.85 3023.05
   03:50:43.533.03-Feb-2020 4013.21 3138.53 64.24 3.00 256.05 3023.05
   03:50:43.733.03-Feb-2020 4013.21 3138.53 64.24 3.00 256.25 3023.05
   03:50:43.933.03-Feb-2020 4013.21 3138.47 64.24 3.00 256.45 3023.05
   03:50:44.133.03-Feb-2020 4013.21 3137.99 64.24 3.00 256.65 3023.05
   03:50:44.333.03-Feb-2020 4013.21 3139.03 64.24 3.00 256.85 3023.05
   03:50:44.533.03-Feb-2020 4013.21 3138.30 64.24 3.00 257.05 3023.05
   03:50:44.733.03-Feb-2020 4013.21 3138.30 64.24 3.00 257.25 3023.05
   03:50:44.933.03-Feb-2020 4013.21 3137.75 64.24 3.00 257.45 3023.05
   03:50:45.134.03-Feb-2020 4013.21 3139.01 64.24 3.00 257.65 3023.05
   03:50:45.334.03-Feb-2020 4013.21 3138.28 64.24 3.00 257.85 3023.05
   03:50:45.534.03-Feb-2020 4013.21 3138.71 64.24 3.00 258.05 3023.05
   03:50:45.734.03-Feb-2020 4013.21 3138.71 64.24 3.00 258.25 3023.05
   03:50:45.934.03-Feb-2020 4013.21 3138.71 64.24 3.00 258.45 3023.05
   03:50:46.134.03-Feb-2020 4013.21 3137.74 64.24 3.00 258.65 3023.05
   03:50:46.334.03-Feb-2020 4013.21 3139.13 64.24 3.00 258.85 3023.05
   03:50:46.534.03-Feb-2020 4013.21 3138.30 64.24 3.00 259.05 3023.05
   03:50:46.734.03-Feb-2020 4013.21 3138.30 64.24 3.00 259.25 3023.05
   03:50:46.934.03-Feb-2020 4013.21 3138.43 64.24 3.00 259.45 3023.05
   03:50:47.134.03-Feb-2020 4013.21 3138.91 64.24 3.00 259.65 3023.05
   03:50:47.334.03-Feb-2020 4013.21 3137.98 64.24 3.00 259.85 3023.05
   03:50:47.534.03-Feb-2020 4013.21 3139.05 64.24 3.00 260.05 3023.05
   03:50:47.734.03-Feb-2020 4013.21 3139.05 64.24 3.00 260.25 3023.05
   03:50:47.934.03-Feb-2020 4013.21 3138.60 64.24 3.00 260.45 3023.05
   03:50:48.134.03-Feb-2020 4013.21 3138.42 64.24 3.00 260.65 3023.05
   03:50:48.334.03-Feb-2020 4013.21 3138.66 64.24 3.00 260.85 3023.05
   03:50:48.534.03-Feb-2020 4013.21 3138.39 64.24 3.00 261.05 3023.05
   03:50:48.734.03-Feb-2020 4013.21 3138.39 64.24 3.00 261.25 3023.05
   03:50:48.934.03-Feb-2020 4013.21 3138.32 64.24 3.00 261.45 3023.05
   03:50:49.134.03-Feb-2020 4013.21 3138.60 64.24 3.00 261.65 3023.05
   03:50:49.334.03-Feb-2020 4013.21 3138.61 64.24 3.00 261.85 3023.05
   03:50:49.534.03-Feb-2020 4013.21 3138.39 64.24 3.00 262.05 3023.05
   03:50:49.734.03-Feb-2020 4013.21 3138.39 64.24 3.00 262.25 3023.05
   03:50:49.935.03-Feb-2020 4013.21 3138.43 64.24 3.00 262.45 3023.05
   03:50:50.135.03-Feb-2020 4013.21 3138.48 64.24 3.00 262.66 3023.05
   03:50:50.335.03-Feb-2020 4013.21 3138.63 64.24 3.00 262.86 3023.05
   03:50:50.535.03-Feb-2020 4013.21 3138.03 64.24 3.00 263.06 3023.05
   03:50:50.735.03-Feb-2020 4013.21 3138.03 64.24 3.00 263.26 3023.05
   03:50:50.935.03-Feb-2020 4013.21 3138.35 64.24 3.00 263.46 3023.05
   03:50:51.135.03-Feb-2020 4013.21 3138.34 64.24 3.00 263.66 3023.05
   03:50:51.335.03-Feb-2020 4013.21 3138.43 64.24 3.00 263.86 3023.05
   03:50:51.535.03-Feb-2020 4013.21 3138.48 64.24 3.00 264.06 3023.05
   03:50:51.735.03-Feb-2020 4013.21 3138.48 64.24 3.00 264.26 3023.05
   03:50:51.935.03-Feb-2020 4013.21 3138.62 64.23 3.00 264.46 3023.05
   03:50:52.135.03-Feb-2020 4013.21 3138.33 64.23 3.00 264.66 3023.05
   03:50:52.335.03-Feb-2020 4013.21 3138.67 64.23 3.00 264.86 3023.05
   03:50:52.535.03-Feb-2020 4013.21 3138.41 64.23 3.00 265.06 3023.05
   03:50:52.735.03-Feb-2020 4013.21 3138.41 64.23 3.00 265.26 3023.05
   03:50:52.935.03-Feb-2020 4013.21 3138.47 64.23 3.00 265.46 3023.05
   03:50:53.135.03-Feb-2020 4013.21 3138.05 64.23 3.00 265.66 3023.05
   03:50:53.335.03-Feb-2020 4013.21 3138.97 64.23 3.00 265.86 3023.05
   03:50:53.535.03-Feb-2020 4013.21 3138.25 64.23 3.00 266.06 3023.05
   03:50:53.735.03-Feb-2020 4013.21 3138.25 64.23 3.00 266.26 3023.05
   03:50:53.935.03-Feb-2020 4013.21 3137.72 64.23 3.00 266.46 3023.05
   03:50:54.135.03-Feb-2020 4013.21 3139.02 64.23 3.00 266.66 3023.05
   03:50:54.335.03-Feb-2020 4013.21 3138.24 64.23 3.00 266.86 3023.05
   03:50:54.535.03-Feb-2020 4013.21 3138.62 64.23 3.00 267.06 3023.05
   03:50:54.736.03-Feb-2020 4013.21 3138.62 64.23 3.00 267.26 3023.05
   03:50:54.936.03-Feb-2020 4013.21 3138.58 64.23 3.00 267.46 3023.05
   03:50:55.136.03-Feb-2020 4013.21 3137.67 64.23 3.00 267.66 3023.05
   03:50:55.336.03-Feb-2020 4013.21 3139.13 64.23 3.00 267.86 3023.05
   03:50:55.536.03-Feb-2020 4013.21 3138.26 64.23 3.00 268.06 3023.05
   03:50:55.736.03-Feb-2020 4013.21 3138.26 64.23 3.00 268.26 3023.05
   03:50:55.936.03-Feb-2020 4013.21 3138.41 64.23 3.00 268.46 3023.05
   03:50:56.136.03-Feb-2020 4013.21 3138.69 64.23 3.00 268.66 3023.05
   03:50:56.336.03-Feb-2020 4013.21 3137.83 64.23 3.00 268.86 3023.05
   03:50:56.536.03-Feb-2020 4013.21 3138.92 64.23 3.00 269.06 3023.05
   03:50:56.736.03-Feb-2020 4013.21 3138.92 64.23 3.00 269.26 3023.05
   03:50:56.936.03-Feb-2020 4013.21 3138.61 64.23 3.00 269.46 3023.05
   03:50:57.136.03-Feb-2020 4013.21 3138.35 64.23 3.00 269.66 3023.05
   03:50:57.336.03-Feb-2020 4013.21 3138.44 64.23 3.00 269.86 3023.05
   03:50:57.536.03-Feb-2020 4013.21 3138.41 64.23 3.00 270.06 3023.05
   03:50:57.736.03-Feb-2020 4013.21 3138.41 64.23 3.00 270.26 3023.05
   03:50:57.936.03-Feb-2020 4013.21 3138.32 64.23 3.00 270.46 3023.05
   03:50:58.136.03-Feb-2020 4013.21 3138.51 64.23 3.00 270.66 3023.05
   03:50:58.336.03-Feb-2020 4013.21 3138.45 64.23 3.00 270.86 3023.05
   03:50:58.536.03-Feb-2020 4013.21 3138.26 64.23 3.00 271.06 3023.05
   03:50:58.736.03-Feb-2020 4013.21 3138.26 64.23 3.00 271.26 3023.05
   03:50:58.936.03-Feb-2020 4013.21 3138.19 64.23 3.00 271.46 3023.05
   03:50:59.136.03-Feb-2020 4013.21 3138.47 64.23 3.00 271.66 3023.05
   03:50:59.337.03-Feb-2020 4013.21 3138.64 64.23 3.00 271.86 3023.05
   03:50:59.537.03-Feb-2020 4013.21 3137.90 64.23 3.00 272.06 3023.05
   03:50:59.737.03-Feb-2020 4013.21 3137.90 64.23 3.00 272.26 3023.05
   03:50:59.937.03-Feb-2020 4013.21 3138.28 64.23 3.00 272.46 3023.05
   03:51:00.137.03-Feb-2020 4013.21 3138.22 64.23 3.00 272.66 3023.05
   03:51:00.337.03-Feb-2020 4013.21 3138.36 64.23 3.00 272.86 3023.05
   03:51:00.537.03-Feb-2020 4013.21 3138.37 64.23 3.00 273.06 3023.05
   03:51:00.737.03-Feb-2020 4013.21 3138.37 64.23 3.00 273.26 3023.05
   03:51:00.937.03-Feb-2020 4013.21 3138.33 64.23 3.00 273.46 3023.05
   03:51:01.137.03-Feb-2020 4013.21 3138.29 64.23 3.00 273.66 3023.05
   03:51:01.337.03-Feb-2020 4013.21 3138.36 64.23 3.00 273.86 3023.05
   03:51:01.537.03-Feb-2020 4013.21 3138.29 64.23 3.00 274.06 3023.05
   03:51:01.737.03-Feb-2020 4013.21 3138.29 64.23 3.00 274.26 3023.05
   03:51:01.937.03-Feb-2020 4013.21 3138.19 64.23 3.00 274.46 3023.05
   03:51:02.137.03-Feb-2020 4013.21 3137.97 64.23 3.00 274.66 3023.05
   03:51:02.337.03-Feb-2020 4013.21 3138.83 64.23 3.00 274.86 3023.05
   03:51:02.537.03-Feb-2020 4013.21 3138.16 64.23 3.00 275.06 3023.05
   03:51:02.737.03-Feb-2020 4013.21 3138.16 64.23 3.00 275.26 3023.05
   03:51:02.937.03-Feb-2020 4013.21 3137.65 64.23 3.00 275.46 3023.05
   03:51:03.137.03-Feb-2020 4013.21 3138.77 64.23 3.00 275.66 3023.05
   03:51:03.337.03-Feb-2020 4013.21 3138.16 64.23 3.00 275.86 3023.05
