~Version Information
 VERS.                  2.0:   CWLS log ASCII Standard -VERSION 2.0
 WRAP.                   NO:   One line per depth step
~Well Information Block
#MNEM.UNIT     VALUE/NAME     DESCRIPTION
#---------     -----------    ---------------------------
 STRT.S             07:08:20 03-Feb-20: START TIME 07:08:20 03-Feb-20
 STOP.S             07:16:05 03-Feb-20: STOP TIME  07:16:05 03-Feb-20
 STEP.S                   0.00: STEP TIME
 NULL.                 -999.25: NULL VALUE
 DFWT.                        :  DIST FWL TEXT
 DFST.                        :  DIST FSL TEXT
 DMF .             Drill Floor:  DRILL MEAS FROM
 STIM.      09.30.00 26-Dec-19:  START TIME
 DATE.      08.00.00 20-Jan-20:  END TIME
 SPUD.               23-Nov-19:  SPUD DATE
 NREF.                    Grid:  NORTH REFERENCE
 HPTY.       Minimum Curvature:  HOLE POS TYPE
 DMOD.             Drill Model:  DRILL MOD DESC
 SVYD.                  Survey:  SURVEY DESC
 ILTD.               Lithology:  INTERP LTH DESC
 FTOP.          Formation Tops:  FORM TOPS DESC
 SON .        AZ-XX-0906192647:  JOB NUMBER
 WTYP.                Deviated:  WELL TYPE
 COMP.     BP Exploration (Caspian Sea) Ltd:  COMPANY
 BASE.              Azerbaijan:  LOGGING EQUIPMENT BASE LOCATION
 REGN.                 Eurasia:  REGION
 FLD .                     ACG:  FIELD NAME
 SRVC.              KCA Deutag:  CONTRACTOR
 MWDS.                    Baku:  MWD SHOP
 WELL.     A10 (Slot 20) - SCP:  WELL NAME
 JOBN.        AZ-XX-0906192647:  JOB TICKET NUMB
 RIG .                 Chirag1:  RIG NAME
 DCON.     Halliburton Sperry Drilling:  DIRECTNL CONTR
 UNIT.                     N/A:  LOGGING EQUIPMENT ID
 PDAT.          Mean Sea Level:  PERMANENT DATUM
 MDS .        Operator Entered:  MAG DATA SOURCE
 CTRY.              Azerbaijan:  COUNTRY NAME
 UWI .            /AZE00000090:  UNIQUE WELL IDENTIFIER
 API .            /AZE00000090:  API NUMBER
 CNTY.                        :  COUNTY
 PROV.                        :  PROVINCE
 STAT.                        :  STATE
 LOC .                        :  LOCATION
 LMF .             Drill Floor:  LOG MEASURED FROM
 TVDS.m                  36.60:  TVDSS CORRECTN
 LATI.deg                40.08:  LATITUDE
 LONG.deg                51.24:  LONGITUDE
 WHNS.m                  -7.94:  WELL HEAD N/S
 WHEW.m                   1.56:  WELL HEAD E/W
 UTMX.m              520429.26:  UTM X
 UTMY.m             4438973.87:  UTM Y
 DFWL.m                   0.00:  DISTANCE FWL
 DFSL.m                   0.00:  DISTANCE FSL
 SDEP.m                1455.00:  START DEPTH
 TDD .m                4047.51:  TOTAL DEPTH (DRILLER)
 VSDR.deg               112.75:  VERT SEC DIRECT
 GVFD.g                   1.00:  GRAVITY FIELD
 MFLD.nT              50261.00:  MAGNETIC FIELD
 MDIP.deg                59.52:  MAGNETIC DIP
 MDEC.deg                 6.42:  MAGNETIC DECL
 GRDC.deg                 0.17:  GRID CORRECTION
 AZTC.deg                 6.25:  AZM TOTAL CORR
 EPD .m                   0.00:  ELEVATION
 EGL .m                   0.00:  GROUND ELEVATION
 WDMS.m                 121.00:  WD ELEV
 APD .m                  36.60:  DEPTH ABOVE PD
 AGAP.m                  36.60:  AIR GAP
 VSEW.m                   1.56:  VERT SEC E/W
 VSNS.m                  -7.94:  VERT SEC N/S
 DEP .m                1140.01:  DEPTH
 EKB .m                  36.60:  KB ELEVATION
 EDF .m                  36.60:  DF ELEVATION
 VSC .                       0:  VS TO CLOSURE
 MAGU.                 1849206:  MAGUTM CHECKSUM
~Parameter Information Block
#MNEM.UNIT       Value        Description
#---------     -----------    ---------------------------
 AV  .mps                 1.70:  Ann Velocity 
 AVMX.mps                 2.30:  Max Ann Veloc 
 AZIF.deg               137.03:  Azm, Final 
 BHAT.                   Other:  BHA Type 
 BROT.°/30m               0.80:  Build Rotating 
 BS  .in                  8.00:  Bit Size 
 BTPL.psig              161.00:  Bit Press Loss 
 CABU.                      No:  Customer Abuse 
 COMM.                     ?\:  Run Comments 1 
 TCS .hr                  9.59:  Time Ciculation Ended 
 CV  .mps                 3.76:  Crit Velocity 
 CVMX.mps                 4.26:  Max Crit Veloc 
 DD1 .         Intigam Rahimov:  Direct Drillr 1 
 DD2 .          Rashad Gojayev:  Direct Drillr 2 
 DDSV.                   Other:  DD Service 
 DEFF.%                 100.00:  % Det Eff 
 DLRX.°/30m               1.44:  Dogleg Rot Max 
 DLSO.°/30m               0.00:  Dogleg Oriented 
 DLSX.°/30m               0.00:  Dogleg Str Max 
 DRET.      03.31.12 02-Feb-20:  Drill End Time 
 DRST.      03.31.12 02-Feb-20:  Drill Start Tim 
 DTIM.hr                  1.99:  Time Drilling 
 EDEP.m                4047.51:  End Depth 
 ENG1.           Eldar Hajiyev:  Engineer 1 
 ENG2.          Rasim Hashimov:  Engineer 2 
 ENG3.          Rustam Safarov:  Engineer 3 
 ETIM.      03.31.12 02-Feb-20:  End Time 
 FLOI.gpm               300.00:  Flow In 
 FLON.gpm               250.00:  Flow In Min 
 FLOS.cptm                0.00:  Fluid Loss 
 FLOX.gpm               330.00:  Flow In Max 
 HFLO.                      No:  High Flow 
 HPRE.                      No:  High Pressure 
 HTEM.                      No:  High Temp 
 HYDO.m                   2.50:  Hydro Offset 
 IFIN.deg                39.54:  Inc, Final 
 IMAX.deg                41.14:  Inc Max 
 IMIN.deg                39.81:  Inc Min 
 IMND.m                4005.21:  Inc Min Depth 
 IMXD.m                3948.42:  Inc Max Depth 
 JARR.                      No:  Jarring 
 LETM.      03.31.12 02-Feb-20:  Log End Time 
 LOST.hr                     0:  Lost Rig Time 
 LSTM.      03.31.12 02-Feb-20:  Log Start Time 
 MDCL.ppm             35000.00:  Mud Chlorides 
 MDES.     Inversion Oil/Synthetic:  Mud Desc 
 DFD .sg                  1.32:  Mud Density 
 MDMN.sg                  1.32:  Dens Mud Min 
 MDMX.sg                  1.32:  Dens Mud Max 
 MOIL.                      59:  Run Mud Oil % 
 MOWR.                   71:29:  Run Mud OWR 
 MSND.                       0:  Run Mud Sand % 
 MSOL.                      17:  Run Mud Solids% 
 DFV .spqt               86.00:  Mud Viscosity 
 MWOD.in                  4.75:  MWD Tool OD 
 MWSI.                      No:  Serv Intrp, MWD 
 OTIM.hr                 46.72:  Time Operating 
 PCON.           Look Like New:  Pad Condition 
 PMAX.psia             3300.00:  Press Op, Max 
 PV  .cP                 30.00:  Mud PV 
 RUN .                     400:  Run Number 
 ROPA.m/hr               35.00:  ROP Avg 
 ROPN.m/hr               25.00:  ROP Min 
 ROPX.m/hr               40.00:  ROP Max 
 RPMA.rpm                80.00:  RPM Surface Avg 
 RPMN.rpm                60.00:  RPM Surface Min 
 RPMX.rpm               100.00:  RPM Surface Max 
 RRUN.                     400:  Rig Run Number 
 RTIM.hr                  1.99:  Time Reaming 
 SAZI.deg               133.93:  Azm, Start 
 SDEP.m                4047.51:  Start Depth 
 SIDD.                      No:  Serv Intrp, DD 
 SINC.deg                40.28:  Inc, Start 
 SPPA.psig             3250.00:  SPP Avg 
 SPPN.psig             3200.00:  SPP Min 
 SPPX.psig             3300.00:  SPP Max 
 STIM.      03.31.12 02-Feb-20:  Start Time 
 SVCS.                 DD, MWD:  Services 
 SVER.                    9.20:  Sperry Version 
 TDAT.m                  47.00:  Tot Depth Attmp 
 TDDF.                      No:  Trip for DD 
 TFF .                      No:  Trip for Fail 
 TQAA.f-kp                0.00:  Torque Abs Avg 
 TQAN.f-kp                0.00:  Torque Abs Min 
 TQAX.f-kp                0.00:  Torque Abs Max 
 TRRT.°/30m               0.70:  Turn Rotating 
 MRT .                    HCIM:  Maximum Recorded Temperature 
 TTMX.degC               70.59:  Max Tool Temp 
 VS01.             90598770F11:  Virtual Str1 SN 
 VS02.             90598769F11:  Virtual Str2 SN 
 VS03.            90515978Z1W1:  Virtual Str3 SN 
 VS04.          90584144R12X14:  Virtual Str4 SN 
 WBMN.klb                 0.00:  WOB Min 
 WITN.            Peter Wilson:  Customer Rep 
 WOBA.klb                 0.00:  WOB Avg 
 WOBX.klb                 0.00:  WOB Max 
 YP  .lhf2               29.00:  Yield Point 
~Curve Information Block
#MNEM.UNIT                 API CODE     Curve Description
#---------               -----------    ---------------------------
 TIME.HHMMSS            00 000 000 000:  GT Time & Date
 GTDEPTH.m              00 000 000 000:  GT Depth
 GTPQH.psia             00 000 000 000:  GT HR Quartz Pressure
 GTTQ.degC              00 000 000 000:  GT Quartz Temperature
 GTTN.NONE              00 000 000 000:  GT Test Number
 GTET.sec               00 000 000 000:  GT Elapsed Test Time
 GTTVD.m                00 000 000 000:  GT True Vertical Depth
#Other Information
#
#WARRANTY: Halliburton will use its best efforts to furnish customers with 
#accurate information and interpretations that are part of, and incident to, the services 
#provided.  However, Halliburton cannot and does not warrant the accuracy 
#or correctness of such information and interpretations.  Under no circumstances should any 
#such information or interpretation be relied upon as the sole basis for any drilling, 
#completion, production, or financial decision or any procedure involving any risk to the 
#safety of any drilling venture, drilling rig or its crew or any other third party.  The 
#Customer has full responsibility for all drilling, completion and production operation.  
#Halliburton makes no representations or warranties, either expressed or 
#implied, including, but not limited to, the implied warranties of merchantability or fitness 
#for a particular purpose, with respect to the services rendered.  In no event will 
#Halliburton be liable for failure to obtain any particular results or for 
#any damages, including, but not limited to, indirect, special or consequential damages, 
#resulting from the use of any information or interpretation provided by Halliburton.
#
~A           TIME           GTDEPTH  GTPQH  GTTQ  GTTN  GTET   GTTVD  
# ...
   07:11:24.000.03-Feb-2020 4002.71  195.95 64.21 9.00 184.00 3014.99
   07:11:24.200.03-Feb-2020 4002.71  195.95 64.21 9.00 184.20 3014.99
   07:11:24.400.03-Feb-2020 4002.71  198.80 64.21 9.00 184.40 3014.99
   07:11:24.600.03-Feb-2020 4002.71  200.23 64.21 9.00 184.60 3014.99
   07:11:24.800.03-Feb-2020 4002.71  201.66 64.21 9.00 184.80 3014.99
   07:11:25.000.03-Feb-2020 4002.71  203.08 64.21 9.00 185.00 3014.99
   07:11:25.200.03-Feb-2020 4002.71  203.08 64.21 9.00 185.20 3014.99
   07:11:25.400.03-Feb-2020 4002.71  205.93 64.21 9.00 185.40 3014.99
   07:11:25.600.03-Feb-2020 4002.71  207.36 64.21 9.00 185.60 3014.99
   07:11:25.800.03-Feb-2020 4002.71  208.78 64.21 9.00 185.80 3014.99
   07:11:26.000.03-Feb-2020 4002.71  210.21 64.21 9.00 186.00 3014.99
   07:11:26.200.03-Feb-2020 4002.71  210.21 64.21 9.00 186.20 3014.99
   07:11:26.400.03-Feb-2020 4002.71  213.04 64.21 9.00 186.40 3014.99
   07:11:26.600.03-Feb-2020 4002.71  214.45 64.21 9.00 186.60 3014.99
   07:11:26.800.03-Feb-2020 4002.71  215.87 64.21 9.00 186.80 3014.99
   07:11:27.000.03-Feb-2020 4002.71  217.28 64.21 9.00 187.00 3014.99
   07:11:27.200.03-Feb-2020 4002.71  217.28 64.21 9.00 187.20 3014.99
   07:11:27.400.03-Feb-2020 4002.71  220.13 64.21 9.00 187.40 3014.99
   07:11:27.600.03-Feb-2020 4002.71  221.51 64.21 9.00 187.60 3014.99
   07:11:27.800.03-Feb-2020 4002.71  222.95 64.21 9.00 187.80 3014.99
   07:11:28.000.03-Feb-2020 4002.71  224.36 64.21 9.00 188.00 3014.99
   07:11:28.200.03-Feb-2020 4002.71  224.36 64.21 9.00 188.20 3014.99
   07:11:28.400.03-Feb-2020 4002.71  227.22 64.21 9.00 188.40 3014.99
   07:11:28.600.03-Feb-2020 4002.71  228.63 64.21 9.00 188.60 3014.99
   07:11:28.800.03-Feb-2020 4002.71  230.05 64.21 9.00 188.80 3014.99
   07:11:29.000.03-Feb-2020 4002.71  231.47 64.21 9.00 189.00 3014.99
   07:11:29.200.03-Feb-2020 4002.71  231.47 64.21 9.00 189.20 3014.99
   07:11:29.400.03-Feb-2020 4002.71  234.31 64.21 9.00 189.40 3014.99
   07:11:29.600.03-Feb-2020 4002.71  235.74 64.21 9.00 189.60 3014.99
   07:11:29.800.03-Feb-2020 4002.71  237.16 64.21 9.00 189.80 3014.99
   07:11:30.000.03-Feb-2020 4002.71  238.55 64.21 9.00 190.00 3014.99
   07:11:30.200.03-Feb-2020 4002.71  238.55 64.21 9.00 190.20 3014.99
   07:11:30.400.03-Feb-2020 4002.71  241.41 64.21 9.00 190.40 3014.99
   07:11:30.600.03-Feb-2020 4002.71  242.85 64.21 9.00 190.60 3014.99
   07:11:30.800.03-Feb-2020 4002.71  244.27 64.21 9.00 190.80 3014.99
   07:11:31.000.03-Feb-2020 4002.71  245.70 64.21 9.00 191.00 3014.99
   07:11:31.200.03-Feb-2020 4002.71  245.70 64.21 9.00 191.20 3014.99
   07:11:31.400.03-Feb-2020 4002.71  248.53 64.21 9.00 191.40 3014.99
   07:11:31.600.03-Feb-2020 4002.71  249.97 64.21 9.00 191.60 3014.99
   07:11:31.800.03-Feb-2020 4002.71  251.41 64.21 9.00 191.80 3014.99
   07:11:32.000.03-Feb-2020 4002.71  252.84 64.21 9.00 192.00 3014.99
   07:11:32.200.03-Feb-2020 4002.71  254.27 64.21 9.00 192.20 3014.99
   07:11:32.400.03-Feb-2020 4002.71  255.68 64.21 9.00 192.40 3014.99
   07:11:32.600.03-Feb-2020 4002.71  257.12 64.21 9.00 192.60 3014.99
   07:11:32.800.03-Feb-2020 4002.71  258.55 64.21 9.00 192.80 3014.99
   07:11:33.000.03-Feb-2020 4002.71  260.02 64.21 9.00 193.00 3014.99
   07:11:33.200.03-Feb-2020 4002.71  260.02 64.21 9.00 193.20 3014.99
   07:11:33.400.03-Feb-2020 4002.71  262.87 64.21 9.00 193.40 3014.99
   07:11:33.600.03-Feb-2020 4002.71  264.32 64.21 9.00 193.60 3014.99
   07:11:33.800.03-Feb-2020 4002.71  265.78 64.21 9.00 193.80 3014.99
   07:11:34.000.03-Feb-2020 4002.71  267.22 64.21 9.00 194.00 3014.99
   07:11:34.200.03-Feb-2020 4002.71  267.22 64.21 9.00 194.20 3014.99
   07:11:34.400.03-Feb-2020 4002.71  270.13 64.21 9.00 194.40 3014.99
   07:11:34.600.03-Feb-2020 4002.71  271.60 64.21 9.00 194.60 3014.99
   07:11:34.800.03-Feb-2020 4002.71  273.05 64.21 9.00 194.80 3014.99
   07:11:35.000.03-Feb-2020 4002.71  274.51 64.21 9.00 195.00 3014.99
   07:11:35.200.03-Feb-2020 4002.71  274.51 64.21 9.00 195.20 3014.99
   07:11:35.400.03-Feb-2020 4002.71  277.44 64.21 9.00 195.40 3014.99
   07:11:35.600.03-Feb-2020 4002.71  278.90 64.21 9.00 195.60 3014.99
   07:11:35.800.03-Feb-2020 4002.71  280.37 64.21 9.00 195.80 3014.99
   07:11:36.000.03-Feb-2020 4002.71  281.84 64.21 9.00 196.00 3014.99
   07:11:36.200.03-Feb-2020 4002.71  281.84 64.21 9.00 196.20 3014.99
   07:11:36.400.03-Feb-2020 4002.71  284.80 64.21 9.00 196.40 3014.99
   07:11:36.600.03-Feb-2020 4002.71  286.24 64.21 9.00 196.60 3014.99
   07:11:36.800.03-Feb-2020 4002.71  287.72 64.21 9.00 196.80 3014.99
   07:11:37.000.03-Feb-2020 4002.71  289.22 64.21 9.00 197.00 3014.99
   07:11:37.200.03-Feb-2020 4002.71  289.22 64.21 9.00 197.20 3014.99
   07:11:37.400.03-Feb-2020 4002.71  292.20 64.21 9.00 197.40 3014.99
   07:11:37.600.03-Feb-2020 4002.71  293.68 64.21 9.00 197.60 3014.99
   07:11:37.800.03-Feb-2020 4002.71  295.18 64.21 9.00 197.80 3014.99
   07:11:38.000.03-Feb-2020 4002.71  296.68 64.21 9.00 198.00 3014.99
   07:11:38.200.03-Feb-2020 4002.71  296.68 64.21 9.00 198.20 3014.99
   07:11:38.400.03-Feb-2020 4002.71  299.69 64.21 9.00 198.40 3014.99
   07:11:38.600.03-Feb-2020 4002.71  301.20 64.21 9.00 198.60 3014.99
   07:11:38.800.03-Feb-2020 4002.71  302.69 64.21 9.00 198.80 3014.99
   07:11:39.000.03-Feb-2020 4002.71  304.17 64.21 9.00 199.00 3014.99
   07:11:39.200.03-Feb-2020 4002.71  305.69 64.21 9.00 199.20 3014.99
   07:11:39.400.03-Feb-2020 4002.71  307.23 64.21 9.00 199.40 3014.99
   07:11:39.600.03-Feb-2020 4002.71  308.76 64.21 9.00 199.60 3014.99
   07:11:39.800.03-Feb-2020 4002.71  310.30 64.21 9.00 199.80 3014.99
   07:11:40.000.03-Feb-2020 4002.71  311.82 64.21 9.00 200.00 3014.99
   07:11:40.200.03-Feb-2020 4002.71  313.32 64.21 9.00 200.20 3014.99
   07:11:40.400.03-Feb-2020 4002.71  314.86 64.21 9.00 200.40 3014.99
   07:11:40.600.03-Feb-2020 4002.71  316.39 64.21 9.00 200.60 3014.99
   07:11:40.800.03-Feb-2020 4002.71  317.96 64.21 9.00 200.80 3014.99
   07:11:41.000.03-Feb-2020 4002.71  319.50 64.21 9.00 201.00 3014.99
   07:11:41.200.03-Feb-2020 4002.71  321.06 64.21 9.00 201.20 3014.99
   07:11:41.400.03-Feb-2020 4002.71  322.61 64.21 9.00 201.40 3014.99
   07:11:41.600.03-Feb-2020 4002.71  324.17 64.21 9.00 201.60 3014.99
   07:11:41.800.03-Feb-2020 4002.71  325.67 64.21 9.00 201.80 3014.99
   07:11:42.000.03-Feb-2020 4002.71  327.28 64.21 9.00 202.00 3014.99
   07:11:42.200.03-Feb-2020 4002.71  328.83 64.21 9.00 202.20 3014.99
   07:11:42.400.03-Feb-2020 4002.71  330.42 64.21 9.00 202.40 3014.99
   07:11:42.600.03-Feb-2020 4002.71  331.94 64.21 9.00 202.60 3014.99
   07:11:42.800.03-Feb-2020 4002.71  333.53 64.21 9.00 202.80 3014.99
   07:11:43.000.03-Feb-2020 4002.71  335.08 64.21 9.00 203.00 3014.99
   07:11:43.200.03-Feb-2020 4002.71  335.08 64.21 9.00 203.20 3014.99
   07:11:43.400.03-Feb-2020 4002.71  338.28 64.21 9.00 203.40 3014.99
   07:11:43.600.03-Feb-2020 4002.71  339.88 64.21 9.00 203.60 3014.99
   07:11:43.800.03-Feb-2020 4002.71  341.48 64.21 9.00 203.80 3014.99
   07:11:44.000.03-Feb-2020 4002.71  343.08 64.21 9.00 204.00 3014.99
   07:11:44.200.03-Feb-2020 4002.71  344.67 64.21 9.00 204.20 3014.99
   07:11:44.400.03-Feb-2020 4002.71  346.28 64.21 9.00 204.40 3014.99
   07:11:44.600.03-Feb-2020 4002.71  347.90 64.21 9.00 204.60 3014.99
   07:11:44.800.03-Feb-2020 4002.71  349.53 64.21 9.00 204.80 3014.99
   07:11:45.000.03-Feb-2020 4002.71  351.15 64.21 9.00 205.00 3014.99
   07:11:45.200.03-Feb-2020 4002.71  352.78 64.21 9.00 205.20 3014.99
   07:11:45.400.03-Feb-2020 4002.71  354.39 64.21 9.00 205.40 3014.99
   07:11:45.600.03-Feb-2020 4002.71  356.05 64.21 9.00 205.60 3014.99
   07:11:45.800.03-Feb-2020 4002.71  357.64 64.21 9.00 205.80 3014.99
   07:11:46.000.03-Feb-2020 4002.71  359.28 64.21 9.00 206.00 3014.99
   07:11:46.200.03-Feb-2020 4002.71  360.91 64.21 9.00 206.20 3014.99
   07:11:46.400.03-Feb-2020 4002.71  362.58 64.21 9.00 206.40 3014.99
   07:11:46.600.03-Feb-2020 4002.71  364.23 64.21 9.00 206.60 3014.99
   07:11:46.800.03-Feb-2020 4002.71  365.90 64.21 9.00 206.80 3014.99
