~Version Information
 VERS.                  2.0:   CWLS log ASCII Standard -VERSION 2.0
 WRAP.                   NO:   One line per depth step
~Well Information Block
#MNEM.UNIT     VALUE/NAME     DESCRIPTION
#---------     -----------    ---------------------------
 STRT.S             06:42:18 03-Feb-20: START TIME 06:42:18 03-Feb-20
 STOP.S             06:50:14 03-Feb-20: STOP TIME  06:50:14 03-Feb-20
 STEP.S                   0.00: STEP TIME
 NULL.                 -999.25: NULL VALUE
 DFWT.                        :  DIST FWL TEXT
 DFST.                        :  DIST FSL TEXT
 DMF .             Drill Floor:  DRILL MEAS FROM
 STIM.      09.30.00 26-Dec-19:  START TIME
 DATE.      08.00.00 20-Jan-20:  END TIME
 SPUD.               23-Nov-19:  SPUD DATE
 NREF.                    Grid:  NORTH REFERENCE
 HPTY.       Minimum Curvature:  HOLE POS TYPE
 DMOD.             Drill Model:  DRILL MOD DESC
 SVYD.                  Survey:  SURVEY DESC
 ILTD.               Lithology:  INTERP LTH DESC
 FTOP.          Formation Tops:  FORM TOPS DESC
 SON .        AZ-XX-0906192647:  JOB NUMBER
 WTYP.                Deviated:  WELL TYPE
 COMP.     BP Exploration (Caspian Sea) Ltd:  COMPANY
 BASE.              Azerbaijan:  LOGGING EQUIPMENT BASE LOCATION
 REGN.                 Eurasia:  REGION
 FLD .                     ACG:  FIELD NAME
 SRVC.              KCA Deutag:  CONTRACTOR
 MWDS.                    Baku:  MWD SHOP
 WELL.     A10 (Slot 20) - SCP:  WELL NAME
 JOBN.        AZ-XX-0906192647:  JOB TICKET NUMB
 RIG .                 Chirag1:  RIG NAME
 DCON.     Halliburton Sperry Drilling:  DIRECTNL CONTR
 UNIT.                     N/A:  LOGGING EQUIPMENT ID
 PDAT.          Mean Sea Level:  PERMANENT DATUM
 MDS .        Operator Entered:  MAG DATA SOURCE
 CTRY.              Azerbaijan:  COUNTRY NAME
 UWI .            /AZE00000090:  UNIQUE WELL IDENTIFIER
 API .            /AZE00000090:  API NUMBER
 CNTY.                        :  COUNTY
 PROV.                        :  PROVINCE
 STAT.                        :  STATE
 LOC .                        :  LOCATION
 LMF .             Drill Floor:  LOG MEASURED FROM
 TVDS.m                  36.60:  TVDSS CORRECTN
 LATI.deg                40.08:  LATITUDE
 LONG.deg                51.24:  LONGITUDE
 WHNS.m                  -7.94:  WELL HEAD N/S
 WHEW.m                   1.56:  WELL HEAD E/W
 UTMX.m              520429.26:  UTM X
 UTMY.m             4438973.87:  UTM Y
 DFWL.m                   0.00:  DISTANCE FWL
 DFSL.m                   0.00:  DISTANCE FSL
 SDEP.m                1455.00:  START DEPTH
 TDD .m                4047.51:  TOTAL DEPTH (DRILLER)
 VSDR.deg               112.75:  VERT SEC DIRECT
 GVFD.g                   1.00:  GRAVITY FIELD
 MFLD.nT              50261.00:  MAGNETIC FIELD
 MDIP.deg                59.52:  MAGNETIC DIP
 MDEC.deg                 6.42:  MAGNETIC DECL
 GRDC.deg                 0.17:  GRID CORRECTION
 AZTC.deg                 6.25:  AZM TOTAL CORR
 EPD .m                   0.00:  ELEVATION
 EGL .m                   0.00:  GROUND ELEVATION
 WDMS.m                 121.00:  WD ELEV
 APD .m                  36.60:  DEPTH ABOVE PD
 AGAP.m                  36.60:  AIR GAP
 VSEW.m                   1.56:  VERT SEC E/W
 VSNS.m                  -7.94:  VERT SEC N/S
 DEP .m                1140.01:  DEPTH
 EKB .m                  36.60:  KB ELEVATION
 EDF .m                  36.60:  DF ELEVATION
 VSC .                       0:  VS TO CLOSURE
 MAGU.                 1849206:  MAGUTM CHECKSUM
~Parameter Information Block
#MNEM.UNIT       Value        Description
#---------     -----------    ---------------------------
 AV  .mps                 1.70:  Ann Velocity 
 AVMX.mps                 2.30:  Max Ann Veloc 
 AZIF.deg               137.03:  Azm, Final 
 BHAT.                   Other:  BHA Type 
 BROT.°/30m               0.80:  Build Rotating 
 BS  .in                  8.00:  Bit Size 
 BTPL.psig              161.00:  Bit Press Loss 
 CABU.                      No:  Customer Abuse 
 TCS .hr                  9.59:  Time Ciculation Ended 
 CV  .mps                 3.76:  Crit Velocity 
 CVMX.mps                 4.26:  Max Crit Veloc 
 DD1 .         Intigam Rahimov:  Direct Drillr 1 
 DD2 .          Rashad Gojayev:  Direct Drillr 2 
 DDSV.                   Other:  DD Service 
 DEFF.%                 100.00:  % Det Eff 
 DLRX.°/30m               1.44:  Dogleg Rot Max 
 DLSO.°/30m               0.00:  Dogleg Oriented 
 DLSX.°/30m               0.00:  Dogleg Str Max 
 DRET.      03.31.12 02-Feb-20:  Drill End Time 
 DRST.      03.31.12 02-Feb-20:  Drill Start Tim 
 DTIM.hr                  1.99:  Time Drilling 
 EDEP.m                4047.51:  End Depth 
 ENG1.           Eldar Hajiyev:  Engineer 1 
 ENG2.          Rasim Hashimov:  Engineer 2 
 ENG3.          Rustam Safarov:  Engineer 3 
 ETIM.      03.31.12 02-Feb-20:  End Time 
 FLOI.gpm               300.00:  Flow In 
 FLON.gpm               250.00:  Flow In Min 
 FLOS.cptm                0.00:  Fluid Loss 
 FLOX.gpm               330.00:  Flow In Max 
 HFLO.                      No:  High Flow 
 HPRE.                      No:  High Pressure 
 HTEM.                      No:  High Temp 
 HYDO.m                   2.50:  Hydro Offset 
 IFIN.deg                39.54:  Inc, Final 
 IMAX.deg                41.14:  Inc Max 
 IMIN.deg                39.81:  Inc Min 
 IMND.m                4005.21:  Inc Min Depth 
 IMXD.m                3948.42:  Inc Max Depth 
 JARR.                      No:  Jarring 
 LETM.      03.31.12 02-Feb-20:  Log End Time 
 LOST.hr                     0:  Lost Rig Time 
 LSTM.      03.31.12 02-Feb-20:  Log Start Time 
 MDCL.ppm             35000.00:  Mud Chlorides 
 MDES.     Inversion Oil/Synthetic:  Mud Desc 
 DFD .sg                  1.32:  Mud Density 
 MDMN.sg                  1.32:  Dens Mud Min 
 MDMX.sg                  1.32:  Dens Mud Max 
 MOIL.                      59:  Run Mud Oil % 
 MOWR.                   71:29:  Run Mud OWR 
 MSND.                       0:  Run Mud Sand % 
 MSOL.                      17:  Run Mud Solids% 
 DFV .spqt               86.00:  Mud Viscosity 
 MWOD.in                  4.75:  MWD Tool OD 
 MWSI.                      No:  Serv Intrp, MWD 
 OTIM.hr                 46.72:  Time Operating 
 PCON.           Look Like New:  Pad Condition 
 PMAX.psia             3300.00:  Press Op, Max 
 PV  .cP                 30.00:  Mud PV 
 RUN .                     400:  Run Number 
 ROPA.m/hr               35.00:  ROP Avg 
 ROPN.m/hr               25.00:  ROP Min 
 ROPX.m/hr               40.00:  ROP Max 
 RPMA.rpm                80.00:  RPM Surface Avg 
 RPMN.rpm                60.00:  RPM Surface Min 
 RPMX.rpm               100.00:  RPM Surface Max 
 RRUN.                     400:  Rig Run Number 
 RTIM.hr                  1.99:  Time Reaming 
 SAZI.deg               133.93:  Azm, Start 
 SDEP.m                4047.51:  Start Depth 
 SIDD.                      No:  Serv Intrp, DD 
 SINC.deg                40.28:  Inc, Start 
 SPPA.psig             3250.00:  SPP Avg 
 SPPN.psig             3200.00:  SPP Min 
 SPPX.psig             3300.00:  SPP Max 
 STIM.      03.31.12 02-Feb-20:  Start Time 
 SVCS.                 DD, MWD:  Services 
 SVER.                    9.20:  Sperry Version 
 TDAT.m                  47.00:  Tot Depth Attmp 
 TDDF.                      No:  Trip for DD 
 TFF .                      No:  Trip for Fail 
 TQAA.f-kp                0.00:  Torque Abs Avg 
 TQAN.f-kp                0.00:  Torque Abs Min 
 TQAX.f-kp                0.00:  Torque Abs Max 
 TRRT.°/30m               0.70:  Turn Rotating 
 MRT .                    HCIM:  Maximum Recorded Temperature 
 TTMX.degC               70.59:  Max Tool Temp 
 VS01.             90598770F11:  Virtual Str1 SN 
 VS02.             90598769F11:  Virtual Str2 SN 
 VS03.            90515978Z1W1:  Virtual Str3 SN 
 VS04.          90584144R12X14:  Virtual Str4 SN 
 WBMN.klb                 0.00:  WOB Min 
 WITN.            Peter Wilson:  Customer Rep 
 WOBA.klb                 0.00:  WOB Avg 
 WOBX.klb                 0.00:  WOB Max 
 YP  .lhf2               29.00:  Yield Point 
~Curve Information Block
#MNEM.UNIT                 API CODE     Curve Description
#---------               -----------    ---------------------------
 TIME.HHMMSS            00 000 000 000:  GT Time & Date
 GTDEPTH.m              00 000 000 000:  GT Depth
 GTPQH.psia             00 000 000 000:  GT HR Quartz Pressure
 GTTQ.degC              00 000 000 000:  GT Quartz Temperature
 GTTN.NONE              00 000 000 000:  GT Test Number
 GTET.sec               00 000 000 000:  GT Elapsed Test Time
 GTTVD.m                00 000 000 000:  GT True Vertical Depth
#Other Information
#
#WARRANTY: Halliburton will use its best efforts to furnish customers with 
#accurate information and interpretations that are part of, and incident to, the services 
#provided.  However, Halliburton cannot and does not warrant the accuracy 
#or correctness of such information and interpretations.  Under no circumstances should any 
#such information or interpretation be relied upon as the sole basis for any drilling, 
#completion, production, or financial decision or any procedure involving any risk to the 
#safety of any drilling venture, drilling rig or its crew or any other third party.  The 
#Customer has full responsibility for all drilling, completion and production operation.  
#Halliburton makes no representations or warranties, either expressed or 
#implied, including, but not limited to, the implied warranties of merchantability or fitness 
#for a particular purpose, with respect to the services rendered.  In no event will 
#Halliburton be liable for failure to obtain any particular results or for 
#any damages, including, but not limited to, indirect, special or consequential damages, 
#resulting from the use of any information or interpretation provided by Halliburton.
#
~A           TIME           GTDEPTH  GTPQH  GTTQ  GTTN  GTET   GTTVD  
# ...
   06:44:13.000.03-Feb-2020 4003.01 6050.94 64.39 8.00 115.00 3015.22
   06:44:13.200.03-Feb-2020 4003.01 6050.94 64.39 8.00 115.20 3015.22
   06:44:13.400.03-Feb-2020 4003.01 6048.34 64.39 8.00 115.40 3015.22
   06:44:13.600.03-Feb-2020 4003.01 6045.64 64.39 8.00 115.60 3015.22
   06:44:13.800.03-Feb-2020 4003.01 6048.54 64.39 8.00 115.80 3015.22
   06:44:14.000.03-Feb-2020 4003.01 6050.40 64.39 8.00 116.00 3015.22
   06:44:14.200.03-Feb-2020 4003.01 6050.40 64.39 8.00 116.20 3015.22
   06:44:14.400.03-Feb-2020 4003.01 6049.39 64.39 8.00 116.40 3015.22
   06:44:14.600.03-Feb-2020 4003.01 6049.09 64.39 8.00 116.60 3015.22
   06:44:14.800.03-Feb-2020 4003.01 6051.77 64.39 8.00 116.80 3015.22
   06:44:15.000.03-Feb-2020 4003.01 6051.66 64.39 8.00 117.00 3015.22
   06:44:15.200.03-Feb-2020 4003.01 6051.66 64.39 8.00 117.20 3015.22
   06:44:15.400.03-Feb-2020 4003.01 6051.70 64.39 8.00 117.40 3015.22
   06:44:15.600.03-Feb-2020 4003.01 6051.03 64.39 8.00 117.60 3015.22
   06:44:15.800.03-Feb-2020 4003.01 6050.06 64.39 8.00 117.80 3015.22
   06:44:16.000.03-Feb-2020 4003.01 6049.53 64.39 8.00 118.00 3015.22
   06:44:16.200.03-Feb-2020 4003.01 6049.53 64.39 8.00 118.20 3015.22
   06:44:16.400.03-Feb-2020 4003.01 6041.63 64.39 8.00 118.40 3015.22
   06:44:16.600.03-Feb-2020 4003.01 6049.64 64.39 8.00 118.60 3015.22
   06:44:16.800.03-Feb-2020 4003.01 6045.86 64.39 8.00 118.80 3015.22
   06:44:17.000.03-Feb-2020 4003.01 6049.13 64.39 8.00 119.00 3015.22
   06:44:17.200.03-Feb-2020 4003.01 6049.13 64.39 8.00 119.20 3015.22
   06:44:17.400.03-Feb-2020 4003.01 6048.97 64.39 8.00 119.40 3015.22
   06:44:17.600.03-Feb-2020 4003.01 6049.44 64.39 8.00 119.60 3015.22
   06:44:17.800.03-Feb-2020 4003.01 6049.61 64.39 8.00 119.80 3015.22
   06:44:18.000.03-Feb-2020 4003.01 6050.18 64.39 8.00 120.00 3015.22
   06:44:18.200.03-Feb-2020 4003.01 6050.18 64.39 8.00 120.20 3015.22
   06:44:18.400.03-Feb-2020 4003.01 6050.10 64.39 8.00 120.40 3015.22
   06:44:18.600.03-Feb-2020 4003.01 6049.54 64.38 8.00 120.60 3015.22
   06:44:18.800.03-Feb-2020 4003.01 6050.30 64.38 8.00 120.80 3015.22
   06:44:19.000.03-Feb-2020 4003.01 6049.55 64.38 8.00 121.00 3015.22
   06:44:19.200.03-Feb-2020 4003.01 6049.55 64.38 8.00 121.20 3015.22
   06:44:19.400.03-Feb-2020 4003.01 6050.05 64.38 8.00 121.40 3015.22
   06:44:19.600.03-Feb-2020 4003.01 6048.15 64.38 8.00 121.60 3015.22
   06:44:19.800.03-Feb-2020 4003.01 6050.78 64.38 8.00 121.80 3015.22
   06:44:20.000.03-Feb-2020 4003.01 6050.70 64.38 8.00 122.00 3015.22
   06:44:20.200.03-Feb-2020 4003.01 6050.70 64.38 8.00 122.20 3015.22
   06:44:20.400.03-Feb-2020 4003.01 6051.95 64.38 8.00 122.40 3015.22
   06:44:20.600.03-Feb-2020 4003.01 6042.39 64.38 8.00 122.60 3015.22
   06:44:20.800.03-Feb-2020 4003.01 6049.41 64.38 8.00 122.80 3015.22
   06:44:21.000.03-Feb-2020 4003.01 6045.85 64.38 8.00 123.00 3015.22
   06:44:21.200.03-Feb-2020 4003.01 6045.85 64.38 8.00 123.20 3015.22
   06:44:21.400.03-Feb-2020 4003.01 6043.09 64.38 8.00 123.40 3015.22
   06:44:21.600.03-Feb-2020 4003.01 6047.53 64.38 8.00 123.60 3015.22
   06:44:21.800.03-Feb-2020 4003.01 6045.58 64.38 8.00 123.80 3015.22
   06:44:22.000.03-Feb-2020 4003.01 6049.06 64.38 8.00 124.00 3015.22
   06:44:22.200.03-Feb-2020 4003.01 6049.06 64.38 8.00 124.20 3015.22
   06:44:22.400.03-Feb-2020 4003.01 6051.81 64.38 8.00 124.40 3015.22
   06:44:22.600.03-Feb-2020 4003.01 6050.84 64.38 8.00 124.60 3015.22
   06:44:22.800.03-Feb-2020 4003.01 6050.41 64.38 8.00 124.80 3015.22
   06:44:23.000.03-Feb-2020 4003.01 6041.03 64.38 8.00 125.00 3015.22
   06:44:23.200.03-Feb-2020 4003.01 6041.03 64.38 8.00 125.20 3015.22
   06:44:23.400.03-Feb-2020 4003.01 6045.20 64.38 8.00 125.40 3015.22
   06:44:23.600.03-Feb-2020 4003.01 6050.25 64.38 8.00 125.60 3015.22
   06:44:23.800.03-Feb-2020 4003.01 6049.80 64.38 8.00 125.80 3015.22
   06:44:24.000.03-Feb-2020 4003.01 6049.78 64.38 8.00 126.00 3015.22
   06:44:24.200.03-Feb-2020 4003.01 6049.78 64.38 8.00 126.20 3015.22
   06:44:24.400.03-Feb-2020 4003.01 6050.40 64.38 8.00 126.40 3015.22
   06:44:24.600.03-Feb-2020 4003.01 6051.62 64.38 8.00 126.60 3015.22
   06:44:24.800.03-Feb-2020 4003.01 6051.34 64.38 8.00 126.80 3015.22
   06:44:25.000.03-Feb-2020 4003.01 6051.19 64.38 8.00 127.00 3015.22
   06:44:25.200.03-Feb-2020 4003.01 6051.19 64.38 8.00 127.20 3015.22
   06:44:25.400.03-Feb-2020 4003.01 6050.32 64.38 8.00 127.40 3015.22
   06:44:25.600.03-Feb-2020 4003.01 6049.62 64.38 8.00 127.60 3015.22
   06:44:25.800.03-Feb-2020 4003.01 6049.15 64.38 8.00 127.80 3015.22
   06:44:26.000.03-Feb-2020 4003.01 6050.48 64.38 8.00 128.00 3015.22
   06:44:26.200.03-Feb-2020 4003.01 6050.48 64.38 8.00 128.20 3015.22
   06:44:26.400.03-Feb-2020 4003.01 6049.38 64.38 8.00 128.40 3015.22
   06:44:26.600.03-Feb-2020 4003.01 6045.05 64.38 8.00 128.60 3015.22
   06:44:26.800.03-Feb-2020 4003.01 6048.66 64.38 8.00 128.80 3015.22
   06:44:27.000.03-Feb-2020 4003.01 6047.75 64.38 8.00 129.00 3015.22
   06:44:27.200.03-Feb-2020 4003.01 6047.75 64.38 8.00 129.20 3015.22
   06:44:27.400.03-Feb-2020 4003.01 6049.32 64.38 8.00 129.40 3015.22
   06:44:27.600.03-Feb-2020 4003.01 6049.92 64.38 8.00 129.60 3015.22
   06:44:27.800.03-Feb-2020 4003.01 6050.25 64.38 8.00 129.80 3015.22
   06:44:28.000.03-Feb-2020 4003.01 6050.44 64.38 8.00 130.00 3015.22
   06:44:28.200.03-Feb-2020 4003.01 6050.44 64.38 8.00 130.20 3015.22
   06:44:28.400.03-Feb-2020 4003.01 6049.34 64.38 8.00 130.40 3015.22
   06:44:28.600.03-Feb-2020 4003.01 6049.98 64.38 8.00 130.60 3015.22
   06:44:28.800.03-Feb-2020 4003.01 6049.47 64.38 8.00 130.80 3015.22
   06:44:29.000.03-Feb-2020 4003.01 6039.54 64.38 8.00 131.00 3015.22
   06:44:29.200.03-Feb-2020 4003.01 6039.54 64.38 8.00 131.20 3015.22
   06:44:29.400.03-Feb-2020 4003.01 6048.07 64.38 8.00 131.40 3015.22
   06:44:29.600.03-Feb-2020 4003.01 6050.81 64.38 8.00 131.60 3015.22
   06:44:29.800.03-Feb-2020 4003.01 6050.67 64.38 8.00 131.80 3015.22
   06:44:30.000.03-Feb-2020 4003.01 6051.64 64.38 8.00 132.00 3015.22
   06:44:30.200.03-Feb-2020 4003.01 6051.64 64.38 8.00 132.20 3015.22
   06:44:30.400.03-Feb-2020 4003.01 6041.77 64.38 8.00 132.40 3015.22
   06:44:30.600.03-Feb-2020 4003.01 6048.24 64.38 8.00 132.60 3015.22
   06:44:30.800.03-Feb-2020 4003.01 6046.37 64.38 8.00 132.80 3015.22
   06:44:31.000.03-Feb-2020 4003.01 6049.24 64.38 8.00 133.00 3015.22
   06:44:31.200.03-Feb-2020 4003.01 6049.24 64.38 8.00 133.20 3015.22
   06:44:31.400.03-Feb-2020 4003.01 6049.36 64.38 8.00 133.40 3015.22
   06:44:31.600.03-Feb-2020 4003.01 6045.54 64.38 8.00 133.60 3015.22
   06:44:31.800.03-Feb-2020 4003.01 6049.03 64.38 8.00 133.80 3015.22
   06:44:32.000.03-Feb-2020 4003.01 6051.13 64.38 8.00 134.00 3015.22
   06:44:32.200.03-Feb-2020 4003.01 6051.13 64.38 8.00 134.20 3015.22
   06:44:32.400.03-Feb-2020 4003.01 6048.17 64.38 8.00 134.40 3015.22
   06:44:32.600.03-Feb-2020 4003.01 6043.60 64.38 8.00 134.60 3015.22
   06:44:32.800.03-Feb-2020 4003.01 6046.51 64.38 8.00 134.80 3015.22
   06:44:33.000.03-Feb-2020 4003.01 6046.30 64.38 8.00 135.00 3015.22
   06:44:33.200.03-Feb-2020 4003.01 6046.30 64.38 8.00 135.20 3015.22
   06:44:33.400.03-Feb-2020 4003.01 6046.30 64.38 8.00 135.40 3015.22
   06:44:33.600.03-Feb-2020 4003.01 6050.30 64.38 8.00 135.60 3015.22
   06:44:33.800.03-Feb-2020 4003.01 6049.80 64.38 8.00 135.80 3015.22
   06:44:34.000.03-Feb-2020 4003.01 6048.44 64.38 8.00 136.00 3015.22
   06:44:34.200.03-Feb-2020 4003.01 6051.06 64.38 8.00 136.20 3015.22
   06:44:34.400.03-Feb-2020 4003.01 6051.62 64.37 8.00 136.40 3015.22
   06:44:34.600.03-Feb-2020 4003.01 6051.00 64.37 8.00 136.60 3015.22
   06:44:34.800.03-Feb-2020 4003.01 6051.19 64.37 8.00 136.80 3015.22
   06:44:35.000.03-Feb-2020 4003.01 6050.54 64.37 8.00 137.00 3015.22
   06:44:35.200.03-Feb-2020 4003.01 6050.54 64.37 8.00 137.20 3015.22
   06:44:35.400.03-Feb-2020 4003.01 6049.97 64.37 8.00 137.40 3015.22
   06:44:35.600.03-Feb-2020 4003.01 6050.88 64.37 8.00 137.60 3015.22
   06:44:35.800.03-Feb-2020 4003.01 6040.39 64.37 8.00 137.80 3015.22
