~Version Information
 VERS.                  2.0:   CWLS log ASCII Standard -VERSION 2.0
 WRAP.                   NO:   One line per depth step
~Well Information Block
#MNEM.UNIT     VALUE/NAME     DESCRIPTION
#---------     -----------    ---------------------------
 STRT.S             05:26:39 03-Feb-20: START TIME 05:26:39 03-Feb-20
 STOP.S             05:34:31 03-Feb-20: STOP TIME  05:34:31 03-Feb-20
 STEP.S                   0.00: STEP TIME
 NULL.                 -999.25: NULL VALUE
 DFWT.                        :  DIST FWL TEXT
 DFST.                        :  DIST FSL TEXT
 DMF .             Drill Floor:  DRILL MEAS FROM
 STIM.      09.30.00 26-Dec-19:  START TIME
 DATE.      08.00.00 20-Jan-20:  END TIME
 SPUD.               23-Nov-19:  SPUD DATE
 NREF.                    Grid:  NORTH REFERENCE
 HPTY.       Minimum Curvature:  HOLE POS TYPE
 DMOD.             Drill Model:  DRILL MOD DESC
 SVYD.                  Survey:  SURVEY DESC
 ILTD.               Lithology:  INTERP LTH DESC
 FTOP.          Formation Tops:  FORM TOPS DESC
 SON .        AZ-XX-0906192647:  JOB NUMBER
 WTYP.                Deviated:  WELL TYPE
 COMP.     BP Exploration (Caspian Sea) Ltd:  COMPANY
 BASE.              Azerbaijan:  LOGGING EQUIPMENT BASE LOCATION
 REGN.                 Eurasia:  REGION
 FLD .                     ACG:  FIELD NAME
 SRVC.              KCA Deutag:  CONTRACTOR
 MWDS.                    Baku:  MWD SHOP
 WELL.     A10 (Slot 20) - SCP:  WELL NAME
 JOBN.        AZ-XX-0906192647:  JOB TICKET NUMB
 RIG .                 Chirag1:  RIG NAME
 DCON.     Halliburton Sperry Drilling:  DIRECTNL CONTR
 UNIT.                     N/A:  LOGGING EQUIPMENT ID
 PDAT.          Mean Sea Level:  PERMANENT DATUM
 MDS .        Operator Entered:  MAG DATA SOURCE
 CTRY.              Azerbaijan:  COUNTRY NAME
 UWI .            /AZE00000090:  UNIQUE WELL IDENTIFIER
 API .            /AZE00000090:  API NUMBER
 CNTY.                        :  COUNTY
 PROV.                        :  PROVINCE
 STAT.                        :  STATE
 LOC .                        :  LOCATION
 LMF .             Drill Floor:  LOG MEASURED FROM
 TVDS.m                  36.60:  TVDSS CORRECTN
 LATI.deg                40.08:  LATITUDE
 LONG.deg                51.24:  LONGITUDE
 WHNS.m                  -7.94:  WELL HEAD N/S
 WHEW.m                   1.56:  WELL HEAD E/W
 UTMX.m              520429.26:  UTM X
 UTMY.m             4438973.87:  UTM Y
 DFWL.m                   0.00:  DISTANCE FWL
 DFSL.m                   0.00:  DISTANCE FSL
 SDEP.m                1455.00:  START DEPTH
 TDD .m                4047.51:  TOTAL DEPTH (DRILLER)
 VSDR.deg               112.75:  VERT SEC DIRECT
 GVFD.g                   1.00:  GRAVITY FIELD
 MFLD.nT              50261.00:  MAGNETIC FIELD
 MDIP.deg                59.52:  MAGNETIC DIP
 MDEC.deg                 6.42:  MAGNETIC DECL
 GRDC.deg                 0.17:  GRID CORRECTION
 AZTC.deg                 6.25:  AZM TOTAL CORR
 EPD .m                   0.00:  ELEVATION
 EGL .m                   0.00:  GROUND ELEVATION
 WDMS.m                 121.00:  WD ELEV
 APD .m                  36.60:  DEPTH ABOVE PD
 AGAP.m                  36.60:  AIR GAP
 VSEW.m                   1.56:  VERT SEC E/W
 VSNS.m                  -7.94:  VERT SEC N/S
 DEP .m                1140.01:  DEPTH
 EKB .m                  36.60:  KB ELEVATION
 EDF .m                  36.60:  DF ELEVATION
 VSC .                       0:  VS TO CLOSURE
 MAGU.                 1849206:  MAGUTM CHECKSUM
~Parameter Information Block
#MNEM.UNIT       Value        Description
#---------     -----------    ---------------------------
 AV  .mps                 1.70:  Ann Velocity 
 AVMX.mps                 2.30:  Max Ann Veloc 
 AZIF.deg               137.03:  Azm, Final 
 BHAT.                   Other:  BHA Type 
 BROT.°/30m               0.80:  Build Rotating 
 BS  .in                  8.00:  Bit Size 
 BTPL.psig              161.00:  Bit Press Loss 
 CABU.                      No:  Customer Abuse 
 COMM.                     ¬]P:  Run Comments 1 
 TCS .hr                  9.59:  Time Ciculation Ended 
 CV  .mps                 3.76:  Crit Velocity 
 CVMX.mps                 4.26:  Max Crit Veloc 
 DD1 .         Intigam Rahimov:  Direct Drillr 1 
 DD2 .          Rashad Gojayev:  Direct Drillr 2 
 DDSV.                   Other:  DD Service 
 DEFF.%                 100.00:  % Det Eff 
 DLRX.°/30m               1.44:  Dogleg Rot Max 
 DLSO.°/30m               0.00:  Dogleg Oriented 
 DLSX.°/30m               0.00:  Dogleg Str Max 
 DRET.      03.31.12 02-Feb-20:  Drill End Time 
 DRST.      03.31.12 02-Feb-20:  Drill Start Tim 
 DTIM.hr                  1.99:  Time Drilling 
 EDEP.m                4047.51:  End Depth 
 ENG1.           Eldar Hajiyev:  Engineer 1 
 ENG2.          Rasim Hashimov:  Engineer 2 
 ENG3.          Rustam Safarov:  Engineer 3 
 ETIM.      03.31.12 02-Feb-20:  End Time 
 FLOI.gpm               300.00:  Flow In 
 FLON.gpm               250.00:  Flow In Min 
 FLOS.cptm                0.00:  Fluid Loss 
 FLOX.gpm               330.00:  Flow In Max 
 HFLO.                      No:  High Flow 
 HPRE.                      No:  High Pressure 
 HTEM.                      No:  High Temp 
 HYDO.m                   2.50:  Hydro Offset 
 IFIN.deg                39.54:  Inc, Final 
 IMAX.deg                41.14:  Inc Max 
 IMIN.deg                39.81:  Inc Min 
 IMND.m                4005.21:  Inc Min Depth 
 IMXD.m                3948.42:  Inc Max Depth 
 JARR.                      No:  Jarring 
 LETM.      03.31.12 02-Feb-20:  Log End Time 
 LOST.hr                     0:  Lost Rig Time 
 LSTM.      03.31.12 02-Feb-20:  Log Start Time 
 MDCL.ppm             35000.00:  Mud Chlorides 
 MDES.     Inversion Oil/Synthetic:  Mud Desc 
 DFD .sg                  1.32:  Mud Density 
 MDMN.sg                  1.32:  Dens Mud Min 
 MDMX.sg                  1.32:  Dens Mud Max 
 MOIL.                      59:  Run Mud Oil % 
 MOWR.                   71:29:  Run Mud OWR 
 MSND.                       0:  Run Mud Sand % 
 MSOL.                      17:  Run Mud Solids% 
 DFV .spqt               86.00:  Mud Viscosity 
 MWOD.in                  4.75:  MWD Tool OD 
 MWSI.                      No:  Serv Intrp, MWD 
 OTIM.hr                 46.72:  Time Operating 
 PCON.           Look Like New:  Pad Condition 
 PMAX.psia             3300.00:  Press Op, Max 
 PV  .cP                 30.00:  Mud PV 
 RUN .                     400:  Run Number 
 ROPA.m/hr               35.00:  ROP Avg 
 ROPN.m/hr               25.00:  ROP Min 
 ROPX.m/hr               40.00:  ROP Max 
 RPMA.rpm                80.00:  RPM Surface Avg 
 RPMN.rpm                60.00:  RPM Surface Min 
 RPMX.rpm               100.00:  RPM Surface Max 
 RRUN.                     400:  Rig Run Number 
 RTIM.hr                  1.99:  Time Reaming 
 SAZI.deg               133.93:  Azm, Start 
 SDEP.m                4047.51:  Start Depth 
 SIDD.                      No:  Serv Intrp, DD 
 SINC.deg                40.28:  Inc, Start 
 SPPA.psig             3250.00:  SPP Avg 
 SPPN.psig             3200.00:  SPP Min 
 SPPX.psig             3300.00:  SPP Max 
 STIM.      03.31.12 02-Feb-20:  Start Time 
 SVCS.                 DD, MWD:  Services 
 SVER.                    9.20:  Sperry Version 
 TDAT.m                  47.00:  Tot Depth Attmp 
 TDDF.                      No:  Trip for DD 
 TFF .                      No:  Trip for Fail 
 TQAA.f-kp                0.00:  Torque Abs Avg 
 TQAN.f-kp                0.00:  Torque Abs Min 
 TQAX.f-kp                0.00:  Torque Abs Max 
 TRRT.°/30m               0.70:  Turn Rotating 
 MRT .                    HCIM:  Maximum Recorded Temperature 
 TTMX.degC               70.59:  Max Tool Temp 
 VS01.             90598770F11:  Virtual Str1 SN 
 VS02.             90598769F11:  Virtual Str2 SN 
 VS03.            90515978Z1W1:  Virtual Str3 SN 
 VS04.          90584144R12X14:  Virtual Str4 SN 
 WBMN.klb                 0.00:  WOB Min 
 WITN.            Peter Wilson:  Customer Rep 
 WOBA.klb                 0.00:  WOB Avg 
 WOBX.klb                 0.00:  WOB Max 
 YP  .lhf2               29.00:  Yield Point 
~Curve Information Block
#MNEM.UNIT                 API CODE     Curve Description
#---------               -----------    ---------------------------
 TIME.HHMMSS            00 000 000 000:  GT Time & Date
 GTDEPTH.m              00 000 000 000:  GT Depth
 GTPQH.psia             00 000 000 000:  GT HR Quartz Pressure
 GTTQ.degC              00 000 000 000:  GT Quartz Temperature
 GTTN.NONE              00 000 000 000:  GT Test Number
 GTET.sec               00 000 000 000:  GT Elapsed Test Time
 GTTVD.m                00 000 000 000:  GT True Vertical Depth
#Other Information
#
#WARRANTY: Halliburton will use its best efforts to furnish customers with 
#accurate information and interpretations that are part of, and incident to, the services 
#provided.  However, Halliburton cannot and does not warrant the accuracy 
#or correctness of such information and interpretations.  Under no circumstances should any 
#such information or interpretation be relied upon as the sole basis for any drilling, 
#completion, production, or financial decision or any procedure involving any risk to the 
#safety of any drilling venture, drilling rig or its crew or any other third party.  The 
#Customer has full responsibility for all drilling, completion and production operation.  
#Halliburton makes no representations or warranties, either expressed or 
#implied, including, but not limited to, the implied warranties of merchantability or fitness 
#for a particular purpose, with respect to the services rendered.  In no event will 
#Halliburton be liable for failure to obtain any particular results or for 
#any damages, including, but not limited to, indirect, special or consequential damages, 
#resulting from the use of any information or interpretation provided by Halliburton.
#
~A           TIME           GTDEPTH  GTPQH  GTTQ  GTTN  GTET   GTTVD  
# ...
   05:27:48.000.03-Feb-2020 4009.51 3047.06 64.68 5.00  69.00 3020.21
   05:27:48.200.03-Feb-2020 4009.51 3047.06 64.68 5.00  69.20 3020.21
   05:27:48.400.03-Feb-2020 4009.51 3049.28 64.68 5.00  69.40 3020.21
   05:27:48.600.03-Feb-2020 4009.51 3050.00 64.68 5.00  69.60 3020.21
   05:27:48.800.03-Feb-2020 4009.51 3051.41 64.68 5.00  69.80 3020.21
   05:27:49.000.03-Feb-2020 4009.51 3052.34 64.67 5.00  70.00 3020.21
   05:27:49.200.03-Feb-2020 4009.51 3052.34 64.67 5.00  70.20 3020.21
   05:27:49.400.03-Feb-2020 4009.51 3054.59 64.67 5.00  70.40 3020.21
   05:27:49.600.03-Feb-2020 4009.51 3055.73 64.67 5.00  70.60 3020.21
   05:27:49.800.03-Feb-2020 4009.51 3056.81 64.67 5.00  70.80 3020.21
   05:27:50.000.03-Feb-2020 4009.51 3057.79 64.67 5.00  71.00 3020.21
   05:27:50.200.03-Feb-2020 4009.51 3057.79 64.67 5.00  71.20 3020.21
   05:27:50.400.03-Feb-2020 4009.51 3059.75 64.67 5.00  71.40 3020.21
   05:27:50.600.03-Feb-2020 4009.51 3060.51 64.67 5.00  71.60 3020.21
   05:27:50.800.03-Feb-2020 4009.51 3061.39 64.67 5.00  71.80 3020.21
   05:27:51.000.03-Feb-2020 4009.51 3062.05 64.67 5.00  72.00 3020.21
   05:27:51.200.03-Feb-2020 4009.51 3062.05 64.67 5.00  72.20 3020.21
   05:27:51.400.03-Feb-2020 4009.51 3064.21 64.67 5.00  72.40 3020.21
   05:27:51.600.03-Feb-2020 4009.51 3065.19 64.67 5.00  72.60 3020.21
   05:27:51.800.03-Feb-2020 4009.51 3065.99 64.67 5.00  72.80 3020.21
   05:27:52.000.03-Feb-2020 4009.51 3066.65 64.67 5.00  73.00 3020.21
   05:27:52.200.03-Feb-2020 4009.51 3066.65 64.67 5.00  73.20 3020.21
   05:27:52.400.03-Feb-2020 4009.51 3068.10 64.67 5.00  73.40 3020.21
   05:27:52.600.03-Feb-2020 4009.51 3069.22 64.67 5.00  73.60 3020.21
   05:27:52.800.03-Feb-2020 4009.51 3069.97 64.67 5.00  73.80 3020.21
   05:27:53.000.03-Feb-2020 4009.51 3070.39 64.67 5.00  74.00 3020.21
   05:27:53.200.03-Feb-2020 4009.51 3070.39 64.67 5.00  74.20 3020.21
   05:27:53.400.03-Feb-2020 4009.51 3072.12 64.67 5.00  74.40 3020.21
   05:27:53.600.03-Feb-2020 4009.51 3073.06 64.67 5.00  74.60 3020.21
   05:27:53.800.03-Feb-2020 4009.51 3073.89 64.67 5.00  74.80 3020.21
   05:27:54.000.03-Feb-2020 4009.51 3074.63 64.67 5.00  75.00 3020.21
   05:27:54.200.03-Feb-2020 4009.51 3074.63 64.67 5.00  75.20 3020.21
   05:27:54.400.03-Feb-2020 4009.51 3075.79 64.67 5.00  75.40 3020.21
   05:27:54.600.03-Feb-2020 4009.51 3076.25 64.67 5.00  75.60 3020.21
   05:27:54.800.03-Feb-2020 4009.51 3077.20 64.67 5.00  75.80 3020.21
   05:27:55.000.03-Feb-2020 4009.51 3077.90 64.67 5.00  76.00 3020.21
   05:27:55.200.03-Feb-2020 4009.51 3077.90 64.67 5.00  76.20 3020.21
   05:27:55.400.03-Feb-2020 4009.51 3079.39 64.67 5.00  76.40 3020.21
   05:27:55.600.03-Feb-2020 4009.51 3079.92 64.67 5.00  76.60 3020.21
   05:27:55.800.03-Feb-2020 4009.51 3080.55 64.67 5.00  76.80 3020.21
   05:27:56.000.03-Feb-2020 4009.51 3081.32 64.67 5.00  77.00 3020.21
   05:27:56.200.03-Feb-2020 4009.51 3081.32 64.67 5.00  77.20 3020.21
   05:27:56.400.03-Feb-2020 4009.51 3082.51 64.67 5.00  77.40 3020.21
   05:27:56.600.03-Feb-2020 4009.51 3083.08 64.67 5.00  77.60 3020.21
   05:27:56.800.03-Feb-2020 4009.51 3083.64 64.67 5.00  77.80 3020.21
   05:27:57.000.03-Feb-2020 4009.51 3084.17 64.67 5.00  78.00 3020.21
   05:27:57.200.03-Feb-2020 4009.51 3084.17 64.67 5.00  78.20 3020.21
   05:27:57.400.03-Feb-2020 4009.51 3085.42 64.67 5.00  78.40 3020.21
   05:27:57.600.03-Feb-2020 4009.51 3085.55 64.67 5.00  78.60 3020.21
   05:27:57.800.03-Feb-2020 4009.51 3086.35 64.67 5.00  78.80 3020.21
   05:27:58.000.03-Feb-2020 4009.51 3086.56 64.67 5.00  79.00 3020.21
   05:27:58.200.03-Feb-2020 4009.51 3086.56 64.67 5.00  79.20 3020.21
   05:27:58.400.03-Feb-2020 4009.51 3087.71 64.67 5.00  79.40 3020.21
   05:27:58.600.03-Feb-2020 4009.51 3088.35 64.67 5.00  79.60 3020.21
   05:27:58.800.03-Feb-2020 4009.51 3088.89 64.67 5.00  79.80 3020.21
   05:27:59.000.03-Feb-2020 4009.51 3089.38 64.67 5.00  80.00 3020.21
   05:27:59.200.03-Feb-2020 4009.51 3089.38 64.67 5.00  80.20 3020.21
   05:27:59.400.03-Feb-2020 4009.51 3090.39 64.67 5.00  80.40 3020.21
   05:27:59.600.03-Feb-2020 4009.51 3090.84 64.67 5.00  80.60 3020.21
   05:27:59.800.03-Feb-2020 4009.51 3091.33 64.67 5.00  80.80 3020.21
   05:28:00.000.03-Feb-2020 4009.51 3091.62 64.67 5.00  81.00 3020.21
   05:28:00.200.03-Feb-2020 4009.51 3091.62 64.67 5.00  81.20 3020.21
   05:28:00.400.03-Feb-2020 4009.51 3092.18 64.67 5.00  81.40 3020.21
   05:28:00.600.03-Feb-2020 4009.51 3093.17 64.67 5.00  81.60 3020.21
   05:28:00.800.03-Feb-2020 4009.51 3093.55 64.67 5.00  81.80 3020.21
   05:28:01.000.03-Feb-2020 4009.51 3093.99 64.67 5.00  82.00 3020.21
   05:28:01.200.03-Feb-2020 4009.51 3093.99 64.67 5.00  82.20 3020.21
   05:28:01.400.03-Feb-2020 4009.51 3094.92 64.66 5.00  82.40 3020.21
   05:28:01.600.03-Feb-2020 4009.51 3094.88 64.66 5.00  82.60 3020.21
   05:28:01.800.03-Feb-2020 4009.51 3095.57 64.66 5.00  82.80 3020.21
   05:28:02.000.03-Feb-2020 4009.51 3095.80 64.66 5.00  83.00 3020.21
   05:28:02.200.03-Feb-2020 4009.51 3095.80 64.66 5.00  83.20 3020.21
   05:28:02.400.03-Feb-2020 4009.51 3096.77 64.66 5.00  83.40 3020.21
   05:28:02.600.03-Feb-2020 4009.51 3097.25 64.66 5.00  83.60 3020.21
   05:28:02.800.03-Feb-2020 4009.51 3097.44 64.66 5.00  83.80 3020.21
   05:28:03.000.03-Feb-2020 4009.51 3097.97 64.66 5.00  84.00 3020.21
   05:28:03.200.03-Feb-2020 4009.51 3097.97 64.66 5.00  84.20 3020.21
   05:28:03.400.03-Feb-2020 4009.51 3098.90 64.66 5.00  84.40 3020.21
   05:28:03.600.03-Feb-2020 4009.51 3099.15 64.66 5.00  84.60 3020.21
   05:28:03.800.03-Feb-2020 4009.51 3099.41 64.66 5.00  84.80 3020.21
   05:28:04.000.03-Feb-2020 4009.51 3099.86 64.66 5.00  85.00 3020.21
   05:28:04.200.03-Feb-2020 4009.51 3099.86 64.66 5.00  85.20 3020.21
   05:28:04.400.03-Feb-2020 4009.51 3100.59 64.66 5.00  85.40 3020.21
   05:28:04.600.03-Feb-2020 4009.51 3101.02 64.66 5.00  85.60 3020.21
   05:28:04.800.03-Feb-2020 4009.51 3101.46 64.66 5.00  85.80 3020.21
   05:28:05.000.03-Feb-2020 4009.51 3101.81 64.66 5.00  86.00 3020.21
   05:28:05.200.03-Feb-2020 4009.51 3101.81 64.66 5.00  86.20 3020.21
   05:28:05.400.03-Feb-2020 4009.51 3102.49 64.66 5.00  86.40 3020.21
   05:28:05.600.03-Feb-2020 4009.51 3102.70 64.66 5.00  86.60 3020.21
   05:28:05.800.03-Feb-2020 4009.51 3103.13 64.66 5.00  86.80 3020.21
   05:28:06.000.03-Feb-2020 4009.51 3103.61 64.66 5.00  87.00 3020.21
   05:28:06.200.03-Feb-2020 4009.51 3103.61 64.66 5.00  87.20 3020.21
   05:28:06.400.03-Feb-2020 4009.51 3104.17 64.66 5.00  87.40 3020.21
   05:28:06.600.03-Feb-2020 4009.51 3104.42 64.66 5.00  87.60 3020.21
   05:28:06.800.03-Feb-2020 4009.51 3104.80 64.66 5.00  87.80 3020.21
   05:28:07.000.03-Feb-2020 4009.51 3105.17 64.66 5.00  88.00 3020.21
   05:28:07.200.03-Feb-2020 4009.51 3105.17 64.66 5.00  88.20 3020.21
   05:28:07.400.03-Feb-2020 4009.51 3105.58 64.66 5.00  88.40 3020.21
   05:28:07.600.03-Feb-2020 4009.51 3105.76 64.66 5.00  88.60 3020.21
   05:28:07.800.03-Feb-2020 4009.51 3106.19 64.66 5.00  88.80 3020.21
   05:28:08.000.03-Feb-2020 4009.51 3106.38 64.66 5.00  89.00 3020.21
   05:28:08.200.03-Feb-2020 4009.51 3106.38 64.66 5.00  89.20 3020.21
   05:28:08.400.03-Feb-2020 4009.51 3107.17 64.66 5.00  89.40 3020.21
   05:28:08.600.03-Feb-2020 4009.51 3107.61 64.66 5.00  89.60 3020.21
   05:28:08.800.03-Feb-2020 4009.51 3107.99 64.66 5.00  89.80 3020.21
   05:28:09.000.03-Feb-2020 4009.51 3108.18 64.66 5.00  90.00 3020.21
   05:28:09.200.03-Feb-2020 4009.51 3108.18 64.66 5.00  90.20 3020.21
   05:28:09.400.03-Feb-2020 4009.51 3108.83 64.66 5.00  90.40 3020.21
   05:28:09.600.03-Feb-2020 4009.51 3108.86 64.66 5.00  90.60 3020.21
   05:28:09.800.03-Feb-2020 4009.51 3109.22 64.66 5.00  90.80 3020.21
   05:28:10.000.03-Feb-2020 4009.51 3109.22 64.66 5.00  91.00 3020.21
   05:28:10.200.03-Feb-2020 4009.51 3109.22 64.66 5.00  91.20 3020.21
   05:28:10.400.03-Feb-2020 4009.51 3109.93 64.66 5.00  91.40 3020.21
   05:28:10.600.03-Feb-2020 4009.51 3110.12 64.66 5.00  91.60 3020.21
   05:28:10.800.03-Feb-2020 4009.51 3110.17 64.66 5.00  91.80 3020.21
