~Version Information
 VERS.                  2.0:   CWLS log ASCII Standard -VERSION 2.0
 WRAP.                   NO:   One line per depth step
~Well Information Block
#MNEM.UNIT     VALUE/NAME     DESCRIPTION
#---------     -----------    ---------------------------
 STRT.S             05:45:18 03-Feb-20: START TIME 05:45:18 03-Feb-20
 STOP.S             05:53:13 03-Feb-20: STOP TIME  05:53:13 03-Feb-20
 STEP.S                   0.00: STEP TIME
 NULL.                 -999.25: NULL VALUE
 DFWT.                        :  DIST FWL TEXT
 DFST.                        :  DIST FSL TEXT
 DMF .             Drill Floor:  DRILL MEAS FROM
 STIM.      09.30.00 26-Dec-19:  START TIME
 DATE.      08.00.00 20-Jan-20:  END TIME
 SPUD.               23-Nov-19:  SPUD DATE
 NREF.                    Grid:  NORTH REFERENCE
 HPTY.       Minimum Curvature:  HOLE POS TYPE
 DMOD.             Drill Model:  DRILL MOD DESC
 SVYD.                  Survey:  SURVEY DESC
 ILTD.               Lithology:  INTERP LTH DESC
 FTOP.          Formation Tops:  FORM TOPS DESC
 SON .        AZ-XX-0906192647:  JOB NUMBER
 WTYP.                Deviated:  WELL TYPE
 COMP.     BP Exploration (Caspian Sea) Ltd:  COMPANY
 BASE.              Azerbaijan:  LOGGING EQUIPMENT BASE LOCATION
 REGN.                 Eurasia:  REGION
 FLD .                     ACG:  FIELD NAME
 SRVC.              KCA Deutag:  CONTRACTOR
 MWDS.                    Baku:  MWD SHOP
 WELL.     A10 (Slot 20) - SCP:  WELL NAME
 JOBN.        AZ-XX-0906192647:  JOB TICKET NUMB
 RIG .                 Chirag1:  RIG NAME
 DCON.     Halliburton Sperry Drilling:  DIRECTNL CONTR
 UNIT.                     N/A:  LOGGING EQUIPMENT ID
 PDAT.          Mean Sea Level:  PERMANENT DATUM
 MDS .        Operator Entered:  MAG DATA SOURCE
 CTRY.              Azerbaijan:  COUNTRY NAME
 UWI .            /AZE00000090:  UNIQUE WELL IDENTIFIER
 API .            /AZE00000090:  API NUMBER
 CNTY.                        :  COUNTY
 PROV.                        :  PROVINCE
 STAT.                        :  STATE
 LOC .                        :  LOCATION
 LMF .             Drill Floor:  LOG MEASURED FROM
 TVDS.m                  36.60:  TVDSS CORRECTN
 LATI.deg                40.08:  LATITUDE
 LONG.deg                51.24:  LONGITUDE
 WHNS.m                  -7.94:  WELL HEAD N/S
 WHEW.m                   1.56:  WELL HEAD E/W
 UTMX.m              520429.26:  UTM X
 UTMY.m             4438973.87:  UTM Y
 DFWL.m                   0.00:  DISTANCE FWL
 DFSL.m                   0.00:  DISTANCE FSL
 SDEP.m                1455.00:  START DEPTH
 TDD .m                4047.51:  TOTAL DEPTH (DRILLER)
 VSDR.deg               112.75:  VERT SEC DIRECT
 GVFD.g                   1.00:  GRAVITY FIELD
 MFLD.nT              50261.00:  MAGNETIC FIELD
 MDIP.deg                59.52:  MAGNETIC DIP
 MDEC.deg                 6.42:  MAGNETIC DECL
 GRDC.deg                 0.17:  GRID CORRECTION
 AZTC.deg                 6.25:  AZM TOTAL CORR
 EPD .m                   0.00:  ELEVATION
 EGL .m                   0.00:  GROUND ELEVATION
 WDMS.m                 121.00:  WD ELEV
 APD .m                  36.60:  DEPTH ABOVE PD
 AGAP.m                  36.60:  AIR GAP
 VSEW.m                   1.56:  VERT SEC E/W
 VSNS.m                  -7.94:  VERT SEC N/S
 DEP .m                1140.01:  DEPTH
 EKB .m                  36.60:  KB ELEVATION
 EDF .m                  36.60:  DF ELEVATION
 VSC .                       0:  VS TO CLOSURE
 MAGU.                 1849206:  MAGUTM CHECKSUM
~Parameter Information Block
#MNEM.UNIT       Value        Description
#---------     -----------    ---------------------------
 AV  .mps                 1.70:  Ann Velocity 
 AVMX.mps                 2.30:  Max Ann Veloc 
 AZIF.deg               137.03:  Azm, Final 
 BHAT.                   Other:  BHA Type 
 BROT.°/30m               0.80:  Build Rotating 
 BS  .in                  8.00:  Bit Size 
 BTPL.psig              161.00:  Bit Press Loss 
 CABU.                      No:  Customer Abuse 
 TCS .hr                  9.59:  Time Ciculation Ended 
 CV  .mps                 3.76:  Crit Velocity 
 CVMX.mps                 4.26:  Max Crit Veloc 
 DD1 .         Intigam Rahimov:  Direct Drillr 1 
 DD2 .          Rashad Gojayev:  Direct Drillr 2 
 DDSV.                   Other:  DD Service 
 DEFF.%                 100.00:  % Det Eff 
 DLRX.°/30m               1.44:  Dogleg Rot Max 
 DLSO.°/30m               0.00:  Dogleg Oriented 
 DLSX.°/30m               0.00:  Dogleg Str Max 
 DRET.      03.31.12 02-Feb-20:  Drill End Time 
 DRST.      03.31.12 02-Feb-20:  Drill Start Tim 
 DTIM.hr                  1.99:  Time Drilling 
 EDEP.m                4047.51:  End Depth 
 ENG1.           Eldar Hajiyev:  Engineer 1 
 ENG2.          Rasim Hashimov:  Engineer 2 
 ENG3.          Rustam Safarov:  Engineer 3 
 ETIM.      03.31.12 02-Feb-20:  End Time 
 FLOI.gpm               300.00:  Flow In 
 FLON.gpm               250.00:  Flow In Min 
 FLOS.cptm                0.00:  Fluid Loss 
 FLOX.gpm               330.00:  Flow In Max 
 HFLO.                      No:  High Flow 
 HPRE.                      No:  High Pressure 
 HTEM.                      No:  High Temp 
 HYDO.m                   2.50:  Hydro Offset 
 IFIN.deg                39.54:  Inc, Final 
 IMAX.deg                41.14:  Inc Max 
 IMIN.deg                39.81:  Inc Min 
 IMND.m                4005.21:  Inc Min Depth 
 IMXD.m                3948.42:  Inc Max Depth 
 JARR.                      No:  Jarring 
 LETM.      03.31.12 02-Feb-20:  Log End Time 
 LOST.hr                     0:  Lost Rig Time 
 LSTM.      03.31.12 02-Feb-20:  Log Start Time 
 MDCL.ppm             35000.00:  Mud Chlorides 
 MDES.     Inversion Oil/Synthetic:  Mud Desc 
 DFD .sg                  1.32:  Mud Density 
 MDMN.sg                  1.32:  Dens Mud Min 
 MDMX.sg                  1.32:  Dens Mud Max 
 MOIL.                      59:  Run Mud Oil % 
 MOWR.                   71:29:  Run Mud OWR 
 MSND.                       0:  Run Mud Sand % 
 MSOL.                      17:  Run Mud Solids% 
 DFV .spqt               86.00:  Mud Viscosity 
 MWOD.in                  4.75:  MWD Tool OD 
 MWSI.                      No:  Serv Intrp, MWD 
 OTIM.hr                 46.72:  Time Operating 
 PCON.           Look Like New:  Pad Condition 
 PMAX.psia             3300.00:  Press Op, Max 
 PV  .cP                 30.00:  Mud PV 
 RUN .                     400:  Run Number 
 ROPA.m/hr               35.00:  ROP Avg 
 ROPN.m/hr               25.00:  ROP Min 
 ROPX.m/hr               40.00:  ROP Max 
 RPMA.rpm                80.00:  RPM Surface Avg 
 RPMN.rpm                60.00:  RPM Surface Min 
 RPMX.rpm               100.00:  RPM Surface Max 
 RRUN.                     400:  Rig Run Number 
 RTIM.hr                  1.99:  Time Reaming 
 SAZI.deg               133.93:  Azm, Start 
 SDEP.m                4047.51:  Start Depth 
 SIDD.                      No:  Serv Intrp, DD 
 SINC.deg                40.28:  Inc, Start 
 SPPA.psig             3250.00:  SPP Avg 
 SPPN.psig             3200.00:  SPP Min 
 SPPX.psig             3300.00:  SPP Max 
 STIM.      03.31.12 02-Feb-20:  Start Time 
 SVCS.                 DD, MWD:  Services 
 SVER.                    9.20:  Sperry Version 
 TDAT.m                  47.00:  Tot Depth Attmp 
 TDDF.                      No:  Trip for DD 
 TFF .                      No:  Trip for Fail 
 TQAA.f-kp                0.00:  Torque Abs Avg 
 TQAN.f-kp                0.00:  Torque Abs Min 
 TQAX.f-kp                0.00:  Torque Abs Max 
 TRRT.°/30m               0.70:  Turn Rotating 
 MRT .                    HCIM:  Maximum Recorded Temperature 
 TTMX.degC               70.59:  Max Tool Temp 
 VS01.             90598770F11:  Virtual Str1 SN 
 VS02.             90598769F11:  Virtual Str2 SN 
 VS03.            90515978Z1W1:  Virtual Str3 SN 
 VS04.          90584144R12X14:  Virtual Str4 SN 
 WBMN.klb                 0.00:  WOB Min 
 WITN.            Peter Wilson:  Customer Rep 
 WOBA.klb                 0.00:  WOB Avg 
 WOBX.klb                 0.00:  WOB Max 
 YP  .lhf2               29.00:  Yield Point 
~Curve Information Block
#MNEM.UNIT                 API CODE     Curve Description
#---------               -----------    ---------------------------
 TIME.HHMMSS            00 000 000 000:  GT Time & Date
 GTDEPTH.m              00 000 000 000:  GT Depth
 GTPQH.psia             00 000 000 000:  GT HR Quartz Pressure
 GTTQ.degC              00 000 000 000:  GT Quartz Temperature
 GTTN.NONE              00 000 000 000:  GT Test Number
 GTET.sec               00 000 000 000:  GT Elapsed Test Time
 GTTVD.m                00 000 000 000:  GT True Vertical Depth
#Other Information
#
#WARRANTY: Halliburton will use its best efforts to furnish customers with 
#accurate information and interpretations that are part of, and incident to, the services 
#provided.  However, Halliburton cannot and does not warrant the accuracy 
#or correctness of such information and interpretations.  Under no circumstances should any 
#such information or interpretation be relied upon as the sole basis for any drilling, 
#completion, production, or financial decision or any procedure involving any risk to the 
#safety of any drilling venture, drilling rig or its crew or any other third party.  The 
#Customer has full responsibility for all drilling, completion and production operation.  
#Halliburton makes no representations or warranties, either expressed or 
#implied, including, but not limited to, the implied warranties of merchantability or fitness 
#for a particular purpose, with respect to the services rendered.  In no event will 
#Halliburton be liable for failure to obtain any particular results or for 
#any damages, including, but not limited to, indirect, special or consequential damages, 
#resulting from the use of any information or interpretation provided by Halliburton.
#
~A           TIME           GTDEPTH  GTPQH  GTTQ  GTTN  GTET   GTTVD  
# ...
   05:45:41.000.03-Feb-2020 4005.21 6244.35 64.00 6.00  23.00 3016.91
   05:45:41.200.03-Feb-2020 4005.21 6244.35 64.00 6.00  23.20 3016.91
   05:45:41.400.03-Feb-2020 4005.21 6395.79 64.00 6.00  23.40 3016.91
   05:45:41.600.03-Feb-2020 4005.21 6469.10 64.00 6.00  23.60 3016.91
   05:45:41.800.03-Feb-2020 4005.21 6368.15 64.00 6.00  23.80 3016.91
   05:45:42.000.03-Feb-2020 4005.21 6478.85 64.00 6.00  24.00 3016.91
   05:45:42.200.03-Feb-2020 4005.21 6478.85 64.00 6.00  24.20 3016.91
   05:45:42.400.03-Feb-2020 4005.21 6325.26 64.00 6.00  24.40 3016.91
   05:45:42.600.03-Feb-2020 4005.21 6250.40 64.00 6.00  24.60 3016.91
   05:45:42.800.03-Feb-2020 4005.21 6208.19 64.00 6.00  24.80 3016.91
   05:45:43.000.03-Feb-2020 4005.21 6192.00 64.00 6.00  25.00 3016.91
   05:45:43.200.03-Feb-2020 4005.21 6192.00 64.00 6.00  25.20 3016.91
   05:45:43.400.03-Feb-2020 4005.21 6183.23 64.00 6.00  25.40 3016.91
   05:45:43.600.03-Feb-2020 4005.21 6181.38 64.00 6.00  25.60 3016.91
   05:45:43.800.03-Feb-2020 4005.21 6180.91 64.00 6.00  25.80 3016.91
   05:45:44.000.03-Feb-2020 4005.21 6165.42 64.00 6.00  26.00 3016.91
   05:45:44.200.03-Feb-2020 4005.21 6165.42 64.00 6.00  26.20 3016.91
   05:45:44.400.03-Feb-2020 4005.21 6057.05 64.00 6.00  26.40 3016.91
   05:45:44.600.03-Feb-2020 4005.21 6049.34 64.00 6.00  26.60 3016.91
   05:45:44.800.03-Feb-2020 4005.21 6053.19 64.00 6.00  26.80 3016.91
   05:45:45.000.03-Feb-2020 4005.21 6052.39 64.00 6.00  27.00 3016.91
   05:45:45.200.03-Feb-2020 4005.21 6052.39 64.00 6.00  27.20 3016.91
   05:45:45.400.03-Feb-2020 4005.21 6044.55 64.00 6.00  27.40 3016.91
   05:45:45.600.03-Feb-2020 4005.21 6050.35 64.00 6.00  27.60 3016.91
   05:45:45.800.03-Feb-2020 4005.21 6050.63 64.00 6.00  27.80 3016.91
   05:45:46.000.03-Feb-2020 4005.21 6054.57 64.00 6.00  28.00 3016.91
   05:45:46.200.03-Feb-2020 4005.21 6054.57 64.00 6.00  28.20 3016.91
   05:45:46.400.03-Feb-2020 4005.21 6053.22 64.00 6.00  28.40 3016.91
   05:45:46.600.03-Feb-2020 4005.21 6042.92 64.00 6.00  28.60 3016.91
   05:45:46.800.03-Feb-2020 4005.21 6051.21 64.00 6.00  28.80 3016.91
   05:45:47.000.03-Feb-2020 4005.21 6045.76 64.00 6.00  29.00 3016.91
   05:45:47.200.03-Feb-2020 4005.21 6045.76 64.00 6.00  29.20 3016.91
   05:45:47.400.03-Feb-2020 4005.21 6043.44 64.00 6.00  29.40 3016.91
   05:45:47.600.03-Feb-2020 4005.21 6043.40 63.99 6.00  29.60 3016.91
   05:45:47.800.03-Feb-2020 4005.21 6044.44 64.00 6.00  29.80 3016.91
   05:45:48.000.03-Feb-2020 4005.21 6044.56 63.99 6.00  30.00 3016.91
   05:45:48.200.03-Feb-2020 4005.21 6044.56 63.99 6.00  30.20 3016.91
   05:45:48.400.03-Feb-2020 4005.21 6049.09 63.99 6.00  30.40 3016.91
   05:45:48.600.03-Feb-2020 4005.21 6048.99 63.99 6.00  30.60 3016.91
   05:45:48.800.03-Feb-2020 4005.21 6049.49 63.99 6.00  30.80 3016.91
   05:45:49.000.03-Feb-2020 4005.21 6048.89 63.99 6.00  31.00 3016.91
   05:45:49.200.03-Feb-2020 4005.21 6048.89 63.99 6.00  31.20 3016.91
   05:45:49.400.03-Feb-2020 4005.21 6047.27 63.99 6.00  31.40 3016.91
   05:45:49.600.03-Feb-2020 4005.21 6049.00 63.99 6.00  31.60 3016.91
   05:45:49.800.03-Feb-2020 4005.21 6045.13 63.99 6.00  31.80 3016.91
   05:45:50.000.03-Feb-2020 4005.21 6042.69 63.99 6.00  32.00 3016.91
   05:45:50.200.03-Feb-2020 4005.21 6042.69 63.99 6.00  32.20 3016.91
   05:45:50.400.03-Feb-2020 4005.21 6045.51 63.99 6.00  32.40 3016.91
   05:45:50.600.03-Feb-2020 4005.21 6045.93 63.99 6.00  32.60 3016.91
   05:45:50.800.03-Feb-2020 4005.21 6046.31 63.99 6.00  32.80 3016.91
   05:45:51.000.03-Feb-2020 4005.21 6046.44 63.99 6.00  33.00 3016.91
   05:45:51.200.03-Feb-2020 4005.21 6046.44 63.99 6.00  33.20 3016.91
   05:45:51.400.03-Feb-2020 4005.21 6048.17 63.99 6.00  33.40 3016.91
   05:45:51.600.03-Feb-2020 4005.21 6048.22 63.99 6.00  33.60 3016.91
   05:45:51.800.03-Feb-2020 4005.21 6047.69 63.99 6.00  33.80 3016.91
   05:45:52.000.03-Feb-2020 4005.21 6047.23 63.99 6.00  34.00 3016.91
   05:45:52.200.03-Feb-2020 4005.21 6047.23 63.99 6.00  34.20 3016.91
   05:45:52.400.03-Feb-2020 4005.21 6046.99 63.99 6.00  34.40 3016.91
   05:45:52.600.03-Feb-2020 4005.21 6037.58 63.99 6.00  34.60 3016.91
   05:45:52.800.03-Feb-2020 4005.21 6046.20 63.99 6.00  34.80 3016.91
   05:45:53.000.03-Feb-2020 4005.21 6046.25 63.99 6.00  35.00 3016.91
   05:45:53.200.03-Feb-2020 4005.21 6046.25 63.99 6.00  35.20 3016.91
   05:45:53.400.03-Feb-2020 4005.21 6046.79 63.99 6.00  35.40 3016.91
   05:45:53.600.03-Feb-2020 4005.21 6046.37 63.99 6.00  35.60 3016.91
   05:45:53.800.03-Feb-2020 4005.21 6045.85 63.99 6.00  35.80 3016.91
   05:45:54.000.03-Feb-2020 4005.21 6048.11 63.99 6.00  36.00 3016.91
   05:45:54.200.03-Feb-2020 4005.21 6048.11 63.99 6.00  36.20 3016.91
   05:45:54.400.03-Feb-2020 4005.21 6047.44 63.99 6.00  36.40 3016.91
   05:45:54.600.03-Feb-2020 4005.21 6044.10 63.99 6.00  36.60 3016.91
   05:45:54.800.03-Feb-2020 4005.21 6041.54 63.99 6.00  36.80 3016.91
   05:45:55.000.03-Feb-2020 4005.21 6044.23 63.99 6.00  37.00 3016.91
   05:45:55.200.03-Feb-2020 4005.21 6044.23 63.99 6.00  37.20 3016.91
   05:45:55.400.03-Feb-2020 4005.21 6046.85 63.99 6.00  37.40 3016.91
   05:45:55.600.03-Feb-2020 4005.21 6050.02 63.99 6.00  37.60 3016.91
   05:45:55.800.03-Feb-2020 4005.21 6049.18 63.99 6.00  37.80 3016.91
   05:45:56.000.03-Feb-2020 4005.21 6047.56 63.99 6.00  38.00 3016.91
   05:45:56.200.03-Feb-2020 4005.21 6047.56 63.99 6.00  38.20 3016.91
   05:45:56.400.03-Feb-2020 4005.21 6049.10 63.99 6.00  38.40 3016.91
   05:45:56.600.03-Feb-2020 4005.21 6043.87 63.98 6.00  38.60 3016.91
   05:45:56.800.03-Feb-2020 4005.21 6048.44 63.98 6.00  38.80 3016.91
   05:45:57.000.03-Feb-2020 4005.21 6051.49 63.98 6.00  39.00 3016.91
   05:45:57.200.03-Feb-2020 4005.21 6051.49 63.98 6.00  39.20 3016.91
   05:45:57.400.03-Feb-2020 4005.21 6051.02 63.98 6.00  39.40 3016.91
   05:45:57.600.03-Feb-2020 4005.21 6051.97 63.98 6.00  39.60 3016.91
   05:45:57.800.03-Feb-2020 4005.21 6053.21 63.98 6.00  39.80 3016.91
   05:45:58.000.03-Feb-2020 4005.21 6052.96 63.98 6.00  40.00 3016.91
   05:45:58.200.03-Feb-2020 4005.21 6052.96 63.98 6.00  40.20 3016.91
   05:45:58.400.03-Feb-2020 4005.21 6053.51 63.98 6.00  40.40 3016.91
   05:45:58.600.03-Feb-2020 4005.21 6053.50 63.98 6.00  40.60 3016.91
   05:45:58.800.03-Feb-2020 4005.21 6052.71 63.98 6.00  40.80 3016.91
   05:45:59.000.03-Feb-2020 4005.21 6051.84 63.98 6.00  41.00 3016.91
   05:45:59.200.03-Feb-2020 4005.21 6051.84 63.98 6.00  41.20 3016.91
   05:45:59.400.03-Feb-2020 4005.21 6046.37 63.98 6.00  41.40 3016.91
   05:45:59.600.03-Feb-2020 4005.21 6051.10 63.98 6.00  41.60 3016.91
   05:45:59.800.03-Feb-2020 4005.21 6048.53 63.98 6.00  41.80 3016.91
   05:46:00.000.03-Feb-2020 4005.21 6051.66 63.98 6.00  42.00 3016.91
   05:46:00.200.03-Feb-2020 4005.21 6051.66 63.98 6.00  42.20 3016.91
   05:46:00.400.03-Feb-2020 4005.21 6052.87 63.98 6.00  42.40 3016.91
   05:46:00.600.03-Feb-2020 4005.21 6052.64 63.98 6.00  42.60 3016.91
   05:46:00.800.03-Feb-2020 4005.21 6053.14 63.98 6.00  42.80 3016.91
   05:46:01.000.03-Feb-2020 4005.21 6053.52 63.98 6.00  43.00 3016.91
   05:46:01.200.03-Feb-2020 4005.21 6053.52 63.98 6.00  43.20 3016.91
   05:46:01.400.03-Feb-2020 4005.21 6053.74 63.98 6.00  43.40 3016.91
   05:46:01.600.03-Feb-2020 4005.21 6054.10 63.98 6.00  43.60 3016.91
   05:46:01.800.03-Feb-2020 4005.21 6054.81 63.98 6.00  43.80 3016.91
   05:46:02.000.03-Feb-2020 4005.21 6055.08 63.98 6.00  44.00 3016.91
   05:46:02.200.03-Feb-2020 4005.21 6055.08 63.98 6.00  44.20 3016.91
   05:46:02.400.03-Feb-2020 4005.21 6054.56 63.98 6.00  44.40 3016.91
   05:46:02.600.03-Feb-2020 4005.21 6055.13 63.98 6.00  44.60 3016.91
   05:46:02.800.03-Feb-2020 4005.21 6054.28 63.98 6.00  44.80 3016.91
   05:46:03.000.03-Feb-2020 4005.21 6054.04 63.98 6.00  45.00 3016.91
   05:46:03.200.03-Feb-2020 4005.21 6054.04 63.98 6.00  45.20 3016.91
   05:46:03.400.03-Feb-2020 4005.21 6048.81 63.98 6.00  45.40 3016.91
   05:46:03.600.03-Feb-2020 4005.21 6050.40 63.98 6.00  45.60 3016.91
   05:46:03.800.03-Feb-2020 4005.21 6052.06 63.98 6.00  45.80 3016.91
