~Version Information
 VERS.                  2.0:   CWLS log ASCII Standard -VERSION 2.0
 WRAP.                   NO:   One line per depth step
~Well Information Block
#MNEM.UNIT     VALUE/NAME     DESCRIPTION
#---------     -----------    ---------------------------
 STRT.S             03:10:10 03-Feb-20: START TIME 03:10:10 03-Feb-20
 STOP.S             03:17:58 03-Feb-20: STOP TIME  03:17:58 03-Feb-20
 STEP.S                   0.00: STEP TIME
 NULL.                 -999.25: NULL VALUE
 DFWT.                        :  DIST FWL TEXT
 DFST.                        :  DIST FSL TEXT
 DMF .             Drill Floor:  DRILL MEAS FROM
 STIM.      09.30.00 26-Dec-19:  START TIME
 DATE.      08.00.00 20-Jan-20:  END TIME
 SPUD.               23-Nov-19:  SPUD DATE
 NREF.                    Grid:  NORTH REFERENCE
 HPTY.       Minimum Curvature:  HOLE POS TYPE
 DMOD.             Drill Model:  DRILL MOD DESC
 SVYD.                  Survey:  SURVEY DESC
 ILTD.               Lithology:  INTERP LTH DESC
 FTOP.          Formation Tops:  FORM TOPS DESC
 SON .        AZ-XX-0906192647:  JOB NUMBER
 WTYP.                Deviated:  WELL TYPE
 COMP.     BP Exploration (Caspian Sea) Ltd:  COMPANY
 BASE.              Azerbaijan:  LOGGING EQUIPMENT BASE LOCATION
 REGN.                 Eurasia:  REGION
 FLD .                     ACG:  FIELD NAME
 SRVC.              KCA Deutag:  CONTRACTOR
 MWDS.                    Baku:  MWD SHOP
 WELL.     A10 (Slot 20) - SCP:  WELL NAME
 JOBN.        AZ-XX-0906192647:  JOB TICKET NUMB
 RIG .                 Chirag1:  RIG NAME
 DCON.     Halliburton Sperry Drilling:  DIRECTNL CONTR
 UNIT.                     N/A:  LOGGING EQUIPMENT ID
 PDAT.          Mean Sea Level:  PERMANENT DATUM
 MDS .        Operator Entered:  MAG DATA SOURCE
 CTRY.              Azerbaijan:  COUNTRY NAME
 UWI .            /AZE00000090:  UNIQUE WELL IDENTIFIER
 API .            /AZE00000090:  API NUMBER
 CNTY.                        :  COUNTY
 PROV.                        :  PROVINCE
 STAT.                        :  STATE
 LOC .                        :  LOCATION
 LMF .             Drill Floor:  LOG MEASURED FROM
 TVDS.m                  36.60:  TVDSS CORRECTN
 LATI.deg                40.08:  LATITUDE
 LONG.deg                51.24:  LONGITUDE
 WHNS.m                  -7.94:  WELL HEAD N/S
 WHEW.m                   1.56:  WELL HEAD E/W
 UTMX.m              520429.26:  UTM X
 UTMY.m             4438973.87:  UTM Y
 DFWL.m                   0.00:  DISTANCE FWL
 DFSL.m                   0.00:  DISTANCE FSL
 SDEP.m                1455.00:  START DEPTH
 TDD .m                4047.51:  TOTAL DEPTH (DRILLER)
 VSDR.deg               112.75:  VERT SEC DIRECT
 GVFD.g                   1.00:  GRAVITY FIELD
 MFLD.nT              50261.00:  MAGNETIC FIELD
 MDIP.deg                59.52:  MAGNETIC DIP
 MDEC.deg                 6.42:  MAGNETIC DECL
 GRDC.deg                 0.17:  GRID CORRECTION
 AZTC.deg                 6.25:  AZM TOTAL CORR
 EPD .m                   0.00:  ELEVATION
 EGL .m                   0.00:  GROUND ELEVATION
 WDMS.m                 121.00:  WD ELEV
 APD .m                  36.60:  DEPTH ABOVE PD
 AGAP.m                  36.60:  AIR GAP
 VSEW.m                   1.56:  VERT SEC E/W
 VSNS.m                  -7.94:  VERT SEC N/S
 DEP .m                1140.01:  DEPTH
 EKB .m                  36.60:  KB ELEVATION
 EDF .m                  36.60:  DF ELEVATION
 VSC .                       0:  VS TO CLOSURE
 MAGU.                 1849206:  MAGUTM CHECKSUM
~Parameter Information Block
#MNEM.UNIT       Value        Description
#---------     -----------    ---------------------------
 AV  .mps                 1.70:  Ann Velocity 
 AVMX.mps                 2.30:  Max Ann Veloc 
 AZIF.deg               137.03:  Azm, Final 
 BHAT.                   Other:  BHA Type 
 BROT.°/30m               0.80:  Build Rotating 
 BS  .in                  8.00:  Bit Size 
 BTPL.psig              161.00:  Bit Press Loss 
 CABU.                      No:  Customer Abuse 
 TCS .hr                  9.59:  Time Ciculation Ended 
 CV  .mps                 3.76:  Crit Velocity 
 CVMX.mps                 4.26:  Max Crit Veloc 
 DD1 .         Intigam Rahimov:  Direct Drillr 1 
 DD2 .          Rashad Gojayev:  Direct Drillr 2 
 DDSV.                   Other:  DD Service 
 DEFF.%                 100.00:  % Det Eff 
 DLRX.°/30m               1.44:  Dogleg Rot Max 
 DLSO.°/30m               0.00:  Dogleg Oriented 
 DLSX.°/30m               0.00:  Dogleg Str Max 
 DRET.      03.31.12 02-Feb-20:  Drill End Time 
 DRST.      03.31.12 02-Feb-20:  Drill Start Tim 
 DTIM.hr                  1.99:  Time Drilling 
 EDEP.m                4047.51:  End Depth 
 ENG1.           Eldar Hajiyev:  Engineer 1 
 ENG2.          Rasim Hashimov:  Engineer 2 
 ENG3.          Rustam Safarov:  Engineer 3 
 ETIM.      03.31.12 02-Feb-20:  End Time 
 FLOI.gpm               300.00:  Flow In 
 FLON.gpm               250.00:  Flow In Min 
 FLOS.cptm                0.00:  Fluid Loss 
 FLOX.gpm               330.00:  Flow In Max 
 HFLO.                      No:  High Flow 
 HPRE.                      No:  High Pressure 
 HTEM.                      No:  High Temp 
 HYDO.m                   2.50:  Hydro Offset 
 IFIN.deg                39.54:  Inc, Final 
 IMAX.deg                41.14:  Inc Max 
 IMIN.deg                39.81:  Inc Min 
 IMND.m                4005.21:  Inc Min Depth 
 IMXD.m                3948.42:  Inc Max Depth 
 JARR.                      No:  Jarring 
 LETM.      03.31.12 02-Feb-20:  Log End Time 
 LOST.hr                     0:  Lost Rig Time 
 LSTM.      03.31.12 02-Feb-20:  Log Start Time 
 MDCL.ppm             35000.00:  Mud Chlorides 
 MDES.     Inversion Oil/Synthetic:  Mud Desc 
 DFD .sg                  1.32:  Mud Density 
 MDMN.sg                  1.32:  Dens Mud Min 
 MDMX.sg                  1.32:  Dens Mud Max 
 MOIL.                      59:  Run Mud Oil % 
 MOWR.                   71:29:  Run Mud OWR 
 MSND.                       0:  Run Mud Sand % 
 MSOL.                      17:  Run Mud Solids% 
 DFV .spqt               86.00:  Mud Viscosity 
 MWOD.in                  4.75:  MWD Tool OD 
 MWSI.                      No:  Serv Intrp, MWD 
 OTIM.hr                 46.72:  Time Operating 
 PCON.           Look Like New:  Pad Condition 
 PMAX.psia             3300.00:  Press Op, Max 
 PV  .cP                 30.00:  Mud PV 
 RUN .                     400:  Run Number 
 ROPA.m/hr               35.00:  ROP Avg 
 ROPN.m/hr               25.00:  ROP Min 
 ROPX.m/hr               40.00:  ROP Max 
 RPMA.rpm                80.00:  RPM Surface Avg 
 RPMN.rpm                60.00:  RPM Surface Min 
 RPMX.rpm               100.00:  RPM Surface Max 
 RRUN.                     400:  Rig Run Number 
 RTIM.hr                  1.99:  Time Reaming 
 SAZI.deg               133.93:  Azm, Start 
 SDEP.m                4047.51:  Start Depth 
 SIDD.                      No:  Serv Intrp, DD 
 SINC.deg                40.28:  Inc, Start 
 SPPA.psig             3250.00:  SPP Avg 
 SPPN.psig             3200.00:  SPP Min 
 SPPX.psig             3300.00:  SPP Max 
 STIM.      03.31.12 02-Feb-20:  Start Time 
 SVCS.                 DD, MWD:  Services 
 SVER.                    9.20:  Sperry Version 
 TDAT.m                  47.00:  Tot Depth Attmp 
 TDDF.                      No:  Trip for DD 
 TFF .                      No:  Trip for Fail 
 TQAA.f-kp                0.00:  Torque Abs Avg 
 TQAN.f-kp                0.00:  Torque Abs Min 
 TQAX.f-kp                0.00:  Torque Abs Max 
 TRRT.°/30m               0.70:  Turn Rotating 
 MRT .                    HCIM:  Maximum Recorded Temperature 
 TTMX.degC               70.59:  Max Tool Temp 
 VS01.             90598770F11:  Virtual Str1 SN 
 VS02.             90598769F11:  Virtual Str2 SN 
 VS03.            90515978Z1W1:  Virtual Str3 SN 
 VS04.          90584144R12X14:  Virtual Str4 SN 
 WBMN.klb                 0.00:  WOB Min 
 WITN.            Peter Wilson:  Customer Rep 
 WOBA.klb                 0.00:  WOB Avg 
 WOBX.klb                 0.00:  WOB Max 
 YP  .lhf2               29.00:  Yield Point 
~Curve Information Block
#MNEM.UNIT                 API CODE     Curve Description
#---------               -----------    ---------------------------
 TIME.HHMMSS            00 000 000 000:  GT Time & Date
 GTDEPTH.m              00 000 000 000:  GT Depth
 GTPQH.psia             00 000 000 000:  GT HR Quartz Pressure
 GTTQ.degC              00 000 000 000:  GT Quartz Temperature
 GTTN.NONE              00 000 000 000:  GT Test Number
 GTET.sec               00 000 000 000:  GT Elapsed Test Time
 GTTVD.m                00 000 000 000:  GT True Vertical Depth
#Other Information
#
#WARRANTY: Halliburton will use its best efforts to furnish customers with 
#accurate information and interpretations that are part of, and incident to, the services 
#provided.  However, Halliburton cannot and does not warrant the accuracy 
#or correctness of such information and interpretations.  Under no circumstances should any 
#such information or interpretation be relied upon as the sole basis for any drilling, 
#completion, production, or financial decision or any procedure involving any risk to the 
#safety of any drilling venture, drilling rig or its crew or any other third party.  The 
#Customer has full responsibility for all drilling, completion and production operation.  
#Halliburton makes no representations or warranties, either expressed or 
#implied, including, but not limited to, the implied warranties of merchantability or fitness 
#for a particular purpose, with respect to the services rendered.  In no event will 
#Halliburton be liable for failure to obtain any particular results or for 
#any damages, including, but not limited to, indirect, special or consequential damages, 
#resulting from the use of any information or interpretation provided by Halliburton.
#
~A           TIME           GTDEPTH  GTPQH  GTTQ  GTTN  GTET   GTTVD  
# ...
   03:13:37.067.03-Feb-2020 4017.01 3134.99 63.04 2.00 207.04 3025.96
   03:13:37.267.03-Feb-2020 4017.01 3134.99 63.04 2.00 207.24 3025.96
   03:13:37.467.03-Feb-2020 4017.01 3134.93 63.04 2.00 207.44 3025.96
   03:13:37.667.03-Feb-2020 4017.01 3134.95 63.04 2.00 207.64 3025.96
   03:13:37.867.03-Feb-2020 4017.01 3134.77 63.04 2.00 207.84 3025.96
   03:13:38.067.03-Feb-2020 4017.01 3134.98 63.04 2.00 208.04 3025.96
   03:13:38.267.03-Feb-2020 4017.01 3134.98 63.04 2.00 208.24 3025.96
   03:13:38.467.03-Feb-2020 4017.01 3135.19 63.04 2.00 208.44 3025.96
   03:13:38.667.03-Feb-2020 4017.01 3134.92 63.04 2.00 208.64 3025.96
   03:13:38.867.03-Feb-2020 4017.01 3135.01 63.04 2.00 208.84 3025.96
   03:13:39.067.03-Feb-2020 4017.01 3134.50 63.04 2.00 209.04 3025.96
   03:13:39.267.03-Feb-2020 4017.01 3134.50 63.04 2.00 209.24 3025.96
   03:13:39.467.03-Feb-2020 4017.01 3134.82 63.04 2.00 209.44 3025.96
   03:13:39.667.03-Feb-2020 4017.01 3135.10 63.04 2.00 209.64 3025.96
   03:13:39.867.03-Feb-2020 4017.01 3134.95 63.04 2.00 209.84 3025.96
   03:13:40.068.03-Feb-2020 4017.01 3135.04 63.04 2.00 210.04 3025.96
   03:13:40.268.03-Feb-2020 4017.01 3135.04 63.04 2.00 210.24 3025.96
   03:13:40.468.03-Feb-2020 4017.01 3134.88 63.04 2.00 210.44 3025.96
   03:13:40.668.03-Feb-2020 4017.01 3135.06 63.04 2.00 210.64 3025.96
   03:13:40.868.03-Feb-2020 4017.01 3135.03 63.04 2.00 210.84 3025.96
   03:13:41.068.03-Feb-2020 4017.01 3134.87 63.04 2.00 211.04 3025.96
   03:13:41.268.03-Feb-2020 4017.01 3134.87 63.04 2.00 211.24 3025.96
   03:13:41.468.03-Feb-2020 4017.01 3134.76 63.04 2.00 211.44 3025.96
   03:13:41.668.03-Feb-2020 4017.01 3135.11 63.04 2.00 211.64 3025.96
   03:13:41.868.03-Feb-2020 4017.01 3134.92 63.04 2.00 211.84 3025.96
   03:13:42.068.03-Feb-2020 4017.01 3135.10 63.04 2.00 212.04 3025.96
   03:13:42.268.03-Feb-2020 4017.01 3135.10 63.04 2.00 212.24 3025.96
   03:13:42.468.03-Feb-2020 4017.01 3135.04 63.04 2.00 212.44 3025.96
   03:13:42.668.03-Feb-2020 4017.01 3134.99 63.04 2.00 212.64 3025.96
   03:13:42.868.03-Feb-2020 4017.01 3134.95 63.04 2.00 212.84 3025.96
   03:13:43.068.03-Feb-2020 4017.01 3135.04 63.04 2.00 213.04 3025.96
   03:13:43.268.03-Feb-2020 4017.01 3135.04 63.04 2.00 213.24 3025.96
   03:13:43.468.03-Feb-2020 4017.01 3134.98 63.04 2.00 213.44 3025.96
   03:13:43.668.03-Feb-2020 4017.01 3135.03 63.04 2.00 213.64 3025.96
   03:13:43.868.03-Feb-2020 4017.01 3134.95 63.04 2.00 213.84 3025.96
   03:13:44.068.03-Feb-2020 4017.01 3135.09 63.04 2.00 214.04 3025.96
   03:13:44.268.03-Feb-2020 4017.01 3135.09 63.04 2.00 214.24 3025.96
   03:13:44.468.03-Feb-2020 4017.01 3134.55 63.04 2.00 214.44 3025.96
   03:13:44.668.03-Feb-2020 4017.01 3135.19 63.04 2.00 214.64 3025.96
   03:13:44.869.03-Feb-2020 4017.01 3134.97 63.04 2.00 214.84 3025.96
   03:13:45.069.03-Feb-2020 4017.01 3135.06 63.04 2.00 215.05 3025.96
   03:13:45.269.03-Feb-2020 4017.01 3135.06 63.04 2.00 215.25 3025.96
   03:13:45.469.03-Feb-2020 4017.01 3135.01 63.04 2.00 215.45 3025.96
   03:13:45.669.03-Feb-2020 4017.01 3135.01 63.04 2.00 215.65 3025.96
   03:13:45.869.03-Feb-2020 4017.01 3135.00 63.04 2.00 215.85 3025.96
   03:13:46.069.03-Feb-2020 4017.01 3135.05 63.04 2.00 216.05 3025.96
   03:13:46.269.03-Feb-2020 4017.01 3135.05 63.04 2.00 216.25 3025.96
   03:13:46.469.03-Feb-2020 4017.01 3135.05 63.04 2.00 216.45 3025.96
   03:13:46.669.03-Feb-2020 4017.01 3135.03 63.04 2.00 216.65 3025.96
   03:13:46.869.03-Feb-2020 4017.01 3134.79 63.04 2.00 216.85 3025.96
   03:13:47.069.03-Feb-2020 4017.01 3135.09 63.04 2.00 217.05 3025.96
   03:13:47.269.03-Feb-2020 4017.01 3135.09 63.04 2.00 217.25 3025.96
   03:13:47.469.03-Feb-2020 4017.01 3135.28 63.04 2.00 217.45 3025.96
   03:13:47.669.03-Feb-2020 4017.01 3135.03 63.04 2.00 217.65 3025.96
   03:13:47.869.03-Feb-2020 4017.01 3135.04 63.04 2.00 217.85 3025.96
   03:13:48.069.03-Feb-2020 4017.01 3134.59 63.04 2.00 218.05 3025.96
   03:13:48.269.03-Feb-2020 4017.01 3134.59 63.04 2.00 218.25 3025.96
   03:13:48.469.03-Feb-2020 4017.01 3134.87 63.04 2.00 218.45 3025.96
   03:13:48.669.03-Feb-2020 4017.01 3135.17 63.04 2.00 218.65 3025.96
   03:13:48.869.03-Feb-2020 4017.01 3135.04 63.04 2.00 218.85 3025.96
   03:13:49.069.03-Feb-2020 4017.01 3135.08 63.04 2.00 219.05 3025.96
   03:13:49.269.03-Feb-2020 4017.01 3135.08 63.04 2.00 219.25 3025.96
   03:13:49.469.03-Feb-2020 4017.01 3135.25 63.03 2.00 219.45 3025.96
   03:13:49.670.03-Feb-2020 4017.01 3134.94 63.03 2.00 219.65 3025.96
   03:13:49.870.03-Feb-2020 4017.01 3135.19 63.03 2.00 219.85 3025.96
   03:13:50.070.03-Feb-2020 4017.01 3134.64 63.03 2.00 220.05 3025.96
   03:13:50.270.03-Feb-2020 4017.01 3134.64 63.03 2.00 220.25 3025.96
   03:13:50.470.03-Feb-2020 4017.01 3134.89 63.03 2.00 220.45 3025.96
   03:13:50.670.03-Feb-2020 4017.01 3135.18 63.03 2.00 220.65 3025.96
   03:13:50.870.03-Feb-2020 4017.01 3134.97 63.03 2.00 220.85 3025.96
   03:13:51.070.03-Feb-2020 4017.01 3135.16 63.03 2.00 221.05 3025.96
   03:13:51.270.03-Feb-2020 4017.01 3135.16 63.03 2.00 221.25 3025.96
   03:13:51.470.03-Feb-2020 4017.01 3135.07 63.03 2.00 221.45 3025.96
   03:13:51.670.03-Feb-2020 4017.01 3135.08 63.03 2.00 221.65 3025.96
   03:13:51.870.03-Feb-2020 4017.01 3135.02 63.03 2.00 221.85 3025.96
   03:13:52.070.03-Feb-2020 4017.01 3135.03 63.03 2.00 222.05 3025.96
   03:13:52.270.03-Feb-2020 4017.01 3135.03 63.03 2.00 222.25 3025.96
   03:13:52.470.03-Feb-2020 4017.01 3135.05 63.03 2.00 222.45 3025.96
   03:13:52.670.03-Feb-2020 4017.01 3135.05 63.03 2.00 222.65 3025.96
   03:13:52.870.03-Feb-2020 4017.01 3135.05 63.03 2.00 222.85 3025.96
   03:13:53.070.03-Feb-2020 4017.01 3135.14 63.03 2.00 223.05 3025.96
   03:13:53.270.03-Feb-2020 4017.01 3135.14 63.03 2.00 223.25 3025.96
   03:13:53.470.03-Feb-2020 4017.01 3134.84 63.03 2.00 223.45 3025.96
   03:13:53.670.03-Feb-2020 4017.01 3134.94 63.03 2.00 223.65 3025.96
   03:13:53.870.03-Feb-2020 4017.01 3135.16 63.03 2.00 223.85 3025.96
   03:13:54.070.03-Feb-2020 4017.01 3135.09 63.03 2.00 224.05 3025.96
   03:13:54.270.03-Feb-2020 4017.01 3135.09 63.03 2.00 224.25 3025.96
   03:13:54.471.03-Feb-2020 4017.01 3135.06 63.03 2.00 224.45 3025.96
   03:13:54.671.03-Feb-2020 4017.01 3135.08 63.03 2.00 224.65 3025.96
   03:13:54.871.03-Feb-2020 4017.01 3135.03 63.03 2.00 224.85 3025.96
   03:13:55.071.03-Feb-2020 4017.01 3135.13 63.03 2.00 225.05 3025.96
   03:13:55.271.03-Feb-2020 4017.01 3135.13 63.03 2.00 225.25 3025.96
   03:13:55.471.03-Feb-2020 4017.01 3135.07 63.03 2.00 225.45 3025.96
   03:13:55.671.03-Feb-2020 4017.01 3135.08 63.03 2.00 225.65 3025.96
   03:13:55.871.03-Feb-2020 4017.01 3134.62 63.03 2.00 225.85 3025.96
   03:13:56.071.03-Feb-2020 4017.01 3135.34 63.03 2.00 226.05 3025.96
   03:13:56.271.03-Feb-2020 4017.01 3135.34 63.03 2.00 226.25 3025.96
   03:13:56.471.03-Feb-2020 4017.01 3135.28 63.03 2.00 226.45 3025.96
   03:13:56.671.03-Feb-2020 4017.01 3135.04 63.03 2.00 226.65 3025.96
   03:13:56.871.03-Feb-2020 4017.01 3135.16 63.03 2.00 226.85 3025.96
   03:13:57.071.03-Feb-2020 4017.01 3134.68 63.03 2.00 227.05 3025.96
   03:13:57.271.03-Feb-2020 4017.01 3134.68 63.03 2.00 227.25 3025.96
   03:13:57.471.03-Feb-2020 4017.01 3135.08 63.03 2.00 227.45 3025.96
   03:13:57.671.03-Feb-2020 4017.01 3135.14 63.03 2.00 227.65 3025.96
   03:13:57.871.03-Feb-2020 4017.01 3135.10 63.03 2.00 227.85 3025.96
   03:13:58.071.03-Feb-2020 4017.01 3135.15 63.03 2.00 228.05 3025.96
   03:13:58.271.03-Feb-2020 4017.01 3135.15 63.03 2.00 228.25 3025.96
   03:13:58.471.03-Feb-2020 4017.01 3135.01 63.03 2.00 228.45 3025.96
   03:13:58.671.03-Feb-2020 4017.01 3135.18 63.03 2.00 228.65 3025.96
   03:13:58.871.03-Feb-2020 4017.01 3135.21 63.03 2.00 228.85 3025.96
   03:13:59.071.03-Feb-2020 4017.01 3134.74 63.03 2.00 229.05 3025.96
   03:13:59.272.03-Feb-2020 4017.01 3134.74 63.03 2.00 229.25 3025.96
   03:13:59.472.03-Feb-2020 4017.01 3135.07 63.03 2.00 229.45 3025.96
   03:13:59.672.03-Feb-2020 4017.01 3135.12 63.03 2.00 229.65 3025.96
   03:13:59.872.03-Feb-2020 4017.01 3135.12 63.03 2.00 229.85 3025.96
