~Version Information
 VERS.                  2.0:   CWLS log ASCII Standard -VERSION 2.0
 WRAP.                   NO:   One line per depth step
~Well Information Block
#MNEM.UNIT     VALUE/NAME     DESCRIPTION
#---------     -----------    ---------------------------
 STRT.S             08:07:30 03-Feb-20: START TIME 08:07:30 03-Feb-20
 STOP.S             08:15:16 03-Feb-20: STOP TIME  08:15:16 03-Feb-20
 STEP.S                   0.00: STEP TIME
 NULL.                 -999.25: NULL VALUE
 DFWT.                        :  DIST FWL TEXT
 DFST.                        :  DIST FSL TEXT
 DMF .             Drill Floor:  DRILL MEAS FROM
 STIM.      09.30.00 26-Dec-19:  START TIME
 DATE.      08.00.00 20-Jan-20:  END TIME
 SPUD.               23-Nov-19:  SPUD DATE
 NREF.                    Grid:  NORTH REFERENCE
 HPTY.       Minimum Curvature:  HOLE POS TYPE
 DMOD.             Drill Model:  DRILL MOD DESC
 SVYD.                  Survey:  SURVEY DESC
 ILTD.               Lithology:  INTERP LTH DESC
 FTOP.          Formation Tops:  FORM TOPS DESC
 SON .        AZ-XX-0906192647:  JOB NUMBER
 WTYP.                Deviated:  WELL TYPE
 COMP.     BP Exploration (Caspian Sea) Ltd:  COMPANY
 BASE.              Azerbaijan:  LOGGING EQUIPMENT BASE LOCATION
 REGN.                 Eurasia:  REGION
 FLD .                     ACG:  FIELD NAME
 SRVC.              KCA Deutag:  CONTRACTOR
 MWDS.                    Baku:  MWD SHOP
 WELL.     A10 (Slot 20) - SCP:  WELL NAME
 JOBN.        AZ-XX-0906192647:  JOB TICKET NUMB
 RIG .                 Chirag1:  RIG NAME
 DCON.     Halliburton Sperry Drilling:  DIRECTNL CONTR
 UNIT.                     N/A:  LOGGING EQUIPMENT ID
 PDAT.          Mean Sea Level:  PERMANENT DATUM
 MDS .        Operator Entered:  MAG DATA SOURCE
 CTRY.              Azerbaijan:  COUNTRY NAME
 UWI .            /AZE00000090:  UNIQUE WELL IDENTIFIER
 API .            /AZE00000090:  API NUMBER
 CNTY.                        :  COUNTY
 PROV.                        :  PROVINCE
 STAT.                        :  STATE
 LOC .                        :  LOCATION
 LMF .             Drill Floor:  LOG MEASURED FROM
 TVDS.m                  36.60:  TVDSS CORRECTN
 LATI.deg                40.08:  LATITUDE
 LONG.deg                51.24:  LONGITUDE
 WHNS.m                  -7.94:  WELL HEAD N/S
 WHEW.m                   1.56:  WELL HEAD E/W
 UTMX.m              520429.26:  UTM X
 UTMY.m             4438973.87:  UTM Y
 DFWL.m                   0.00:  DISTANCE FWL
 DFSL.m                   0.00:  DISTANCE FSL
 SDEP.m                1455.00:  START DEPTH
 TDD .m                4047.51:  TOTAL DEPTH (DRILLER)
 VSDR.deg               112.75:  VERT SEC DIRECT
 GVFD.g                   1.00:  GRAVITY FIELD
 MFLD.nT              50261.00:  MAGNETIC FIELD
 MDIP.deg                59.52:  MAGNETIC DIP
 MDEC.deg                 6.42:  MAGNETIC DECL
 GRDC.deg                 0.17:  GRID CORRECTION
 AZTC.deg                 6.25:  AZM TOTAL CORR
 EPD .m                   0.00:  ELEVATION
 EGL .m                   0.00:  GROUND ELEVATION
 WDMS.m                 121.00:  WD ELEV
 APD .m                  36.60:  DEPTH ABOVE PD
 AGAP.m                  36.60:  AIR GAP
 VSEW.m                   1.56:  VERT SEC E/W
 VSNS.m                  -7.94:  VERT SEC N/S
 DEP .m                1140.01:  DEPTH
 EKB .m                  36.60:  KB ELEVATION
 EDF .m                  36.60:  DF ELEVATION
 VSC .                       0:  VS TO CLOSURE
 MAGU.                 1849206:  MAGUTM CHECKSUM
~Parameter Information Block
#MNEM.UNIT       Value        Description
#---------     -----------    ---------------------------
 AV  .mps                 1.70:  Ann Velocity 
 AVMX.mps                 2.30:  Max Ann Veloc 
 AZIF.deg               137.03:  Azm, Final 
 BHAT.                   Other:  BHA Type 
 BROT.ฐ/30m               0.80:  Build Rotating 
 BS  .in                  8.00:  Bit Size 
 BTPL.psig              161.00:  Bit Press Loss 
 CABU.                      No:  Customer Abuse 
 COMM.                     ิงZ:  Run Comments 1 
 TCS .hr                  9.59:  Time Ciculation Ended 
 CV  .mps                 3.76:  Crit Velocity 
 CVMX.mps                 4.26:  Max Crit Veloc 
 DD1 .         Intigam Rahimov:  Direct Drillr 1 
 DD2 .          Rashad Gojayev:  Direct Drillr 2 
 DDSV.                   Other:  DD Service 
 DEFF.%                 100.00:  % Det Eff 
 DLRX.ฐ/30m               1.44:  Dogleg Rot Max 
 DLSO.ฐ/30m               0.00:  Dogleg Oriented 
 DLSX.ฐ/30m               0.00:  Dogleg Str Max 
 DRET.      03.31.12 02-Feb-20:  Drill End Time 
 DRST.      03.31.12 02-Feb-20:  Drill Start Tim 
 DTIM.hr                  1.99:  Time Drilling 
 EDEP.m                4047.51:  End Depth 
 ENG1.           Eldar Hajiyev:  Engineer 1 
 ENG2.          Rasim Hashimov:  Engineer 2 
 ENG3.          Rustam Safarov:  Engineer 3 
 ETIM.      03.31.12 02-Feb-20:  End Time 
 FLOI.gpm               300.00:  Flow In 
 FLON.gpm               250.00:  Flow In Min 
 FLOS.cptm                0.00:  Fluid Loss 
 FLOX.gpm               330.00:  Flow In Max 
 HFLO.                      No:  High Flow 
 HPRE.                      No:  High Pressure 
 HTEM.                      No:  High Temp 
 HYDO.m                   2.50:  Hydro Offset 
 IFIN.deg                39.54:  Inc, Final 
 IMAX.deg                41.14:  Inc Max 
 IMIN.deg                39.81:  Inc Min 
 IMND.m                4005.21:  Inc Min Depth 
 IMXD.m                3948.42:  Inc Max Depth 
 JARR.                      No:  Jarring 
 LETM.      03.31.12 02-Feb-20:  Log End Time 
 LOST.hr                     0:  Lost Rig Time 
 LSTM.      03.31.12 02-Feb-20:  Log Start Time 
 MDCL.ppm             35000.00:  Mud Chlorides 
 MDES.     Inversion Oil/Synthetic:  Mud Desc 
 DFD .sg                  1.32:  Mud Density 
 MDMN.sg                  1.32:  Dens Mud Min 
 MDMX.sg                  1.32:  Dens Mud Max 
 MOIL.                      59:  Run Mud Oil % 
 MOWR.                   71:29:  Run Mud OWR 
 MSND.                       0:  Run Mud Sand % 
 MSOL.                      17:  Run Mud Solids% 
 DFV .spqt               86.00:  Mud Viscosity 
 MWOD.in                  4.75:  MWD Tool OD 
 MWSI.                      No:  Serv Intrp, MWD 
 OTIM.hr                 46.72:  Time Operating 
 PCON.           Look Like New:  Pad Condition 
 PMAX.psia             3300.00:  Press Op, Max 
 PV  .cP                 30.00:  Mud PV 
 RUN .                     400:  Run Number 
 ROPA.m/hr               35.00:  ROP Avg 
 ROPN.m/hr               25.00:  ROP Min 
 ROPX.m/hr               40.00:  ROP Max 
 RPMA.rpm                80.00:  RPM Surface Avg 
 RPMN.rpm                60.00:  RPM Surface Min 
 RPMX.rpm               100.00:  RPM Surface Max 
 RRUN.                     400:  Rig Run Number 
 RTIM.hr                  1.99:  Time Reaming 
 SAZI.deg               133.93:  Azm, Start 
 SDEP.m                4047.51:  Start Depth 
 SIDD.                      No:  Serv Intrp, DD 
 SINC.deg                40.28:  Inc, Start 
 SPPA.psig             3250.00:  SPP Avg 
 SPPN.psig             3200.00:  SPP Min 
 SPPX.psig             3300.00:  SPP Max 
 STIM.      03.31.12 02-Feb-20:  Start Time 
 SVCS.                 DD, MWD:  Services 
 SVER.                    9.20:  Sperry Version 
 TDAT.m                  47.00:  Tot Depth Attmp 
 TDDF.                      No:  Trip for DD 
 TFF .                      No:  Trip for Fail 
 TQAA.f-kp                0.00:  Torque Abs Avg 
 TQAN.f-kp                0.00:  Torque Abs Min 
 TQAX.f-kp                0.00:  Torque Abs Max 
 TRRT.ฐ/30m               0.70:  Turn Rotating 
 MRT .                    HCIM:  Maximum Recorded Temperature 
 TTMX.degC               70.59:  Max Tool Temp 
 VS01.             90598770F11:  Virtual Str1 SN 
 VS02.             90598769F11:  Virtual Str2 SN 
 VS03.            90515978Z1W1:  Virtual Str3 SN 
 VS04.          90584144R12X14:  Virtual Str4 SN 
 WBMN.klb                 0.00:  WOB Min 
 WITN.            Peter Wilson:  Customer Rep 
 WOBA.klb                 0.00:  WOB Avg 
 WOBX.klb                 0.00:  WOB Max 
 YP  .lhf2               29.00:  Yield Point 
~Curve Information Block
#MNEM.UNIT                 API CODE     Curve Description
#---------               -----------    ---------------------------
 TIME.HHMMSS            00 000 000 000:  GT Time & Date
 GTDEPTH.m              00 000 000 000:  GT Depth
 GTPQH.psia             00 000 000 000:  GT HR Quartz Pressure
 GTTQ.degC              00 000 000 000:  GT Quartz Temperature
 GTTN.NONE              00 000 000 000:  GT Test Number
 GTET.sec               00 000 000 000:  GT Elapsed Test Time
 GTTVD.m                00 000 000 000:  GT True Vertical Depth
#Other Information
#
#WARRANTY: Halliburton will use its best efforts to furnish customers with 
#accurate information and interpretations that are part of, and incident to, the services 
#provided.  However, Halliburton cannot and does not warrant the accuracy 
#or correctness of such information and interpretations.  Under no circumstances should any 
#such information or interpretation be relied upon as the sole basis for any drilling, 
#completion, production, or financial decision or any procedure involving any risk to the 
#safety of any drilling venture, drilling rig or its crew or any other third party.  The 
#Customer has full responsibility for all drilling, completion and production operation.  
#Halliburton makes no representations or warranties, either expressed or 
#implied, including, but not limited to, the implied warranties of merchantability or fitness 
#for a particular purpose, with respect to the services rendered.  In no event will 
#Halliburton be liable for failure to obtain any particular results or for 
#any damages, including, but not limited to, indirect, special or consequential damages, 
#resulting from the use of any information or interpretation provided by Halliburton.
#
~A           TIME           GTDEPTH  GTPQH  GTTQ  GTTN   GTET   GTTVD  
# ...
   08:12:01.247.03-Feb-2020 4023.01 3158.26 65.66 10.00 271.21 3030.56
   08:12:01.447.03-Feb-2020 4023.01 3158.28 65.66 10.00 271.41 3030.56
   08:12:01.647.03-Feb-2020 4023.01 3158.33 65.66 10.00 271.61 3030.56
   08:12:01.847.03-Feb-2020 4023.01 3158.14 65.66 10.00 271.81 3030.56
   08:12:02.047.03-Feb-2020 4023.01 3158.24 65.66 10.00 272.01 3030.56
   08:12:02.247.03-Feb-2020 4023.01 3158.24 65.66 10.00 272.21 3030.56
   08:12:02.447.03-Feb-2020 4023.01 3158.39 65.66 10.00 272.41 3030.56
   08:12:02.647.03-Feb-2020 4023.01 3158.29 65.66 10.00 272.61 3030.56
   08:12:02.847.03-Feb-2020 4023.01 3158.06 65.66 10.00 272.81 3030.56
   08:12:03.047.03-Feb-2020 4023.01 3158.29 65.66 10.00 273.01 3030.56
   08:12:03.247.03-Feb-2020 4023.01 3158.29 65.66 10.00 273.21 3030.56
   08:12:03.447.03-Feb-2020 4023.01 3158.43 65.66 10.00 273.41 3030.56
   08:12:03.647.03-Feb-2020 4023.01 3158.47 65.66 10.00 273.61 3030.56
   08:12:03.847.03-Feb-2020 4023.01 3158.66 65.66 10.00 273.81 3030.56
   08:12:04.047.03-Feb-2020 4023.01 3158.81 65.66 10.00 274.01 3030.56
   08:12:04.247.03-Feb-2020 4023.01 3158.81 65.66 10.00 274.21 3030.56
   08:12:04.447.03-Feb-2020 4023.01 3159.03 65.66 10.00 274.41 3030.56
   08:12:04.647.03-Feb-2020 4023.01 3158.68 65.66 10.00 274.61 3030.56
   08:12:04.847.03-Feb-2020 4023.01 3158.94 65.66 10.00 274.81 3030.56
   08:12:05.047.03-Feb-2020 4023.01 3158.93 65.66 10.00 275.01 3030.56
   08:12:05.247.03-Feb-2020 4023.01 3158.93 65.66 10.00 275.21 3030.56
   08:12:05.447.03-Feb-2020 4023.01 3158.88 65.66 10.00 275.41 3030.56
   08:12:05.647.03-Feb-2020 4023.01 3158.47 65.66 10.00 275.61 3030.56
   08:12:05.847.03-Feb-2020 4023.01 3158.99 65.66 10.00 275.81 3030.56
   08:12:06.047.03-Feb-2020 4023.01 3158.78 65.66 10.00 276.01 3030.56
   08:12:06.247.03-Feb-2020 4023.01 3158.78 65.66 10.00 276.21 3030.56
   08:12:06.447.03-Feb-2020 4023.01 3158.83 65.66 10.00 276.41 3030.56
   08:12:06.647.03-Feb-2020 4023.01 3158.83 65.66 10.00 276.61 3030.56
   08:12:06.847.03-Feb-2020 4023.01 3158.84 65.66 10.00 276.81 3030.56
   08:12:07.047.03-Feb-2020 4023.01 3158.76 65.66 10.00 277.01 3030.56
   08:12:07.247.03-Feb-2020 4023.01 3158.76 65.66 10.00 277.21 3030.56
   08:12:07.447.03-Feb-2020 4023.01 3158.83 65.66 10.00 277.41 3030.56
   08:12:07.647.03-Feb-2020 4023.01 3158.80 65.66 10.00 277.61 3030.56
   08:12:07.847.03-Feb-2020 4023.01 3158.82 65.66 10.00 277.81 3030.56
   08:12:08.047.03-Feb-2020 4023.01 3158.82 65.66 10.00 278.01 3030.56
   08:12:08.247.03-Feb-2020 4023.01 3158.82 65.66 10.00 278.21 3030.56
   08:12:08.447.03-Feb-2020 4023.01 3158.76 65.66 10.00 278.41 3030.56
   08:12:08.647.03-Feb-2020 4023.01 3158.84 65.66 10.00 278.61 3030.56
   08:12:08.847.03-Feb-2020 4023.01 3158.58 65.66 10.00 278.81 3030.56
   08:12:09.047.03-Feb-2020 4023.01 3158.76 65.66 10.00 279.01 3030.56
   08:12:09.247.03-Feb-2020 4023.01 3158.76 65.66 10.00 279.21 3030.56
   08:12:09.447.03-Feb-2020 4023.01 3158.76 65.66 10.00 279.41 3030.56
   08:12:09.647.03-Feb-2020 4023.01 3158.71 65.66 10.00 279.61 3030.56
   08:12:09.847.03-Feb-2020 4023.01 3158.76 65.66 10.00 279.81 3030.56
   08:12:10.047.03-Feb-2020 4023.01 3158.71 65.66 10.00 280.01 3030.56
   08:12:10.248.03-Feb-2020 4023.01 3158.71 65.66 10.00 280.21 3030.56
   08:12:10.448.03-Feb-2020 4023.01 3158.76 65.66 10.00 280.41 3030.56
   08:12:10.648.03-Feb-2020 4023.01 3158.74 65.66 10.00 280.61 3030.56
   08:12:10.848.03-Feb-2020 4023.01 3158.77 65.66 10.00 280.81 3030.56
   08:12:11.048.03-Feb-2020 4023.01 3158.76 65.66 10.00 281.01 3030.56
   08:12:11.248.03-Feb-2020 4023.01 3158.76 65.66 10.00 281.21 3030.56
   08:12:11.448.03-Feb-2020 4023.01 3158.43 65.66 10.00 281.41 3030.56
   08:12:11.648.03-Feb-2020 4023.01 3158.79 65.66 10.00 281.61 3030.56
   08:12:11.848.03-Feb-2020 4023.01 3158.63 65.66 10.00 281.81 3030.56
   08:12:12.048.03-Feb-2020 4023.01 3158.83 65.66 10.00 282.01 3030.56
   08:12:12.248.03-Feb-2020 4023.01 3158.83 65.66 10.00 282.21 3030.56
   08:12:12.448.03-Feb-2020 4023.01 3158.85 65.66 10.00 282.41 3030.56
   08:12:12.648.03-Feb-2020 4023.01 3158.59 65.66 10.00 282.61 3030.56
   08:12:12.848.03-Feb-2020 4023.01 3158.78 65.66 10.00 282.81 3030.56
   08:12:13.048.03-Feb-2020 4023.01 3158.70 65.66 10.00 283.01 3030.56
   08:12:13.248.03-Feb-2020 4023.01 3158.70 65.66 10.00 283.21 3030.56
   08:12:13.448.03-Feb-2020 4023.01 3158.72 65.65 10.00 283.41 3030.56
   08:12:13.648.03-Feb-2020 4023.01 3158.70 65.65 10.00 283.61 3030.56
   08:12:13.848.03-Feb-2020 4023.01 3158.47 65.65 10.00 283.81 3030.56
   08:12:14.048.03-Feb-2020 4023.01 3158.64 65.65 10.00 284.01 3030.56
   08:12:14.248.03-Feb-2020 4023.01 3158.64 65.65 10.00 284.21 3030.56
   08:12:14.448.03-Feb-2020 4023.01 3158.79 65.65 10.00 284.41 3030.56
   08:12:14.648.03-Feb-2020 4023.01 3158.78 65.65 10.00 284.61 3030.56
   08:12:14.848.03-Feb-2020 4023.01 3158.76 65.65 10.00 284.81 3030.56
   08:12:15.048.03-Feb-2020 4023.01 3158.49 65.65 10.00 285.01 3030.56
   08:12:15.248.03-Feb-2020 4023.01 3158.49 65.65 10.00 285.21 3030.56
   08:12:15.448.03-Feb-2020 4023.01 3158.64 65.65 10.00 285.41 3030.56
   08:12:15.648.03-Feb-2020 4023.01 3158.79 65.65 10.00 285.61 3030.56
   08:12:15.848.03-Feb-2020 4023.01 3158.72 65.65 10.00 285.81 3030.56
   08:12:16.048.03-Feb-2020 4023.01 3158.79 65.65 10.00 286.01 3030.56
   08:12:16.248.03-Feb-2020 4023.01 3158.79 65.65 10.00 286.21 3030.56
   08:12:16.448.03-Feb-2020 4023.01 3158.71 65.65 10.00 286.41 3030.56
   08:12:16.648.03-Feb-2020 4023.01 3158.75 65.65 10.00 286.61 3030.56
   08:12:16.848.03-Feb-2020 4023.01 3158.78 65.65 10.00 286.81 3030.56
   08:12:17.048.03-Feb-2020 4023.01 3158.79 65.65 10.00 287.01 3030.56
   08:12:17.248.03-Feb-2020 4023.01 3158.79 65.65 10.00 287.21 3030.56
   08:12:17.448.03-Feb-2020 4023.01 3158.80 65.65 10.00 287.41 3030.56
   08:12:17.648.03-Feb-2020 4023.01 3158.79 65.65 10.00 287.61 3030.56
   08:12:17.848.03-Feb-2020 4023.01 3158.75 65.65 10.00 287.81 3030.56
   08:12:18.048.03-Feb-2020 4023.01 3158.80 65.65 10.00 288.01 3030.56
   08:12:18.248.03-Feb-2020 4023.01 3158.80 65.65 10.00 288.21 3030.56
   08:12:18.448.03-Feb-2020 4023.01 3158.40 65.65 10.00 288.41 3030.56
   08:12:18.648.03-Feb-2020 4023.01 3158.83 65.65 10.00 288.61 3030.56
   08:12:18.848.03-Feb-2020 4023.01 3158.66 65.65 10.00 288.81 3030.56
   08:12:19.048.03-Feb-2020 4023.01 3158.75 65.65 10.00 289.01 3030.56
   08:12:19.248.03-Feb-2020 4023.01 3158.75 65.65 10.00 289.21 3030.56
   08:12:19.448.03-Feb-2020 4023.01 3158.74 65.65 10.00 289.41 3030.56
   08:12:19.648.03-Feb-2020 4023.01 3158.78 65.65 10.00 289.61 3030.56
   08:12:19.848.03-Feb-2020 4023.01 3158.76 65.65 10.00 289.81 3030.56
   08:12:20.048.03-Feb-2020 4023.01 3158.77 65.65 10.00 290.01 3030.56
   08:12:20.248.03-Feb-2020 4023.01 3158.77 65.65 10.00 290.21 3030.56
   08:12:20.448.03-Feb-2020 4023.01 3158.77 65.65 10.00 290.41 3030.56
   08:12:20.648.03-Feb-2020 4023.01 3158.78 65.65 10.00 290.61 3030.56
   08:12:20.848.03-Feb-2020 4023.01 3158.63 65.65 10.00 290.81 3030.56
   08:12:21.048.03-Feb-2020 4023.01 3158.78 65.65 10.00 291.01 3030.56
   08:12:21.248.03-Feb-2020 4023.01 3158.78 65.65 10.00 291.21 3030.56
   08:12:21.448.03-Feb-2020 4023.01 3158.89 65.65 10.00 291.41 3030.56
   08:12:21.648.03-Feb-2020 4023.01 3158.76 65.65 10.00 291.61 3030.56
   08:12:21.848.03-Feb-2020 4023.01 3158.56 65.65 10.00 291.81 3030.56
   08:12:22.048.03-Feb-2020 4023.01 3158.73 65.65 10.00 292.01 3030.56
   08:12:22.248.03-Feb-2020 4023.01 3158.73 65.65 10.00 292.21 3030.56
   08:12:22.448.03-Feb-2020 4023.01 3158.84 65.65 10.00 292.41 3030.56
   08:12:22.648.03-Feb-2020 4023.01 3158.81 65.65 10.00 292.61 3030.56
   08:12:22.848.03-Feb-2020 4023.01 3158.80 65.65 10.00 292.81 3030.56
   08:12:23.048.03-Feb-2020 4023.01 3158.87 65.65 10.00 293.01 3030.56
   08:12:23.248.03-Feb-2020 4023.01 3158.87 65.65 10.00 293.21 3030.56
   08:12:23.448.03-Feb-2020 4023.01 3158.95 65.65 10.00 293.41 3030.56
   08:12:23.648.03-Feb-2020 4023.01 3158.64 65.65 10.00 293.61 3030.56
