~Version Information
 VERS.                  2.0:   CWLS log ASCII Standard -VERSION 2.0
 WRAP.                   NO:   One line per depth step
~Well Information Block
#MNEM.UNIT     VALUE/NAME     DESCRIPTION
#---------     -----------    ---------------------------
 STRT.S             07:08:20 03-Feb-20: START TIME 07:08:20 03-Feb-20
 STOP.S             07:16:05 03-Feb-20: STOP TIME  07:16:05 03-Feb-20
 STEP.S                   0.00: STEP TIME
 NULL.                 -999.25: NULL VALUE
 DFWT.                        :  DIST FWL TEXT
 DFST.                        :  DIST FSL TEXT
 DMF .             Drill Floor:  DRILL MEAS FROM
 STIM.      09.30.00 26-Dec-19:  START TIME
 DATE.      08.00.00 20-Jan-20:  END TIME
 SPUD.               23-Nov-19:  SPUD DATE
 NREF.                    Grid:  NORTH REFERENCE
 HPTY.       Minimum Curvature:  HOLE POS TYPE
 DMOD.             Drill Model:  DRILL MOD DESC
 SVYD.                  Survey:  SURVEY DESC
 ILTD.               Lithology:  INTERP LTH DESC
 FTOP.          Formation Tops:  FORM TOPS DESC
 SON .        AZ-XX-0906192647:  JOB NUMBER
 WTYP.                Deviated:  WELL TYPE
 COMP.     BP Exploration (Caspian Sea) Ltd:  COMPANY
 BASE.              Azerbaijan:  LOGGING EQUIPMENT BASE LOCATION
 REGN.                 Eurasia:  REGION
 FLD .                     ACG:  FIELD NAME
 SRVC.              KCA Deutag:  CONTRACTOR
 MWDS.                    Baku:  MWD SHOP
 WELL.     A10 (Slot 20) - SCP:  WELL NAME
 JOBN.        AZ-XX-0906192647:  JOB TICKET NUMB
 RIG .                 Chirag1:  RIG NAME
 DCON.     Halliburton Sperry Drilling:  DIRECTNL CONTR
 UNIT.                     N/A:  LOGGING EQUIPMENT ID
 PDAT.          Mean Sea Level:  PERMANENT DATUM
 MDS .        Operator Entered:  MAG DATA SOURCE
 CTRY.              Azerbaijan:  COUNTRY NAME
 UWI .            /AZE00000090:  UNIQUE WELL IDENTIFIER
 API .            /AZE00000090:  API NUMBER
 CNTY.                        :  COUNTY
 PROV.                        :  PROVINCE
 STAT.                        :  STATE
 LOC .                        :  LOCATION
 LMF .             Drill Floor:  LOG MEASURED FROM
 TVDS.m                  36.60:  TVDSS CORRECTN
 LATI.deg                40.08:  LATITUDE
 LONG.deg                51.24:  LONGITUDE
 WHNS.m                  -7.94:  WELL HEAD N/S
 WHEW.m                   1.56:  WELL HEAD E/W
 UTMX.m              520429.26:  UTM X
 UTMY.m             4438973.87:  UTM Y
 DFWL.m                   0.00:  DISTANCE FWL
 DFSL.m                   0.00:  DISTANCE FSL
 SDEP.m                1455.00:  START DEPTH
 TDD .m                4047.51:  TOTAL DEPTH (DRILLER)
 VSDR.deg               112.75:  VERT SEC DIRECT
 GVFD.g                   1.00:  GRAVITY FIELD
 MFLD.nT              50261.00:  MAGNETIC FIELD
 MDIP.deg                59.52:  MAGNETIC DIP
 MDEC.deg                 6.42:  MAGNETIC DECL
 GRDC.deg                 0.17:  GRID CORRECTION
 AZTC.deg                 6.25:  AZM TOTAL CORR
 EPD .m                   0.00:  ELEVATION
 EGL .m                   0.00:  GROUND ELEVATION
 WDMS.m                 121.00:  WD ELEV
 APD .m                  36.60:  DEPTH ABOVE PD
 AGAP.m                  36.60:  AIR GAP
 VSEW.m                   1.56:  VERT SEC E/W
 VSNS.m                  -7.94:  VERT SEC N/S
 DEP .m                1140.01:  DEPTH
 EKB .m                  36.60:  KB ELEVATION
 EDF .m                  36.60:  DF ELEVATION
 VSC .                       0:  VS TO CLOSURE
 MAGU.                 1849206:  MAGUTM CHECKSUM
~Parameter Information Block
#MNEM.UNIT       Value        Description
#---------     -----------    ---------------------------
 AV  .mps                 1.70:  Ann Velocity 
 AVMX.mps                 2.30:  Max Ann Veloc 
 AZIF.deg               137.03:  Azm, Final 
 BHAT.                   Other:  BHA Type 
 BROT.°/30m               0.80:  Build Rotating 
 BS  .in                  8.00:  Bit Size 
 BTPL.psig              161.00:  Bit Press Loss 
 CABU.                      No:  Customer Abuse 
 COMM.                     ?\:  Run Comments 1 
 TCS .hr                  9.59:  Time Ciculation Ended 
 CV  .mps                 3.76:  Crit Velocity 
 CVMX.mps                 4.26:  Max Crit Veloc 
 DD1 .         Intigam Rahimov:  Direct Drillr 1 
 DD2 .          Rashad Gojayev:  Direct Drillr 2 
 DDSV.                   Other:  DD Service 
 DEFF.%                 100.00:  % Det Eff 
 DLRX.°/30m               1.44:  Dogleg Rot Max 
 DLSO.°/30m               0.00:  Dogleg Oriented 
 DLSX.°/30m               0.00:  Dogleg Str Max 
 DRET.      03.31.12 02-Feb-20:  Drill End Time 
 DRST.      03.31.12 02-Feb-20:  Drill Start Tim 
 DTIM.hr                  1.99:  Time Drilling 
 EDEP.m                4047.51:  End Depth 
 ENG1.           Eldar Hajiyev:  Engineer 1 
 ENG2.          Rasim Hashimov:  Engineer 2 
 ENG3.          Rustam Safarov:  Engineer 3 
 ETIM.      03.31.12 02-Feb-20:  End Time 
 FLOI.gpm               300.00:  Flow In 
 FLON.gpm               250.00:  Flow In Min 
 FLOS.cptm                0.00:  Fluid Loss 
 FLOX.gpm               330.00:  Flow In Max 
 HFLO.                      No:  High Flow 
 HPRE.                      No:  High Pressure 
 HTEM.                      No:  High Temp 
 HYDO.m                   2.50:  Hydro Offset 
 IFIN.deg                39.54:  Inc, Final 
 IMAX.deg                41.14:  Inc Max 
 IMIN.deg                39.81:  Inc Min 
 IMND.m                4005.21:  Inc Min Depth 
 IMXD.m                3948.42:  Inc Max Depth 
 JARR.                      No:  Jarring 
 LETM.      03.31.12 02-Feb-20:  Log End Time 
 LOST.hr                     0:  Lost Rig Time 
 LSTM.      03.31.12 02-Feb-20:  Log Start Time 
 MDCL.ppm             35000.00:  Mud Chlorides 
 MDES.     Inversion Oil/Synthetic:  Mud Desc 
 DFD .sg                  1.32:  Mud Density 
 MDMN.sg                  1.32:  Dens Mud Min 
 MDMX.sg                  1.32:  Dens Mud Max 
 MOIL.                      59:  Run Mud Oil % 
 MOWR.                   71:29:  Run Mud OWR 
 MSND.                       0:  Run Mud Sand % 
 MSOL.                      17:  Run Mud Solids% 
 DFV .spqt               86.00:  Mud Viscosity 
 MWOD.in                  4.75:  MWD Tool OD 
 MWSI.                      No:  Serv Intrp, MWD 
 OTIM.hr                 46.72:  Time Operating 
 PCON.           Look Like New:  Pad Condition 
 PMAX.psia             3300.00:  Press Op, Max 
 PV  .cP                 30.00:  Mud PV 
 RUN .                     400:  Run Number 
 ROPA.m/hr               35.00:  ROP Avg 
 ROPN.m/hr               25.00:  ROP Min 
 ROPX.m/hr               40.00:  ROP Max 
 RPMA.rpm                80.00:  RPM Surface Avg 
 RPMN.rpm                60.00:  RPM Surface Min 
 RPMX.rpm               100.00:  RPM Surface Max 
 RRUN.                     400:  Rig Run Number 
 RTIM.hr                  1.99:  Time Reaming 
 SAZI.deg               133.93:  Azm, Start 
 SDEP.m                4047.51:  Start Depth 
 SIDD.                      No:  Serv Intrp, DD 
 SINC.deg                40.28:  Inc, Start 
 SPPA.psig             3250.00:  SPP Avg 
 SPPN.psig             3200.00:  SPP Min 
 SPPX.psig             3300.00:  SPP Max 
 STIM.      03.31.12 02-Feb-20:  Start Time 
 SVCS.                 DD, MWD:  Services 
 SVER.                    9.20:  Sperry Version 
 TDAT.m                  47.00:  Tot Depth Attmp 
 TDDF.                      No:  Trip for DD 
 TFF .                      No:  Trip for Fail 
 TQAA.f-kp                0.00:  Torque Abs Avg 
 TQAN.f-kp                0.00:  Torque Abs Min 
 TQAX.f-kp                0.00:  Torque Abs Max 
 TRRT.°/30m               0.70:  Turn Rotating 
 MRT .                    HCIM:  Maximum Recorded Temperature 
 TTMX.degC               70.59:  Max Tool Temp 
 VS01.             90598770F11:  Virtual Str1 SN 
 VS02.             90598769F11:  Virtual Str2 SN 
 VS03.            90515978Z1W1:  Virtual Str3 SN 
 VS04.          90584144R12X14:  Virtual Str4 SN 
 WBMN.klb                 0.00:  WOB Min 
 WITN.            Peter Wilson:  Customer Rep 
 WOBA.klb                 0.00:  WOB Avg 
 WOBX.klb                 0.00:  WOB Max 
 YP  .lhf2               29.00:  Yield Point 
~Curve Information Block
#MNEM.UNIT                 API CODE     Curve Description
#---------               -----------    ---------------------------
 TIME.HHMMSS            00 000 000 000:  GT Time & Date
 GTDEPTH.m              00 000 000 000:  GT Depth
 GTPQH.psia             00 000 000 000:  GT HR Quartz Pressure
 GTTQ.degC              00 000 000 000:  GT Quartz Temperature
 GTTN.NONE              00 000 000 000:  GT Test Number
 GTET.sec               00 000 000 000:  GT Elapsed Test Time
 GTTVD.m                00 000 000 000:  GT True Vertical Depth
#Other Information
#
#WARRANTY: Halliburton will use its best efforts to furnish customers with 
#accurate information and interpretations that are part of, and incident to, the services 
#provided.  However, Halliburton cannot and does not warrant the accuracy 
#or correctness of such information and interpretations.  Under no circumstances should any 
#such information or interpretation be relied upon as the sole basis for any drilling, 
#completion, production, or financial decision or any procedure involving any risk to the 
#safety of any drilling venture, drilling rig or its crew or any other third party.  The 
#Customer has full responsibility for all drilling, completion and production operation.  
#Halliburton makes no representations or warranties, either expressed or 
#implied, including, but not limited to, the implied warranties of merchantability or fitness 
#for a particular purpose, with respect to the services rendered.  In no event will 
#Halliburton be liable for failure to obtain any particular results or for 
#any damages, including, but not limited to, indirect, special or consequential damages, 
#resulting from the use of any information or interpretation provided by Halliburton.
#
~A           TIME           GTDEPTH  GTPQH  GTTQ  GTTN  GTET   GTTVD  
# ...
   07:11:47.000.03-Feb-2020 4002.71  367.56 64.21 9.00 207.00 3014.99
   07:11:47.200.03-Feb-2020 4002.71  369.24 64.21 9.00 207.20 3014.99
   07:11:47.400.03-Feb-2020 4002.71  370.92 64.21 9.00 207.40 3014.99
   07:11:47.600.03-Feb-2020 4002.71  372.60 64.21 9.00 207.60 3014.99
   07:11:47.800.03-Feb-2020 4002.71  374.28 64.21 9.00 207.80 3014.99
   07:11:48.000.03-Feb-2020 4002.71  375.96 64.21 9.00 208.00 3014.99
   07:11:48.200.03-Feb-2020 4002.71  375.96 64.21 9.00 208.20 3014.99
   07:11:48.400.03-Feb-2020 4002.71  379.29 64.21 9.00 208.40 3014.99
   07:11:48.600.03-Feb-2020 4002.71  381.01 64.21 9.00 208.60 3014.99
   07:11:48.800.03-Feb-2020 4002.71  382.76 64.21 9.00 208.80 3014.99
   07:11:49.000.03-Feb-2020 4002.71  384.48 64.21 9.00 209.00 3014.99
   07:11:49.200.03-Feb-2020 4002.71  386.20 64.21 9.00 209.20 3014.99
   07:11:49.400.03-Feb-2020 4002.71  387.84 64.21 9.00 209.40 3014.99
   07:11:49.600.03-Feb-2020 4002.71  389.62 64.21 9.00 209.60 3014.99
   07:11:49.800.03-Feb-2020 4002.71  391.33 64.21 9.00 209.80 3014.99
   07:11:50.000.03-Feb-2020 4002.71  393.11 64.21 9.00 210.00 3014.99
   07:11:50.200.03-Feb-2020 4002.71  393.11 64.21 9.00 210.20 3014.99
   07:11:50.400.03-Feb-2020 4002.71  396.58 64.21 9.00 210.40 3014.99
   07:11:50.600.03-Feb-2020 4002.71  398.30 64.21 9.00 210.60 3014.99
   07:11:50.800.03-Feb-2020 4002.71  400.11 64.21 9.00 210.80 3014.99
   07:11:51.000.03-Feb-2020 4002.71  401.77 64.21 9.00 211.00 3014.99
   07:11:51.200.03-Feb-2020 4002.71  401.77 64.21 9.00 211.20 3014.99
   07:11:51.400.03-Feb-2020 4002.71  405.40 64.21 9.00 211.40 3014.99
   07:11:51.600.03-Feb-2020 4002.71  407.20 64.21 9.00 211.60 3014.99
   07:11:51.800.03-Feb-2020 4002.71  408.98 64.21 9.00 211.80 3014.99
   07:11:52.000.03-Feb-2020 4002.71  410.78 64.21 9.00 212.00 3014.99
   07:11:52.200.03-Feb-2020 4002.71  410.78 64.21 9.00 212.20 3014.99
   07:11:52.400.03-Feb-2020 4002.71  414.40 64.21 9.00 212.40 3014.99
   07:11:52.600.03-Feb-2020 4002.71  416.19 64.21 9.00 212.60 3014.99
   07:11:52.800.03-Feb-2020 4002.71  417.99 64.21 9.00 212.80 3014.99
   07:11:53.000.03-Feb-2020 4002.71  419.81 64.21 9.00 213.00 3014.99
   07:11:53.200.03-Feb-2020 4002.71  419.81 64.21 9.00 213.20 3014.99
   07:11:53.400.03-Feb-2020 4002.71  423.47 64.21 9.00 213.40 3014.99
   07:11:53.600.03-Feb-2020 4002.71  425.27 64.21 9.00 213.60 3014.99
   07:11:53.800.03-Feb-2020 4002.71  427.08 64.21 9.00 213.80 3014.99
   07:11:54.000.03-Feb-2020 4002.71  428.95 64.21 9.00 214.00 3014.99
   07:11:54.200.03-Feb-2020 4002.71  428.95 64.21 9.00 214.20 3014.99
   07:11:54.400.03-Feb-2020 4002.71  432.65 64.21 9.00 214.40 3014.99
   07:11:54.600.03-Feb-2020 4002.71  434.48 64.21 9.00 214.60 3014.99
   07:11:54.800.03-Feb-2020 4002.71  436.39 64.21 9.00 214.80 3014.99
   07:11:55.000.03-Feb-2020 4002.71  438.26 64.21 9.00 215.00 3014.99
   07:11:55.200.03-Feb-2020 4002.71  438.26 64.21 9.00 215.20 3014.99
   07:11:55.400.03-Feb-2020 4002.71  442.05 64.21 9.00 215.40 3014.99
   07:11:55.600.03-Feb-2020 4002.71  443.95 64.21 9.00 215.60 3014.99
   07:11:55.800.03-Feb-2020 4002.71  445.84 64.21 9.00 215.80 3014.99
   07:11:56.000.03-Feb-2020 4002.71  447.76 64.21 9.00 216.00 3014.99
   07:11:56.200.03-Feb-2020 4002.71  447.76 64.21 9.00 216.20 3014.99
   07:11:56.400.03-Feb-2020 4002.71  451.60 64.22 9.00 216.40 3014.99
   07:11:56.600.03-Feb-2020 4002.71  453.48 64.21 9.00 216.60 3014.99
   07:11:56.800.03-Feb-2020 4002.71  455.43 64.21 9.00 216.80 3014.99
   07:11:57.000.03-Feb-2020 4002.71  457.33 64.22 9.00 217.00 3014.99
   07:11:57.200.03-Feb-2020 4002.71  457.33 64.22 9.00 217.20 3014.99
   07:11:57.400.03-Feb-2020 4002.71  461.31 64.21 9.00 217.40 3014.99
   07:11:57.600.03-Feb-2020 4002.71  463.26 64.22 9.00 217.60 3014.99
   07:11:57.800.03-Feb-2020 4002.71  465.15 64.22 9.00 217.80 3014.99
   07:11:58.000.03-Feb-2020 4002.71  467.14 64.22 9.00 218.00 3014.99
   07:11:58.200.03-Feb-2020 4002.71  467.14 64.22 9.00 218.20 3014.99
   07:11:58.400.03-Feb-2020 4002.71  471.09 64.22 9.00 218.40 3014.99
   07:11:58.600.03-Feb-2020 4002.71  473.04 64.22 9.00 218.60 3014.99
   07:11:58.800.03-Feb-2020 4002.71  474.92 64.22 9.00 218.80 3014.99
   07:11:59.000.03-Feb-2020 4002.71  476.86 64.22 9.00 219.00 3014.99
   07:11:59.200.03-Feb-2020 4002.71  478.88 64.22 9.00 219.20 3014.99
   07:11:59.400.03-Feb-2020 4002.71  480.87 64.22 9.00 219.40 3014.99
   07:11:59.600.03-Feb-2020 4002.71  482.97 64.22 9.00 219.60 3014.99
   07:11:59.800.03-Feb-2020 4002.71  485.00 64.22 9.00 219.80 3014.99
   07:12:00.000.03-Feb-2020 4002.71  487.04 64.22 9.00 220.00 3014.99
   07:12:00.200.03-Feb-2020 4002.71  489.09 64.22 9.00 220.20 3014.99
   07:12:00.400.03-Feb-2020 4002.71  491.00 64.22 9.00 220.40 3014.99
   07:12:00.600.03-Feb-2020 4002.71  493.18 64.22 9.00 220.60 3014.99
   07:12:00.800.03-Feb-2020 4002.71  495.23 64.22 9.00 220.80 3014.99
   07:12:01.000.03-Feb-2020 4002.71  497.33 64.22 9.00 221.00 3014.99
   07:12:01.200.03-Feb-2020 4002.71  499.40 64.22 9.00 221.20 3014.99
   07:12:01.400.03-Feb-2020 4002.71  501.51 64.22 9.00 221.40 3014.99
   07:12:01.600.03-Feb-2020 4002.71  503.60 64.22 9.00 221.60 3014.99
   07:12:01.800.03-Feb-2020 4002.71  505.69 64.22 9.00 221.80 3014.99
   07:12:02.000.03-Feb-2020 4002.71  507.82 64.22 9.00 222.00 3014.99
   07:12:02.200.03-Feb-2020 4002.71  507.82 64.22 9.00 222.20 3014.99
   07:12:02.400.03-Feb-2020 4002.71  512.08 64.22 9.00 222.40 3014.99
   07:12:02.600.03-Feb-2020 4002.71  514.19 64.22 9.00 222.60 3014.99
   07:12:02.800.03-Feb-2020 4002.71  516.32 64.22 9.00 222.80 3014.99
   07:12:03.000.03-Feb-2020 4002.71  518.03 64.22 9.00 223.00 3014.99
   07:12:03.200.03-Feb-2020 4002.71  518.03 64.22 9.00 223.20 3014.99
   07:12:03.400.03-Feb-2020 4002.71  522.19 64.22 9.00 223.40 3014.99
   07:12:03.600.03-Feb-2020 4002.71  524.23 64.22 9.00 223.60 3014.99
   07:12:03.800.03-Feb-2020 4002.71  526.48 64.22 9.00 223.80 3014.99
   07:12:04.000.03-Feb-2020 4002.71  528.64 64.22 9.00 224.00 3014.99
   07:12:04.200.03-Feb-2020 4002.71  530.86 64.22 9.00 224.20 3014.99
   07:12:04.400.03-Feb-2020 4002.71  533.04 64.22 9.00 224.40 3014.99
   07:12:04.600.03-Feb-2020 4002.71  535.26 64.22 9.00 224.60 3014.99
   07:12:04.800.03-Feb-2020 4002.71  537.49 64.22 9.00 224.80 3014.99
   07:12:05.000.03-Feb-2020 4002.71  539.71 64.22 9.00 225.00 3014.99
   07:12:05.200.03-Feb-2020 4002.71  539.71 64.22 9.00 225.20 3014.99
   07:12:05.400.03-Feb-2020 4002.71  544.17 64.22 9.00 225.40 3014.99
   07:12:05.600.03-Feb-2020 4002.71  546.40 64.22 9.00 225.60 3014.99
   07:12:05.800.03-Feb-2020 4002.71  548.65 64.22 9.00 225.80 3014.99
   07:12:06.000.03-Feb-2020 4002.71  550.82 64.22 9.00 226.00 3014.99
   07:12:06.200.03-Feb-2020 4002.71  550.82 64.22 9.00 226.20 3014.99
   07:12:06.400.03-Feb-2020 4002.71  555.35 64.22 9.00 226.40 3014.99
   07:12:06.600.03-Feb-2020 4002.71  557.70 64.22 9.00 226.60 3014.99
   07:12:06.800.03-Feb-2020 4002.71  559.95 64.22 9.00 226.80 3014.99
   07:12:07.000.03-Feb-2020 4002.71  562.26 64.22 9.00 227.00 3014.99
   07:12:07.200.03-Feb-2020 4002.71  562.26 64.22 9.00 227.20 3014.99
   07:12:07.400.03-Feb-2020 4002.71  566.80 64.22 9.00 227.40 3014.99
   07:12:07.600.03-Feb-2020 4002.71  569.14 64.22 9.00 227.60 3014.99
   07:12:07.800.03-Feb-2020 4002.71  571.41 64.22 9.00 227.80 3014.99
   07:12:08.000.03-Feb-2020 4002.71  573.80 64.22 9.00 228.00 3014.99
   07:12:08.200.03-Feb-2020 4002.71  573.80 64.22 9.00 228.20 3014.99
   07:12:08.400.03-Feb-2020 4002.71  578.49 64.22 9.00 228.40 3014.99
   07:12:08.600.03-Feb-2020 4002.71  580.68 64.22 9.00 228.60 3014.99
   07:12:08.800.03-Feb-2020 4002.71  583.11 64.22 9.00 228.80 3014.99
   07:12:09.000.03-Feb-2020 4002.71  585.49 64.22 9.00 229.00 3014.99
   07:12:09.200.03-Feb-2020 4002.71  585.49 64.22 9.00 229.20 3014.99
   07:12:09.400.03-Feb-2020 4002.71  590.25 64.22 9.00 229.40 3014.99
   07:12:09.600.03-Feb-2020 4002.71  592.52 64.22 9.00 229.60 3014.99
   07:12:09.800.03-Feb-2020 4002.71  594.50 64.22 9.00 229.80 3014.99
