~Version Information
 VERS.                  2.0:   CWLS log ASCII Standard -VERSION 2.0
 WRAP.                   NO:   One line per depth step
~Well Information Block
#MNEM.UNIT     VALUE/NAME     DESCRIPTION
#---------     -----------    ---------------------------
 STRT.S             03:10:10 03-Feb-20: START TIME 03:10:10 03-Feb-20
 STOP.S             03:17:58 03-Feb-20: STOP TIME  03:17:58 03-Feb-20
 STEP.S                   0.00: STEP TIME
 NULL.                 -999.25: NULL VALUE
 DFWT.                        :  DIST FWL TEXT
 DFST.                        :  DIST FSL TEXT
 DMF .             Drill Floor:  DRILL MEAS FROM
 STIM.      09.30.00 26-Dec-19:  START TIME
 DATE.      08.00.00 20-Jan-20:  END TIME
 SPUD.               23-Nov-19:  SPUD DATE
 NREF.                    Grid:  NORTH REFERENCE
 HPTY.       Minimum Curvature:  HOLE POS TYPE
 DMOD.             Drill Model:  DRILL MOD DESC
 SVYD.                  Survey:  SURVEY DESC
 ILTD.               Lithology:  INTERP LTH DESC
 FTOP.          Formation Tops:  FORM TOPS DESC
 SON .        AZ-XX-0906192647:  JOB NUMBER
 WTYP.                Deviated:  WELL TYPE
 COMP.     BP Exploration (Caspian Sea) Ltd:  COMPANY
 BASE.              Azerbaijan:  LOGGING EQUIPMENT BASE LOCATION
 REGN.                 Eurasia:  REGION
 FLD .                     ACG:  FIELD NAME
 SRVC.              KCA Deutag:  CONTRACTOR
 MWDS.                    Baku:  MWD SHOP
 WELL.     A10 (Slot 20) - SCP:  WELL NAME
 JOBN.        AZ-XX-0906192647:  JOB TICKET NUMB
 RIG .                 Chirag1:  RIG NAME
 DCON.     Halliburton Sperry Drilling:  DIRECTNL CONTR
 UNIT.                     N/A:  LOGGING EQUIPMENT ID
 PDAT.          Mean Sea Level:  PERMANENT DATUM
 MDS .        Operator Entered:  MAG DATA SOURCE
 CTRY.              Azerbaijan:  COUNTRY NAME
 UWI .            /AZE00000090:  UNIQUE WELL IDENTIFIER
 API .            /AZE00000090:  API NUMBER
 CNTY.                        :  COUNTY
 PROV.                        :  PROVINCE
 STAT.                        :  STATE
 LOC .                        :  LOCATION
 LMF .             Drill Floor:  LOG MEASURED FROM
 TVDS.m                  36.60:  TVDSS CORRECTN
 LATI.deg                40.08:  LATITUDE
 LONG.deg                51.24:  LONGITUDE
 WHNS.m                  -7.94:  WELL HEAD N/S
 WHEW.m                   1.56:  WELL HEAD E/W
 UTMX.m              520429.26:  UTM X
 UTMY.m             4438973.87:  UTM Y
 DFWL.m                   0.00:  DISTANCE FWL
 DFSL.m                   0.00:  DISTANCE FSL
 SDEP.m                1455.00:  START DEPTH
 TDD .m                4047.51:  TOTAL DEPTH (DRILLER)
 VSDR.deg               112.75:  VERT SEC DIRECT
 GVFD.g                   1.00:  GRAVITY FIELD
 MFLD.nT              50261.00:  MAGNETIC FIELD
 MDIP.deg                59.52:  MAGNETIC DIP
 MDEC.deg                 6.42:  MAGNETIC DECL
 GRDC.deg                 0.17:  GRID CORRECTION
 AZTC.deg                 6.25:  AZM TOTAL CORR
 EPD .m                   0.00:  ELEVATION
 EGL .m                   0.00:  GROUND ELEVATION
 WDMS.m                 121.00:  WD ELEV
 APD .m                  36.60:  DEPTH ABOVE PD
 AGAP.m                  36.60:  AIR GAP
 VSEW.m                   1.56:  VERT SEC E/W
 VSNS.m                  -7.94:  VERT SEC N/S
 DEP .m                1140.01:  DEPTH
 EKB .m                  36.60:  KB ELEVATION
 EDF .m                  36.60:  DF ELEVATION
 VSC .                       0:  VS TO CLOSURE
 MAGU.                 1849206:  MAGUTM CHECKSUM
~Parameter Information Block
#MNEM.UNIT       Value        Description
#---------     -----------    ---------------------------
 AV  .mps                 1.70:  Ann Velocity 
 AVMX.mps                 2.30:  Max Ann Veloc 
 AZIF.deg               137.03:  Azm, Final 
 BHAT.                   Other:  BHA Type 
 BROT.°/30m               0.80:  Build Rotating 
 BS  .in                  8.00:  Bit Size 
 BTPL.psig              161.00:  Bit Press Loss 
 CABU.                      No:  Customer Abuse 
 TCS .hr                  9.59:  Time Ciculation Ended 
 CV  .mps                 3.76:  Crit Velocity 
 CVMX.mps                 4.26:  Max Crit Veloc 
 DD1 .         Intigam Rahimov:  Direct Drillr 1 
 DD2 .          Rashad Gojayev:  Direct Drillr 2 
 DDSV.                   Other:  DD Service 
 DEFF.%                 100.00:  % Det Eff 
 DLRX.°/30m               1.44:  Dogleg Rot Max 
 DLSO.°/30m               0.00:  Dogleg Oriented 
 DLSX.°/30m               0.00:  Dogleg Str Max 
 DRET.      03.31.12 02-Feb-20:  Drill End Time 
 DRST.      03.31.12 02-Feb-20:  Drill Start Tim 
 DTIM.hr                  1.99:  Time Drilling 
 EDEP.m                4047.51:  End Depth 
 ENG1.           Eldar Hajiyev:  Engineer 1 
 ENG2.          Rasim Hashimov:  Engineer 2 
 ENG3.          Rustam Safarov:  Engineer 3 
 ETIM.      03.31.12 02-Feb-20:  End Time 
 FLOI.gpm               300.00:  Flow In 
 FLON.gpm               250.00:  Flow In Min 
 FLOS.cptm                0.00:  Fluid Loss 
 FLOX.gpm               330.00:  Flow In Max 
 HFLO.                      No:  High Flow 
 HPRE.                      No:  High Pressure 
 HTEM.                      No:  High Temp 
 HYDO.m                   2.50:  Hydro Offset 
 IFIN.deg                39.54:  Inc, Final 
 IMAX.deg                41.14:  Inc Max 
 IMIN.deg                39.81:  Inc Min 
 IMND.m                4005.21:  Inc Min Depth 
 IMXD.m                3948.42:  Inc Max Depth 
 JARR.                      No:  Jarring 
 LETM.      03.31.12 02-Feb-20:  Log End Time 
 LOST.hr                     0:  Lost Rig Time 
 LSTM.      03.31.12 02-Feb-20:  Log Start Time 
 MDCL.ppm             35000.00:  Mud Chlorides 
 MDES.     Inversion Oil/Synthetic:  Mud Desc 
 DFD .sg                  1.32:  Mud Density 
 MDMN.sg                  1.32:  Dens Mud Min 
 MDMX.sg                  1.32:  Dens Mud Max 
 MOIL.                      59:  Run Mud Oil % 
 MOWR.                   71:29:  Run Mud OWR 
 MSND.                       0:  Run Mud Sand % 
 MSOL.                      17:  Run Mud Solids% 
 DFV .spqt               86.00:  Mud Viscosity 
 MWOD.in                  4.75:  MWD Tool OD 
 MWSI.                      No:  Serv Intrp, MWD 
 OTIM.hr                 46.72:  Time Operating 
 PCON.           Look Like New:  Pad Condition 
 PMAX.psia             3300.00:  Press Op, Max 
 PV  .cP                 30.00:  Mud PV 
 RUN .                     400:  Run Number 
 ROPA.m/hr               35.00:  ROP Avg 
 ROPN.m/hr               25.00:  ROP Min 
 ROPX.m/hr               40.00:  ROP Max 
 RPMA.rpm                80.00:  RPM Surface Avg 
 RPMN.rpm                60.00:  RPM Surface Min 
 RPMX.rpm               100.00:  RPM Surface Max 
 RRUN.                     400:  Rig Run Number 
 RTIM.hr                  1.99:  Time Reaming 
 SAZI.deg               133.93:  Azm, Start 
 SDEP.m                4047.51:  Start Depth 
 SIDD.                      No:  Serv Intrp, DD 
 SINC.deg                40.28:  Inc, Start 
 SPPA.psig             3250.00:  SPP Avg 
 SPPN.psig             3200.00:  SPP Min 
 SPPX.psig             3300.00:  SPP Max 
 STIM.      03.31.12 02-Feb-20:  Start Time 
 SVCS.                 DD, MWD:  Services 
 SVER.                    9.20:  Sperry Version 
 TDAT.m                  47.00:  Tot Depth Attmp 
 TDDF.                      No:  Trip for DD 
 TFF .                      No:  Trip for Fail 
 TQAA.f-kp                0.00:  Torque Abs Avg 
 TQAN.f-kp                0.00:  Torque Abs Min 
 TQAX.f-kp                0.00:  Torque Abs Max 
 TRRT.°/30m               0.70:  Turn Rotating 
 MRT .                    HCIM:  Maximum Recorded Temperature 
 TTMX.degC               70.59:  Max Tool Temp 
 VS01.             90598770F11:  Virtual Str1 SN 
 VS02.             90598769F11:  Virtual Str2 SN 
 VS03.            90515978Z1W1:  Virtual Str3 SN 
 VS04.          90584144R12X14:  Virtual Str4 SN 
 WBMN.klb                 0.00:  WOB Min 
 WITN.            Peter Wilson:  Customer Rep 
 WOBA.klb                 0.00:  WOB Avg 
 WOBX.klb                 0.00:  WOB Max 
 YP  .lhf2               29.00:  Yield Point 
~Curve Information Block
#MNEM.UNIT                 API CODE     Curve Description
#---------               -----------    ---------------------------
 TIME.HHMMSS            00 000 000 000:  GT Time & Date
 GTDEPTH.m              00 000 000 000:  GT Depth
 GTPQH.psia             00 000 000 000:  GT HR Quartz Pressure
 GTTQ.degC              00 000 000 000:  GT Quartz Temperature
 GTTN.NONE              00 000 000 000:  GT Test Number
 GTET.sec               00 000 000 000:  GT Elapsed Test Time
 GTTVD.m                00 000 000 000:  GT True Vertical Depth
#Other Information
#
#WARRANTY: Halliburton will use its best efforts to furnish customers with 
#accurate information and interpretations that are part of, and incident to, the services 
#provided.  However, Halliburton cannot and does not warrant the accuracy 
#or correctness of such information and interpretations.  Under no circumstances should any 
#such information or interpretation be relied upon as the sole basis for any drilling, 
#completion, production, or financial decision or any procedure involving any risk to the 
#safety of any drilling venture, drilling rig or its crew or any other third party.  The 
#Customer has full responsibility for all drilling, completion and production operation.  
#Halliburton makes no representations or warranties, either expressed or 
#implied, including, but not limited to, the implied warranties of merchantability or fitness 
#for a particular purpose, with respect to the services rendered.  In no event will 
#Halliburton be liable for failure to obtain any particular results or for 
#any damages, including, but not limited to, indirect, special or consequential damages, 
#resulting from the use of any information or interpretation provided by Halliburton.
#
~A           TIME           GTDEPTH  GTPQH  GTTQ  GTTN  GTET   GTTVD  
# ...
   03:10:33.028.03-Feb-2020 4017.01 7019.13 63.25 2.00  23.00 3025.96
   03:10:33.228.03-Feb-2020 4017.01 7019.13 63.25 2.00  23.20 3025.96
   03:10:33.428.03-Feb-2020 4017.01 7024.38 63.25 2.00  23.40 3025.96
   03:10:33.628.03-Feb-2020 4017.01 7026.40 63.25 2.00  23.60 3025.96
   03:10:33.829.03-Feb-2020 4017.01 7028.35 63.25 2.00  23.80 3025.96
   03:10:34.029.03-Feb-2020 4017.01 7030.45 63.25 2.00  24.01 3025.96
   03:10:34.229.03-Feb-2020 4017.01 7030.45 63.25 2.00  24.21 3025.96
   03:10:34.429.03-Feb-2020 4017.01 6374.90 63.25 2.00  24.41 3025.96
   03:10:34.629.03-Feb-2020 4017.01 5995.59 63.25 2.00  24.61 3025.96
   03:10:34.829.03-Feb-2020 4017.01 5812.05 63.25 2.00  24.81 3025.96
   03:10:35.029.03-Feb-2020 4017.01 5465.02 63.25 2.00  25.01 3025.96
   03:10:35.229.03-Feb-2020 4017.01 5465.02 63.25 2.00  25.21 3025.96
   03:10:35.429.03-Feb-2020 4017.01 5075.59 63.25 2.00  25.41 3025.96
   03:10:35.629.03-Feb-2020 4017.01 4279.58 63.25 2.00  25.61 3025.96
   03:10:35.829.03-Feb-2020 4017.01 3851.63 63.25 2.00  25.81 3025.96
   03:10:36.029.03-Feb-2020 4017.01 3450.11 63.25 2.00  26.01 3025.96
   03:10:36.229.03-Feb-2020 4017.01 3450.11 63.25 2.00  26.21 3025.96
   03:10:36.429.03-Feb-2020 4017.01 3050.09 63.25 2.00  26.41 3025.96
   03:10:36.629.03-Feb-2020 4017.01 3048.19 63.25 2.00  26.61 3025.96
   03:10:36.829.03-Feb-2020 4017.01 3057.06 63.25 2.00  26.81 3025.96
   03:10:37.029.03-Feb-2020 4017.01 3072.57 63.25 2.00  27.01 3025.96
   03:10:37.229.03-Feb-2020 4017.01 3072.57 63.25 2.00  27.21 3025.96
   03:10:37.429.03-Feb-2020 4017.01 3072.87 63.25 2.00  27.41 3025.96
   03:10:37.629.03-Feb-2020 4017.01 3069.34 63.24 2.00  27.61 3025.96
   03:10:37.829.03-Feb-2020 4017.01 3076.61 63.24 2.00  27.81 3025.96
   03:10:38.029.03-Feb-2020 4017.01 3068.80 63.24 2.00  28.01 3025.96
   03:10:38.229.03-Feb-2020 4017.01 3068.80 63.24 2.00  28.21 3025.96
   03:10:38.429.03-Feb-2020 4017.01 3067.36 63.24 2.00  28.41 3025.96
   03:10:38.630.03-Feb-2020 4017.01 3079.93 63.24 2.00  28.61 3025.96
   03:10:38.830.03-Feb-2020 4017.01 3064.82 63.24 2.00  28.81 3025.96
   03:10:39.030.03-Feb-2020 4017.01 3064.86 63.24 2.00  29.01 3025.96
   03:10:39.230.03-Feb-2020 4017.01 3064.86 63.24 2.00  29.21 3025.96
   03:10:39.430.03-Feb-2020 4017.01 3075.80 63.23 2.00  29.41 3025.96
   03:10:39.630.03-Feb-2020 4017.01 3076.34 63.23 2.00  29.61 3025.96
   03:10:39.830.03-Feb-2020 4017.01 3064.72 63.23 2.00  29.81 3025.96
   03:10:40.030.03-Feb-2020 4017.01 3061.31 63.23 2.00  30.01 3025.96
   03:10:40.230.03-Feb-2020 4017.01 3061.31 63.23 2.00  30.21 3025.96
   03:10:40.430.03-Feb-2020 4017.01 3058.67 63.23 2.00  30.41 3025.96
   03:10:40.630.03-Feb-2020 4017.01 3056.98 63.23 2.00  30.61 3025.96
   03:10:40.830.03-Feb-2020 4017.01 3057.71 63.22 2.00  30.81 3025.96
   03:10:41.030.03-Feb-2020 4017.01 3056.96 63.22 2.00  31.01 3025.96
   03:10:41.230.03-Feb-2020 4017.01 3056.96 63.22 2.00  31.21 3025.96
   03:10:41.430.03-Feb-2020 4017.01 3056.11 63.22 2.00  31.41 3025.96
   03:10:41.630.03-Feb-2020 4017.01 3055.60 63.22 2.00  31.61 3025.96
   03:10:41.830.03-Feb-2020 4017.01 3055.15 63.22 2.00  31.81 3025.96
   03:10:42.030.03-Feb-2020 4017.01 3055.81 63.22 2.00  32.01 3025.96
   03:10:42.230.03-Feb-2020 4017.01 3055.81 63.22 2.00  32.21 3025.96
   03:10:42.430.03-Feb-2020 4017.01 3054.82 63.21 2.00  32.41 3025.96
   03:10:42.630.03-Feb-2020 4017.01 3054.45 63.21 2.00  32.61 3025.96
   03:10:42.830.03-Feb-2020 4017.01 3054.55 63.21 2.00  32.81 3025.96
   03:10:43.030.03-Feb-2020 4017.01 3068.26 63.20 2.00  33.01 3025.96
   03:10:43.230.03-Feb-2020 4017.01 3068.26 63.20 2.00  33.21 3025.96
   03:10:43.431.03-Feb-2020 4017.01 3130.91 63.20 2.00  33.41 3025.96
   03:10:43.631.03-Feb-2020 4017.01 3131.24 63.20 2.00  33.61 3025.96
   03:10:43.831.03-Feb-2020 4017.01 3132.22 63.20 2.00  33.81 3025.96
   03:10:44.031.03-Feb-2020 4017.01 3132.25 63.20 2.00  34.01 3025.96
   03:10:44.231.03-Feb-2020 4017.01 3132.25 63.20 2.00  34.21 3025.96
   03:10:44.431.03-Feb-2020 4017.01 3132.75 63.20 2.00  34.41 3025.96
   03:10:44.631.03-Feb-2020 4017.01 3132.96 63.20 2.00  34.61 3025.96
   03:10:44.831.03-Feb-2020 4017.01 3133.07 63.20 2.00  34.81 3025.96
   03:10:45.031.03-Feb-2020 4017.01 3133.19 63.20 2.00  35.01 3025.96
   03:10:45.231.03-Feb-2020 4017.01 3133.19 63.20 2.00  35.21 3025.96
   03:10:45.431.03-Feb-2020 4017.01 3133.46 63.19 2.00  35.41 3025.96
   03:10:45.631.03-Feb-2020 4017.01 3133.54 63.19 2.00  35.61 3025.96
   03:10:45.831.03-Feb-2020 4017.01 3133.63 63.19 2.00  35.81 3025.96
   03:10:46.031.03-Feb-2020 4017.01 3133.66 63.19 2.00  36.01 3025.96
   03:10:46.231.03-Feb-2020 4017.01 3133.66 63.19 2.00  36.21 3025.96
   03:10:46.431.03-Feb-2020 4017.01 3133.78 63.19 2.00  36.41 3025.96
   03:10:46.631.03-Feb-2020 4017.01 3133.94 63.19 2.00  36.61 3025.96
   03:10:46.831.03-Feb-2020 4017.01 3133.90 63.19 2.00  36.81 3025.96
   03:10:47.031.03-Feb-2020 4017.01 3134.18 63.19 2.00  37.01 3025.96
   03:10:47.231.03-Feb-2020 4017.01 3134.18 63.19 2.00  37.21 3025.96
   03:10:47.431.03-Feb-2020 4017.01 3133.70 63.18 2.00  37.41 3025.96
   03:10:47.631.03-Feb-2020 4017.01 3134.36 63.18 2.00  37.61 3025.96
   03:10:47.831.03-Feb-2020 4017.01 3134.13 63.18 2.00  37.81 3025.96
   03:10:48.031.03-Feb-2020 4017.01 3134.30 63.18 2.00  38.01 3025.96
   03:10:48.232.03-Feb-2020 4017.01 3134.30 63.18 2.00  38.21 3025.96
   03:10:48.432.03-Feb-2020 4017.01 3134.45 63.18 2.00  38.41 3025.96
   03:10:48.632.03-Feb-2020 4017.01 3134.20 63.18 2.00  38.61 3025.96
   03:10:48.832.03-Feb-2020 4017.01 3134.36 63.18 2.00  38.81 3025.96
   03:10:49.032.03-Feb-2020 4017.01 3133.89 63.18 2.00  39.01 3025.96
   03:10:49.232.03-Feb-2020 4017.01 3133.89 63.18 2.00  39.21 3025.96
   03:10:49.432.03-Feb-2020 4017.01 3134.24 63.18 2.00  39.41 3025.96
   03:10:49.632.03-Feb-2020 4017.01 3134.57 63.18 2.00  39.61 3025.96
   03:10:49.832.03-Feb-2020 4017.01 3134.38 63.18 2.00  39.81 3025.96
   03:10:50.032.03-Feb-2020 4017.01 3134.50 63.18 2.00  40.01 3025.96
   03:10:50.232.03-Feb-2020 4017.01 3134.50 63.18 2.00  40.21 3025.96
   03:10:50.432.03-Feb-2020 4017.01 3134.68 63.18 2.00  40.41 3025.96
   03:10:50.632.03-Feb-2020 4017.01 3134.43 63.18 2.00  40.61 3025.96
   03:10:50.832.03-Feb-2020 4017.01 3134.53 63.18 2.00  40.81 3025.96
   03:10:51.032.03-Feb-2020 4017.01 3134.52 63.18 2.00  41.01 3025.96
   03:10:51.232.03-Feb-2020 4017.01 3134.52 63.18 2.00  41.21 3025.96
   03:10:51.432.03-Feb-2020 4017.01 3134.57 63.18 2.00  41.41 3025.96
   03:10:51.632.03-Feb-2020 4017.01 3134.57 63.18 2.00  41.61 3025.96
   03:10:51.832.03-Feb-2020 4017.01 3134.56 63.17 2.00  41.81 3025.96
   03:10:52.032.03-Feb-2020 4017.01 3134.67 63.17 2.00  42.01 3025.96
   03:10:52.232.03-Feb-2020 4017.01 3134.67 63.17 2.00  42.21 3025.96
   03:10:52.432.03-Feb-2020 4017.01 3134.61 63.17 2.00  42.41 3025.96
   03:10:52.632.03-Feb-2020 4017.01 3134.60 63.17 2.00  42.61 3025.96
   03:10:52.832.03-Feb-2020 4017.01 3134.62 63.17 2.00  42.81 3025.96
   03:10:53.033.03-Feb-2020 4017.01 3134.64 63.17 2.00  43.01 3025.96
   03:10:53.233.03-Feb-2020 4017.01 3134.64 63.17 2.00  43.21 3025.96
   03:10:53.433.03-Feb-2020 4017.01 3134.52 63.17 2.00  43.41 3025.96
   03:10:53.633.03-Feb-2020 4017.01 3134.72 63.17 2.00  43.61 3025.96
   03:10:53.833.03-Feb-2020 4017.01 3134.37 63.17 2.00  43.81 3025.96
   03:10:54.033.03-Feb-2020 4017.01 3134.78 63.17 2.00  44.01 3025.96
   03:10:54.233.03-Feb-2020 4017.01 3134.78 63.17 2.00  44.21 3025.96
   03:10:54.433.03-Feb-2020 4017.01 3134.76 63.17 2.00  44.41 3025.96
   03:10:54.633.03-Feb-2020 4017.01 3134.77 63.17 2.00  44.61 3025.96
   03:10:54.833.03-Feb-2020 4017.01 3134.79 63.17 2.00  44.81 3025.96
   03:10:55.033.03-Feb-2020 4017.01 3134.75 63.17 2.00  45.01 3025.96
   03:10:55.233.03-Feb-2020 4017.01 3134.75 63.17 2.00  45.21 3025.96
   03:10:55.433.03-Feb-2020 4017.01 3134.84 63.17 2.00  45.41 3025.96
   03:10:55.633.03-Feb-2020 4017.01 3134.81 63.17 2.00  45.61 3025.96
   03:10:55.833.03-Feb-2020 4017.01 3134.86 63.17 2.00  45.81 3025.96
