~Version Information
 VERS.                  2.0:   CWLS log ASCII Standard -VERSION 2.0
 WRAP.                   NO:   One line per depth step
~Well Information Block
#MNEM.UNIT     VALUE/NAME     DESCRIPTION
#---------     -----------    ---------------------------
 STRT.S             02:50:23 03-Feb-20: START TIME 02:50:23 03-Feb-20
 STOP.S             02:58:14 03-Feb-20: STOP TIME  02:58:14 03-Feb-20
 STEP.S                   0.00: STEP TIME
 NULL.                 -999.25: NULL VALUE
 DFWT.                        :  DIST FWL TEXT
 DFST.                        :  DIST FSL TEXT
 DMF .             Drill Floor:  DRILL MEAS FROM
 STIM.      09.30.00 26-Dec-19:  START TIME
 DATE.      08.00.00 20-Jan-20:  END TIME
 SPUD.               23-Nov-19:  SPUD DATE
 NREF.                    Grid:  NORTH REFERENCE
 HPTY.       Minimum Curvature:  HOLE POS TYPE
 DMOD.             Drill Model:  DRILL MOD DESC
 SVYD.                  Survey:  SURVEY DESC
 ILTD.               Lithology:  INTERP LTH DESC
 FTOP.          Formation Tops:  FORM TOPS DESC
 SON .        AZ-XX-0906192647:  JOB NUMBER
 WTYP.                Deviated:  WELL TYPE
 COMP.     BP Exploration (Caspian Sea) Ltd:  COMPANY
 BASE.              Azerbaijan:  LOGGING EQUIPMENT BASE LOCATION
 REGN.                 Eurasia:  REGION
 FLD .                     ACG:  FIELD NAME
 SRVC.              KCA Deutag:  CONTRACTOR
 MWDS.                    Baku:  MWD SHOP
 WELL.     A10 (Slot 20) - SCP:  WELL NAME
 JOBN.        AZ-XX-0906192647:  JOB TICKET NUMB
 RIG .                 Chirag1:  RIG NAME
 DCON.     Halliburton Sperry Drilling:  DIRECTNL CONTR
 UNIT.                     N/A:  LOGGING EQUIPMENT ID
 PDAT.          Mean Sea Level:  PERMANENT DATUM
 MDS .        Operator Entered:  MAG DATA SOURCE
 CTRY.              Azerbaijan:  COUNTRY NAME
 UWI .            /AZE00000090:  UNIQUE WELL IDENTIFIER
 API .            /AZE00000090:  API NUMBER
 CNTY.                        :  COUNTY
 PROV.                        :  PROVINCE
 STAT.                        :  STATE
 LOC .                        :  LOCATION
 LMF .             Drill Floor:  LOG MEASURED FROM
 TVDS.m                  36.60:  TVDSS CORRECTN
 LATI.deg                40.08:  LATITUDE
 LONG.deg                51.24:  LONGITUDE
 WHNS.m                  -7.94:  WELL HEAD N/S
 WHEW.m                   1.56:  WELL HEAD E/W
 UTMX.m              520429.26:  UTM X
 UTMY.m             4438973.87:  UTM Y
 DFWL.m                   0.00:  DISTANCE FWL
 DFSL.m                   0.00:  DISTANCE FSL
 SDEP.m                1455.00:  START DEPTH
 TDD .m                4047.51:  TOTAL DEPTH (DRILLER)
 VSDR.deg               112.75:  VERT SEC DIRECT
 GVFD.g                   1.00:  GRAVITY FIELD
 MFLD.nT              50261.00:  MAGNETIC FIELD
 MDIP.deg                59.52:  MAGNETIC DIP
 MDEC.deg                 6.42:  MAGNETIC DECL
 GRDC.deg                 0.17:  GRID CORRECTION
 AZTC.deg                 6.25:  AZM TOTAL CORR
 EPD .m                   0.00:  ELEVATION
 EGL .m                   0.00:  GROUND ELEVATION
 WDMS.m                 121.00:  WD ELEV
 APD .m                  36.60:  DEPTH ABOVE PD
 AGAP.m                  36.60:  AIR GAP
 VSEW.m                   1.56:  VERT SEC E/W
 VSNS.m                  -7.94:  VERT SEC N/S
 DEP .m                1140.01:  DEPTH
 EKB .m                  36.60:  KB ELEVATION
 EDF .m                  36.60:  DF ELEVATION
 VSC .                       0:  VS TO CLOSURE
 MAGU.                 1849206:  MAGUTM CHECKSUM
~Parameter Information Block
#MNEM.UNIT       Value        Description
#---------     -----------    ---------------------------
 AV  .mps                 1.70:  Ann Velocity 
 AVMX.mps                 2.30:  Max Ann Veloc 
 AZIF.deg               137.03:  Azm, Final 
 BHAT.                   Other:  BHA Type 
 BROT.°/30m               0.80:  Build Rotating 
 BS  .in                  8.00:  Bit Size 
 BTPL.psig              161.00:  Bit Press Loss 
 CABU.                      No:  Customer Abuse 
 COMM.                     ´Î`:  Run Comments 1 
 TCS .hr                  9.59:  Time Ciculation Ended 
 CV  .mps                 3.76:  Crit Velocity 
 CVMX.mps                 4.26:  Max Crit Veloc 
 DD1 .         Intigam Rahimov:  Direct Drillr 1 
 DD2 .          Rashad Gojayev:  Direct Drillr 2 
 DDSV.                   Other:  DD Service 
 DEFF.%                 100.00:  % Det Eff 
 DLRX.°/30m               1.44:  Dogleg Rot Max 
 DLSO.°/30m               0.00:  Dogleg Oriented 
 DLSX.°/30m               0.00:  Dogleg Str Max 
 DRET.      03.31.12 02-Feb-20:  Drill End Time 
 DRST.      03.31.12 02-Feb-20:  Drill Start Tim 
 DTIM.hr                  1.99:  Time Drilling 
 EDEP.m                4047.51:  End Depth 
 ENG1.           Eldar Hajiyev:  Engineer 1 
 ENG2.          Rasim Hashimov:  Engineer 2 
 ENG3.          Rustam Safarov:  Engineer 3 
 ETIM.      03.31.12 02-Feb-20:  End Time 
 FLOI.gpm               300.00:  Flow In 
 FLON.gpm               250.00:  Flow In Min 
 FLOS.cptm                0.00:  Fluid Loss 
 FLOX.gpm               330.00:  Flow In Max 
 HFLO.                      No:  High Flow 
 HPRE.                      No:  High Pressure 
 HTEM.                      No:  High Temp 
 HYDO.m                   2.50:  Hydro Offset 
 IFIN.deg                39.54:  Inc, Final 
 IMAX.deg                41.14:  Inc Max 
 IMIN.deg                39.81:  Inc Min 
 IMND.m                4005.21:  Inc Min Depth 
 IMXD.m                3948.42:  Inc Max Depth 
 JARR.                      No:  Jarring 
 LETM.      03.31.12 02-Feb-20:  Log End Time 
 LOST.hr                     0:  Lost Rig Time 
 LSTM.      03.31.12 02-Feb-20:  Log Start Time 
 MDCL.ppm             35000.00:  Mud Chlorides 
 MDES.     Inversion Oil/Synthetic:  Mud Desc 
 DFD .sg                  1.32:  Mud Density 
 MDMN.sg                  1.32:  Dens Mud Min 
 MDMX.sg                  1.32:  Dens Mud Max 
 MOIL.                      59:  Run Mud Oil % 
 MOWR.                   71:29:  Run Mud OWR 
 MSND.                       0:  Run Mud Sand % 
 MSOL.                      17:  Run Mud Solids% 
 DFV .spqt               86.00:  Mud Viscosity 
 MWOD.in                  4.75:  MWD Tool OD 
 MWSI.                      No:  Serv Intrp, MWD 
 OTIM.hr                 46.72:  Time Operating 
 PCON.           Look Like New:  Pad Condition 
 PMAX.psia             3300.00:  Press Op, Max 
 PV  .cP                 30.00:  Mud PV 
 RUN .                     400:  Run Number 
 ROPA.m/hr               35.00:  ROP Avg 
 ROPN.m/hr               25.00:  ROP Min 
 ROPX.m/hr               40.00:  ROP Max 
 RPMA.rpm                80.00:  RPM Surface Avg 
 RPMN.rpm                60.00:  RPM Surface Min 
 RPMX.rpm               100.00:  RPM Surface Max 
 RRUN.                     400:  Rig Run Number 
 RTIM.hr                  1.99:  Time Reaming 
 SAZI.deg               133.93:  Azm, Start 
 SDEP.m                4047.51:  Start Depth 
 SIDD.                      No:  Serv Intrp, DD 
 SINC.deg                40.28:  Inc, Start 
 SPPA.psig             3250.00:  SPP Avg 
 SPPN.psig             3200.00:  SPP Min 
 SPPX.psig             3300.00:  SPP Max 
 STIM.      03.31.12 02-Feb-20:  Start Time 
 SVCS.                 DD, MWD:  Services 
 SVER.                    9.20:  Sperry Version 
 TDAT.m                  47.00:  Tot Depth Attmp 
 TDDF.                      No:  Trip for DD 
 TFF .                      No:  Trip for Fail 
 TQAA.f-kp                0.00:  Torque Abs Avg 
 TQAN.f-kp                0.00:  Torque Abs Min 
 TQAX.f-kp                0.00:  Torque Abs Max 
 TRRT.°/30m               0.70:  Turn Rotating 
 MRT .                    HCIM:  Maximum Recorded Temperature 
 TTMX.degC               70.59:  Max Tool Temp 
 VS01.             90598770F11:  Virtual Str1 SN 
 VS02.             90598769F11:  Virtual Str2 SN 
 VS03.            90515978Z1W1:  Virtual Str3 SN 
 VS04.          90584144R12X14:  Virtual Str4 SN 
 WBMN.klb                 0.00:  WOB Min 
 WITN.            Peter Wilson:  Customer Rep 
 WOBA.klb                 0.00:  WOB Avg 
 WOBX.klb                 0.00:  WOB Max 
 YP  .lhf2               29.00:  Yield Point 
~Curve Information Block
#MNEM.UNIT                 API CODE     Curve Description
#---------               -----------    ---------------------------
 TIME.HHMMSS            00 000 000 000:  GT Time & Date
 GTDEPTH.m              00 000 000 000:  GT Depth
 GTPQH.psia             00 000 000 000:  GT HR Quartz Pressure
 GTTQ.degC              00 000 000 000:  GT Quartz Temperature
 GTTN.NONE              00 000 000 000:  GT Test Number
 GTET.sec               00 000 000 000:  GT Elapsed Test Time
 GTTVD.m                00 000 000 000:  GT True Vertical Depth
#Other Information
#
#WARRANTY: Halliburton will use its best efforts to furnish customers with 
#accurate information and interpretations that are part of, and incident to, the services 
#provided.  However, Halliburton cannot and does not warrant the accuracy 
#or correctness of such information and interpretations.  Under no circumstances should any 
#such information or interpretation be relied upon as the sole basis for any drilling, 
#completion, production, or financial decision or any procedure involving any risk to the 
#safety of any drilling venture, drilling rig or its crew or any other third party.  The 
#Customer has full responsibility for all drilling, completion and production operation.  
#Halliburton makes no representations or warranties, either expressed or 
#implied, including, but not limited to, the implied warranties of merchantability or fitness 
#for a particular purpose, with respect to the services rendered.  In no event will 
#Halliburton be liable for failure to obtain any particular results or for 
#any damages, including, but not limited to, indirect, special or consequential damages, 
#resulting from the use of any information or interpretation provided by Halliburton.
#
~A           TIME           GTDEPTH  GTPQH  GTTQ  GTTN  GTET   GTTVD  
# ...
   02:51:55.794.03-Feb-2020 4022.51 3157.92 64.50 1.00  92.02 3030.18
   02:51:55.994.03-Feb-2020 4022.51 3157.92 64.50 1.00  92.22 3030.18
   02:51:56.194.03-Feb-2020 4022.51 3158.38 64.50 1.00  92.42 3030.18
   02:51:56.394.03-Feb-2020 4022.51 3159.12 64.50 1.00  92.62 3030.18
   02:51:56.595.03-Feb-2020 4022.51 3158.75 64.50 1.00  92.82 3030.18
   02:51:56.795.03-Feb-2020 4022.51 3158.76 64.50 1.00  93.02 3030.18
   02:51:56.995.03-Feb-2020 4022.51 3158.76 64.50 1.00  93.22 3030.18
   02:51:57.195.03-Feb-2020 4022.51 3158.37 64.50 1.00  93.42 3030.18
   02:51:57.395.03-Feb-2020 4022.51 3159.02 64.50 1.00  93.62 3030.18
   02:51:57.595.03-Feb-2020 4022.51 3158.62 64.50 1.00  93.82 3030.18
   02:51:57.795.03-Feb-2020 4022.51 3158.69 64.50 1.00  94.02 3030.18
   02:51:57.995.03-Feb-2020 4022.51 3158.69 64.50 1.00  94.22 3030.18
   02:51:58.195.03-Feb-2020 4022.51 3158.71 64.50 1.00  94.42 3030.18
   02:51:58.395.03-Feb-2020 4022.51 3158.61 64.50 1.00  94.62 3030.18
   02:51:58.595.03-Feb-2020 4022.51 3158.64 64.50 1.00  94.82 3030.18
   02:51:58.795.03-Feb-2020 4022.51 3158.92 64.50 1.00  95.02 3030.18
   02:51:58.995.03-Feb-2020 4022.51 3158.92 64.50 1.00  95.22 3030.18
   02:51:59.195.03-Feb-2020 4022.51 3158.82 64.50 1.00  95.42 3030.18
   02:51:59.395.03-Feb-2020 4022.51 3158.80 64.50 1.00  95.62 3030.18
   02:51:59.595.03-Feb-2020 4022.51 3158.73 64.50 1.00  95.82 3030.18
   02:51:59.795.03-Feb-2020 4022.51 3158.70 64.50 1.00  96.02 3030.18
   02:51:59.995.03-Feb-2020 4022.51 3158.70 64.50 1.00  96.22 3030.18
   02:52:00.195.03-Feb-2020 4022.51 3158.85 64.50 1.00  96.42 3030.18
   02:52:00.395.03-Feb-2020 4022.51 3158.20 64.50 1.00  96.62 3030.18
   02:52:00.595.03-Feb-2020 4022.51 3159.34 64.50 1.00  96.82 3030.18
   02:52:00.795.03-Feb-2020 4022.51 3158.32 64.50 1.00  97.02 3030.18
   02:52:00.995.03-Feb-2020 4022.51 3158.32 64.50 1.00  97.22 3030.18
   02:52:01.195.03-Feb-2020 4022.51 3158.75 64.50 1.00  97.42 3030.18
   02:52:01.396.03-Feb-2020 4022.51 3158.78 64.50 1.00  97.62 3030.18
   02:52:01.596.03-Feb-2020 4022.51 3158.86 64.50 1.00  97.82 3030.18
   02:52:01.796.03-Feb-2020 4022.51 3158.81 64.50 1.00  98.02 3030.18
   02:52:01.996.03-Feb-2020 4022.51 3158.81 64.50 1.00  98.22 3030.18
   02:52:02.196.03-Feb-2020 4022.51 3158.88 64.50 1.00  98.42 3030.18
   02:52:02.396.03-Feb-2020 4022.51 3158.80 64.50 1.00  98.62 3030.18
   02:52:02.596.03-Feb-2020 4022.51 3158.77 64.50 1.00  98.82 3030.18
   02:52:02.796.03-Feb-2020 4022.51 3158.99 64.50 1.00  99.02 3030.18
   02:52:02.996.03-Feb-2020 4022.51 3158.99 64.50 1.00  99.22 3030.18
   02:52:03.196.03-Feb-2020 4022.51 3158.88 64.50 1.00  99.42 3030.18
   02:52:03.396.03-Feb-2020 4022.51 3158.92 64.50 1.00  99.62 3030.18
   02:52:03.596.03-Feb-2020 4022.51 3158.92 64.50 1.00  99.82 3030.18
   02:52:03.796.03-Feb-2020 4022.51 3157.98 64.49 1.00 100.02 3030.18
   02:52:03.996.03-Feb-2020 4022.51 3157.98 64.49 1.00 100.22 3030.18
   02:52:04.196.03-Feb-2020 4022.51 3158.53 64.49 1.00 100.42 3030.18
   02:52:04.396.03-Feb-2020 4022.51 3159.00 64.49 1.00 100.62 3030.18
   02:52:04.596.03-Feb-2020 4022.51 3158.85 64.49 1.00 100.82 3030.18
   02:52:04.796.03-Feb-2020 4022.51 3158.81 64.49 1.00 101.02 3030.18
   02:52:04.996.03-Feb-2020 4022.51 3158.81 64.49 1.00 101.22 3030.18
   02:52:05.196.03-Feb-2020 4022.51 3158.66 64.49 1.00 101.42 3030.18
   02:52:05.396.03-Feb-2020 4022.51 3158.87 64.49 1.00 101.62 3030.18
   02:52:05.596.03-Feb-2020 4022.51 3158.55 64.49 1.00 101.82 3030.18
   02:52:05.796.03-Feb-2020 4022.51 3158.99 64.49 1.00 102.02 3030.18
   02:52:05.996.03-Feb-2020 4022.51 3158.99 64.49 1.00 102.22 3030.18
   02:52:06.197.03-Feb-2020 4022.51 3158.83 64.49 1.00 102.42 3030.18
   02:52:06.397.03-Feb-2020 4022.51 3158.76 64.49 1.00 102.62 3030.18
   02:52:06.597.03-Feb-2020 4022.51 3158.02 64.49 1.00 102.82 3030.18
   02:52:06.797.03-Feb-2020 4022.51 3159.59 64.49 1.00 103.02 3030.18
   02:52:06.997.03-Feb-2020 4022.51 3159.59 64.49 1.00 103.22 3030.18
   02:52:07.197.03-Feb-2020 4022.51 3158.81 64.49 1.00 103.42 3030.18
   02:52:07.397.03-Feb-2020 4022.51 3158.81 64.49 1.00 103.62 3030.18
   02:52:07.597.03-Feb-2020 4022.51 3158.77 64.49 1.00 103.82 3030.18
   02:52:07.797.03-Feb-2020 4022.51 3158.67 64.49 1.00 104.02 3030.18
   02:52:07.997.03-Feb-2020 4022.51 3158.67 64.49 1.00 104.22 3030.18
   02:52:08.197.03-Feb-2020 4022.51 3158.82 64.49 1.00 104.42 3030.18
   02:52:08.397.03-Feb-2020 4022.51 3158.84 64.49 1.00 104.62 3030.18
   02:52:08.597.03-Feb-2020 4022.51 3158.80 64.49 1.00 104.82 3030.18
   02:52:08.797.03-Feb-2020 4022.51 3158.76 64.49 1.00 105.02 3030.18
   02:52:08.997.03-Feb-2020 4022.51 3158.76 64.49 1.00 105.22 3030.18
   02:52:09.197.03-Feb-2020 4022.51 3158.79 64.49 1.00 105.42 3030.18
   02:52:09.397.03-Feb-2020 4022.51 3158.66 64.49 1.00 105.62 3030.18
   02:52:09.597.03-Feb-2020 4022.51 3158.88 64.49 1.00 105.82 3030.18
   02:52:09.797.03-Feb-2020 4022.51 3158.83 64.49 1.00 106.02 3030.18
   02:52:09.997.03-Feb-2020 4022.51 3158.83 64.49 1.00 106.22 3030.18
   02:52:10.197.03-Feb-2020 4022.51 3159.04 64.49 1.00 106.42 3030.18
   02:52:10.397.03-Feb-2020 4022.51 3158.59 64.49 1.00 106.62 3030.18
   02:52:10.597.03-Feb-2020 4022.51 3158.72 64.49 1.00 106.82 3030.18
   02:52:10.797.03-Feb-2020 4022.51 3158.84 64.49 1.00 107.02 3030.18
   02:52:10.998.03-Feb-2020 4022.51 3158.84 64.49 1.00 107.22 3030.18
   02:52:11.198.03-Feb-2020 4022.51 3158.79 64.49 1.00 107.42 3030.18
   02:52:11.398.03-Feb-2020 4022.51 3158.85 64.49 1.00 107.62 3030.18
   02:52:11.598.03-Feb-2020 4022.51 3158.76 64.49 1.00 107.82 3030.18
   02:52:11.798.03-Feb-2020 4022.51 3158.79 64.49 1.00 108.02 3030.18
   02:52:11.998.03-Feb-2020 4022.51 3158.79 64.49 1.00 108.22 3030.18
   02:52:12.198.03-Feb-2020 4022.51 3158.88 64.48 1.00 108.42 3030.18
   02:52:12.398.03-Feb-2020 4022.51 3158.20 64.48 1.00 108.62 3030.18
   02:52:12.598.03-Feb-2020 4022.51 3159.50 64.48 1.00 108.82 3030.18
   02:52:12.798.03-Feb-2020 4022.51 3158.31 64.48 1.00 109.02 3030.18
   02:52:12.998.03-Feb-2020 4022.51 3158.31 64.48 1.00 109.22 3030.18
   02:52:13.198.03-Feb-2020 4022.51 3158.60 64.48 1.00 109.42 3030.18
   02:52:13.398.03-Feb-2020 4022.51 3158.84 64.48 1.00 109.62 3030.18
   02:52:13.598.03-Feb-2020 4022.51 3158.59 64.48 1.00 109.82 3030.18
   02:52:13.798.03-Feb-2020 4022.51 3159.03 64.48 1.00 110.02 3030.18
   02:52:13.998.03-Feb-2020 4022.51 3159.03 64.48 1.00 110.22 3030.18
   02:52:14.198.03-Feb-2020 4022.51 3158.90 64.48 1.00 110.42 3030.18
   02:52:14.398.03-Feb-2020 4022.51 3158.81 64.48 1.00 110.62 3030.18
   02:52:14.598.03-Feb-2020 4022.51 3158.83 64.48 1.00 110.82 3030.18
   02:52:14.798.03-Feb-2020 4022.51 3157.97 64.48 1.00 111.02 3030.18
   02:52:14.998.03-Feb-2020 4022.51 3157.97 64.48 1.00 111.22 3030.18
   02:52:15.198.03-Feb-2020 4022.51 3158.40 64.48 1.00 111.42 3030.18
   02:52:15.398.03-Feb-2020 4022.51 3159.22 64.48 1.00 111.62 3030.18
   02:52:15.598.03-Feb-2020 4022.51 3158.88 64.48 1.00 111.82 3030.18
   02:52:15.799.03-Feb-2020 4022.51 3158.75 64.48 1.00 112.02 3030.18
   02:52:15.999.03-Feb-2020 4022.51 3158.75 64.48 1.00 112.22 3030.18
   02:52:16.199.03-Feb-2020 4022.51 3158.47 64.48 1.00 112.42 3030.18
   02:52:16.399.03-Feb-2020 4022.51 3159.01 64.48 1.00 112.62 3030.18
   02:52:16.599.03-Feb-2020 4022.51 3158.66 64.48 1.00 112.82 3030.18
   02:52:16.799.03-Feb-2020 4022.51 3158.79 64.48 1.00 113.02 3030.18
   02:52:16.999.03-Feb-2020 4022.51 3158.79 64.48 1.00 113.22 3030.18
   02:52:17.199.03-Feb-2020 4022.51 3158.72 64.48 1.00 113.42 3030.18
   02:52:17.399.03-Feb-2020 4022.51 3158.72 64.48 1.00 113.62 3030.18
   02:52:17.599.03-Feb-2020 4022.51 3158.68 64.48 1.00 113.82 3030.18
   02:52:17.799.03-Feb-2020 4022.51 3158.96 64.48 1.00 114.02 3030.18
   02:52:17.999.03-Feb-2020 4022.51 3158.96 64.48 1.00 114.22 3030.18
   02:52:18.199.03-Feb-2020 4022.51 3158.75 64.48 1.00 114.42 3030.18
   02:52:18.399.03-Feb-2020 4022.51 3158.83 64.48 1.00 114.62 3030.18
   02:52:18.599.03-Feb-2020 4022.51 3158.76 64.48 1.00 114.82 3030.18
