~Version Information
 VERS.                  2.0:   CWLS log ASCII Standard -VERSION 2.0
 WRAP.                   NO:   One line per depth step
~Well Information Block
#MNEM.UNIT     VALUE/NAME     DESCRIPTION
#---------     -----------    ---------------------------
 STRT.S             02:50:23 03-Feb-20: START TIME 02:50:23 03-Feb-20
 STOP.S             02:58:14 03-Feb-20: STOP TIME  02:58:14 03-Feb-20
 STEP.S                   0.00: STEP TIME
 NULL.                 -999.25: NULL VALUE
 DFWT.                        :  DIST FWL TEXT
 DFST.                        :  DIST FSL TEXT
 DMF .             Drill Floor:  DRILL MEAS FROM
 STIM.      09.30.00 26-Dec-19:  START TIME
 DATE.      08.00.00 20-Jan-20:  END TIME
 SPUD.               23-Nov-19:  SPUD DATE
 NREF.                    Grid:  NORTH REFERENCE
 HPTY.       Minimum Curvature:  HOLE POS TYPE
 DMOD.             Drill Model:  DRILL MOD DESC
 SVYD.                  Survey:  SURVEY DESC
 ILTD.               Lithology:  INTERP LTH DESC
 FTOP.          Formation Tops:  FORM TOPS DESC
 SON .        AZ-XX-0906192647:  JOB NUMBER
 WTYP.                Deviated:  WELL TYPE
 COMP.     BP Exploration (Caspian Sea) Ltd:  COMPANY
 BASE.              Azerbaijan:  LOGGING EQUIPMENT BASE LOCATION
 REGN.                 Eurasia:  REGION
 FLD .                     ACG:  FIELD NAME
 SRVC.              KCA Deutag:  CONTRACTOR
 MWDS.                    Baku:  MWD SHOP
 WELL.     A10 (Slot 20) - SCP:  WELL NAME
 JOBN.        AZ-XX-0906192647:  JOB TICKET NUMB
 RIG .                 Chirag1:  RIG NAME
 DCON.     Halliburton Sperry Drilling:  DIRECTNL CONTR
 UNIT.                     N/A:  LOGGING EQUIPMENT ID
 PDAT.          Mean Sea Level:  PERMANENT DATUM
 MDS .        Operator Entered:  MAG DATA SOURCE
 CTRY.              Azerbaijan:  COUNTRY NAME
 UWI .            /AZE00000090:  UNIQUE WELL IDENTIFIER
 API .            /AZE00000090:  API NUMBER
 CNTY.                        :  COUNTY
 PROV.                        :  PROVINCE
 STAT.                        :  STATE
 LOC .                        :  LOCATION
 LMF .             Drill Floor:  LOG MEASURED FROM
 TVDS.m                  36.60:  TVDSS CORRECTN
 LATI.deg                40.08:  LATITUDE
 LONG.deg                51.24:  LONGITUDE
 WHNS.m                  -7.94:  WELL HEAD N/S
 WHEW.m                   1.56:  WELL HEAD E/W
 UTMX.m              520429.26:  UTM X
 UTMY.m             4438973.87:  UTM Y
 DFWL.m                   0.00:  DISTANCE FWL
 DFSL.m                   0.00:  DISTANCE FSL
 SDEP.m                1455.00:  START DEPTH
 TDD .m                4047.51:  TOTAL DEPTH (DRILLER)
 VSDR.deg               112.75:  VERT SEC DIRECT
 GVFD.g                   1.00:  GRAVITY FIELD
 MFLD.nT              50261.00:  MAGNETIC FIELD
 MDIP.deg                59.52:  MAGNETIC DIP
 MDEC.deg                 6.42:  MAGNETIC DECL
 GRDC.deg                 0.17:  GRID CORRECTION
 AZTC.deg                 6.25:  AZM TOTAL CORR
 EPD .m                   0.00:  ELEVATION
 EGL .m                   0.00:  GROUND ELEVATION
 WDMS.m                 121.00:  WD ELEV
 APD .m                  36.60:  DEPTH ABOVE PD
 AGAP.m                  36.60:  AIR GAP
 VSEW.m                   1.56:  VERT SEC E/W
 VSNS.m                  -7.94:  VERT SEC N/S
 DEP .m                1140.01:  DEPTH
 EKB .m                  36.60:  KB ELEVATION
 EDF .m                  36.60:  DF ELEVATION
 VSC .                       0:  VS TO CLOSURE
 MAGU.                 1849206:  MAGUTM CHECKSUM
~Parameter Information Block
#MNEM.UNIT       Value        Description
#---------     -----------    ---------------------------
 AV  .mps                 1.70:  Ann Velocity 
 AVMX.mps                 2.30:  Max Ann Veloc 
 AZIF.deg               137.03:  Azm, Final 
 BHAT.                   Other:  BHA Type 
 BROT.°/30m               0.80:  Build Rotating 
 BS  .in                  8.00:  Bit Size 
 BTPL.psig              161.00:  Bit Press Loss 
 CABU.                      No:  Customer Abuse 
 COMM.                     ´Î`:  Run Comments 1 
 TCS .hr                  9.59:  Time Ciculation Ended 
 CV  .mps                 3.76:  Crit Velocity 
 CVMX.mps                 4.26:  Max Crit Veloc 
 DD1 .         Intigam Rahimov:  Direct Drillr 1 
 DD2 .          Rashad Gojayev:  Direct Drillr 2 
 DDSV.                   Other:  DD Service 
 DEFF.%                 100.00:  % Det Eff 
 DLRX.°/30m               1.44:  Dogleg Rot Max 
 DLSO.°/30m               0.00:  Dogleg Oriented 
 DLSX.°/30m               0.00:  Dogleg Str Max 
 DRET.      03.31.12 02-Feb-20:  Drill End Time 
 DRST.      03.31.12 02-Feb-20:  Drill Start Tim 
 DTIM.hr                  1.99:  Time Drilling 
 EDEP.m                4047.51:  End Depth 
 ENG1.           Eldar Hajiyev:  Engineer 1 
 ENG2.          Rasim Hashimov:  Engineer 2 
 ENG3.          Rustam Safarov:  Engineer 3 
 ETIM.      03.31.12 02-Feb-20:  End Time 
 FLOI.gpm               300.00:  Flow In 
 FLON.gpm               250.00:  Flow In Min 
 FLOS.cptm                0.00:  Fluid Loss 
 FLOX.gpm               330.00:  Flow In Max 
 HFLO.                      No:  High Flow 
 HPRE.                      No:  High Pressure 
 HTEM.                      No:  High Temp 
 HYDO.m                   2.50:  Hydro Offset 
 IFIN.deg                39.54:  Inc, Final 
 IMAX.deg                41.14:  Inc Max 
 IMIN.deg                39.81:  Inc Min 
 IMND.m                4005.21:  Inc Min Depth 
 IMXD.m                3948.42:  Inc Max Depth 
 JARR.                      No:  Jarring 
 LETM.      03.31.12 02-Feb-20:  Log End Time 
 LOST.hr                     0:  Lost Rig Time 
 LSTM.      03.31.12 02-Feb-20:  Log Start Time 
 MDCL.ppm             35000.00:  Mud Chlorides 
 MDES.     Inversion Oil/Synthetic:  Mud Desc 
 DFD .sg                  1.32:  Mud Density 
 MDMN.sg                  1.32:  Dens Mud Min 
 MDMX.sg                  1.32:  Dens Mud Max 
 MOIL.                      59:  Run Mud Oil % 
 MOWR.                   71:29:  Run Mud OWR 
 MSND.                       0:  Run Mud Sand % 
 MSOL.                      17:  Run Mud Solids% 
 DFV .spqt               86.00:  Mud Viscosity 
 MWOD.in                  4.75:  MWD Tool OD 
 MWSI.                      No:  Serv Intrp, MWD 
 OTIM.hr                 46.72:  Time Operating 
 PCON.           Look Like New:  Pad Condition 
 PMAX.psia             3300.00:  Press Op, Max 
 PV  .cP                 30.00:  Mud PV 
 RUN .                     400:  Run Number 
 ROPA.m/hr               35.00:  ROP Avg 
 ROPN.m/hr               25.00:  ROP Min 
 ROPX.m/hr               40.00:  ROP Max 
 RPMA.rpm                80.00:  RPM Surface Avg 
 RPMN.rpm                60.00:  RPM Surface Min 
 RPMX.rpm               100.00:  RPM Surface Max 
 RRUN.                     400:  Rig Run Number 
 RTIM.hr                  1.99:  Time Reaming 
 SAZI.deg               133.93:  Azm, Start 
 SDEP.m                4047.51:  Start Depth 
 SIDD.                      No:  Serv Intrp, DD 
 SINC.deg                40.28:  Inc, Start 
 SPPA.psig             3250.00:  SPP Avg 
 SPPN.psig             3200.00:  SPP Min 
 SPPX.psig             3300.00:  SPP Max 
 STIM.      03.31.12 02-Feb-20:  Start Time 
 SVCS.                 DD, MWD:  Services 
 SVER.                    9.20:  Sperry Version 
 TDAT.m                  47.00:  Tot Depth Attmp 
 TDDF.                      No:  Trip for DD 
 TFF .                      No:  Trip for Fail 
 TQAA.f-kp                0.00:  Torque Abs Avg 
 TQAN.f-kp                0.00:  Torque Abs Min 
 TQAX.f-kp                0.00:  Torque Abs Max 
 TRRT.°/30m               0.70:  Turn Rotating 
 MRT .                    HCIM:  Maximum Recorded Temperature 
 TTMX.degC               70.59:  Max Tool Temp 
 VS01.             90598770F11:  Virtual Str1 SN 
 VS02.             90598769F11:  Virtual Str2 SN 
 VS03.            90515978Z1W1:  Virtual Str3 SN 
 VS04.          90584144R12X14:  Virtual Str4 SN 
 WBMN.klb                 0.00:  WOB Min 
 WITN.            Peter Wilson:  Customer Rep 
 WOBA.klb                 0.00:  WOB Avg 
 WOBX.klb                 0.00:  WOB Max 
 YP  .lhf2               29.00:  Yield Point 
~Curve Information Block
#MNEM.UNIT                 API CODE     Curve Description
#---------               -----------    ---------------------------
 TIME.HHMMSS            00 000 000 000:  GT Time & Date
 GTDEPTH.m              00 000 000 000:  GT Depth
 GTPQH.psia             00 000 000 000:  GT HR Quartz Pressure
 GTTQ.degC              00 000 000 000:  GT Quartz Temperature
 GTTN.NONE              00 000 000 000:  GT Test Number
 GTET.sec               00 000 000 000:  GT Elapsed Test Time
 GTTVD.m                00 000 000 000:  GT True Vertical Depth
#Other Information
#
#WARRANTY: Halliburton will use its best efforts to furnish customers with 
#accurate information and interpretations that are part of, and incident to, the services 
#provided.  However, Halliburton cannot and does not warrant the accuracy 
#or correctness of such information and interpretations.  Under no circumstances should any 
#such information or interpretation be relied upon as the sole basis for any drilling, 
#completion, production, or financial decision or any procedure involving any risk to the 
#safety of any drilling venture, drilling rig or its crew or any other third party.  The 
#Customer has full responsibility for all drilling, completion and production operation.  
#Halliburton makes no representations or warranties, either expressed or 
#implied, including, but not limited to, the implied warranties of merchantability or fitness 
#for a particular purpose, with respect to the services rendered.  In no event will 
#Halliburton be liable for failure to obtain any particular results or for 
#any damages, including, but not limited to, indirect, special or consequential damages, 
#resulting from the use of any information or interpretation provided by Halliburton.
#
~A           TIME           GTDEPTH  GTPQH  GTTQ  GTTN  GTET   GTTVD  
# ...
   02:54:36.828.03-Feb-2020 4022.51 3157.32 64.34 1.00 253.05 3030.18
   02:54:37.028.03-Feb-2020 4022.51 3157.32 64.34 1.00 253.25 3030.18
   02:54:37.228.03-Feb-2020 4022.51 3157.86 64.34 1.00 253.45 3030.18
   02:54:37.428.03-Feb-2020 4022.51 3158.15 64.34 1.00 253.65 3030.18
   02:54:37.628.03-Feb-2020 4022.51 3157.98 64.34 1.00 253.85 3030.18
   02:54:37.828.03-Feb-2020 4022.51 3157.93 64.34 1.00 254.05 3030.18
   02:54:38.028.03-Feb-2020 4022.51 3157.93 64.34 1.00 254.25 3030.18
   02:54:38.228.03-Feb-2020 4022.51 3157.94 64.34 1.00 254.45 3030.18
   02:54:38.428.03-Feb-2020 4022.51 3157.59 64.34 1.00 254.65 3030.18
   02:54:38.628.03-Feb-2020 4022.51 3158.05 64.34 1.00 254.85 3030.18
   02:54:38.828.03-Feb-2020 4022.51 3157.98 64.34 1.00 255.05 3030.18
   02:54:39.029.03-Feb-2020 4022.51 3157.98 64.34 1.00 255.25 3030.18
   02:54:39.229.03-Feb-2020 4022.51 3158.03 64.34 1.00 255.45 3030.18
   02:54:39.429.03-Feb-2020 4022.51 3157.99 64.34 1.00 255.65 3030.18
   02:54:39.629.03-Feb-2020 4022.51 3157.89 64.34 1.00 255.85 3030.18
   02:54:39.829.03-Feb-2020 4022.51 3157.50 64.34 1.00 256.05 3030.18
   02:54:40.029.03-Feb-2020 4022.51 3157.50 64.34 1.00 256.25 3030.18
   02:54:40.229.03-Feb-2020 4022.51 3157.77 64.34 1.00 256.45 3030.18
   02:54:40.429.03-Feb-2020 4022.51 3158.09 64.34 1.00 256.65 3030.18
   02:54:40.629.03-Feb-2020 4022.51 3157.99 64.34 1.00 256.85 3030.18
   02:54:40.829.03-Feb-2020 4022.51 3157.96 64.34 1.00 257.05 3030.18
   02:54:41.029.03-Feb-2020 4022.51 3157.96 64.34 1.00 257.25 3030.18
   02:54:41.229.03-Feb-2020 4022.51 3157.97 64.34 1.00 257.45 3030.18
   02:54:41.429.03-Feb-2020 4022.51 3158.06 64.33 1.00 257.65 3030.18
   02:54:41.629.03-Feb-2020 4022.51 3158.01 64.33 1.00 257.85 3030.18
   02:54:41.829.03-Feb-2020 4022.51 3157.96 64.33 1.00 258.05 3030.18
   02:54:42.029.03-Feb-2020 4022.51 3157.96 64.33 1.00 258.25 3030.18
   02:54:42.229.03-Feb-2020 4022.51 3158.02 64.33 1.00 258.45 3030.18
   02:54:42.429.03-Feb-2020 4022.51 3157.92 64.33 1.00 258.65 3030.18
   02:54:42.629.03-Feb-2020 4022.51 3157.94 64.33 1.00 258.85 3030.18
   02:54:42.829.03-Feb-2020 4022.51 3158.04 64.33 1.00 259.05 3030.18
   02:54:43.029.03-Feb-2020 4022.51 3158.04 64.33 1.00 259.25 3030.18
   02:54:43.229.03-Feb-2020 4022.51 3157.98 64.33 1.00 259.45 3030.18
   02:54:43.429.03-Feb-2020 4022.51 3157.85 64.33 1.00 259.65 3030.18
   02:54:43.629.03-Feb-2020 4022.51 3158.07 64.33 1.00 259.85 3030.18
   02:54:43.830.03-Feb-2020 4022.51 3158.02 64.33 1.00 260.05 3030.18
   02:54:44.030.03-Feb-2020 4022.51 3158.02 64.33 1.00 260.25 3030.18
   02:54:44.230.03-Feb-2020 4022.51 3157.96 64.33 1.00 260.45 3030.18
   02:54:44.430.03-Feb-2020 4022.51 3158.07 64.33 1.00 260.65 3030.18
   02:54:44.630.03-Feb-2020 4022.51 3158.02 64.33 1.00 260.85 3030.18
   02:54:44.830.03-Feb-2020 4022.51 3158.01 64.33 1.00 261.05 3030.18
   02:54:45.030.03-Feb-2020 4022.51 3158.01 64.33 1.00 261.25 3030.18
   02:54:45.230.03-Feb-2020 4022.51 3158.05 64.33 1.00 261.45 3030.18
   02:54:45.430.03-Feb-2020 4022.51 3158.01 64.33 1.00 261.65 3030.18
   02:54:45.630.03-Feb-2020 4022.51 3157.46 64.33 1.00 261.85 3030.18
   02:54:45.830.03-Feb-2020 4022.51 3158.36 64.33 1.00 262.05 3030.18
   02:54:46.030.03-Feb-2020 4022.51 3158.36 64.33 1.00 262.25 3030.18
   02:54:46.230.03-Feb-2020 4022.51 3158.24 64.33 1.00 262.45 3030.18
   02:54:46.430.03-Feb-2020 4022.51 3157.41 64.33 1.00 262.66 3030.18
   02:54:46.630.03-Feb-2020 4022.51 3158.44 64.33 1.00 262.86 3030.18
   02:54:46.830.03-Feb-2020 4022.51 3158.03 64.33 1.00 263.06 3030.18
   02:54:47.030.03-Feb-2020 4022.51 3158.03 64.33 1.00 263.26 3030.18
   02:54:47.230.03-Feb-2020 4022.51 3158.04 64.33 1.00 263.46 3030.18
   02:54:47.430.03-Feb-2020 4022.51 3158.08 64.33 1.00 263.66 3030.18
   02:54:47.630.03-Feb-2020 4022.51 3158.07 64.33 1.00 263.86 3030.18
   02:54:47.830.03-Feb-2020 4022.51 3158.04 64.33 1.00 264.06 3030.18
   02:54:48.030.03-Feb-2020 4022.51 3158.04 64.33 1.00 264.26 3030.18
   02:54:48.230.03-Feb-2020 4022.51 3158.15 64.33 1.00 264.46 3030.18
   02:54:48.431.03-Feb-2020 4022.51 3158.09 64.33 1.00 264.66 3030.18
   02:54:48.631.03-Feb-2020 4022.51 3158.26 64.33 1.00 264.86 3030.18
   02:54:48.831.03-Feb-2020 4022.51 3158.11 64.33 1.00 265.06 3030.18
   02:54:49.031.03-Feb-2020 4022.51 3158.11 64.33 1.00 265.26 3030.18
   02:54:49.231.03-Feb-2020 4022.51 3158.06 64.33 1.00 265.46 3030.18
   02:54:49.431.03-Feb-2020 4022.51 3157.53 64.33 1.00 265.66 3030.18
   02:54:49.631.03-Feb-2020 4022.51 3158.52 64.33 1.00 265.86 3030.18
   02:54:49.831.03-Feb-2020 4022.51 3157.93 64.33 1.00 266.06 3030.18
   02:54:50.031.03-Feb-2020 4022.51 3157.93 64.33 1.00 266.26 3030.18
   02:54:50.231.03-Feb-2020 4022.51 3158.12 64.33 1.00 266.46 3030.18
   02:54:50.431.03-Feb-2020 4022.51 3158.13 64.33 1.00 266.66 3030.18
   02:54:50.631.03-Feb-2020 4022.51 3158.01 64.33 1.00 266.86 3030.18
   02:54:50.831.03-Feb-2020 4022.51 3158.14 64.33 1.00 267.06 3030.18
   02:54:51.031.03-Feb-2020 4022.51 3158.14 64.33 1.00 267.26 3030.18
   02:54:51.231.03-Feb-2020 4022.51 3158.09 64.33 1.00 267.46 3030.18
   02:54:51.431.03-Feb-2020 4022.51 3158.15 64.33 1.00 267.66 3030.18
   02:54:51.631.03-Feb-2020 4022.51 3158.14 64.33 1.00 267.86 3030.18
   02:54:51.831.03-Feb-2020 4022.51 3158.06 64.33 1.00 268.06 3030.18
   02:54:52.031.03-Feb-2020 4022.51 3158.06 64.33 1.00 268.26 3030.18
   02:54:52.231.03-Feb-2020 4022.51 3158.05 64.33 1.00 268.46 3030.18
   02:54:52.431.03-Feb-2020 4022.51 3158.12 64.32 1.00 268.66 3030.18
   02:54:52.631.03-Feb-2020 4022.51 3157.98 64.32 1.00 268.86 3030.18
   02:54:52.831.03-Feb-2020 4022.51 3158.08 64.32 1.00 269.06 3030.18
   02:54:53.031.03-Feb-2020 4022.51 3158.08 64.32 1.00 269.26 3030.18
   02:54:53.232.03-Feb-2020 4022.51 3158.22 64.32 1.00 269.46 3030.18
   02:54:53.432.03-Feb-2020 4022.51 3158.13 64.32 1.00 269.66 3030.18
   02:54:53.632.03-Feb-2020 4022.51 3158.17 64.32 1.00 269.86 3030.18
   02:54:53.832.03-Feb-2020 4022.51 3158.09 64.32 1.00 270.06 3030.18
   02:54:54.032.03-Feb-2020 4022.51 3158.09 64.32 1.00 270.26 3030.18
   02:54:54.232.03-Feb-2020 4022.51 3158.12 64.32 1.00 270.46 3030.18
   02:54:54.432.03-Feb-2020 4022.51 3158.17 64.32 1.00 270.66 3030.18
   02:54:54.632.03-Feb-2020 4022.51 3158.11 64.32 1.00 270.86 3030.18
   02:54:54.832.03-Feb-2020 4022.51 3158.14 64.32 1.00 271.06 3030.18
   02:54:55.032.03-Feb-2020 4022.51 3158.14 64.32 1.00 271.26 3030.18
   02:54:55.232.03-Feb-2020 4022.51 3157.52 64.32 1.00 271.46 3030.18
   02:54:55.432.03-Feb-2020 4022.51 3158.45 64.32 1.00 271.66 3030.18
   02:54:55.632.03-Feb-2020 4022.51 3158.06 64.32 1.00 271.86 3030.18
   02:54:55.832.03-Feb-2020 4022.51 3158.29 64.32 1.00 272.06 3030.18
   02:54:56.032.03-Feb-2020 4022.51 3158.29 64.32 1.00 272.26 3030.18
   02:54:56.232.03-Feb-2020 4022.51 3158.58 64.32 1.00 272.46 3030.18
   02:54:56.432.03-Feb-2020 4022.51 3158.00 64.32 1.00 272.66 3030.18
   02:54:56.632.03-Feb-2020 4022.51 3158.37 64.32 1.00 272.86 3030.18
   02:54:56.832.03-Feb-2020 4022.51 3158.13 64.32 1.00 273.06 3030.18
   02:54:57.032.03-Feb-2020 4022.51 3158.13 64.32 1.00 273.26 3030.18
   02:54:57.232.03-Feb-2020 4022.51 3158.16 64.32 1.00 273.46 3030.18
   02:54:57.432.03-Feb-2020 4022.51 3158.18 64.32 1.00 273.66 3030.18
   02:54:57.632.03-Feb-2020 4022.51 3157.79 64.32 1.00 273.86 3030.18
   02:54:57.832.03-Feb-2020 4022.51 3158.28 64.32 1.00 274.06 3030.18
   02:54:58.033.03-Feb-2020 4022.51 3158.28 64.32 1.00 274.26 3030.18
   02:54:58.233.03-Feb-2020 4022.51 3158.34 64.32 1.00 274.46 3030.18
   02:54:58.433.03-Feb-2020 4022.51 3158.25 64.32 1.00 274.66 3030.18
   02:54:58.633.03-Feb-2020 4022.51 3158.18 64.32 1.00 274.86 3030.18
   02:54:58.833.03-Feb-2020 4022.51 3157.92 64.32 1.00 275.06 3030.18
   02:54:59.033.03-Feb-2020 4022.51 3157.92 64.32 1.00 275.26 3030.18
   02:54:59.233.03-Feb-2020 4022.51 3158.04 64.32 1.00 275.46 3030.18
   02:54:59.433.03-Feb-2020 4022.51 3158.26 64.32 1.00 275.66 3030.18
   02:54:59.633.03-Feb-2020 4022.51 3158.20 64.32 1.00 275.86 3030.18
