~Version Information
 VERS.                  2.0:   CWLS log ASCII Standard -VERSION 2.0
 WRAP.                   NO:   One line per depth step
~Well Information Block
#MNEM.UNIT     VALUE/NAME     DESCRIPTION
#---------     -----------    ---------------------------
 STRT.S             06:17:54 03-Feb-20: START TIME 06:17:54 03-Feb-20
 STOP.S             06:25:43 03-Feb-20: STOP TIME  06:25:43 03-Feb-20
 STEP.S                   0.00: STEP TIME
 NULL.                 -999.25: NULL VALUE
 DFWT.                        :  DIST FWL TEXT
 DFST.                        :  DIST FSL TEXT
 DMF .             Drill Floor:  DRILL MEAS FROM
 STIM.      09.30.00 26-Dec-19:  START TIME
 DATE.      08.00.00 20-Jan-20:  END TIME
 SPUD.               23-Nov-19:  SPUD DATE
 NREF.                    Grid:  NORTH REFERENCE
 HPTY.       Minimum Curvature:  HOLE POS TYPE
 DMOD.             Drill Model:  DRILL MOD DESC
 SVYD.                  Survey:  SURVEY DESC
 ILTD.               Lithology:  INTERP LTH DESC
 FTOP.          Formation Tops:  FORM TOPS DESC
 SON .        AZ-XX-0906192647:  JOB NUMBER
 WTYP.                Deviated:  WELL TYPE
 COMP.     BP Exploration (Caspian Sea) Ltd:  COMPANY
 BASE.              Azerbaijan:  LOGGING EQUIPMENT BASE LOCATION
 REGN.                 Eurasia:  REGION
 FLD .                     ACG:  FIELD NAME
 SRVC.              KCA Deutag:  CONTRACTOR
 MWDS.                    Baku:  MWD SHOP
 WELL.     A10 (Slot 20) - SCP:  WELL NAME
 JOBN.        AZ-XX-0906192647:  JOB TICKET NUMB
 RIG .                 Chirag1:  RIG NAME
 DCON.     Halliburton Sperry Drilling:  DIRECTNL CONTR
 UNIT.                     N/A:  LOGGING EQUIPMENT ID
 PDAT.          Mean Sea Level:  PERMANENT DATUM
 MDS .        Operator Entered:  MAG DATA SOURCE
 CTRY.              Azerbaijan:  COUNTRY NAME
 UWI .            /AZE00000090:  UNIQUE WELL IDENTIFIER
 API .            /AZE00000090:  API NUMBER
 CNTY.                        :  COUNTY
 PROV.                        :  PROVINCE
 STAT.                        :  STATE
 LOC .                        :  LOCATION
 LMF .             Drill Floor:  LOG MEASURED FROM
 TVDS.m                  36.60:  TVDSS CORRECTN
 LATI.deg                40.08:  LATITUDE
 LONG.deg                51.24:  LONGITUDE
 WHNS.m                  -7.94:  WELL HEAD N/S
 WHEW.m                   1.56:  WELL HEAD E/W
 UTMX.m              520429.26:  UTM X
 UTMY.m             4438973.87:  UTM Y
 DFWL.m                   0.00:  DISTANCE FWL
 DFSL.m                   0.00:  DISTANCE FSL
 SDEP.m                1455.00:  START DEPTH
 TDD .m                4047.51:  TOTAL DEPTH (DRILLER)
 VSDR.deg               112.75:  VERT SEC DIRECT
 GVFD.g                   1.00:  GRAVITY FIELD
 MFLD.nT              50261.00:  MAGNETIC FIELD
 MDIP.deg                59.52:  MAGNETIC DIP
 MDEC.deg                 6.42:  MAGNETIC DECL
 GRDC.deg                 0.17:  GRID CORRECTION
 AZTC.deg                 6.25:  AZM TOTAL CORR
 EPD .m                   0.00:  ELEVATION
 EGL .m                   0.00:  GROUND ELEVATION
 WDMS.m                 121.00:  WD ELEV
 APD .m                  36.60:  DEPTH ABOVE PD
 AGAP.m                  36.60:  AIR GAP
 VSEW.m                   1.56:  VERT SEC E/W
 VSNS.m                  -7.94:  VERT SEC N/S
 DEP .m                1140.01:  DEPTH
 EKB .m                  36.60:  KB ELEVATION
 EDF .m                  36.60:  DF ELEVATION
 VSC .                       0:  VS TO CLOSURE
 MAGU.                 1849206:  MAGUTM CHECKSUM
~Parameter Information Block
#MNEM.UNIT       Value        Description
#---------     -----------    ---------------------------
 AV  .mps                 1.70:  Ann Velocity 
 AVMX.mps                 2.30:  Max Ann Veloc 
 AZIF.deg               137.03:  Azm, Final 
 BHAT.                   Other:  BHA Type 
 BROT.°/30m               0.80:  Build Rotating 
 BS  .in                  8.00:  Bit Size 
 BTPL.psig              161.00:  Bit Press Loss 
 CABU.                      No:  Customer Abuse 
 COMM.                     4•z:  Run Comments 1 
 TCS .hr                  9.59:  Time Ciculation Ended 
 CV  .mps                 3.76:  Crit Velocity 
 CVMX.mps                 4.26:  Max Crit Veloc 
 DD1 .         Intigam Rahimov:  Direct Drillr 1 
 DD2 .          Rashad Gojayev:  Direct Drillr 2 
 DDSV.                   Other:  DD Service 
 DEFF.%                 100.00:  % Det Eff 
 DLRX.°/30m               1.44:  Dogleg Rot Max 
 DLSO.°/30m               0.00:  Dogleg Oriented 
 DLSX.°/30m               0.00:  Dogleg Str Max 
 DRET.      03.31.12 02-Feb-20:  Drill End Time 
 DRST.      03.31.12 02-Feb-20:  Drill Start Tim 
 DTIM.hr                  1.99:  Time Drilling 
 EDEP.m                4047.51:  End Depth 
 ENG1.           Eldar Hajiyev:  Engineer 1 
 ENG2.          Rasim Hashimov:  Engineer 2 
 ENG3.          Rustam Safarov:  Engineer 3 
 ETIM.      03.31.12 02-Feb-20:  End Time 
 FLOI.gpm               300.00:  Flow In 
 FLON.gpm               250.00:  Flow In Min 
 FLOS.cptm                0.00:  Fluid Loss 
 FLOX.gpm               330.00:  Flow In Max 
 HFLO.                      No:  High Flow 
 HPRE.                      No:  High Pressure 
 HTEM.                      No:  High Temp 
 HYDO.m                   2.50:  Hydro Offset 
 IFIN.deg                39.54:  Inc, Final 
 IMAX.deg                41.14:  Inc Max 
 IMIN.deg                39.81:  Inc Min 
 IMND.m                4005.21:  Inc Min Depth 
 IMXD.m                3948.42:  Inc Max Depth 
 JARR.                      No:  Jarring 
 LETM.      03.31.12 02-Feb-20:  Log End Time 
 LOST.hr                     0:  Lost Rig Time 
 LSTM.      03.31.12 02-Feb-20:  Log Start Time 
 MDCL.ppm             35000.00:  Mud Chlorides 
 MDES.     Inversion Oil/Synthetic:  Mud Desc 
 DFD .sg                  1.32:  Mud Density 
 MDMN.sg                  1.32:  Dens Mud Min 
 MDMX.sg                  1.32:  Dens Mud Max 
 MOIL.                      59:  Run Mud Oil % 
 MOWR.                   71:29:  Run Mud OWR 
 MSND.                       0:  Run Mud Sand % 
 MSOL.                      17:  Run Mud Solids% 
 DFV .spqt               86.00:  Mud Viscosity 
 MWOD.in                  4.75:  MWD Tool OD 
 MWSI.                      No:  Serv Intrp, MWD 
 OTIM.hr                 46.72:  Time Operating 
 PCON.           Look Like New:  Pad Condition 
 PMAX.psia             3300.00:  Press Op, Max 
 PV  .cP                 30.00:  Mud PV 
 RUN .                     400:  Run Number 
 ROPA.m/hr               35.00:  ROP Avg 
 ROPN.m/hr               25.00:  ROP Min 
 ROPX.m/hr               40.00:  ROP Max 
 RPMA.rpm                80.00:  RPM Surface Avg 
 RPMN.rpm                60.00:  RPM Surface Min 
 RPMX.rpm               100.00:  RPM Surface Max 
 RRUN.                     400:  Rig Run Number 
 RTIM.hr                  1.99:  Time Reaming 
 SAZI.deg               133.93:  Azm, Start 
 SDEP.m                4047.51:  Start Depth 
 SIDD.                      No:  Serv Intrp, DD 
 SINC.deg                40.28:  Inc, Start 
 SPPA.psig             3250.00:  SPP Avg 
 SPPN.psig             3200.00:  SPP Min 
 SPPX.psig             3300.00:  SPP Max 
 STIM.      03.31.12 02-Feb-20:  Start Time 
 SVCS.                 DD, MWD:  Services 
 SVER.                    9.20:  Sperry Version 
 TDAT.m                  47.00:  Tot Depth Attmp 
 TDDF.                      No:  Trip for DD 
 TFF .                      No:  Trip for Fail 
 TQAA.f-kp                0.00:  Torque Abs Avg 
 TQAN.f-kp                0.00:  Torque Abs Min 
 TQAX.f-kp                0.00:  Torque Abs Max 
 TRRT.°/30m               0.70:  Turn Rotating 
 MRT .                    HCIM:  Maximum Recorded Temperature 
 TTMX.degC               70.59:  Max Tool Temp 
 VS01.             90598770F11:  Virtual Str1 SN 
 VS02.             90598769F11:  Virtual Str2 SN 
 VS03.            90515978Z1W1:  Virtual Str3 SN 
 VS04.          90584144R12X14:  Virtual Str4 SN 
 WBMN.klb                 0.00:  WOB Min 
 WITN.            Peter Wilson:  Customer Rep 
 WOBA.klb                 0.00:  WOB Avg 
 WOBX.klb                 0.00:  WOB Max 
 YP  .lhf2               29.00:  Yield Point 
~Curve Information Block
#MNEM.UNIT                 API CODE     Curve Description
#---------               -----------    ---------------------------
 TIME.HHMMSS            00 000 000 000:  GT Time & Date
 GTDEPTH.m              00 000 000 000:  GT Depth
 GTPQH.psia             00 000 000 000:  GT HR Quartz Pressure
 GTTQ.degC              00 000 000 000:  GT Quartz Temperature
 GTTN.NONE              00 000 000 000:  GT Test Number
 GTET.sec               00 000 000 000:  GT Elapsed Test Time
 GTTVD.m                00 000 000 000:  GT True Vertical Depth
#Other Information
#
#WARRANTY: Halliburton will use its best efforts to furnish customers with 
#accurate information and interpretations that are part of, and incident to, the services 
#provided.  However, Halliburton cannot and does not warrant the accuracy 
#or correctness of such information and interpretations.  Under no circumstances should any 
#such information or interpretation be relied upon as the sole basis for any drilling, 
#completion, production, or financial decision or any procedure involving any risk to the 
#safety of any drilling venture, drilling rig or its crew or any other third party.  The 
#Customer has full responsibility for all drilling, completion and production operation.  
#Halliburton makes no representations or warranties, either expressed or 
#implied, including, but not limited to, the implied warranties of merchantability or fitness 
#for a particular purpose, with respect to the services rendered.  In no event will 
#Halliburton be liable for failure to obtain any particular results or for 
#any damages, including, but not limited to, indirect, special or consequential damages, 
#resulting from the use of any information or interpretation provided by Halliburton.
#
~A           TIME           GTDEPTH  GTPQH  GTTQ  GTTN  GTET   GTTVD  
# ...
   06:23:39.000.03-Feb-2020 4005.51  135.22 64.95 7.00 345.00 3017.14
   06:23:39.200.03-Feb-2020 4005.51  135.22 64.95 7.00 345.20 3017.14
   06:23:39.400.03-Feb-2020 4005.51  135.25 64.95 7.00 345.40 3017.14
   06:23:39.600.03-Feb-2020 4005.51  135.26 64.95 7.00 345.60 3017.14
   06:23:39.800.03-Feb-2020 4005.51  135.27 64.95 7.00 345.80 3017.14
   06:23:40.000.03-Feb-2020 4005.51  135.28 64.95 7.00 346.00 3017.14
   06:23:40.200.03-Feb-2020 4005.51  135.30 64.95 7.00 346.20 3017.14
   06:23:40.400.03-Feb-2020 4005.51  135.31 64.95 7.00 346.40 3017.14
   06:23:40.600.03-Feb-2020 4005.51  135.33 64.95 7.00 346.60 3017.14
   06:23:40.800.03-Feb-2020 4005.51  135.32 64.95 7.00 346.80 3017.14
   06:23:41.000.03-Feb-2020 4005.51  135.35 64.95 7.00 347.00 3017.14
   06:23:41.200.03-Feb-2020 4005.51  135.36 64.95 7.00 347.20 3017.14
   06:23:41.400.03-Feb-2020 4005.51  135.38 64.95 7.00 347.40 3017.14
   06:23:41.600.03-Feb-2020 4005.51  135.38 64.95 7.00 347.60 3017.14
   06:23:41.800.03-Feb-2020 4005.51  135.40 64.95 7.00 347.80 3017.14
   06:23:42.000.03-Feb-2020 4005.51  135.40 64.95 7.00 348.00 3017.14
   06:23:42.200.03-Feb-2020 4005.51  135.43 64.95 7.00 348.20 3017.14
   06:23:42.400.03-Feb-2020 4005.51  135.43 64.95 7.00 348.40 3017.14
   06:23:42.600.03-Feb-2020 4005.51  135.45 64.95 7.00 348.60 3017.14
   06:23:42.800.03-Feb-2020 4005.51  135.46 64.95 7.00 348.80 3017.14
   06:23:43.000.03-Feb-2020 4005.51  135.46 64.95 7.00 349.00 3017.14
   06:23:43.200.03-Feb-2020 4005.51  135.46 64.95 7.00 349.20 3017.14
   06:23:43.400.03-Feb-2020 4005.51  135.50 64.94 7.00 349.40 3017.14
   06:23:43.600.03-Feb-2020 4005.51  135.51 64.95 7.00 349.60 3017.14
   06:23:43.800.03-Feb-2020 4005.51  135.52 64.95 7.00 349.80 3017.14
   06:23:44.000.03-Feb-2020 4005.51  135.53 64.94 7.00 350.00 3017.14
   06:23:44.200.03-Feb-2020 4005.51  135.53 64.94 7.00 350.20 3017.14
   06:23:44.400.03-Feb-2020 4005.51  135.56 64.94 7.00 350.40 3017.14
   06:23:44.600.03-Feb-2020 4005.51  135.58 64.94 7.00 350.60 3017.14
   06:23:44.800.03-Feb-2020 4005.51  135.58 64.94 7.00 350.80 3017.14
   06:23:45.000.03-Feb-2020 4005.51  135.60 64.94 7.00 351.00 3017.14
   06:23:45.200.03-Feb-2020 4005.51  135.61 64.94 7.00 351.20 3017.14
   06:23:45.400.03-Feb-2020 4005.51  135.62 64.94 7.00 351.40 3017.14
   06:23:45.600.03-Feb-2020 4005.51  135.63 64.94 7.00 351.60 3017.14
   06:23:45.800.03-Feb-2020 4005.51  135.64 64.94 7.00 351.80 3017.14
   06:23:46.000.03-Feb-2020 4005.51  135.66 64.94 7.00 352.00 3017.14
   06:23:46.200.03-Feb-2020 4005.51  135.66 64.94 7.00 352.20 3017.14
   06:23:46.400.03-Feb-2020 4005.51  135.68 64.94 7.00 352.40 3017.14
   06:23:46.600.03-Feb-2020 4005.51  135.69 64.94 7.00 352.60 3017.14
   06:23:46.800.03-Feb-2020 4005.51  135.71 64.94 7.00 352.80 3017.14
   06:23:47.000.03-Feb-2020 4005.51  135.71 64.94 7.00 353.00 3017.14
   06:23:47.200.03-Feb-2020 4005.51  135.71 64.94 7.00 353.20 3017.14
   06:23:47.400.03-Feb-2020 4005.51  135.75 64.94 7.00 353.40 3017.14
   06:23:47.600.03-Feb-2020 4005.51  135.75 64.94 7.00 353.60 3017.14
   06:23:47.800.03-Feb-2020 4005.51  135.76 64.94 7.00 353.80 3017.14
   06:23:48.000.03-Feb-2020 4005.51  135.78 64.94 7.00 354.00 3017.14
   06:23:48.200.03-Feb-2020 4005.51  135.78 64.94 7.00 354.20 3017.14
   06:23:48.400.03-Feb-2020 4005.51  135.79 64.94 7.00 354.40 3017.14
   06:23:48.600.03-Feb-2020 4005.51  135.80 64.94 7.00 354.60 3017.14
   06:23:48.800.03-Feb-2020 4005.51  135.82 64.94 7.00 354.80 3017.14
   06:23:49.000.03-Feb-2020 4005.51  135.83 64.94 7.00 355.00 3017.14
   06:23:49.200.03-Feb-2020 4005.51  135.83 64.94 7.00 355.20 3017.14
   06:23:49.400.03-Feb-2020 4005.51  135.85 64.94 7.00 355.40 3017.14
   06:23:49.600.03-Feb-2020 4005.51  135.86 64.94 7.00 355.60 3017.14
   06:23:49.800.03-Feb-2020 4005.51  135.88 64.94 7.00 355.80 3017.14
   06:23:50.000.03-Feb-2020 4005.51  135.89 64.94 7.00 356.00 3017.14
   06:23:50.200.03-Feb-2020 4005.51  135.89 64.94 7.00 356.20 3017.14
   06:23:50.400.03-Feb-2020 4005.51  135.92 64.94 7.00 356.40 3017.14
   06:23:50.600.03-Feb-2020 4005.51  135.93 64.94 7.00 356.60 3017.14
   06:23:50.800.03-Feb-2020 4005.51  135.92 64.94 7.00 356.80 3017.14
   06:23:51.000.03-Feb-2020 4005.51  135.95 64.94 7.00 357.00 3017.14
   06:23:51.200.03-Feb-2020 4005.51  135.95 64.94 7.00 357.20 3017.14
   06:23:51.400.03-Feb-2020 4005.51  135.97 64.94 7.00 357.40 3017.14
   06:23:51.600.03-Feb-2020 4005.51  135.98 64.94 7.00 357.60 3017.14
   06:23:51.800.03-Feb-2020 4005.51  135.99 64.94 7.00 357.80 3017.14
   06:23:52.000.03-Feb-2020 4005.51  136.01 64.94 7.00 358.00 3017.14
   06:23:52.200.03-Feb-2020 4005.51  136.01 64.94 7.00 358.20 3017.14
   06:23:52.400.03-Feb-2020 4005.51  136.03 64.94 7.00 358.40 3017.14
   06:23:52.600.03-Feb-2020 4005.51  136.02 64.94 7.00 358.60 3017.14
   06:23:52.800.03-Feb-2020 4005.51  136.05 64.94 7.00 358.80 3017.14
   06:23:53.000.03-Feb-2020 4005.51  136.06 64.94 7.00 359.00 3017.14
   06:23:53.200.03-Feb-2020 4005.51  136.06 64.94 7.00 359.20 3017.14
   06:23:53.400.03-Feb-2020 4005.51  136.08 64.94 7.00 359.40 3017.14
   06:23:53.600.03-Feb-2020 4005.51  136.09 64.94 7.00 359.60 3017.14
   06:23:53.800.03-Feb-2020 4005.51  136.11 64.94 7.00 359.80 3017.14
   06:23:54.000.03-Feb-2020 4005.51  136.11 64.94 7.00 360.00 3017.14
   06:23:54.200.03-Feb-2020 4005.51  136.11 64.94 7.00 360.20 3017.14
   06:23:54.400.03-Feb-2020 4005.51  136.13 64.94 7.00 360.40 3017.14
   06:23:54.600.03-Feb-2020 4005.51  136.14 64.94 7.00 360.60 3017.14
   06:23:54.800.03-Feb-2020 4005.51  136.15 64.94 7.00 360.80 3017.14
   06:23:55.000.03-Feb-2020 4005.51  136.15 64.94 7.00 361.00 3017.14
   06:23:55.200.03-Feb-2020 4005.51  136.15 64.94 7.00 361.20 3017.14
   06:23:55.400.03-Feb-2020 4005.51  136.17 64.94 7.00 361.40 3017.14
   06:23:55.600.03-Feb-2020 4005.51  136.19 64.94 7.00 361.60 3017.14
   06:23:55.800.03-Feb-2020 4005.51  136.19 64.94 7.00 361.80 3017.14
   06:23:56.000.03-Feb-2020 4005.51  136.22 64.94 7.00 362.00 3017.14
   06:23:56.200.03-Feb-2020 4005.51  136.22 64.94 7.00 362.20 3017.14
   06:23:56.400.03-Feb-2020 4005.51  136.25 64.94 7.00 362.40 3017.14
   06:23:56.600.03-Feb-2020 4005.51  136.24 64.94 7.00 362.60 3017.14
   06:23:56.800.03-Feb-2020 4005.51  136.26 64.94 7.00 362.80 3017.14
   06:23:57.000.03-Feb-2020 4005.51  136.27 64.94 7.00 363.00 3017.14
   06:23:57.200.03-Feb-2020 4005.51  136.27 64.94 7.00 363.20 3017.14
   06:23:57.400.03-Feb-2020 4005.51  136.29 64.94 7.00 363.40 3017.14
   06:23:57.600.03-Feb-2020 4005.51  136.30 64.94 7.00 363.60 3017.14
   06:23:57.800.03-Feb-2020 4005.51  136.31 64.94 7.00 363.80 3017.14
   06:23:58.000.03-Feb-2020 4005.51  136.33 64.94 7.00 364.00 3017.14
   06:23:58.200.03-Feb-2020 4005.51  136.33 64.94 7.00 364.20 3017.14
   06:23:58.400.03-Feb-2020 4005.51  136.34 64.94 7.00 364.40 3017.14
   06:23:58.600.03-Feb-2020 4005.51  136.35 64.94 7.00 364.60 3017.14
   06:23:58.800.03-Feb-2020 4005.51  136.36 64.94 7.00 364.80 3017.14
   06:23:59.000.03-Feb-2020 4005.51  136.38 64.94 7.00 365.00 3017.14
   06:23:59.200.03-Feb-2020 4005.51  136.38 64.94 7.00 365.20 3017.14
   06:23:59.400.03-Feb-2020 4005.51  136.38 64.94 7.00 365.40 3017.14
   06:23:59.600.03-Feb-2020 4005.51  136.41 64.94 7.00 365.60 3017.14
   06:23:59.800.03-Feb-2020 4005.51  136.41 64.94 7.00 365.80 3017.14
   06:24:00.000.03-Feb-2020 4005.51  136.42 64.94 7.00 366.00 3017.14
   06:24:00.200.03-Feb-2020 4005.51  136.42 64.94 7.00 366.20 3017.14
   06:24:00.400.03-Feb-2020 4005.51  136.43 64.94 7.00 366.40 3017.14
   06:24:00.600.03-Feb-2020 4005.51  136.46 64.94 7.00 366.60 3017.14
   06:24:00.800.03-Feb-2020 4005.51  136.47 64.94 7.00 366.80 3017.14
   06:24:01.000.03-Feb-2020 4005.51  136.47 64.94 7.00 367.00 3017.14
   06:24:01.200.03-Feb-2020 4005.51  136.47 64.94 7.00 367.20 3017.14
   06:24:01.400.03-Feb-2020 4005.51  136.50 64.94 7.00 367.40 3017.14
   06:24:01.600.03-Feb-2020 4005.51  136.50 64.94 7.00 367.60 3017.14
   06:24:01.800.03-Feb-2020 4005.51  136.52 64.94 7.00 367.80 3017.14
