~Version Information
 VERS.                  2.0:   CWLS log ASCII Standard -VERSION 2.0
 WRAP.                   NO:   One line per depth step
~Well Information Block
#MNEM.UNIT     VALUE/NAME     DESCRIPTION
#---------     -----------    ---------------------------
 STRT.S             02:50:23 03-Feb-20: START TIME 02:50:23 03-Feb-20
 STOP.S             02:58:14 03-Feb-20: STOP TIME  02:58:14 03-Feb-20
 STEP.S                   0.00: STEP TIME
 NULL.                 -999.25: NULL VALUE
 DFWT.                        :  DIST FWL TEXT
 DFST.                        :  DIST FSL TEXT
 DMF .             Drill Floor:  DRILL MEAS FROM
 STIM.      09.30.00 26-Dec-19:  START TIME
 DATE.      08.00.00 20-Jan-20:  END TIME
 SPUD.               23-Nov-19:  SPUD DATE
 NREF.                    Grid:  NORTH REFERENCE
 HPTY.       Minimum Curvature:  HOLE POS TYPE
 DMOD.             Drill Model:  DRILL MOD DESC
 SVYD.                  Survey:  SURVEY DESC
 ILTD.               Lithology:  INTERP LTH DESC
 FTOP.          Formation Tops:  FORM TOPS DESC
 SON .        AZ-XX-0906192647:  JOB NUMBER
 WTYP.                Deviated:  WELL TYPE
 COMP.     BP Exploration (Caspian Sea) Ltd:  COMPANY
 BASE.              Azerbaijan:  LOGGING EQUIPMENT BASE LOCATION
 REGN.                 Eurasia:  REGION
 FLD .                     ACG:  FIELD NAME
 SRVC.              KCA Deutag:  CONTRACTOR
 MWDS.                    Baku:  MWD SHOP
 WELL.     A10 (Slot 20) - SCP:  WELL NAME
 JOBN.        AZ-XX-0906192647:  JOB TICKET NUMB
 RIG .                 Chirag1:  RIG NAME
 DCON.     Halliburton Sperry Drilling:  DIRECTNL CONTR
 UNIT.                     N/A:  LOGGING EQUIPMENT ID
 PDAT.          Mean Sea Level:  PERMANENT DATUM
 MDS .        Operator Entered:  MAG DATA SOURCE
 CTRY.              Azerbaijan:  COUNTRY NAME
 UWI .            /AZE00000090:  UNIQUE WELL IDENTIFIER
 API .            /AZE00000090:  API NUMBER
 CNTY.                        :  COUNTY
 PROV.                        :  PROVINCE
 STAT.                        :  STATE
 LOC .                        :  LOCATION
 LMF .             Drill Floor:  LOG MEASURED FROM
 TVDS.m                  36.60:  TVDSS CORRECTN
 LATI.deg                40.08:  LATITUDE
 LONG.deg                51.24:  LONGITUDE
 WHNS.m                  -7.94:  WELL HEAD N/S
 WHEW.m                   1.56:  WELL HEAD E/W
 UTMX.m              520429.26:  UTM X
 UTMY.m             4438973.87:  UTM Y
 DFWL.m                   0.00:  DISTANCE FWL
 DFSL.m                   0.00:  DISTANCE FSL
 SDEP.m                1455.00:  START DEPTH
 TDD .m                4047.51:  TOTAL DEPTH (DRILLER)
 VSDR.deg               112.75:  VERT SEC DIRECT
 GVFD.g                   1.00:  GRAVITY FIELD
 MFLD.nT              50261.00:  MAGNETIC FIELD
 MDIP.deg                59.52:  MAGNETIC DIP
 MDEC.deg                 6.42:  MAGNETIC DECL
 GRDC.deg                 0.17:  GRID CORRECTION
 AZTC.deg                 6.25:  AZM TOTAL CORR
 EPD .m                   0.00:  ELEVATION
 EGL .m                   0.00:  GROUND ELEVATION
 WDMS.m                 121.00:  WD ELEV
 APD .m                  36.60:  DEPTH ABOVE PD
 AGAP.m                  36.60:  AIR GAP
 VSEW.m                   1.56:  VERT SEC E/W
 VSNS.m                  -7.94:  VERT SEC N/S
 DEP .m                1140.01:  DEPTH
 EKB .m                  36.60:  KB ELEVATION
 EDF .m                  36.60:  DF ELEVATION
 VSC .                       0:  VS TO CLOSURE
 MAGU.                 1849206:  MAGUTM CHECKSUM
~Parameter Information Block
#MNEM.UNIT       Value        Description
#---------     -----------    ---------------------------
 AV  .mps                 1.70:  Ann Velocity 
 AVMX.mps                 2.30:  Max Ann Veloc 
 AZIF.deg               137.03:  Azm, Final 
 BHAT.                   Other:  BHA Type 
 BROT.°/30m               0.80:  Build Rotating 
 BS  .in                  8.00:  Bit Size 
 BTPL.psig              161.00:  Bit Press Loss 
 CABU.                      No:  Customer Abuse 
 COMM.                     ´Î`:  Run Comments 1 
 TCS .hr                  9.59:  Time Ciculation Ended 
 CV  .mps                 3.76:  Crit Velocity 
 CVMX.mps                 4.26:  Max Crit Veloc 
 DD1 .         Intigam Rahimov:  Direct Drillr 1 
 DD2 .          Rashad Gojayev:  Direct Drillr 2 
 DDSV.                   Other:  DD Service 
 DEFF.%                 100.00:  % Det Eff 
 DLRX.°/30m               1.44:  Dogleg Rot Max 
 DLSO.°/30m               0.00:  Dogleg Oriented 
 DLSX.°/30m               0.00:  Dogleg Str Max 
 DRET.      03.31.12 02-Feb-20:  Drill End Time 
 DRST.      03.31.12 02-Feb-20:  Drill Start Tim 
 DTIM.hr                  1.99:  Time Drilling 
 EDEP.m                4047.51:  End Depth 
 ENG1.           Eldar Hajiyev:  Engineer 1 
 ENG2.          Rasim Hashimov:  Engineer 2 
 ENG3.          Rustam Safarov:  Engineer 3 
 ETIM.      03.31.12 02-Feb-20:  End Time 
 FLOI.gpm               300.00:  Flow In 
 FLON.gpm               250.00:  Flow In Min 
 FLOS.cptm                0.00:  Fluid Loss 
 FLOX.gpm               330.00:  Flow In Max 
 HFLO.                      No:  High Flow 
 HPRE.                      No:  High Pressure 
 HTEM.                      No:  High Temp 
 HYDO.m                   2.50:  Hydro Offset 
 IFIN.deg                39.54:  Inc, Final 
 IMAX.deg                41.14:  Inc Max 
 IMIN.deg                39.81:  Inc Min 
 IMND.m                4005.21:  Inc Min Depth 
 IMXD.m                3948.42:  Inc Max Depth 
 JARR.                      No:  Jarring 
 LETM.      03.31.12 02-Feb-20:  Log End Time 
 LOST.hr                     0:  Lost Rig Time 
 LSTM.      03.31.12 02-Feb-20:  Log Start Time 
 MDCL.ppm             35000.00:  Mud Chlorides 
 MDES.     Inversion Oil/Synthetic:  Mud Desc 
 DFD .sg                  1.32:  Mud Density 
 MDMN.sg                  1.32:  Dens Mud Min 
 MDMX.sg                  1.32:  Dens Mud Max 
 MOIL.                      59:  Run Mud Oil % 
 MOWR.                   71:29:  Run Mud OWR 
 MSND.                       0:  Run Mud Sand % 
 MSOL.                      17:  Run Mud Solids% 
 DFV .spqt               86.00:  Mud Viscosity 
 MWOD.in                  4.75:  MWD Tool OD 
 MWSI.                      No:  Serv Intrp, MWD 
 OTIM.hr                 46.72:  Time Operating 
 PCON.           Look Like New:  Pad Condition 
 PMAX.psia             3300.00:  Press Op, Max 
 PV  .cP                 30.00:  Mud PV 
 RUN .                     400:  Run Number 
 ROPA.m/hr               35.00:  ROP Avg 
 ROPN.m/hr               25.00:  ROP Min 
 ROPX.m/hr               40.00:  ROP Max 
 RPMA.rpm                80.00:  RPM Surface Avg 
 RPMN.rpm                60.00:  RPM Surface Min 
 RPMX.rpm               100.00:  RPM Surface Max 
 RRUN.                     400:  Rig Run Number 
 RTIM.hr                  1.99:  Time Reaming 
 SAZI.deg               133.93:  Azm, Start 
 SDEP.m                4047.51:  Start Depth 
 SIDD.                      No:  Serv Intrp, DD 
 SINC.deg                40.28:  Inc, Start 
 SPPA.psig             3250.00:  SPP Avg 
 SPPN.psig             3200.00:  SPP Min 
 SPPX.psig             3300.00:  SPP Max 
 STIM.      03.31.12 02-Feb-20:  Start Time 
 SVCS.                 DD, MWD:  Services 
 SVER.                    9.20:  Sperry Version 
 TDAT.m                  47.00:  Tot Depth Attmp 
 TDDF.                      No:  Trip for DD 
 TFF .                      No:  Trip for Fail 
 TQAA.f-kp                0.00:  Torque Abs Avg 
 TQAN.f-kp                0.00:  Torque Abs Min 
 TQAX.f-kp                0.00:  Torque Abs Max 
 TRRT.°/30m               0.70:  Turn Rotating 
 MRT .                    HCIM:  Maximum Recorded Temperature 
 TTMX.degC               70.59:  Max Tool Temp 
 VS01.             90598770F11:  Virtual Str1 SN 
 VS02.             90598769F11:  Virtual Str2 SN 
 VS03.            90515978Z1W1:  Virtual Str3 SN 
 VS04.          90584144R12X14:  Virtual Str4 SN 
 WBMN.klb                 0.00:  WOB Min 
 WITN.            Peter Wilson:  Customer Rep 
 WOBA.klb                 0.00:  WOB Avg 
 WOBX.klb                 0.00:  WOB Max 
 YP  .lhf2               29.00:  Yield Point 
~Curve Information Block
#MNEM.UNIT                 API CODE     Curve Description
#---------               -----------    ---------------------------
 TIME.HHMMSS            00 000 000 000:  GT Time & Date
 GTDEPTH.m              00 000 000 000:  GT Depth
 GTPQH.psia             00 000 000 000:  GT HR Quartz Pressure
 GTTQ.degC              00 000 000 000:  GT Quartz Temperature
 GTTN.NONE              00 000 000 000:  GT Test Number
 GTET.sec               00 000 000 000:  GT Elapsed Test Time
 GTTVD.m                00 000 000 000:  GT True Vertical Depth
#Other Information
#
#WARRANTY: Halliburton will use its best efforts to furnish customers with 
#accurate information and interpretations that are part of, and incident to, the services 
#provided.  However, Halliburton cannot and does not warrant the accuracy 
#or correctness of such information and interpretations.  Under no circumstances should any 
#such information or interpretation be relied upon as the sole basis for any drilling, 
#completion, production, or financial decision or any procedure involving any risk to the 
#safety of any drilling venture, drilling rig or its crew or any other third party.  The 
#Customer has full responsibility for all drilling, completion and production operation.  
#Halliburton makes no representations or warranties, either expressed or 
#implied, including, but not limited to, the implied warranties of merchantability or fitness 
#for a particular purpose, with respect to the services rendered.  In no event will 
#Halliburton be liable for failure to obtain any particular results or for 
#any damages, including, but not limited to, indirect, special or consequential damages, 
#resulting from the use of any information or interpretation provided by Halliburton.
#
~A           TIME           GTDEPTH  GTPQH  GTTQ  GTTN  GTET   GTTVD  
# ...
   02:53:50.818.03-Feb-2020 4022.51 3157.26 64.38 1.00 207.04 3030.18
   02:53:51.018.03-Feb-2020 4022.51 3157.26 64.38 1.00 207.24 3030.18
   02:53:51.219.03-Feb-2020 4022.51 3157.10 64.38 1.00 207.44 3030.18
   02:53:51.419.03-Feb-2020 4022.51 3156.95 64.38 1.00 207.64 3030.18
   02:53:51.619.03-Feb-2020 4022.51 3157.14 64.38 1.00 207.84 3030.18
   02:53:51.819.03-Feb-2020 4022.51 3156.72 64.38 1.00 208.04 3030.18
   02:53:52.019.03-Feb-2020 4022.51 3156.72 64.38 1.00 208.24 3030.18
   02:53:52.219.03-Feb-2020 4022.51 3157.03 64.38 1.00 208.44 3030.18
   02:53:52.419.03-Feb-2020 4022.51 3157.17 64.38 1.00 208.64 3030.18
   02:53:52.619.03-Feb-2020 4022.51 3157.08 64.38 1.00 208.84 3030.18
   02:53:52.819.03-Feb-2020 4022.51 3157.06 64.38 1.00 209.04 3030.18
   02:53:53.019.03-Feb-2020 4022.51 3157.06 64.38 1.00 209.24 3030.18
   02:53:53.219.03-Feb-2020 4022.51 3157.13 64.38 1.00 209.44 3030.18
   02:53:53.419.03-Feb-2020 4022.51 3157.11 64.38 1.00 209.64 3030.18
   02:53:53.619.03-Feb-2020 4022.51 3157.11 64.38 1.00 209.84 3030.18
   02:53:53.819.03-Feb-2020 4022.51 3157.14 64.38 1.00 210.04 3030.18
   02:53:54.019.03-Feb-2020 4022.51 3157.14 64.38 1.00 210.24 3030.18
   02:53:54.219.03-Feb-2020 4022.51 3157.11 64.38 1.00 210.44 3030.18
   02:53:54.419.03-Feb-2020 4022.51 3157.06 64.38 1.00 210.64 3030.18
   02:53:54.619.03-Feb-2020 4022.51 3157.11 64.38 1.00 210.84 3030.18
   02:53:54.819.03-Feb-2020 4022.51 3157.12 64.38 1.00 211.04 3030.18
   02:53:55.019.03-Feb-2020 4022.51 3157.12 64.38 1.00 211.24 3030.18
   02:53:55.219.03-Feb-2020 4022.51 3157.45 64.38 1.00 211.44 3030.18
   02:53:55.419.03-Feb-2020 4022.51 3156.88 64.38 1.00 211.64 3030.18
   02:53:55.619.03-Feb-2020 4022.51 3157.30 64.38 1.00 211.84 3030.18
   02:53:55.819.03-Feb-2020 4022.51 3157.15 64.38 1.00 212.04 3030.18
   02:53:56.020.03-Feb-2020 4022.51 3157.15 64.38 1.00 212.24 3030.18
   02:53:56.220.03-Feb-2020 4022.51 3157.15 64.38 1.00 212.44 3030.18
   02:53:56.420.03-Feb-2020 4022.51 3157.22 64.38 1.00 212.64 3030.18
   02:53:56.620.03-Feb-2020 4022.51 3157.15 64.38 1.00 212.84 3030.18
   02:53:56.820.03-Feb-2020 4022.51 3157.18 64.38 1.00 213.04 3030.18
   02:53:57.020.03-Feb-2020 4022.51 3157.18 64.38 1.00 213.24 3030.18
   02:53:57.220.03-Feb-2020 4022.51 3157.20 64.38 1.00 213.44 3030.18
   02:53:57.420.03-Feb-2020 4022.51 3157.19 64.38 1.00 213.64 3030.18
   02:53:57.620.03-Feb-2020 4022.51 3156.78 64.38 1.00 213.84 3030.18
   02:53:57.820.03-Feb-2020 4022.51 3157.16 64.37 1.00 214.04 3030.18
   02:53:58.020.03-Feb-2020 4022.51 3157.16 64.37 1.00 214.24 3030.18
   02:53:58.220.03-Feb-2020 4022.51 3157.31 64.37 1.00 214.44 3030.18
   02:53:58.420.03-Feb-2020 4022.51 3156.85 64.37 1.00 214.64 3030.18
   02:53:58.620.03-Feb-2020 4022.51 3157.35 64.37 1.00 214.84 3030.18
   02:53:58.820.03-Feb-2020 4022.51 3157.31 64.37 1.00 215.05 3030.18
   02:53:59.020.03-Feb-2020 4022.51 3157.31 64.37 1.00 215.25 3030.18
   02:53:59.220.03-Feb-2020 4022.51 3157.27 64.37 1.00 215.45 3030.18
   02:53:59.420.03-Feb-2020 4022.51 3157.23 64.37 1.00 215.65 3030.18
   02:53:59.620.03-Feb-2020 4022.51 3157.24 64.37 1.00 215.85 3030.18
   02:53:59.820.03-Feb-2020 4022.51 3156.78 64.37 1.00 216.05 3030.18
   02:54:00.020.03-Feb-2020 4022.51 3156.78 64.37 1.00 216.25 3030.18
   02:54:00.220.03-Feb-2020 4022.51 3157.02 64.37 1.00 216.45 3030.18
   02:54:00.420.03-Feb-2020 4022.51 3157.46 64.37 1.00 216.65 3030.18
   02:54:00.620.03-Feb-2020 4022.51 3157.36 64.37 1.00 216.85 3030.18
   02:54:00.821.03-Feb-2020 4022.51 3157.30 64.37 1.00 217.05 3030.18
   02:54:01.021.03-Feb-2020 4022.51 3157.30 64.37 1.00 217.25 3030.18
   02:54:01.221.03-Feb-2020 4022.51 3157.27 64.37 1.00 217.45 3030.18
   02:54:01.421.03-Feb-2020 4022.51 3156.75 64.37 1.00 217.65 3030.18
   02:54:01.621.03-Feb-2020 4022.51 3157.67 64.37 1.00 217.85 3030.18
   02:54:01.821.03-Feb-2020 4022.51 3157.11 64.37 1.00 218.05 3030.18
   02:54:02.021.03-Feb-2020 4022.51 3157.11 64.37 1.00 218.25 3030.18
   02:54:02.221.03-Feb-2020 4022.51 3157.28 64.37 1.00 218.45 3030.18
   02:54:02.421.03-Feb-2020 4022.51 3157.33 64.37 1.00 218.65 3030.18
   02:54:02.621.03-Feb-2020 4022.51 3157.25 64.37 1.00 218.85 3030.18
   02:54:02.821.03-Feb-2020 4022.51 3157.42 64.37 1.00 219.05 3030.18
   02:54:03.021.03-Feb-2020 4022.51 3157.42 64.37 1.00 219.25 3030.18
   02:54:03.221.03-Feb-2020 4022.51 3157.32 64.37 1.00 219.45 3030.18
   02:54:03.421.03-Feb-2020 4022.51 3157.35 64.37 1.00 219.65 3030.18
   02:54:03.621.03-Feb-2020 4022.51 3157.33 64.37 1.00 219.85 3030.18
   02:54:03.821.03-Feb-2020 4022.51 3157.32 64.37 1.00 220.05 3030.18
   02:54:04.021.03-Feb-2020 4022.51 3157.32 64.37 1.00 220.25 3030.18
   02:54:04.221.03-Feb-2020 4022.51 3157.26 64.37 1.00 220.45 3030.18
   02:54:04.421.03-Feb-2020 4022.51 3157.36 64.37 1.00 220.65 3030.18
   02:54:04.621.03-Feb-2020 4022.51 3157.24 64.37 1.00 220.85 3030.18
   02:54:04.821.03-Feb-2020 4022.51 3157.23 64.37 1.00 221.05 3030.18
   02:54:05.021.03-Feb-2020 4022.51 3157.23 64.37 1.00 221.25 3030.18
   02:54:05.221.03-Feb-2020 4022.51 3157.41 64.37 1.00 221.45 3030.18
   02:54:05.421.03-Feb-2020 4022.51 3157.38 64.37 1.00 221.65 3030.18
   02:54:05.622.03-Feb-2020 4022.51 3157.43 64.37 1.00 221.85 3030.18
   02:54:05.822.03-Feb-2020 4022.51 3157.34 64.37 1.00 222.05 3030.18
   02:54:06.022.03-Feb-2020 4022.51 3157.34 64.37 1.00 222.25 3030.18
   02:54:06.222.03-Feb-2020 4022.51 3157.40 64.37 1.00 222.45 3030.18
   02:54:06.422.03-Feb-2020 4022.51 3157.36 64.37 1.00 222.65 3030.18
   02:54:06.622.03-Feb-2020 4022.51 3157.34 64.37 1.00 222.85 3030.18
   02:54:06.822.03-Feb-2020 4022.51 3157.46 64.37 1.00 223.05 3030.18
   02:54:07.022.03-Feb-2020 4022.51 3157.46 64.37 1.00 223.25 3030.18
   02:54:07.222.03-Feb-2020 4022.51 3156.79 64.37 1.00 223.45 3030.18
   02:54:07.422.03-Feb-2020 4022.51 3157.72 64.37 1.00 223.65 3030.18
   02:54:07.622.03-Feb-2020 4022.51 3157.29 64.37 1.00 223.85 3030.18
   02:54:07.822.03-Feb-2020 4022.51 3157.57 64.37 1.00 224.05 3030.18
   02:54:08.022.03-Feb-2020 4022.51 3157.57 64.37 1.00 224.25 3030.18
   02:54:08.222.03-Feb-2020 4022.51 3157.84 64.37 1.00 224.45 3030.18
   02:54:08.422.03-Feb-2020 4022.51 3157.38 64.37 1.00 224.65 3030.18
   02:54:08.622.03-Feb-2020 4022.51 3157.58 64.37 1.00 224.85 3030.18
   02:54:08.822.03-Feb-2020 4022.51 3157.40 64.36 1.00 225.05 3030.18
   02:54:09.022.03-Feb-2020 4022.51 3157.40 64.36 1.00 225.25 3030.18
   02:54:09.222.03-Feb-2020 4022.51 3157.46 64.36 1.00 225.45 3030.18
   02:54:09.422.03-Feb-2020 4022.51 3157.42 64.36 1.00 225.65 3030.18
   02:54:09.622.03-Feb-2020 4022.51 3157.11 64.36 1.00 225.85 3030.18
   02:54:09.822.03-Feb-2020 4022.51 3157.57 64.36 1.00 226.05 3030.18
   02:54:10.022.03-Feb-2020 4022.51 3157.57 64.36 1.00 226.25 3030.18
   02:54:10.223.03-Feb-2020 4022.51 3157.64 64.36 1.00 226.45 3030.18
   02:54:10.423.03-Feb-2020 4022.51 3157.53 64.36 1.00 226.65 3030.18
   02:54:10.623.03-Feb-2020 4022.51 3157.44 64.36 1.00 226.85 3030.18
   02:54:10.823.03-Feb-2020 4022.51 3157.42 64.36 1.00 227.05 3030.18
   02:54:11.023.03-Feb-2020 4022.51 3157.42 64.36 1.00 227.25 3030.18
   02:54:11.223.03-Feb-2020 4022.51 3157.85 64.36 1.00 227.45 3030.18
   02:54:11.423.03-Feb-2020 4022.51 3157.31 64.36 1.00 227.65 3030.18
   02:54:11.623.03-Feb-2020 4022.51 3157.61 64.36 1.00 227.85 3030.18
   02:54:11.823.03-Feb-2020 4022.51 3157.45 64.36 1.00 228.05 3030.18
   02:54:12.023.03-Feb-2020 4022.51 3157.45 64.36 1.00 228.25 3030.18
   02:54:12.223.03-Feb-2020 4022.51 3157.43 64.36 1.00 228.45 3030.18
   02:54:12.423.03-Feb-2020 4022.51 3157.49 64.36 1.00 228.65 3030.18
   02:54:12.623.03-Feb-2020 4022.51 3157.59 64.36 1.00 228.85 3030.18
   02:54:12.823.03-Feb-2020 4022.51 3157.49 64.36 1.00 229.05 3030.18
   02:54:13.023.03-Feb-2020 4022.51 3157.49 64.36 1.00 229.25 3030.18
   02:54:13.223.03-Feb-2020 4022.51 3157.52 64.36 1.00 229.45 3030.18
   02:54:13.423.03-Feb-2020 4022.51 3157.48 64.36 1.00 229.65 3030.18
   02:54:13.623.03-Feb-2020 4022.51 3157.48 64.36 1.00 229.85 3030.18
