~Version Information
 VERS.                  2.0:   CWLS log ASCII Standard -VERSION 2.0
 WRAP.                   NO:   One line per depth step
~Well Information Block
#MNEM.UNIT     VALUE/NAME     DESCRIPTION
#---------     -----------    ---------------------------
 STRT.S             08:33:17 03-Feb-20: START TIME 08:33:17 03-Feb-20
 STOP.S             08:41:10 03-Feb-20: STOP TIME  08:41:10 03-Feb-20
 STEP.S                   0.00: STEP TIME
 NULL.                 -999.25: NULL VALUE
 DFWT.                        :  DIST FWL TEXT
 DFST.                        :  DIST FSL TEXT
 DMF .             Drill Floor:  DRILL MEAS FROM
 STIM.      09.30.00 26-Dec-19:  START TIME
 DATE.      08.00.00 20-Jan-20:  END TIME
 SPUD.               23-Nov-19:  SPUD DATE
 NREF.                    Grid:  NORTH REFERENCE
 HPTY.       Minimum Curvature:  HOLE POS TYPE
 DMOD.             Drill Model:  DRILL MOD DESC
 SVYD.                  Survey:  SURVEY DESC
 ILTD.               Lithology:  INTERP LTH DESC
 FTOP.          Formation Tops:  FORM TOPS DESC
 SON .        AZ-XX-0906192647:  JOB NUMBER
 WTYP.                Deviated:  WELL TYPE
 COMP.     BP Exploration (Caspian Sea) Ltd:  COMPANY
 BASE.              Azerbaijan:  LOGGING EQUIPMENT BASE LOCATION
 REGN.                 Eurasia:  REGION
 FLD .                     ACG:  FIELD NAME
 SRVC.              KCA Deutag:  CONTRACTOR
 MWDS.                    Baku:  MWD SHOP
 WELL.     A10 (Slot 20) - SCP:  WELL NAME
 JOBN.        AZ-XX-0906192647:  JOB TICKET NUMB
 RIG .                 Chirag1:  RIG NAME
 DCON.     Halliburton Sperry Drilling:  DIRECTNL CONTR
 UNIT.                     N/A:  LOGGING EQUIPMENT ID
 PDAT.          Mean Sea Level:  PERMANENT DATUM
 MDS .        Operator Entered:  MAG DATA SOURCE
 CTRY.              Azerbaijan:  COUNTRY NAME
 UWI .            /AZE00000090:  UNIQUE WELL IDENTIFIER
 API .            /AZE00000090:  API NUMBER
 CNTY.                        :  COUNTY
 PROV.                        :  PROVINCE
 STAT.                        :  STATE
 LOC .                        :  LOCATION
 LMF .             Drill Floor:  LOG MEASURED FROM
 TVDS.m                  36.60:  TVDSS CORRECTN
 LATI.deg                40.08:  LATITUDE
 LONG.deg                51.24:  LONGITUDE
 WHNS.m                  -7.94:  WELL HEAD N/S
 WHEW.m                   1.56:  WELL HEAD E/W
 UTMX.m              520429.26:  UTM X
 UTMY.m             4438973.87:  UTM Y
 DFWL.m                   0.00:  DISTANCE FWL
 DFSL.m                   0.00:  DISTANCE FSL
 SDEP.m                1455.00:  START DEPTH
 TDD .m                4047.51:  TOTAL DEPTH (DRILLER)
 VSDR.deg               112.75:  VERT SEC DIRECT
 GVFD.g                   1.00:  GRAVITY FIELD
 MFLD.nT              50261.00:  MAGNETIC FIELD
 MDIP.deg                59.52:  MAGNETIC DIP
 MDEC.deg                 6.42:  MAGNETIC DECL
 GRDC.deg                 0.17:  GRID CORRECTION
 AZTC.deg                 6.25:  AZM TOTAL CORR
 EPD .m                   0.00:  ELEVATION
 EGL .m                   0.00:  GROUND ELEVATION
 WDMS.m                 121.00:  WD ELEV
 APD .m                  36.60:  DEPTH ABOVE PD
 AGAP.m                  36.60:  AIR GAP
 VSEW.m                   1.56:  VERT SEC E/W
 VSNS.m                  -7.94:  VERT SEC N/S
 DEP .m                1140.01:  DEPTH
 EKB .m                  36.60:  KB ELEVATION
 EDF .m                  36.60:  DF ELEVATION
 VSC .                       0:  VS TO CLOSURE
 MAGU.                 1849206:  MAGUTM CHECKSUM
~Parameter Information Block
#MNEM.UNIT       Value        Description
#---------     -----------    ---------------------------
 AV  .mps                 1.70:  Ann Velocity 
 AVMX.mps                 2.30:  Max Ann Veloc 
 AZIF.deg               137.03:  Azm, Final 
 BHAT.                   Other:  BHA Type 
 BROT.°/30m               0.80:  Build Rotating 
 BS  .in                  8.00:  Bit Size 
 BTPL.psig              161.00:  Bit Press Loss 
 CABU.                      No:  Customer Abuse 
 COMM.                     äör:  Run Comments 1 
 TCS .hr                  9.59:  Time Ciculation Ended 
 CV  .mps                 3.76:  Crit Velocity 
 CVMX.mps                 4.26:  Max Crit Veloc 
 DD1 .         Intigam Rahimov:  Direct Drillr 1 
 DD2 .          Rashad Gojayev:  Direct Drillr 2 
 DDSV.                   Other:  DD Service 
 DEFF.%                 100.00:  % Det Eff 
 DLRX.°/30m               1.44:  Dogleg Rot Max 
 DLSO.°/30m               0.00:  Dogleg Oriented 
 DLSX.°/30m               0.00:  Dogleg Str Max 
 DRET.      03.31.12 02-Feb-20:  Drill End Time 
 DRST.      03.31.12 02-Feb-20:  Drill Start Tim 
 DTIM.hr                  1.99:  Time Drilling 
 EDEP.m                4047.51:  End Depth 
 ENG1.           Eldar Hajiyev:  Engineer 1 
 ENG2.          Rasim Hashimov:  Engineer 2 
 ENG3.          Rustam Safarov:  Engineer 3 
 ETIM.      03.31.12 02-Feb-20:  End Time 
 FLOI.gpm               300.00:  Flow In 
 FLON.gpm               250.00:  Flow In Min 
 FLOS.cptm                0.00:  Fluid Loss 
 FLOX.gpm               330.00:  Flow In Max 
 HFLO.                      No:  High Flow 
 HPRE.                      No:  High Pressure 
 HTEM.                      No:  High Temp 
 HYDO.m                   2.50:  Hydro Offset 
 IFIN.deg                39.54:  Inc, Final 
 IMAX.deg                41.14:  Inc Max 
 IMIN.deg                39.81:  Inc Min 
 IMND.m                4005.21:  Inc Min Depth 
 IMXD.m                3948.42:  Inc Max Depth 
 JARR.                      No:  Jarring 
 LETM.      03.31.12 02-Feb-20:  Log End Time 
 LOST.hr                     0:  Lost Rig Time 
 LSTM.      03.31.12 02-Feb-20:  Log Start Time 
 MDCL.ppm             35000.00:  Mud Chlorides 
 MDES.     Inversion Oil/Synthetic:  Mud Desc 
 DFD .sg                  1.32:  Mud Density 
 MDMN.sg                  1.32:  Dens Mud Min 
 MDMX.sg                  1.32:  Dens Mud Max 
 MOIL.                      59:  Run Mud Oil % 
 MOWR.                   71:29:  Run Mud OWR 
 MSND.                       0:  Run Mud Sand % 
 MSOL.                      17:  Run Mud Solids% 
 DFV .spqt               86.00:  Mud Viscosity 
 MWOD.in                  4.75:  MWD Tool OD 
 MWSI.                      No:  Serv Intrp, MWD 
 OTIM.hr                 46.72:  Time Operating 
 PCON.           Look Like New:  Pad Condition 
 PMAX.psia             3300.00:  Press Op, Max 
 PV  .cP                 30.00:  Mud PV 
 RUN .                     400:  Run Number 
 ROPA.m/hr               35.00:  ROP Avg 
 ROPN.m/hr               25.00:  ROP Min 
 ROPX.m/hr               40.00:  ROP Max 
 RPMA.rpm                80.00:  RPM Surface Avg 
 RPMN.rpm                60.00:  RPM Surface Min 
 RPMX.rpm               100.00:  RPM Surface Max 
 RRUN.                     400:  Rig Run Number 
 RTIM.hr                  1.99:  Time Reaming 
 SAZI.deg               133.93:  Azm, Start 
 SDEP.m                4047.51:  Start Depth 
 SIDD.                      No:  Serv Intrp, DD 
 SINC.deg                40.28:  Inc, Start 
 SPPA.psig             3250.00:  SPP Avg 
 SPPN.psig             3200.00:  SPP Min 
 SPPX.psig             3300.00:  SPP Max 
 STIM.      03.31.12 02-Feb-20:  Start Time 
 SVCS.                 DD, MWD:  Services 
 SVER.                    9.20:  Sperry Version 
 TDAT.m                  47.00:  Tot Depth Attmp 
 TDDF.                      No:  Trip for DD 
 TFF .                      No:  Trip for Fail 
 TQAA.f-kp                0.00:  Torque Abs Avg 
 TQAN.f-kp                0.00:  Torque Abs Min 
 TQAX.f-kp                0.00:  Torque Abs Max 
 TRRT.°/30m               0.70:  Turn Rotating 
 MRT .                    HCIM:  Maximum Recorded Temperature 
 TTMX.degC               70.59:  Max Tool Temp 
 VS01.             90598770F11:  Virtual Str1 SN 
 VS02.             90598769F11:  Virtual Str2 SN 
 VS03.            90515978Z1W1:  Virtual Str3 SN 
 VS04.          90584144R12X14:  Virtual Str4 SN 
 WBMN.klb                 0.00:  WOB Min 
 WITN.            Peter Wilson:  Customer Rep 
 WOBA.klb                 0.00:  WOB Avg 
 WOBX.klb                 0.00:  WOB Max 
 YP  .lhf2               29.00:  Yield Point 
~Curve Information Block
#MNEM.UNIT                 API CODE     Curve Description
#---------               -----------    ---------------------------
 TIME.HHMMSS            00 000 000 000:  GT Time & Date
 GTDEPTH.m              00 000 000 000:  GT Depth
 GTPQH.psia             00 000 000 000:  GT HR Quartz Pressure
 GTTQ.degC              00 000 000 000:  GT Quartz Temperature
 GTTN.NONE              00 000 000 000:  GT Test Number
 GTET.sec               00 000 000 000:  GT Elapsed Test Time
 GTTVD.m                00 000 000 000:  GT True Vertical Depth
#Other Information
#
#WARRANTY: Halliburton will use its best efforts to furnish customers with 
#accurate information and interpretations that are part of, and incident to, the services 
#provided.  However, Halliburton cannot and does not warrant the accuracy 
#or correctness of such information and interpretations.  Under no circumstances should any 
#such information or interpretation be relied upon as the sole basis for any drilling, 
#completion, production, or financial decision or any procedure involving any risk to the 
#safety of any drilling venture, drilling rig or its crew or any other third party.  The 
#Customer has full responsibility for all drilling, completion and production operation.  
#Halliburton makes no representations or warranties, either expressed or 
#implied, including, but not limited to, the implied warranties of merchantability or fitness 
#for a particular purpose, with respect to the services rendered.  In no event will 
#Halliburton be liable for failure to obtain any particular results or for 
#any damages, including, but not limited to, indirect, special or consequential damages, 
#resulting from the use of any information or interpretation provided by Halliburton.
#
~A           TIME           GTDEPTH  GTPQH  GTTQ  GTTN   GTET   GTTVD  
# ...
   08:35:55.287.03-Feb-2020 4013.71 3132.66 64.47 11.00 158.20 3023.43
   08:35:55.487.03-Feb-2020 4013.71 3132.51 64.47 11.00 158.40 3023.43
   08:35:55.687.03-Feb-2020 4013.71 3132.67 64.47 11.00 158.60 3023.43
   08:35:55.887.03-Feb-2020 4013.71 3132.73 64.47 11.00 158.80 3023.43
   08:35:56.087.03-Feb-2020 4013.71 3132.70 64.47 11.00 159.00 3023.43
   08:35:56.287.03-Feb-2020 4013.71 3132.70 64.47 11.00 159.20 3023.43
   08:35:56.487.03-Feb-2020 4013.71 3132.46 64.47 11.00 159.40 3023.43
   08:35:56.687.03-Feb-2020 4013.71 3132.84 64.47 11.00 159.60 3023.43
   08:35:56.887.03-Feb-2020 4013.71 3132.56 64.47 11.00 159.80 3023.43
   08:35:57.087.03-Feb-2020 4013.71 3132.75 64.47 11.00 160.00 3023.43
   08:35:57.287.03-Feb-2020 4013.71 3132.75 64.47 11.00 160.20 3023.43
   08:35:57.487.03-Feb-2020 4013.71 3132.71 64.47 11.00 160.40 3023.43
   08:35:57.687.03-Feb-2020 4013.71 3132.49 64.47 11.00 160.60 3023.43
   08:35:57.887.03-Feb-2020 4013.71 3132.70 64.47 11.00 160.80 3023.43
   08:35:58.087.03-Feb-2020 4013.71 3132.66 64.47 11.00 161.00 3023.43
   08:35:58.287.03-Feb-2020 4013.71 3132.66 64.47 11.00 161.20 3023.43
   08:35:58.487.03-Feb-2020 4013.71 3132.70 64.47 11.00 161.40 3023.43
   08:35:58.687.03-Feb-2020 4013.71 3132.62 64.47 11.00 161.60 3023.43
   08:35:58.887.03-Feb-2020 4013.71 3132.66 64.47 11.00 161.80 3023.43
   08:35:59.087.03-Feb-2020 4013.71 3132.55 64.47 11.00 162.00 3023.43
   08:35:59.287.03-Feb-2020 4013.71 3132.55 64.47 11.00 162.20 3023.43
   08:35:59.487.03-Feb-2020 4013.71 3132.70 64.47 11.00 162.40 3023.43
   08:35:59.687.03-Feb-2020 4013.71 3132.68 64.47 11.00 162.60 3023.43
   08:35:59.887.03-Feb-2020 4013.71 3132.66 64.47 11.00 162.80 3023.43
   08:36:00.087.03-Feb-2020 4013.71 3132.68 64.47 11.00 163.00 3023.43
   08:36:00.287.03-Feb-2020 4013.71 3132.68 64.47 11.00 163.20 3023.43
   08:36:00.487.03-Feb-2020 4013.71 3132.67 64.47 11.00 163.40 3023.43
   08:36:00.687.03-Feb-2020 4013.71 3132.72 64.46 11.00 163.60 3023.43
   08:36:00.887.03-Feb-2020 4013.71 3132.56 64.46 11.00 163.80 3023.43
   08:36:01.087.03-Feb-2020 4013.71 3090.65 64.46 11.00 164.00 3023.43
   08:36:01.287.03-Feb-2020 4013.71 3090.65 64.46 11.00 164.20 3023.43
   08:36:01.487.03-Feb-2020 4013.71 3044.67 64.46 11.00 164.40 3023.43
   08:36:01.687.03-Feb-2020 4013.71 3041.35 64.46 11.00 164.60 3023.43
   08:36:01.887.03-Feb-2020 4013.71 3038.46 64.46 11.00 164.80 3023.43
   08:36:02.087.03-Feb-2020 4013.71 3034.97 64.46 11.00 165.00 3023.43
   08:36:02.287.03-Feb-2020 4013.71 3034.97 64.46 11.00 165.20 3023.43
   08:36:02.487.03-Feb-2020 4013.71 3032.99 64.46 11.00 165.40 3023.43
   08:36:02.687.03-Feb-2020 4013.71 3033.43 64.46 11.00 165.60 3023.43
   08:36:02.887.03-Feb-2020 4013.71 3030.52 64.46 11.00 165.80 3023.43
   08:36:03.087.03-Feb-2020 4013.71 3030.48 64.46 11.00 166.00 3023.43
   08:36:03.287.03-Feb-2020 4013.71 3030.48 64.46 11.00 166.20 3023.43
   08:36:03.487.03-Feb-2020 4013.71 3029.47 64.46 11.00 166.40 3023.43
   08:36:03.687.03-Feb-2020 4013.71 3029.23 64.46 11.00 166.60 3023.43
   08:36:03.887.03-Feb-2020 4013.71 3027.73 64.46 11.00 166.80 3023.43
   08:36:04.087.03-Feb-2020 4013.71 3026.59 64.46 11.00 167.00 3023.43
   08:36:04.287.03-Feb-2020 4013.71 3026.59 64.46 11.00 167.20 3023.43
   08:36:04.487.03-Feb-2020 4013.71 3025.16 64.46 11.00 167.40 3023.43
   08:36:04.687.03-Feb-2020 4013.71 3026.12 64.46 11.00 167.60 3023.43
   08:36:04.887.03-Feb-2020 4013.71 3025.83 64.46 11.00 167.80 3023.43
   08:36:05.087.03-Feb-2020 4013.71 3026.09 64.46 11.00 168.00 3023.43
   08:36:05.287.03-Feb-2020 4013.71 3026.09 64.46 11.00 168.20 3023.43
   08:36:05.487.03-Feb-2020 4013.71 3023.74 64.46 11.00 168.40 3023.43
   08:36:05.687.03-Feb-2020 4013.71 3022.30 64.46 11.00 168.60 3023.43
   08:36:05.887.03-Feb-2020 4013.71 3025.01 64.46 11.00 168.80 3023.43
   08:36:06.087.03-Feb-2020 4013.71 3022.76 64.46 11.00 169.00 3023.43
   08:36:06.287.03-Feb-2020 4013.71 3022.76 64.46 11.00 169.20 3023.43
   08:36:06.487.03-Feb-2020 4013.71 3022.49 64.46 11.00 169.40 3023.43
   08:36:06.687.03-Feb-2020 4013.71 3021.11 64.46 11.00 169.60 3023.43
   08:36:06.887.03-Feb-2020 4013.71 3020.73 64.46 11.00 169.80 3023.43
   08:36:07.087.03-Feb-2020 4013.71 3020.94 64.46 11.00 170.00 3023.43
   08:36:07.287.03-Feb-2020 4013.71 3020.94 64.46 11.00 170.20 3023.43
   08:36:07.487.03-Feb-2020 4013.71 3021.92 64.46 11.00 170.40 3023.43
   08:36:07.687.03-Feb-2020 4013.71 3020.72 64.46 11.00 170.60 3023.43
   08:36:07.887.03-Feb-2020 4013.71 3018.35 64.46 11.00 170.80 3023.43
   08:36:08.087.03-Feb-2020 4013.71 3021.90 64.46 11.00 171.00 3023.43
   08:36:08.287.03-Feb-2020 4013.71 3021.90 64.46 11.00 171.20 3023.43
   08:36:08.487.03-Feb-2020 4013.71 3019.24 64.46 11.00 171.40 3023.43
   08:36:08.687.03-Feb-2020 4013.71 3020.14 64.46 11.00 171.60 3023.43
   08:36:08.887.03-Feb-2020 4013.71 3020.85 64.46 11.00 171.80 3023.43
   08:36:09.087.03-Feb-2020 4013.71 3019.26 64.46 11.00 172.00 3023.43
   08:36:09.287.03-Feb-2020 4013.71 3019.26 64.46 11.00 172.20 3023.43
   08:36:09.487.03-Feb-2020 4013.71 3018.73 64.46 11.00 172.40 3023.43
   08:36:09.687.03-Feb-2020 4013.71 3019.83 64.46 11.00 172.60 3023.43
   08:36:09.887.03-Feb-2020 4013.71 3020.00 64.46 11.00 172.80 3023.43
   08:36:10.087.03-Feb-2020 4013.71 3019.79 64.46 11.00 173.00 3023.43
   08:36:10.287.03-Feb-2020 4013.71 3019.79 64.46 11.00 173.20 3023.43
   08:36:10.487.03-Feb-2020 4013.71 3018.34 64.46 11.00 173.40 3023.43
   08:36:10.687.03-Feb-2020 4013.71 3017.36 64.46 11.00 173.60 3023.43
   08:36:10.887.03-Feb-2020 4013.71 3017.55 64.46 11.00 173.80 3023.43
   08:36:11.087.03-Feb-2020 4013.71 3018.87 64.46 11.00 174.00 3023.43
   08:36:11.287.03-Feb-2020 4013.71 3018.87 64.46 11.00 174.20 3023.43
   08:36:11.487.03-Feb-2020 4013.71 3126.07 64.46 11.00 174.40 3023.43
   08:36:11.687.03-Feb-2020 4013.71 3127.98 64.46 11.00 174.60 3023.43
   08:36:11.887.03-Feb-2020 4013.71 3128.64 64.46 11.00 174.80 3023.43
   08:36:12.087.03-Feb-2020 4013.71 3128.89 64.46 11.00 175.00 3023.43
   08:36:12.287.03-Feb-2020 4013.71 3128.89 64.46 11.00 175.20 3023.43
   08:36:12.487.03-Feb-2020 4013.71 3129.38 64.46 11.00 175.40 3023.43
   08:36:12.687.03-Feb-2020 4013.71 3129.60 64.46 11.00 175.60 3023.43
   08:36:12.887.03-Feb-2020 4013.71 3129.76 64.46 11.00 175.80 3023.43
   08:36:13.087.03-Feb-2020 4013.71 3129.88 64.46 11.00 176.00 3023.43
   08:36:13.287.03-Feb-2020 4013.71 3129.88 64.46 11.00 176.20 3023.43
   08:36:13.487.03-Feb-2020 4013.71 3130.08 64.46 11.00 176.40 3023.43
   08:36:13.688.03-Feb-2020 4013.71 3129.96 64.46 11.00 176.60 3023.43
   08:36:13.888.03-Feb-2020 4013.71 3130.44 64.46 11.00 176.80 3023.43
   08:36:14.088.03-Feb-2020 4013.71 3130.26 64.46 11.00 177.00 3023.43
   08:36:14.288.03-Feb-2020 4013.71 3130.26 64.46 11.00 177.20 3023.43
   08:36:14.488.03-Feb-2020 4013.71 3130.49 64.46 11.00 177.40 3023.43
   08:36:14.688.03-Feb-2020 4013.71 3130.52 64.46 11.00 177.60 3023.43
   08:36:14.888.03-Feb-2020 4013.71 3130.51 64.46 11.00 177.80 3023.43
   08:36:15.088.03-Feb-2020 4013.71 3130.60 64.46 11.00 178.00 3023.43
   08:36:15.288.03-Feb-2020 4013.71 3130.60 64.46 11.00 178.20 3023.43
   08:36:15.488.03-Feb-2020 4013.71 3130.76 64.46 11.00 178.40 3023.43
   08:36:15.688.03-Feb-2020 4013.71 3130.74 64.46 11.00 178.60 3023.43
   08:36:15.888.03-Feb-2020 4013.71 3130.77 64.46 11.00 178.80 3023.43
   08:36:16.088.03-Feb-2020 4013.71 3130.79 64.46 11.00 179.00 3023.43
   08:36:16.288.03-Feb-2020 4013.71 3130.79 64.46 11.00 179.20 3023.43
   08:36:16.488.03-Feb-2020 4013.71 3130.55 64.46 11.00 179.40 3023.43
   08:36:16.688.03-Feb-2020 4013.71 3131.09 64.46 11.00 179.60 3023.43
   08:36:16.888.03-Feb-2020 4013.71 3130.90 64.46 11.00 179.80 3023.43
   08:36:17.088.03-Feb-2020 4013.71 3130.99 64.46 11.00 180.00 3023.43
   08:36:17.288.03-Feb-2020 4013.71 3130.99 64.46 11.00 180.20 3023.43
   08:36:17.488.03-Feb-2020 4013.71 3131.15 64.46 11.00 180.40 3023.43
   08:36:17.688.03-Feb-2020 4013.71 3130.88 64.46 11.00 180.61 3023.43
