~Version Information
 VERS.                  2.0:   CWLS log ASCII Standard -VERSION 2.0
 WRAP.                   NO:   One line per depth step
~Well Information Block
#MNEM.UNIT     VALUE/NAME     DESCRIPTION
#---------     -----------    ---------------------------
 STRT.S             02:50:23 03-Feb-20: START TIME 02:50:23 03-Feb-20
 STOP.S             02:58:14 03-Feb-20: STOP TIME  02:58:14 03-Feb-20
 STEP.S                   0.00: STEP TIME
 NULL.                 -999.25: NULL VALUE
 DFWT.                        :  DIST FWL TEXT
 DFST.                        :  DIST FSL TEXT
 DMF .             Drill Floor:  DRILL MEAS FROM
 STIM.      09.30.00 26-Dec-19:  START TIME
 DATE.      08.00.00 20-Jan-20:  END TIME
 SPUD.               23-Nov-19:  SPUD DATE
 NREF.                    Grid:  NORTH REFERENCE
 HPTY.       Minimum Curvature:  HOLE POS TYPE
 DMOD.             Drill Model:  DRILL MOD DESC
 SVYD.                  Survey:  SURVEY DESC
 ILTD.               Lithology:  INTERP LTH DESC
 FTOP.          Formation Tops:  FORM TOPS DESC
 SON .        AZ-XX-0906192647:  JOB NUMBER
 WTYP.                Deviated:  WELL TYPE
 COMP.     BP Exploration (Caspian Sea) Ltd:  COMPANY
 BASE.              Azerbaijan:  LOGGING EQUIPMENT BASE LOCATION
 REGN.                 Eurasia:  REGION
 FLD .                     ACG:  FIELD NAME
 SRVC.              KCA Deutag:  CONTRACTOR
 MWDS.                    Baku:  MWD SHOP
 WELL.     A10 (Slot 20) - SCP:  WELL NAME
 JOBN.        AZ-XX-0906192647:  JOB TICKET NUMB
 RIG .                 Chirag1:  RIG NAME
 DCON.     Halliburton Sperry Drilling:  DIRECTNL CONTR
 UNIT.                     N/A:  LOGGING EQUIPMENT ID
 PDAT.          Mean Sea Level:  PERMANENT DATUM
 MDS .        Operator Entered:  MAG DATA SOURCE
 CTRY.              Azerbaijan:  COUNTRY NAME
 UWI .            /AZE00000090:  UNIQUE WELL IDENTIFIER
 API .            /AZE00000090:  API NUMBER
 CNTY.                        :  COUNTY
 PROV.                        :  PROVINCE
 STAT.                        :  STATE
 LOC .                        :  LOCATION
 LMF .             Drill Floor:  LOG MEASURED FROM
 TVDS.m                  36.60:  TVDSS CORRECTN
 LATI.deg                40.08:  LATITUDE
 LONG.deg                51.24:  LONGITUDE
 WHNS.m                  -7.94:  WELL HEAD N/S
 WHEW.m                   1.56:  WELL HEAD E/W
 UTMX.m              520429.26:  UTM X
 UTMY.m             4438973.87:  UTM Y
 DFWL.m                   0.00:  DISTANCE FWL
 DFSL.m                   0.00:  DISTANCE FSL
 SDEP.m                1455.00:  START DEPTH
 TDD .m                4047.51:  TOTAL DEPTH (DRILLER)
 VSDR.deg               112.75:  VERT SEC DIRECT
 GVFD.g                   1.00:  GRAVITY FIELD
 MFLD.nT              50261.00:  MAGNETIC FIELD
 MDIP.deg                59.52:  MAGNETIC DIP
 MDEC.deg                 6.42:  MAGNETIC DECL
 GRDC.deg                 0.17:  GRID CORRECTION
 AZTC.deg                 6.25:  AZM TOTAL CORR
 EPD .m                   0.00:  ELEVATION
 EGL .m                   0.00:  GROUND ELEVATION
 WDMS.m                 121.00:  WD ELEV
 APD .m                  36.60:  DEPTH ABOVE PD
 AGAP.m                  36.60:  AIR GAP
 VSEW.m                   1.56:  VERT SEC E/W
 VSNS.m                  -7.94:  VERT SEC N/S
 DEP .m                1140.01:  DEPTH
 EKB .m                  36.60:  KB ELEVATION
 EDF .m                  36.60:  DF ELEVATION
 VSC .                       0:  VS TO CLOSURE
 MAGU.                 1849206:  MAGUTM CHECKSUM
~Parameter Information Block
#MNEM.UNIT       Value        Description
#---------     -----------    ---------------------------
 AV  .mps                 1.70:  Ann Velocity 
 AVMX.mps                 2.30:  Max Ann Veloc 
 AZIF.deg               137.03:  Azm, Final 
 BHAT.                   Other:  BHA Type 
 BROT.°/30m               0.80:  Build Rotating 
 BS  .in                  8.00:  Bit Size 
 BTPL.psig              161.00:  Bit Press Loss 
 CABU.                      No:  Customer Abuse 
 COMM.                     ´Î`:  Run Comments 1 
 TCS .hr                  9.59:  Time Ciculation Ended 
 CV  .mps                 3.76:  Crit Velocity 
 CVMX.mps                 4.26:  Max Crit Veloc 
 DD1 .         Intigam Rahimov:  Direct Drillr 1 
 DD2 .          Rashad Gojayev:  Direct Drillr 2 
 DDSV.                   Other:  DD Service 
 DEFF.%                 100.00:  % Det Eff 
 DLRX.°/30m               1.44:  Dogleg Rot Max 
 DLSO.°/30m               0.00:  Dogleg Oriented 
 DLSX.°/30m               0.00:  Dogleg Str Max 
 DRET.      03.31.12 02-Feb-20:  Drill End Time 
 DRST.      03.31.12 02-Feb-20:  Drill Start Tim 
 DTIM.hr                  1.99:  Time Drilling 
 EDEP.m                4047.51:  End Depth 
 ENG1.           Eldar Hajiyev:  Engineer 1 
 ENG2.          Rasim Hashimov:  Engineer 2 
 ENG3.          Rustam Safarov:  Engineer 3 
 ETIM.      03.31.12 02-Feb-20:  End Time 
 FLOI.gpm               300.00:  Flow In 
 FLON.gpm               250.00:  Flow In Min 
 FLOS.cptm                0.00:  Fluid Loss 
 FLOX.gpm               330.00:  Flow In Max 
 HFLO.                      No:  High Flow 
 HPRE.                      No:  High Pressure 
 HTEM.                      No:  High Temp 
 HYDO.m                   2.50:  Hydro Offset 
 IFIN.deg                39.54:  Inc, Final 
 IMAX.deg                41.14:  Inc Max 
 IMIN.deg                39.81:  Inc Min 
 IMND.m                4005.21:  Inc Min Depth 
 IMXD.m                3948.42:  Inc Max Depth 
 JARR.                      No:  Jarring 
 LETM.      03.31.12 02-Feb-20:  Log End Time 
 LOST.hr                     0:  Lost Rig Time 
 LSTM.      03.31.12 02-Feb-20:  Log Start Time 
 MDCL.ppm             35000.00:  Mud Chlorides 
 MDES.     Inversion Oil/Synthetic:  Mud Desc 
 DFD .sg                  1.32:  Mud Density 
 MDMN.sg                  1.32:  Dens Mud Min 
 MDMX.sg                  1.32:  Dens Mud Max 
 MOIL.                      59:  Run Mud Oil % 
 MOWR.                   71:29:  Run Mud OWR 
 MSND.                       0:  Run Mud Sand % 
 MSOL.                      17:  Run Mud Solids% 
 DFV .spqt               86.00:  Mud Viscosity 
 MWOD.in                  4.75:  MWD Tool OD 
 MWSI.                      No:  Serv Intrp, MWD 
 OTIM.hr                 46.72:  Time Operating 
 PCON.           Look Like New:  Pad Condition 
 PMAX.psia             3300.00:  Press Op, Max 
 PV  .cP                 30.00:  Mud PV 
 RUN .                     400:  Run Number 
 ROPA.m/hr               35.00:  ROP Avg 
 ROPN.m/hr               25.00:  ROP Min 
 ROPX.m/hr               40.00:  ROP Max 
 RPMA.rpm                80.00:  RPM Surface Avg 
 RPMN.rpm                60.00:  RPM Surface Min 
 RPMX.rpm               100.00:  RPM Surface Max 
 RRUN.                     400:  Rig Run Number 
 RTIM.hr                  1.99:  Time Reaming 
 SAZI.deg               133.93:  Azm, Start 
 SDEP.m                4047.51:  Start Depth 
 SIDD.                      No:  Serv Intrp, DD 
 SINC.deg                40.28:  Inc, Start 
 SPPA.psig             3250.00:  SPP Avg 
 SPPN.psig             3200.00:  SPP Min 
 SPPX.psig             3300.00:  SPP Max 
 STIM.      03.31.12 02-Feb-20:  Start Time 
 SVCS.                 DD, MWD:  Services 
 SVER.                    9.20:  Sperry Version 
 TDAT.m                  47.00:  Tot Depth Attmp 
 TDDF.                      No:  Trip for DD 
 TFF .                      No:  Trip for Fail 
 TQAA.f-kp                0.00:  Torque Abs Avg 
 TQAN.f-kp                0.00:  Torque Abs Min 
 TQAX.f-kp                0.00:  Torque Abs Max 
 TRRT.°/30m               0.70:  Turn Rotating 
 MRT .                    HCIM:  Maximum Recorded Temperature 
 TTMX.degC               70.59:  Max Tool Temp 
 VS01.             90598770F11:  Virtual Str1 SN 
 VS02.             90598769F11:  Virtual Str2 SN 
 VS03.            90515978Z1W1:  Virtual Str3 SN 
 VS04.          90584144R12X14:  Virtual Str4 SN 
 WBMN.klb                 0.00:  WOB Min 
 WITN.            Peter Wilson:  Customer Rep 
 WOBA.klb                 0.00:  WOB Avg 
 WOBX.klb                 0.00:  WOB Max 
 YP  .lhf2               29.00:  Yield Point 
~Curve Information Block
#MNEM.UNIT                 API CODE     Curve Description
#---------               -----------    ---------------------------
 TIME.HHMMSS            00 000 000 000:  GT Time & Date
 GTDEPTH.m              00 000 000 000:  GT Depth
 GTPQH.psia             00 000 000 000:  GT HR Quartz Pressure
 GTTQ.degC              00 000 000 000:  GT Quartz Temperature
 GTTN.NONE              00 000 000 000:  GT Test Number
 GTET.sec               00 000 000 000:  GT Elapsed Test Time
 GTTVD.m                00 000 000 000:  GT True Vertical Depth
#Other Information
#
#WARRANTY: Halliburton will use its best efforts to furnish customers with 
#accurate information and interpretations that are part of, and incident to, the services 
#provided.  However, Halliburton cannot and does not warrant the accuracy 
#or correctness of such information and interpretations.  Under no circumstances should any 
#such information or interpretation be relied upon as the sole basis for any drilling, 
#completion, production, or financial decision or any procedure involving any risk to the 
#safety of any drilling venture, drilling rig or its crew or any other third party.  The 
#Customer has full responsibility for all drilling, completion and production operation.  
#Halliburton makes no representations or warranties, either expressed or 
#implied, including, but not limited to, the implied warranties of merchantability or fitness 
#for a particular purpose, with respect to the services rendered.  In no event will 
#Halliburton be liable for failure to obtain any particular results or for 
#any damages, including, but not limited to, indirect, special or consequential damages, 
#resulting from the use of any information or interpretation provided by Halliburton.
#
~A           TIME           GTDEPTH  GTPQH  GTTQ  GTTN  GTET   GTTVD  
# ...
   02:57:40.867.03-Feb-2020 4022.51 3159.24 64.16 1.00 437.09 3030.18
   02:57:41.067.03-Feb-2020 4022.51 3159.24 64.16 1.00 437.29 3030.18
   02:57:41.267.03-Feb-2020 4022.51 3159.64 64.16 1.00 437.49 3030.18
   02:57:41.467.03-Feb-2020 4022.51 3158.88 64.16 1.00 437.69 3030.18
   02:57:41.667.03-Feb-2020 4022.51 3173.17 64.16 1.00 437.89 3030.18
   02:57:41.867.03-Feb-2020 4022.51 3759.99 64.16 1.00 438.09 3030.18
   02:57:42.067.03-Feb-2020 4022.51 3759.99 64.16 1.00 438.29 3030.18
   02:57:42.267.03-Feb-2020 4022.51 6109.80 64.16 1.00 438.49 3030.18
   02:57:42.467.03-Feb-2020 4022.51 6108.81 64.16 1.00 438.69 3030.18
   02:57:42.667.03-Feb-2020 4022.51 6108.16 64.16 1.00 438.89 3030.18
   02:57:42.867.03-Feb-2020 4022.51 6111.17 64.16 1.00 439.09 3030.18
   02:57:43.067.03-Feb-2020 4022.51 6111.17 64.16 1.00 439.29 3030.18
   02:57:43.267.03-Feb-2020 4022.51 6112.86 64.16 1.00 439.49 3030.18
   02:57:43.467.03-Feb-2020 4022.51 6113.71 64.16 1.00 439.69 3030.18
   02:57:43.667.03-Feb-2020 4022.51 6115.36 64.16 1.00 439.89 3030.18
   02:57:43.867.03-Feb-2020 4022.51 6114.14 64.16 1.00 440.09 3030.18
   02:57:44.067.03-Feb-2020 4022.51 6114.14 64.16 1.00 440.29 3030.18
   02:57:44.267.03-Feb-2020 4022.51 6117.75 64.16 1.00 440.49 3030.18
   02:57:44.467.03-Feb-2020 4022.51 6107.71 64.16 1.00 440.69 3030.18
   02:57:44.667.03-Feb-2020 4022.51 6117.35 64.16 1.00 440.89 3030.18
   02:57:44.867.03-Feb-2020 4022.51 6115.50 64.16 1.00 441.09 3030.18
   02:57:45.067.03-Feb-2020 4022.51 6115.50 64.16 1.00 441.29 3030.18
   02:57:45.268.03-Feb-2020 4022.51 6117.56 64.17 1.00 441.49 3030.18
   02:57:45.468.03-Feb-2020 4022.51 6118.87 64.17 1.00 441.69 3030.18
   02:57:45.668.03-Feb-2020 4022.51 6118.84 64.17 1.00 441.89 3030.18
   02:57:45.868.03-Feb-2020 4022.51 6119.33 64.17 1.00 442.09 3030.18
   02:57:46.068.03-Feb-2020 4022.51 6119.33 64.17 1.00 442.29 3030.18
   02:57:46.268.03-Feb-2020 4022.51 6119.31 64.17 1.00 442.49 3030.18
   02:57:46.468.03-Feb-2020 4022.51 6119.87 64.17 1.00 442.69 3030.18
   02:57:46.668.03-Feb-2020 4022.51 6120.16 64.17 1.00 442.89 3030.18
   02:57:46.868.03-Feb-2020 4022.51 6111.38 64.17 1.00 443.09 3030.18
   02:57:47.068.03-Feb-2020 4022.51 6111.38 64.17 1.00 443.29 3030.18
   02:57:47.268.03-Feb-2020 4022.51 6113.44 64.17 1.00 443.49 3030.18
   02:57:47.468.03-Feb-2020 4022.51 6120.59 64.17 1.00 443.69 3030.18
   02:57:47.668.03-Feb-2020 4022.51 6115.51 64.17 1.00 443.89 3030.18
   02:57:47.868.03-Feb-2020 4022.51 6114.24 64.17 1.00 444.09 3030.18
   02:57:48.068.03-Feb-2020 4022.51 6114.24 64.17 1.00 444.29 3030.18
   02:57:48.268.03-Feb-2020 4022.51 6119.88 64.18 1.00 444.49 3030.18
   02:57:48.468.03-Feb-2020 4022.51 6120.37 64.18 1.00 444.69 3030.18
   02:57:48.668.03-Feb-2020 4022.51 6120.12 64.18 1.00 444.89 3030.18
   02:57:48.868.03-Feb-2020 4022.51 6120.39 64.18 1.00 445.09 3030.18
   02:57:49.068.03-Feb-2020 4022.51 6120.39 64.18 1.00 445.29 3030.18
   02:57:49.268.03-Feb-2020 4022.51 6110.47 64.18 1.00 445.49 3030.18
   02:57:49.468.03-Feb-2020 4022.51 6121.46 64.18 1.00 445.69 3030.18
   02:57:49.668.03-Feb-2020 4022.51 6112.91 64.18 1.00 445.89 3030.18
   02:57:49.869.03-Feb-2020 4022.51 6121.25 64.18 1.00 446.09 3030.18
   02:57:50.069.03-Feb-2020 4022.51 6121.25 64.18 1.00 446.29 3030.18
   02:57:50.269.03-Feb-2020 4022.51 6120.99 64.18 1.00 446.49 3030.18
   02:57:50.469.03-Feb-2020 4022.51 6114.82 64.18 1.00 446.69 3030.18
   02:57:50.669.03-Feb-2020 4022.51 6114.80 64.18 1.00 446.89 3030.18
   02:57:50.869.03-Feb-2020 4022.51 6116.16 64.18 1.00 447.09 3030.18
   02:57:51.069.03-Feb-2020 4022.51 6116.16 64.18 1.00 447.29 3030.18
   02:57:51.269.03-Feb-2020 4022.51 6118.37 64.18 1.00 447.49 3030.18
   02:57:51.469.03-Feb-2020 4022.51 6119.44 64.18 1.00 447.69 3030.18
   02:57:51.669.03-Feb-2020 4022.51 6118.86 64.18 1.00 447.89 3030.18
   02:57:51.869.03-Feb-2020 4022.51 6119.15 64.18 1.00 448.09 3030.18
   02:57:52.069.03-Feb-2020 4022.51 6119.15 64.18 1.00 448.29 3030.18
   02:57:52.269.03-Feb-2020 4022.51 6119.34 64.18 1.00 448.49 3030.18
   02:57:52.469.03-Feb-2020 4022.51 6120.16 64.19 1.00 448.69 3030.18
   02:57:52.669.03-Feb-2020 4022.51 6119.49 64.19 1.00 448.89 3030.18
   02:57:52.869.03-Feb-2020 4022.51 6120.09 64.19 1.00 449.09 3030.18
   02:57:53.069.03-Feb-2020 4022.51 6120.09 64.19 1.00 449.29 3030.18
   02:57:53.269.03-Feb-2020 4022.51 6117.83 64.19 1.00 449.49 3030.18
   02:57:53.469.03-Feb-2020 4022.51 6120.07 64.19 1.00 449.69 3030.18
   02:57:53.669.03-Feb-2020 4022.51 6120.52 64.19 1.00 449.89 3030.18
   02:57:53.869.03-Feb-2020 4022.51 6109.16 64.19 1.00 450.09 3030.18
   02:57:54.069.03-Feb-2020 4022.51 6109.16 64.19 1.00 450.29 3030.18
   02:57:54.269.03-Feb-2020 4022.51 6116.02 64.19 1.00 450.49 3030.18
   02:57:54.469.03-Feb-2020 4022.51 6117.79 64.19 1.00 450.69 3030.18
   02:57:54.670.03-Feb-2020 4022.51 6118.00 64.19 1.00 450.89 3030.18
   02:57:54.870.03-Feb-2020 4022.51 6118.52 64.19 1.00 451.09 3030.18
   02:57:55.070.03-Feb-2020 4022.51 6118.52 64.19 1.00 451.29 3030.18
   02:57:55.270.03-Feb-2020 4022.51 6119.46 64.19 1.00 451.49 3030.18
   02:57:55.470.03-Feb-2020 4022.51 6119.48 64.19 1.00 451.69 3030.18
   02:57:55.670.03-Feb-2020 4022.51 6119.09 64.19 1.00 451.89 3030.18
   02:57:55.870.03-Feb-2020 4022.51 6119.85 64.19 1.00 452.09 3030.18
   02:57:56.070.03-Feb-2020 4022.51 6119.85 64.19 1.00 452.29 3030.18
   02:57:56.270.03-Feb-2020 4022.51 6119.84 64.19 1.00 452.49 3030.18
   02:57:56.470.03-Feb-2020 4022.51 6116.61 64.19 1.00 452.69 3030.18
   02:57:56.670.03-Feb-2020 4022.51 6113.23 64.19 1.00 452.89 3030.18
   02:57:56.870.03-Feb-2020 4022.51 6116.02 64.19 1.00 453.09 3030.18
   02:57:57.070.03-Feb-2020 4022.51 6116.02 64.19 1.00 453.29 3030.18
   02:57:57.270.03-Feb-2020 4022.51 6117.71 64.19 1.00 453.49 3030.18
   02:57:57.470.03-Feb-2020 4022.51 6118.57 64.19 1.00 453.70 3030.18
   02:57:57.670.03-Feb-2020 4022.51 6120.24 64.19 1.00 453.90 3030.18
   02:57:57.870.03-Feb-2020 4022.51 6116.25 64.19 1.00 454.10 3030.18
   02:57:58.070.03-Feb-2020 4022.51 6116.25 64.19 1.00 454.30 3030.18
   02:57:58.270.03-Feb-2020 4022.51 6114.66 64.19 1.00 454.50 3030.18
   02:57:58.470.03-Feb-2020 4022.51 6116.71 64.19 1.00 454.70 3030.18
   02:57:58.670.03-Feb-2020 4022.51 6117.54 64.19 1.00 454.90 3030.18
   02:57:58.870.03-Feb-2020 4022.51 6119.20 64.19 1.00 455.10 3030.18
   02:57:59.070.03-Feb-2020 4022.51 6119.20 64.19 1.00 455.30 3030.18
   02:57:59.270.03-Feb-2020 4022.51 6108.84 64.19 1.00 455.50 3030.18
   02:57:59.471.03-Feb-2020 4022.51 6120.13 64.19 1.00 455.70 3030.18
   02:57:59.671.03-Feb-2020 4022.51 6113.98 64.19 1.00 455.90 3030.18
   02:57:59.871.03-Feb-2020 4022.51 6119.33 64.19 1.00 456.10 3030.18
   02:58:00.071.03-Feb-2020 4022.51 6119.33 64.19 1.00 456.30 3030.18
   02:58:00.271.03-Feb-2020 4022.51 6118.34 64.19 1.00 456.50 3030.18
   02:58:00.471.03-Feb-2020 4022.51 6118.42 64.19 1.00 456.70 3030.18
   02:58:00.671.03-Feb-2020 4022.51 6116.06 64.19 1.00 456.90 3030.18
   02:58:00.871.03-Feb-2020 4022.51 6105.20 64.19 1.00 457.10 3030.18
   02:58:01.071.03-Feb-2020 4022.51 6105.20 64.19 1.00 457.30 3030.18
   02:58:01.271.03-Feb-2020 4022.51 6112.65 64.19 1.00 457.50 3030.18
   02:58:01.471.03-Feb-2020 4022.51 6117.75 64.19 1.00 457.70 3030.18
   02:58:01.671.03-Feb-2020 4022.51 6117.09 64.18 1.00 457.90 3030.18
   02:58:01.871.03-Feb-2020 4022.51 6117.42 64.18 1.00 458.10 3030.18
   02:58:02.071.03-Feb-2020 4022.51 6117.42 64.18 1.00 458.30 3030.18
   02:58:02.271.03-Feb-2020 4022.51 6119.63 64.18 1.00 458.50 3030.18
   02:58:02.471.03-Feb-2020 4022.51 6119.89 64.18 1.00 458.70 3030.18
   02:58:02.671.03-Feb-2020 4022.51 6118.90 64.18 1.00 458.90 3030.18
   02:58:02.871.03-Feb-2020 4022.51 6119.58 64.18 1.00 459.10 3030.18
   02:58:03.071.03-Feb-2020 4022.51 6119.58 64.18 1.00 459.30 3030.18
   02:58:03.271.03-Feb-2020 4022.51 6118.87 64.18 1.00 459.50 3030.18
   02:58:03.471.03-Feb-2020 4022.51 6118.58 64.18 1.00 459.70 3030.18
   02:58:03.671.03-Feb-2020 4022.51 6117.50 64.18 1.00 459.90 3030.18
