~Version Information
 VERS.                  2.0:   CWLS log ASCII Standard -VERSION 2.0
 WRAP.                   NO:   One line per depth step
~Well Information Block
#MNEM.UNIT     VALUE/NAME     DESCRIPTION
#---------     -----------    ---------------------------
 STRT.S             03:10:10 03-Feb-20: START TIME 03:10:10 03-Feb-20
 STOP.S             03:17:58 03-Feb-20: STOP TIME  03:17:58 03-Feb-20
 STEP.S                   0.00: STEP TIME
 NULL.                 -999.25: NULL VALUE
 DFWT.                        :  DIST FWL TEXT
 DFST.                        :  DIST FSL TEXT
 DMF .             Drill Floor:  DRILL MEAS FROM
 STIM.      09.30.00 26-Dec-19:  START TIME
 DATE.      08.00.00 20-Jan-20:  END TIME
 SPUD.               23-Nov-19:  SPUD DATE
 NREF.                    Grid:  NORTH REFERENCE
 HPTY.       Minimum Curvature:  HOLE POS TYPE
 DMOD.             Drill Model:  DRILL MOD DESC
 SVYD.                  Survey:  SURVEY DESC
 ILTD.               Lithology:  INTERP LTH DESC
 FTOP.          Formation Tops:  FORM TOPS DESC
 SON .        AZ-XX-0906192647:  JOB NUMBER
 WTYP.                Deviated:  WELL TYPE
 COMP.     BP Exploration (Caspian Sea) Ltd:  COMPANY
 BASE.              Azerbaijan:  LOGGING EQUIPMENT BASE LOCATION
 REGN.                 Eurasia:  REGION
 FLD .                     ACG:  FIELD NAME
 SRVC.              KCA Deutag:  CONTRACTOR
 MWDS.                    Baku:  MWD SHOP
 WELL.     A10 (Slot 20) - SCP:  WELL NAME
 JOBN.        AZ-XX-0906192647:  JOB TICKET NUMB
 RIG .                 Chirag1:  RIG NAME
 DCON.     Halliburton Sperry Drilling:  DIRECTNL CONTR
 UNIT.                     N/A:  LOGGING EQUIPMENT ID
 PDAT.          Mean Sea Level:  PERMANENT DATUM
 MDS .        Operator Entered:  MAG DATA SOURCE
 CTRY.              Azerbaijan:  COUNTRY NAME
 UWI .            /AZE00000090:  UNIQUE WELL IDENTIFIER
 API .            /AZE00000090:  API NUMBER
 CNTY.                        :  COUNTY
 PROV.                        :  PROVINCE
 STAT.                        :  STATE
 LOC .                        :  LOCATION
 LMF .             Drill Floor:  LOG MEASURED FROM
 TVDS.m                  36.60:  TVDSS CORRECTN
 LATI.deg                40.08:  LATITUDE
 LONG.deg                51.24:  LONGITUDE
 WHNS.m                  -7.94:  WELL HEAD N/S
 WHEW.m                   1.56:  WELL HEAD E/W
 UTMX.m              520429.26:  UTM X
 UTMY.m             4438973.87:  UTM Y
 DFWL.m                   0.00:  DISTANCE FWL
 DFSL.m                   0.00:  DISTANCE FSL
 SDEP.m                1455.00:  START DEPTH
 TDD .m                4047.51:  TOTAL DEPTH (DRILLER)
 VSDR.deg               112.75:  VERT SEC DIRECT
 GVFD.g                   1.00:  GRAVITY FIELD
 MFLD.nT              50261.00:  MAGNETIC FIELD
 MDIP.deg                59.52:  MAGNETIC DIP
 MDEC.deg                 6.42:  MAGNETIC DECL
 GRDC.deg                 0.17:  GRID CORRECTION
 AZTC.deg                 6.25:  AZM TOTAL CORR
 EPD .m                   0.00:  ELEVATION
 EGL .m                   0.00:  GROUND ELEVATION
 WDMS.m                 121.00:  WD ELEV
 APD .m                  36.60:  DEPTH ABOVE PD
 AGAP.m                  36.60:  AIR GAP
 VSEW.m                   1.56:  VERT SEC E/W
 VSNS.m                  -7.94:  VERT SEC N/S
 DEP .m                1140.01:  DEPTH
 EKB .m                  36.60:  KB ELEVATION
 EDF .m                  36.60:  DF ELEVATION
 VSC .                       0:  VS TO CLOSURE
 MAGU.                 1849206:  MAGUTM CHECKSUM
~Parameter Information Block
#MNEM.UNIT       Value        Description
#---------     -----------    ---------------------------
 AV  .mps                 1.70:  Ann Velocity 
 AVMX.mps                 2.30:  Max Ann Veloc 
 AZIF.deg               137.03:  Azm, Final 
 BHAT.                   Other:  BHA Type 
 BROT.°/30m               0.80:  Build Rotating 
 BS  .in                  8.00:  Bit Size 
 BTPL.psig              161.00:  Bit Press Loss 
 CABU.                      No:  Customer Abuse 
 TCS .hr                  9.59:  Time Ciculation Ended 
 CV  .mps                 3.76:  Crit Velocity 
 CVMX.mps                 4.26:  Max Crit Veloc 
 DD1 .         Intigam Rahimov:  Direct Drillr 1 
 DD2 .          Rashad Gojayev:  Direct Drillr 2 
 DDSV.                   Other:  DD Service 
 DEFF.%                 100.00:  % Det Eff 
 DLRX.°/30m               1.44:  Dogleg Rot Max 
 DLSO.°/30m               0.00:  Dogleg Oriented 
 DLSX.°/30m               0.00:  Dogleg Str Max 
 DRET.      03.31.12 02-Feb-20:  Drill End Time 
 DRST.      03.31.12 02-Feb-20:  Drill Start Tim 
 DTIM.hr                  1.99:  Time Drilling 
 EDEP.m                4047.51:  End Depth 
 ENG1.           Eldar Hajiyev:  Engineer 1 
 ENG2.          Rasim Hashimov:  Engineer 2 
 ENG3.          Rustam Safarov:  Engineer 3 
 ETIM.      03.31.12 02-Feb-20:  End Time 
 FLOI.gpm               300.00:  Flow In 
 FLON.gpm               250.00:  Flow In Min 
 FLOS.cptm                0.00:  Fluid Loss 
 FLOX.gpm               330.00:  Flow In Max 
 HFLO.                      No:  High Flow 
 HPRE.                      No:  High Pressure 
 HTEM.                      No:  High Temp 
 HYDO.m                   2.50:  Hydro Offset 
 IFIN.deg                39.54:  Inc, Final 
 IMAX.deg                41.14:  Inc Max 
 IMIN.deg                39.81:  Inc Min 
 IMND.m                4005.21:  Inc Min Depth 
 IMXD.m                3948.42:  Inc Max Depth 
 JARR.                      No:  Jarring 
 LETM.      03.31.12 02-Feb-20:  Log End Time 
 LOST.hr                     0:  Lost Rig Time 
 LSTM.      03.31.12 02-Feb-20:  Log Start Time 
 MDCL.ppm             35000.00:  Mud Chlorides 
 MDES.     Inversion Oil/Synthetic:  Mud Desc 
 DFD .sg                  1.32:  Mud Density 
 MDMN.sg                  1.32:  Dens Mud Min 
 MDMX.sg                  1.32:  Dens Mud Max 
 MOIL.                      59:  Run Mud Oil % 
 MOWR.                   71:29:  Run Mud OWR 
 MSND.                       0:  Run Mud Sand % 
 MSOL.                      17:  Run Mud Solids% 
 DFV .spqt               86.00:  Mud Viscosity 
 MWOD.in                  4.75:  MWD Tool OD 
 MWSI.                      No:  Serv Intrp, MWD 
 OTIM.hr                 46.72:  Time Operating 
 PCON.           Look Like New:  Pad Condition 
 PMAX.psia             3300.00:  Press Op, Max 
 PV  .cP                 30.00:  Mud PV 
 RUN .                     400:  Run Number 
 ROPA.m/hr               35.00:  ROP Avg 
 ROPN.m/hr               25.00:  ROP Min 
 ROPX.m/hr               40.00:  ROP Max 
 RPMA.rpm                80.00:  RPM Surface Avg 
 RPMN.rpm                60.00:  RPM Surface Min 
 RPMX.rpm               100.00:  RPM Surface Max 
 RRUN.                     400:  Rig Run Number 
 RTIM.hr                  1.99:  Time Reaming 
 SAZI.deg               133.93:  Azm, Start 
 SDEP.m                4047.51:  Start Depth 
 SIDD.                      No:  Serv Intrp, DD 
 SINC.deg                40.28:  Inc, Start 
 SPPA.psig             3250.00:  SPP Avg 
 SPPN.psig             3200.00:  SPP Min 
 SPPX.psig             3300.00:  SPP Max 
 STIM.      03.31.12 02-Feb-20:  Start Time 
 SVCS.                 DD, MWD:  Services 
 SVER.                    9.20:  Sperry Version 
 TDAT.m                  47.00:  Tot Depth Attmp 
 TDDF.                      No:  Trip for DD 
 TFF .                      No:  Trip for Fail 
 TQAA.f-kp                0.00:  Torque Abs Avg 
 TQAN.f-kp                0.00:  Torque Abs Min 
 TQAX.f-kp                0.00:  Torque Abs Max 
 TRRT.°/30m               0.70:  Turn Rotating 
 MRT .                    HCIM:  Maximum Recorded Temperature 
 TTMX.degC               70.59:  Max Tool Temp 
 VS01.             90598770F11:  Virtual Str1 SN 
 VS02.             90598769F11:  Virtual Str2 SN 
 VS03.            90515978Z1W1:  Virtual Str3 SN 
 VS04.          90584144R12X14:  Virtual Str4 SN 
 WBMN.klb                 0.00:  WOB Min 
 WITN.            Peter Wilson:  Customer Rep 
 WOBA.klb                 0.00:  WOB Avg 
 WOBX.klb                 0.00:  WOB Max 
 YP  .lhf2               29.00:  Yield Point 
~Curve Information Block
#MNEM.UNIT                 API CODE     Curve Description
#---------               -----------    ---------------------------
 TIME.HHMMSS            00 000 000 000:  GT Time & Date
 GTDEPTH.m              00 000 000 000:  GT Depth
 GTPQH.psia             00 000 000 000:  GT HR Quartz Pressure
 GTTQ.degC              00 000 000 000:  GT Quartz Temperature
 GTTN.NONE              00 000 000 000:  GT Test Number
 GTET.sec               00 000 000 000:  GT Elapsed Test Time
 GTTVD.m                00 000 000 000:  GT True Vertical Depth
#Other Information
#
#WARRANTY: Halliburton will use its best efforts to furnish customers with 
#accurate information and interpretations that are part of, and incident to, the services 
#provided.  However, Halliburton cannot and does not warrant the accuracy 
#or correctness of such information and interpretations.  Under no circumstances should any 
#such information or interpretation be relied upon as the sole basis for any drilling, 
#completion, production, or financial decision or any procedure involving any risk to the 
#safety of any drilling venture, drilling rig or its crew or any other third party.  The 
#Customer has full responsibility for all drilling, completion and production operation.  
#Halliburton makes no representations or warranties, either expressed or 
#implied, including, but not limited to, the implied warranties of merchantability or fitness 
#for a particular purpose, with respect to the services rendered.  In no event will 
#Halliburton be liable for failure to obtain any particular results or for 
#any damages, including, but not limited to, indirect, special or consequential damages, 
#resulting from the use of any information or interpretation provided by Halliburton.
#
~A           TIME           GTDEPTH  GTPQH  GTTQ  GTTN  GTET   GTTVD  
# ...
   03:12:28.052.03-Feb-2020 4017.01 3134.96 63.08 2.00 138.03 3025.96
   03:12:28.252.03-Feb-2020 4017.01 3134.96 63.08 2.00 138.23 3025.96
   03:12:28.453.03-Feb-2020 4017.01 3135.21 63.08 2.00 138.43 3025.96
   03:12:28.653.03-Feb-2020 4017.01 3135.63 63.08 2.00 138.63 3025.96
   03:12:28.853.03-Feb-2020 4017.01 3135.28 63.08 2.00 138.83 3025.96
   03:12:29.053.03-Feb-2020 4017.01 3135.59 63.08 2.00 139.03 3025.96
   03:12:29.253.03-Feb-2020 4017.01 3135.59 63.08 2.00 139.23 3025.96
   03:12:29.453.03-Feb-2020 4017.01 3135.57 63.08 2.00 139.43 3025.96
   03:12:29.653.03-Feb-2020 4017.01 3135.31 63.08 2.00 139.63 3025.96
   03:12:29.853.03-Feb-2020 4017.01 3135.56 63.08 2.00 139.83 3025.96
   03:12:30.053.03-Feb-2020 4017.01 3135.47 63.08 2.00 140.03 3025.96
   03:12:30.253.03-Feb-2020 4017.01 3135.47 63.08 2.00 140.23 3025.96
   03:12:30.453.03-Feb-2020 4017.01 3135.47 63.08 2.00 140.43 3025.96
   03:12:30.653.03-Feb-2020 4017.01 3135.43 63.08 2.00 140.63 3025.96
   03:12:30.853.03-Feb-2020 4017.01 3135.38 63.08 2.00 140.83 3025.96
   03:12:31.053.03-Feb-2020 4017.01 3135.55 63.08 2.00 141.03 3025.96
   03:12:31.253.03-Feb-2020 4017.01 3135.55 63.08 2.00 141.23 3025.96
   03:12:31.453.03-Feb-2020 4017.01 3135.45 63.08 2.00 141.43 3025.96
   03:12:31.653.03-Feb-2020 4017.01 3135.43 63.08 2.00 141.63 3025.96
   03:12:31.853.03-Feb-2020 4017.01 3135.52 63.08 2.00 141.83 3025.96
   03:12:32.053.03-Feb-2020 4017.01 3135.51 63.08 2.00 142.03 3025.96
   03:12:32.253.03-Feb-2020 4017.01 3135.51 63.08 2.00 142.23 3025.96
   03:12:32.453.03-Feb-2020 4017.01 3135.63 63.08 2.00 142.43 3025.96
   03:12:32.653.03-Feb-2020 4017.01 3135.38 63.08 2.00 142.63 3025.96
   03:12:32.853.03-Feb-2020 4017.01 3135.54 63.08 2.00 142.83 3025.96
   03:12:33.053.03-Feb-2020 4017.01 3135.45 63.08 2.00 143.03 3025.96
   03:12:33.254.03-Feb-2020 4017.01 3135.45 63.08 2.00 143.23 3025.96
   03:12:33.454.03-Feb-2020 4017.01 3135.45 63.08 2.00 143.43 3025.96
   03:12:33.654.03-Feb-2020 4017.01 3135.41 63.08 2.00 143.63 3025.96
   03:12:33.854.03-Feb-2020 4017.01 3135.49 63.08 2.00 143.83 3025.96
   03:12:34.054.03-Feb-2020 4017.01 3135.50 63.08 2.00 144.03 3025.96
   03:12:34.254.03-Feb-2020 4017.01 3135.50 63.08 2.00 144.23 3025.96
   03:12:34.454.03-Feb-2020 4017.01 3135.45 63.08 2.00 144.43 3025.96
   03:12:34.654.03-Feb-2020 4017.01 3135.27 63.08 2.00 144.63 3025.96
   03:12:34.854.03-Feb-2020 4017.01 3135.50 63.08 2.00 144.83 3025.96
   03:12:35.054.03-Feb-2020 4017.01 3135.23 63.08 2.00 145.03 3025.96
   03:12:35.254.03-Feb-2020 4017.01 3135.23 63.08 2.00 145.23 3025.96
   03:12:35.454.03-Feb-2020 4017.01 3135.42 63.08 2.00 145.43 3025.96
   03:12:35.654.03-Feb-2020 4017.01 3135.50 63.08 2.00 145.63 3025.96
   03:12:35.854.03-Feb-2020 4017.01 3134.98 63.08 2.00 145.83 3025.96
   03:12:36.054.03-Feb-2020 4017.01 3135.82 63.08 2.00 146.03 3025.96
   03:12:36.254.03-Feb-2020 4017.01 3135.82 63.08 2.00 146.23 3025.96
   03:12:36.454.03-Feb-2020 4017.01 3135.58 63.08 2.00 146.43 3025.96
   03:12:36.654.03-Feb-2020 4017.01 3135.42 63.08 2.00 146.63 3025.96
   03:12:36.854.03-Feb-2020 4017.01 3135.55 63.08 2.00 146.83 3025.96
   03:12:37.054.03-Feb-2020 4017.01 3135.01 63.08 2.00 147.03 3025.96
   03:12:37.254.03-Feb-2020 4017.01 3135.01 63.08 2.00 147.23 3025.96
   03:12:37.454.03-Feb-2020 4017.01 3135.40 63.08 2.00 147.43 3025.96
   03:12:37.654.03-Feb-2020 4017.01 3135.58 63.07 2.00 147.63 3025.96
   03:12:37.854.03-Feb-2020 4017.01 3135.02 63.07 2.00 147.83 3025.96
   03:12:38.055.03-Feb-2020 4017.01 3135.85 63.07 2.00 148.03 3025.96
   03:12:38.255.03-Feb-2020 4017.01 3135.85 63.07 2.00 148.23 3025.96
   03:12:38.455.03-Feb-2020 4017.01 3135.55 63.07 2.00 148.43 3025.96
   03:12:38.655.03-Feb-2020 4017.01 3135.40 63.07 2.00 148.63 3025.96
   03:12:38.855.03-Feb-2020 4017.01 3135.53 63.07 2.00 148.83 3025.96
   03:12:39.055.03-Feb-2020 4017.01 3135.47 63.07 2.00 149.03 3025.96
   03:12:39.255.03-Feb-2020 4017.01 3135.47 63.07 2.00 149.23 3025.96
   03:12:39.455.03-Feb-2020 4017.01 3135.42 63.07 2.00 149.43 3025.96
   03:12:39.655.03-Feb-2020 4017.01 3135.43 63.07 2.00 149.63 3025.96
   03:12:39.855.03-Feb-2020 4017.01 3135.46 63.07 2.00 149.83 3025.96
   03:12:40.055.03-Feb-2020 4017.01 3135.49 63.07 2.00 150.03 3025.96
   03:12:40.255.03-Feb-2020 4017.01 3135.49 63.07 2.00 150.23 3025.96
   03:12:40.455.03-Feb-2020 4017.01 3135.46 63.07 2.00 150.43 3025.96
   03:12:40.655.03-Feb-2020 4017.01 3135.40 63.07 2.00 150.63 3025.96
   03:12:40.855.03-Feb-2020 4017.01 3135.57 63.07 2.00 150.83 3025.96
   03:12:41.055.03-Feb-2020 4017.01 3135.51 63.07 2.00 151.03 3025.96
   03:12:41.255.03-Feb-2020 4017.01 3135.51 63.07 2.00 151.23 3025.96
   03:12:41.455.03-Feb-2020 4017.01 3135.35 63.07 2.00 151.43 3025.96
   03:12:41.655.03-Feb-2020 4017.01 3135.56 63.07 2.00 151.63 3025.96
   03:12:41.855.03-Feb-2020 4017.01 3135.44 63.07 2.00 151.83 3025.96
   03:12:42.055.03-Feb-2020 4017.01 3135.51 63.07 2.00 152.03 3025.96
   03:12:42.255.03-Feb-2020 4017.01 3135.51 63.07 2.00 152.23 3025.96
   03:12:42.455.03-Feb-2020 4017.01 3135.44 63.07 2.00 152.43 3025.96
   03:12:42.655.03-Feb-2020 4017.01 3135.45 63.07 2.00 152.63 3025.96
   03:12:42.856.03-Feb-2020 4017.01 3135.51 63.07 2.00 152.83 3025.96
   03:12:43.056.03-Feb-2020 4017.01 3135.48 63.07 2.00 153.03 3025.96
   03:12:43.256.03-Feb-2020 4017.01 3135.48 63.07 2.00 153.23 3025.96
   03:12:43.456.03-Feb-2020 4017.01 3135.47 63.07 2.00 153.43 3025.96
   03:12:43.656.03-Feb-2020 4017.01 3134.99 63.07 2.00 153.63 3025.96
   03:12:43.856.03-Feb-2020 4017.01 3135.78 63.07 2.00 153.83 3025.96
   03:12:44.056.03-Feb-2020 4017.01 3135.33 63.07 2.00 154.03 3025.96
   03:12:44.256.03-Feb-2020 4017.01 3135.33 63.07 2.00 154.23 3025.96
   03:12:44.456.03-Feb-2020 4017.01 3135.67 63.07 2.00 154.43 3025.96
   03:12:44.656.03-Feb-2020 4017.01 3135.50 63.07 2.00 154.63 3025.96
   03:12:44.856.03-Feb-2020 4017.01 3135.06 63.07 2.00 154.83 3025.96
   03:12:45.056.03-Feb-2020 4017.01 3135.67 63.07 2.00 155.03 3025.96
   03:12:45.256.03-Feb-2020 4017.01 3135.67 63.07 2.00 155.23 3025.96
   03:12:45.456.03-Feb-2020 4017.01 3135.56 63.07 2.00 155.43 3025.96
   03:12:45.656.03-Feb-2020 4017.01 3135.48 63.07 2.00 155.63 3025.96
   03:12:45.856.03-Feb-2020 4017.01 3135.50 63.07 2.00 155.83 3025.96
   03:12:46.056.03-Feb-2020 4017.01 3135.28 63.07 2.00 156.03 3025.96
   03:12:46.256.03-Feb-2020 4017.01 3135.28 63.07 2.00 156.23 3025.96
   03:12:46.456.03-Feb-2020 4017.01 3135.51 63.07 2.00 156.43 3025.96
   03:12:46.656.03-Feb-2020 4017.01 3135.61 63.07 2.00 156.63 3025.96
   03:12:46.856.03-Feb-2020 4017.01 3135.09 63.07 2.00 156.83 3025.96
   03:12:47.056.03-Feb-2020 4017.01 3135.64 63.07 2.00 157.03 3025.96
   03:12:47.256.03-Feb-2020 4017.01 3135.64 63.07 2.00 157.23 3025.96
   03:12:47.456.03-Feb-2020 4017.01 3135.49 63.07 2.00 157.43 3025.96
   03:12:47.657.03-Feb-2020 4017.01 3135.43 63.07 2.00 157.63 3025.96
   03:12:47.857.03-Feb-2020 4017.01 3135.55 63.07 2.00 157.83 3025.96
   03:12:48.057.03-Feb-2020 4017.01 3135.46 63.07 2.00 158.03 3025.96
   03:12:48.257.03-Feb-2020 4017.01 3135.46 63.07 2.00 158.23 3025.96
   03:12:48.457.03-Feb-2020 4017.01 3135.48 63.07 2.00 158.43 3025.96
   03:12:48.657.03-Feb-2020 4017.01 3135.39 63.07 2.00 158.63 3025.96
   03:12:48.857.03-Feb-2020 4017.01 3135.48 63.07 2.00 158.83 3025.96
   03:12:49.057.03-Feb-2020 4017.01 3135.54 63.07 2.00 159.03 3025.96
   03:12:49.257.03-Feb-2020 4017.01 3135.54 63.07 2.00 159.23 3025.96
   03:12:49.457.03-Feb-2020 4017.01 3135.47 63.07 2.00 159.43 3025.96
   03:12:49.657.03-Feb-2020 4017.01 3135.49 63.07 2.00 159.63 3025.96
   03:12:49.857.03-Feb-2020 4017.01 3135.53 63.07 2.00 159.83 3025.96
   03:12:50.057.03-Feb-2020 4017.01 3125.06 63.07 2.00 160.03 3025.96
   03:12:50.257.03-Feb-2020 4017.01 3125.06 63.07 2.00 160.23 3025.96
   03:12:50.457.03-Feb-2020 4017.01 3056.48 63.07 2.00 160.43 3025.96
   03:12:50.657.03-Feb-2020 4017.01 3057.80 63.07 2.00 160.63 3025.96
   03:12:50.857.03-Feb-2020 4017.01 3056.28 63.07 2.00 160.83 3025.96
