~Version Information
 VERS.                  2.0:   CWLS log ASCII Standard -VERSION 2.0
 WRAP.                   NO:   One line per depth step
~Well Information Block
#MNEM.UNIT     VALUE/NAME     DESCRIPTION
#---------     -----------    ---------------------------
 STRT.S             02:50:23 03-Feb-20: START TIME 02:50:23 03-Feb-20
 STOP.S             02:58:14 03-Feb-20: STOP TIME  02:58:14 03-Feb-20
 STEP.S                   0.00: STEP TIME
 NULL.                 -999.25: NULL VALUE
 DFWT.                        :  DIST FWL TEXT
 DFST.                        :  DIST FSL TEXT
 DMF .             Drill Floor:  DRILL MEAS FROM
 STIM.      09.30.00 26-Dec-19:  START TIME
 DATE.      08.00.00 20-Jan-20:  END TIME
 SPUD.               23-Nov-19:  SPUD DATE
 NREF.                    Grid:  NORTH REFERENCE
 HPTY.       Minimum Curvature:  HOLE POS TYPE
 DMOD.             Drill Model:  DRILL MOD DESC
 SVYD.                  Survey:  SURVEY DESC
 ILTD.               Lithology:  INTERP LTH DESC
 FTOP.          Formation Tops:  FORM TOPS DESC
 SON .        AZ-XX-0906192647:  JOB NUMBER
 WTYP.                Deviated:  WELL TYPE
 COMP.     BP Exploration (Caspian Sea) Ltd:  COMPANY
 BASE.              Azerbaijan:  LOGGING EQUIPMENT BASE LOCATION
 REGN.                 Eurasia:  REGION
 FLD .                     ACG:  FIELD NAME
 SRVC.              KCA Deutag:  CONTRACTOR
 MWDS.                    Baku:  MWD SHOP
 WELL.     A10 (Slot 20) - SCP:  WELL NAME
 JOBN.        AZ-XX-0906192647:  JOB TICKET NUMB
 RIG .                 Chirag1:  RIG NAME
 DCON.     Halliburton Sperry Drilling:  DIRECTNL CONTR
 UNIT.                     N/A:  LOGGING EQUIPMENT ID
 PDAT.          Mean Sea Level:  PERMANENT DATUM
 MDS .        Operator Entered:  MAG DATA SOURCE
 CTRY.              Azerbaijan:  COUNTRY NAME
 UWI .            /AZE00000090:  UNIQUE WELL IDENTIFIER
 API .            /AZE00000090:  API NUMBER
 CNTY.                        :  COUNTY
 PROV.                        :  PROVINCE
 STAT.                        :  STATE
 LOC .                        :  LOCATION
 LMF .             Drill Floor:  LOG MEASURED FROM
 TVDS.m                  36.60:  TVDSS CORRECTN
 LATI.deg                40.08:  LATITUDE
 LONG.deg                51.24:  LONGITUDE
 WHNS.m                  -7.94:  WELL HEAD N/S
 WHEW.m                   1.56:  WELL HEAD E/W
 UTMX.m              520429.26:  UTM X
 UTMY.m             4438973.87:  UTM Y
 DFWL.m                   0.00:  DISTANCE FWL
 DFSL.m                   0.00:  DISTANCE FSL
 SDEP.m                1455.00:  START DEPTH
 TDD .m                4047.51:  TOTAL DEPTH (DRILLER)
 VSDR.deg               112.75:  VERT SEC DIRECT
 GVFD.g                   1.00:  GRAVITY FIELD
 MFLD.nT              50261.00:  MAGNETIC FIELD
 MDIP.deg                59.52:  MAGNETIC DIP
 MDEC.deg                 6.42:  MAGNETIC DECL
 GRDC.deg                 0.17:  GRID CORRECTION
 AZTC.deg                 6.25:  AZM TOTAL CORR
 EPD .m                   0.00:  ELEVATION
 EGL .m                   0.00:  GROUND ELEVATION
 WDMS.m                 121.00:  WD ELEV
 APD .m                  36.60:  DEPTH ABOVE PD
 AGAP.m                  36.60:  AIR GAP
 VSEW.m                   1.56:  VERT SEC E/W
 VSNS.m                  -7.94:  VERT SEC N/S
 DEP .m                1140.01:  DEPTH
 EKB .m                  36.60:  KB ELEVATION
 EDF .m                  36.60:  DF ELEVATION
 VSC .                       0:  VS TO CLOSURE
 MAGU.                 1849206:  MAGUTM CHECKSUM
~Parameter Information Block
#MNEM.UNIT       Value        Description
#---------     -----------    ---------------------------
 AV  .mps                 1.70:  Ann Velocity 
 AVMX.mps                 2.30:  Max Ann Veloc 
 AZIF.deg               137.03:  Azm, Final 
 BHAT.                   Other:  BHA Type 
 BROT.°/30m               0.80:  Build Rotating 
 BS  .in                  8.00:  Bit Size 
 BTPL.psig              161.00:  Bit Press Loss 
 CABU.                      No:  Customer Abuse 
 COMM.                     ´Î`:  Run Comments 1 
 TCS .hr                  9.59:  Time Ciculation Ended 
 CV  .mps                 3.76:  Crit Velocity 
 CVMX.mps                 4.26:  Max Crit Veloc 
 DD1 .         Intigam Rahimov:  Direct Drillr 1 
 DD2 .          Rashad Gojayev:  Direct Drillr 2 
 DDSV.                   Other:  DD Service 
 DEFF.%                 100.00:  % Det Eff 
 DLRX.°/30m               1.44:  Dogleg Rot Max 
 DLSO.°/30m               0.00:  Dogleg Oriented 
 DLSX.°/30m               0.00:  Dogleg Str Max 
 DRET.      03.31.12 02-Feb-20:  Drill End Time 
 DRST.      03.31.12 02-Feb-20:  Drill Start Tim 
 DTIM.hr                  1.99:  Time Drilling 
 EDEP.m                4047.51:  End Depth 
 ENG1.           Eldar Hajiyev:  Engineer 1 
 ENG2.          Rasim Hashimov:  Engineer 2 
 ENG3.          Rustam Safarov:  Engineer 3 
 ETIM.      03.31.12 02-Feb-20:  End Time 
 FLOI.gpm               300.00:  Flow In 
 FLON.gpm               250.00:  Flow In Min 
 FLOS.cptm                0.00:  Fluid Loss 
 FLOX.gpm               330.00:  Flow In Max 
 HFLO.                      No:  High Flow 
 HPRE.                      No:  High Pressure 
 HTEM.                      No:  High Temp 
 HYDO.m                   2.50:  Hydro Offset 
 IFIN.deg                39.54:  Inc, Final 
 IMAX.deg                41.14:  Inc Max 
 IMIN.deg                39.81:  Inc Min 
 IMND.m                4005.21:  Inc Min Depth 
 IMXD.m                3948.42:  Inc Max Depth 
 JARR.                      No:  Jarring 
 LETM.      03.31.12 02-Feb-20:  Log End Time 
 LOST.hr                     0:  Lost Rig Time 
 LSTM.      03.31.12 02-Feb-20:  Log Start Time 
 MDCL.ppm             35000.00:  Mud Chlorides 
 MDES.     Inversion Oil/Synthetic:  Mud Desc 
 DFD .sg                  1.32:  Mud Density 
 MDMN.sg                  1.32:  Dens Mud Min 
 MDMX.sg                  1.32:  Dens Mud Max 
 MOIL.                      59:  Run Mud Oil % 
 MOWR.                   71:29:  Run Mud OWR 
 MSND.                       0:  Run Mud Sand % 
 MSOL.                      17:  Run Mud Solids% 
 DFV .spqt               86.00:  Mud Viscosity 
 MWOD.in                  4.75:  MWD Tool OD 
 MWSI.                      No:  Serv Intrp, MWD 
 OTIM.hr                 46.72:  Time Operating 
 PCON.           Look Like New:  Pad Condition 
 PMAX.psia             3300.00:  Press Op, Max 
 PV  .cP                 30.00:  Mud PV 
 RUN .                     400:  Run Number 
 ROPA.m/hr               35.00:  ROP Avg 
 ROPN.m/hr               25.00:  ROP Min 
 ROPX.m/hr               40.00:  ROP Max 
 RPMA.rpm                80.00:  RPM Surface Avg 
 RPMN.rpm                60.00:  RPM Surface Min 
 RPMX.rpm               100.00:  RPM Surface Max 
 RRUN.                     400:  Rig Run Number 
 RTIM.hr                  1.99:  Time Reaming 
 SAZI.deg               133.93:  Azm, Start 
 SDEP.m                4047.51:  Start Depth 
 SIDD.                      No:  Serv Intrp, DD 
 SINC.deg                40.28:  Inc, Start 
 SPPA.psig             3250.00:  SPP Avg 
 SPPN.psig             3200.00:  SPP Min 
 SPPX.psig             3300.00:  SPP Max 
 STIM.      03.31.12 02-Feb-20:  Start Time 
 SVCS.                 DD, MWD:  Services 
 SVER.                    9.20:  Sperry Version 
 TDAT.m                  47.00:  Tot Depth Attmp 
 TDDF.                      No:  Trip for DD 
 TFF .                      No:  Trip for Fail 
 TQAA.f-kp                0.00:  Torque Abs Avg 
 TQAN.f-kp                0.00:  Torque Abs Min 
 TQAX.f-kp                0.00:  Torque Abs Max 
 TRRT.°/30m               0.70:  Turn Rotating 
 MRT .                    HCIM:  Maximum Recorded Temperature 
 TTMX.degC               70.59:  Max Tool Temp 
 VS01.             90598770F11:  Virtual Str1 SN 
 VS02.             90598769F11:  Virtual Str2 SN 
 VS03.            90515978Z1W1:  Virtual Str3 SN 
 VS04.          90584144R12X14:  Virtual Str4 SN 
 WBMN.klb                 0.00:  WOB Min 
 WITN.            Peter Wilson:  Customer Rep 
 WOBA.klb                 0.00:  WOB Avg 
 WOBX.klb                 0.00:  WOB Max 
 YP  .lhf2               29.00:  Yield Point 
~Curve Information Block
#MNEM.UNIT                 API CODE     Curve Description
#---------               -----------    ---------------------------
 TIME.HHMMSS            00 000 000 000:  GT Time & Date
 GTDEPTH.m              00 000 000 000:  GT Depth
 GTPQH.psia             00 000 000 000:  GT HR Quartz Pressure
 GTTQ.degC              00 000 000 000:  GT Quartz Temperature
 GTTN.NONE              00 000 000 000:  GT Test Number
 GTET.sec               00 000 000 000:  GT Elapsed Test Time
 GTTVD.m                00 000 000 000:  GT True Vertical Depth
#Other Information
#
#WARRANTY: Halliburton will use its best efforts to furnish customers with 
#accurate information and interpretations that are part of, and incident to, the services 
#provided.  However, Halliburton cannot and does not warrant the accuracy 
#or correctness of such information and interpretations.  Under no circumstances should any 
#such information or interpretation be relied upon as the sole basis for any drilling, 
#completion, production, or financial decision or any procedure involving any risk to the 
#safety of any drilling venture, drilling rig or its crew or any other third party.  The 
#Customer has full responsibility for all drilling, completion and production operation.  
#Halliburton makes no representations or warranties, either expressed or 
#implied, including, but not limited to, the implied warranties of merchantability or fitness 
#for a particular purpose, with respect to the services rendered.  In no event will 
#Halliburton be liable for failure to obtain any particular results or for 
#any damages, including, but not limited to, indirect, special or consequential damages, 
#resulting from the use of any information or interpretation provided by Halliburton.
#
~A           TIME           GTDEPTH  GTPQH  GTTQ  GTTN  GTET   GTTVD  
# ...
   02:54:13.823.03-Feb-2020 4022.51 3157.44 64.36 1.00 230.05 3030.18
   02:54:14.023.03-Feb-2020 4022.51 3157.44 64.36 1.00 230.25 3030.18
   02:54:14.223.03-Feb-2020 4022.51 3157.38 64.36 1.00 230.45 3030.18
   02:54:14.423.03-Feb-2020 4022.51 3157.47 64.36 1.00 230.65 3030.18
   02:54:14.623.03-Feb-2020 4022.51 3157.32 64.36 1.00 230.85 3030.18
   02:54:14.823.03-Feb-2020 4022.51 3157.59 64.36 1.00 231.05 3030.18
   02:54:15.024.03-Feb-2020 4022.51 3157.59 64.36 1.00 231.25 3030.18
   02:54:15.224.03-Feb-2020 4022.51 3157.55 64.36 1.00 231.45 3030.18
   02:54:15.424.03-Feb-2020 4022.51 3157.53 64.36 1.00 231.65 3030.18
   02:54:15.624.03-Feb-2020 4022.51 3157.59 64.36 1.00 231.85 3030.18
   02:54:15.824.03-Feb-2020 4022.51 3157.50 64.36 1.00 232.05 3030.18
   02:54:16.024.03-Feb-2020 4022.51 3157.50 64.36 1.00 232.25 3030.18
   02:54:16.224.03-Feb-2020 4022.51 3157.56 64.36 1.00 232.45 3030.18
   02:54:16.424.03-Feb-2020 4022.51 3157.53 64.36 1.00 232.65 3030.18
   02:54:16.624.03-Feb-2020 4022.51 3157.59 64.36 1.00 232.85 3030.18
   02:54:16.824.03-Feb-2020 4022.51 3156.98 64.36 1.00 233.05 3030.18
   02:54:17.024.03-Feb-2020 4022.51 3156.98 64.36 1.00 233.25 3030.18
   02:54:17.224.03-Feb-2020 4022.51 3157.50 64.36 1.00 233.45 3030.18
   02:54:17.424.03-Feb-2020 4022.51 3157.71 64.36 1.00 233.65 3030.18
   02:54:17.624.03-Feb-2020 4022.51 3156.97 64.36 1.00 233.85 3030.18
   02:54:17.824.03-Feb-2020 4022.51 3158.03 64.36 1.00 234.05 3030.18
   02:54:18.024.03-Feb-2020 4022.51 3158.03 64.36 1.00 234.25 3030.18
   02:54:18.224.03-Feb-2020 4022.51 3157.72 64.36 1.00 234.45 3030.18
   02:54:18.424.03-Feb-2020 4022.51 3157.64 64.36 1.00 234.65 3030.18
   02:54:18.624.03-Feb-2020 4022.51 3157.62 64.36 1.00 234.85 3030.18
   02:54:18.824.03-Feb-2020 4022.51 3157.58 64.36 1.00 235.05 3030.18
   02:54:19.024.03-Feb-2020 4022.51 3157.58 64.36 1.00 235.25 3030.18
   02:54:19.224.03-Feb-2020 4022.51 3157.29 64.36 1.00 235.45 3030.18
   02:54:19.424.03-Feb-2020 4022.51 3157.72 64.36 1.00 235.65 3030.18
   02:54:19.624.03-Feb-2020 4022.51 3157.66 64.35 1.00 235.85 3030.18
   02:54:19.825.03-Feb-2020 4022.51 3157.79 64.35 1.00 236.05 3030.18
   02:54:20.025.03-Feb-2020 4022.51 3157.79 64.35 1.00 236.25 3030.18
   02:54:20.225.03-Feb-2020 4022.51 3157.68 64.35 1.00 236.45 3030.18
   02:54:20.425.03-Feb-2020 4022.51 3157.64 64.35 1.00 236.65 3030.18
   02:54:20.625.03-Feb-2020 4022.51 3157.14 64.35 1.00 236.85 3030.18
   02:54:20.825.03-Feb-2020 4022.51 3158.07 64.35 1.00 237.05 3030.18
   02:54:21.025.03-Feb-2020 4022.51 3158.07 64.35 1.00 237.25 3030.18
   02:54:21.225.03-Feb-2020 4022.51 3157.77 64.35 1.00 237.45 3030.18
   02:54:21.425.03-Feb-2020 4022.51 3157.72 64.35 1.00 237.65 3030.18
   02:54:21.625.03-Feb-2020 4022.51 3157.67 64.35 1.00 237.85 3030.18
   02:54:21.825.03-Feb-2020 4022.51 3157.64 64.35 1.00 238.05 3030.18
   02:54:22.025.03-Feb-2020 4022.51 3157.64 64.35 1.00 238.25 3030.18
   02:54:22.225.03-Feb-2020 4022.51 3157.75 64.35 1.00 238.45 3030.18
   02:54:22.425.03-Feb-2020 4022.51 3157.72 64.35 1.00 238.65 3030.18
   02:54:22.625.03-Feb-2020 4022.51 3157.69 64.35 1.00 238.85 3030.18
   02:54:22.825.03-Feb-2020 4022.51 3157.70 64.35 1.00 239.05 3030.18
   02:54:23.025.03-Feb-2020 4022.51 3157.70 64.35 1.00 239.25 3030.18
   02:54:23.225.03-Feb-2020 4022.51 3157.63 64.35 1.00 239.45 3030.18
   02:54:23.425.03-Feb-2020 4022.51 3157.65 64.35 1.00 239.65 3030.18
   02:54:23.625.03-Feb-2020 4022.51 3157.76 64.35 1.00 239.85 3030.18
   02:54:23.825.03-Feb-2020 4022.51 3157.58 64.35 1.00 240.05 3030.18
   02:54:24.025.03-Feb-2020 4022.51 3157.58 64.35 1.00 240.25 3030.18
   02:54:24.225.03-Feb-2020 4022.51 3157.59 64.35 1.00 240.45 3030.18
   02:54:24.425.03-Feb-2020 4022.51 3157.77 64.35 1.00 240.65 3030.18
   02:54:24.626.03-Feb-2020 4022.51 3157.71 64.35 1.00 240.85 3030.18
   02:54:24.826.03-Feb-2020 4022.51 3157.80 64.35 1.00 241.05 3030.18
   02:54:25.026.03-Feb-2020 4022.51 3157.80 64.35 1.00 241.25 3030.18
   02:54:25.226.03-Feb-2020 4022.51 3157.77 64.35 1.00 241.45 3030.18
   02:54:25.426.03-Feb-2020 4022.51 3157.73 64.35 1.00 241.65 3030.18
   02:54:25.626.03-Feb-2020 4022.51 3157.73 64.35 1.00 241.85 3030.18
   02:54:25.826.03-Feb-2020 4022.51 3157.77 64.35 1.00 242.05 3030.18
   02:54:26.026.03-Feb-2020 4022.51 3157.77 64.35 1.00 242.25 3030.18
   02:54:26.226.03-Feb-2020 4022.51 3157.70 64.35 1.00 242.45 3030.18
   02:54:26.426.03-Feb-2020 4022.51 3157.18 64.35 1.00 242.65 3030.18
   02:54:26.626.03-Feb-2020 4022.51 3158.06 64.35 1.00 242.85 3030.18
   02:54:26.826.03-Feb-2020 4022.51 3157.66 64.35 1.00 243.05 3030.18
   02:54:27.026.03-Feb-2020 4022.51 3157.66 64.35 1.00 243.25 3030.18
   02:54:27.226.03-Feb-2020 4022.51 3157.16 64.35 1.00 243.45 3030.18
   02:54:27.426.03-Feb-2020 4022.51 3158.21 64.35 1.00 243.65 3030.18
   02:54:27.626.03-Feb-2020 4022.51 3157.72 64.35 1.00 243.85 3030.18
   02:54:27.826.03-Feb-2020 4022.51 3157.94 64.35 1.00 244.05 3030.18
   02:54:28.026.03-Feb-2020 4022.51 3157.94 64.35 1.00 244.25 3030.18
   02:54:28.226.03-Feb-2020 4022.51 3157.82 64.35 1.00 244.45 3030.18
   02:54:28.426.03-Feb-2020 4022.51 3157.82 64.35 1.00 244.65 3030.18
   02:54:28.626.03-Feb-2020 4022.51 3157.77 64.35 1.00 244.85 3030.18
   02:54:28.826.03-Feb-2020 4022.51 3157.46 64.35 1.00 245.05 3030.18
   02:54:29.026.03-Feb-2020 4022.51 3157.46 64.35 1.00 245.25 3030.18
   02:54:29.226.03-Feb-2020 4022.51 3157.79 64.35 1.00 245.45 3030.18
   02:54:29.427.03-Feb-2020 4022.51 3158.00 64.35 1.00 245.65 3030.18
   02:54:29.627.03-Feb-2020 4022.51 3157.85 64.35 1.00 245.85 3030.18
   02:54:29.827.03-Feb-2020 4022.51 3157.81 64.35 1.00 246.05 3030.18
   02:54:30.027.03-Feb-2020 4022.51 3157.81 64.35 1.00 246.25 3030.18
   02:54:30.227.03-Feb-2020 4022.51 3157.31 64.35 1.00 246.45 3030.18
   02:54:30.427.03-Feb-2020 4022.51 3158.20 64.34 1.00 246.65 3030.18
   02:54:30.627.03-Feb-2020 4022.51 3157.72 64.34 1.00 246.85 3030.18
   02:54:30.827.03-Feb-2020 4022.51 3157.95 64.34 1.00 247.05 3030.18
   02:54:31.027.03-Feb-2020 4022.51 3157.95 64.34 1.00 247.25 3030.18
   02:54:31.227.03-Feb-2020 4022.51 3157.86 64.34 1.00 247.45 3030.18
   02:54:31.427.03-Feb-2020 4022.51 3157.78 64.34 1.00 247.65 3030.18
   02:54:31.627.03-Feb-2020 4022.51 3157.86 64.34 1.00 247.85 3030.18
   02:54:31.827.03-Feb-2020 4022.51 3157.93 64.34 1.00 248.05 3030.18
   02:54:32.027.03-Feb-2020 4022.51 3157.93 64.34 1.00 248.25 3030.18
   02:54:32.227.03-Feb-2020 4022.51 3157.88 64.34 1.00 248.45 3030.18
   02:54:32.427.03-Feb-2020 4022.51 3157.88 64.34 1.00 248.65 3030.18
   02:54:32.627.03-Feb-2020 4022.51 3157.85 64.34 1.00 248.85 3030.18
   02:54:32.827.03-Feb-2020 4022.51 3157.84 64.34 1.00 249.05 3030.18
   02:54:33.027.03-Feb-2020 4022.51 3157.84 64.34 1.00 249.25 3030.18
   02:54:33.227.03-Feb-2020 4022.51 3157.88 64.34 1.00 249.45 3030.18
   02:54:33.427.03-Feb-2020 4022.51 3157.78 64.34 1.00 249.65 3030.18
   02:54:33.627.03-Feb-2020 4022.51 3157.82 64.34 1.00 249.85 3030.18
   02:54:33.827.03-Feb-2020 4022.51 3157.66 64.34 1.00 250.05 3030.18
   02:54:34.027.03-Feb-2020 4022.51 3157.66 64.34 1.00 250.25 3030.18
   02:54:34.228.03-Feb-2020 4022.51 3157.88 64.34 1.00 250.45 3030.18
   02:54:34.428.03-Feb-2020 4022.51 3157.91 64.34 1.00 250.65 3030.18
   02:54:34.628.03-Feb-2020 4022.51 3157.92 64.34 1.00 250.85 3030.18
   02:54:34.828.03-Feb-2020 4022.51 3157.90 64.34 1.00 251.05 3030.18
   02:54:35.028.03-Feb-2020 4022.51 3157.90 64.34 1.00 251.25 3030.18
   02:54:35.228.03-Feb-2020 4022.51 3157.92 64.34 1.00 251.45 3030.18
   02:54:35.428.03-Feb-2020 4022.51 3157.93 64.34 1.00 251.65 3030.18
   02:54:35.628.03-Feb-2020 4022.51 3157.87 64.34 1.00 251.85 3030.18
   02:54:35.828.03-Feb-2020 4022.51 3157.95 64.34 1.00 252.05 3030.18
   02:54:36.028.03-Feb-2020 4022.51 3157.95 64.34 1.00 252.25 3030.18
   02:54:36.228.03-Feb-2020 4022.51 3158.18 64.34 1.00 252.45 3030.18
   02:54:36.428.03-Feb-2020 4022.51 3157.88 64.34 1.00 252.65 3030.18
   02:54:36.628.03-Feb-2020 4022.51 3158.04 64.34 1.00 252.85 3030.18
