~Version Information
 VERS.                  2.0:   CWLS log ASCII Standard -VERSION 2.0
 WRAP.                   NO:   One line per depth step
~Well Information Block
#MNEM.UNIT     VALUE/NAME     DESCRIPTION
#---------     -----------    ---------------------------
 STRT.S             05:26:39 03-Feb-20: START TIME 05:26:39 03-Feb-20
 STOP.S             05:34:31 03-Feb-20: STOP TIME  05:34:31 03-Feb-20
 STEP.S                   0.00: STEP TIME
 NULL.                 -999.25: NULL VALUE
 DFWT.                        :  DIST FWL TEXT
 DFST.                        :  DIST FSL TEXT
 DMF .             Drill Floor:  DRILL MEAS FROM
 STIM.      09.30.00 26-Dec-19:  START TIME
 DATE.      08.00.00 20-Jan-20:  END TIME
 SPUD.               23-Nov-19:  SPUD DATE
 NREF.                    Grid:  NORTH REFERENCE
 HPTY.       Minimum Curvature:  HOLE POS TYPE
 DMOD.             Drill Model:  DRILL MOD DESC
 SVYD.                  Survey:  SURVEY DESC
 ILTD.               Lithology:  INTERP LTH DESC
 FTOP.          Formation Tops:  FORM TOPS DESC
 SON .        AZ-XX-0906192647:  JOB NUMBER
 WTYP.                Deviated:  WELL TYPE
 COMP.     BP Exploration (Caspian Sea) Ltd:  COMPANY
 BASE.              Azerbaijan:  LOGGING EQUIPMENT BASE LOCATION
 REGN.                 Eurasia:  REGION
 FLD .                     ACG:  FIELD NAME
 SRVC.              KCA Deutag:  CONTRACTOR
 MWDS.                    Baku:  MWD SHOP
 WELL.     A10 (Slot 20) - SCP:  WELL NAME
 JOBN.        AZ-XX-0906192647:  JOB TICKET NUMB
 RIG .                 Chirag1:  RIG NAME
 DCON.     Halliburton Sperry Drilling:  DIRECTNL CONTR
 UNIT.                     N/A:  LOGGING EQUIPMENT ID
 PDAT.          Mean Sea Level:  PERMANENT DATUM
 MDS .        Operator Entered:  MAG DATA SOURCE
 CTRY.              Azerbaijan:  COUNTRY NAME
 UWI .            /AZE00000090:  UNIQUE WELL IDENTIFIER
 API .            /AZE00000090:  API NUMBER
 CNTY.                        :  COUNTY
 PROV.                        :  PROVINCE
 STAT.                        :  STATE
 LOC .                        :  LOCATION
 LMF .             Drill Floor:  LOG MEASURED FROM
 TVDS.m                  36.60:  TVDSS CORRECTN
 LATI.deg                40.08:  LATITUDE
 LONG.deg                51.24:  LONGITUDE
 WHNS.m                  -7.94:  WELL HEAD N/S
 WHEW.m                   1.56:  WELL HEAD E/W
 UTMX.m              520429.26:  UTM X
 UTMY.m             4438973.87:  UTM Y
 DFWL.m                   0.00:  DISTANCE FWL
 DFSL.m                   0.00:  DISTANCE FSL
 SDEP.m                1455.00:  START DEPTH
 TDD .m                4047.51:  TOTAL DEPTH (DRILLER)
 VSDR.deg               112.75:  VERT SEC DIRECT
 GVFD.g                   1.00:  GRAVITY FIELD
 MFLD.nT              50261.00:  MAGNETIC FIELD
 MDIP.deg                59.52:  MAGNETIC DIP
 MDEC.deg                 6.42:  MAGNETIC DECL
 GRDC.deg                 0.17:  GRID CORRECTION
 AZTC.deg                 6.25:  AZM TOTAL CORR
 EPD .m                   0.00:  ELEVATION
 EGL .m                   0.00:  GROUND ELEVATION
 WDMS.m                 121.00:  WD ELEV
 APD .m                  36.60:  DEPTH ABOVE PD
 AGAP.m                  36.60:  AIR GAP
 VSEW.m                   1.56:  VERT SEC E/W
 VSNS.m                  -7.94:  VERT SEC N/S
 DEP .m                1140.01:  DEPTH
 EKB .m                  36.60:  KB ELEVATION
 EDF .m                  36.60:  DF ELEVATION
 VSC .                       0:  VS TO CLOSURE
 MAGU.                 1849206:  MAGUTM CHECKSUM
~Parameter Information Block
#MNEM.UNIT       Value        Description
#---------     -----------    ---------------------------
 AV  .mps                 1.70:  Ann Velocity 
 AVMX.mps                 2.30:  Max Ann Veloc 
 AZIF.deg               137.03:  Azm, Final 
 BHAT.                   Other:  BHA Type 
 BROT.°/30m               0.80:  Build Rotating 
 BS  .in                  8.00:  Bit Size 
 BTPL.psig              161.00:  Bit Press Loss 
 CABU.                      No:  Customer Abuse 
 COMM.                     ¬]P:  Run Comments 1 
 TCS .hr                  9.59:  Time Ciculation Ended 
 CV  .mps                 3.76:  Crit Velocity 
 CVMX.mps                 4.26:  Max Crit Veloc 
 DD1 .         Intigam Rahimov:  Direct Drillr 1 
 DD2 .          Rashad Gojayev:  Direct Drillr 2 
 DDSV.                   Other:  DD Service 
 DEFF.%                 100.00:  % Det Eff 
 DLRX.°/30m               1.44:  Dogleg Rot Max 
 DLSO.°/30m               0.00:  Dogleg Oriented 
 DLSX.°/30m               0.00:  Dogleg Str Max 
 DRET.      03.31.12 02-Feb-20:  Drill End Time 
 DRST.      03.31.12 02-Feb-20:  Drill Start Tim 
 DTIM.hr                  1.99:  Time Drilling 
 EDEP.m                4047.51:  End Depth 
 ENG1.           Eldar Hajiyev:  Engineer 1 
 ENG2.          Rasim Hashimov:  Engineer 2 
 ENG3.          Rustam Safarov:  Engineer 3 
 ETIM.      03.31.12 02-Feb-20:  End Time 
 FLOI.gpm               300.00:  Flow In 
 FLON.gpm               250.00:  Flow In Min 
 FLOS.cptm                0.00:  Fluid Loss 
 FLOX.gpm               330.00:  Flow In Max 
 HFLO.                      No:  High Flow 
 HPRE.                      No:  High Pressure 
 HTEM.                      No:  High Temp 
 HYDO.m                   2.50:  Hydro Offset 
 IFIN.deg                39.54:  Inc, Final 
 IMAX.deg                41.14:  Inc Max 
 IMIN.deg                39.81:  Inc Min 
 IMND.m                4005.21:  Inc Min Depth 
 IMXD.m                3948.42:  Inc Max Depth 
 JARR.                      No:  Jarring 
 LETM.      03.31.12 02-Feb-20:  Log End Time 
 LOST.hr                     0:  Lost Rig Time 
 LSTM.      03.31.12 02-Feb-20:  Log Start Time 
 MDCL.ppm             35000.00:  Mud Chlorides 
 MDES.     Inversion Oil/Synthetic:  Mud Desc 
 DFD .sg                  1.32:  Mud Density 
 MDMN.sg                  1.32:  Dens Mud Min 
 MDMX.sg                  1.32:  Dens Mud Max 
 MOIL.                      59:  Run Mud Oil % 
 MOWR.                   71:29:  Run Mud OWR 
 MSND.                       0:  Run Mud Sand % 
 MSOL.                      17:  Run Mud Solids% 
 DFV .spqt               86.00:  Mud Viscosity 
 MWOD.in                  4.75:  MWD Tool OD 
 MWSI.                      No:  Serv Intrp, MWD 
 OTIM.hr                 46.72:  Time Operating 
 PCON.           Look Like New:  Pad Condition 
 PMAX.psia             3300.00:  Press Op, Max 
 PV  .cP                 30.00:  Mud PV 
 RUN .                     400:  Run Number 
 ROPA.m/hr               35.00:  ROP Avg 
 ROPN.m/hr               25.00:  ROP Min 
 ROPX.m/hr               40.00:  ROP Max 
 RPMA.rpm                80.00:  RPM Surface Avg 
 RPMN.rpm                60.00:  RPM Surface Min 
 RPMX.rpm               100.00:  RPM Surface Max 
 RRUN.                     400:  Rig Run Number 
 RTIM.hr                  1.99:  Time Reaming 
 SAZI.deg               133.93:  Azm, Start 
 SDEP.m                4047.51:  Start Depth 
 SIDD.                      No:  Serv Intrp, DD 
 SINC.deg                40.28:  Inc, Start 
 SPPA.psig             3250.00:  SPP Avg 
 SPPN.psig             3200.00:  SPP Min 
 SPPX.psig             3300.00:  SPP Max 
 STIM.      03.31.12 02-Feb-20:  Start Time 
 SVCS.                 DD, MWD:  Services 
 SVER.                    9.20:  Sperry Version 
 TDAT.m                  47.00:  Tot Depth Attmp 
 TDDF.                      No:  Trip for DD 
 TFF .                      No:  Trip for Fail 
 TQAA.f-kp                0.00:  Torque Abs Avg 
 TQAN.f-kp                0.00:  Torque Abs Min 
 TQAX.f-kp                0.00:  Torque Abs Max 
 TRRT.°/30m               0.70:  Turn Rotating 
 MRT .                    HCIM:  Maximum Recorded Temperature 
 TTMX.degC               70.59:  Max Tool Temp 
 VS01.             90598770F11:  Virtual Str1 SN 
 VS02.             90598769F11:  Virtual Str2 SN 
 VS03.            90515978Z1W1:  Virtual Str3 SN 
 VS04.          90584144R12X14:  Virtual Str4 SN 
 WBMN.klb                 0.00:  WOB Min 
 WITN.            Peter Wilson:  Customer Rep 
 WOBA.klb                 0.00:  WOB Avg 
 WOBX.klb                 0.00:  WOB Max 
 YP  .lhf2               29.00:  Yield Point 
~Curve Information Block
#MNEM.UNIT                 API CODE     Curve Description
#---------               -----------    ---------------------------
 TIME.HHMMSS            00 000 000 000:  GT Time & Date
 GTDEPTH.m              00 000 000 000:  GT Depth
 GTPQH.psia             00 000 000 000:  GT HR Quartz Pressure
 GTTQ.degC              00 000 000 000:  GT Quartz Temperature
 GTTN.NONE              00 000 000 000:  GT Test Number
 GTET.sec               00 000 000 000:  GT Elapsed Test Time
 GTTVD.m                00 000 000 000:  GT True Vertical Depth
#Other Information
#
#WARRANTY: Halliburton will use its best efforts to furnish customers with 
#accurate information and interpretations that are part of, and incident to, the services 
#provided.  However, Halliburton cannot and does not warrant the accuracy 
#or correctness of such information and interpretations.  Under no circumstances should any 
#such information or interpretation be relied upon as the sole basis for any drilling, 
#completion, production, or financial decision or any procedure involving any risk to the 
#safety of any drilling venture, drilling rig or its crew or any other third party.  The 
#Customer has full responsibility for all drilling, completion and production operation.  
#Halliburton makes no representations or warranties, either expressed or 
#implied, including, but not limited to, the implied warranties of merchantability or fitness 
#for a particular purpose, with respect to the services rendered.  In no event will 
#Halliburton be liable for failure to obtain any particular results or for 
#any damages, including, but not limited to, indirect, special or consequential damages, 
#resulting from the use of any information or interpretation provided by Halliburton.
#
~A           TIME           GTDEPTH  GTPQH  GTTQ  GTTN  GTET   GTTVD  
# ...
   05:28:34.000.03-Feb-2020 4009.51 3112.56 64.64 5.00 115.00 3020.21
   05:28:34.200.03-Feb-2020 4009.51 3112.56 64.64 5.00 115.20 3020.21
   05:28:34.400.03-Feb-2020 4009.51 3112.86 64.64 5.00 115.40 3020.21
   05:28:34.600.03-Feb-2020 4009.51 3113.02 64.64 5.00 115.60 3020.21
   05:28:34.800.03-Feb-2020 4009.51 3112.97 64.64 5.00 115.80 3020.21
   05:28:35.000.03-Feb-2020 4009.51 3112.95 64.64 5.00 116.00 3020.21
   05:28:35.200.03-Feb-2020 4009.51 3112.95 64.64 5.00 116.20 3020.21
   05:28:35.400.03-Feb-2020 4009.51 3112.99 64.64 5.00 116.40 3020.21
   05:28:35.600.03-Feb-2020 4009.51 3113.04 64.64 5.00 116.60 3020.21
   05:28:35.800.03-Feb-2020 4009.51 3113.14 64.64 5.00 116.80 3020.21
   05:28:36.000.03-Feb-2020 4009.51 3113.07 64.64 5.00 117.00 3020.21
   05:28:36.200.03-Feb-2020 4009.51 3113.07 64.64 5.00 117.20 3020.21
   05:28:36.400.03-Feb-2020 4009.51 3112.73 64.64 5.00 117.40 3020.21
   05:28:36.600.03-Feb-2020 4009.51 3112.94 64.64 5.00 117.60 3020.21
   05:28:36.800.03-Feb-2020 4009.51 3112.79 64.64 5.00 117.80 3020.21
   05:28:37.000.03-Feb-2020 4009.51 3113.26 64.64 5.00 118.00 3020.21
   05:28:37.200.03-Feb-2020 4009.51 3113.26 64.64 5.00 118.20 3020.21
   05:28:37.400.03-Feb-2020 4009.51 3113.18 64.64 5.00 118.40 3020.21
   05:28:37.600.03-Feb-2020 4009.51 3112.72 64.64 5.00 118.60 3020.21
   05:28:37.800.03-Feb-2020 4009.51 3112.85 64.64 5.00 118.80 3020.21
   05:28:38.000.03-Feb-2020 4009.51 3113.10 64.64 5.00 119.00 3020.21
   05:28:38.200.03-Feb-2020 4009.51 3113.10 64.64 5.00 119.20 3020.21
   05:28:38.400.03-Feb-2020 4009.51 3112.61 64.64 5.00 119.40 3020.21
   05:28:38.600.03-Feb-2020 4009.51 3112.85 64.64 5.00 119.60 3020.21
   05:28:38.800.03-Feb-2020 4009.51 3113.05 64.64 5.00 119.80 3020.21
   05:28:39.000.03-Feb-2020 4009.51 3113.17 64.64 5.00 120.00 3020.21
   05:28:39.200.03-Feb-2020 4009.51 3113.17 64.64 5.00 120.20 3020.21
   05:28:39.400.03-Feb-2020 4009.51 3113.24 64.64 5.00 120.40 3020.21
   05:28:39.600.03-Feb-2020 4009.51 3113.00 64.64 5.00 120.60 3020.21
   05:28:39.800.03-Feb-2020 4009.51 3112.94 64.64 5.00 120.80 3020.21
   05:28:40.000.03-Feb-2020 4009.51 3112.75 64.64 5.00 121.00 3020.21
   05:28:40.200.03-Feb-2020 4009.51 3112.75 64.64 5.00 121.20 3020.21
   05:28:40.400.03-Feb-2020 4009.51 3113.02 64.64 5.00 121.40 3020.21
   05:28:40.600.03-Feb-2020 4009.51 3113.19 64.64 5.00 121.60 3020.21
   05:28:40.800.03-Feb-2020 4009.51 3113.12 64.64 5.00 121.80 3020.21
   05:28:41.000.03-Feb-2020 4009.51 3113.10 64.64 5.00 122.00 3020.21
   05:28:41.200.03-Feb-2020 4009.51 3113.10 64.64 5.00 122.20 3020.21
   05:28:41.400.03-Feb-2020 4009.51 3113.21 64.63 5.00 122.40 3020.21
   05:28:41.600.03-Feb-2020 4009.51 3113.19 64.64 5.00 122.60 3020.21
   05:28:41.800.03-Feb-2020 4009.51 3113.16 64.63 5.00 122.80 3020.21
   05:28:42.000.03-Feb-2020 4009.51 3113.11 64.63 5.00 123.00 3020.21
   05:28:42.200.03-Feb-2020 4009.51 3113.11 64.63 5.00 123.20 3020.21
   05:28:42.400.03-Feb-2020 4009.51 3113.11 64.63 5.00 123.40 3020.21
   05:28:42.600.03-Feb-2020 4009.51 3113.24 64.63 5.00 123.60 3020.21
   05:28:42.800.03-Feb-2020 4009.51 3113.23 64.63 5.00 123.80 3020.21
   05:28:43.000.03-Feb-2020 4009.51 3112.60 64.63 5.00 124.00 3020.21
   05:28:43.200.03-Feb-2020 4009.51 3112.60 64.63 5.00 124.20 3020.21
   05:28:43.400.03-Feb-2020 4009.51 3112.89 64.63 5.00 124.40 3020.21
   05:28:43.600.03-Feb-2020 4009.51 3113.11 64.63 5.00 124.60 3020.21
   05:28:43.800.03-Feb-2020 4009.51 3113.04 64.63 5.00 124.80 3020.21
   05:28:44.000.03-Feb-2020 4009.51 3113.10 64.63 5.00 125.00 3020.21
   05:28:44.200.03-Feb-2020 4009.51 3113.10 64.63 5.00 125.20 3020.21
   05:28:44.400.03-Feb-2020 4009.51 3113.07 64.63 5.00 125.40 3020.21
   05:28:44.600.03-Feb-2020 4009.51 3113.15 64.63 5.00 125.60 3020.21
   05:28:44.800.03-Feb-2020 4009.51 3113.21 64.63 5.00 125.80 3020.21
   05:28:45.000.03-Feb-2020 4009.51 3113.21 64.63 5.00 126.00 3020.21
   05:28:45.200.03-Feb-2020 4009.51 3113.21 64.63 5.00 126.20 3020.21
   05:28:45.400.03-Feb-2020 4009.51 3113.00 64.63 5.00 126.40 3020.21
   05:28:45.600.03-Feb-2020 4009.51 3112.95 64.63 5.00 126.60 3020.21
   05:28:45.800.03-Feb-2020 4009.51 3112.75 64.63 5.00 126.80 3020.21
   05:28:46.000.03-Feb-2020 4009.51 3113.32 64.63 5.00 127.00 3020.21
   05:28:46.200.03-Feb-2020 4009.51 3113.32 64.63 5.00 127.20 3020.21
   05:28:46.400.03-Feb-2020 4009.51 3113.31 64.63 5.00 127.40 3020.21
   05:28:46.600.03-Feb-2020 4009.51 3112.70 64.63 5.00 127.60 3020.21
   05:28:46.800.03-Feb-2020 4009.51 3113.13 64.63 5.00 127.80 3020.21
   05:28:47.000.03-Feb-2020 4009.51 3113.05 64.63 5.00 128.00 3020.21
   05:28:47.200.03-Feb-2020 4009.51 3113.05 64.63 5.00 128.20 3020.21
   05:28:47.400.03-Feb-2020 4009.51 3112.65 64.63 5.00 128.40 3020.21
   05:28:47.600.03-Feb-2020 4009.51 3113.08 64.63 5.00 128.60 3020.21
   05:28:47.800.03-Feb-2020 4009.51 3112.95 64.63 5.00 128.80 3020.21
   05:28:48.000.03-Feb-2020 4009.51 3113.24 64.63 5.00 129.00 3020.21
   05:28:48.200.03-Feb-2020 4009.51 3113.24 64.63 5.00 129.20 3020.21
   05:28:48.400.03-Feb-2020 4009.51 3113.37 64.63 5.00 129.40 3020.21
   05:28:48.600.03-Feb-2020 4009.51 3113.42 64.63 5.00 129.60 3020.21
   05:28:48.800.03-Feb-2020 4009.51 3112.86 64.63 5.00 129.80 3020.21
   05:28:49.000.03-Feb-2020 4009.51 3112.98 64.63 5.00 130.00 3020.21
   05:28:49.200.03-Feb-2020 4009.51 3112.98 64.63 5.00 130.20 3020.21
   05:28:49.400.03-Feb-2020 4009.51 3113.09 64.63 5.00 130.40 3020.21
   05:28:49.600.03-Feb-2020 4009.51 3113.25 64.63 5.00 130.60 3020.21
   05:28:49.800.03-Feb-2020 4009.51 3113.20 64.63 5.00 130.80 3020.21
   05:28:50.000.03-Feb-2020 4009.51 3113.18 64.63 5.00 131.00 3020.21
   05:28:50.200.03-Feb-2020 4009.51 3113.18 64.63 5.00 131.20 3020.21
   05:28:50.400.03-Feb-2020 4009.51 3113.30 64.63 5.00 131.40 3020.21
   05:28:50.600.03-Feb-2020 4009.51 3113.23 64.63 5.00 131.60 3020.21
   05:28:50.800.03-Feb-2020 4009.51 3113.17 64.63 5.00 131.80 3020.21
   05:28:51.000.03-Feb-2020 4009.51 3113.20 64.63 5.00 132.00 3020.21
   05:28:51.200.03-Feb-2020 4009.51 3113.20 64.63 5.00 132.20 3020.21
   05:28:51.400.03-Feb-2020 4009.51 3113.17 64.63 5.00 132.40 3020.21
   05:28:51.600.03-Feb-2020 4009.51 3113.26 64.63 5.00 132.60 3020.21
   05:28:51.800.03-Feb-2020 4009.51 3113.37 64.63 5.00 132.80 3020.21
   05:28:52.000.03-Feb-2020 4009.51 3112.87 64.63 5.00 133.00 3020.21
   05:28:52.200.03-Feb-2020 4009.51 3112.87 64.63 5.00 133.20 3020.21
   05:28:52.400.03-Feb-2020 4009.51 3112.92 64.63 5.00 133.40 3020.21
   05:28:52.600.03-Feb-2020 4009.51 3113.33 64.63 5.00 133.60 3020.21
   05:28:52.800.03-Feb-2020 4009.51 3113.19 64.63 5.00 133.80 3020.21
   05:28:53.000.03-Feb-2020 4009.51 3113.26 64.63 5.00 134.00 3020.21
   05:28:53.200.03-Feb-2020 4009.51 3113.26 64.63 5.00 134.20 3020.21
   05:28:53.400.03-Feb-2020 4009.51 3113.18 64.63 5.00 134.40 3020.21
   05:28:53.600.03-Feb-2020 4009.51 3113.30 64.63 5.00 134.60 3020.21
   05:28:53.800.03-Feb-2020 4009.51 3113.33 64.63 5.00 134.80 3020.21
   05:28:54.000.03-Feb-2020 4009.51 3113.32 64.63 5.00 135.00 3020.21
   05:28:54.200.03-Feb-2020 4009.51 3113.32 64.63 5.00 135.20 3020.21
   05:28:54.400.03-Feb-2020 4009.51 3113.36 64.63 5.00 135.40 3020.21
   05:28:54.600.03-Feb-2020 4009.51 3112.82 64.63 5.00 135.60 3020.21
   05:28:54.800.03-Feb-2020 4009.51 3112.94 64.63 5.00 135.80 3020.21
   05:28:55.000.03-Feb-2020 4009.51 3113.30 64.63 5.00 136.00 3020.21
   05:28:55.200.03-Feb-2020 4009.51 3113.30 64.63 5.00 136.20 3020.21
   05:28:55.400.03-Feb-2020 4009.51 3113.41 64.63 5.00 136.40 3020.21
   05:28:55.600.03-Feb-2020 4009.51 3112.93 64.63 5.00 136.60 3020.21
   05:28:55.800.03-Feb-2020 4009.51 3113.32 64.63 5.00 136.80 3020.21
   05:28:56.000.03-Feb-2020 4009.51 3112.98 64.63 5.00 137.00 3020.21
   05:28:56.200.03-Feb-2020 4009.51 3112.98 64.63 5.00 137.20 3020.21
   05:28:56.400.03-Feb-2020 4009.51 3113.00 64.63 5.00 137.40 3020.21
   05:28:56.600.03-Feb-2020 4009.51 3113.13 64.63 5.00 137.60 3020.21
   05:28:56.800.03-Feb-2020 4009.51 3112.93 64.62 5.00 137.80 3020.21
