~Version Information
 VERS.                  2.0:   CWLS log ASCII Standard -VERSION 2.0
 WRAP.                   NO:   One line per depth step
~Well Information Block
#MNEM.UNIT     VALUE/NAME     DESCRIPTION
#---------     -----------    ---------------------------
 STRT.S             07:08:20 03-Feb-20: START TIME 07:08:20 03-Feb-20
 STOP.S             07:16:05 03-Feb-20: STOP TIME  07:16:05 03-Feb-20
 STEP.S                   0.00: STEP TIME
 NULL.                 -999.25: NULL VALUE
 DFWT.                        :  DIST FWL TEXT
 DFST.                        :  DIST FSL TEXT
 DMF .             Drill Floor:  DRILL MEAS FROM
 STIM.      09.30.00 26-Dec-19:  START TIME
 DATE.      08.00.00 20-Jan-20:  END TIME
 SPUD.               23-Nov-19:  SPUD DATE
 NREF.                    Grid:  NORTH REFERENCE
 HPTY.       Minimum Curvature:  HOLE POS TYPE
 DMOD.             Drill Model:  DRILL MOD DESC
 SVYD.                  Survey:  SURVEY DESC
 ILTD.               Lithology:  INTERP LTH DESC
 FTOP.          Formation Tops:  FORM TOPS DESC
 SON .        AZ-XX-0906192647:  JOB NUMBER
 WTYP.                Deviated:  WELL TYPE
 COMP.     BP Exploration (Caspian Sea) Ltd:  COMPANY
 BASE.              Azerbaijan:  LOGGING EQUIPMENT BASE LOCATION
 REGN.                 Eurasia:  REGION
 FLD .                     ACG:  FIELD NAME
 SRVC.              KCA Deutag:  CONTRACTOR
 MWDS.                    Baku:  MWD SHOP
 WELL.     A10 (Slot 20) - SCP:  WELL NAME
 JOBN.        AZ-XX-0906192647:  JOB TICKET NUMB
 RIG .                 Chirag1:  RIG NAME
 DCON.     Halliburton Sperry Drilling:  DIRECTNL CONTR
 UNIT.                     N/A:  LOGGING EQUIPMENT ID
 PDAT.          Mean Sea Level:  PERMANENT DATUM
 MDS .        Operator Entered:  MAG DATA SOURCE
 CTRY.              Azerbaijan:  COUNTRY NAME
 UWI .            /AZE00000090:  UNIQUE WELL IDENTIFIER
 API .            /AZE00000090:  API NUMBER
 CNTY.                        :  COUNTY
 PROV.                        :  PROVINCE
 STAT.                        :  STATE
 LOC .                        :  LOCATION
 LMF .             Drill Floor:  LOG MEASURED FROM
 TVDS.m                  36.60:  TVDSS CORRECTN
 LATI.deg                40.08:  LATITUDE
 LONG.deg                51.24:  LONGITUDE
 WHNS.m                  -7.94:  WELL HEAD N/S
 WHEW.m                   1.56:  WELL HEAD E/W
 UTMX.m              520429.26:  UTM X
 UTMY.m             4438973.87:  UTM Y
 DFWL.m                   0.00:  DISTANCE FWL
 DFSL.m                   0.00:  DISTANCE FSL
 SDEP.m                1455.00:  START DEPTH
 TDD .m                4047.51:  TOTAL DEPTH (DRILLER)
 VSDR.deg               112.75:  VERT SEC DIRECT
 GVFD.g                   1.00:  GRAVITY FIELD
 MFLD.nT              50261.00:  MAGNETIC FIELD
 MDIP.deg                59.52:  MAGNETIC DIP
 MDEC.deg                 6.42:  MAGNETIC DECL
 GRDC.deg                 0.17:  GRID CORRECTION
 AZTC.deg                 6.25:  AZM TOTAL CORR
 EPD .m                   0.00:  ELEVATION
 EGL .m                   0.00:  GROUND ELEVATION
 WDMS.m                 121.00:  WD ELEV
 APD .m                  36.60:  DEPTH ABOVE PD
 AGAP.m                  36.60:  AIR GAP
 VSEW.m                   1.56:  VERT SEC E/W
 VSNS.m                  -7.94:  VERT SEC N/S
 DEP .m                1140.01:  DEPTH
 EKB .m                  36.60:  KB ELEVATION
 EDF .m                  36.60:  DF ELEVATION
 VSC .                       0:  VS TO CLOSURE
 MAGU.                 1849206:  MAGUTM CHECKSUM
~Parameter Information Block
#MNEM.UNIT       Value        Description
#---------     -----------    ---------------------------
 AV  .mps                 1.70:  Ann Velocity 
 AVMX.mps                 2.30:  Max Ann Veloc 
 AZIF.deg               137.03:  Azm, Final 
 BHAT.                   Other:  BHA Type 
 BROT.°/30m               0.80:  Build Rotating 
 BS  .in                  8.00:  Bit Size 
 BTPL.psig              161.00:  Bit Press Loss 
 CABU.                      No:  Customer Abuse 
 COMM.                     ?\:  Run Comments 1 
 TCS .hr                  9.59:  Time Ciculation Ended 
 CV  .mps                 3.76:  Crit Velocity 
 CVMX.mps                 4.26:  Max Crit Veloc 
 DD1 .         Intigam Rahimov:  Direct Drillr 1 
 DD2 .          Rashad Gojayev:  Direct Drillr 2 
 DDSV.                   Other:  DD Service 
 DEFF.%                 100.00:  % Det Eff 
 DLRX.°/30m               1.44:  Dogleg Rot Max 
 DLSO.°/30m               0.00:  Dogleg Oriented 
 DLSX.°/30m               0.00:  Dogleg Str Max 
 DRET.      03.31.12 02-Feb-20:  Drill End Time 
 DRST.      03.31.12 02-Feb-20:  Drill Start Tim 
 DTIM.hr                  1.99:  Time Drilling 
 EDEP.m                4047.51:  End Depth 
 ENG1.           Eldar Hajiyev:  Engineer 1 
 ENG2.          Rasim Hashimov:  Engineer 2 
 ENG3.          Rustam Safarov:  Engineer 3 
 ETIM.      03.31.12 02-Feb-20:  End Time 
 FLOI.gpm               300.00:  Flow In 
 FLON.gpm               250.00:  Flow In Min 
 FLOS.cptm                0.00:  Fluid Loss 
 FLOX.gpm               330.00:  Flow In Max 
 HFLO.                      No:  High Flow 
 HPRE.                      No:  High Pressure 
 HTEM.                      No:  High Temp 
 HYDO.m                   2.50:  Hydro Offset 
 IFIN.deg                39.54:  Inc, Final 
 IMAX.deg                41.14:  Inc Max 
 IMIN.deg                39.81:  Inc Min 
 IMND.m                4005.21:  Inc Min Depth 
 IMXD.m                3948.42:  Inc Max Depth 
 JARR.                      No:  Jarring 
 LETM.      03.31.12 02-Feb-20:  Log End Time 
 LOST.hr                     0:  Lost Rig Time 
 LSTM.      03.31.12 02-Feb-20:  Log Start Time 
 MDCL.ppm             35000.00:  Mud Chlorides 
 MDES.     Inversion Oil/Synthetic:  Mud Desc 
 DFD .sg                  1.32:  Mud Density 
 MDMN.sg                  1.32:  Dens Mud Min 
 MDMX.sg                  1.32:  Dens Mud Max 
 MOIL.                      59:  Run Mud Oil % 
 MOWR.                   71:29:  Run Mud OWR 
 MSND.                       0:  Run Mud Sand % 
 MSOL.                      17:  Run Mud Solids% 
 DFV .spqt               86.00:  Mud Viscosity 
 MWOD.in                  4.75:  MWD Tool OD 
 MWSI.                      No:  Serv Intrp, MWD 
 OTIM.hr                 46.72:  Time Operating 
 PCON.           Look Like New:  Pad Condition 
 PMAX.psia             3300.00:  Press Op, Max 
 PV  .cP                 30.00:  Mud PV 
 RUN .                     400:  Run Number 
 ROPA.m/hr               35.00:  ROP Avg 
 ROPN.m/hr               25.00:  ROP Min 
 ROPX.m/hr               40.00:  ROP Max 
 RPMA.rpm                80.00:  RPM Surface Avg 
 RPMN.rpm                60.00:  RPM Surface Min 
 RPMX.rpm               100.00:  RPM Surface Max 
 RRUN.                     400:  Rig Run Number 
 RTIM.hr                  1.99:  Time Reaming 
 SAZI.deg               133.93:  Azm, Start 
 SDEP.m                4047.51:  Start Depth 
 SIDD.                      No:  Serv Intrp, DD 
 SINC.deg                40.28:  Inc, Start 
 SPPA.psig             3250.00:  SPP Avg 
 SPPN.psig             3200.00:  SPP Min 
 SPPX.psig             3300.00:  SPP Max 
 STIM.      03.31.12 02-Feb-20:  Start Time 
 SVCS.                 DD, MWD:  Services 
 SVER.                    9.20:  Sperry Version 
 TDAT.m                  47.00:  Tot Depth Attmp 
 TDDF.                      No:  Trip for DD 
 TFF .                      No:  Trip for Fail 
 TQAA.f-kp                0.00:  Torque Abs Avg 
 TQAN.f-kp                0.00:  Torque Abs Min 
 TQAX.f-kp                0.00:  Torque Abs Max 
 TRRT.°/30m               0.70:  Turn Rotating 
 MRT .                    HCIM:  Maximum Recorded Temperature 
 TTMX.degC               70.59:  Max Tool Temp 
 VS01.             90598770F11:  Virtual Str1 SN 
 VS02.             90598769F11:  Virtual Str2 SN 
 VS03.            90515978Z1W1:  Virtual Str3 SN 
 VS04.          90584144R12X14:  Virtual Str4 SN 
 WBMN.klb                 0.00:  WOB Min 
 WITN.            Peter Wilson:  Customer Rep 
 WOBA.klb                 0.00:  WOB Avg 
 WOBX.klb                 0.00:  WOB Max 
 YP  .lhf2               29.00:  Yield Point 
~Curve Information Block
#MNEM.UNIT                 API CODE     Curve Description
#---------               -----------    ---------------------------
 TIME.HHMMSS            00 000 000 000:  GT Time & Date
 GTDEPTH.m              00 000 000 000:  GT Depth
 GTPQH.psia             00 000 000 000:  GT HR Quartz Pressure
 GTTQ.degC              00 000 000 000:  GT Quartz Temperature
 GTTN.NONE              00 000 000 000:  GT Test Number
 GTET.sec               00 000 000 000:  GT Elapsed Test Time
 GTTVD.m                00 000 000 000:  GT True Vertical Depth
#Other Information
#
#WARRANTY: Halliburton will use its best efforts to furnish customers with 
#accurate information and interpretations that are part of, and incident to, the services 
#provided.  However, Halliburton cannot and does not warrant the accuracy 
#or correctness of such information and interpretations.  Under no circumstances should any 
#such information or interpretation be relied upon as the sole basis for any drilling, 
#completion, production, or financial decision or any procedure involving any risk to the 
#safety of any drilling venture, drilling rig or its crew or any other third party.  The 
#Customer has full responsibility for all drilling, completion and production operation.  
#Halliburton makes no representations or warranties, either expressed or 
#implied, including, but not limited to, the implied warranties of merchantability or fitness 
#for a particular purpose, with respect to the services rendered.  In no event will 
#Halliburton be liable for failure to obtain any particular results or for 
#any damages, including, but not limited to, indirect, special or consequential damages, 
#resulting from the use of any information or interpretation provided by Halliburton.
#
~A           TIME           GTDEPTH  GTPQH  GTTQ  GTTN  GTET   GTTVD  
# ...
   07:15:14.000.03-Feb-2020 4002.71  968.35 64.26 9.00 414.00 3014.99
   07:15:14.200.03-Feb-2020 4002.71  968.35 64.26 9.00 414.20 3014.99
   07:15:14.400.03-Feb-2020 4002.71  974.42 64.26 9.00 414.40 3014.99
   07:15:14.600.03-Feb-2020 4002.71  977.64 64.26 9.00 414.60 3014.99
   07:15:14.800.03-Feb-2020 4002.71  980.66 64.26 9.00 414.80 3014.99
   07:15:15.000.03-Feb-2020 4002.71  983.48 64.26 9.00 415.00 3014.99
   07:15:15.200.03-Feb-2020 4002.71  983.48 64.26 9.00 415.20 3014.99
   07:15:15.400.03-Feb-2020 4002.71  989.59 64.26 9.00 415.40 3014.99
   07:15:15.600.03-Feb-2020 4002.71  992.63 64.26 9.00 415.60 3014.99
   07:15:15.800.03-Feb-2020 4002.71  995.65 64.26 9.00 415.80 3014.99
   07:15:16.000.03-Feb-2020 4002.71  998.69 64.26 9.00 416.00 3014.99
   07:15:16.200.03-Feb-2020 4002.71  998.69 64.26 9.00 416.20 3014.99
   07:15:16.400.03-Feb-2020 4002.71 1004.75 64.26 9.00 416.40 3014.99
   07:15:16.600.03-Feb-2020 4002.71 1007.82 64.26 9.00 416.60 3014.99
   07:15:16.800.03-Feb-2020 4002.71 1010.89 64.26 9.00 416.80 3014.99
   07:15:17.000.03-Feb-2020 4002.71 1013.40 64.26 9.00 417.00 3014.99
   07:15:17.200.03-Feb-2020 4002.71 1013.40 64.26 9.00 417.20 3014.99
   07:15:17.400.03-Feb-2020 4002.71 1018.85 64.26 9.00 417.40 3014.99
   07:15:17.600.03-Feb-2020 4002.71 1022.01 64.26 9.00 417.60 3014.99
   07:15:17.800.03-Feb-2020 4002.71 1025.11 64.26 9.00 417.80 3014.99
   07:15:18.000.03-Feb-2020 4002.71 1028.22 64.26 9.00 418.00 3014.99
   07:15:18.200.03-Feb-2020 4002.71 1028.22 64.26 9.00 418.20 3014.99
   07:15:18.400.03-Feb-2020 4002.71 1034.43 64.26 9.00 418.40 3014.99
   07:15:18.600.03-Feb-2020 4002.71 1037.51 64.26 9.00 418.60 3014.99
   07:15:18.800.03-Feb-2020 4002.71 1040.63 64.26 9.00 418.80 3014.99
   07:15:19.000.03-Feb-2020 4002.71 1043.76 64.26 9.00 419.00 3014.99
   07:15:19.200.03-Feb-2020 4002.71 1043.76 64.26 9.00 419.20 3014.99
   07:15:19.400.03-Feb-2020 4002.71 1049.83 64.26 9.00 419.40 3014.99
   07:15:19.600.03-Feb-2020 4002.71 1053.01 64.26 9.00 419.60 3014.99
   07:15:19.800.03-Feb-2020 4002.71 1056.08 64.26 9.00 419.80 3014.99
   07:15:20.000.03-Feb-2020 4002.71 1059.36 64.26 9.00 420.00 3014.99
   07:15:20.200.03-Feb-2020 4002.71 1059.36 64.26 9.00 420.20 3014.99
   07:15:20.400.03-Feb-2020 4002.71 1065.60 64.26 9.00 420.40 3014.99
   07:15:20.600.03-Feb-2020 4002.71 1068.53 64.26 9.00 420.60 3014.99
   07:15:20.800.03-Feb-2020 4002.71 1071.59 64.26 9.00 420.80 3014.99
   07:15:21.000.03-Feb-2020 4002.71 1073.90 64.26 9.00 421.00 3014.99
   07:15:21.200.03-Feb-2020 4002.71 1073.90 64.26 9.00 421.20 3014.99
   07:15:21.400.03-Feb-2020 4002.71 1079.83 64.26 9.00 421.40 3014.99
   07:15:21.600.03-Feb-2020 4002.71 1083.09 64.26 9.00 421.60 3014.99
   07:15:21.800.03-Feb-2020 4002.71 1086.23 64.26 9.00 421.80 3014.99
   07:15:22.000.03-Feb-2020 4002.71 1089.52 64.26 9.00 422.00 3014.99
   07:15:22.200.03-Feb-2020 4002.71 1089.52 64.26 9.00 422.20 3014.99
   07:15:22.400.03-Feb-2020 4002.71 1095.95 64.26 9.00 422.40 3014.99
   07:15:22.600.03-Feb-2020 4002.71 1099.14 64.26 9.00 422.60 3014.99
   07:15:22.800.03-Feb-2020 4002.71 1102.02 64.26 9.00 422.80 3014.99
   07:15:23.000.03-Feb-2020 4002.71 1105.38 64.26 9.00 423.00 3014.99
   07:15:23.200.03-Feb-2020 4002.71 1105.38 64.26 9.00 423.20 3014.99
   07:15:23.400.03-Feb-2020 4002.71 1111.73 64.26 9.00 423.40 3014.99
   07:15:23.600.03-Feb-2020 4002.71 1115.00 64.26 9.00 423.60 3014.99
   07:15:23.800.03-Feb-2020 4002.71 1118.19 64.26 9.00 423.80 3014.99
   07:15:24.000.03-Feb-2020 4002.71 1121.37 64.26 9.00 424.00 3014.99
   07:15:24.200.03-Feb-2020 4002.71 1121.37 64.26 9.00 424.20 3014.99
   07:15:24.400.03-Feb-2020 4002.71 1127.72 64.26 9.00 424.40 3014.99
   07:15:24.600.03-Feb-2020 4002.71 1130.55 64.26 9.00 424.60 3014.99
   07:15:24.800.03-Feb-2020 4002.71 1133.13 64.26 9.00 424.80 3014.99
   07:15:25.000.03-Feb-2020 4002.71 1136.25 64.26 9.00 425.00 3014.99
   07:15:25.200.03-Feb-2020 4002.71 1136.25 64.26 9.00 425.20 3014.99
   07:15:25.400.03-Feb-2020 4002.71 1142.70 64.26 9.00 425.40 3014.99
   07:15:25.600.03-Feb-2020 4002.71 1145.94 64.26 9.00 425.60 3014.99
   07:15:25.800.03-Feb-2020 4002.71 1149.21 64.26 9.00 425.80 3014.99
   07:15:26.000.03-Feb-2020 4002.71 1152.11 64.26 9.00 426.00 3014.99
   07:15:26.200.03-Feb-2020 4002.71 1152.11 64.26 9.00 426.20 3014.99
   07:15:26.400.03-Feb-2020 4002.71 1158.75 64.26 9.00 426.40 3014.99
   07:15:26.600.03-Feb-2020 4002.71 1162.07 64.26 9.00 426.60 3014.99
   07:15:26.800.03-Feb-2020 4002.71 1165.28 64.26 9.00 426.80 3014.99
   07:15:27.000.03-Feb-2020 4002.71 1168.53 64.26 9.00 427.00 3014.99
   07:15:27.200.03-Feb-2020 4002.71 1168.53 64.26 9.00 427.20 3014.99
   07:15:27.400.03-Feb-2020 4002.71 1174.99 64.26 9.00 427.40 3014.99
   07:15:27.600.03-Feb-2020 4002.71 1178.26 64.26 9.00 427.60 3014.99
   07:15:27.800.03-Feb-2020 4002.71 1181.50 64.26 9.00 427.80 3014.99
   07:15:28.000.03-Feb-2020 4002.71 1184.45 64.26 9.00 428.00 3014.99
   07:15:28.200.03-Feb-2020 4002.71 1184.45 64.26 9.00 428.20 3014.99
   07:15:28.400.03-Feb-2020 4002.71 1189.84 64.26 9.00 428.40 3014.99
   07:15:28.600.03-Feb-2020 4002.71 1193.14 64.26 9.00 428.60 3014.99
   07:15:28.800.03-Feb-2020 4002.71 1196.40 64.26 9.00 428.80 3014.99
   07:15:29.000.03-Feb-2020 4002.71 1199.84 64.26 9.00 429.00 3014.99
   07:15:29.200.03-Feb-2020 4002.71 1199.84 64.26 9.00 429.20 3014.99
   07:15:29.400.03-Feb-2020 4002.71 1206.28 64.26 9.00 429.40 3014.99
   07:15:29.600.03-Feb-2020 4002.71 1209.51 64.26 9.00 429.60 3014.99
   07:15:29.800.03-Feb-2020 4002.71 1212.96 64.26 9.00 429.80 3014.99
   07:15:30.000.03-Feb-2020 4002.71 1216.17 64.26 9.00 430.00 3014.99
   07:15:30.200.03-Feb-2020 4002.71 1216.17 64.26 9.00 430.20 3014.99
   07:15:30.400.03-Feb-2020 4002.71 1222.69 64.26 9.00 430.40 3014.99
   07:15:30.600.03-Feb-2020 4002.71 1226.07 64.26 9.00 430.60 3014.99
   07:15:30.800.03-Feb-2020 4002.71 1229.35 64.26 9.00 430.80 3014.99
   07:15:31.000.03-Feb-2020 4002.71 1232.33 64.27 9.00 431.00 3014.99
   07:15:31.200.03-Feb-2020 4002.71 1232.33 64.27 9.00 431.20 3014.99
   07:15:31.400.03-Feb-2020 4002.71 1238.86 64.27 9.00 431.40 3014.99
   07:15:31.600.03-Feb-2020 4002.71 1241.68 64.27 9.00 431.60 3014.99
   07:15:31.800.03-Feb-2020 4002.71 1244.54 64.27 9.00 431.80 3014.99
   07:15:32.000.03-Feb-2020 4002.71 1247.80 64.27 9.00 432.00 3014.99
   07:15:32.200.03-Feb-2020 4002.71 1251.19 64.27 9.00 432.20 3014.99
   07:15:32.400.03-Feb-2020 4002.71 1254.53 64.27 9.00 432.40 3014.99
   07:15:32.600.03-Feb-2020 4002.71 1257.82 64.27 9.00 432.60 3014.99
   07:15:32.800.03-Feb-2020 4002.71 1261.09 64.27 9.00 432.80 3014.99
   07:15:33.000.03-Feb-2020 4002.71 1264.47 64.27 9.00 433.00 3014.99
   07:15:33.200.03-Feb-2020 4002.71 1264.47 64.27 9.00 433.20 3014.99
   07:15:33.400.03-Feb-2020 4002.71 1271.11 64.27 9.00 433.40 3014.99
   07:15:33.600.03-Feb-2020 4002.71 1274.41 64.27 9.00 433.60 3014.99
   07:15:33.800.03-Feb-2020 4002.71 1277.68 64.27 9.00 433.80 3014.99
   07:15:34.000.03-Feb-2020 4002.71 1281.11 64.27 9.00 434.00 3014.99
   07:15:34.200.03-Feb-2020 4002.71 1281.11 64.27 9.00 434.20 3014.99
   07:15:34.400.03-Feb-2020 4002.71 1287.51 64.27 9.00 434.40 3014.99
   07:15:34.600.03-Feb-2020 4002.71 1290.44 64.27 9.00 434.60 3014.99
   07:15:34.800.03-Feb-2020 4002.71 1293.32 64.27 9.00 434.80 3014.99
   07:15:35.000.03-Feb-2020 4002.71 1296.38 64.27 9.00 435.00 3014.99
   07:15:35.200.03-Feb-2020 4002.71 1296.38 64.27 9.00 435.20 3014.99
   07:15:35.400.03-Feb-2020 4002.71 1303.05 64.27 9.00 435.40 3014.99
   07:15:35.600.03-Feb-2020 4002.71 1306.40 64.27 9.00 435.60 3014.99
   07:15:35.800.03-Feb-2020 4002.71 1309.74 64.27 9.00 435.80 3014.99
   07:15:36.000.03-Feb-2020 4002.71 1313.07 64.27 9.00 436.00 3014.99
   07:15:36.200.03-Feb-2020 4002.71 1313.07 64.27 9.00 436.20 3014.99
   07:15:36.400.03-Feb-2020 4002.71 1319.78 64.27 9.00 436.40 3014.99
   07:15:36.600.03-Feb-2020 4002.71 1323.07 64.27 9.00 436.60 3014.99
   07:15:36.800.03-Feb-2020 4002.71 1326.25 64.27 9.00 436.80 3014.99
