~Version Information
 VERS.                  2.0:   CWLS log ASCII Standard -VERSION 2.0
 WRAP.                   NO:   One line per depth step
~Well Information Block
#MNEM.UNIT     VALUE/NAME     DESCRIPTION
#---------     -----------    ---------------------------
 STRT.S             08:07:30 03-Feb-20: START TIME 08:07:30 03-Feb-20
 STOP.S             08:15:16 03-Feb-20: STOP TIME  08:15:16 03-Feb-20
 STEP.S                   0.00: STEP TIME
 NULL.                 -999.25: NULL VALUE
 DFWT.                        :  DIST FWL TEXT
 DFST.                        :  DIST FSL TEXT
 DMF .             Drill Floor:  DRILL MEAS FROM
 STIM.      09.30.00 26-Dec-19:  START TIME
 DATE.      08.00.00 20-Jan-20:  END TIME
 SPUD.               23-Nov-19:  SPUD DATE
 NREF.                    Grid:  NORTH REFERENCE
 HPTY.       Minimum Curvature:  HOLE POS TYPE
 DMOD.             Drill Model:  DRILL MOD DESC
 SVYD.                  Survey:  SURVEY DESC
 ILTD.               Lithology:  INTERP LTH DESC
 FTOP.          Formation Tops:  FORM TOPS DESC
 SON .        AZ-XX-0906192647:  JOB NUMBER
 WTYP.                Deviated:  WELL TYPE
 COMP.     BP Exploration (Caspian Sea) Ltd:  COMPANY
 BASE.              Azerbaijan:  LOGGING EQUIPMENT BASE LOCATION
 REGN.                 Eurasia:  REGION
 FLD .                     ACG:  FIELD NAME
 SRVC.              KCA Deutag:  CONTRACTOR
 MWDS.                    Baku:  MWD SHOP
 WELL.     A10 (Slot 20) - SCP:  WELL NAME
 JOBN.        AZ-XX-0906192647:  JOB TICKET NUMB
 RIG .                 Chirag1:  RIG NAME
 DCON.     Halliburton Sperry Drilling:  DIRECTNL CONTR
 UNIT.                     N/A:  LOGGING EQUIPMENT ID
 PDAT.          Mean Sea Level:  PERMANENT DATUM
 MDS .        Operator Entered:  MAG DATA SOURCE
 CTRY.              Azerbaijan:  COUNTRY NAME
 UWI .            /AZE00000090:  UNIQUE WELL IDENTIFIER
 API .            /AZE00000090:  API NUMBER
 CNTY.                        :  COUNTY
 PROV.                        :  PROVINCE
 STAT.                        :  STATE
 LOC .                        :  LOCATION
 LMF .             Drill Floor:  LOG MEASURED FROM
 TVDS.m                  36.60:  TVDSS CORRECTN
 LATI.deg                40.08:  LATITUDE
 LONG.deg                51.24:  LONGITUDE
 WHNS.m                  -7.94:  WELL HEAD N/S
 WHEW.m                   1.56:  WELL HEAD E/W
 UTMX.m              520429.26:  UTM X
 UTMY.m             4438973.87:  UTM Y
 DFWL.m                   0.00:  DISTANCE FWL
 DFSL.m                   0.00:  DISTANCE FSL
 SDEP.m                1455.00:  START DEPTH
 TDD .m                4047.51:  TOTAL DEPTH (DRILLER)
 VSDR.deg               112.75:  VERT SEC DIRECT
 GVFD.g                   1.00:  GRAVITY FIELD
 MFLD.nT              50261.00:  MAGNETIC FIELD
 MDIP.deg                59.52:  MAGNETIC DIP
 MDEC.deg                 6.42:  MAGNETIC DECL
 GRDC.deg                 0.17:  GRID CORRECTION
 AZTC.deg                 6.25:  AZM TOTAL CORR
 EPD .m                   0.00:  ELEVATION
 EGL .m                   0.00:  GROUND ELEVATION
 WDMS.m                 121.00:  WD ELEV
 APD .m                  36.60:  DEPTH ABOVE PD
 AGAP.m                  36.60:  AIR GAP
 VSEW.m                   1.56:  VERT SEC E/W
 VSNS.m                  -7.94:  VERT SEC N/S
 DEP .m                1140.01:  DEPTH
 EKB .m                  36.60:  KB ELEVATION
 EDF .m                  36.60:  DF ELEVATION
 VSC .                       0:  VS TO CLOSURE
 MAGU.                 1849206:  MAGUTM CHECKSUM
~Parameter Information Block
#MNEM.UNIT       Value        Description
#---------     -----------    ---------------------------
 AV  .mps                 1.70:  Ann Velocity 
 AVMX.mps                 2.30:  Max Ann Veloc 
 AZIF.deg               137.03:  Azm, Final 
 BHAT.                   Other:  BHA Type 
 BROT.ฐ/30m               0.80:  Build Rotating 
 BS  .in                  8.00:  Bit Size 
 BTPL.psig              161.00:  Bit Press Loss 
 CABU.                      No:  Customer Abuse 
 COMM.                     ิงZ:  Run Comments 1 
 TCS .hr                  9.59:  Time Ciculation Ended 
 CV  .mps                 3.76:  Crit Velocity 
 CVMX.mps                 4.26:  Max Crit Veloc 
 DD1 .         Intigam Rahimov:  Direct Drillr 1 
 DD2 .          Rashad Gojayev:  Direct Drillr 2 
 DDSV.                   Other:  DD Service 
 DEFF.%                 100.00:  % Det Eff 
 DLRX.ฐ/30m               1.44:  Dogleg Rot Max 
 DLSO.ฐ/30m               0.00:  Dogleg Oriented 
 DLSX.ฐ/30m               0.00:  Dogleg Str Max 
 DRET.      03.31.12 02-Feb-20:  Drill End Time 
 DRST.      03.31.12 02-Feb-20:  Drill Start Tim 
 DTIM.hr                  1.99:  Time Drilling 
 EDEP.m                4047.51:  End Depth 
 ENG1.           Eldar Hajiyev:  Engineer 1 
 ENG2.          Rasim Hashimov:  Engineer 2 
 ENG3.          Rustam Safarov:  Engineer 3 
 ETIM.      03.31.12 02-Feb-20:  End Time 
 FLOI.gpm               300.00:  Flow In 
 FLON.gpm               250.00:  Flow In Min 
 FLOS.cptm                0.00:  Fluid Loss 
 FLOX.gpm               330.00:  Flow In Max 
 HFLO.                      No:  High Flow 
 HPRE.                      No:  High Pressure 
 HTEM.                      No:  High Temp 
 HYDO.m                   2.50:  Hydro Offset 
 IFIN.deg                39.54:  Inc, Final 
 IMAX.deg                41.14:  Inc Max 
 IMIN.deg                39.81:  Inc Min 
 IMND.m                4005.21:  Inc Min Depth 
 IMXD.m                3948.42:  Inc Max Depth 
 JARR.                      No:  Jarring 
 LETM.      03.31.12 02-Feb-20:  Log End Time 
 LOST.hr                     0:  Lost Rig Time 
 LSTM.      03.31.12 02-Feb-20:  Log Start Time 
 MDCL.ppm             35000.00:  Mud Chlorides 
 MDES.     Inversion Oil/Synthetic:  Mud Desc 
 DFD .sg                  1.32:  Mud Density 
 MDMN.sg                  1.32:  Dens Mud Min 
 MDMX.sg                  1.32:  Dens Mud Max 
 MOIL.                      59:  Run Mud Oil % 
 MOWR.                   71:29:  Run Mud OWR 
 MSND.                       0:  Run Mud Sand % 
 MSOL.                      17:  Run Mud Solids% 
 DFV .spqt               86.00:  Mud Viscosity 
 MWOD.in                  4.75:  MWD Tool OD 
 MWSI.                      No:  Serv Intrp, MWD 
 OTIM.hr                 46.72:  Time Operating 
 PCON.           Look Like New:  Pad Condition 
 PMAX.psia             3300.00:  Press Op, Max 
 PV  .cP                 30.00:  Mud PV 
 RUN .                     400:  Run Number 
 ROPA.m/hr               35.00:  ROP Avg 
 ROPN.m/hr               25.00:  ROP Min 
 ROPX.m/hr               40.00:  ROP Max 
 RPMA.rpm                80.00:  RPM Surface Avg 
 RPMN.rpm                60.00:  RPM Surface Min 
 RPMX.rpm               100.00:  RPM Surface Max 
 RRUN.                     400:  Rig Run Number 
 RTIM.hr                  1.99:  Time Reaming 
 SAZI.deg               133.93:  Azm, Start 
 SDEP.m                4047.51:  Start Depth 
 SIDD.                      No:  Serv Intrp, DD 
 SINC.deg                40.28:  Inc, Start 
 SPPA.psig             3250.00:  SPP Avg 
 SPPN.psig             3200.00:  SPP Min 
 SPPX.psig             3300.00:  SPP Max 
 STIM.      03.31.12 02-Feb-20:  Start Time 
 SVCS.                 DD, MWD:  Services 
 SVER.                    9.20:  Sperry Version 
 TDAT.m                  47.00:  Tot Depth Attmp 
 TDDF.                      No:  Trip for DD 
 TFF .                      No:  Trip for Fail 
 TQAA.f-kp                0.00:  Torque Abs Avg 
 TQAN.f-kp                0.00:  Torque Abs Min 
 TQAX.f-kp                0.00:  Torque Abs Max 
 TRRT.ฐ/30m               0.70:  Turn Rotating 
 MRT .                    HCIM:  Maximum Recorded Temperature 
 TTMX.degC               70.59:  Max Tool Temp 
 VS01.             90598770F11:  Virtual Str1 SN 
 VS02.             90598769F11:  Virtual Str2 SN 
 VS03.            90515978Z1W1:  Virtual Str3 SN 
 VS04.          90584144R12X14:  Virtual Str4 SN 
 WBMN.klb                 0.00:  WOB Min 
 WITN.            Peter Wilson:  Customer Rep 
 WOBA.klb                 0.00:  WOB Avg 
 WOBX.klb                 0.00:  WOB Max 
 YP  .lhf2               29.00:  Yield Point 
~Curve Information Block
#MNEM.UNIT                 API CODE     Curve Description
#---------               -----------    ---------------------------
 TIME.HHMMSS            00 000 000 000:  GT Time & Date
 GTDEPTH.m              00 000 000 000:  GT Depth
 GTPQH.psia             00 000 000 000:  GT HR Quartz Pressure
 GTTQ.degC              00 000 000 000:  GT Quartz Temperature
 GTTN.NONE              00 000 000 000:  GT Test Number
 GTET.sec               00 000 000 000:  GT Elapsed Test Time
 GTTVD.m                00 000 000 000:  GT True Vertical Depth
#Other Information
#
#WARRANTY: Halliburton will use its best efforts to furnish customers with 
#accurate information and interpretations that are part of, and incident to, the services 
#provided.  However, Halliburton cannot and does not warrant the accuracy 
#or correctness of such information and interpretations.  Under no circumstances should any 
#such information or interpretation be relied upon as the sole basis for any drilling, 
#completion, production, or financial decision or any procedure involving any risk to the 
#safety of any drilling venture, drilling rig or its crew or any other third party.  The 
#Customer has full responsibility for all drilling, completion and production operation.  
#Halliburton makes no representations or warranties, either expressed or 
#implied, including, but not limited to, the implied warranties of merchantability or fitness 
#for a particular purpose, with respect to the services rendered.  In no event will 
#Halliburton be liable for failure to obtain any particular results or for 
#any damages, including, but not limited to, indirect, special or consequential damages, 
#resulting from the use of any information or interpretation provided by Halliburton.
#
~A           TIME           GTDEPTH  GTPQH  GTTQ  GTTN   GTET   GTTVD  
# ...
   08:13:54.250.03-Feb-2020 4023.01 3159.71 65.59 10.00 384.21 3030.56
   08:13:54.450.03-Feb-2020 4023.01 3159.71 65.59 10.00 384.41 3030.56
   08:13:54.650.03-Feb-2020 4023.01 3159.71 65.59 10.00 384.61 3030.56
   08:13:54.850.03-Feb-2020 4023.01 3159.72 65.59 10.00 384.81 3030.56
   08:13:55.050.03-Feb-2020 4023.01 3159.75 65.59 10.00 385.01 3030.56
   08:13:55.250.03-Feb-2020 4023.01 3159.75 65.59 10.00 385.21 3030.56
   08:13:55.450.03-Feb-2020 4023.01 3159.74 65.59 10.00 385.41 3030.56
   08:13:55.650.03-Feb-2020 4023.01 3159.78 65.59 10.00 385.61 3030.56
   08:13:55.850.03-Feb-2020 4023.01 3159.81 65.59 10.00 385.81 3030.56
   08:13:56.050.03-Feb-2020 4023.01 3159.44 65.59 10.00 386.01 3030.56
   08:13:56.250.03-Feb-2020 4023.01 3159.44 65.59 10.00 386.21 3030.56
   08:13:56.450.03-Feb-2020 4023.01 3159.73 65.59 10.00 386.41 3030.56
   08:13:56.650.03-Feb-2020 4023.01 3159.87 65.59 10.00 386.61 3030.56
   08:13:56.850.03-Feb-2020 4023.01 3159.40 65.59 10.00 386.81 3030.56
   08:13:57.050.03-Feb-2020 4023.01 3159.95 65.59 10.00 387.01 3030.56
   08:13:57.250.03-Feb-2020 4023.01 3159.95 65.59 10.00 387.21 3030.56
   08:13:57.450.03-Feb-2020 4023.01 3159.92 65.59 10.00 387.41 3030.56
   08:13:57.650.03-Feb-2020 4023.01 3159.84 65.59 10.00 387.61 3030.56
   08:13:57.850.03-Feb-2020 4023.01 3159.88 65.59 10.00 387.81 3030.56
   08:13:58.050.03-Feb-2020 4023.01 3159.89 65.59 10.00 388.01 3030.56
   08:13:58.250.03-Feb-2020 4023.01 3159.89 65.59 10.00 388.21 3030.56
   08:13:58.451.03-Feb-2020 4023.01 3159.50 65.59 10.00 388.41 3030.56
   08:13:58.651.03-Feb-2020 4023.01 3159.96 65.59 10.00 388.61 3030.56
   08:13:58.851.03-Feb-2020 4023.01 3159.74 65.59 10.00 388.81 3030.56
   08:13:59.051.03-Feb-2020 4023.01 3159.98 65.59 10.00 389.01 3030.56
   08:13:59.251.03-Feb-2020 4023.01 3159.98 65.59 10.00 389.21 3030.56
   08:13:59.451.03-Feb-2020 4023.01 3159.94 65.59 10.00 389.41 3030.56
   08:13:59.651.03-Feb-2020 4023.01 3159.49 65.59 10.00 389.61 3030.56
   08:13:59.851.03-Feb-2020 4023.01 3160.11 65.59 10.00 389.81 3030.56
   08:14:00.051.03-Feb-2020 4023.01 3159.81 65.59 10.00 390.01 3030.56
   08:14:00.251.03-Feb-2020 4023.01 3159.81 65.59 10.00 390.21 3030.56
   08:14:00.451.03-Feb-2020 4023.01 3159.93 65.59 10.00 390.41 3030.56
   08:14:00.651.03-Feb-2020 4023.01 3159.97 65.59 10.00 390.61 3030.56
   08:14:00.851.03-Feb-2020 4023.01 3159.96 65.59 10.00 390.81 3030.56
   08:14:01.051.03-Feb-2020 4023.01 3159.94 65.59 10.00 391.01 3030.56
   08:14:01.251.03-Feb-2020 4023.01 3159.94 65.59 10.00 391.21 3030.56
   08:14:01.451.03-Feb-2020 4023.01 3159.99 65.59 10.00 391.41 3030.56
   08:14:01.651.03-Feb-2020 4023.01 3160.00 65.59 10.00 391.61 3030.56
   08:14:01.851.03-Feb-2020 4023.01 3160.03 65.59 10.00 391.81 3030.56
   08:14:02.051.03-Feb-2020 4023.01 3160.05 65.59 10.00 392.01 3030.56
   08:14:02.251.03-Feb-2020 4023.01 3160.05 65.59 10.00 392.21 3030.56
   08:14:02.451.03-Feb-2020 4023.01 3159.97 65.59 10.00 392.41 3030.56
   08:14:02.651.03-Feb-2020 4023.01 3160.09 65.59 10.00 392.61 3030.56
   08:14:02.851.03-Feb-2020 4023.01 3159.98 65.58 10.00 392.81 3030.56
   08:14:03.051.03-Feb-2020 4023.01 3159.80 65.58 10.00 393.01 3030.56
   08:14:03.251.03-Feb-2020 4023.01 3159.80 65.58 10.00 393.21 3030.56
   08:14:03.451.03-Feb-2020 4023.01 3159.97 65.58 10.00 393.41 3030.56
   08:14:03.651.03-Feb-2020 4023.01 3159.99 65.58 10.00 393.61 3030.56
   08:14:03.851.03-Feb-2020 4023.01 3160.03 65.58 10.00 393.81 3030.56
   08:14:04.051.03-Feb-2020 4023.01 3160.01 65.58 10.00 394.01 3030.56
   08:14:04.251.03-Feb-2020 4023.01 3160.01 65.58 10.00 394.21 3030.56
   08:14:04.451.03-Feb-2020 4023.01 3160.07 65.58 10.00 394.41 3030.56
   08:14:04.651.03-Feb-2020 4023.01 3160.05 65.58 10.00 394.61 3030.56
   08:14:04.851.03-Feb-2020 4023.01 3160.07 65.58 10.00 394.81 3030.56
   08:14:05.051.03-Feb-2020 4023.01 3160.09 65.58 10.00 395.01 3030.56
   08:14:05.251.03-Feb-2020 4023.01 3160.09 65.58 10.00 395.21 3030.56
   08:14:05.451.03-Feb-2020 4023.01 3159.73 65.58 10.00 395.41 3030.56
   08:14:05.651.03-Feb-2020 4023.01 3160.21 65.58 10.00 395.61 3030.56
   08:14:05.851.03-Feb-2020 4023.01 3159.94 65.58 10.00 395.81 3030.56
   08:14:06.051.03-Feb-2020 4023.01 3160.18 65.58 10.00 396.01 3030.56
   08:14:06.251.03-Feb-2020 4023.01 3160.18 65.58 10.00 396.21 3030.56
   08:14:06.451.03-Feb-2020 4023.01 3160.10 65.58 10.00 396.41 3030.56
   08:14:06.651.03-Feb-2020 4023.01 3159.99 65.58 10.00 396.61 3030.56
   08:14:06.851.03-Feb-2020 4023.01 3160.19 65.58 10.00 396.81 3030.56
   08:14:07.051.03-Feb-2020 4023.01 3160.13 65.58 10.00 397.01 3030.56
   08:14:07.251.03-Feb-2020 4023.01 3160.13 65.58 10.00 397.21 3030.56
   08:14:07.451.03-Feb-2020 4023.01 3160.11 65.58 10.00 397.41 3030.56
   08:14:07.651.03-Feb-2020 4023.01 3160.12 65.58 10.00 397.61 3030.56
   08:14:07.851.03-Feb-2020 4023.01 3159.73 65.58 10.00 397.81 3030.56
   08:14:08.051.03-Feb-2020 4023.01 3160.27 65.58 10.00 398.01 3030.56
   08:14:08.251.03-Feb-2020 4023.01 3160.27 65.58 10.00 398.21 3030.56
   08:14:08.451.03-Feb-2020 4023.01 3160.25 65.58 10.00 398.41 3030.56
   08:14:08.651.03-Feb-2020 4023.01 3160.19 65.58 10.00 398.61 3030.56
   08:14:08.851.03-Feb-2020 4023.01 3160.18 65.58 10.00 398.81 3030.56
   08:14:09.051.03-Feb-2020 4023.01 3159.89 65.58 10.00 399.01 3030.56
   08:14:09.251.03-Feb-2020 4023.01 3159.89 65.58 10.00 399.21 3030.56
   08:14:09.451.03-Feb-2020 4023.01 3160.10 65.58 10.00 399.41 3030.56
   08:14:09.651.03-Feb-2020 4023.01 3160.23 65.58 10.00 399.61 3030.56
   08:14:09.851.03-Feb-2020 4023.01 3160.16 65.58 10.00 399.81 3030.56
   08:14:10.051.03-Feb-2020 4023.01 3160.25 65.58 10.00 400.01 3030.56
   08:14:10.251.03-Feb-2020 4023.01 3160.25 65.58 10.00 400.21 3030.56
   08:14:10.451.03-Feb-2020 4023.01 3160.23 65.58 10.00 400.41 3030.56
   08:14:10.651.03-Feb-2020 4023.01 3160.21 65.58 10.00 400.61 3030.56
   08:14:10.851.03-Feb-2020 4023.01 3160.26 65.58 10.00 400.81 3030.56
   08:14:11.051.03-Feb-2020 4023.01 3160.27 65.58 10.00 401.01 3030.56
   08:14:11.251.03-Feb-2020 4023.01 3160.27 65.58 10.00 401.21 3030.56
   08:14:11.451.03-Feb-2020 4023.01 3160.28 65.58 10.00 401.41 3030.56
   08:14:11.651.03-Feb-2020 4023.01 3160.27 65.58 10.00 401.61 3030.56
   08:14:11.851.03-Feb-2020 4023.01 3160.24 65.58 10.00 401.81 3030.56
   08:14:12.051.03-Feb-2020 4023.01 3160.28 65.58 10.00 402.01 3030.56
   08:14:12.251.03-Feb-2020 4023.01 3160.28 65.58 10.00 402.21 3030.56
   08:14:12.451.03-Feb-2020 4023.01 3159.90 65.58 10.00 402.41 3030.56
   08:14:12.651.03-Feb-2020 4023.01 3160.34 65.58 10.00 402.61 3030.56
   08:14:12.851.03-Feb-2020 4023.01 3160.17 65.58 10.00 402.81 3030.56
   08:14:13.051.03-Feb-2020 4023.01 3160.29 65.58 10.00 403.01 3030.56
   08:14:13.251.03-Feb-2020 4023.01 3160.29 65.58 10.00 403.21 3030.56
   08:14:13.451.03-Feb-2020 4023.01 3160.26 65.58 10.00 403.41 3030.56
   08:14:13.651.03-Feb-2020 4023.01 3160.30 65.58 10.00 403.61 3030.56
   08:14:13.851.03-Feb-2020 4023.01 3160.28 65.58 10.00 403.81 3030.56
   08:14:14.051.03-Feb-2020 4023.01 3160.28 65.58 10.00 404.01 3030.56
   08:14:14.251.03-Feb-2020 4023.01 3160.28 65.58 10.00 404.21 3030.56
   08:14:14.451.03-Feb-2020 4023.01 3160.29 65.58 10.00 404.41 3030.56
   08:14:14.651.03-Feb-2020 4023.01 3160.29 65.58 10.00 404.61 3030.56
   08:14:14.851.03-Feb-2020 4023.01 3160.07 65.58 10.00 404.81 3030.56
   08:14:15.051.03-Feb-2020 4023.01 3160.28 65.58 10.00 405.01 3030.56
   08:14:15.251.03-Feb-2020 4023.01 3160.28 65.58 10.00 405.21 3030.56
   08:14:15.451.03-Feb-2020 4023.01 3160.37 65.58 10.00 405.41 3030.56
   08:14:15.651.03-Feb-2020 4023.01 3160.31 65.58 10.00 405.61 3030.56
   08:14:15.851.03-Feb-2020 4023.01 3159.93 65.58 10.00 405.81 3030.56
   08:14:16.051.03-Feb-2020 4023.01 3160.39 65.58 10.00 406.01 3030.56
   08:14:16.251.03-Feb-2020 4023.01 3160.39 65.58 10.00 406.21 3030.56
   08:14:16.451.03-Feb-2020 4023.01 3160.41 65.58 10.00 406.41 3030.56
   08:14:16.651.03-Feb-2020 4023.01 3160.38 65.58 10.00 406.61 3030.56
