~Version Information
 VERS.                  2.0:   CWLS log ASCII Standard -VERSION 2.0
 WRAP.                   NO:   One line per depth step
~Well Information Block
#MNEM.UNIT     VALUE/NAME     DESCRIPTION
#---------     -----------    ---------------------------
 STRT.S             06:17:54 03-Feb-20: START TIME 06:17:54 03-Feb-20
 STOP.S             06:25:43 03-Feb-20: STOP TIME  06:25:43 03-Feb-20
 STEP.S                   0.00: STEP TIME
 NULL.                 -999.25: NULL VALUE
 DFWT.                        :  DIST FWL TEXT
 DFST.                        :  DIST FSL TEXT
 DMF .             Drill Floor:  DRILL MEAS FROM
 STIM.      09.30.00 26-Dec-19:  START TIME
 DATE.      08.00.00 20-Jan-20:  END TIME
 SPUD.               23-Nov-19:  SPUD DATE
 NREF.                    Grid:  NORTH REFERENCE
 HPTY.       Minimum Curvature:  HOLE POS TYPE
 DMOD.             Drill Model:  DRILL MOD DESC
 SVYD.                  Survey:  SURVEY DESC
 ILTD.               Lithology:  INTERP LTH DESC
 FTOP.          Formation Tops:  FORM TOPS DESC
 SON .        AZ-XX-0906192647:  JOB NUMBER
 WTYP.                Deviated:  WELL TYPE
 COMP.     BP Exploration (Caspian Sea) Ltd:  COMPANY
 BASE.              Azerbaijan:  LOGGING EQUIPMENT BASE LOCATION
 REGN.                 Eurasia:  REGION
 FLD .                     ACG:  FIELD NAME
 SRVC.              KCA Deutag:  CONTRACTOR
 MWDS.                    Baku:  MWD SHOP
 WELL.     A10 (Slot 20) - SCP:  WELL NAME
 JOBN.        AZ-XX-0906192647:  JOB TICKET NUMB
 RIG .                 Chirag1:  RIG NAME
 DCON.     Halliburton Sperry Drilling:  DIRECTNL CONTR
 UNIT.                     N/A:  LOGGING EQUIPMENT ID
 PDAT.          Mean Sea Level:  PERMANENT DATUM
 MDS .        Operator Entered:  MAG DATA SOURCE
 CTRY.              Azerbaijan:  COUNTRY NAME
 UWI .            /AZE00000090:  UNIQUE WELL IDENTIFIER
 API .            /AZE00000090:  API NUMBER
 CNTY.                        :  COUNTY
 PROV.                        :  PROVINCE
 STAT.                        :  STATE
 LOC .                        :  LOCATION
 LMF .             Drill Floor:  LOG MEASURED FROM
 TVDS.m                  36.60:  TVDSS CORRECTN
 LATI.deg                40.08:  LATITUDE
 LONG.deg                51.24:  LONGITUDE
 WHNS.m                  -7.94:  WELL HEAD N/S
 WHEW.m                   1.56:  WELL HEAD E/W
 UTMX.m              520429.26:  UTM X
 UTMY.m             4438973.87:  UTM Y
 DFWL.m                   0.00:  DISTANCE FWL
 DFSL.m                   0.00:  DISTANCE FSL
 SDEP.m                1455.00:  START DEPTH
 TDD .m                4047.51:  TOTAL DEPTH (DRILLER)
 VSDR.deg               112.75:  VERT SEC DIRECT
 GVFD.g                   1.00:  GRAVITY FIELD
 MFLD.nT              50261.00:  MAGNETIC FIELD
 MDIP.deg                59.52:  MAGNETIC DIP
 MDEC.deg                 6.42:  MAGNETIC DECL
 GRDC.deg                 0.17:  GRID CORRECTION
 AZTC.deg                 6.25:  AZM TOTAL CORR
 EPD .m                   0.00:  ELEVATION
 EGL .m                   0.00:  GROUND ELEVATION
 WDMS.m                 121.00:  WD ELEV
 APD .m                  36.60:  DEPTH ABOVE PD
 AGAP.m                  36.60:  AIR GAP
 VSEW.m                   1.56:  VERT SEC E/W
 VSNS.m                  -7.94:  VERT SEC N/S
 DEP .m                1140.01:  DEPTH
 EKB .m                  36.60:  KB ELEVATION
 EDF .m                  36.60:  DF ELEVATION
 VSC .                       0:  VS TO CLOSURE
 MAGU.                 1849206:  MAGUTM CHECKSUM
~Parameter Information Block
#MNEM.UNIT       Value        Description
#---------     -----------    ---------------------------
 AV  .mps                 1.70:  Ann Velocity 
 AVMX.mps                 2.30:  Max Ann Veloc 
 AZIF.deg               137.03:  Azm, Final 
 BHAT.                   Other:  BHA Type 
 BROT.°/30m               0.80:  Build Rotating 
 BS  .in                  8.00:  Bit Size 
 BTPL.psig              161.00:  Bit Press Loss 
 CABU.                      No:  Customer Abuse 
 COMM.                     4•z:  Run Comments 1 
 TCS .hr                  9.59:  Time Ciculation Ended 
 CV  .mps                 3.76:  Crit Velocity 
 CVMX.mps                 4.26:  Max Crit Veloc 
 DD1 .         Intigam Rahimov:  Direct Drillr 1 
 DD2 .          Rashad Gojayev:  Direct Drillr 2 
 DDSV.                   Other:  DD Service 
 DEFF.%                 100.00:  % Det Eff 
 DLRX.°/30m               1.44:  Dogleg Rot Max 
 DLSO.°/30m               0.00:  Dogleg Oriented 
 DLSX.°/30m               0.00:  Dogleg Str Max 
 DRET.      03.31.12 02-Feb-20:  Drill End Time 
 DRST.      03.31.12 02-Feb-20:  Drill Start Tim 
 DTIM.hr                  1.99:  Time Drilling 
 EDEP.m                4047.51:  End Depth 
 ENG1.           Eldar Hajiyev:  Engineer 1 
 ENG2.          Rasim Hashimov:  Engineer 2 
 ENG3.          Rustam Safarov:  Engineer 3 
 ETIM.      03.31.12 02-Feb-20:  End Time 
 FLOI.gpm               300.00:  Flow In 
 FLON.gpm               250.00:  Flow In Min 
 FLOS.cptm                0.00:  Fluid Loss 
 FLOX.gpm               330.00:  Flow In Max 
 HFLO.                      No:  High Flow 
 HPRE.                      No:  High Pressure 
 HTEM.                      No:  High Temp 
 HYDO.m                   2.50:  Hydro Offset 
 IFIN.deg                39.54:  Inc, Final 
 IMAX.deg                41.14:  Inc Max 
 IMIN.deg                39.81:  Inc Min 
 IMND.m                4005.21:  Inc Min Depth 
 IMXD.m                3948.42:  Inc Max Depth 
 JARR.                      No:  Jarring 
 LETM.      03.31.12 02-Feb-20:  Log End Time 
 LOST.hr                     0:  Lost Rig Time 
 LSTM.      03.31.12 02-Feb-20:  Log Start Time 
 MDCL.ppm             35000.00:  Mud Chlorides 
 MDES.     Inversion Oil/Synthetic:  Mud Desc 
 DFD .sg                  1.32:  Mud Density 
 MDMN.sg                  1.32:  Dens Mud Min 
 MDMX.sg                  1.32:  Dens Mud Max 
 MOIL.                      59:  Run Mud Oil % 
 MOWR.                   71:29:  Run Mud OWR 
 MSND.                       0:  Run Mud Sand % 
 MSOL.                      17:  Run Mud Solids% 
 DFV .spqt               86.00:  Mud Viscosity 
 MWOD.in                  4.75:  MWD Tool OD 
 MWSI.                      No:  Serv Intrp, MWD 
 OTIM.hr                 46.72:  Time Operating 
 PCON.           Look Like New:  Pad Condition 
 PMAX.psia             3300.00:  Press Op, Max 
 PV  .cP                 30.00:  Mud PV 
 RUN .                     400:  Run Number 
 ROPA.m/hr               35.00:  ROP Avg 
 ROPN.m/hr               25.00:  ROP Min 
 ROPX.m/hr               40.00:  ROP Max 
 RPMA.rpm                80.00:  RPM Surface Avg 
 RPMN.rpm                60.00:  RPM Surface Min 
 RPMX.rpm               100.00:  RPM Surface Max 
 RRUN.                     400:  Rig Run Number 
 RTIM.hr                  1.99:  Time Reaming 
 SAZI.deg               133.93:  Azm, Start 
 SDEP.m                4047.51:  Start Depth 
 SIDD.                      No:  Serv Intrp, DD 
 SINC.deg                40.28:  Inc, Start 
 SPPA.psig             3250.00:  SPP Avg 
 SPPN.psig             3200.00:  SPP Min 
 SPPX.psig             3300.00:  SPP Max 
 STIM.      03.31.12 02-Feb-20:  Start Time 
 SVCS.                 DD, MWD:  Services 
 SVER.                    9.20:  Sperry Version 
 TDAT.m                  47.00:  Tot Depth Attmp 
 TDDF.                      No:  Trip for DD 
 TFF .                      No:  Trip for Fail 
 TQAA.f-kp                0.00:  Torque Abs Avg 
 TQAN.f-kp                0.00:  Torque Abs Min 
 TQAX.f-kp                0.00:  Torque Abs Max 
 TRRT.°/30m               0.70:  Turn Rotating 
 MRT .                    HCIM:  Maximum Recorded Temperature 
 TTMX.degC               70.59:  Max Tool Temp 
 VS01.             90598770F11:  Virtual Str1 SN 
 VS02.             90598769F11:  Virtual Str2 SN 
 VS03.            90515978Z1W1:  Virtual Str3 SN 
 VS04.          90584144R12X14:  Virtual Str4 SN 
 WBMN.klb                 0.00:  WOB Min 
 WITN.            Peter Wilson:  Customer Rep 
 WOBA.klb                 0.00:  WOB Avg 
 WOBX.klb                 0.00:  WOB Max 
 YP  .lhf2               29.00:  Yield Point 
~Curve Information Block
#MNEM.UNIT                 API CODE     Curve Description
#---------               -----------    ---------------------------
 TIME.HHMMSS            00 000 000 000:  GT Time & Date
 GTDEPTH.m              00 000 000 000:  GT Depth
 GTPQH.psia             00 000 000 000:  GT HR Quartz Pressure
 GTTQ.degC              00 000 000 000:  GT Quartz Temperature
 GTTN.NONE              00 000 000 000:  GT Test Number
 GTET.sec               00 000 000 000:  GT Elapsed Test Time
 GTTVD.m                00 000 000 000:  GT True Vertical Depth
#Other Information
#
#WARRANTY: Halliburton will use its best efforts to furnish customers with 
#accurate information and interpretations that are part of, and incident to, the services 
#provided.  However, Halliburton cannot and does not warrant the accuracy 
#or correctness of such information and interpretations.  Under no circumstances should any 
#such information or interpretation be relied upon as the sole basis for any drilling, 
#completion, production, or financial decision or any procedure involving any risk to the 
#safety of any drilling venture, drilling rig or its crew or any other third party.  The 
#Customer has full responsibility for all drilling, completion and production operation.  
#Halliburton makes no representations or warranties, either expressed or 
#implied, including, but not limited to, the implied warranties of merchantability or fitness 
#for a particular purpose, with respect to the services rendered.  In no event will 
#Halliburton be liable for failure to obtain any particular results or for 
#any damages, including, but not limited to, indirect, special or consequential damages, 
#resulting from the use of any information or interpretation provided by Halliburton.
#
~A           TIME           GTDEPTH  GTPQH  GTTQ  GTTN  GTET   GTTVD  
# ...
   06:20:12.000.03-Feb-2020 4005.51  350.82 65.03 7.00 138.00 3017.14
   06:20:12.200.03-Feb-2020 4005.51  350.89 65.03 7.00 138.20 3017.14
   06:20:12.400.03-Feb-2020 4005.51  350.96 65.03 7.00 138.40 3017.14
   06:20:12.600.03-Feb-2020 4005.51  351.02 65.03 7.00 138.60 3017.14
   06:20:12.800.03-Feb-2020 4005.51  351.10 65.03 7.00 138.80 3017.14
   06:20:13.000.03-Feb-2020 4005.51  351.15 65.03 7.00 139.00 3017.14
   06:20:13.200.03-Feb-2020 4005.51  351.15 65.03 7.00 139.20 3017.14
   06:20:13.400.03-Feb-2020 4005.51  351.30 65.03 7.00 139.40 3017.14
   06:20:13.600.03-Feb-2020 4005.51  351.37 65.03 7.00 139.60 3017.14
   06:20:13.800.03-Feb-2020 4005.51  351.43 65.03 7.00 139.80 3017.14
   06:20:14.000.03-Feb-2020 4005.51  351.48 65.03 7.00 140.00 3017.14
   06:20:14.200.03-Feb-2020 4005.51  351.56 65.03 7.00 140.20 3017.14
   06:20:14.400.03-Feb-2020 4005.51  351.62 65.03 7.00 140.40 3017.14
   06:20:14.600.03-Feb-2020 4005.51  351.70 65.03 7.00 140.60 3017.14
   06:20:14.800.03-Feb-2020 4005.51  351.75 65.03 7.00 140.80 3017.14
   06:20:15.000.03-Feb-2020 4005.51  351.82 65.03 7.00 141.00 3017.14
   06:20:15.200.03-Feb-2020 4005.51  351.82 65.03 7.00 141.20 3017.14
   06:20:15.400.03-Feb-2020 4005.51  351.93 65.03 7.00 141.40 3017.14
   06:20:15.600.03-Feb-2020 4005.51  352.00 65.03 7.00 141.60 3017.14
   06:20:15.800.03-Feb-2020 4005.51  352.07 65.03 7.00 141.80 3017.14
   06:20:16.000.03-Feb-2020 4005.51  352.13 65.03 7.00 142.00 3017.14
   06:20:16.200.03-Feb-2020 4005.51  352.13 65.03 7.00 142.20 3017.14
   06:20:16.400.03-Feb-2020 4005.51  352.25 65.03 7.00 142.40 3017.14
   06:20:16.600.03-Feb-2020 4005.51  352.31 65.03 7.00 142.60 3017.14
   06:20:16.800.03-Feb-2020 4005.51  352.37 65.03 7.00 142.80 3017.14
   06:20:17.000.03-Feb-2020 4005.51  352.45 65.03 7.00 143.00 3017.14
   06:20:17.200.03-Feb-2020 4005.51  352.45 65.03 7.00 143.20 3017.14
   06:20:17.400.03-Feb-2020 4005.51  352.57 65.03 7.00 143.40 3017.14
   06:20:17.600.03-Feb-2020 4005.51  352.62 65.03 7.00 143.60 3017.14
   06:20:17.800.03-Feb-2020 4005.51  352.68 65.03 7.00 143.80 3017.14
   06:20:18.000.03-Feb-2020 4005.51  352.75 65.03 7.00 144.00 3017.14
   06:20:18.200.03-Feb-2020 4005.51  352.75 65.03 7.00 144.20 3017.14
   06:20:18.400.03-Feb-2020 4005.51  352.87 65.03 7.00 144.40 3017.14
   06:20:18.600.03-Feb-2020 4005.51  352.94 65.03 7.00 144.60 3017.14
   06:20:18.800.03-Feb-2020 4005.51  352.98 65.03 7.00 144.80 3017.14
   06:20:19.000.03-Feb-2020 4005.51  353.04 65.03 7.00 145.00 3017.14
   06:20:19.200.03-Feb-2020 4005.51  353.04 65.03 7.00 145.20 3017.14
   06:20:19.400.03-Feb-2020 4005.51  353.17 65.03 7.00 145.40 3017.14
   06:20:19.600.03-Feb-2020 4005.51  353.21 65.03 7.00 145.60 3017.14
   06:20:19.800.03-Feb-2020 4005.51  353.28 65.03 7.00 145.80 3017.14
   06:20:20.000.03-Feb-2020 4005.51  353.34 65.03 7.00 146.00 3017.14
   06:20:20.200.03-Feb-2020 4005.51  353.34 65.03 7.00 146.20 3017.14
   06:20:20.400.03-Feb-2020 4005.51  353.46 65.03 7.00 146.40 3017.14
   06:20:20.600.03-Feb-2020 4005.51  353.50 65.03 7.00 146.60 3017.14
   06:20:20.800.03-Feb-2020 4005.51  353.59 65.03 7.00 146.80 3017.14
   06:20:21.000.03-Feb-2020 4005.51  353.63 65.03 7.00 147.00 3017.14
   06:20:21.200.03-Feb-2020 4005.51  353.63 65.03 7.00 147.20 3017.14
   06:20:21.400.03-Feb-2020 4005.51  353.74 65.03 7.00 147.40 3017.14
   06:20:21.600.03-Feb-2020 4005.51  353.81 65.03 7.00 147.60 3017.14
   06:20:21.800.03-Feb-2020 4005.51  353.85 65.03 7.00 147.80 3017.14
   06:20:22.000.03-Feb-2020 4005.51  353.91 65.03 7.00 148.00 3017.14
   06:20:22.200.03-Feb-2020 4005.51  353.91 65.03 7.00 148.20 3017.14
   06:20:22.400.03-Feb-2020 4005.51  354.03 65.03 7.00 148.40 3017.14
   06:20:22.600.03-Feb-2020 4005.51  354.07 65.03 7.00 148.60 3017.14
   06:20:22.800.03-Feb-2020 4005.51  354.15 65.03 7.00 148.80 3017.14
   06:20:23.000.03-Feb-2020 4005.51  354.19 65.03 7.00 149.00 3017.14
   06:20:23.200.03-Feb-2020 4005.51  354.19 65.03 7.00 149.20 3017.14
   06:20:23.400.03-Feb-2020 4005.51  354.30 65.03 7.00 149.40 3017.14
   06:20:23.600.03-Feb-2020 4005.51  354.35 65.03 7.00 149.60 3017.14
   06:20:23.800.03-Feb-2020 4005.51  354.43 65.03 7.00 149.80 3017.14
   06:20:24.000.03-Feb-2020 4005.51  354.46 65.03 7.00 150.00 3017.14
   06:20:24.200.03-Feb-2020 4005.51  354.46 65.03 7.00 150.20 3017.14
   06:20:24.400.03-Feb-2020 4005.51  354.57 65.03 7.00 150.40 3017.14
   06:20:24.600.03-Feb-2020 4005.51  354.63 65.03 7.00 150.60 3017.14
   06:20:24.800.03-Feb-2020 4005.51  354.68 65.03 7.00 150.80 3017.14
   06:20:25.000.03-Feb-2020 4005.51  354.74 65.03 7.00 151.00 3017.14
   06:20:25.200.03-Feb-2020 4005.51  354.74 65.03 7.00 151.20 3017.14
   06:20:25.400.03-Feb-2020 4005.51  354.84 65.03 7.00 151.40 3017.14
   06:20:25.600.03-Feb-2020 4005.51  354.90 65.03 7.00 151.60 3017.14
   06:20:25.800.03-Feb-2020 4005.51  354.96 65.03 7.00 151.80 3017.14
   06:20:26.000.03-Feb-2020 4005.51  355.00 65.03 7.00 152.00 3017.14
   06:20:26.200.03-Feb-2020 4005.51  355.00 65.03 7.00 152.20 3017.14
   06:20:26.400.03-Feb-2020 4005.51  355.11 65.03 7.00 152.40 3017.14
   06:20:26.600.03-Feb-2020 4005.51  355.16 65.03 7.00 152.60 3017.14
   06:20:26.800.03-Feb-2020 4005.51  355.20 65.03 7.00 152.80 3017.14
   06:20:27.000.03-Feb-2020 4005.51  355.27 65.03 7.00 153.00 3017.14
   06:20:27.200.03-Feb-2020 4005.51  355.27 65.03 7.00 153.20 3017.14
   06:20:27.400.03-Feb-2020 4005.51  355.36 65.02 7.00 153.40 3017.14
   06:20:27.600.03-Feb-2020 4005.51  355.42 65.03 7.00 153.60 3017.14
   06:20:27.800.03-Feb-2020 4005.51  355.47 65.02 7.00 153.80 3017.14
   06:20:28.000.03-Feb-2020 4005.51  355.52 65.02 7.00 154.00 3017.14
   06:20:28.200.03-Feb-2020 4005.51  355.52 65.02 7.00 154.20 3017.14
   06:20:28.400.03-Feb-2020 4005.51  355.61 65.02 7.00 154.40 3017.14
   06:20:28.600.03-Feb-2020 4005.51  355.67 65.02 7.00 154.60 3017.14
   06:20:28.800.03-Feb-2020 4005.51  355.72 65.02 7.00 154.80 3017.14
   06:20:29.000.03-Feb-2020 4005.51  355.78 65.02 7.00 155.00 3017.14
   06:20:29.200.03-Feb-2020 4005.51  355.78 65.02 7.00 155.20 3017.14
   06:20:29.400.03-Feb-2020 4005.51  355.87 65.02 7.00 155.40 3017.14
   06:20:29.600.03-Feb-2020 4005.51  355.93 65.02 7.00 155.60 3017.14
   06:20:29.800.03-Feb-2020 4005.51  355.98 65.02 7.00 155.80 3017.14
   06:20:30.000.03-Feb-2020 4005.51  356.03 65.02 7.00 156.00 3017.14
   06:20:30.200.03-Feb-2020 4005.51  356.03 65.02 7.00 156.20 3017.14
   06:20:30.400.03-Feb-2020 4005.51  356.13 65.02 7.00 156.40 3017.14
   06:20:30.600.03-Feb-2020 4005.51  356.19 65.02 7.00 156.60 3017.14
   06:20:30.800.03-Feb-2020 4005.51  356.23 65.02 7.00 156.80 3017.14
   06:20:31.000.03-Feb-2020 4005.51  356.29 65.02 7.00 157.00 3017.14
   06:20:31.200.03-Feb-2020 4005.51  356.29 65.02 7.00 157.20 3017.14
   06:20:31.400.03-Feb-2020 4005.51  356.37 65.02 7.00 157.40 3017.14
   06:20:31.600.03-Feb-2020 4005.51  356.42 65.02 7.00 157.60 3017.14
   06:20:31.800.03-Feb-2020 4005.51  356.47 65.02 7.00 157.80 3017.14
   06:20:32.000.03-Feb-2020 4005.51  356.52 65.02 7.00 158.00 3017.14
   06:20:32.200.03-Feb-2020 4005.51  356.57 65.02 7.00 158.20 3017.14
   06:20:32.400.03-Feb-2020 4005.51  356.63 65.02 7.00 158.40 3017.14
   06:20:32.600.03-Feb-2020 4005.51  356.67 65.02 7.00 158.60 3017.14
   06:20:32.800.03-Feb-2020 4005.51  356.71 65.02 7.00 158.80 3017.14
   06:20:33.000.03-Feb-2020 4005.51  356.77 65.02 7.00 159.00 3017.14
   06:20:33.200.03-Feb-2020 4005.51  356.77 65.02 7.00 159.20 3017.14
   06:20:33.400.03-Feb-2020 4005.51  356.87 65.02 7.00 159.40 3017.14
   06:20:33.600.03-Feb-2020 4005.51  356.91 65.02 7.00 159.60 3017.14
   06:20:33.800.03-Feb-2020 4005.51  356.96 65.02 7.00 159.80 3017.14
   06:20:34.000.03-Feb-2020 4005.51  357.00 65.02 7.00 160.00 3017.14
   06:20:34.200.03-Feb-2020 4005.51  357.00 65.02 7.00 160.20 3017.14
   06:20:34.400.03-Feb-2020 4005.51  357.09 65.02 7.00 160.40 3017.14
   06:20:34.600.03-Feb-2020 4005.51  357.15 65.02 7.00 160.60 3017.14
   06:20:34.800.03-Feb-2020 4005.51  357.19 65.02 7.00 160.80 3017.14
