~Version Information
 VERS.                  2.0:   CWLS log ASCII Standard -VERSION 2.0
 WRAP.                   NO:   One line per depth step
~Well Information Block
#MNEM.UNIT     VALUE/NAME     DESCRIPTION
#---------     -----------    ---------------------------
 STRT.S             05:26:39 03-Feb-20: START TIME 05:26:39 03-Feb-20
 STOP.S             05:34:31 03-Feb-20: STOP TIME  05:34:31 03-Feb-20
 STEP.S                   0.00: STEP TIME
 NULL.                 -999.25: NULL VALUE
 DFWT.                        :  DIST FWL TEXT
 DFST.                        :  DIST FSL TEXT
 DMF .             Drill Floor:  DRILL MEAS FROM
 STIM.      09.30.00 26-Dec-19:  START TIME
 DATE.      08.00.00 20-Jan-20:  END TIME
 SPUD.               23-Nov-19:  SPUD DATE
 NREF.                    Grid:  NORTH REFERENCE
 HPTY.       Minimum Curvature:  HOLE POS TYPE
 DMOD.             Drill Model:  DRILL MOD DESC
 SVYD.                  Survey:  SURVEY DESC
 ILTD.               Lithology:  INTERP LTH DESC
 FTOP.          Formation Tops:  FORM TOPS DESC
 SON .        AZ-XX-0906192647:  JOB NUMBER
 WTYP.                Deviated:  WELL TYPE
 COMP.     BP Exploration (Caspian Sea) Ltd:  COMPANY
 BASE.              Azerbaijan:  LOGGING EQUIPMENT BASE LOCATION
 REGN.                 Eurasia:  REGION
 FLD .                     ACG:  FIELD NAME
 SRVC.              KCA Deutag:  CONTRACTOR
 MWDS.                    Baku:  MWD SHOP
 WELL.     A10 (Slot 20) - SCP:  WELL NAME
 JOBN.        AZ-XX-0906192647:  JOB TICKET NUMB
 RIG .                 Chirag1:  RIG NAME
 DCON.     Halliburton Sperry Drilling:  DIRECTNL CONTR
 UNIT.                     N/A:  LOGGING EQUIPMENT ID
 PDAT.          Mean Sea Level:  PERMANENT DATUM
 MDS .        Operator Entered:  MAG DATA SOURCE
 CTRY.              Azerbaijan:  COUNTRY NAME
 UWI .            /AZE00000090:  UNIQUE WELL IDENTIFIER
 API .            /AZE00000090:  API NUMBER
 CNTY.                        :  COUNTY
 PROV.                        :  PROVINCE
 STAT.                        :  STATE
 LOC .                        :  LOCATION
 LMF .             Drill Floor:  LOG MEASURED FROM
 TVDS.m                  36.60:  TVDSS CORRECTN
 LATI.deg                40.08:  LATITUDE
 LONG.deg                51.24:  LONGITUDE
 WHNS.m                  -7.94:  WELL HEAD N/S
 WHEW.m                   1.56:  WELL HEAD E/W
 UTMX.m              520429.26:  UTM X
 UTMY.m             4438973.87:  UTM Y
 DFWL.m                   0.00:  DISTANCE FWL
 DFSL.m                   0.00:  DISTANCE FSL
 SDEP.m                1455.00:  START DEPTH
 TDD .m                4047.51:  TOTAL DEPTH (DRILLER)
 VSDR.deg               112.75:  VERT SEC DIRECT
 GVFD.g                   1.00:  GRAVITY FIELD
 MFLD.nT              50261.00:  MAGNETIC FIELD
 MDIP.deg                59.52:  MAGNETIC DIP
 MDEC.deg                 6.42:  MAGNETIC DECL
 GRDC.deg                 0.17:  GRID CORRECTION
 AZTC.deg                 6.25:  AZM TOTAL CORR
 EPD .m                   0.00:  ELEVATION
 EGL .m                   0.00:  GROUND ELEVATION
 WDMS.m                 121.00:  WD ELEV
 APD .m                  36.60:  DEPTH ABOVE PD
 AGAP.m                  36.60:  AIR GAP
 VSEW.m                   1.56:  VERT SEC E/W
 VSNS.m                  -7.94:  VERT SEC N/S
 DEP .m                1140.01:  DEPTH
 EKB .m                  36.60:  KB ELEVATION
 EDF .m                  36.60:  DF ELEVATION
 VSC .                       0:  VS TO CLOSURE
 MAGU.                 1849206:  MAGUTM CHECKSUM
~Parameter Information Block
#MNEM.UNIT       Value        Description
#---------     -----------    ---------------------------
 AV  .mps                 1.70:  Ann Velocity 
 AVMX.mps                 2.30:  Max Ann Veloc 
 AZIF.deg               137.03:  Azm, Final 
 BHAT.                   Other:  BHA Type 
 BROT.°/30m               0.80:  Build Rotating 
 BS  .in                  8.00:  Bit Size 
 BTPL.psig              161.00:  Bit Press Loss 
 CABU.                      No:  Customer Abuse 
 COMM.                     ¬]P:  Run Comments 1 
 TCS .hr                  9.59:  Time Ciculation Ended 
 CV  .mps                 3.76:  Crit Velocity 
 CVMX.mps                 4.26:  Max Crit Veloc 
 DD1 .         Intigam Rahimov:  Direct Drillr 1 
 DD2 .          Rashad Gojayev:  Direct Drillr 2 
 DDSV.                   Other:  DD Service 
 DEFF.%                 100.00:  % Det Eff 
 DLRX.°/30m               1.44:  Dogleg Rot Max 
 DLSO.°/30m               0.00:  Dogleg Oriented 
 DLSX.°/30m               0.00:  Dogleg Str Max 
 DRET.      03.31.12 02-Feb-20:  Drill End Time 
 DRST.      03.31.12 02-Feb-20:  Drill Start Tim 
 DTIM.hr                  1.99:  Time Drilling 
 EDEP.m                4047.51:  End Depth 
 ENG1.           Eldar Hajiyev:  Engineer 1 
 ENG2.          Rasim Hashimov:  Engineer 2 
 ENG3.          Rustam Safarov:  Engineer 3 
 ETIM.      03.31.12 02-Feb-20:  End Time 
 FLOI.gpm               300.00:  Flow In 
 FLON.gpm               250.00:  Flow In Min 
 FLOS.cptm                0.00:  Fluid Loss 
 FLOX.gpm               330.00:  Flow In Max 
 HFLO.                      No:  High Flow 
 HPRE.                      No:  High Pressure 
 HTEM.                      No:  High Temp 
 HYDO.m                   2.50:  Hydro Offset 
 IFIN.deg                39.54:  Inc, Final 
 IMAX.deg                41.14:  Inc Max 
 IMIN.deg                39.81:  Inc Min 
 IMND.m                4005.21:  Inc Min Depth 
 IMXD.m                3948.42:  Inc Max Depth 
 JARR.                      No:  Jarring 
 LETM.      03.31.12 02-Feb-20:  Log End Time 
 LOST.hr                     0:  Lost Rig Time 
 LSTM.      03.31.12 02-Feb-20:  Log Start Time 
 MDCL.ppm             35000.00:  Mud Chlorides 
 MDES.     Inversion Oil/Synthetic:  Mud Desc 
 DFD .sg                  1.32:  Mud Density 
 MDMN.sg                  1.32:  Dens Mud Min 
 MDMX.sg                  1.32:  Dens Mud Max 
 MOIL.                      59:  Run Mud Oil % 
 MOWR.                   71:29:  Run Mud OWR 
 MSND.                       0:  Run Mud Sand % 
 MSOL.                      17:  Run Mud Solids% 
 DFV .spqt               86.00:  Mud Viscosity 
 MWOD.in                  4.75:  MWD Tool OD 
 MWSI.                      No:  Serv Intrp, MWD 
 OTIM.hr                 46.72:  Time Operating 
 PCON.           Look Like New:  Pad Condition 
 PMAX.psia             3300.00:  Press Op, Max 
 PV  .cP                 30.00:  Mud PV 
 RUN .                     400:  Run Number 
 ROPA.m/hr               35.00:  ROP Avg 
 ROPN.m/hr               25.00:  ROP Min 
 ROPX.m/hr               40.00:  ROP Max 
 RPMA.rpm                80.00:  RPM Surface Avg 
 RPMN.rpm                60.00:  RPM Surface Min 
 RPMX.rpm               100.00:  RPM Surface Max 
 RRUN.                     400:  Rig Run Number 
 RTIM.hr                  1.99:  Time Reaming 
 SAZI.deg               133.93:  Azm, Start 
 SDEP.m                4047.51:  Start Depth 
 SIDD.                      No:  Serv Intrp, DD 
 SINC.deg                40.28:  Inc, Start 
 SPPA.psig             3250.00:  SPP Avg 
 SPPN.psig             3200.00:  SPP Min 
 SPPX.psig             3300.00:  SPP Max 
 STIM.      03.31.12 02-Feb-20:  Start Time 
 SVCS.                 DD, MWD:  Services 
 SVER.                    9.20:  Sperry Version 
 TDAT.m                  47.00:  Tot Depth Attmp 
 TDDF.                      No:  Trip for DD 
 TFF .                      No:  Trip for Fail 
 TQAA.f-kp                0.00:  Torque Abs Avg 
 TQAN.f-kp                0.00:  Torque Abs Min 
 TQAX.f-kp                0.00:  Torque Abs Max 
 TRRT.°/30m               0.70:  Turn Rotating 
 MRT .                    HCIM:  Maximum Recorded Temperature 
 TTMX.degC               70.59:  Max Tool Temp 
 VS01.             90598770F11:  Virtual Str1 SN 
 VS02.             90598769F11:  Virtual Str2 SN 
 VS03.            90515978Z1W1:  Virtual Str3 SN 
 VS04.          90584144R12X14:  Virtual Str4 SN 
 WBMN.klb                 0.00:  WOB Min 
 WITN.            Peter Wilson:  Customer Rep 
 WOBA.klb                 0.00:  WOB Avg 
 WOBX.klb                 0.00:  WOB Max 
 YP  .lhf2               29.00:  Yield Point 
~Curve Information Block
#MNEM.UNIT                 API CODE     Curve Description
#---------               -----------    ---------------------------
 TIME.HHMMSS            00 000 000 000:  GT Time & Date
 GTDEPTH.m              00 000 000 000:  GT Depth
 GTPQH.psia             00 000 000 000:  GT HR Quartz Pressure
 GTTQ.degC              00 000 000 000:  GT Quartz Temperature
 GTTN.NONE              00 000 000 000:  GT Test Number
 GTET.sec               00 000 000 000:  GT Elapsed Test Time
 GTTVD.m                00 000 000 000:  GT True Vertical Depth
#Other Information
#
#WARRANTY: Halliburton will use its best efforts to furnish customers with 
#accurate information and interpretations that are part of, and incident to, the services 
#provided.  However, Halliburton cannot and does not warrant the accuracy 
#or correctness of such information and interpretations.  Under no circumstances should any 
#such information or interpretation be relied upon as the sole basis for any drilling, 
#completion, production, or financial decision or any procedure involving any risk to the 
#safety of any drilling venture, drilling rig or its crew or any other third party.  The 
#Customer has full responsibility for all drilling, completion and production operation.  
#Halliburton makes no representations or warranties, either expressed or 
#implied, including, but not limited to, the implied warranties of merchantability or fitness 
#for a particular purpose, with respect to the services rendered.  In no event will 
#Halliburton be liable for failure to obtain any particular results or for 
#any damages, including, but not limited to, indirect, special or consequential damages, 
#resulting from the use of any information or interpretation provided by Halliburton.
#
~A           TIME           GTDEPTH  GTPQH  GTTQ  GTTN  GTET   GTTVD  
# ...
   05:32:24.000.03-Feb-2020 4009.51 2542.99 64.51 5.00 345.00 3020.21
   05:32:24.200.03-Feb-2020 4009.51 2542.99 64.51 5.00 345.20 3020.21
   05:32:24.400.03-Feb-2020 4009.51 2553.95 64.51 5.00 345.40 3020.21
   05:32:24.600.03-Feb-2020 4009.51 2559.54 64.51 5.00 345.60 3020.21
   05:32:24.800.03-Feb-2020 4009.51 2565.06 64.51 5.00 345.80 3020.21
   05:32:25.000.03-Feb-2020 4009.51 2570.50 64.51 5.00 346.00 3020.21
   05:32:25.200.03-Feb-2020 4009.51 2570.50 64.51 5.00 346.20 3020.21
   05:32:25.400.03-Feb-2020 4009.51 2580.78 64.51 5.00 346.40 3020.21
   05:32:25.600.03-Feb-2020 4009.51 2585.16 64.52 5.00 346.60 3020.21
   05:32:25.800.03-Feb-2020 4009.51 2590.27 64.51 5.00 346.80 3020.21
   05:32:26.000.03-Feb-2020 4009.51 2595.34 64.52 5.00 347.00 3020.21
   05:32:26.200.03-Feb-2020 4009.51 2595.34 64.52 5.00 347.20 3020.21
   05:32:26.400.03-Feb-2020 4009.51 2605.46 64.52 5.00 347.40 3020.21
   05:32:26.600.03-Feb-2020 4009.51 2610.00 64.52 5.00 347.60 3020.21
   05:32:26.800.03-Feb-2020 4009.51 2615.20 64.52 5.00 347.80 3020.21
   05:32:27.000.03-Feb-2020 4009.51 2619.67 64.52 5.00 348.00 3020.21
   05:32:27.200.03-Feb-2020 4009.51 2619.67 64.52 5.00 348.20 3020.21
   05:32:27.400.03-Feb-2020 4009.51 2628.88 64.52 5.00 348.40 3020.21
   05:32:27.600.03-Feb-2020 4009.51 2632.93 64.52 5.00 348.60 3020.21
   05:32:27.800.03-Feb-2020 4009.51 2636.94 64.52 5.00 348.80 3020.21
   05:32:28.000.03-Feb-2020 4009.51 2641.61 64.52 5.00 349.00 3020.21
   05:32:28.200.03-Feb-2020 4009.51 2641.61 64.52 5.00 349.20 3020.21
   05:32:28.400.03-Feb-2020 4009.51 2650.98 64.52 5.00 349.40 3020.21
   05:32:28.600.03-Feb-2020 4009.51 2654.85 64.52 5.00 349.60 3020.21
   05:32:28.800.03-Feb-2020 4009.51 2659.64 64.52 5.00 349.80 3020.21
   05:32:29.000.03-Feb-2020 4009.51 2663.71 64.52 5.00 350.00 3020.21
   05:32:29.200.03-Feb-2020 4009.51 2663.71 64.52 5.00 350.20 3020.21
   05:32:29.400.03-Feb-2020 4009.51 2672.13 64.52 5.00 350.40 3020.21
   05:32:29.600.03-Feb-2020 4009.51 2676.02 64.52 5.00 350.60 3020.21
   05:32:29.800.03-Feb-2020 4009.51 2679.48 64.52 5.00 350.80 3020.21
   05:32:30.000.03-Feb-2020 4009.51 2683.44 64.52 5.00 351.00 3020.21
   05:32:30.200.03-Feb-2020 4009.51 2683.44 64.52 5.00 351.20 3020.21
   05:32:30.400.03-Feb-2020 4009.51 2691.40 64.52 5.00 351.40 3020.21
   05:32:30.600.03-Feb-2020 4009.51 2695.35 64.52 5.00 351.60 3020.21
   05:32:30.800.03-Feb-2020 4009.51 2699.38 64.52 5.00 351.80 3020.21
   05:32:31.000.03-Feb-2020 4009.51 2703.27 64.52 5.00 352.00 3020.21
   05:32:31.200.03-Feb-2020 4009.51 2703.27 64.52 5.00 352.20 3020.21
   05:32:31.400.03-Feb-2020 4009.51 2710.81 64.52 5.00 352.40 3020.21
   05:32:31.600.03-Feb-2020 4009.51 2714.66 64.52 5.00 352.60 3020.21
   05:32:31.800.03-Feb-2020 4009.51 2717.97 64.52 5.00 352.80 3020.21
   05:32:32.000.03-Feb-2020 4009.51 2720.71 64.52 5.00 353.00 3020.21
   05:32:32.200.03-Feb-2020 4009.51 2720.71 64.52 5.00 353.20 3020.21
   05:32:32.400.03-Feb-2020 4009.51 2727.66 64.52 5.00 353.40 3020.21
   05:32:32.600.03-Feb-2020 4009.51 2731.16 64.52 5.00 353.60 3020.21
   05:32:32.800.03-Feb-2020 4009.51 2734.73 64.52 5.00 353.80 3020.21
   05:32:33.000.03-Feb-2020 4009.51 2738.21 64.52 5.00 354.00 3020.21
   05:32:33.200.03-Feb-2020 4009.51 2738.21 64.52 5.00 354.20 3020.21
   05:32:33.400.03-Feb-2020 4009.51 2745.13 64.52 5.00 354.40 3020.21
   05:32:33.600.03-Feb-2020 4009.51 2748.63 64.52 5.00 354.60 3020.21
   05:32:33.800.03-Feb-2020 4009.51 2751.95 64.52 5.00 354.80 3020.21
   05:32:34.000.03-Feb-2020 4009.51 2755.28 64.52 5.00 355.00 3020.21
   05:32:34.200.03-Feb-2020 4009.51 2755.28 64.52 5.00 355.20 3020.21
   05:32:34.400.03-Feb-2020 4009.51 2761.07 64.52 5.00 355.40 3020.21
   05:32:34.600.03-Feb-2020 4009.51 2763.75 64.52 5.00 355.60 3020.21
   05:32:34.800.03-Feb-2020 4009.51 2766.74 64.52 5.00 355.80 3020.21
   05:32:35.000.03-Feb-2020 4009.51 2770.04 64.52 5.00 356.00 3020.21
   05:32:35.200.03-Feb-2020 4009.51 2770.04 64.52 5.00 356.20 3020.21
   05:32:35.400.03-Feb-2020 4009.51 2776.21 64.52 5.00 356.40 3020.21
   05:32:35.600.03-Feb-2020 4009.51 2779.35 64.52 5.00 356.60 3020.21
   05:32:35.800.03-Feb-2020 4009.51 2782.01 64.52 5.00 356.80 3020.21
   05:32:36.000.03-Feb-2020 4009.51 2785.15 64.52 5.00 357.00 3020.21
   05:32:36.200.03-Feb-2020 4009.51 2785.15 64.52 5.00 357.20 3020.21
   05:32:36.400.03-Feb-2020 4009.51 2791.29 64.52 5.00 357.40 3020.21
   05:32:36.600.03-Feb-2020 4009.51 2794.18 64.52 5.00 357.60 3020.21
   05:32:36.800.03-Feb-2020 4009.51 2797.13 64.52 5.00 357.80 3020.21
   05:32:37.000.03-Feb-2020 4009.51 2799.50 64.52 5.00 358.00 3020.21
   05:32:37.200.03-Feb-2020 4009.51 2799.50 64.52 5.00 358.20 3020.21
   05:32:37.400.03-Feb-2020 4009.51 2804.91 64.52 5.00 358.40 3020.21
   05:32:37.600.03-Feb-2020 4009.51 2807.55 64.52 5.00 358.60 3020.21
   05:32:37.800.03-Feb-2020 4009.51 2809.87 64.52 5.00 358.80 3020.21
   05:32:38.000.03-Feb-2020 4009.51 2812.60 64.52 5.00 359.00 3020.21
   05:32:38.200.03-Feb-2020 4009.51 2812.60 64.52 5.00 359.20 3020.21
   05:32:38.400.03-Feb-2020 4009.51 2817.61 64.52 5.00 359.40 3020.21
   05:32:38.600.03-Feb-2020 4009.51 2820.25 64.52 5.00 359.60 3020.21
   05:32:38.800.03-Feb-2020 4009.51 2822.84 64.52 5.00 359.80 3020.21
   05:32:39.000.03-Feb-2020 4009.51 2825.70 64.52 5.00 360.00 3020.21
   05:32:39.200.03-Feb-2020 4009.51 2825.70 64.52 5.00 360.20 3020.21
   05:32:39.400.03-Feb-2020 4009.51 2830.79 64.52 5.00 360.40 3020.21
   05:32:39.600.03-Feb-2020 4009.51 2833.28 64.52 5.00 360.60 3020.21
   05:32:39.800.03-Feb-2020 4009.51 2835.69 64.52 5.00 360.80 3020.21
   05:32:40.000.03-Feb-2020 4009.51 2838.31 64.52 5.00 361.00 3020.21
   05:32:40.200.03-Feb-2020 4009.51 2838.31 64.52 5.00 361.20 3020.21
   05:32:40.400.03-Feb-2020 4009.51 2843.14 64.52 5.00 361.40 3020.21
   05:32:40.600.03-Feb-2020 4009.51 2845.41 64.52 5.00 361.60 3020.21
   05:32:40.800.03-Feb-2020 4009.51 2847.51 64.52 5.00 361.80 3020.21
   05:32:41.000.03-Feb-2020 4009.51 2849.15 64.52 5.00 362.00 3020.21
   05:32:41.200.03-Feb-2020 4009.51 2849.15 64.52 5.00 362.20 3020.21
   05:32:41.400.03-Feb-2020 4009.51 2853.42 64.52 5.00 362.40 3020.21
   05:32:41.600.03-Feb-2020 4009.51 2855.73 64.52 5.00 362.60 3020.21
   05:32:41.800.03-Feb-2020 4009.51 2857.54 64.52 5.00 362.80 3020.21
   05:32:42.000.03-Feb-2020 4009.51 2860.10 64.52 5.00 363.00 3020.21
   05:32:42.200.03-Feb-2020 4009.51 2860.10 64.52 5.00 363.20 3020.21
   05:32:42.400.03-Feb-2020 4009.51 2864.47 64.52 5.00 363.40 3020.21
   05:32:42.600.03-Feb-2020 4009.51 2866.56 64.52 5.00 363.60 3020.21
   05:32:42.800.03-Feb-2020 4009.51 2868.89 64.52 5.00 363.80 3020.21
   05:32:43.000.03-Feb-2020 4009.51 2871.07 64.52 5.00 364.00 3020.21
   05:32:43.200.03-Feb-2020 4009.51 2871.07 64.52 5.00 364.20 3020.21
   05:32:43.400.03-Feb-2020 4009.51 2875.25 64.52 5.00 364.40 3020.21
   05:32:43.600.03-Feb-2020 4009.51 2877.29 64.52 5.00 364.60 3020.21
   05:32:43.800.03-Feb-2020 4009.51 2879.35 64.52 5.00 364.80 3020.21
   05:32:44.000.03-Feb-2020 4009.51 2881.46 64.52 5.00 365.00 3020.21
   05:32:44.200.03-Feb-2020 4009.51 2881.46 64.52 5.00 365.20 3020.21
   05:32:44.400.03-Feb-2020 4009.51 2885.43 64.52 5.00 365.40 3020.21
   05:32:44.600.03-Feb-2020 4009.51 2886.89 64.52 5.00 365.60 3020.21
   05:32:44.800.03-Feb-2020 4009.51 2889.16 64.52 5.00 365.80 3020.21
   05:32:45.000.03-Feb-2020 4009.51 2890.90 64.52 5.00 366.00 3020.21
   05:32:45.200.03-Feb-2020 4009.51 2890.90 64.52 5.00 366.20 3020.21
   05:32:45.400.03-Feb-2020 4009.51 2894.23 64.52 5.00 366.40 3020.21
   05:32:45.600.03-Feb-2020 4009.51 2896.04 64.52 5.00 366.60 3020.21
   05:32:45.800.03-Feb-2020 4009.51 2897.37 64.52 5.00 366.80 3020.21
   05:32:46.000.03-Feb-2020 4009.51 2899.52 64.52 5.00 367.00 3020.21
   05:32:46.200.03-Feb-2020 4009.51 2899.52 64.52 5.00 367.20 3020.21
   05:32:46.400.03-Feb-2020 4009.51 2903.14 64.52 5.00 367.40 3020.21
   05:32:46.600.03-Feb-2020 4009.51 2905.00 64.52 5.00 367.60 3020.21
   05:32:46.800.03-Feb-2020 4009.51 2906.84 64.52 5.00 367.80 3020.21
