~Version Information
 VERS.                  2.0:   CWLS log ASCII Standard -VERSION 2.0
 WRAP.                   NO:   One line per depth step
~Well Information Block
#MNEM.UNIT     VALUE/NAME     DESCRIPTION
#---------     -----------    ---------------------------
 STRT.S             06:17:54 03-Feb-20: START TIME 06:17:54 03-Feb-20
 STOP.S             06:25:43 03-Feb-20: STOP TIME  06:25:43 03-Feb-20
 STEP.S                   0.00: STEP TIME
 NULL.                 -999.25: NULL VALUE
 DFWT.                        :  DIST FWL TEXT
 DFST.                        :  DIST FSL TEXT
 DMF .             Drill Floor:  DRILL MEAS FROM
 STIM.      09.30.00 26-Dec-19:  START TIME
 DATE.      08.00.00 20-Jan-20:  END TIME
 SPUD.               23-Nov-19:  SPUD DATE
 NREF.                    Grid:  NORTH REFERENCE
 HPTY.       Minimum Curvature:  HOLE POS TYPE
 DMOD.             Drill Model:  DRILL MOD DESC
 SVYD.                  Survey:  SURVEY DESC
 ILTD.               Lithology:  INTERP LTH DESC
 FTOP.          Formation Tops:  FORM TOPS DESC
 SON .        AZ-XX-0906192647:  JOB NUMBER
 WTYP.                Deviated:  WELL TYPE
 COMP.     BP Exploration (Caspian Sea) Ltd:  COMPANY
 BASE.              Azerbaijan:  LOGGING EQUIPMENT BASE LOCATION
 REGN.                 Eurasia:  REGION
 FLD .                     ACG:  FIELD NAME
 SRVC.              KCA Deutag:  CONTRACTOR
 MWDS.                    Baku:  MWD SHOP
 WELL.     A10 (Slot 20) - SCP:  WELL NAME
 JOBN.        AZ-XX-0906192647:  JOB TICKET NUMB
 RIG .                 Chirag1:  RIG NAME
 DCON.     Halliburton Sperry Drilling:  DIRECTNL CONTR
 UNIT.                     N/A:  LOGGING EQUIPMENT ID
 PDAT.          Mean Sea Level:  PERMANENT DATUM
 MDS .        Operator Entered:  MAG DATA SOURCE
 CTRY.              Azerbaijan:  COUNTRY NAME
 UWI .            /AZE00000090:  UNIQUE WELL IDENTIFIER
 API .            /AZE00000090:  API NUMBER
 CNTY.                        :  COUNTY
 PROV.                        :  PROVINCE
 STAT.                        :  STATE
 LOC .                        :  LOCATION
 LMF .             Drill Floor:  LOG MEASURED FROM
 TVDS.m                  36.60:  TVDSS CORRECTN
 LATI.deg                40.08:  LATITUDE
 LONG.deg                51.24:  LONGITUDE
 WHNS.m                  -7.94:  WELL HEAD N/S
 WHEW.m                   1.56:  WELL HEAD E/W
 UTMX.m              520429.26:  UTM X
 UTMY.m             4438973.87:  UTM Y
 DFWL.m                   0.00:  DISTANCE FWL
 DFSL.m                   0.00:  DISTANCE FSL
 SDEP.m                1455.00:  START DEPTH
 TDD .m                4047.51:  TOTAL DEPTH (DRILLER)
 VSDR.deg               112.75:  VERT SEC DIRECT
 GVFD.g                   1.00:  GRAVITY FIELD
 MFLD.nT              50261.00:  MAGNETIC FIELD
 MDIP.deg                59.52:  MAGNETIC DIP
 MDEC.deg                 6.42:  MAGNETIC DECL
 GRDC.deg                 0.17:  GRID CORRECTION
 AZTC.deg                 6.25:  AZM TOTAL CORR
 EPD .m                   0.00:  ELEVATION
 EGL .m                   0.00:  GROUND ELEVATION
 WDMS.m                 121.00:  WD ELEV
 APD .m                  36.60:  DEPTH ABOVE PD
 AGAP.m                  36.60:  AIR GAP
 VSEW.m                   1.56:  VERT SEC E/W
 VSNS.m                  -7.94:  VERT SEC N/S
 DEP .m                1140.01:  DEPTH
 EKB .m                  36.60:  KB ELEVATION
 EDF .m                  36.60:  DF ELEVATION
 VSC .                       0:  VS TO CLOSURE
 MAGU.                 1849206:  MAGUTM CHECKSUM
~Parameter Information Block
#MNEM.UNIT       Value        Description
#---------     -----------    ---------------------------
 AV  .mps                 1.70:  Ann Velocity 
 AVMX.mps                 2.30:  Max Ann Veloc 
 AZIF.deg               137.03:  Azm, Final 
 BHAT.                   Other:  BHA Type 
 BROT.°/30m               0.80:  Build Rotating 
 BS  .in                  8.00:  Bit Size 
 BTPL.psig              161.00:  Bit Press Loss 
 CABU.                      No:  Customer Abuse 
 COMM.                     4•z:  Run Comments 1 
 TCS .hr                  9.59:  Time Ciculation Ended 
 CV  .mps                 3.76:  Crit Velocity 
 CVMX.mps                 4.26:  Max Crit Veloc 
 DD1 .         Intigam Rahimov:  Direct Drillr 1 
 DD2 .          Rashad Gojayev:  Direct Drillr 2 
 DDSV.                   Other:  DD Service 
 DEFF.%                 100.00:  % Det Eff 
 DLRX.°/30m               1.44:  Dogleg Rot Max 
 DLSO.°/30m               0.00:  Dogleg Oriented 
 DLSX.°/30m               0.00:  Dogleg Str Max 
 DRET.      03.31.12 02-Feb-20:  Drill End Time 
 DRST.      03.31.12 02-Feb-20:  Drill Start Tim 
 DTIM.hr                  1.99:  Time Drilling 
 EDEP.m                4047.51:  End Depth 
 ENG1.           Eldar Hajiyev:  Engineer 1 
 ENG2.          Rasim Hashimov:  Engineer 2 
 ENG3.          Rustam Safarov:  Engineer 3 
 ETIM.      03.31.12 02-Feb-20:  End Time 
 FLOI.gpm               300.00:  Flow In 
 FLON.gpm               250.00:  Flow In Min 
 FLOS.cptm                0.00:  Fluid Loss 
 FLOX.gpm               330.00:  Flow In Max 
 HFLO.                      No:  High Flow 
 HPRE.                      No:  High Pressure 
 HTEM.                      No:  High Temp 
 HYDO.m                   2.50:  Hydro Offset 
 IFIN.deg                39.54:  Inc, Final 
 IMAX.deg                41.14:  Inc Max 
 IMIN.deg                39.81:  Inc Min 
 IMND.m                4005.21:  Inc Min Depth 
 IMXD.m                3948.42:  Inc Max Depth 
 JARR.                      No:  Jarring 
 LETM.      03.31.12 02-Feb-20:  Log End Time 
 LOST.hr                     0:  Lost Rig Time 
 LSTM.      03.31.12 02-Feb-20:  Log Start Time 
 MDCL.ppm             35000.00:  Mud Chlorides 
 MDES.     Inversion Oil/Synthetic:  Mud Desc 
 DFD .sg                  1.32:  Mud Density 
 MDMN.sg                  1.32:  Dens Mud Min 
 MDMX.sg                  1.32:  Dens Mud Max 
 MOIL.                      59:  Run Mud Oil % 
 MOWR.                   71:29:  Run Mud OWR 
 MSND.                       0:  Run Mud Sand % 
 MSOL.                      17:  Run Mud Solids% 
 DFV .spqt               86.00:  Mud Viscosity 
 MWOD.in                  4.75:  MWD Tool OD 
 MWSI.                      No:  Serv Intrp, MWD 
 OTIM.hr                 46.72:  Time Operating 
 PCON.           Look Like New:  Pad Condition 
 PMAX.psia             3300.00:  Press Op, Max 
 PV  .cP                 30.00:  Mud PV 
 RUN .                     400:  Run Number 
 ROPA.m/hr               35.00:  ROP Avg 
 ROPN.m/hr               25.00:  ROP Min 
 ROPX.m/hr               40.00:  ROP Max 
 RPMA.rpm                80.00:  RPM Surface Avg 
 RPMN.rpm                60.00:  RPM Surface Min 
 RPMX.rpm               100.00:  RPM Surface Max 
 RRUN.                     400:  Rig Run Number 
 RTIM.hr                  1.99:  Time Reaming 
 SAZI.deg               133.93:  Azm, Start 
 SDEP.m                4047.51:  Start Depth 
 SIDD.                      No:  Serv Intrp, DD 
 SINC.deg                40.28:  Inc, Start 
 SPPA.psig             3250.00:  SPP Avg 
 SPPN.psig             3200.00:  SPP Min 
 SPPX.psig             3300.00:  SPP Max 
 STIM.      03.31.12 02-Feb-20:  Start Time 
 SVCS.                 DD, MWD:  Services 
 SVER.                    9.20:  Sperry Version 
 TDAT.m                  47.00:  Tot Depth Attmp 
 TDDF.                      No:  Trip for DD 
 TFF .                      No:  Trip for Fail 
 TQAA.f-kp                0.00:  Torque Abs Avg 
 TQAN.f-kp                0.00:  Torque Abs Min 
 TQAX.f-kp                0.00:  Torque Abs Max 
 TRRT.°/30m               0.70:  Turn Rotating 
 MRT .                    HCIM:  Maximum Recorded Temperature 
 TTMX.degC               70.59:  Max Tool Temp 
 VS01.             90598770F11:  Virtual Str1 SN 
 VS02.             90598769F11:  Virtual Str2 SN 
 VS03.            90515978Z1W1:  Virtual Str3 SN 
 VS04.          90584144R12X14:  Virtual Str4 SN 
 WBMN.klb                 0.00:  WOB Min 
 WITN.            Peter Wilson:  Customer Rep 
 WOBA.klb                 0.00:  WOB Avg 
 WOBX.klb                 0.00:  WOB Max 
 YP  .lhf2               29.00:  Yield Point 
~Curve Information Block
#MNEM.UNIT                 API CODE     Curve Description
#---------               -----------    ---------------------------
 TIME.HHMMSS            00 000 000 000:  GT Time & Date
 GTDEPTH.m              00 000 000 000:  GT Depth
 GTPQH.psia             00 000 000 000:  GT HR Quartz Pressure
 GTTQ.degC              00 000 000 000:  GT Quartz Temperature
 GTTN.NONE              00 000 000 000:  GT Test Number
 GTET.sec               00 000 000 000:  GT Elapsed Test Time
 GTTVD.m                00 000 000 000:  GT True Vertical Depth
#Other Information
#
#WARRANTY: Halliburton will use its best efforts to furnish customers with 
#accurate information and interpretations that are part of, and incident to, the services 
#provided.  However, Halliburton cannot and does not warrant the accuracy 
#or correctness of such information and interpretations.  Under no circumstances should any 
#such information or interpretation be relied upon as the sole basis for any drilling, 
#completion, production, or financial decision or any procedure involving any risk to the 
#safety of any drilling venture, drilling rig or its crew or any other third party.  The 
#Customer has full responsibility for all drilling, completion and production operation.  
#Halliburton makes no representations or warranties, either expressed or 
#implied, including, but not limited to, the implied warranties of merchantability or fitness 
#for a particular purpose, with respect to the services rendered.  In no event will 
#Halliburton be liable for failure to obtain any particular results or for 
#any damages, including, but not limited to, indirect, special or consequential damages, 
#resulting from the use of any information or interpretation provided by Halliburton.
#
~A           TIME           GTDEPTH  GTPQH  GTTQ  GTTN  GTET   GTTVD  
# ...
   06:25:11.000.03-Feb-2020 4005.51  139.27 64.91 7.00 437.00 3017.14
   06:25:11.200.03-Feb-2020 4005.51  139.27 64.91 7.00 437.20 3017.14
   06:25:11.400.03-Feb-2020 4005.51  139.29 64.91 7.00 437.40 3017.14
   06:25:11.600.03-Feb-2020 4005.51  139.29 64.91 7.00 437.60 3017.14
   06:25:11.800.03-Feb-2020 4005.51  139.29 64.91 7.00 437.80 3017.14
   06:25:12.000.03-Feb-2020 4005.51  139.31 64.91 7.00 438.00 3017.14
   06:25:12.200.03-Feb-2020 4005.51  139.31 64.91 7.00 438.20 3017.14
   06:25:12.400.03-Feb-2020 4005.51  139.32 64.91 7.00 438.40 3017.14
   06:25:12.600.03-Feb-2020 4005.51  139.31 64.91 7.00 438.60 3017.14
   06:25:12.800.03-Feb-2020 4005.51  139.33 64.91 7.00 438.80 3017.14
   06:25:13.000.03-Feb-2020 4005.51  139.33 64.91 7.00 439.00 3017.14
   06:25:13.200.03-Feb-2020 4005.51  139.33 64.91 7.00 439.20 3017.14
   06:25:13.400.03-Feb-2020 4005.51  139.35 64.91 7.00 439.40 3017.14
   06:25:13.600.03-Feb-2020 4005.51  139.35 64.91 7.00 439.60 3017.14
   06:25:13.800.03-Feb-2020 4005.51  139.37 64.91 7.00 439.80 3017.14
   06:25:14.000.03-Feb-2020 4005.51  139.37 64.91 7.00 440.00 3017.14
   06:25:14.200.03-Feb-2020 4005.51  139.37 64.91 7.00 440.20 3017.14
   06:25:14.400.03-Feb-2020 4005.51  139.38 64.91 7.00 440.40 3017.14
   06:25:14.600.03-Feb-2020 4005.51  139.39 64.91 7.00 440.60 3017.14
   06:25:14.800.03-Feb-2020 4005.51  139.39 64.91 7.00 440.80 3017.14
   06:25:15.000.03-Feb-2020 4005.51  139.39 64.91 7.00 441.00 3017.14
   06:25:15.200.03-Feb-2020 4005.51  139.39 64.91 7.00 441.20 3017.14
   06:25:15.400.03-Feb-2020 4005.51  139.41 64.91 7.00 441.40 3017.14
   06:25:15.600.03-Feb-2020 4005.51  139.42 64.91 7.00 441.60 3017.14
   06:25:15.800.03-Feb-2020 4005.51  139.43 64.91 7.00 441.80 3017.14
   06:25:16.000.03-Feb-2020 4005.51  139.43 64.91 7.00 442.00 3017.14
   06:25:16.200.03-Feb-2020 4005.51  139.43 64.91 7.00 442.20 3017.14
   06:25:16.400.03-Feb-2020 4005.51  139.45 64.91 7.00 442.40 3017.14
   06:25:16.600.03-Feb-2020 4005.51  139.45 64.91 7.00 442.60 3017.14
   06:25:16.800.03-Feb-2020 4005.51  139.46 64.91 7.00 442.80 3017.14
   06:25:17.000.03-Feb-2020 4005.51  139.47 64.91 7.00 443.00 3017.14
   06:25:17.200.03-Feb-2020 4005.51  139.47 64.91 7.00 443.20 3017.14
   06:25:17.400.03-Feb-2020 4005.51  139.49 64.91 7.00 443.40 3017.14
   06:25:17.600.03-Feb-2020 4005.51  140.85 64.91 7.00 443.60 3017.14
   06:25:17.800.03-Feb-2020 4005.51 3668.00 64.91 7.00 443.80 3017.14
   06:25:18.000.03-Feb-2020 4005.51 6040.35 64.91 7.00 444.00 3017.14
   06:25:18.200.03-Feb-2020 4005.51 6040.35 64.91 7.00 444.20 3017.14
   06:25:18.400.03-Feb-2020 4005.51 6038.19 64.91 7.00 444.40 3017.14
   06:25:18.600.03-Feb-2020 4005.51 6038.61 64.91 7.00 444.60 3017.14
   06:25:18.800.03-Feb-2020 4005.51 6040.10 64.91 7.00 444.80 3017.14
   06:25:19.000.03-Feb-2020 4005.51 6043.25 64.91 7.00 445.00 3017.14
   06:25:19.200.03-Feb-2020 4005.51 6043.25 64.91 7.00 445.20 3017.14
   06:25:19.400.03-Feb-2020 4005.51 6045.69 64.91 7.00 445.40 3017.14
   06:25:19.600.03-Feb-2020 4005.51 6046.64 64.91 7.00 445.60 3017.14
   06:25:19.800.03-Feb-2020 4005.51 6044.04 64.91 7.00 445.80 3017.14
   06:25:20.000.03-Feb-2020 4005.51 6044.48 64.91 7.00 446.00 3017.14
   06:25:20.200.03-Feb-2020 4005.51 6044.48 64.91 7.00 446.20 3017.14
   06:25:20.400.03-Feb-2020 4005.51 6049.74 64.91 7.00 446.40 3017.14
   06:25:20.600.03-Feb-2020 4005.51 6051.96 64.92 7.00 446.60 3017.14
   06:25:20.800.03-Feb-2020 4005.51 6052.65 64.92 7.00 446.80 3017.14
   06:25:21.000.03-Feb-2020 4005.51 6052.99 64.92 7.00 447.00 3017.14
   06:25:21.200.03-Feb-2020 4005.51 6052.99 64.92 7.00 447.20 3017.14
   06:25:21.400.03-Feb-2020 4005.51 6053.49 64.92 7.00 447.40 3017.14
   06:25:21.600.03-Feb-2020 4005.51 6049.61 64.92 7.00 447.60 3017.14
   06:25:21.800.03-Feb-2020 4005.51 6053.50 64.93 7.00 447.80 3017.14
   06:25:22.000.03-Feb-2020 4005.51 6048.23 64.93 7.00 448.00 3017.14
   06:25:22.200.03-Feb-2020 4005.51 6048.23 64.93 7.00 448.20 3017.14
   06:25:22.400.03-Feb-2020 4005.51 6050.24 64.93 7.00 448.40 3017.14
   06:25:22.600.03-Feb-2020 4005.51 6052.42 64.93 7.00 448.60 3017.14
   06:25:22.800.03-Feb-2020 4005.51 6054.78 64.93 7.00 448.80 3017.14
   06:25:23.000.03-Feb-2020 4005.51 6057.49 64.94 7.00 449.00 3017.14
   06:25:23.200.03-Feb-2020 4005.51 6057.49 64.94 7.00 449.20 3017.14
   06:25:23.400.03-Feb-2020 4005.51 6055.40 64.94 7.00 449.40 3017.14
   06:25:23.600.03-Feb-2020 4005.51 6047.99 64.94 7.00 449.60 3017.14
   06:25:23.800.03-Feb-2020 4005.51 6053.37 64.94 7.00 449.80 3017.14
   06:25:24.000.03-Feb-2020 4005.51 6051.47 64.95 7.00 450.00 3017.14
   06:25:24.200.03-Feb-2020 4005.51 6051.47 64.95 7.00 450.20 3017.14
   06:25:24.400.03-Feb-2020 4005.51 6055.57 64.95 7.00 450.40 3017.14
   06:25:24.600.03-Feb-2020 4005.51 6055.94 64.95 7.00 450.60 3017.14
   06:25:24.800.03-Feb-2020 4005.51 6054.58 64.95 7.00 450.80 3017.14
   06:25:25.000.03-Feb-2020 4005.51 6055.56 64.95 7.00 451.00 3017.14
   06:25:25.200.03-Feb-2020 4005.51 6055.56 64.95 7.00 451.20 3017.14
   06:25:25.400.03-Feb-2020 4005.51 6056.23 64.96 7.00 451.40 3017.14
   06:25:25.600.03-Feb-2020 4005.51 6056.13 64.96 7.00 451.60 3017.14
   06:25:25.800.03-Feb-2020 4005.51 6056.65 64.96 7.00 451.80 3017.14
   06:25:26.000.03-Feb-2020 4005.51 6056.60 64.96 7.00 452.00 3017.14
   06:25:26.200.03-Feb-2020 4005.51 6056.60 64.96 7.00 452.20 3017.14
   06:25:26.400.03-Feb-2020 4005.51 6055.98 64.96 7.00 452.40 3017.14
   06:25:26.600.03-Feb-2020 4005.51 6057.54 64.97 7.00 452.60 3017.14
   06:25:26.800.03-Feb-2020 4005.51 6047.36 64.97 7.00 452.80 3017.14
   06:25:27.000.03-Feb-2020 4005.51 6057.09 64.97 7.00 453.00 3017.14
   06:25:27.200.03-Feb-2020 4005.51 6057.09 64.97 7.00 453.20 3017.14
   06:25:27.400.03-Feb-2020 4005.51 6055.61 64.97 7.00 453.40 3017.14
   06:25:27.600.03-Feb-2020 4005.51 6054.85 64.97 7.00 453.60 3017.14
   06:25:27.800.03-Feb-2020 4005.51 6055.39 64.97 7.00 453.80 3017.14
   06:25:28.000.03-Feb-2020 4005.51 6055.19 64.97 7.00 454.00 3017.14
   06:25:28.200.03-Feb-2020 4005.51 6055.19 64.97 7.00 454.20 3017.14
   06:25:28.400.03-Feb-2020 4005.51 6056.47 64.97 7.00 454.40 3017.14
   06:25:28.600.03-Feb-2020 4005.51 6056.42 64.98 7.00 454.60 3017.14
   06:25:28.800.03-Feb-2020 4005.51 6055.98 64.98 7.00 454.80 3017.14
   06:25:29.000.03-Feb-2020 4005.51 6055.40 64.98 7.00 455.00 3017.14
   06:25:29.200.03-Feb-2020 4005.51 6055.40 64.98 7.00 455.20 3017.14
   06:25:29.400.03-Feb-2020 4005.51 6054.87 64.98 7.00 455.40 3017.14
   06:25:29.600.03-Feb-2020 4005.51 6046.60 64.98 7.00 455.60 3017.14
   06:25:29.800.03-Feb-2020 4005.51 6055.51 64.98 7.00 455.80 3017.14
   06:25:30.000.03-Feb-2020 4005.51 6054.92 64.98 7.00 456.00 3017.14
   06:25:30.200.03-Feb-2020 4005.51 6054.92 64.98 7.00 456.20 3017.14
   06:25:30.400.03-Feb-2020 4005.51 6056.68 64.98 7.00 456.40 3017.14
   06:25:30.600.03-Feb-2020 4005.51 6057.91 64.98 7.00 456.60 3017.14
   06:25:30.800.03-Feb-2020 4005.51 6053.52 64.98 7.00 456.80 3017.14
   06:25:31.000.03-Feb-2020 4005.51 6052.61 64.98 7.00 457.00 3017.14
   06:25:31.200.03-Feb-2020 4005.51 6052.61 64.98 7.00 457.20 3017.14
   06:25:31.400.03-Feb-2020 4005.51 6054.47 64.98 7.00 457.40 3017.14
   06:25:31.600.03-Feb-2020 4005.51 6055.01 64.98 7.00 457.60 3017.14
   06:25:31.800.03-Feb-2020 4005.51 6054.63 64.99 7.00 457.80 3017.14
   06:25:32.000.03-Feb-2020 4005.51 6047.60 64.99 7.00 458.00 3017.14
   06:25:32.200.03-Feb-2020 4005.51 6047.60 64.99 7.00 458.20 3017.14
   06:25:32.400.03-Feb-2020 4005.51 6053.51 64.99 7.00 458.40 3017.14
   06:25:32.600.03-Feb-2020 4005.51 6057.43 64.99 7.00 458.60 3017.14
   06:25:32.800.03-Feb-2020 4005.51 6056.85 64.99 7.00 458.80 3017.14
   06:25:33.000.03-Feb-2020 4005.51 6056.22 64.99 7.00 459.00 3017.14
   06:25:33.200.03-Feb-2020 4005.51 6056.22 64.99 7.00 459.20 3017.14
   06:25:33.400.03-Feb-2020 4005.51 6056.22 64.99 7.00 459.40 3017.14
   06:25:33.600.03-Feb-2020 4005.51 6048.72 64.99 7.00 459.60 3017.14
   06:25:33.800.03-Feb-2020 4005.51 6051.77 64.99 7.00 459.80 3017.14
