~Version Information
 VERS.                  2.0:   CWLS log ASCII Standard -VERSION 2.0
 WRAP.                   NO:   One line per depth step
~Well Information Block
#MNEM.UNIT     VALUE/NAME     DESCRIPTION
#---------     -----------    ---------------------------
 STRT.S             05:26:39 03-Feb-20: START TIME 05:26:39 03-Feb-20
 STOP.S             05:34:31 03-Feb-20: STOP TIME  05:34:31 03-Feb-20
 STEP.S                   0.00: STEP TIME
 NULL.                 -999.25: NULL VALUE
 DFWT.                        :  DIST FWL TEXT
 DFST.                        :  DIST FSL TEXT
 DMF .             Drill Floor:  DRILL MEAS FROM
 STIM.      09.30.00 26-Dec-19:  START TIME
 DATE.      08.00.00 20-Jan-20:  END TIME
 SPUD.               23-Nov-19:  SPUD DATE
 NREF.                    Grid:  NORTH REFERENCE
 HPTY.       Minimum Curvature:  HOLE POS TYPE
 DMOD.             Drill Model:  DRILL MOD DESC
 SVYD.                  Survey:  SURVEY DESC
 ILTD.               Lithology:  INTERP LTH DESC
 FTOP.          Formation Tops:  FORM TOPS DESC
 SON .        AZ-XX-0906192647:  JOB NUMBER
 WTYP.                Deviated:  WELL TYPE
 COMP.     BP Exploration (Caspian Sea) Ltd:  COMPANY
 BASE.              Azerbaijan:  LOGGING EQUIPMENT BASE LOCATION
 REGN.                 Eurasia:  REGION
 FLD .                     ACG:  FIELD NAME
 SRVC.              KCA Deutag:  CONTRACTOR
 MWDS.                    Baku:  MWD SHOP
 WELL.     A10 (Slot 20) - SCP:  WELL NAME
 JOBN.        AZ-XX-0906192647:  JOB TICKET NUMB
 RIG .                 Chirag1:  RIG NAME
 DCON.     Halliburton Sperry Drilling:  DIRECTNL CONTR
 UNIT.                     N/A:  LOGGING EQUIPMENT ID
 PDAT.          Mean Sea Level:  PERMANENT DATUM
 MDS .        Operator Entered:  MAG DATA SOURCE
 CTRY.              Azerbaijan:  COUNTRY NAME
 UWI .            /AZE00000090:  UNIQUE WELL IDENTIFIER
 API .            /AZE00000090:  API NUMBER
 CNTY.                        :  COUNTY
 PROV.                        :  PROVINCE
 STAT.                        :  STATE
 LOC .                        :  LOCATION
 LMF .             Drill Floor:  LOG MEASURED FROM
 TVDS.m                  36.60:  TVDSS CORRECTN
 LATI.deg                40.08:  LATITUDE
 LONG.deg                51.24:  LONGITUDE
 WHNS.m                  -7.94:  WELL HEAD N/S
 WHEW.m                   1.56:  WELL HEAD E/W
 UTMX.m              520429.26:  UTM X
 UTMY.m             4438973.87:  UTM Y
 DFWL.m                   0.00:  DISTANCE FWL
 DFSL.m                   0.00:  DISTANCE FSL
 SDEP.m                1455.00:  START DEPTH
 TDD .m                4047.51:  TOTAL DEPTH (DRILLER)
 VSDR.deg               112.75:  VERT SEC DIRECT
 GVFD.g                   1.00:  GRAVITY FIELD
 MFLD.nT              50261.00:  MAGNETIC FIELD
 MDIP.deg                59.52:  MAGNETIC DIP
 MDEC.deg                 6.42:  MAGNETIC DECL
 GRDC.deg                 0.17:  GRID CORRECTION
 AZTC.deg                 6.25:  AZM TOTAL CORR
 EPD .m                   0.00:  ELEVATION
 EGL .m                   0.00:  GROUND ELEVATION
 WDMS.m                 121.00:  WD ELEV
 APD .m                  36.60:  DEPTH ABOVE PD
 AGAP.m                  36.60:  AIR GAP
 VSEW.m                   1.56:  VERT SEC E/W
 VSNS.m                  -7.94:  VERT SEC N/S
 DEP .m                1140.01:  DEPTH
 EKB .m                  36.60:  KB ELEVATION
 EDF .m                  36.60:  DF ELEVATION
 VSC .                       0:  VS TO CLOSURE
 MAGU.                 1849206:  MAGUTM CHECKSUM
~Parameter Information Block
#MNEM.UNIT       Value        Description
#---------     -----------    ---------------------------
 AV  .mps                 1.70:  Ann Velocity 
 AVMX.mps                 2.30:  Max Ann Veloc 
 AZIF.deg               137.03:  Azm, Final 
 BHAT.                   Other:  BHA Type 
 BROT.°/30m               0.80:  Build Rotating 
 BS  .in                  8.00:  Bit Size 
 BTPL.psig              161.00:  Bit Press Loss 
 CABU.                      No:  Customer Abuse 
 COMM.                     ¬]P:  Run Comments 1 
 TCS .hr                  9.59:  Time Ciculation Ended 
 CV  .mps                 3.76:  Crit Velocity 
 CVMX.mps                 4.26:  Max Crit Veloc 
 DD1 .         Intigam Rahimov:  Direct Drillr 1 
 DD2 .          Rashad Gojayev:  Direct Drillr 2 
 DDSV.                   Other:  DD Service 
 DEFF.%                 100.00:  % Det Eff 
 DLRX.°/30m               1.44:  Dogleg Rot Max 
 DLSO.°/30m               0.00:  Dogleg Oriented 
 DLSX.°/30m               0.00:  Dogleg Str Max 
 DRET.      03.31.12 02-Feb-20:  Drill End Time 
 DRST.      03.31.12 02-Feb-20:  Drill Start Tim 
 DTIM.hr                  1.99:  Time Drilling 
 EDEP.m                4047.51:  End Depth 
 ENG1.           Eldar Hajiyev:  Engineer 1 
 ENG2.          Rasim Hashimov:  Engineer 2 
 ENG3.          Rustam Safarov:  Engineer 3 
 ETIM.      03.31.12 02-Feb-20:  End Time 
 FLOI.gpm               300.00:  Flow In 
 FLON.gpm               250.00:  Flow In Min 
 FLOS.cptm                0.00:  Fluid Loss 
 FLOX.gpm               330.00:  Flow In Max 
 HFLO.                      No:  High Flow 
 HPRE.                      No:  High Pressure 
 HTEM.                      No:  High Temp 
 HYDO.m                   2.50:  Hydro Offset 
 IFIN.deg                39.54:  Inc, Final 
 IMAX.deg                41.14:  Inc Max 
 IMIN.deg                39.81:  Inc Min 
 IMND.m                4005.21:  Inc Min Depth 
 IMXD.m                3948.42:  Inc Max Depth 
 JARR.                      No:  Jarring 
 LETM.      03.31.12 02-Feb-20:  Log End Time 
 LOST.hr                     0:  Lost Rig Time 
 LSTM.      03.31.12 02-Feb-20:  Log Start Time 
 MDCL.ppm             35000.00:  Mud Chlorides 
 MDES.     Inversion Oil/Synthetic:  Mud Desc 
 DFD .sg                  1.32:  Mud Density 
 MDMN.sg                  1.32:  Dens Mud Min 
 MDMX.sg                  1.32:  Dens Mud Max 
 MOIL.                      59:  Run Mud Oil % 
 MOWR.                   71:29:  Run Mud OWR 
 MSND.                       0:  Run Mud Sand % 
 MSOL.                      17:  Run Mud Solids% 
 DFV .spqt               86.00:  Mud Viscosity 
 MWOD.in                  4.75:  MWD Tool OD 
 MWSI.                      No:  Serv Intrp, MWD 
 OTIM.hr                 46.72:  Time Operating 
 PCON.           Look Like New:  Pad Condition 
 PMAX.psia             3300.00:  Press Op, Max 
 PV  .cP                 30.00:  Mud PV 
 RUN .                     400:  Run Number 
 ROPA.m/hr               35.00:  ROP Avg 
 ROPN.m/hr               25.00:  ROP Min 
 ROPX.m/hr               40.00:  ROP Max 
 RPMA.rpm                80.00:  RPM Surface Avg 
 RPMN.rpm                60.00:  RPM Surface Min 
 RPMX.rpm               100.00:  RPM Surface Max 
 RRUN.                     400:  Rig Run Number 
 RTIM.hr                  1.99:  Time Reaming 
 SAZI.deg               133.93:  Azm, Start 
 SDEP.m                4047.51:  Start Depth 
 SIDD.                      No:  Serv Intrp, DD 
 SINC.deg                40.28:  Inc, Start 
 SPPA.psig             3250.00:  SPP Avg 
 SPPN.psig             3200.00:  SPP Min 
 SPPX.psig             3300.00:  SPP Max 
 STIM.      03.31.12 02-Feb-20:  Start Time 
 SVCS.                 DD, MWD:  Services 
 SVER.                    9.20:  Sperry Version 
 TDAT.m                  47.00:  Tot Depth Attmp 
 TDDF.                      No:  Trip for DD 
 TFF .                      No:  Trip for Fail 
 TQAA.f-kp                0.00:  Torque Abs Avg 
 TQAN.f-kp                0.00:  Torque Abs Min 
 TQAX.f-kp                0.00:  Torque Abs Max 
 TRRT.°/30m               0.70:  Turn Rotating 
 MRT .                    HCIM:  Maximum Recorded Temperature 
 TTMX.degC               70.59:  Max Tool Temp 
 VS01.             90598770F11:  Virtual Str1 SN 
 VS02.             90598769F11:  Virtual Str2 SN 
 VS03.            90515978Z1W1:  Virtual Str3 SN 
 VS04.          90584144R12X14:  Virtual Str4 SN 
 WBMN.klb                 0.00:  WOB Min 
 WITN.            Peter Wilson:  Customer Rep 
 WOBA.klb                 0.00:  WOB Avg 
 WOBX.klb                 0.00:  WOB Max 
 YP  .lhf2               29.00:  Yield Point 
~Curve Information Block
#MNEM.UNIT                 API CODE     Curve Description
#---------               -----------    ---------------------------
 TIME.HHMMSS            00 000 000 000:  GT Time & Date
 GTDEPTH.m              00 000 000 000:  GT Depth
 GTPQH.psia             00 000 000 000:  GT HR Quartz Pressure
 GTTQ.degC              00 000 000 000:  GT Quartz Temperature
 GTTN.NONE              00 000 000 000:  GT Test Number
 GTET.sec               00 000 000 000:  GT Elapsed Test Time
 GTTVD.m                00 000 000 000:  GT True Vertical Depth
#Other Information
#
#WARRANTY: Halliburton will use its best efforts to furnish customers with 
#accurate information and interpretations that are part of, and incident to, the services 
#provided.  However, Halliburton cannot and does not warrant the accuracy 
#or correctness of such information and interpretations.  Under no circumstances should any 
#such information or interpretation be relied upon as the sole basis for any drilling, 
#completion, production, or financial decision or any procedure involving any risk to the 
#safety of any drilling venture, drilling rig or its crew or any other third party.  The 
#Customer has full responsibility for all drilling, completion and production operation.  
#Halliburton makes no representations or warranties, either expressed or 
#implied, including, but not limited to, the implied warranties of merchantability or fitness 
#for a particular purpose, with respect to the services rendered.  In no event will 
#Halliburton be liable for failure to obtain any particular results or for 
#any damages, including, but not limited to, indirect, special or consequential damages, 
#resulting from the use of any information or interpretation provided by Halliburton.
#
~A           TIME           GTDEPTH  GTPQH  GTTQ  GTTN  GTET   GTTVD  
# ...
   05:31:15.000.03-Feb-2020 4009.51 3103.69 64.56 5.00 276.00 3020.21
   05:31:15.200.03-Feb-2020 4009.51 3103.69 64.56 5.00 276.20 3020.21
   05:31:15.400.03-Feb-2020 4009.51 3104.27 64.56 5.00 276.40 3020.21
   05:31:15.600.03-Feb-2020 4009.51 3104.66 64.56 5.00 276.60 3020.21
   05:31:15.800.03-Feb-2020 4009.51 3104.70 64.56 5.00 276.80 3020.21
   05:31:16.000.03-Feb-2020 4009.51 3104.91 64.56 5.00 277.00 3020.21
   05:31:16.200.03-Feb-2020 4009.51 3104.91 64.56 5.00 277.20 3020.21
   05:31:16.400.03-Feb-2020 4009.51 3104.97 64.56 5.00 277.40 3020.21
   05:31:16.600.03-Feb-2020 4009.51 3105.28 64.56 5.00 277.60 3020.21
   05:31:16.800.03-Feb-2020 4009.51 3105.50 64.56 5.00 277.80 3020.21
   05:31:17.000.03-Feb-2020 4009.51 3105.58 64.56 5.00 278.00 3020.21
   05:31:17.200.03-Feb-2020 4009.51 3105.58 64.56 5.00 278.20 3020.21
   05:31:17.400.03-Feb-2020 4009.51 3106.03 64.56 5.00 278.40 3020.21
   05:31:17.600.03-Feb-2020 4009.51 3105.74 64.56 5.00 278.60 3020.21
   05:31:17.800.03-Feb-2020 4009.51 3106.00 64.56 5.00 278.80 3020.21
   05:31:18.000.03-Feb-2020 4009.51 3106.31 64.56 5.00 279.00 3020.21
   05:31:18.200.03-Feb-2020 4009.51 3106.31 64.56 5.00 279.20 3020.21
   05:31:18.400.03-Feb-2020 4009.51 3106.67 64.56 5.00 279.40 3020.21
   05:31:18.600.03-Feb-2020 4009.51 3106.83 64.56 5.00 279.60 3020.21
   05:31:18.800.03-Feb-2020 4009.51 3106.97 64.56 5.00 279.80 3020.21
   05:31:19.000.03-Feb-2020 4009.51 3107.13 64.56 5.00 280.00 3020.21
   05:31:19.200.03-Feb-2020 4009.51 3107.13 64.56 5.00 280.20 3020.21
   05:31:19.400.03-Feb-2020 4009.51 3107.50 64.56 5.00 280.40 3020.21
   05:31:19.600.03-Feb-2020 4009.51 3107.63 64.56 5.00 280.60 3020.21
   05:31:19.800.03-Feb-2020 4009.51 3107.76 64.56 5.00 280.80 3020.21
   05:31:20.000.03-Feb-2020 4009.51 3107.92 64.56 5.00 281.00 3020.21
   05:31:20.200.03-Feb-2020 4009.51 3107.92 64.56 5.00 281.20 3020.21
   05:31:20.400.03-Feb-2020 4009.51 3108.14 64.56 5.00 281.40 3020.21
   05:31:20.600.03-Feb-2020 4009.51 3108.35 64.56 5.00 281.60 3020.21
   05:31:20.800.03-Feb-2020 4009.51 3108.10 64.56 5.00 281.80 3020.21
   05:31:21.000.03-Feb-2020 4009.51 3108.48 64.56 5.00 282.00 3020.21
   05:31:21.200.03-Feb-2020 4009.51 3108.48 64.56 5.00 282.20 3020.21
   05:31:21.400.03-Feb-2020 4009.51 3108.74 64.56 5.00 282.40 3020.21
   05:31:21.600.03-Feb-2020 4009.51 3108.71 64.56 5.00 282.60 3020.21
   05:31:21.800.03-Feb-2020 4009.51 3108.87 64.56 5.00 282.80 3020.21
   05:31:22.000.03-Feb-2020 4009.51 3109.03 64.56 5.00 283.00 3020.21
   05:31:22.200.03-Feb-2020 4009.51 3109.03 64.56 5.00 283.20 3020.21
   05:31:22.400.03-Feb-2020 4009.51 3109.22 64.56 5.00 283.40 3020.21
   05:31:22.600.03-Feb-2020 4009.51 3109.36 64.56 5.00 283.60 3020.21
   05:31:22.800.03-Feb-2020 4009.51 3109.46 64.56 5.00 283.80 3020.21
   05:31:23.000.03-Feb-2020 4009.51 3109.59 64.55 5.00 284.00 3020.21
   05:31:23.200.03-Feb-2020 4009.51 3109.59 64.55 5.00 284.20 3020.21
   05:31:23.400.03-Feb-2020 4009.51 3109.51 64.55 5.00 284.40 3020.21
   05:31:23.600.03-Feb-2020 4009.51 3109.59 64.55 5.00 284.60 3020.21
   05:31:23.800.03-Feb-2020 4009.51 3109.80 64.55 5.00 284.80 3020.21
   05:31:24.000.03-Feb-2020 4009.51 3110.01 64.55 5.00 285.00 3020.21
   05:31:24.200.03-Feb-2020 4009.51 3110.01 64.55 5.00 285.20 3020.21
   05:31:24.400.03-Feb-2020 4009.51 3109.93 64.55 5.00 285.40 3020.21
   05:31:24.600.03-Feb-2020 4009.51 3109.93 64.55 5.00 285.60 3020.21
   05:31:24.800.03-Feb-2020 4009.51 3110.24 64.55 5.00 285.80 3020.21
   05:31:25.000.03-Feb-2020 4009.51 3110.27 64.55 5.00 286.00 3020.21
   05:31:25.200.03-Feb-2020 4009.51 3110.27 64.55 5.00 286.20 3020.21
   05:31:25.400.03-Feb-2020 4009.51 3110.02 64.55 5.00 286.40 3020.21
   05:31:25.600.03-Feb-2020 4009.51 3110.42 64.55 5.00 286.60 3020.21
   05:31:25.800.03-Feb-2020 4009.51 3110.37 64.55 5.00 286.80 3020.21
   05:31:26.000.03-Feb-2020 4009.51 3110.62 64.55 5.00 287.00 3020.21
   05:31:26.200.03-Feb-2020 4009.51 3110.62 64.55 5.00 287.20 3020.21
   05:31:26.400.03-Feb-2020 4009.51 3110.70 64.55 5.00 287.40 3020.21
   05:31:26.600.03-Feb-2020 4009.51 3110.59 64.55 5.00 287.60 3020.21
   05:31:26.800.03-Feb-2020 4009.51 3110.83 64.55 5.00 287.80 3020.21
   05:31:27.000.03-Feb-2020 4009.51 3110.76 64.55 5.00 288.00 3020.21
   05:31:27.200.03-Feb-2020 4009.51 3110.76 64.55 5.00 288.20 3020.21
   05:31:27.400.03-Feb-2020 4009.51 3111.04 64.55 5.00 288.40 3020.21
   05:31:27.600.03-Feb-2020 4009.51 3111.01 64.55 5.00 288.60 3020.21
   05:31:27.800.03-Feb-2020 4009.51 3111.01 64.55 5.00 288.80 3020.21
   05:31:28.000.03-Feb-2020 4009.51 3110.98 64.55 5.00 289.00 3020.21
   05:31:28.200.03-Feb-2020 4009.51 3110.98 64.55 5.00 289.20 3020.21
   05:31:28.400.03-Feb-2020 4009.51 3111.13 64.55 5.00 289.40 3020.21
   05:31:28.600.03-Feb-2020 4009.51 3111.14 64.55 5.00 289.60 3020.21
   05:31:28.800.03-Feb-2020 4009.51 3111.14 64.55 5.00 289.80 3020.21
   05:31:29.000.03-Feb-2020 4009.51 3111.11 64.55 5.00 290.00 3020.21
   05:31:29.200.03-Feb-2020 4009.51 3111.11 64.55 5.00 290.20 3020.21
   05:31:29.400.03-Feb-2020 4009.51 3111.34 64.55 5.00 290.40 3020.21
   05:31:29.600.03-Feb-2020 4009.51 3110.87 64.55 5.00 290.60 3020.21
   05:31:29.800.03-Feb-2020 4009.51 3111.22 64.55 5.00 290.80 3020.21
   05:31:30.000.03-Feb-2020 4009.51 3111.04 64.55 5.00 291.00 3020.21
   05:31:30.200.03-Feb-2020 4009.51 3111.04 64.55 5.00 291.20 3020.21
   05:31:30.400.03-Feb-2020 4009.51 3111.19 64.55 5.00 291.40 3020.21
   05:31:30.600.03-Feb-2020 4009.51 3111.25 64.55 5.00 291.60 3020.21
   05:31:30.800.03-Feb-2020 4009.51 3111.24 64.55 5.00 291.80 3020.21
   05:31:31.000.03-Feb-2020 4009.51 3111.21 64.55 5.00 292.00 3020.21
   05:31:31.200.03-Feb-2020 4009.51 3111.21 64.55 5.00 292.20 3020.21
   05:31:31.400.03-Feb-2020 4009.51 3111.26 64.55 5.00 292.40 3020.21
   05:31:31.600.03-Feb-2020 4009.51 3111.27 64.55 5.00 292.60 3020.21
   05:31:31.800.03-Feb-2020 4009.51 3111.27 64.55 5.00 292.80 3020.21
   05:31:32.000.03-Feb-2020 4009.51 3111.11 64.55 5.00 293.00 3020.21
   05:31:32.200.03-Feb-2020 4009.51 3111.11 64.55 5.00 293.20 3020.21
   05:31:32.400.03-Feb-2020 4009.51 3110.96 64.55 5.00 293.40 3020.21
   05:31:32.600.03-Feb-2020 4009.51 3111.39 64.55 5.00 293.60 3020.21
   05:31:32.800.03-Feb-2020 4009.51 3111.33 64.55 5.00 293.80 3020.21
   05:31:33.000.03-Feb-2020 4009.51 3111.19 64.55 5.00 294.00 3020.21
   05:31:33.200.03-Feb-2020 4009.51 3111.19 64.55 5.00 294.20 3020.21
   05:31:33.400.03-Feb-2020 4009.51 3111.06 64.55 5.00 294.40 3020.21
   05:31:33.600.03-Feb-2020 4009.51 3111.36 64.55 5.00 294.60 3020.21
   05:31:33.800.03-Feb-2020 4009.51 3111.38 64.55 5.00 294.80 3020.21
   05:31:34.000.03-Feb-2020 4009.51 3110.97 64.55 5.00 295.00 3020.21
   05:31:34.200.03-Feb-2020 4009.51 3110.97 64.55 5.00 295.20 3020.21
   05:31:34.400.03-Feb-2020 4009.51 3111.17 64.55 5.00 295.40 3020.21
   05:31:34.600.03-Feb-2020 4009.51 3111.44 64.55 5.00 295.60 3020.21
   05:31:34.800.03-Feb-2020 4009.51 3111.29 64.55 5.00 295.80 3020.21
   05:31:35.000.03-Feb-2020 4009.51 3111.41 64.55 5.00 296.00 3020.21
   05:31:35.200.03-Feb-2020 4009.51 3111.41 64.55 5.00 296.20 3020.21
   05:31:35.400.03-Feb-2020 4009.51 3111.23 64.55 5.00 296.40 3020.21
   05:31:35.600.03-Feb-2020 4009.51 3111.28 64.55 5.00 296.60 3020.21
   05:31:35.800.03-Feb-2020 4009.51 3111.25 64.55 5.00 296.80 3020.21
   05:31:36.000.03-Feb-2020 4009.51 3111.34 64.55 5.00 297.00 3020.21
   05:31:36.200.03-Feb-2020 4009.51 3111.34 64.55 5.00 297.20 3020.21
   05:31:36.400.03-Feb-2020 4009.51 3111.36 64.55 5.00 297.40 3020.21
   05:31:36.600.03-Feb-2020 4009.51 3111.36 64.55 5.00 297.60 3020.21
   05:31:36.800.03-Feb-2020 4009.51 3111.34 64.55 5.00 297.80 3020.21
   05:31:37.000.03-Feb-2020 4009.51 3111.46 64.55 5.00 298.00 3020.21
   05:31:37.200.03-Feb-2020 4009.51 3111.46 64.55 5.00 298.20 3020.21
   05:31:37.400.03-Feb-2020 4009.51 3111.37 64.55 5.00 298.40 3020.21
   05:31:37.600.03-Feb-2020 4009.51 3111.35 64.55 5.00 298.60 3020.21
   05:31:37.800.03-Feb-2020 4009.51 3111.33 64.55 5.00 298.80 3020.21
