~Version Information
 VERS.                  2.0:   CWLS log ASCII Standard -VERSION 2.0
 WRAP.                   NO:   One line per depth step
~Well Information Block
#MNEM.UNIT     VALUE/NAME     DESCRIPTION
#---------     -----------    ---------------------------
 STRT.S             03:10:10 03-Feb-20: START TIME 03:10:10 03-Feb-20
 STOP.S             03:17:58 03-Feb-20: STOP TIME  03:17:58 03-Feb-20
 STEP.S                   0.00: STEP TIME
 NULL.                 -999.25: NULL VALUE
 DFWT.                        :  DIST FWL TEXT
 DFST.                        :  DIST FSL TEXT
 DMF .             Drill Floor:  DRILL MEAS FROM
 STIM.      09.30.00 26-Dec-19:  START TIME
 DATE.      08.00.00 20-Jan-20:  END TIME
 SPUD.               23-Nov-19:  SPUD DATE
 NREF.                    Grid:  NORTH REFERENCE
 HPTY.       Minimum Curvature:  HOLE POS TYPE
 DMOD.             Drill Model:  DRILL MOD DESC
 SVYD.                  Survey:  SURVEY DESC
 ILTD.               Lithology:  INTERP LTH DESC
 FTOP.          Formation Tops:  FORM TOPS DESC
 SON .        AZ-XX-0906192647:  JOB NUMBER
 WTYP.                Deviated:  WELL TYPE
 COMP.     BP Exploration (Caspian Sea) Ltd:  COMPANY
 BASE.              Azerbaijan:  LOGGING EQUIPMENT BASE LOCATION
 REGN.                 Eurasia:  REGION
 FLD .                     ACG:  FIELD NAME
 SRVC.              KCA Deutag:  CONTRACTOR
 MWDS.                    Baku:  MWD SHOP
 WELL.     A10 (Slot 20) - SCP:  WELL NAME
 JOBN.        AZ-XX-0906192647:  JOB TICKET NUMB
 RIG .                 Chirag1:  RIG NAME
 DCON.     Halliburton Sperry Drilling:  DIRECTNL CONTR
 UNIT.                     N/A:  LOGGING EQUIPMENT ID
 PDAT.          Mean Sea Level:  PERMANENT DATUM
 MDS .        Operator Entered:  MAG DATA SOURCE
 CTRY.              Azerbaijan:  COUNTRY NAME
 UWI .            /AZE00000090:  UNIQUE WELL IDENTIFIER
 API .            /AZE00000090:  API NUMBER
 CNTY.                        :  COUNTY
 PROV.                        :  PROVINCE
 STAT.                        :  STATE
 LOC .                        :  LOCATION
 LMF .             Drill Floor:  LOG MEASURED FROM
 TVDS.m                  36.60:  TVDSS CORRECTN
 LATI.deg                40.08:  LATITUDE
 LONG.deg                51.24:  LONGITUDE
 WHNS.m                  -7.94:  WELL HEAD N/S
 WHEW.m                   1.56:  WELL HEAD E/W
 UTMX.m              520429.26:  UTM X
 UTMY.m             4438973.87:  UTM Y
 DFWL.m                   0.00:  DISTANCE FWL
 DFSL.m                   0.00:  DISTANCE FSL
 SDEP.m                1455.00:  START DEPTH
 TDD .m                4047.51:  TOTAL DEPTH (DRILLER)
 VSDR.deg               112.75:  VERT SEC DIRECT
 GVFD.g                   1.00:  GRAVITY FIELD
 MFLD.nT              50261.00:  MAGNETIC FIELD
 MDIP.deg                59.52:  MAGNETIC DIP
 MDEC.deg                 6.42:  MAGNETIC DECL
 GRDC.deg                 0.17:  GRID CORRECTION
 AZTC.deg                 6.25:  AZM TOTAL CORR
 EPD .m                   0.00:  ELEVATION
 EGL .m                   0.00:  GROUND ELEVATION
 WDMS.m                 121.00:  WD ELEV
 APD .m                  36.60:  DEPTH ABOVE PD
 AGAP.m                  36.60:  AIR GAP
 VSEW.m                   1.56:  VERT SEC E/W
 VSNS.m                  -7.94:  VERT SEC N/S
 DEP .m                1140.01:  DEPTH
 EKB .m                  36.60:  KB ELEVATION
 EDF .m                  36.60:  DF ELEVATION
 VSC .                       0:  VS TO CLOSURE
 MAGU.                 1849206:  MAGUTM CHECKSUM
~Parameter Information Block
#MNEM.UNIT       Value        Description
#---------     -----------    ---------------------------
 AV  .mps                 1.70:  Ann Velocity 
 AVMX.mps                 2.30:  Max Ann Veloc 
 AZIF.deg               137.03:  Azm, Final 
 BHAT.                   Other:  BHA Type 
 BROT.°/30m               0.80:  Build Rotating 
 BS  .in                  8.00:  Bit Size 
 BTPL.psig              161.00:  Bit Press Loss 
 CABU.                      No:  Customer Abuse 
 TCS .hr                  9.59:  Time Ciculation Ended 
 CV  .mps                 3.76:  Crit Velocity 
 CVMX.mps                 4.26:  Max Crit Veloc 
 DD1 .         Intigam Rahimov:  Direct Drillr 1 
 DD2 .          Rashad Gojayev:  Direct Drillr 2 
 DDSV.                   Other:  DD Service 
 DEFF.%                 100.00:  % Det Eff 
 DLRX.°/30m               1.44:  Dogleg Rot Max 
 DLSO.°/30m               0.00:  Dogleg Oriented 
 DLSX.°/30m               0.00:  Dogleg Str Max 
 DRET.      03.31.12 02-Feb-20:  Drill End Time 
 DRST.      03.31.12 02-Feb-20:  Drill Start Tim 
 DTIM.hr                  1.99:  Time Drilling 
 EDEP.m                4047.51:  End Depth 
 ENG1.           Eldar Hajiyev:  Engineer 1 
 ENG2.          Rasim Hashimov:  Engineer 2 
 ENG3.          Rustam Safarov:  Engineer 3 
 ETIM.      03.31.12 02-Feb-20:  End Time 
 FLOI.gpm               300.00:  Flow In 
 FLON.gpm               250.00:  Flow In Min 
 FLOS.cptm                0.00:  Fluid Loss 
 FLOX.gpm               330.00:  Flow In Max 
 HFLO.                      No:  High Flow 
 HPRE.                      No:  High Pressure 
 HTEM.                      No:  High Temp 
 HYDO.m                   2.50:  Hydro Offset 
 IFIN.deg                39.54:  Inc, Final 
 IMAX.deg                41.14:  Inc Max 
 IMIN.deg                39.81:  Inc Min 
 IMND.m                4005.21:  Inc Min Depth 
 IMXD.m                3948.42:  Inc Max Depth 
 JARR.                      No:  Jarring 
 LETM.      03.31.12 02-Feb-20:  Log End Time 
 LOST.hr                     0:  Lost Rig Time 
 LSTM.      03.31.12 02-Feb-20:  Log Start Time 
 MDCL.ppm             35000.00:  Mud Chlorides 
 MDES.     Inversion Oil/Synthetic:  Mud Desc 
 DFD .sg                  1.32:  Mud Density 
 MDMN.sg                  1.32:  Dens Mud Min 
 MDMX.sg                  1.32:  Dens Mud Max 
 MOIL.                      59:  Run Mud Oil % 
 MOWR.                   71:29:  Run Mud OWR 
 MSND.                       0:  Run Mud Sand % 
 MSOL.                      17:  Run Mud Solids% 
 DFV .spqt               86.00:  Mud Viscosity 
 MWOD.in                  4.75:  MWD Tool OD 
 MWSI.                      No:  Serv Intrp, MWD 
 OTIM.hr                 46.72:  Time Operating 
 PCON.           Look Like New:  Pad Condition 
 PMAX.psia             3300.00:  Press Op, Max 
 PV  .cP                 30.00:  Mud PV 
 RUN .                     400:  Run Number 
 ROPA.m/hr               35.00:  ROP Avg 
 ROPN.m/hr               25.00:  ROP Min 
 ROPX.m/hr               40.00:  ROP Max 
 RPMA.rpm                80.00:  RPM Surface Avg 
 RPMN.rpm                60.00:  RPM Surface Min 
 RPMX.rpm               100.00:  RPM Surface Max 
 RRUN.                     400:  Rig Run Number 
 RTIM.hr                  1.99:  Time Reaming 
 SAZI.deg               133.93:  Azm, Start 
 SDEP.m                4047.51:  Start Depth 
 SIDD.                      No:  Serv Intrp, DD 
 SINC.deg                40.28:  Inc, Start 
 SPPA.psig             3250.00:  SPP Avg 
 SPPN.psig             3200.00:  SPP Min 
 SPPX.psig             3300.00:  SPP Max 
 STIM.      03.31.12 02-Feb-20:  Start Time 
 SVCS.                 DD, MWD:  Services 
 SVER.                    9.20:  Sperry Version 
 TDAT.m                  47.00:  Tot Depth Attmp 
 TDDF.                      No:  Trip for DD 
 TFF .                      No:  Trip for Fail 
 TQAA.f-kp                0.00:  Torque Abs Avg 
 TQAN.f-kp                0.00:  Torque Abs Min 
 TQAX.f-kp                0.00:  Torque Abs Max 
 TRRT.°/30m               0.70:  Turn Rotating 
 MRT .                    HCIM:  Maximum Recorded Temperature 
 TTMX.degC               70.59:  Max Tool Temp 
 VS01.             90598770F11:  Virtual Str1 SN 
 VS02.             90598769F11:  Virtual Str2 SN 
 VS03.            90515978Z1W1:  Virtual Str3 SN 
 VS04.          90584144R12X14:  Virtual Str4 SN 
 WBMN.klb                 0.00:  WOB Min 
 WITN.            Peter Wilson:  Customer Rep 
 WOBA.klb                 0.00:  WOB Avg 
 WOBX.klb                 0.00:  WOB Max 
 YP  .lhf2               29.00:  Yield Point 
~Curve Information Block
#MNEM.UNIT                 API CODE     Curve Description
#---------               -----------    ---------------------------
 TIME.HHMMSS            00 000 000 000:  GT Time & Date
 GTDEPTH.m              00 000 000 000:  GT Depth
 GTPQH.psia             00 000 000 000:  GT HR Quartz Pressure
 GTTQ.degC              00 000 000 000:  GT Quartz Temperature
 GTTN.NONE              00 000 000 000:  GT Test Number
 GTET.sec               00 000 000 000:  GT Elapsed Test Time
 GTTVD.m                00 000 000 000:  GT True Vertical Depth
#Other Information
#
#WARRANTY: Halliburton will use its best efforts to furnish customers with 
#accurate information and interpretations that are part of, and incident to, the services 
#provided.  However, Halliburton cannot and does not warrant the accuracy 
#or correctness of such information and interpretations.  Under no circumstances should any 
#such information or interpretation be relied upon as the sole basis for any drilling, 
#completion, production, or financial decision or any procedure involving any risk to the 
#safety of any drilling venture, drilling rig or its crew or any other third party.  The 
#Customer has full responsibility for all drilling, completion and production operation.  
#Halliburton makes no representations or warranties, either expressed or 
#implied, including, but not limited to, the implied warranties of merchantability or fitness 
#for a particular purpose, with respect to the services rendered.  In no event will 
#Halliburton be liable for failure to obtain any particular results or for 
#any damages, including, but not limited to, indirect, special or consequential damages, 
#resulting from the use of any information or interpretation provided by Halliburton.
#
~A           TIME           GTDEPTH  GTPQH  GTTQ  GTTN  GTET   GTTVD  
# ...
   03:17:04.110.03-Feb-2020 4017.01 3135.32 62.96 2.00 414.09 3025.96
   03:17:04.310.03-Feb-2020 4017.01 3135.32 62.96 2.00 414.29 3025.96
   03:17:04.510.03-Feb-2020 4017.01 3135.31 62.96 2.00 414.49 3025.96
   03:17:04.710.03-Feb-2020 4017.01 3135.29 62.96 2.00 414.69 3025.96
   03:17:04.910.03-Feb-2020 4017.01 3134.85 62.96 2.00 414.89 3025.96
   03:17:05.110.03-Feb-2020 4017.01 3135.46 62.96 2.00 415.09 3025.96
   03:17:05.310.03-Feb-2020 4017.01 3135.46 62.96 2.00 415.29 3025.96
   03:17:05.511.03-Feb-2020 4017.01 3135.47 62.96 2.00 415.49 3025.96
   03:17:05.711.03-Feb-2020 4017.01 3135.31 62.96 2.00 415.69 3025.96
   03:17:05.911.03-Feb-2020 4017.01 3135.31 62.96 2.00 415.89 3025.96
   03:17:06.111.03-Feb-2020 4017.01 3135.09 62.96 2.00 416.09 3025.96
   03:17:06.311.03-Feb-2020 4017.01 3135.09 62.96 2.00 416.29 3025.96
   03:17:06.511.03-Feb-2020 4017.01 3135.40 62.96 2.00 416.49 3025.96
   03:17:06.711.03-Feb-2020 4017.01 3135.35 62.96 2.00 416.69 3025.96
   03:17:06.911.03-Feb-2020 4017.01 3135.34 62.96 2.00 416.89 3025.96
   03:17:07.111.03-Feb-2020 4017.01 3135.16 62.96 2.00 417.09 3025.96
   03:17:07.311.03-Feb-2020 4017.01 3135.16 62.96 2.00 417.29 3025.96
   03:17:07.511.03-Feb-2020 4017.01 3135.09 62.95 2.00 417.49 3025.96
   03:17:07.711.03-Feb-2020 4017.01 3135.46 62.95 2.00 417.69 3025.96
   03:17:07.911.03-Feb-2020 4017.01 3135.40 62.95 2.00 417.89 3025.96
   03:17:08.111.03-Feb-2020 4017.01 3135.10 62.95 2.00 418.09 3025.96
   03:17:08.311.03-Feb-2020 4017.01 3135.10 62.95 2.00 418.29 3025.96
   03:17:08.511.03-Feb-2020 4017.01 3135.40 62.95 2.00 418.49 3025.96
   03:17:08.711.03-Feb-2020 4017.01 3135.27 62.95 2.00 418.69 3025.96
   03:17:08.911.03-Feb-2020 4017.01 3135.40 62.95 2.00 418.89 3025.96
   03:17:09.111.03-Feb-2020 4017.01 3135.37 62.95 2.00 419.09 3025.96
   03:17:09.311.03-Feb-2020 4017.01 3135.37 62.95 2.00 419.29 3025.96
   03:17:09.511.03-Feb-2020 4017.01 3135.35 62.95 2.00 419.49 3025.96
   03:17:09.711.03-Feb-2020 4017.01 3135.31 62.95 2.00 419.69 3025.96
   03:17:09.911.03-Feb-2020 4017.01 3135.24 62.95 2.00 419.89 3025.96
   03:17:10.112.03-Feb-2020 4017.01 3135.38 62.95 2.00 420.09 3025.96
   03:17:10.312.03-Feb-2020 4017.01 3135.38 62.95 2.00 420.29 3025.96
   03:17:10.512.03-Feb-2020 4017.01 3135.30 62.95 2.00 420.49 3025.96
   03:17:10.712.03-Feb-2020 4017.01 3135.31 62.95 2.00 420.69 3025.96
   03:17:10.912.03-Feb-2020 4017.01 3135.34 62.95 2.00 420.89 3025.96
   03:17:11.112.03-Feb-2020 4017.01 3135.37 62.95 2.00 421.09 3025.96
   03:17:11.312.03-Feb-2020 4017.01 3135.37 62.95 2.00 421.29 3025.96
   03:17:11.512.03-Feb-2020 4017.01 3135.62 62.95 2.00 421.49 3025.96
   03:17:11.712.03-Feb-2020 4017.01 3135.09 62.95 2.00 421.69 3025.96
   03:17:11.912.03-Feb-2020 4017.01 3135.50 62.95 2.00 421.89 3025.96
   03:17:12.112.03-Feb-2020 4017.01 3135.28 62.95 2.00 422.09 3025.96
   03:17:12.312.03-Feb-2020 4017.01 3135.28 62.95 2.00 422.29 3025.96
   03:17:12.512.03-Feb-2020 4017.01 3135.31 62.95 2.00 422.49 3025.96
   03:17:12.712.03-Feb-2020 4017.01 3135.28 62.95 2.00 422.69 3025.96
   03:17:12.912.03-Feb-2020 4017.01 3135.32 62.95 2.00 422.89 3025.96
   03:17:13.112.03-Feb-2020 4017.01 3135.36 62.95 2.00 423.09 3025.96
   03:17:13.312.03-Feb-2020 4017.01 3135.36 62.95 2.00 423.29 3025.96
   03:17:13.512.03-Feb-2020 4017.01 3135.33 62.95 2.00 423.49 3025.96
   03:17:13.712.03-Feb-2020 4017.01 3135.34 62.95 2.00 423.69 3025.96
   03:17:13.912.03-Feb-2020 4017.01 3135.00 62.95 2.00 423.89 3025.96
   03:17:14.112.03-Feb-2020 4017.01 3135.23 62.95 2.00 424.09 3025.96
   03:17:14.312.03-Feb-2020 4017.01 3135.23 62.95 2.00 424.29 3025.96
   03:17:14.512.03-Feb-2020 4017.01 3135.36 62.95 2.00 424.49 3025.96
   03:17:14.712.03-Feb-2020 4017.01 3135.37 62.95 2.00 424.69 3025.96
   03:17:14.913.03-Feb-2020 4017.01 3135.16 62.95 2.00 424.89 3025.96
   03:17:15.113.03-Feb-2020 4017.01 3135.38 62.95 2.00 425.09 3025.96
   03:17:15.313.03-Feb-2020 4017.01 3135.38 62.95 2.00 425.29 3025.96
   03:17:15.513.03-Feb-2020 4017.01 3135.47 62.95 2.00 425.49 3025.96
   03:17:15.713.03-Feb-2020 4017.01 3135.30 62.95 2.00 425.69 3025.96
   03:17:15.913.03-Feb-2020 4017.01 3135.40 62.95 2.00 425.89 3025.96
   03:17:16.113.03-Feb-2020 4017.01 3134.88 62.95 2.00 426.09 3025.96
   03:17:16.313.03-Feb-2020 4017.01 3134.88 62.95 2.00 426.29 3025.96
   03:17:16.513.03-Feb-2020 4017.01 3135.15 62.95 2.00 426.49 3025.96
   03:17:16.713.03-Feb-2020 4017.01 3135.50 62.95 2.00 426.69 3025.96
   03:17:16.913.03-Feb-2020 4017.01 3135.21 62.95 2.00 426.89 3025.96
   03:17:17.113.03-Feb-2020 4017.01 3135.47 62.95 2.00 427.09 3025.96
   03:17:17.313.03-Feb-2020 4017.01 3135.47 62.95 2.00 427.29 3025.96
   03:17:17.513.03-Feb-2020 4017.01 3135.46 62.95 2.00 427.49 3025.96
   03:17:17.713.03-Feb-2020 4017.01 3135.27 62.95 2.00 427.69 3025.96
   03:17:17.913.03-Feb-2020 4017.01 3135.43 62.95 2.00 427.89 3025.96
   03:17:18.113.03-Feb-2020 4017.01 3135.38 62.95 2.00 428.09 3025.96
   03:17:18.313.03-Feb-2020 4017.01 3135.38 62.95 2.00 428.29 3025.96
   03:17:18.513.03-Feb-2020 4017.01 3135.32 62.95 2.00 428.49 3025.96
   03:17:18.713.03-Feb-2020 4017.01 3135.32 62.95 2.00 428.69 3025.96
   03:17:18.913.03-Feb-2020 4017.01 3135.28 62.95 2.00 428.89 3025.96
   03:17:19.113.03-Feb-2020 4017.01 3135.37 62.95 2.00 429.09 3025.96
   03:17:19.313.03-Feb-2020 4017.01 3135.37 62.95 2.00 429.29 3025.96
   03:17:19.513.03-Feb-2020 4017.01 3135.33 62.95 2.00 429.49 3025.96
   03:17:19.714.03-Feb-2020 4017.01 3135.27 62.95 2.00 429.69 3025.96
   03:17:19.914.03-Feb-2020 4017.01 3135.40 62.95 2.00 429.89 3025.96
   03:17:20.114.03-Feb-2020 4017.01 3135.40 62.95 2.00 430.09 3025.96
   03:17:20.314.03-Feb-2020 4017.01 3135.40 62.95 2.00 430.29 3025.96
   03:17:20.514.03-Feb-2020 4017.01 3135.57 62.95 2.00 430.49 3025.96
   03:17:20.714.03-Feb-2020 4017.01 3135.26 62.95 2.00 430.69 3025.96
   03:17:20.914.03-Feb-2020 4017.01 3135.42 62.95 2.00 430.89 3025.96
   03:17:21.114.03-Feb-2020 4017.01 3135.36 62.95 2.00 431.09 3025.96
   03:17:21.314.03-Feb-2020 4017.01 3135.36 62.95 2.00 431.29 3025.96
   03:17:21.514.03-Feb-2020 4017.01 3135.31 62.95 2.00 431.49 3025.96
   03:17:21.714.03-Feb-2020 4017.01 3135.33 62.95 2.00 431.69 3025.96
   03:17:21.914.03-Feb-2020 4017.01 3135.34 62.95 2.00 431.89 3025.96
   03:17:22.114.03-Feb-2020 4017.01 3135.37 62.95 2.00 432.09 3025.96
   03:17:22.314.03-Feb-2020 4017.01 3135.37 62.95 2.00 432.29 3025.96
   03:17:22.514.03-Feb-2020 4017.01 3135.33 62.95 2.00 432.49 3025.96
   03:17:22.714.03-Feb-2020 4017.01 3135.18 62.95 2.00 432.69 3025.96
   03:17:22.914.03-Feb-2020 4017.01 3135.36 62.95 2.00 432.89 3025.96
   03:17:23.114.03-Feb-2020 4017.01 3135.12 62.95 2.00 433.09 3025.96
   03:17:23.314.03-Feb-2020 4017.01 3135.12 62.95 2.00 433.29 3025.96
   03:17:23.514.03-Feb-2020 4017.01 3135.37 62.95 2.00 433.49 3025.96
   03:17:23.714.03-Feb-2020 4017.01 3135.38 62.95 2.00 433.69 3025.96
   03:17:23.914.03-Feb-2020 4017.01 3134.88 62.95 2.00 433.89 3025.96
   03:17:24.114.03-Feb-2020 4017.01 3135.72 62.95 2.00 434.09 3025.96
   03:17:24.314.03-Feb-2020 4017.01 3135.72 62.95 2.00 434.29 3025.96
   03:17:24.515.03-Feb-2020 4017.01 3135.51 62.95 2.00 434.49 3025.96
   03:17:24.715.03-Feb-2020 4017.01 3135.35 62.95 2.00 434.69 3025.96
   03:17:24.915.03-Feb-2020 4017.01 3135.40 62.95 2.00 434.89 3025.96
   03:17:25.115.03-Feb-2020 4017.01 3134.90 62.95 2.00 435.09 3025.96
   03:17:25.315.03-Feb-2020 4017.01 3134.90 62.95 2.00 435.29 3025.96
   03:17:25.515.03-Feb-2020 4017.01 3135.24 62.95 2.00 435.49 3025.96
   03:17:25.715.03-Feb-2020 4017.01 3135.52 62.95 2.00 435.69 3025.96
   03:17:25.915.03-Feb-2020 4017.01 3134.97 62.95 2.00 435.89 3025.96
   03:17:26.115.03-Feb-2020 4017.01 3137.00 62.95 2.00 436.09 3025.96
   03:17:26.315.03-Feb-2020 4017.01 3137.00 62.95 2.00 436.29 3025.96
   03:17:26.515.03-Feb-2020 4017.01 3201.25 62.95 2.00 436.49 3025.96
   03:17:26.715.03-Feb-2020 4017.01 5790.99 62.95 2.00 436.69 3025.96
   03:17:26.915.03-Feb-2020 4017.01 6079.15 62.95 2.00 436.89 3025.96
