~Version Information
 VERS.                  2.0:   CWLS log ASCII Standard -VERSION 2.0
 WRAP.                   NO:   One line per depth step
~Well Information Block
#MNEM.UNIT     VALUE/NAME     DESCRIPTION
#---------     -----------    ---------------------------
 STRT.S             03:46:27 03-Feb-20: START TIME 03:46:27 03-Feb-20
 STOP.S             03:54:17 03-Feb-20: STOP TIME  03:54:17 03-Feb-20
 STEP.S                   0.00: STEP TIME
 NULL.                 -999.25: NULL VALUE
 DFWT.                        :  DIST FWL TEXT
 DFST.                        :  DIST FSL TEXT
 DMF .             Drill Floor:  DRILL MEAS FROM
 STIM.      09.30.00 26-Dec-19:  START TIME
 DATE.      08.00.00 20-Jan-20:  END TIME
 SPUD.               23-Nov-19:  SPUD DATE
 NREF.                    Grid:  NORTH REFERENCE
 HPTY.       Minimum Curvature:  HOLE POS TYPE
 DMOD.             Drill Model:  DRILL MOD DESC
 SVYD.                  Survey:  SURVEY DESC
 ILTD.               Lithology:  INTERP LTH DESC
 FTOP.          Formation Tops:  FORM TOPS DESC
 SON .        AZ-XX-0906192647:  JOB NUMBER
 WTYP.                Deviated:  WELL TYPE
 COMP.     BP Exploration (Caspian Sea) Ltd:  COMPANY
 BASE.              Azerbaijan:  LOGGING EQUIPMENT BASE LOCATION
 REGN.                 Eurasia:  REGION
 FLD .                     ACG:  FIELD NAME
 SRVC.              KCA Deutag:  CONTRACTOR
 MWDS.                    Baku:  MWD SHOP
 WELL.     A10 (Slot 20) - SCP:  WELL NAME
 JOBN.        AZ-XX-0906192647:  JOB TICKET NUMB
 RIG .                 Chirag1:  RIG NAME
 DCON.     Halliburton Sperry Drilling:  DIRECTNL CONTR
 UNIT.                     N/A:  LOGGING EQUIPMENT ID
 PDAT.          Mean Sea Level:  PERMANENT DATUM
 MDS .        Operator Entered:  MAG DATA SOURCE
 CTRY.              Azerbaijan:  COUNTRY NAME
 UWI .            /AZE00000090:  UNIQUE WELL IDENTIFIER
 API .            /AZE00000090:  API NUMBER
 CNTY.                        :  COUNTY
 PROV.                        :  PROVINCE
 STAT.                        :  STATE
 LOC .                        :  LOCATION
 LMF .             Drill Floor:  LOG MEASURED FROM
 TVDS.m                  36.60:  TVDSS CORRECTN
 LATI.deg                40.08:  LATITUDE
 LONG.deg                51.24:  LONGITUDE
 WHNS.m                  -7.94:  WELL HEAD N/S
 WHEW.m                   1.56:  WELL HEAD E/W
 UTMX.m              520429.26:  UTM X
 UTMY.m             4438973.87:  UTM Y
 DFWL.m                   0.00:  DISTANCE FWL
 DFSL.m                   0.00:  DISTANCE FSL
 SDEP.m                1455.00:  START DEPTH
 TDD .m                4047.51:  TOTAL DEPTH (DRILLER)
 VSDR.deg               112.75:  VERT SEC DIRECT
 GVFD.g                   1.00:  GRAVITY FIELD
 MFLD.nT              50261.00:  MAGNETIC FIELD
 MDIP.deg                59.52:  MAGNETIC DIP
 MDEC.deg                 6.42:  MAGNETIC DECL
 GRDC.deg                 0.17:  GRID CORRECTION
 AZTC.deg                 6.25:  AZM TOTAL CORR
 EPD .m                   0.00:  ELEVATION
 EGL .m                   0.00:  GROUND ELEVATION
 WDMS.m                 121.00:  WD ELEV
 APD .m                  36.60:  DEPTH ABOVE PD
 AGAP.m                  36.60:  AIR GAP
 VSEW.m                   1.56:  VERT SEC E/W
 VSNS.m                  -7.94:  VERT SEC N/S
 DEP .m                1140.01:  DEPTH
 EKB .m                  36.60:  KB ELEVATION
 EDF .m                  36.60:  DF ELEVATION
 VSC .                       0:  VS TO CLOSURE
 MAGU.                 1849206:  MAGUTM CHECKSUM
~Parameter Information Block
#MNEM.UNIT       Value        Description
#---------     -----------    ---------------------------
 AV  .mps                 1.70:  Ann Velocity 
 AVMX.mps                 2.30:  Max Ann Veloc 
 AZIF.deg               137.03:  Azm, Final 
 BHAT.                   Other:  BHA Type 
 BROT.°/30m               0.80:  Build Rotating 
 BS  .in                  8.00:  Bit Size 
 BTPL.psig              161.00:  Bit Press Loss 
 CABU.                      No:  Customer Abuse 
 COMM.                     d£g:  Run Comments 1 
 TCS .hr                  9.59:  Time Ciculation Ended 
 CV  .mps                 3.76:  Crit Velocity 
 CVMX.mps                 4.26:  Max Crit Veloc 
 DD1 .         Intigam Rahimov:  Direct Drillr 1 
 DD2 .          Rashad Gojayev:  Direct Drillr 2 
 DDSV.                   Other:  DD Service 
 DEFF.%                 100.00:  % Det Eff 
 DLRX.°/30m               1.44:  Dogleg Rot Max 
 DLSO.°/30m               0.00:  Dogleg Oriented 
 DLSX.°/30m               0.00:  Dogleg Str Max 
 DRET.      03.31.12 02-Feb-20:  Drill End Time 
 DRST.      03.31.12 02-Feb-20:  Drill Start Tim 
 DTIM.hr                  1.99:  Time Drilling 
 EDEP.m                4047.51:  End Depth 
 ENG1.           Eldar Hajiyev:  Engineer 1 
 ENG2.          Rasim Hashimov:  Engineer 2 
 ENG3.          Rustam Safarov:  Engineer 3 
 ETIM.      03.31.12 02-Feb-20:  End Time 
 FLOI.gpm               300.00:  Flow In 
 FLON.gpm               250.00:  Flow In Min 
 FLOS.cptm                0.00:  Fluid Loss 
 FLOX.gpm               330.00:  Flow In Max 
 HFLO.                      No:  High Flow 
 HPRE.                      No:  High Pressure 
 HTEM.                      No:  High Temp 
 HYDO.m                   2.50:  Hydro Offset 
 IFIN.deg                39.54:  Inc, Final 
 IMAX.deg                41.14:  Inc Max 
 IMIN.deg                39.81:  Inc Min 
 IMND.m                4005.21:  Inc Min Depth 
 IMXD.m                3948.42:  Inc Max Depth 
 JARR.                      No:  Jarring 
 LETM.      03.31.12 02-Feb-20:  Log End Time 
 LOST.hr                     0:  Lost Rig Time 
 LSTM.      03.31.12 02-Feb-20:  Log Start Time 
 MDCL.ppm             35000.00:  Mud Chlorides 
 MDES.     Inversion Oil/Synthetic:  Mud Desc 
 DFD .sg                  1.32:  Mud Density 
 MDMN.sg                  1.32:  Dens Mud Min 
 MDMX.sg                  1.32:  Dens Mud Max 
 MOIL.                      59:  Run Mud Oil % 
 MOWR.                   71:29:  Run Mud OWR 
 MSND.                       0:  Run Mud Sand % 
 MSOL.                      17:  Run Mud Solids% 
 DFV .spqt               86.00:  Mud Viscosity 
 MWOD.in                  4.75:  MWD Tool OD 
 MWSI.                      No:  Serv Intrp, MWD 
 OTIM.hr                 46.72:  Time Operating 
 PCON.           Look Like New:  Pad Condition 
 PMAX.psia             3300.00:  Press Op, Max 
 PV  .cP                 30.00:  Mud PV 
 RUN .                     400:  Run Number 
 ROPA.m/hr               35.00:  ROP Avg 
 ROPN.m/hr               25.00:  ROP Min 
 ROPX.m/hr               40.00:  ROP Max 
 RPMA.rpm                80.00:  RPM Surface Avg 
 RPMN.rpm                60.00:  RPM Surface Min 
 RPMX.rpm               100.00:  RPM Surface Max 
 RRUN.                     400:  Rig Run Number 
 RTIM.hr                  1.99:  Time Reaming 
 SAZI.deg               133.93:  Azm, Start 
 SDEP.m                4047.51:  Start Depth 
 SIDD.                      No:  Serv Intrp, DD 
 SINC.deg                40.28:  Inc, Start 
 SPPA.psig             3250.00:  SPP Avg 
 SPPN.psig             3200.00:  SPP Min 
 SPPX.psig             3300.00:  SPP Max 
 STIM.      03.31.12 02-Feb-20:  Start Time 
 SVCS.                 DD, MWD:  Services 
 SVER.                    9.20:  Sperry Version 
 TDAT.m                  47.00:  Tot Depth Attmp 
 TDDF.                      No:  Trip for DD 
 TFF .                      No:  Trip for Fail 
 TQAA.f-kp                0.00:  Torque Abs Avg 
 TQAN.f-kp                0.00:  Torque Abs Min 
 TQAX.f-kp                0.00:  Torque Abs Max 
 TRRT.°/30m               0.70:  Turn Rotating 
 MRT .                    HCIM:  Maximum Recorded Temperature 
 TTMX.degC               70.59:  Max Tool Temp 
 VS01.             90598770F11:  Virtual Str1 SN 
 VS02.             90598769F11:  Virtual Str2 SN 
 VS03.            90515978Z1W1:  Virtual Str3 SN 
 VS04.          90584144R12X14:  Virtual Str4 SN 
 WBMN.klb                 0.00:  WOB Min 
 WITN.            Peter Wilson:  Customer Rep 
 WOBA.klb                 0.00:  WOB Avg 
 WOBX.klb                 0.00:  WOB Max 
 YP  .lhf2               29.00:  Yield Point 
~Curve Information Block
#MNEM.UNIT                 API CODE     Curve Description
#---------               -----------    ---------------------------
 TIME.HHMMSS            00 000 000 000:  GT Time & Date
 GTDEPTH.m              00 000 000 000:  GT Depth
 GTPQH.psia             00 000 000 000:  GT HR Quartz Pressure
 GTTQ.degC              00 000 000 000:  GT Quartz Temperature
 GTTN.NONE              00 000 000 000:  GT Test Number
 GTET.sec               00 000 000 000:  GT Elapsed Test Time
 GTTVD.m                00 000 000 000:  GT True Vertical Depth
#Other Information
#
#WARRANTY: Halliburton will use its best efforts to furnish customers with 
#accurate information and interpretations that are part of, and incident to, the services 
#provided.  However, Halliburton cannot and does not warrant the accuracy 
#or correctness of such information and interpretations.  Under no circumstances should any 
#such information or interpretation be relied upon as the sole basis for any drilling, 
#completion, production, or financial decision or any procedure involving any risk to the 
#safety of any drilling venture, drilling rig or its crew or any other third party.  The 
#Customer has full responsibility for all drilling, completion and production operation.  
#Halliburton makes no representations or warranties, either expressed or 
#implied, including, but not limited to, the implied warranties of merchantability or fitness 
#for a particular purpose, with respect to the services rendered.  In no event will 
#Halliburton be liable for failure to obtain any particular results or for 
#any damages, including, but not limited to, indirect, special or consequential damages, 
#resulting from the use of any information or interpretation provided by Halliburton.
#
~A           TIME           GTDEPTH  GTPQH  GTTQ  GTTN  GTET   GTTVD  
# ...
   03:46:50.484.03-Feb-2020 4013.21 6621.52 64.46 3.00  23.00 3023.05
   03:46:50.684.03-Feb-2020 4013.21 6621.52 64.46 3.00  23.20 3023.05
   03:46:50.884.03-Feb-2020 4013.21 6201.40 64.46 3.00  23.40 3023.05
   03:46:51.085.03-Feb-2020 4013.21 5898.77 64.46 3.00  23.60 3023.05
   03:46:51.285.03-Feb-2020 4013.21 5500.77 64.46 3.00  23.80 3023.05
   03:46:51.485.03-Feb-2020 4013.21 4995.02 64.46 3.00  24.01 3023.05
   03:46:51.685.03-Feb-2020 4013.21 4995.02 64.46 3.00  24.21 3023.05
   03:46:51.885.03-Feb-2020 4013.21 4115.84 64.46 3.00  24.41 3023.05
   03:46:52.085.03-Feb-2020 4013.21 3665.68 64.46 3.00  24.61 3023.05
   03:46:52.285.03-Feb-2020 4013.21 3235.03 64.46 3.00  24.81 3023.05
   03:46:52.485.03-Feb-2020 4013.21 2904.89 64.46 3.00  25.01 3023.05
   03:46:52.685.03-Feb-2020 4013.21 2904.89 64.46 3.00  25.21 3023.05
   03:46:52.885.03-Feb-2020 4013.21 2667.76 64.46 3.00  25.41 3023.05
   03:46:53.085.03-Feb-2020 4013.21 2586.90 64.46 3.00  25.61 3023.05
   03:46:53.285.03-Feb-2020 4013.21 2541.70 64.46 3.00  25.81 3023.05
   03:46:53.485.03-Feb-2020 4013.21 2513.84 64.46 3.00  26.01 3023.05
   03:46:53.685.03-Feb-2020 4013.21 2513.84 64.46 3.00  26.21 3023.05
   03:46:53.885.03-Feb-2020 4013.21 2491.00 64.45 3.00  26.41 3023.05
   03:46:54.085.03-Feb-2020 4013.21 2481.78 64.45 3.00  26.61 3023.05
   03:46:54.285.03-Feb-2020 4013.21 2475.53 64.45 3.00  26.81 3023.05
   03:46:54.485.03-Feb-2020 4013.21 2467.84 64.45 3.00  27.01 3023.05
   03:46:54.685.03-Feb-2020 4013.21 2467.84 64.45 3.00  27.21 3023.05
   03:46:54.885.03-Feb-2020 4013.21 2468.49 64.45 3.00  27.41 3023.05
   03:46:55.085.03-Feb-2020 4013.21 2478.23 64.45 3.00  27.61 3023.05
   03:46:55.285.03-Feb-2020 4013.21 2532.66 64.45 3.00  27.81 3023.05
   03:46:55.485.03-Feb-2020 4013.21 2611.48 64.44 3.00  28.01 3023.05
   03:46:55.685.03-Feb-2020 4013.21 2611.48 64.44 3.00  28.21 3023.05
   03:46:55.886.03-Feb-2020 4013.21 2662.69 64.44 3.00  28.41 3023.05
   03:46:56.086.03-Feb-2020 4013.21 2667.31 64.44 3.00  28.61 3023.05
   03:46:56.286.03-Feb-2020 4013.21 2668.53 64.44 3.00  28.81 3023.05
   03:46:56.486.03-Feb-2020 4013.21 2664.97 64.44 3.00  29.01 3023.05
   03:46:56.686.03-Feb-2020 4013.21 2664.97 64.44 3.00  29.21 3023.05
   03:46:56.886.03-Feb-2020 4013.21 2662.25 64.43 3.00  29.41 3023.05
   03:46:57.086.03-Feb-2020 4013.21 2659.60 64.43 3.00  29.61 3023.05
   03:46:57.286.03-Feb-2020 4013.21 2659.63 64.43 3.00  29.81 3023.05
   03:46:57.486.03-Feb-2020 4013.21 2659.54 64.43 3.00  30.01 3023.05
   03:46:57.686.03-Feb-2020 4013.21 2659.54 64.43 3.00  30.21 3023.05
   03:46:57.886.03-Feb-2020 4013.21 2659.54 64.43 3.00  30.41 3023.05
   03:46:58.086.03-Feb-2020 4013.21 2658.33 64.43 3.00  30.61 3023.05
   03:46:58.286.03-Feb-2020 4013.21 2657.49 64.42 3.00  30.81 3023.05
   03:46:58.486.03-Feb-2020 4013.21 2656.76 64.42 3.00  31.01 3023.05
   03:46:58.686.03-Feb-2020 4013.21 2656.76 64.42 3.00  31.21 3023.05
   03:46:58.886.03-Feb-2020 4013.21 2654.93 64.42 3.00  31.41 3023.05
   03:46:59.086.03-Feb-2020 4013.21 2655.00 64.42 3.00  31.61 3023.05
   03:46:59.286.03-Feb-2020 4013.21 2654.96 64.42 3.00  31.81 3023.05
   03:46:59.486.03-Feb-2020 4013.21 2655.82 64.42 3.00  32.01 3023.05
   03:46:59.686.03-Feb-2020 4013.21 2655.82 64.42 3.00  32.21 3023.05
   03:46:59.886.03-Feb-2020 4013.21 2655.51 64.41 3.00  32.41 3023.05
   03:47:00.086.03-Feb-2020 4013.21 2655.30 64.41 3.00  32.61 3023.05
   03:47:00.286.03-Feb-2020 4013.21 2653.63 64.41 3.00  32.81 3023.05
   03:47:00.486.03-Feb-2020 4013.21 2685.53 64.41 3.00  33.01 3023.05
   03:47:00.687.03-Feb-2020 4013.21 2685.53 64.41 3.00  33.21 3023.05
   03:47:00.887.03-Feb-2020 4013.21 3034.30 64.41 3.00  33.41 3023.05
   03:47:01.087.03-Feb-2020 4013.21 3085.49 64.41 3.00  33.61 3023.05
   03:47:01.287.03-Feb-2020 4013.21 3107.57 64.41 3.00  33.81 3023.05
   03:47:01.487.03-Feb-2020 4013.21 3117.82 64.41 3.00  34.01 3023.05
   03:47:01.687.03-Feb-2020 4013.21 3117.82 64.41 3.00  34.21 3023.05
   03:47:01.887.03-Feb-2020 4013.21 3122.98 64.40 3.00  34.41 3023.05
   03:47:02.087.03-Feb-2020 4013.21 3127.49 64.40 3.00  34.61 3023.05
   03:47:02.287.03-Feb-2020 4013.21 3128.76 64.40 3.00  34.81 3023.05
   03:47:02.487.03-Feb-2020 4013.21 3129.58 64.40 3.00  35.01 3023.05
   03:47:02.687.03-Feb-2020 4013.21 3129.58 64.40 3.00  35.21 3023.05
   03:47:02.887.03-Feb-2020 4013.21 3130.85 64.40 3.00  35.41 3023.05
   03:47:03.087.03-Feb-2020 4013.21 3131.07 64.40 3.00  35.61 3023.05
   03:47:03.287.03-Feb-2020 4013.21 3131.71 64.40 3.00  35.81 3023.05
   03:47:03.487.03-Feb-2020 4013.21 3131.94 64.40 3.00  36.01 3023.05
   03:47:03.687.03-Feb-2020 4013.21 3131.94 64.40 3.00  36.21 3023.05
   03:47:03.887.03-Feb-2020 4013.21 3132.55 64.40 3.00  36.41 3023.05
   03:47:04.087.03-Feb-2020 4013.21 3132.53 64.40 3.00  36.61 3023.05
   03:47:04.287.03-Feb-2020 4013.21 3133.01 64.40 3.00  36.81 3023.05
   03:47:04.487.03-Feb-2020 4013.21 3132.99 64.40 3.00  37.01 3023.05
   03:47:04.687.03-Feb-2020 4013.21 3132.99 64.40 3.00  37.21 3023.05
   03:47:04.887.03-Feb-2020 4013.21 3133.56 64.39 3.00  37.41 3023.05
   03:47:05.087.03-Feb-2020 4013.21 3133.70 64.39 3.00  37.61 3023.05
   03:47:05.287.03-Feb-2020 4013.21 3133.78 64.39 3.00  37.81 3023.05
   03:47:05.488.03-Feb-2020 4013.21 3133.90 64.39 3.00  38.01 3023.05
   03:47:05.688.03-Feb-2020 4013.21 3133.90 64.39 3.00  38.21 3023.05
   03:47:05.888.03-Feb-2020 4013.21 3134.16 64.39 3.00  38.41 3023.05
   03:47:06.088.03-Feb-2020 4013.21 3134.42 64.39 3.00  38.61 3023.05
   03:47:06.288.03-Feb-2020 4013.21 3134.67 64.39 3.00  38.81 3023.05
   03:47:06.488.03-Feb-2020 4013.21 3134.75 64.39 3.00  39.01 3023.05
   03:47:06.688.03-Feb-2020 4013.21 3134.75 64.39 3.00  39.21 3023.05
   03:47:06.888.03-Feb-2020 4013.21 3134.59 64.39 3.00  39.41 3023.05
   03:47:07.088.03-Feb-2020 4013.21 3134.74 64.39 3.00  39.61 3023.05
   03:47:07.288.03-Feb-2020 4013.21 3134.72 64.39 3.00  39.81 3023.05
   03:47:07.488.03-Feb-2020 4013.21 3134.64 64.39 3.00  40.01 3023.05
   03:47:07.688.03-Feb-2020 4013.21 3134.64 64.39 3.00  40.21 3023.05
   03:47:07.888.03-Feb-2020 4013.21 3134.94 64.39 3.00  40.41 3023.05
   03:47:08.088.03-Feb-2020 4013.21 3134.96 64.39 3.00  40.61 3023.05
   03:47:08.288.03-Feb-2020 4013.21 3135.04 64.39 3.00  40.81 3023.05
   03:47:08.488.03-Feb-2020 4013.21 3135.10 64.39 3.00  41.01 3023.05
   03:47:08.688.03-Feb-2020 4013.21 3135.10 64.39 3.00  41.21 3023.05
   03:47:08.888.03-Feb-2020 4013.21 3135.25 64.39 3.00  41.41 3023.05
   03:47:09.088.03-Feb-2020 4013.21 3135.28 64.39 3.00  41.61 3023.05
   03:47:09.288.03-Feb-2020 4013.21 3135.26 64.39 3.00  41.81 3023.05
   03:47:09.488.03-Feb-2020 4013.21 3135.31 64.39 3.00  42.01 3023.05
   03:47:09.688.03-Feb-2020 4013.21 3135.31 64.39 3.00  42.21 3023.05
   03:47:09.888.03-Feb-2020 4013.21 3135.38 64.39 3.00  42.41 3023.05
   03:47:10.088.03-Feb-2020 4013.21 3135.39 64.39 3.00  42.61 3023.05
   03:47:10.289.03-Feb-2020 4013.21 3135.55 64.39 3.00  42.81 3023.05
   03:47:10.489.03-Feb-2020 4013.21 3135.56 64.39 3.00  43.01 3023.05
   03:47:10.689.03-Feb-2020 4013.21 3135.56 64.39 3.00  43.21 3023.05
   03:47:10.889.03-Feb-2020 4013.21 3135.55 64.38 3.00  43.41 3023.05
   03:47:11.089.03-Feb-2020 4013.21 3135.61 64.38 3.00  43.61 3023.05
   03:47:11.289.03-Feb-2020 4013.21 3135.29 64.38 3.00  43.81 3023.05
   03:47:11.489.03-Feb-2020 4013.21 3135.64 64.38 3.00  44.01 3023.05
   03:47:11.689.03-Feb-2020 4013.21 3135.64 64.38 3.00  44.21 3023.05
   03:47:11.889.03-Feb-2020 4013.21 3135.73 64.38 3.00  44.41 3023.05
   03:47:12.089.03-Feb-2020 4013.21 3135.78 64.38 3.00  44.61 3023.05
   03:47:12.289.03-Feb-2020 4013.21 3135.79 64.38 3.00  44.81 3023.05
   03:47:12.489.03-Feb-2020 4013.21 3135.75 64.38 3.00  45.01 3023.05
   03:47:12.689.03-Feb-2020 4013.21 3135.75 64.38 3.00  45.21 3023.05
   03:47:12.889.03-Feb-2020 4013.21 3135.77 64.38 3.00  45.41 3023.05
   03:47:13.089.03-Feb-2020 4013.21 3135.73 64.38 3.00  45.61 3023.05
   03:47:13.289.03-Feb-2020 4013.21 3135.73 64.38 3.00  45.81 3023.05
