~Version Information
 VERS.                  2.0:   CWLS log ASCII Standard -VERSION 2.0
 WRAP.                   NO:   One line per depth step
~Well Information Block
#MNEM.UNIT     VALUE/NAME     DESCRIPTION
#---------     -----------    ---------------------------
 STRT.S             08:07:30 03-Feb-20: START TIME 08:07:30 03-Feb-20
 STOP.S             08:15:16 03-Feb-20: STOP TIME  08:15:16 03-Feb-20
 STEP.S                   0.00: STEP TIME
 NULL.                 -999.25: NULL VALUE
 DFWT.                        :  DIST FWL TEXT
 DFST.                        :  DIST FSL TEXT
 DMF .             Drill Floor:  DRILL MEAS FROM
 STIM.      09.30.00 26-Dec-19:  START TIME
 DATE.      08.00.00 20-Jan-20:  END TIME
 SPUD.               23-Nov-19:  SPUD DATE
 NREF.                    Grid:  NORTH REFERENCE
 HPTY.       Minimum Curvature:  HOLE POS TYPE
 DMOD.             Drill Model:  DRILL MOD DESC
 SVYD.                  Survey:  SURVEY DESC
 ILTD.               Lithology:  INTERP LTH DESC
 FTOP.          Formation Tops:  FORM TOPS DESC
 SON .        AZ-XX-0906192647:  JOB NUMBER
 WTYP.                Deviated:  WELL TYPE
 COMP.     BP Exploration (Caspian Sea) Ltd:  COMPANY
 BASE.              Azerbaijan:  LOGGING EQUIPMENT BASE LOCATION
 REGN.                 Eurasia:  REGION
 FLD .                     ACG:  FIELD NAME
 SRVC.              KCA Deutag:  CONTRACTOR
 MWDS.                    Baku:  MWD SHOP
 WELL.     A10 (Slot 20) - SCP:  WELL NAME
 JOBN.        AZ-XX-0906192647:  JOB TICKET NUMB
 RIG .                 Chirag1:  RIG NAME
 DCON.     Halliburton Sperry Drilling:  DIRECTNL CONTR
 UNIT.                     N/A:  LOGGING EQUIPMENT ID
 PDAT.          Mean Sea Level:  PERMANENT DATUM
 MDS .        Operator Entered:  MAG DATA SOURCE
 CTRY.              Azerbaijan:  COUNTRY NAME
 UWI .            /AZE00000090:  UNIQUE WELL IDENTIFIER
 API .            /AZE00000090:  API NUMBER
 CNTY.                        :  COUNTY
 PROV.                        :  PROVINCE
 STAT.                        :  STATE
 LOC .                        :  LOCATION
 LMF .             Drill Floor:  LOG MEASURED FROM
 TVDS.m                  36.60:  TVDSS CORRECTN
 LATI.deg                40.08:  LATITUDE
 LONG.deg                51.24:  LONGITUDE
 WHNS.m                  -7.94:  WELL HEAD N/S
 WHEW.m                   1.56:  WELL HEAD E/W
 UTMX.m              520429.26:  UTM X
 UTMY.m             4438973.87:  UTM Y
 DFWL.m                   0.00:  DISTANCE FWL
 DFSL.m                   0.00:  DISTANCE FSL
 SDEP.m                1455.00:  START DEPTH
 TDD .m                4047.51:  TOTAL DEPTH (DRILLER)
 VSDR.deg               112.75:  VERT SEC DIRECT
 GVFD.g                   1.00:  GRAVITY FIELD
 MFLD.nT              50261.00:  MAGNETIC FIELD
 MDIP.deg                59.52:  MAGNETIC DIP
 MDEC.deg                 6.42:  MAGNETIC DECL
 GRDC.deg                 0.17:  GRID CORRECTION
 AZTC.deg                 6.25:  AZM TOTAL CORR
 EPD .m                   0.00:  ELEVATION
 EGL .m                   0.00:  GROUND ELEVATION
 WDMS.m                 121.00:  WD ELEV
 APD .m                  36.60:  DEPTH ABOVE PD
 AGAP.m                  36.60:  AIR GAP
 VSEW.m                   1.56:  VERT SEC E/W
 VSNS.m                  -7.94:  VERT SEC N/S
 DEP .m                1140.01:  DEPTH
 EKB .m                  36.60:  KB ELEVATION
 EDF .m                  36.60:  DF ELEVATION
 VSC .                       0:  VS TO CLOSURE
 MAGU.                 1849206:  MAGUTM CHECKSUM
~Parameter Information Block
#MNEM.UNIT       Value        Description
#---------     -----------    ---------------------------
 AV  .mps                 1.70:  Ann Velocity 
 AVMX.mps                 2.30:  Max Ann Veloc 
 AZIF.deg               137.03:  Azm, Final 
 BHAT.                   Other:  BHA Type 
 BROT.ฐ/30m               0.80:  Build Rotating 
 BS  .in                  8.00:  Bit Size 
 BTPL.psig              161.00:  Bit Press Loss 
 CABU.                      No:  Customer Abuse 
 COMM.                     ิงZ:  Run Comments 1 
 TCS .hr                  9.59:  Time Ciculation Ended 
 CV  .mps                 3.76:  Crit Velocity 
 CVMX.mps                 4.26:  Max Crit Veloc 
 DD1 .         Intigam Rahimov:  Direct Drillr 1 
 DD2 .          Rashad Gojayev:  Direct Drillr 2 
 DDSV.                   Other:  DD Service 
 DEFF.%                 100.00:  % Det Eff 
 DLRX.ฐ/30m               1.44:  Dogleg Rot Max 
 DLSO.ฐ/30m               0.00:  Dogleg Oriented 
 DLSX.ฐ/30m               0.00:  Dogleg Str Max 
 DRET.      03.31.12 02-Feb-20:  Drill End Time 
 DRST.      03.31.12 02-Feb-20:  Drill Start Tim 
 DTIM.hr                  1.99:  Time Drilling 
 EDEP.m                4047.51:  End Depth 
 ENG1.           Eldar Hajiyev:  Engineer 1 
 ENG2.          Rasim Hashimov:  Engineer 2 
 ENG3.          Rustam Safarov:  Engineer 3 
 ETIM.      03.31.12 02-Feb-20:  End Time 
 FLOI.gpm               300.00:  Flow In 
 FLON.gpm               250.00:  Flow In Min 
 FLOS.cptm                0.00:  Fluid Loss 
 FLOX.gpm               330.00:  Flow In Max 
 HFLO.                      No:  High Flow 
 HPRE.                      No:  High Pressure 
 HTEM.                      No:  High Temp 
 HYDO.m                   2.50:  Hydro Offset 
 IFIN.deg                39.54:  Inc, Final 
 IMAX.deg                41.14:  Inc Max 
 IMIN.deg                39.81:  Inc Min 
 IMND.m                4005.21:  Inc Min Depth 
 IMXD.m                3948.42:  Inc Max Depth 
 JARR.                      No:  Jarring 
 LETM.      03.31.12 02-Feb-20:  Log End Time 
 LOST.hr                     0:  Lost Rig Time 
 LSTM.      03.31.12 02-Feb-20:  Log Start Time 
 MDCL.ppm             35000.00:  Mud Chlorides 
 MDES.     Inversion Oil/Synthetic:  Mud Desc 
 DFD .sg                  1.32:  Mud Density 
 MDMN.sg                  1.32:  Dens Mud Min 
 MDMX.sg                  1.32:  Dens Mud Max 
 MOIL.                      59:  Run Mud Oil % 
 MOWR.                   71:29:  Run Mud OWR 
 MSND.                       0:  Run Mud Sand % 
 MSOL.                      17:  Run Mud Solids% 
 DFV .spqt               86.00:  Mud Viscosity 
 MWOD.in                  4.75:  MWD Tool OD 
 MWSI.                      No:  Serv Intrp, MWD 
 OTIM.hr                 46.72:  Time Operating 
 PCON.           Look Like New:  Pad Condition 
 PMAX.psia             3300.00:  Press Op, Max 
 PV  .cP                 30.00:  Mud PV 
 RUN .                     400:  Run Number 
 ROPA.m/hr               35.00:  ROP Avg 
 ROPN.m/hr               25.00:  ROP Min 
 ROPX.m/hr               40.00:  ROP Max 
 RPMA.rpm                80.00:  RPM Surface Avg 
 RPMN.rpm                60.00:  RPM Surface Min 
 RPMX.rpm               100.00:  RPM Surface Max 
 RRUN.                     400:  Rig Run Number 
 RTIM.hr                  1.99:  Time Reaming 
 SAZI.deg               133.93:  Azm, Start 
 SDEP.m                4047.51:  Start Depth 
 SIDD.                      No:  Serv Intrp, DD 
 SINC.deg                40.28:  Inc, Start 
 SPPA.psig             3250.00:  SPP Avg 
 SPPN.psig             3200.00:  SPP Min 
 SPPX.psig             3300.00:  SPP Max 
 STIM.      03.31.12 02-Feb-20:  Start Time 
 SVCS.                 DD, MWD:  Services 
 SVER.                    9.20:  Sperry Version 
 TDAT.m                  47.00:  Tot Depth Attmp 
 TDDF.                      No:  Trip for DD 
 TFF .                      No:  Trip for Fail 
 TQAA.f-kp                0.00:  Torque Abs Avg 
 TQAN.f-kp                0.00:  Torque Abs Min 
 TQAX.f-kp                0.00:  Torque Abs Max 
 TRRT.ฐ/30m               0.70:  Turn Rotating 
 MRT .                    HCIM:  Maximum Recorded Temperature 
 TTMX.degC               70.59:  Max Tool Temp 
 VS01.             90598770F11:  Virtual Str1 SN 
 VS02.             90598769F11:  Virtual Str2 SN 
 VS03.            90515978Z1W1:  Virtual Str3 SN 
 VS04.          90584144R12X14:  Virtual Str4 SN 
 WBMN.klb                 0.00:  WOB Min 
 WITN.            Peter Wilson:  Customer Rep 
 WOBA.klb                 0.00:  WOB Avg 
 WOBX.klb                 0.00:  WOB Max 
 YP  .lhf2               29.00:  Yield Point 
~Curve Information Block
#MNEM.UNIT                 API CODE     Curve Description
#---------               -----------    ---------------------------
 TIME.HHMMSS            00 000 000 000:  GT Time & Date
 GTDEPTH.m              00 000 000 000:  GT Depth
 GTPQH.psia             00 000 000 000:  GT HR Quartz Pressure
 GTTQ.degC              00 000 000 000:  GT Quartz Temperature
 GTTN.NONE              00 000 000 000:  GT Test Number
 GTET.sec               00 000 000 000:  GT Elapsed Test Time
 GTTVD.m                00 000 000 000:  GT True Vertical Depth
#Other Information
#
#WARRANTY: Halliburton will use its best efforts to furnish customers with 
#accurate information and interpretations that are part of, and incident to, the services 
#provided.  However, Halliburton cannot and does not warrant the accuracy 
#or correctness of such information and interpretations.  Under no circumstances should any 
#such information or interpretation be relied upon as the sole basis for any drilling, 
#completion, production, or financial decision or any procedure involving any risk to the 
#safety of any drilling venture, drilling rig or its crew or any other third party.  The 
#Customer has full responsibility for all drilling, completion and production operation.  
#Halliburton makes no representations or warranties, either expressed or 
#implied, including, but not limited to, the implied warranties of merchantability or fitness 
#for a particular purpose, with respect to the services rendered.  In no event will 
#Halliburton be liable for failure to obtain any particular results or for 
#any damages, including, but not limited to, indirect, special or consequential damages, 
#resulting from the use of any information or interpretation provided by Halliburton.
#
~A           TIME           GTDEPTH  GTPQH  GTTQ  GTTN   GTET   GTTVD  
# ...
   08:15:02.052.03-Feb-2020 4023.01 6093.71 65.58 10.00 452.01 3030.56
   08:15:02.252.03-Feb-2020 4023.01 6093.71 65.58 10.00 452.21 3030.56
   08:15:02.452.03-Feb-2020 4023.01 6098.78 65.58 10.00 452.41 3030.56
   08:15:02.652.03-Feb-2020 4023.01 6101.01 65.58 10.00 452.61 3030.56
   08:15:02.852.03-Feb-2020 4023.01 6098.16 65.58 10.00 452.81 3030.56
   08:15:03.052.03-Feb-2020 4023.01 6093.54 65.58 10.00 453.01 3030.56
   08:15:03.252.03-Feb-2020 4023.01 6093.54 65.58 10.00 453.21 3030.56
   08:15:03.452.03-Feb-2020 4023.01 6101.40 65.58 10.00 453.41 3030.56
   08:15:03.652.03-Feb-2020 4023.01 6100.29 65.58 10.00 453.61 3030.56
   08:15:03.852.03-Feb-2020 4023.01 6100.59 65.58 10.00 453.81 3030.56
   08:15:04.052.03-Feb-2020 4023.01 6087.29 65.58 10.00 454.01 3030.56
   08:15:04.252.03-Feb-2020 4023.01 6087.29 65.58 10.00 454.21 3030.56
   08:15:04.452.03-Feb-2020 4023.01 6091.79 65.58 10.00 454.41 3030.56
   08:15:04.652.03-Feb-2020 4023.01 6101.21 65.58 10.00 454.61 3030.56
   08:15:04.852.03-Feb-2020 4023.01 6099.79 65.58 10.00 454.81 3030.56
   08:15:05.052.03-Feb-2020 4023.01 6100.26 65.58 10.00 455.01 3030.56
   08:15:05.252.03-Feb-2020 4023.01 6100.26 65.58 10.00 455.21 3030.56
   08:15:05.452.03-Feb-2020 4023.01 6099.22 65.58 10.00 455.41 3030.56
   08:15:05.652.03-Feb-2020 4023.01 6098.74 65.58 10.00 455.61 3030.56
   08:15:05.852.03-Feb-2020 4023.01 6099.77 65.58 10.00 455.81 3030.56
   08:15:06.052.03-Feb-2020 4023.01 6101.57 65.58 10.00 456.01 3030.56
   08:15:06.252.03-Feb-2020 4023.01 6101.57 65.58 10.00 456.21 3030.56
   08:15:06.452.03-Feb-2020 4023.01 6101.00 65.58 10.00 456.41 3030.56
   08:15:06.652.03-Feb-2020 4023.01 6099.76 65.58 10.00 456.61 3030.56
   08:15:06.852.03-Feb-2020 4023.01 6099.15 65.58 10.00 456.81 3030.56
   08:15:07.052.03-Feb-2020 4023.01 6100.61 65.58 10.00 457.01 3030.56
   08:15:07.252.03-Feb-2020 4023.01 6100.61 65.58 10.00 457.21 3030.56
   08:15:07.452.03-Feb-2020 4023.01 6101.01 65.58 10.00 457.41 3030.56
   08:15:07.652.03-Feb-2020 4023.01 6093.33 65.58 10.00 457.61 3030.56
   08:15:07.852.03-Feb-2020 4023.01 6098.69 65.58 10.00 457.81 3030.56
   08:15:08.052.03-Feb-2020 4023.01 6097.64 65.58 10.00 458.01 3030.56
   08:15:08.252.03-Feb-2020 4023.01 6097.64 65.58 10.00 458.21 3030.56
   08:15:08.452.03-Feb-2020 4023.01 6098.10 65.58 10.00 458.41 3030.56
   08:15:08.652.03-Feb-2020 4023.01 6099.76 65.58 10.00 458.61 3030.56
   08:15:08.852.03-Feb-2020 4023.01 6100.18 65.58 10.00 458.81 3030.56
   08:15:09.052.03-Feb-2020 4023.01 6100.40 65.58 10.00 459.01 3030.56
   08:15:09.252.03-Feb-2020 4023.01 6100.40 65.58 10.00 459.21 3030.56
   08:15:09.452.03-Feb-2020 4023.01 6099.69 65.58 10.00 459.41 3030.56
   08:15:09.652.03-Feb-2020 4023.01 6099.65 65.58 10.00 459.61 3030.56
   08:15:09.852.03-Feb-2020 4023.01 6099.74 65.58 10.00 459.81 3030.56
   08:15:10.052.03-Feb-2020 4023.01 6086.38 65.58 10.00 460.01 3030.56
   08:15:10.252.03-Feb-2020 4023.01 6086.38 65.58 10.00 460.21 3030.56
   08:15:10.452.03-Feb-2020 4023.01 6096.39 65.58 10.00 460.41 3030.56
   08:15:10.653.03-Feb-2020 4023.01 6101.14 65.58 10.00 460.61 3030.56
   08:15:10.853.03-Feb-2020 4023.01 6099.60 65.58 10.00 460.81 3030.56
   08:15:11.053.03-Feb-2020 4023.01 6101.25 65.58 10.00 461.01 3030.56
   08:15:11.253.03-Feb-2020 4023.01 6101.25 65.58 10.00 461.21 3030.56
   08:15:11.453.03-Feb-2020 4023.01 6102.49 65.58 10.00 461.41 3030.56
   08:15:11.653.03-Feb-2020 4023.01 6094.72 65.58 10.00 461.61 3030.56
   08:15:11.853.03-Feb-2020 4023.01 6100.26 65.58 10.00 461.81 3030.56
   08:15:12.053.03-Feb-2020 4023.01 6099.50 65.58 10.00 462.01 3030.56
   08:15:12.253.03-Feb-2020 4023.01 6099.50 65.58 10.00 462.21 3030.56
   08:15:12.453.03-Feb-2020 4023.01 6100.76 65.58 10.00 462.41 3030.56
   08:15:12.653.03-Feb-2020 4023.01 6092.74 65.58 10.00 462.61 3030.56
   08:15:12.853.03-Feb-2020 4023.01 6100.19 65.58 10.00 462.81 3030.56
   08:15:13.053.03-Feb-2020 4023.01 6095.34 65.58 10.00 463.01 3030.56
   08:15:13.253.03-Feb-2020 4023.01 6095.34 65.58 10.00 463.21 3030.56
   08:15:13.453.03-Feb-2020 4023.01 6099.44 65.58 10.00 463.41 3030.56
   08:15:13.653.03-Feb-2020 4023.01 6091.27 65.58 10.00 463.61 3030.56
   08:15:13.853.03-Feb-2020 4023.01 6100.88 65.58 10.00 463.81 3030.56
   08:15:14.053.03-Feb-2020 4023.01 6091.10 65.58 10.00 464.01 3030.56
   08:15:14.253.03-Feb-2020 4023.01 6091.10 65.58 10.00 464.21 3030.56
   08:15:14.453.03-Feb-2020 4023.01 6100.19 65.58 10.00 464.41 3030.56
   08:15:14.653.03-Feb-2020 4023.01 6099.95 65.58 10.00 464.61 3030.56
   08:15:14.853.03-Feb-2020 4023.01 6099.38 65.58 10.00 464.81 3030.56
   08:15:15.053.03-Feb-2020 4023.01 6099.63 65.58 10.00 465.01 3030.56
   08:15:15.253.03-Feb-2020 4023.01 6099.63 65.58 10.00 465.21 3030.56
   08:15:15.453.03-Feb-2020 4023.01 6097.88 65.58 10.00 465.41 3030.56
   08:15:15.653.03-Feb-2020 4023.01 6100.70 65.58 10.00 465.61 3030.56
   08:15:15.853.03-Feb-2020 4023.01 6101.24 65.58 10.00 465.81 3030.56
   08:15:16.053.03-Feb-2020 4023.01 6100.92 65.58 10.00 466.01 3030.56
   08:15:16.253.03-Feb-2020 4023.01 6100.92 65.58 10.00 466.21 3030.56
   08:15:16.453.03-Feb-2020 4023.01 6098.30 65.58 10.00 466.41 3030.56
   08:15:16.653.03-Feb-2020 4023.01 6100.76 65.58 10.00 466.61 3030.56
   08:15:16.853.03-Feb-2020 4023.01 6098.35 65.58 10.00 466.81 3030.56
