~Version Information
 VERS.                  2.0:   CWLS log ASCII Standard -VERSION 2.0
 WRAP.                   NO:   One line per depth step
~Well Information Block
#MNEM.UNIT     VALUE/NAME     DESCRIPTION
#---------     -----------    ---------------------------
 STRT.S             05:45:18 03-Feb-20: START TIME 05:45:18 03-Feb-20
 STOP.S             05:53:13 03-Feb-20: STOP TIME  05:53:13 03-Feb-20
 STEP.S                   0.00: STEP TIME
 NULL.                 -999.25: NULL VALUE
 DFWT.                        :  DIST FWL TEXT
 DFST.                        :  DIST FSL TEXT
 DMF .             Drill Floor:  DRILL MEAS FROM
 STIM.      09.30.00 26-Dec-19:  START TIME
 DATE.      08.00.00 20-Jan-20:  END TIME
 SPUD.               23-Nov-19:  SPUD DATE
 NREF.                    Grid:  NORTH REFERENCE
 HPTY.       Minimum Curvature:  HOLE POS TYPE
 DMOD.             Drill Model:  DRILL MOD DESC
 SVYD.                  Survey:  SURVEY DESC
 ILTD.               Lithology:  INTERP LTH DESC
 FTOP.          Formation Tops:  FORM TOPS DESC
 SON .        AZ-XX-0906192647:  JOB NUMBER
 WTYP.                Deviated:  WELL TYPE
 COMP.     BP Exploration (Caspian Sea) Ltd:  COMPANY
 BASE.              Azerbaijan:  LOGGING EQUIPMENT BASE LOCATION
 REGN.                 Eurasia:  REGION
 FLD .                     ACG:  FIELD NAME
 SRVC.              KCA Deutag:  CONTRACTOR
 MWDS.                    Baku:  MWD SHOP
 WELL.     A10 (Slot 20) - SCP:  WELL NAME
 JOBN.        AZ-XX-0906192647:  JOB TICKET NUMB
 RIG .                 Chirag1:  RIG NAME
 DCON.     Halliburton Sperry Drilling:  DIRECTNL CONTR
 UNIT.                     N/A:  LOGGING EQUIPMENT ID
 PDAT.          Mean Sea Level:  PERMANENT DATUM
 MDS .        Operator Entered:  MAG DATA SOURCE
 CTRY.              Azerbaijan:  COUNTRY NAME
 UWI .            /AZE00000090:  UNIQUE WELL IDENTIFIER
 API .            /AZE00000090:  API NUMBER
 CNTY.                        :  COUNTY
 PROV.                        :  PROVINCE
 STAT.                        :  STATE
 LOC .                        :  LOCATION
 LMF .             Drill Floor:  LOG MEASURED FROM
 TVDS.m                  36.60:  TVDSS CORRECTN
 LATI.deg                40.08:  LATITUDE
 LONG.deg                51.24:  LONGITUDE
 WHNS.m                  -7.94:  WELL HEAD N/S
 WHEW.m                   1.56:  WELL HEAD E/W
 UTMX.m              520429.26:  UTM X
 UTMY.m             4438973.87:  UTM Y
 DFWL.m                   0.00:  DISTANCE FWL
 DFSL.m                   0.00:  DISTANCE FSL
 SDEP.m                1455.00:  START DEPTH
 TDD .m                4047.51:  TOTAL DEPTH (DRILLER)
 VSDR.deg               112.75:  VERT SEC DIRECT
 GVFD.g                   1.00:  GRAVITY FIELD
 MFLD.nT              50261.00:  MAGNETIC FIELD
 MDIP.deg                59.52:  MAGNETIC DIP
 MDEC.deg                 6.42:  MAGNETIC DECL
 GRDC.deg                 0.17:  GRID CORRECTION
 AZTC.deg                 6.25:  AZM TOTAL CORR
 EPD .m                   0.00:  ELEVATION
 EGL .m                   0.00:  GROUND ELEVATION
 WDMS.m                 121.00:  WD ELEV
 APD .m                  36.60:  DEPTH ABOVE PD
 AGAP.m                  36.60:  AIR GAP
 VSEW.m                   1.56:  VERT SEC E/W
 VSNS.m                  -7.94:  VERT SEC N/S
 DEP .m                1140.01:  DEPTH
 EKB .m                  36.60:  KB ELEVATION
 EDF .m                  36.60:  DF ELEVATION
 VSC .                       0:  VS TO CLOSURE
 MAGU.                 1849206:  MAGUTM CHECKSUM
~Parameter Information Block
#MNEM.UNIT       Value        Description
#---------     -----------    ---------------------------
 AV  .mps                 1.70:  Ann Velocity 
 AVMX.mps                 2.30:  Max Ann Veloc 
 AZIF.deg               137.03:  Azm, Final 
 BHAT.                   Other:  BHA Type 
 BROT.°/30m               0.80:  Build Rotating 
 BS  .in                  8.00:  Bit Size 
 BTPL.psig              161.00:  Bit Press Loss 
 CABU.                      No:  Customer Abuse 
 TCS .hr                  9.59:  Time Ciculation Ended 
 CV  .mps                 3.76:  Crit Velocity 
 CVMX.mps                 4.26:  Max Crit Veloc 
 DD1 .         Intigam Rahimov:  Direct Drillr 1 
 DD2 .          Rashad Gojayev:  Direct Drillr 2 
 DDSV.                   Other:  DD Service 
 DEFF.%                 100.00:  % Det Eff 
 DLRX.°/30m               1.44:  Dogleg Rot Max 
 DLSO.°/30m               0.00:  Dogleg Oriented 
 DLSX.°/30m               0.00:  Dogleg Str Max 
 DRET.      03.31.12 02-Feb-20:  Drill End Time 
 DRST.      03.31.12 02-Feb-20:  Drill Start Tim 
 DTIM.hr                  1.99:  Time Drilling 
 EDEP.m                4047.51:  End Depth 
 ENG1.           Eldar Hajiyev:  Engineer 1 
 ENG2.          Rasim Hashimov:  Engineer 2 
 ENG3.          Rustam Safarov:  Engineer 3 
 ETIM.      03.31.12 02-Feb-20:  End Time 
 FLOI.gpm               300.00:  Flow In 
 FLON.gpm               250.00:  Flow In Min 
 FLOS.cptm                0.00:  Fluid Loss 
 FLOX.gpm               330.00:  Flow In Max 
 HFLO.                      No:  High Flow 
 HPRE.                      No:  High Pressure 
 HTEM.                      No:  High Temp 
 HYDO.m                   2.50:  Hydro Offset 
 IFIN.deg                39.54:  Inc, Final 
 IMAX.deg                41.14:  Inc Max 
 IMIN.deg                39.81:  Inc Min 
 IMND.m                4005.21:  Inc Min Depth 
 IMXD.m                3948.42:  Inc Max Depth 
 JARR.                      No:  Jarring 
 LETM.      03.31.12 02-Feb-20:  Log End Time 
 LOST.hr                     0:  Lost Rig Time 
 LSTM.      03.31.12 02-Feb-20:  Log Start Time 
 MDCL.ppm             35000.00:  Mud Chlorides 
 MDES.     Inversion Oil/Synthetic:  Mud Desc 
 DFD .sg                  1.32:  Mud Density 
 MDMN.sg                  1.32:  Dens Mud Min 
 MDMX.sg                  1.32:  Dens Mud Max 
 MOIL.                      59:  Run Mud Oil % 
 MOWR.                   71:29:  Run Mud OWR 
 MSND.                       0:  Run Mud Sand % 
 MSOL.                      17:  Run Mud Solids% 
 DFV .spqt               86.00:  Mud Viscosity 
 MWOD.in                  4.75:  MWD Tool OD 
 MWSI.                      No:  Serv Intrp, MWD 
 OTIM.hr                 46.72:  Time Operating 
 PCON.           Look Like New:  Pad Condition 
 PMAX.psia             3300.00:  Press Op, Max 
 PV  .cP                 30.00:  Mud PV 
 RUN .                     400:  Run Number 
 ROPA.m/hr               35.00:  ROP Avg 
 ROPN.m/hr               25.00:  ROP Min 
 ROPX.m/hr               40.00:  ROP Max 
 RPMA.rpm                80.00:  RPM Surface Avg 
 RPMN.rpm                60.00:  RPM Surface Min 
 RPMX.rpm               100.00:  RPM Surface Max 
 RRUN.                     400:  Rig Run Number 
 RTIM.hr                  1.99:  Time Reaming 
 SAZI.deg               133.93:  Azm, Start 
 SDEP.m                4047.51:  Start Depth 
 SIDD.                      No:  Serv Intrp, DD 
 SINC.deg                40.28:  Inc, Start 
 SPPA.psig             3250.00:  SPP Avg 
 SPPN.psig             3200.00:  SPP Min 
 SPPX.psig             3300.00:  SPP Max 
 STIM.      03.31.12 02-Feb-20:  Start Time 
 SVCS.                 DD, MWD:  Services 
 SVER.                    9.20:  Sperry Version 
 TDAT.m                  47.00:  Tot Depth Attmp 
 TDDF.                      No:  Trip for DD 
 TFF .                      No:  Trip for Fail 
 TQAA.f-kp                0.00:  Torque Abs Avg 
 TQAN.f-kp                0.00:  Torque Abs Min 
 TQAX.f-kp                0.00:  Torque Abs Max 
 TRRT.°/30m               0.70:  Turn Rotating 
 MRT .                    HCIM:  Maximum Recorded Temperature 
 TTMX.degC               70.59:  Max Tool Temp 
 VS01.             90598770F11:  Virtual Str1 SN 
 VS02.             90598769F11:  Virtual Str2 SN 
 VS03.            90515978Z1W1:  Virtual Str3 SN 
 VS04.          90584144R12X14:  Virtual Str4 SN 
 WBMN.klb                 0.00:  WOB Min 
 WITN.            Peter Wilson:  Customer Rep 
 WOBA.klb                 0.00:  WOB Avg 
 WOBX.klb                 0.00:  WOB Max 
 YP  .lhf2               29.00:  Yield Point 
~Curve Information Block
#MNEM.UNIT                 API CODE     Curve Description
#---------               -----------    ---------------------------
 TIME.HHMMSS            00 000 000 000:  GT Time & Date
 GTDEPTH.m              00 000 000 000:  GT Depth
 GTPQH.psia             00 000 000 000:  GT HR Quartz Pressure
 GTTQ.degC              00 000 000 000:  GT Quartz Temperature
 GTTN.NONE              00 000 000 000:  GT Test Number
 GTET.sec               00 000 000 000:  GT Elapsed Test Time
 GTTVD.m                00 000 000 000:  GT True Vertical Depth
#Other Information
#
#WARRANTY: Halliburton will use its best efforts to furnish customers with 
#accurate information and interpretations that are part of, and incident to, the services 
#provided.  However, Halliburton cannot and does not warrant the accuracy 
#or correctness of such information and interpretations.  Under no circumstances should any 
#such information or interpretation be relied upon as the sole basis for any drilling, 
#completion, production, or financial decision or any procedure involving any risk to the 
#safety of any drilling venture, drilling rig or its crew or any other third party.  The 
#Customer has full responsibility for all drilling, completion and production operation.  
#Halliburton makes no representations or warranties, either expressed or 
#implied, including, but not limited to, the implied warranties of merchantability or fitness 
#for a particular purpose, with respect to the services rendered.  In no event will 
#Halliburton be liable for failure to obtain any particular results or for 
#any damages, including, but not limited to, indirect, special or consequential damages, 
#resulting from the use of any information or interpretation provided by Halliburton.
#
~A           TIME           GTDEPTH  GTPQH  GTTQ  GTTN  GTET   GTTVD  
# ...
   05:52:35.000.03-Feb-2020 4005.21 6044.69 63.89 6.00 437.00 3016.91
   05:52:35.200.03-Feb-2020 4005.21 6044.69 63.89 6.00 437.20 3016.91
   05:52:35.400.03-Feb-2020 4005.21 6050.48 63.89 6.00 437.40 3016.91
   05:52:35.600.03-Feb-2020 4005.21 6050.95 63.89 6.00 437.60 3016.91
   05:52:35.800.03-Feb-2020 4005.21 6050.38 63.89 6.00 437.80 3016.91
   05:52:36.000.03-Feb-2020 4005.21 6049.36 63.89 6.00 438.00 3016.91
   05:52:36.200.03-Feb-2020 4005.21 6049.36 63.89 6.00 438.20 3016.91
   05:52:36.400.03-Feb-2020 4005.21 6052.25 63.89 6.00 438.40 3016.91
   05:52:36.600.03-Feb-2020 4005.21 6052.10 63.89 6.00 438.60 3016.91
   05:52:36.800.03-Feb-2020 4005.21 6052.32 63.89 6.00 438.80 3016.91
   05:52:37.000.03-Feb-2020 4005.21 6052.02 63.89 6.00 439.00 3016.91
   05:52:37.200.03-Feb-2020 4005.21 6052.02 63.89 6.00 439.20 3016.91
   05:52:37.400.03-Feb-2020 4005.21 6050.20 63.89 6.00 439.40 3016.91
   05:52:37.600.03-Feb-2020 4005.21 6052.49 63.89 6.00 439.60 3016.91
   05:52:37.800.03-Feb-2020 4005.21 6044.42 63.89 6.00 439.80 3016.91
   05:52:38.000.03-Feb-2020 4005.21 6049.61 63.89 6.00 440.00 3016.91
   05:52:38.200.03-Feb-2020 4005.21 6049.61 63.89 6.00 440.20 3016.91
   05:52:38.400.03-Feb-2020 4005.21 6050.01 63.89 6.00 440.40 3016.91
   05:52:38.600.03-Feb-2020 4005.21 6049.08 63.89 6.00 440.60 3016.91
   05:52:38.800.03-Feb-2020 4005.21 6049.97 63.89 6.00 440.80 3016.91
   05:52:39.000.03-Feb-2020 4005.21 6049.48 63.89 6.00 441.00 3016.91
   05:52:39.200.03-Feb-2020 4005.21 6049.48 63.89 6.00 441.20 3016.91
   05:52:39.400.03-Feb-2020 4005.21 6050.82 63.89 6.00 441.40 3016.91
   05:52:39.600.03-Feb-2020 4005.21 6051.01 63.89 6.00 441.60 3016.91
   05:52:39.800.03-Feb-2020 4005.21 6051.03 63.89 6.00 441.80 3016.91
   05:52:40.000.03-Feb-2020 4005.21 6050.03 63.89 6.00 442.00 3016.91
   05:52:40.200.03-Feb-2020 4005.21 6050.03 63.89 6.00 442.20 3016.91
   05:52:40.400.03-Feb-2020 4005.21 6050.59 63.89 6.00 442.40 3016.91
   05:52:40.600.03-Feb-2020 4005.21 6039.59 63.89 6.00 442.60 3016.91
   05:52:40.800.03-Feb-2020 4005.21 6051.87 63.89 6.00 442.80 3016.91
   05:52:41.000.03-Feb-2020 4005.21 6012.83 63.89 6.00 443.00 3016.91
   05:52:41.200.03-Feb-2020 4005.21 6012.83 63.89 6.00 443.20 3016.91
   05:52:41.400.03-Feb-2020 4005.21 6050.17 63.89 6.00 443.40 3016.91
   05:52:41.600.03-Feb-2020 4005.21 6053.10 63.89 6.00 443.60 3016.91
   05:52:41.800.03-Feb-2020 4005.21 6052.75 63.88 6.00 443.80 3016.91
   05:52:42.000.03-Feb-2020 4005.21 6044.86 63.89 6.00 444.00 3016.91
   05:52:42.200.03-Feb-2020 4005.21 6044.86 63.89 6.00 444.20 3016.91
   05:52:42.400.03-Feb-2020 4005.21 6045.98 63.89 6.00 444.40 3016.91
   05:52:42.600.03-Feb-2020 4005.21 6050.11 63.88 6.00 444.60 3016.91
   05:52:42.800.03-Feb-2020 4005.21 6045.93 63.89 6.00 444.80 3016.91
   05:52:43.000.03-Feb-2020 4005.21 6044.83 63.88 6.00 445.00 3016.91
   05:52:43.200.03-Feb-2020 4005.21 6044.83 63.88 6.00 445.20 3016.91
   05:52:43.400.03-Feb-2020 4005.21 6048.96 63.88 6.00 445.40 3016.91
   05:52:43.600.03-Feb-2020 4005.21 6051.61 63.88 6.00 445.60 3016.91
   05:52:43.800.03-Feb-2020 4005.21 6052.38 63.88 6.00 445.80 3016.91
   05:52:44.000.03-Feb-2020 4005.21 6051.13 63.88 6.00 446.00 3016.91
   05:52:44.200.03-Feb-2020 4005.21 6051.13 63.88 6.00 446.20 3016.91
   05:52:44.400.03-Feb-2020 4005.21 6040.46 63.88 6.00 446.40 3016.91
   05:52:44.600.03-Feb-2020 4005.21 6048.85 63.88 6.00 446.60 3016.91
   05:52:44.800.03-Feb-2020 4005.21 6043.42 63.88 6.00 446.80 3016.91
   05:52:45.000.03-Feb-2020 4005.21 6050.23 63.88 6.00 447.00 3016.91
   05:52:45.200.03-Feb-2020 4005.21 6050.23 63.88 6.00 447.20 3016.91
   05:52:45.400.03-Feb-2020 4005.21 6049.18 63.88 6.00 447.40 3016.91
   05:52:45.600.03-Feb-2020 4005.21 6048.02 63.88 6.00 447.60 3016.91
   05:52:45.800.03-Feb-2020 4005.21 6049.41 63.88 6.00 447.80 3016.91
   05:52:46.000.03-Feb-2020 4005.21 6050.87 63.88 6.00 448.00 3016.91
   05:52:46.200.03-Feb-2020 4005.21 6050.87 63.88 6.00 448.20 3016.91
   05:52:46.400.03-Feb-2020 4005.21 6050.83 63.88 6.00 448.40 3016.91
   05:52:46.600.03-Feb-2020 4005.21 6050.57 63.88 6.00 448.60 3016.91
   05:52:46.800.03-Feb-2020 4005.21 6050.30 63.88 6.00 448.80 3016.91
   05:52:47.000.03-Feb-2020 4005.21 6049.31 63.88 6.00 449.00 3016.91
   05:52:47.200.03-Feb-2020 4005.21 6049.31 63.88 6.00 449.20 3016.91
   05:52:47.400.03-Feb-2020 4005.21 6050.54 63.88 6.00 449.40 3016.91
   05:52:47.600.03-Feb-2020 4005.21 6043.07 63.88 6.00 449.60 3016.91
   05:52:47.800.03-Feb-2020 4005.21 6048.36 63.88 6.00 449.80 3016.91
   05:52:48.000.03-Feb-2020 4005.21 6045.02 63.88 6.00 450.00 3016.91
   05:52:48.200.03-Feb-2020 4005.21 6045.02 63.88 6.00 450.20 3016.91
   05:52:48.400.03-Feb-2020 4005.21 6047.94 63.88 6.00 450.40 3016.91
   05:52:48.600.03-Feb-2020 4005.21 6049.43 63.88 6.00 450.60 3016.91
   05:52:48.800.03-Feb-2020 4005.21 6049.02 63.88 6.00 450.80 3016.91
   05:52:49.000.03-Feb-2020 4005.21 6050.30 63.88 6.00 451.00 3016.91
   05:52:49.200.03-Feb-2020 4005.21 6050.30 63.88 6.00 451.20 3016.91
   05:52:49.400.03-Feb-2020 4005.21 6050.57 63.88 6.00 451.40 3016.91
   05:52:49.600.03-Feb-2020 4005.21 6050.22 63.88 6.00 451.60 3016.91
   05:52:49.800.03-Feb-2020 4005.21 6049.85 63.88 6.00 451.80 3016.91
   05:52:50.000.03-Feb-2020 4005.21 6050.12 63.88 6.00 452.00 3016.91
   05:52:50.200.03-Feb-2020 4005.21 6050.12 63.88 6.00 452.20 3016.91
   05:52:50.400.03-Feb-2020 4005.21 6039.02 63.88 6.00 452.40 3016.91
   05:52:50.600.03-Feb-2020 4005.21 6050.84 63.88 6.00 452.60 3016.91
   05:52:50.800.03-Feb-2020 4005.21 6047.92 63.88 6.00 452.80 3016.91
   05:52:51.000.03-Feb-2020 4005.21 6050.94 63.88 6.00 453.00 3016.91
   05:52:51.200.03-Feb-2020 4005.21 6050.94 63.88 6.00 453.20 3016.91
   05:52:51.400.03-Feb-2020 4005.21 6052.55 63.88 6.00 453.40 3016.91
   05:52:51.600.03-Feb-2020 4005.21 6052.10 63.88 6.00 453.60 3016.91
   05:52:51.800.03-Feb-2020 4005.21 6041.30 63.88 6.00 453.80 3016.91
   05:52:52.000.03-Feb-2020 4005.21 6050.31 63.88 6.00 454.00 3016.91
   05:52:52.200.03-Feb-2020 4005.21 6050.31 63.88 6.00 454.20 3016.91
   05:52:52.400.03-Feb-2020 4005.21 6049.38 63.88 6.00 454.40 3016.91
   05:52:52.600.03-Feb-2020 4005.21 6041.33 63.88 6.00 454.60 3016.91
   05:52:52.800.03-Feb-2020 4005.21 6048.12 63.88 6.00 454.80 3016.91
   05:52:53.000.03-Feb-2020 4005.21 6045.25 63.88 6.00 455.00 3016.91
   05:52:53.200.03-Feb-2020 4005.21 6045.25 63.88 6.00 455.20 3016.91
   05:52:53.400.03-Feb-2020 4005.21 6050.86 63.88 6.00 455.40 3016.91
   05:52:53.600.03-Feb-2020 4005.21 6051.93 63.88 6.00 455.60 3016.91
   05:52:53.800.03-Feb-2020 4005.21 6049.99 63.88 6.00 455.80 3016.91
   05:52:54.000.03-Feb-2020 4005.21 6041.10 63.88 6.00 456.00 3016.91
   05:52:54.200.03-Feb-2020 4005.21 6041.10 63.88 6.00 456.20 3016.91
   05:52:54.400.03-Feb-2020 4005.21 6045.97 63.88 6.00 456.40 3016.91
   05:52:54.600.03-Feb-2020 4005.21 6047.34 63.88 6.00 456.60 3016.91
   05:52:54.800.03-Feb-2020 4005.21 6050.62 63.88 6.00 456.80 3016.91
   05:52:55.000.03-Feb-2020 4005.21 6050.36 63.88 6.00 457.00 3016.91
   05:52:55.200.03-Feb-2020 4005.21 6050.36 63.88 6.00 457.20 3016.91
   05:52:55.400.03-Feb-2020 4005.21 6048.65 63.88 6.00 457.40 3016.91
   05:52:55.600.03-Feb-2020 4005.21 6050.71 63.88 6.00 457.60 3016.91
   05:52:55.800.03-Feb-2020 4005.21 6051.21 63.88 6.00 457.80 3016.91
   05:52:56.000.03-Feb-2020 4005.21 6051.25 63.88 6.00 458.00 3016.91
   05:52:56.200.03-Feb-2020 4005.21 6051.25 63.88 6.00 458.20 3016.91
   05:52:56.400.03-Feb-2020 4005.21 6050.76 63.88 6.00 458.40 3016.91
   05:52:56.600.03-Feb-2020 4005.21 6049.68 63.88 6.00 458.60 3016.91
   05:52:56.800.03-Feb-2020 4005.21 6049.46 63.88 6.00 458.80 3016.91
   05:52:57.000.03-Feb-2020 4005.21 6051.30 63.88 6.00 459.00 3016.91
   05:52:57.200.03-Feb-2020 4005.21 6051.30 63.88 6.00 459.20 3016.91
   05:52:57.400.03-Feb-2020 4005.21 6049.35 63.88 6.00 459.40 3016.91
   05:52:57.600.03-Feb-2020 4005.21 6045.90 63.88 6.00 459.60 3016.91
   05:52:57.800.03-Feb-2020 4005.21 6049.16 63.88 6.00 459.80 3016.91
