~Version Information
 VERS.                  2.0:   CWLS log ASCII Standard -VERSION 2.0
 WRAP.                   NO:   One line per depth step
~Well Information Block
#MNEM.UNIT     VALUE/NAME     DESCRIPTION
#---------     -----------    ---------------------------
 STRT.S             03:46:27 03-Feb-20: START TIME 03:46:27 03-Feb-20
 STOP.S             03:54:17 03-Feb-20: STOP TIME  03:54:17 03-Feb-20
 STEP.S                   0.00: STEP TIME
 NULL.                 -999.25: NULL VALUE
 DFWT.                        :  DIST FWL TEXT
 DFST.                        :  DIST FSL TEXT
 DMF .             Drill Floor:  DRILL MEAS FROM
 STIM.      09.30.00 26-Dec-19:  START TIME
 DATE.      08.00.00 20-Jan-20:  END TIME
 SPUD.               23-Nov-19:  SPUD DATE
 NREF.                    Grid:  NORTH REFERENCE
 HPTY.       Minimum Curvature:  HOLE POS TYPE
 DMOD.             Drill Model:  DRILL MOD DESC
 SVYD.                  Survey:  SURVEY DESC
 ILTD.               Lithology:  INTERP LTH DESC
 FTOP.          Formation Tops:  FORM TOPS DESC
 SON .        AZ-XX-0906192647:  JOB NUMBER
 WTYP.                Deviated:  WELL TYPE
 COMP.     BP Exploration (Caspian Sea) Ltd:  COMPANY
 BASE.              Azerbaijan:  LOGGING EQUIPMENT BASE LOCATION
 REGN.                 Eurasia:  REGION
 FLD .                     ACG:  FIELD NAME
 SRVC.              KCA Deutag:  CONTRACTOR
 MWDS.                    Baku:  MWD SHOP
 WELL.     A10 (Slot 20) - SCP:  WELL NAME
 JOBN.        AZ-XX-0906192647:  JOB TICKET NUMB
 RIG .                 Chirag1:  RIG NAME
 DCON.     Halliburton Sperry Drilling:  DIRECTNL CONTR
 UNIT.                     N/A:  LOGGING EQUIPMENT ID
 PDAT.          Mean Sea Level:  PERMANENT DATUM
 MDS .        Operator Entered:  MAG DATA SOURCE
 CTRY.              Azerbaijan:  COUNTRY NAME
 UWI .            /AZE00000090:  UNIQUE WELL IDENTIFIER
 API .            /AZE00000090:  API NUMBER
 CNTY.                        :  COUNTY
 PROV.                        :  PROVINCE
 STAT.                        :  STATE
 LOC .                        :  LOCATION
 LMF .             Drill Floor:  LOG MEASURED FROM
 TVDS.m                  36.60:  TVDSS CORRECTN
 LATI.deg                40.08:  LATITUDE
 LONG.deg                51.24:  LONGITUDE
 WHNS.m                  -7.94:  WELL HEAD N/S
 WHEW.m                   1.56:  WELL HEAD E/W
 UTMX.m              520429.26:  UTM X
 UTMY.m             4438973.87:  UTM Y
 DFWL.m                   0.00:  DISTANCE FWL
 DFSL.m                   0.00:  DISTANCE FSL
 SDEP.m                1455.00:  START DEPTH
 TDD .m                4047.51:  TOTAL DEPTH (DRILLER)
 VSDR.deg               112.75:  VERT SEC DIRECT
 GVFD.g                   1.00:  GRAVITY FIELD
 MFLD.nT              50261.00:  MAGNETIC FIELD
 MDIP.deg                59.52:  MAGNETIC DIP
 MDEC.deg                 6.42:  MAGNETIC DECL
 GRDC.deg                 0.17:  GRID CORRECTION
 AZTC.deg                 6.25:  AZM TOTAL CORR
 EPD .m                   0.00:  ELEVATION
 EGL .m                   0.00:  GROUND ELEVATION
 WDMS.m                 121.00:  WD ELEV
 APD .m                  36.60:  DEPTH ABOVE PD
 AGAP.m                  36.60:  AIR GAP
 VSEW.m                   1.56:  VERT SEC E/W
 VSNS.m                  -7.94:  VERT SEC N/S
 DEP .m                1140.01:  DEPTH
 EKB .m                  36.60:  KB ELEVATION
 EDF .m                  36.60:  DF ELEVATION
 VSC .                       0:  VS TO CLOSURE
 MAGU.                 1849206:  MAGUTM CHECKSUM
~Parameter Information Block
#MNEM.UNIT       Value        Description
#---------     -----------    ---------------------------
 AV  .mps                 1.70:  Ann Velocity 
 AVMX.mps                 2.30:  Max Ann Veloc 
 AZIF.deg               137.03:  Azm, Final 
 BHAT.                   Other:  BHA Type 
 BROT.°/30m               0.80:  Build Rotating 
 BS  .in                  8.00:  Bit Size 
 BTPL.psig              161.00:  Bit Press Loss 
 CABU.                      No:  Customer Abuse 
 COMM.                     d£g:  Run Comments 1 
 TCS .hr                  9.59:  Time Ciculation Ended 
 CV  .mps                 3.76:  Crit Velocity 
 CVMX.mps                 4.26:  Max Crit Veloc 
 DD1 .         Intigam Rahimov:  Direct Drillr 1 
 DD2 .          Rashad Gojayev:  Direct Drillr 2 
 DDSV.                   Other:  DD Service 
 DEFF.%                 100.00:  % Det Eff 
 DLRX.°/30m               1.44:  Dogleg Rot Max 
 DLSO.°/30m               0.00:  Dogleg Oriented 
 DLSX.°/30m               0.00:  Dogleg Str Max 
 DRET.      03.31.12 02-Feb-20:  Drill End Time 
 DRST.      03.31.12 02-Feb-20:  Drill Start Tim 
 DTIM.hr                  1.99:  Time Drilling 
 EDEP.m                4047.51:  End Depth 
 ENG1.           Eldar Hajiyev:  Engineer 1 
 ENG2.          Rasim Hashimov:  Engineer 2 
 ENG3.          Rustam Safarov:  Engineer 3 
 ETIM.      03.31.12 02-Feb-20:  End Time 
 FLOI.gpm               300.00:  Flow In 
 FLON.gpm               250.00:  Flow In Min 
 FLOS.cptm                0.00:  Fluid Loss 
 FLOX.gpm               330.00:  Flow In Max 
 HFLO.                      No:  High Flow 
 HPRE.                      No:  High Pressure 
 HTEM.                      No:  High Temp 
 HYDO.m                   2.50:  Hydro Offset 
 IFIN.deg                39.54:  Inc, Final 
 IMAX.deg                41.14:  Inc Max 
 IMIN.deg                39.81:  Inc Min 
 IMND.m                4005.21:  Inc Min Depth 
 IMXD.m                3948.42:  Inc Max Depth 
 JARR.                      No:  Jarring 
 LETM.      03.31.12 02-Feb-20:  Log End Time 
 LOST.hr                     0:  Lost Rig Time 
 LSTM.      03.31.12 02-Feb-20:  Log Start Time 
 MDCL.ppm             35000.00:  Mud Chlorides 
 MDES.     Inversion Oil/Synthetic:  Mud Desc 
 DFD .sg                  1.32:  Mud Density 
 MDMN.sg                  1.32:  Dens Mud Min 
 MDMX.sg                  1.32:  Dens Mud Max 
 MOIL.                      59:  Run Mud Oil % 
 MOWR.                   71:29:  Run Mud OWR 
 MSND.                       0:  Run Mud Sand % 
 MSOL.                      17:  Run Mud Solids% 
 DFV .spqt               86.00:  Mud Viscosity 
 MWOD.in                  4.75:  MWD Tool OD 
 MWSI.                      No:  Serv Intrp, MWD 
 OTIM.hr                 46.72:  Time Operating 
 PCON.           Look Like New:  Pad Condition 
 PMAX.psia             3300.00:  Press Op, Max 
 PV  .cP                 30.00:  Mud PV 
 RUN .                     400:  Run Number 
 ROPA.m/hr               35.00:  ROP Avg 
 ROPN.m/hr               25.00:  ROP Min 
 ROPX.m/hr               40.00:  ROP Max 
 RPMA.rpm                80.00:  RPM Surface Avg 
 RPMN.rpm                60.00:  RPM Surface Min 
 RPMX.rpm               100.00:  RPM Surface Max 
 RRUN.                     400:  Rig Run Number 
 RTIM.hr                  1.99:  Time Reaming 
 SAZI.deg               133.93:  Azm, Start 
 SDEP.m                4047.51:  Start Depth 
 SIDD.                      No:  Serv Intrp, DD 
 SINC.deg                40.28:  Inc, Start 
 SPPA.psig             3250.00:  SPP Avg 
 SPPN.psig             3200.00:  SPP Min 
 SPPX.psig             3300.00:  SPP Max 
 STIM.      03.31.12 02-Feb-20:  Start Time 
 SVCS.                 DD, MWD:  Services 
 SVER.                    9.20:  Sperry Version 
 TDAT.m                  47.00:  Tot Depth Attmp 
 TDDF.                      No:  Trip for DD 
 TFF .                      No:  Trip for Fail 
 TQAA.f-kp                0.00:  Torque Abs Avg 
 TQAN.f-kp                0.00:  Torque Abs Min 
 TQAX.f-kp                0.00:  Torque Abs Max 
 TRRT.°/30m               0.70:  Turn Rotating 
 MRT .                    HCIM:  Maximum Recorded Temperature 
 TTMX.degC               70.59:  Max Tool Temp 
 VS01.             90598770F11:  Virtual Str1 SN 
 VS02.             90598769F11:  Virtual Str2 SN 
 VS03.            90515978Z1W1:  Virtual Str3 SN 
 VS04.          90584144R12X14:  Virtual Str4 SN 
 WBMN.klb                 0.00:  WOB Min 
 WITN.            Peter Wilson:  Customer Rep 
 WOBA.klb                 0.00:  WOB Avg 
 WOBX.klb                 0.00:  WOB Max 
 YP  .lhf2               29.00:  Yield Point 
~Curve Information Block
#MNEM.UNIT                 API CODE     Curve Description
#---------               -----------    ---------------------------
 TIME.HHMMSS            00 000 000 000:  GT Time & Date
 GTDEPTH.m              00 000 000 000:  GT Depth
 GTPQH.psia             00 000 000 000:  GT HR Quartz Pressure
 GTTQ.degC              00 000 000 000:  GT Quartz Temperature
 GTTN.NONE              00 000 000 000:  GT Test Number
 GTET.sec               00 000 000 000:  GT Elapsed Test Time
 GTTVD.m                00 000 000 000:  GT True Vertical Depth
#Other Information
#
#WARRANTY: Halliburton will use its best efforts to furnish customers with 
#accurate information and interpretations that are part of, and incident to, the services 
#provided.  However, Halliburton cannot and does not warrant the accuracy 
#or correctness of such information and interpretations.  Under no circumstances should any 
#such information or interpretation be relied upon as the sole basis for any drilling, 
#completion, production, or financial decision or any procedure involving any risk to the 
#safety of any drilling venture, drilling rig or its crew or any other third party.  The 
#Customer has full responsibility for all drilling, completion and production operation.  
#Halliburton makes no representations or warranties, either expressed or 
#implied, including, but not limited to, the implied warranties of merchantability or fitness 
#for a particular purpose, with respect to the services rendered.  In no event will 
#Halliburton be liable for failure to obtain any particular results or for 
#any damages, including, but not limited to, indirect, special or consequential damages, 
#resulting from the use of any information or interpretation provided by Halliburton.
#
~A           TIME           GTDEPTH  GTPQH  GTTQ  GTTN  GTET   GTTVD  
# ...
   03:49:54.523.03-Feb-2020 4013.21 3138.46 64.27 3.00 207.04 3023.05
   03:49:54.723.03-Feb-2020 4013.21 3138.46 64.27 3.00 207.24 3023.05
   03:49:54.923.03-Feb-2020 4013.21 3138.46 64.26 3.00 207.44 3023.05
   03:49:55.123.03-Feb-2020 4013.21 3138.29 64.27 3.00 207.64 3023.05
   03:49:55.323.03-Feb-2020 4013.21 3138.44 64.26 3.00 207.84 3023.05
   03:49:55.523.03-Feb-2020 4013.21 3138.50 64.26 3.00 208.04 3023.05
   03:49:55.723.03-Feb-2020 4013.21 3138.50 64.26 3.00 208.24 3023.05
   03:49:55.923.03-Feb-2020 4013.21 3138.25 64.26 3.00 208.44 3023.05
   03:49:56.123.03-Feb-2020 4013.21 3138.55 64.26 3.00 208.64 3023.05
   03:49:56.323.03-Feb-2020 4013.21 3138.61 64.26 3.00 208.84 3023.05
   03:49:56.523.03-Feb-2020 4013.21 3137.87 64.26 3.00 209.04 3023.05
   03:49:56.723.03-Feb-2020 4013.21 3137.87 64.26 3.00 209.24 3023.05
   03:49:56.923.03-Feb-2020 4013.21 3138.19 64.26 3.00 209.44 3023.05
   03:49:57.123.03-Feb-2020 4013.21 3138.42 64.26 3.00 209.64 3023.05
   03:49:57.324.03-Feb-2020 4013.21 3138.41 64.26 3.00 209.84 3023.05
   03:49:57.524.03-Feb-2020 4013.21 3138.51 64.26 3.00 210.04 3023.05
   03:49:57.724.03-Feb-2020 4013.21 3138.51 64.26 3.00 210.24 3023.05
   03:49:57.924.03-Feb-2020 4013.21 3138.43 64.26 3.00 210.44 3023.05
   03:49:58.124.03-Feb-2020 4013.21 3138.44 64.26 3.00 210.64 3023.05
   03:49:58.324.03-Feb-2020 4013.21 3138.45 64.26 3.00 210.84 3023.05
   03:49:58.524.03-Feb-2020 4013.21 3138.54 64.26 3.00 211.04 3023.05
   03:49:58.724.03-Feb-2020 4013.21 3138.54 64.26 3.00 211.24 3023.05
   03:49:58.924.03-Feb-2020 4013.21 3138.39 64.26 3.00 211.44 3023.05
   03:49:59.124.03-Feb-2020 4013.21 3137.95 64.26 3.00 211.64 3023.05
   03:49:59.324.03-Feb-2020 4013.21 3138.63 64.26 3.00 211.84 3023.05
   03:49:59.524.03-Feb-2020 4013.21 3138.55 64.26 3.00 212.04 3023.05
   03:49:59.724.03-Feb-2020 4013.21 3138.55 64.26 3.00 212.24 3023.05
   03:49:59.924.03-Feb-2020 4013.21 3137.71 64.26 3.00 212.44 3023.05
   03:50:00.124.03-Feb-2020 4013.21 3139.13 64.26 3.00 212.64 3023.05
   03:50:00.324.03-Feb-2020 4013.21 3138.18 64.26 3.00 212.84 3023.05
   03:50:00.524.03-Feb-2020 4013.21 3138.70 64.26 3.00 213.04 3023.05
   03:50:00.724.03-Feb-2020 4013.21 3138.70 64.26 3.00 213.24 3023.05
   03:50:00.924.03-Feb-2020 4013.21 3138.60 64.26 3.00 213.44 3023.05
   03:50:01.124.03-Feb-2020 4013.21 3137.78 64.26 3.00 213.64 3023.05
   03:50:01.324.03-Feb-2020 4013.21 3139.19 64.26 3.00 213.84 3023.05
   03:50:01.524.03-Feb-2020 4013.21 3138.22 64.26 3.00 214.04 3023.05
   03:50:01.724.03-Feb-2020 4013.21 3138.22 64.26 3.00 214.24 3023.05
   03:50:01.924.03-Feb-2020 4013.21 3138.60 64.26 3.00 214.44 3023.05
   03:50:02.125.03-Feb-2020 4013.21 3138.58 64.26 3.00 214.64 3023.05
   03:50:02.325.03-Feb-2020 4013.21 3138.06 64.26 3.00 214.84 3023.05
   03:50:02.525.03-Feb-2020 4013.21 3138.82 64.26 3.00 215.05 3023.05
   03:50:02.725.03-Feb-2020 4013.21 3138.82 64.26 3.00 215.25 3023.05
   03:50:02.925.03-Feb-2020 4013.21 3138.65 64.26 3.00 215.45 3023.05
   03:50:03.125.03-Feb-2020 4013.21 3138.62 64.26 3.00 215.65 3023.05
   03:50:03.325.03-Feb-2020 4013.21 3138.38 64.26 3.00 215.85 3023.05
   03:50:03.525.03-Feb-2020 4013.21 3138.51 64.26 3.00 216.05 3023.05
   03:50:03.725.03-Feb-2020 4013.21 3138.51 64.26 3.00 216.25 3023.05
   03:50:03.925.03-Feb-2020 4013.21 3138.38 64.26 3.00 216.45 3023.05
   03:50:04.125.03-Feb-2020 4013.21 3138.58 64.26 3.00 216.65 3023.05
   03:50:04.325.03-Feb-2020 4013.21 3138.54 64.26 3.00 216.85 3023.05
   03:50:04.525.03-Feb-2020 4013.21 3138.46 64.26 3.00 217.05 3023.05
   03:50:04.725.03-Feb-2020 4013.21 3138.46 64.26 3.00 217.25 3023.05
   03:50:04.925.03-Feb-2020 4013.21 3138.45 64.26 3.00 217.45 3023.05
   03:50:05.125.03-Feb-2020 4013.21 3138.51 64.26 3.00 217.65 3023.05
   03:50:05.325.03-Feb-2020 4013.21 3138.65 64.26 3.00 217.85 3023.05
   03:50:05.525.03-Feb-2020 4013.21 3137.87 64.26 3.00 218.05 3023.05
   03:50:05.725.03-Feb-2020 4013.21 3137.87 64.26 3.00 218.25 3023.05
   03:50:05.925.03-Feb-2020 4013.21 3138.96 64.26 3.00 218.45 3023.05
   03:50:06.125.03-Feb-2020 4013.21 3138.62 64.26 3.00 218.65 3023.05
   03:50:06.325.03-Feb-2020 4013.21 3138.30 64.26 3.00 218.85 3023.05
   03:50:06.525.03-Feb-2020 4013.21 3138.55 64.26 3.00 219.05 3023.05
   03:50:06.725.03-Feb-2020 4013.21 3138.55 64.26 3.00 219.25 3023.05
   03:50:06.926.03-Feb-2020 4013.21 3138.52 64.26 3.00 219.45 3023.05
   03:50:07.126.03-Feb-2020 4013.21 3138.52 64.26 3.00 219.65 3023.05
   03:50:07.326.03-Feb-2020 4013.21 3138.54 64.26 3.00 219.85 3023.05
   03:50:07.526.03-Feb-2020 4013.21 3138.47 64.26 3.00 220.05 3023.05
   03:50:07.726.03-Feb-2020 4013.21 3138.47 64.26 3.00 220.25 3023.05
   03:50:07.926.03-Feb-2020 4013.21 3138.38 64.26 3.00 220.45 3023.05
   03:50:08.126.03-Feb-2020 4013.21 3138.23 64.26 3.00 220.65 3023.05
   03:50:08.326.03-Feb-2020 4013.21 3138.86 64.26 3.00 220.85 3023.05
   03:50:08.526.03-Feb-2020 4013.21 3138.43 64.26 3.00 221.05 3023.05
   03:50:08.726.03-Feb-2020 4013.21 3138.43 64.26 3.00 221.25 3023.05
   03:50:08.926.03-Feb-2020 4013.21 3137.66 64.26 3.00 221.45 3023.05
   03:50:09.126.03-Feb-2020 4013.21 3139.09 64.26 3.00 221.65 3023.05
   03:50:09.326.03-Feb-2020 4013.21 3138.22 64.26 3.00 221.85 3023.05
   03:50:09.526.03-Feb-2020 4013.21 3138.81 64.26 3.00 222.05 3023.05
   03:50:09.726.03-Feb-2020 4013.21 3138.81 64.26 3.00 222.25 3023.05
   03:50:09.926.03-Feb-2020 4013.21 3138.51 64.26 3.00 222.45 3023.05
   03:50:10.126.03-Feb-2020 4013.21 3137.74 64.26 3.00 222.65 3023.05
   03:50:10.326.03-Feb-2020 4013.21 3139.09 64.26 3.00 222.85 3023.05
   03:50:10.526.03-Feb-2020 4013.21 3138.17 64.26 3.00 223.05 3023.05
   03:50:10.726.03-Feb-2020 4013.21 3138.17 64.26 3.00 223.25 3023.05
   03:50:10.926.03-Feb-2020 4013.21 3138.51 64.26 3.00 223.45 3023.05
   03:50:11.126.03-Feb-2020 4013.21 3138.67 64.26 3.00 223.65 3023.05
   03:50:11.326.03-Feb-2020 4013.21 3138.14 64.26 3.00 223.85 3023.05
   03:50:11.526.03-Feb-2020 4013.21 3138.81 64.26 3.00 224.05 3023.05
   03:50:11.727.03-Feb-2020 4013.21 3138.81 64.26 3.00 224.25 3023.05
   03:50:11.927.03-Feb-2020 4013.21 3138.64 64.26 3.00 224.45 3023.05
   03:50:12.127.03-Feb-2020 4013.21 3138.50 64.26 3.00 224.65 3023.05
   03:50:12.327.03-Feb-2020 4013.21 3138.39 64.26 3.00 224.85 3023.05
   03:50:12.527.03-Feb-2020 4013.21 3138.50 64.26 3.00 225.05 3023.05
   03:50:12.727.03-Feb-2020 4013.21 3138.50 64.26 3.00 225.25 3023.05
   03:50:12.927.03-Feb-2020 4013.21 3138.43 64.26 3.00 225.45 3023.05
   03:50:13.127.03-Feb-2020 4013.21 3138.59 64.26 3.00 225.65 3023.05
   03:50:13.327.03-Feb-2020 4013.21 3138.42 64.26 3.00 225.85 3023.05
   03:50:13.527.03-Feb-2020 4013.21 3138.51 64.26 3.00 226.05 3023.05
   03:50:13.727.03-Feb-2020 4013.21 3138.51 64.26 3.00 226.25 3023.05
   03:50:13.927.03-Feb-2020 4013.21 3138.31 64.25 3.00 226.45 3023.05
   03:50:14.127.03-Feb-2020 4013.21 3138.58 64.26 3.00 226.65 3023.05
   03:50:14.327.03-Feb-2020 4013.21 3138.61 64.25 3.00 226.85 3023.05
   03:50:14.527.03-Feb-2020 4013.21 3137.99 64.25 3.00 227.05 3023.05
   03:50:14.727.03-Feb-2020 4013.21 3137.99 64.25 3.00 227.25 3023.05
   03:50:14.927.03-Feb-2020 4013.21 3138.25 64.25 3.00 227.45 3023.05
   03:50:15.127.03-Feb-2020 4013.21 3138.59 64.25 3.00 227.65 3023.05
   03:50:15.327.03-Feb-2020 4013.21 3138.39 64.25 3.00 227.85 3023.05
   03:50:15.527.03-Feb-2020 4013.21 3138.51 64.25 3.00 228.05 3023.05
   03:50:15.727.03-Feb-2020 4013.21 3138.51 64.25 3.00 228.25 3023.05
   03:50:15.927.03-Feb-2020 4013.21 3138.60 64.25 3.00 228.45 3023.05
   03:50:16.127.03-Feb-2020 4013.21 3138.49 64.25 3.00 228.65 3023.05
   03:50:16.327.03-Feb-2020 4013.21 3138.55 64.25 3.00 228.85 3023.05
   03:50:16.528.03-Feb-2020 4013.21 3138.57 64.25 3.00 229.05 3023.05
   03:50:16.728.03-Feb-2020 4013.21 3138.57 64.25 3.00 229.25 3023.05
   03:50:16.928.03-Feb-2020 4013.21 3138.45 64.25 3.00 229.45 3023.05
   03:50:17.128.03-Feb-2020 4013.21 3138.06 64.25 3.00 229.65 3023.05
   03:50:17.328.03-Feb-2020 4013.21 3138.94 64.25 3.00 229.85 3023.05
