~Version Information
 VERS.                  2.0:   CWLS log ASCII Standard -VERSION 2.0
 WRAP.                   NO:   One line per depth step
~Well Information Block
#MNEM.UNIT     VALUE/NAME     DESCRIPTION
#---------     -----------    ---------------------------
 STRT.S             06:42:18 03-Feb-20: START TIME 06:42:18 03-Feb-20
 STOP.S             06:50:14 03-Feb-20: STOP TIME  06:50:14 03-Feb-20
 STEP.S                   0.00: STEP TIME
 NULL.                 -999.25: NULL VALUE
 DFWT.                        :  DIST FWL TEXT
 DFST.                        :  DIST FSL TEXT
 DMF .             Drill Floor:  DRILL MEAS FROM
 STIM.      09.30.00 26-Dec-19:  START TIME
 DATE.      08.00.00 20-Jan-20:  END TIME
 SPUD.               23-Nov-19:  SPUD DATE
 NREF.                    Grid:  NORTH REFERENCE
 HPTY.       Minimum Curvature:  HOLE POS TYPE
 DMOD.             Drill Model:  DRILL MOD DESC
 SVYD.                  Survey:  SURVEY DESC
 ILTD.               Lithology:  INTERP LTH DESC
 FTOP.          Formation Tops:  FORM TOPS DESC
 SON .        AZ-XX-0906192647:  JOB NUMBER
 WTYP.                Deviated:  WELL TYPE
 COMP.     BP Exploration (Caspian Sea) Ltd:  COMPANY
 BASE.              Azerbaijan:  LOGGING EQUIPMENT BASE LOCATION
 REGN.                 Eurasia:  REGION
 FLD .                     ACG:  FIELD NAME
 SRVC.              KCA Deutag:  CONTRACTOR
 MWDS.                    Baku:  MWD SHOP
 WELL.     A10 (Slot 20) - SCP:  WELL NAME
 JOBN.        AZ-XX-0906192647:  JOB TICKET NUMB
 RIG .                 Chirag1:  RIG NAME
 DCON.     Halliburton Sperry Drilling:  DIRECTNL CONTR
 UNIT.                     N/A:  LOGGING EQUIPMENT ID
 PDAT.          Mean Sea Level:  PERMANENT DATUM
 MDS .        Operator Entered:  MAG DATA SOURCE
 CTRY.              Azerbaijan:  COUNTRY NAME
 UWI .            /AZE00000090:  UNIQUE WELL IDENTIFIER
 API .            /AZE00000090:  API NUMBER
 CNTY.                        :  COUNTY
 PROV.                        :  PROVINCE
 STAT.                        :  STATE
 LOC .                        :  LOCATION
 LMF .             Drill Floor:  LOG MEASURED FROM
 TVDS.m                  36.60:  TVDSS CORRECTN
 LATI.deg                40.08:  LATITUDE
 LONG.deg                51.24:  LONGITUDE
 WHNS.m                  -7.94:  WELL HEAD N/S
 WHEW.m                   1.56:  WELL HEAD E/W
 UTMX.m              520429.26:  UTM X
 UTMY.m             4438973.87:  UTM Y
 DFWL.m                   0.00:  DISTANCE FWL
 DFSL.m                   0.00:  DISTANCE FSL
 SDEP.m                1455.00:  START DEPTH
 TDD .m                4047.51:  TOTAL DEPTH (DRILLER)
 VSDR.deg               112.75:  VERT SEC DIRECT
 GVFD.g                   1.00:  GRAVITY FIELD
 MFLD.nT              50261.00:  MAGNETIC FIELD
 MDIP.deg                59.52:  MAGNETIC DIP
 MDEC.deg                 6.42:  MAGNETIC DECL
 GRDC.deg                 0.17:  GRID CORRECTION
 AZTC.deg                 6.25:  AZM TOTAL CORR
 EPD .m                   0.00:  ELEVATION
 EGL .m                   0.00:  GROUND ELEVATION
 WDMS.m                 121.00:  WD ELEV
 APD .m                  36.60:  DEPTH ABOVE PD
 AGAP.m                  36.60:  AIR GAP
 VSEW.m                   1.56:  VERT SEC E/W
 VSNS.m                  -7.94:  VERT SEC N/S
 DEP .m                1140.01:  DEPTH
 EKB .m                  36.60:  KB ELEVATION
 EDF .m                  36.60:  DF ELEVATION
 VSC .                       0:  VS TO CLOSURE
 MAGU.                 1849206:  MAGUTM CHECKSUM
~Parameter Information Block
#MNEM.UNIT       Value        Description
#---------     -----------    ---------------------------
 AV  .mps                 1.70:  Ann Velocity 
 AVMX.mps                 2.30:  Max Ann Veloc 
 AZIF.deg               137.03:  Azm, Final 
 BHAT.                   Other:  BHA Type 
 BROT.°/30m               0.80:  Build Rotating 
 BS  .in                  8.00:  Bit Size 
 BTPL.psig              161.00:  Bit Press Loss 
 CABU.                      No:  Customer Abuse 
 TCS .hr                  9.59:  Time Ciculation Ended 
 CV  .mps                 3.76:  Crit Velocity 
 CVMX.mps                 4.26:  Max Crit Veloc 
 DD1 .         Intigam Rahimov:  Direct Drillr 1 
 DD2 .          Rashad Gojayev:  Direct Drillr 2 
 DDSV.                   Other:  DD Service 
 DEFF.%                 100.00:  % Det Eff 
 DLRX.°/30m               1.44:  Dogleg Rot Max 
 DLSO.°/30m               0.00:  Dogleg Oriented 
 DLSX.°/30m               0.00:  Dogleg Str Max 
 DRET.      03.31.12 02-Feb-20:  Drill End Time 
 DRST.      03.31.12 02-Feb-20:  Drill Start Tim 
 DTIM.hr                  1.99:  Time Drilling 
 EDEP.m                4047.51:  End Depth 
 ENG1.           Eldar Hajiyev:  Engineer 1 
 ENG2.          Rasim Hashimov:  Engineer 2 
 ENG3.          Rustam Safarov:  Engineer 3 
 ETIM.      03.31.12 02-Feb-20:  End Time 
 FLOI.gpm               300.00:  Flow In 
 FLON.gpm               250.00:  Flow In Min 
 FLOS.cptm                0.00:  Fluid Loss 
 FLOX.gpm               330.00:  Flow In Max 
 HFLO.                      No:  High Flow 
 HPRE.                      No:  High Pressure 
 HTEM.                      No:  High Temp 
 HYDO.m                   2.50:  Hydro Offset 
 IFIN.deg                39.54:  Inc, Final 
 IMAX.deg                41.14:  Inc Max 
 IMIN.deg                39.81:  Inc Min 
 IMND.m                4005.21:  Inc Min Depth 
 IMXD.m                3948.42:  Inc Max Depth 
 JARR.                      No:  Jarring 
 LETM.      03.31.12 02-Feb-20:  Log End Time 
 LOST.hr                     0:  Lost Rig Time 
 LSTM.      03.31.12 02-Feb-20:  Log Start Time 
 MDCL.ppm             35000.00:  Mud Chlorides 
 MDES.     Inversion Oil/Synthetic:  Mud Desc 
 DFD .sg                  1.32:  Mud Density 
 MDMN.sg                  1.32:  Dens Mud Min 
 MDMX.sg                  1.32:  Dens Mud Max 
 MOIL.                      59:  Run Mud Oil % 
 MOWR.                   71:29:  Run Mud OWR 
 MSND.                       0:  Run Mud Sand % 
 MSOL.                      17:  Run Mud Solids% 
 DFV .spqt               86.00:  Mud Viscosity 
 MWOD.in                  4.75:  MWD Tool OD 
 MWSI.                      No:  Serv Intrp, MWD 
 OTIM.hr                 46.72:  Time Operating 
 PCON.           Look Like New:  Pad Condition 
 PMAX.psia             3300.00:  Press Op, Max 
 PV  .cP                 30.00:  Mud PV 
 RUN .                     400:  Run Number 
 ROPA.m/hr               35.00:  ROP Avg 
 ROPN.m/hr               25.00:  ROP Min 
 ROPX.m/hr               40.00:  ROP Max 
 RPMA.rpm                80.00:  RPM Surface Avg 
 RPMN.rpm                60.00:  RPM Surface Min 
 RPMX.rpm               100.00:  RPM Surface Max 
 RRUN.                     400:  Rig Run Number 
 RTIM.hr                  1.99:  Time Reaming 
 SAZI.deg               133.93:  Azm, Start 
 SDEP.m                4047.51:  Start Depth 
 SIDD.                      No:  Serv Intrp, DD 
 SINC.deg                40.28:  Inc, Start 
 SPPA.psig             3250.00:  SPP Avg 
 SPPN.psig             3200.00:  SPP Min 
 SPPX.psig             3300.00:  SPP Max 
 STIM.      03.31.12 02-Feb-20:  Start Time 
 SVCS.                 DD, MWD:  Services 
 SVER.                    9.20:  Sperry Version 
 TDAT.m                  47.00:  Tot Depth Attmp 
 TDDF.                      No:  Trip for DD 
 TFF .                      No:  Trip for Fail 
 TQAA.f-kp                0.00:  Torque Abs Avg 
 TQAN.f-kp                0.00:  Torque Abs Min 
 TQAX.f-kp                0.00:  Torque Abs Max 
 TRRT.°/30m               0.70:  Turn Rotating 
 MRT .                    HCIM:  Maximum Recorded Temperature 
 TTMX.degC               70.59:  Max Tool Temp 
 VS01.             90598770F11:  Virtual Str1 SN 
 VS02.             90598769F11:  Virtual Str2 SN 
 VS03.            90515978Z1W1:  Virtual Str3 SN 
 VS04.          90584144R12X14:  Virtual Str4 SN 
 WBMN.klb                 0.00:  WOB Min 
 WITN.            Peter Wilson:  Customer Rep 
 WOBA.klb                 0.00:  WOB Avg 
 WOBX.klb                 0.00:  WOB Max 
 YP  .lhf2               29.00:  Yield Point 
~Curve Information Block
#MNEM.UNIT                 API CODE     Curve Description
#---------               -----------    ---------------------------
 TIME.HHMMSS            00 000 000 000:  GT Time & Date
 GTDEPTH.m              00 000 000 000:  GT Depth
 GTPQH.psia             00 000 000 000:  GT HR Quartz Pressure
 GTTQ.degC              00 000 000 000:  GT Quartz Temperature
 GTTN.NONE              00 000 000 000:  GT Test Number
 GTET.sec               00 000 000 000:  GT Elapsed Test Time
 GTTVD.m                00 000 000 000:  GT True Vertical Depth
#Other Information
#
#WARRANTY: Halliburton will use its best efforts to furnish customers with 
#accurate information and interpretations that are part of, and incident to, the services 
#provided.  However, Halliburton cannot and does not warrant the accuracy 
#or correctness of such information and interpretations.  Under no circumstances should any 
#such information or interpretation be relied upon as the sole basis for any drilling, 
#completion, production, or financial decision or any procedure involving any risk to the 
#safety of any drilling venture, drilling rig or its crew or any other third party.  The 
#Customer has full responsibility for all drilling, completion and production operation.  
#Halliburton makes no representations or warranties, either expressed or 
#implied, including, but not limited to, the implied warranties of merchantability or fitness 
#for a particular purpose, with respect to the services rendered.  In no event will 
#Halliburton be liable for failure to obtain any particular results or for 
#any damages, including, but not limited to, indirect, special or consequential damages, 
#resulting from the use of any information or interpretation provided by Halliburton.
#
~A           TIME           GTDEPTH  GTPQH  GTTQ  GTTN  GTET   GTTVD  
# ...
   06:47:17.000.03-Feb-2020 4003.01 6047.71 64.31 8.00 299.00 3015.22
   06:47:17.200.03-Feb-2020 4003.01 6047.71 64.31 8.00 299.20 3015.22
   06:47:17.400.03-Feb-2020 4003.01 6041.20 64.31 8.00 299.40 3015.22
   06:47:17.600.03-Feb-2020 4003.01 6043.04 64.31 8.00 299.60 3015.22
   06:47:17.800.03-Feb-2020 4003.01 6039.95 64.31 8.00 299.80 3015.22
   06:47:18.000.03-Feb-2020 4003.01 6045.09 64.31 8.00 300.00 3015.22
   06:47:18.200.03-Feb-2020 4003.01 6045.09 64.31 8.00 300.20 3015.22
   06:47:18.400.03-Feb-2020 4003.01 6046.69 64.31 8.00 300.40 3015.22
   06:47:18.600.03-Feb-2020 4003.01 6046.53 64.31 8.00 300.60 3015.22
   06:47:18.800.03-Feb-2020 4003.01 6046.04 64.31 8.00 300.80 3015.22
   06:47:19.000.03-Feb-2020 4003.01 6044.91 64.31 8.00 301.00 3015.22
   06:47:19.200.03-Feb-2020 4003.01 6044.91 64.31 8.00 301.20 3015.22
   06:47:19.400.03-Feb-2020 4003.01 6048.23 64.31 8.00 301.40 3015.22
   06:47:19.600.03-Feb-2020 4003.01 6047.70 64.31 8.00 301.60 3015.22
   06:47:19.800.03-Feb-2020 4003.01 6047.74 64.31 8.00 301.80 3015.22
   06:47:20.000.03-Feb-2020 4003.01 6046.99 64.31 8.00 302.00 3015.22
   06:47:20.200.03-Feb-2020 4003.01 6046.99 64.31 8.00 302.20 3015.22
   06:47:20.400.03-Feb-2020 4003.01 6047.26 64.31 8.00 302.40 3015.22
   06:47:20.600.03-Feb-2020 4003.01 6045.28 64.31 8.00 302.60 3015.22
   06:47:20.800.03-Feb-2020 4003.01 6039.78 64.31 8.00 302.80 3015.22
   06:47:21.000.03-Feb-2020 4003.01 6044.13 64.31 8.00 303.00 3015.22
   06:47:21.200.03-Feb-2020 4003.01 6044.13 64.31 8.00 303.20 3015.22
   06:47:21.400.03-Feb-2020 4003.01 6044.88 64.31 8.00 303.40 3015.22
   06:47:21.600.03-Feb-2020 4003.01 6045.25 64.31 8.00 303.60 3015.22
   06:47:21.800.03-Feb-2020 4003.01 6045.31 64.31 8.00 303.80 3015.22
   06:47:22.000.03-Feb-2020 4003.01 6045.80 64.31 8.00 304.00 3015.22
   06:47:22.200.03-Feb-2020 4003.01 6045.80 64.31 8.00 304.20 3015.22
   06:47:22.400.03-Feb-2020 4003.01 6046.62 64.31 8.00 304.40 3015.22
   06:47:22.600.03-Feb-2020 4003.01 6046.71 64.31 8.00 304.60 3015.22
   06:47:22.800.03-Feb-2020 4003.01 6046.31 64.31 8.00 304.80 3015.22
   06:47:23.000.03-Feb-2020 4003.01 6039.45 64.31 8.00 305.00 3015.22
   06:47:23.200.03-Feb-2020 4003.01 6039.45 64.31 8.00 305.20 3015.22
   06:47:23.400.03-Feb-2020 4003.01 6030.01 64.31 8.00 305.40 3015.22
   06:47:23.600.03-Feb-2020 4003.01 6031.40 64.31 8.00 305.60 3015.22
   06:47:23.800.03-Feb-2020 4003.01 6030.77 64.31 8.00 305.80 3015.22
   06:47:24.000.03-Feb-2020 4003.01 6033.04 64.31 8.00 306.00 3015.22
   06:47:24.200.03-Feb-2020 4003.01 6033.04 64.31 8.00 306.20 3015.22
   06:47:24.400.03-Feb-2020 4003.01 6031.16 64.31 8.00 306.40 3015.22
   06:47:24.600.03-Feb-2020 4003.01 6029.39 64.31 8.00 306.60 3015.22
   06:47:24.800.03-Feb-2020 4003.01 6020.04 64.31 8.00 306.80 3015.22
   06:47:25.000.03-Feb-2020 4003.01 6026.88 64.31 8.00 307.00 3015.22
   06:47:25.200.03-Feb-2020 4003.01 6026.88 64.31 8.00 307.20 3015.22
   06:47:25.400.03-Feb-2020 4003.01 6018.79 64.31 8.00 307.40 3015.22
   06:47:25.600.03-Feb-2020 4003.01 6020.10 64.31 8.00 307.60 3015.22
   06:47:25.800.03-Feb-2020 4003.01 6015.41 64.31 8.00 307.80 3015.22
   06:47:26.000.03-Feb-2020 4003.01 6009.95 64.31 8.00 308.00 3015.22
   06:47:26.200.03-Feb-2020 4003.01 6009.95 64.31 8.00 308.20 3015.22
   06:47:26.400.03-Feb-2020 4003.01 6019.64 64.31 8.00 308.40 3015.22
   06:47:26.600.03-Feb-2020 4003.01 6017.32 64.30 8.00 308.60 3015.22
   06:47:26.800.03-Feb-2020 4003.01 6012.48 64.30 8.00 308.80 3015.22
   06:47:27.000.03-Feb-2020 4003.01 6004.16 64.30 8.00 309.00 3015.22
   06:47:27.200.03-Feb-2020 4003.01 6004.16 64.30 8.00 309.20 3015.22
   06:47:27.400.03-Feb-2020 4003.01 6008.07 64.30 8.00 309.40 3015.22
   06:47:27.600.03-Feb-2020 4003.01 6012.83 64.30 8.00 309.60 3015.22
   06:47:27.800.03-Feb-2020 4003.01 6017.99 64.30 8.00 309.80 3015.22
   06:47:28.000.03-Feb-2020 4003.01 6029.50 64.30 8.00 310.00 3015.22
   06:47:28.200.03-Feb-2020 4003.01 6029.50 64.30 8.00 310.20 3015.22
   06:47:28.400.03-Feb-2020 4003.01 6025.26 64.30 8.00 310.40 3015.22
   06:47:28.600.03-Feb-2020 4003.01 6016.31 64.30 8.00 310.60 3015.22
   06:47:28.800.03-Feb-2020 4003.01 6024.06 64.30 8.00 310.80 3015.22
   06:47:29.000.03-Feb-2020 4003.01 6019.31 64.30 8.00 311.00 3015.22
   06:47:29.200.03-Feb-2020 4003.01 6019.31 64.30 8.00 311.20 3015.22
   06:47:29.400.03-Feb-2020 4003.01 6010.74 64.30 8.00 311.40 3015.22
   06:47:29.600.03-Feb-2020 4003.01 6006.24 64.30 8.00 311.60 3015.22
   06:47:29.800.03-Feb-2020 4003.01 6006.32 64.30 8.00 311.80 3015.22
   06:47:30.000.03-Feb-2020 4003.01 6001.33 64.30 8.00 312.00 3015.22
   06:47:30.200.03-Feb-2020 4003.01 6001.33 64.30 8.00 312.20 3015.22
   06:47:30.400.03-Feb-2020 4003.01 6014.59 64.30 8.00 312.40 3015.22
   06:47:30.600.03-Feb-2020 4003.01 6020.50 64.30 8.00 312.60 3015.22
   06:47:30.800.03-Feb-2020 4003.01 6006.47 64.30 8.00 312.80 3015.22
   06:47:31.000.03-Feb-2020 4003.01 6015.12 64.30 8.00 313.00 3015.22
   06:47:31.200.03-Feb-2020 4003.01 6015.12 64.30 8.00 313.20 3015.22
   06:47:31.400.03-Feb-2020 4003.01 6003.54 64.30 8.00 313.40 3015.22
   06:47:31.600.03-Feb-2020 4003.01 6005.68 64.30 8.00 313.60 3015.22
   06:47:31.800.03-Feb-2020 4003.01 6006.86 64.30 8.00 313.80 3015.22
   06:47:32.000.03-Feb-2020 4003.01 6006.09 64.30 8.00 314.00 3015.22
   06:47:32.200.03-Feb-2020 4003.01 6006.09 64.30 8.00 314.20 3015.22
   06:47:32.400.03-Feb-2020 4003.01 6010.38 64.30 8.00 314.40 3015.22
   06:47:32.600.03-Feb-2020 4003.01 6016.69 64.30 8.00 314.60 3015.22
   06:47:32.800.03-Feb-2020 4003.01 5999.55 64.30 8.00 314.80 3015.22
   06:47:33.000.03-Feb-2020 4003.01 6018.45 64.30 8.00 315.00 3015.22
   06:47:33.200.03-Feb-2020 4003.01 6018.45 64.30 8.00 315.20 3015.22
   06:47:33.400.03-Feb-2020 4003.01 6044.99 64.30 8.00 315.40 3015.22
   06:47:33.600.03-Feb-2020 4003.01 6043.86 64.30 8.00 315.60 3015.22
   06:47:33.800.03-Feb-2020 4003.01 6046.06 64.30 8.00 315.80 3015.22
   06:47:34.000.03-Feb-2020 4003.01 6045.55 64.30 8.00 316.00 3015.22
   06:47:34.200.03-Feb-2020 4003.01 6045.55 64.30 8.00 316.20 3015.22
   06:47:34.400.03-Feb-2020 4003.01 6042.06 64.30 8.00 316.40 3015.22
   06:47:34.600.03-Feb-2020 4003.01 6043.52 64.30 8.00 316.60 3015.22
   06:47:34.800.03-Feb-2020 4003.01 6042.45 64.30 8.00 316.80 3015.22
   06:47:35.000.03-Feb-2020 4003.01 6045.20 64.30 8.00 317.00 3015.22
   06:47:35.200.03-Feb-2020 4003.01 6045.20 64.30 8.00 317.20 3015.22
   06:47:35.400.03-Feb-2020 4003.01 6046.44 64.30 8.00 317.40 3015.22
   06:47:35.600.03-Feb-2020 4003.01 6037.70 64.30 8.00 317.60 3015.22
   06:47:35.800.03-Feb-2020 4003.01 6045.13 64.30 8.00 317.80 3015.22
   06:47:36.000.03-Feb-2020 4003.01 6041.80 64.30 8.00 318.00 3015.22
   06:47:36.200.03-Feb-2020 4003.01 6041.80 64.30 8.00 318.20 3015.22
   06:47:36.400.03-Feb-2020 4003.01 6046.84 64.30 8.00 318.40 3015.22
   06:47:36.600.03-Feb-2020 4003.01 6047.09 64.30 8.00 318.60 3015.22
   06:47:36.800.03-Feb-2020 4003.01 6046.54 64.30 8.00 318.80 3015.22
   06:47:37.000.03-Feb-2020 4003.01 6045.90 64.30 8.00 319.00 3015.22
   06:47:37.200.03-Feb-2020 4003.01 6045.90 64.30 8.00 319.20 3015.22
   06:47:37.400.03-Feb-2020 4003.01 6044.70 64.30 8.00 319.40 3015.22
   06:47:37.600.03-Feb-2020 4003.01 6043.87 64.30 8.00 319.60 3015.22
   06:47:37.800.03-Feb-2020 4003.01 6045.90 64.30 8.00 319.80 3015.22
   06:47:38.000.03-Feb-2020 4003.01 6045.05 64.30 8.00 320.00 3015.22
   06:47:38.200.03-Feb-2020 4003.01 6045.05 64.30 8.00 320.20 3015.22
   06:47:38.400.03-Feb-2020 4003.01 6044.39 64.30 8.00 320.40 3015.22
   06:47:38.600.03-Feb-2020 4003.01 6046.92 64.30 8.00 320.60 3015.22
   06:47:38.800.03-Feb-2020 4003.01 6047.73 64.30 8.00 320.80 3015.22
   06:47:39.000.03-Feb-2020 4003.01 6047.42 64.30 8.00 321.00 3015.22
   06:47:39.200.03-Feb-2020 4003.01 6047.42 64.30 8.00 321.20 3015.22
   06:47:39.400.03-Feb-2020 4003.01 6047.05 64.30 8.00 321.40 3015.22
   06:47:39.600.03-Feb-2020 4003.01 6046.51 64.30 8.00 321.60 3015.22
   06:47:39.800.03-Feb-2020 4003.01 6045.54 64.30 8.00 321.80 3015.22
