~Version Information
 VERS.                  2.0:   CWLS log ASCII Standard -VERSION 2.0
 WRAP.                   NO:   One line per depth step
~Well Information Block
#MNEM.UNIT     VALUE/NAME     DESCRIPTION
#---------     -----------    ---------------------------
 STRT.S             08:07:30 03-Feb-20: START TIME 08:07:30 03-Feb-20
 STOP.S             08:15:16 03-Feb-20: STOP TIME  08:15:16 03-Feb-20
 STEP.S                   0.00: STEP TIME
 NULL.                 -999.25: NULL VALUE
 DFWT.                        :  DIST FWL TEXT
 DFST.                        :  DIST FSL TEXT
 DMF .             Drill Floor:  DRILL MEAS FROM
 STIM.      09.30.00 26-Dec-19:  START TIME
 DATE.      08.00.00 20-Jan-20:  END TIME
 SPUD.               23-Nov-19:  SPUD DATE
 NREF.                    Grid:  NORTH REFERENCE
 HPTY.       Minimum Curvature:  HOLE POS TYPE
 DMOD.             Drill Model:  DRILL MOD DESC
 SVYD.                  Survey:  SURVEY DESC
 ILTD.               Lithology:  INTERP LTH DESC
 FTOP.          Formation Tops:  FORM TOPS DESC
 SON .        AZ-XX-0906192647:  JOB NUMBER
 WTYP.                Deviated:  WELL TYPE
 COMP.     BP Exploration (Caspian Sea) Ltd:  COMPANY
 BASE.              Azerbaijan:  LOGGING EQUIPMENT BASE LOCATION
 REGN.                 Eurasia:  REGION
 FLD .                     ACG:  FIELD NAME
 SRVC.              KCA Deutag:  CONTRACTOR
 MWDS.                    Baku:  MWD SHOP
 WELL.     A10 (Slot 20) - SCP:  WELL NAME
 JOBN.        AZ-XX-0906192647:  JOB TICKET NUMB
 RIG .                 Chirag1:  RIG NAME
 DCON.     Halliburton Sperry Drilling:  DIRECTNL CONTR
 UNIT.                     N/A:  LOGGING EQUIPMENT ID
 PDAT.          Mean Sea Level:  PERMANENT DATUM
 MDS .        Operator Entered:  MAG DATA SOURCE
 CTRY.              Azerbaijan:  COUNTRY NAME
 UWI .            /AZE00000090:  UNIQUE WELL IDENTIFIER
 API .            /AZE00000090:  API NUMBER
 CNTY.                        :  COUNTY
 PROV.                        :  PROVINCE
 STAT.                        :  STATE
 LOC .                        :  LOCATION
 LMF .             Drill Floor:  LOG MEASURED FROM
 TVDS.m                  36.60:  TVDSS CORRECTN
 LATI.deg                40.08:  LATITUDE
 LONG.deg                51.24:  LONGITUDE
 WHNS.m                  -7.94:  WELL HEAD N/S
 WHEW.m                   1.56:  WELL HEAD E/W
 UTMX.m              520429.26:  UTM X
 UTMY.m             4438973.87:  UTM Y
 DFWL.m                   0.00:  DISTANCE FWL
 DFSL.m                   0.00:  DISTANCE FSL
 SDEP.m                1455.00:  START DEPTH
 TDD .m                4047.51:  TOTAL DEPTH (DRILLER)
 VSDR.deg               112.75:  VERT SEC DIRECT
 GVFD.g                   1.00:  GRAVITY FIELD
 MFLD.nT              50261.00:  MAGNETIC FIELD
 MDIP.deg                59.52:  MAGNETIC DIP
 MDEC.deg                 6.42:  MAGNETIC DECL
 GRDC.deg                 0.17:  GRID CORRECTION
 AZTC.deg                 6.25:  AZM TOTAL CORR
 EPD .m                   0.00:  ELEVATION
 EGL .m                   0.00:  GROUND ELEVATION
 WDMS.m                 121.00:  WD ELEV
 APD .m                  36.60:  DEPTH ABOVE PD
 AGAP.m                  36.60:  AIR GAP
 VSEW.m                   1.56:  VERT SEC E/W
 VSNS.m                  -7.94:  VERT SEC N/S
 DEP .m                1140.01:  DEPTH
 EKB .m                  36.60:  KB ELEVATION
 EDF .m                  36.60:  DF ELEVATION
 VSC .                       0:  VS TO CLOSURE
 MAGU.                 1849206:  MAGUTM CHECKSUM
~Parameter Information Block
#MNEM.UNIT       Value        Description
#---------     -----------    ---------------------------
 AV  .mps                 1.70:  Ann Velocity 
 AVMX.mps                 2.30:  Max Ann Veloc 
 AZIF.deg               137.03:  Azm, Final 
 BHAT.                   Other:  BHA Type 
 BROT.ฐ/30m               0.80:  Build Rotating 
 BS  .in                  8.00:  Bit Size 
 BTPL.psig              161.00:  Bit Press Loss 
 CABU.                      No:  Customer Abuse 
 COMM.                     ิงZ:  Run Comments 1 
 TCS .hr                  9.59:  Time Ciculation Ended 
 CV  .mps                 3.76:  Crit Velocity 
 CVMX.mps                 4.26:  Max Crit Veloc 
 DD1 .         Intigam Rahimov:  Direct Drillr 1 
 DD2 .          Rashad Gojayev:  Direct Drillr 2 
 DDSV.                   Other:  DD Service 
 DEFF.%                 100.00:  % Det Eff 
 DLRX.ฐ/30m               1.44:  Dogleg Rot Max 
 DLSO.ฐ/30m               0.00:  Dogleg Oriented 
 DLSX.ฐ/30m               0.00:  Dogleg Str Max 
 DRET.      03.31.12 02-Feb-20:  Drill End Time 
 DRST.      03.31.12 02-Feb-20:  Drill Start Tim 
 DTIM.hr                  1.99:  Time Drilling 
 EDEP.m                4047.51:  End Depth 
 ENG1.           Eldar Hajiyev:  Engineer 1 
 ENG2.          Rasim Hashimov:  Engineer 2 
 ENG3.          Rustam Safarov:  Engineer 3 
 ETIM.      03.31.12 02-Feb-20:  End Time 
 FLOI.gpm               300.00:  Flow In 
 FLON.gpm               250.00:  Flow In Min 
 FLOS.cptm                0.00:  Fluid Loss 
 FLOX.gpm               330.00:  Flow In Max 
 HFLO.                      No:  High Flow 
 HPRE.                      No:  High Pressure 
 HTEM.                      No:  High Temp 
 HYDO.m                   2.50:  Hydro Offset 
 IFIN.deg                39.54:  Inc, Final 
 IMAX.deg                41.14:  Inc Max 
 IMIN.deg                39.81:  Inc Min 
 IMND.m                4005.21:  Inc Min Depth 
 IMXD.m                3948.42:  Inc Max Depth 
 JARR.                      No:  Jarring 
 LETM.      03.31.12 02-Feb-20:  Log End Time 
 LOST.hr                     0:  Lost Rig Time 
 LSTM.      03.31.12 02-Feb-20:  Log Start Time 
 MDCL.ppm             35000.00:  Mud Chlorides 
 MDES.     Inversion Oil/Synthetic:  Mud Desc 
 DFD .sg                  1.32:  Mud Density 
 MDMN.sg                  1.32:  Dens Mud Min 
 MDMX.sg                  1.32:  Dens Mud Max 
 MOIL.                      59:  Run Mud Oil % 
 MOWR.                   71:29:  Run Mud OWR 
 MSND.                       0:  Run Mud Sand % 
 MSOL.                      17:  Run Mud Solids% 
 DFV .spqt               86.00:  Mud Viscosity 
 MWOD.in                  4.75:  MWD Tool OD 
 MWSI.                      No:  Serv Intrp, MWD 
 OTIM.hr                 46.72:  Time Operating 
 PCON.           Look Like New:  Pad Condition 
 PMAX.psia             3300.00:  Press Op, Max 
 PV  .cP                 30.00:  Mud PV 
 RUN .                     400:  Run Number 
 ROPA.m/hr               35.00:  ROP Avg 
 ROPN.m/hr               25.00:  ROP Min 
 ROPX.m/hr               40.00:  ROP Max 
 RPMA.rpm                80.00:  RPM Surface Avg 
 RPMN.rpm                60.00:  RPM Surface Min 
 RPMX.rpm               100.00:  RPM Surface Max 
 RRUN.                     400:  Rig Run Number 
 RTIM.hr                  1.99:  Time Reaming 
 SAZI.deg               133.93:  Azm, Start 
 SDEP.m                4047.51:  Start Depth 
 SIDD.                      No:  Serv Intrp, DD 
 SINC.deg                40.28:  Inc, Start 
 SPPA.psig             3250.00:  SPP Avg 
 SPPN.psig             3200.00:  SPP Min 
 SPPX.psig             3300.00:  SPP Max 
 STIM.      03.31.12 02-Feb-20:  Start Time 
 SVCS.                 DD, MWD:  Services 
 SVER.                    9.20:  Sperry Version 
 TDAT.m                  47.00:  Tot Depth Attmp 
 TDDF.                      No:  Trip for DD 
 TFF .                      No:  Trip for Fail 
 TQAA.f-kp                0.00:  Torque Abs Avg 
 TQAN.f-kp                0.00:  Torque Abs Min 
 TQAX.f-kp                0.00:  Torque Abs Max 
 TRRT.ฐ/30m               0.70:  Turn Rotating 
 MRT .                    HCIM:  Maximum Recorded Temperature 
 TTMX.degC               70.59:  Max Tool Temp 
 VS01.             90598770F11:  Virtual Str1 SN 
 VS02.             90598769F11:  Virtual Str2 SN 
 VS03.            90515978Z1W1:  Virtual Str3 SN 
 VS04.          90584144R12X14:  Virtual Str4 SN 
 WBMN.klb                 0.00:  WOB Min 
 WITN.            Peter Wilson:  Customer Rep 
 WOBA.klb                 0.00:  WOB Avg 
 WOBX.klb                 0.00:  WOB Max 
 YP  .lhf2               29.00:  Yield Point 
~Curve Information Block
#MNEM.UNIT                 API CODE     Curve Description
#---------               -----------    ---------------------------
 TIME.HHMMSS            00 000 000 000:  GT Time & Date
 GTDEPTH.m              00 000 000 000:  GT Depth
 GTPQH.psia             00 000 000 000:  GT HR Quartz Pressure
 GTTQ.degC              00 000 000 000:  GT Quartz Temperature
 GTTN.NONE              00 000 000 000:  GT Test Number
 GTET.sec               00 000 000 000:  GT Elapsed Test Time
 GTTVD.m                00 000 000 000:  GT True Vertical Depth
#Other Information
#
#WARRANTY: Halliburton will use its best efforts to furnish customers with 
#accurate information and interpretations that are part of, and incident to, the services 
#provided.  However, Halliburton cannot and does not warrant the accuracy 
#or correctness of such information and interpretations.  Under no circumstances should any 
#such information or interpretation be relied upon as the sole basis for any drilling, 
#completion, production, or financial decision or any procedure involving any risk to the 
#safety of any drilling venture, drilling rig or its crew or any other third party.  The 
#Customer has full responsibility for all drilling, completion and production operation.  
#Halliburton makes no representations or warranties, either expressed or 
#implied, including, but not limited to, the implied warranties of merchantability or fitness 
#for a particular purpose, with respect to the services rendered.  In no event will 
#Halliburton be liable for failure to obtain any particular results or for 
#any damages, including, but not limited to, indirect, special or consequential damages, 
#resulting from the use of any information or interpretation provided by Halliburton.
#
~A           TIME           GTDEPTH  GTPQH  GTTQ  GTTN   GTET   GTTVD  
# ...
   08:07:52.640.03-Feb-2020 4023.01 6797.52 65.94 10.00  22.60 3030.56
   08:07:52.840.03-Feb-2020 4023.01 6799.21 65.94 10.00  22.80 3030.56
   08:07:53.040.03-Feb-2020 4023.01 6800.49 65.94 10.00  23.00 3030.56
   08:07:53.240.03-Feb-2020 4023.01 6800.49 65.94 10.00  23.20 3030.56
   08:07:53.440.03-Feb-2020 4023.01 6802.15 65.94 10.00  23.40 3030.56
   08:07:53.640.03-Feb-2020 4023.01 6803.18 65.94 10.00  23.60 3030.56
   08:07:53.840.03-Feb-2020 4023.01 6803.96 65.94 10.00  23.80 3030.56
   08:07:54.040.03-Feb-2020 4023.01 6436.46 65.94 10.00  24.00 3030.56
   08:07:54.240.03-Feb-2020 4023.01 6436.46 65.94 10.00  24.20 3030.56
   08:07:54.440.03-Feb-2020 4023.01 5643.71 65.94 10.00  24.40 3030.56
   08:07:54.640.03-Feb-2020 4023.01 5152.84 65.94 10.00  24.60 3030.56
   08:07:54.840.03-Feb-2020 4023.01 4736.23 65.94 10.00  24.80 3030.56
   08:07:55.040.03-Feb-2020 4023.01 4345.28 65.94 10.00  25.00 3030.56
   08:07:55.240.03-Feb-2020 4023.01 4345.28 65.94 10.00  25.20 3030.56
   08:07:55.440.03-Feb-2020 4023.01 3522.26 65.93 10.00  25.40 3030.56
   08:07:55.640.03-Feb-2020 4023.01 3111.71 65.93 10.00  25.60 3030.56
   08:07:55.840.03-Feb-2020 4023.01 2706.19 65.93 10.00  25.80 3030.56
   08:07:56.040.03-Feb-2020 4023.01 2314.26 65.93 10.00  26.00 3030.56
   08:07:56.240.03-Feb-2020 4023.01 2314.26 65.93 10.00  26.20 3030.56
   08:07:56.440.03-Feb-2020 4023.01 1565.25 65.93 10.00  26.40 3030.56
   08:07:56.640.03-Feb-2020 4023.01 1212.43 65.93 10.00  26.60 3030.56
   08:07:56.840.03-Feb-2020 4023.01  896.87 65.93 10.00  26.80 3030.56
   08:07:57.040.03-Feb-2020 4023.01  652.19 65.93 10.00  27.00 3030.56
   08:07:57.240.03-Feb-2020 4023.01  652.19 65.93 10.00  27.20 3030.56
   08:07:57.440.03-Feb-2020 4023.01  552.30 65.93 10.00  27.40 3030.56
   08:07:57.641.03-Feb-2020 4023.01  520.74 65.92 10.00  27.60 3030.56
   08:07:57.841.03-Feb-2020 4023.01  481.30 65.92 10.00  27.80 3030.56
   08:07:58.041.03-Feb-2020 4023.01  440.42 65.92 10.00  28.00 3030.56
   08:07:58.241.03-Feb-2020 4023.01  440.42 65.92 10.00  28.20 3030.56
   08:07:58.441.03-Feb-2020 4023.01  391.81 65.92 10.00  28.40 3030.56
   08:07:58.641.03-Feb-2020 4023.01  380.28 65.92 10.00  28.60 3030.56
   08:07:58.841.03-Feb-2020 4023.01  362.56 65.91 10.00  28.80 3030.56
   08:07:59.041.03-Feb-2020 4023.01  350.10 65.91 10.00  29.00 3030.56
   08:07:59.241.03-Feb-2020 4023.01  350.10 65.91 10.00  29.20 3030.56
   08:07:59.441.03-Feb-2020 4023.01  339.77 65.91 10.00  29.40 3030.56
   08:07:59.641.03-Feb-2020 4023.01  342.18 65.91 10.00  29.60 3030.56
   08:07:59.841.03-Feb-2020 4023.01  340.82 65.90 10.00  29.80 3030.56
   08:08:00.041.03-Feb-2020 4023.01  335.34 65.90 10.00  30.00 3030.56
   08:08:00.241.03-Feb-2020 4023.01  335.34 65.90 10.00  30.20 3030.56
   08:08:00.441.03-Feb-2020 4023.01  330.20 65.90 10.00  30.40 3030.56
   08:08:00.641.03-Feb-2020 4023.01  329.74 65.89 10.00  30.60 3030.56
   08:08:00.841.03-Feb-2020 4023.01  331.74 65.89 10.00  30.80 3030.56
   08:08:01.041.03-Feb-2020 4023.01  325.79 65.89 10.00  31.00 3030.56
   08:08:01.241.03-Feb-2020 4023.01  325.79 65.89 10.00  31.20 3030.56
   08:08:01.441.03-Feb-2020 4023.01  328.50 65.88 10.00  31.40 3030.56
   08:08:01.641.03-Feb-2020 4023.01  330.27 65.88 10.00  31.60 3030.56
   08:08:01.841.03-Feb-2020 4023.01  329.08 65.88 10.00  31.80 3030.56
   08:08:02.041.03-Feb-2020 4023.01  329.04 65.88 10.00  32.00 3030.56
   08:08:02.241.03-Feb-2020 4023.01  329.04 65.88 10.00  32.20 3030.56
   08:08:02.441.03-Feb-2020 4023.01  331.03 65.87 10.00  32.40 3030.56
   08:08:02.641.03-Feb-2020 4023.01  332.42 65.87 10.00  32.60 3030.56
   08:08:02.841.03-Feb-2020 4023.01  331.24 65.87 10.00  32.80 3030.56
   08:08:03.041.03-Feb-2020 4023.01  329.32 65.87 10.00  33.00 3030.56
   08:08:03.241.03-Feb-2020 4023.01  329.32 65.87 10.00  33.20 3030.56
   08:08:03.441.03-Feb-2020 4023.01  328.95 65.86 10.00  33.40 3030.56
   08:08:03.641.03-Feb-2020 4023.01  324.06 65.86 10.00  33.60 3030.56
   08:08:03.841.03-Feb-2020 4023.01  394.02 65.86 10.00  33.80 3030.56
   08:08:04.041.03-Feb-2020 4023.01  532.18 65.86 10.00  34.00 3030.56
   08:08:04.241.03-Feb-2020 4023.01  532.18 65.86 10.00  34.20 3030.56
   08:08:04.441.03-Feb-2020 4023.01  808.36 65.86 10.00  34.40 3030.56
   08:08:04.641.03-Feb-2020 4023.01  938.74 65.85 10.00  34.60 3030.56
   08:08:04.841.03-Feb-2020 4023.01 1063.28 65.85 10.00  34.80 3030.56
   08:08:05.041.03-Feb-2020 4023.01 1182.96 65.85 10.00  35.00 3030.56
   08:08:05.241.03-Feb-2020 4023.01 1182.96 65.85 10.00  35.20 3030.56
   08:08:05.441.03-Feb-2020 4023.01 1403.34 65.85 10.00  35.40 3030.56
   08:08:05.641.03-Feb-2020 4023.01 1504.42 65.85 10.00  35.60 3030.56
   08:08:05.841.03-Feb-2020 4023.01 1599.74 65.84 10.00  35.80 3030.56
   08:08:06.041.03-Feb-2020 4023.01 1690.02 65.84 10.00  36.00 3030.56
   08:08:06.241.03-Feb-2020 4023.01 1690.02 65.84 10.00  36.20 3030.56
   08:08:06.441.03-Feb-2020 4023.01 1855.20 65.84 10.00  36.40 3030.56
   08:08:06.641.03-Feb-2020 4023.01 1930.31 65.84 10.00  36.60 3030.56
   08:08:06.841.03-Feb-2020 4023.01 2001.51 65.84 10.00  36.80 3030.56
   08:08:07.041.03-Feb-2020 4023.01 2068.44 65.84 10.00  37.00 3030.56
   08:08:07.241.03-Feb-2020 4023.01 2068.44 65.84 10.00  37.20 3030.56
   08:08:07.441.03-Feb-2020 4023.01 2190.45 65.84 10.00  37.40 3030.56
   08:08:07.641.03-Feb-2020 4023.01 2246.07 65.84 10.00  37.60 3030.56
   08:08:07.841.03-Feb-2020 4023.01 2298.46 65.84 10.00  37.80 3030.56
   08:08:08.041.03-Feb-2020 4023.01 2347.55 65.84 10.00  38.00 3030.56
   08:08:08.241.03-Feb-2020 4023.01 2347.55 65.84 10.00  38.20 3030.56
   08:08:08.441.03-Feb-2020 4023.01 2437.39 65.83 10.00  38.40 3030.56
   08:08:08.641.03-Feb-2020 4023.01 2478.16 65.83 10.00  38.60 3030.56
   08:08:08.841.03-Feb-2020 4023.01 2516.76 65.83 10.00  38.80 3030.56
   08:08:09.041.03-Feb-2020 4023.01 2553.13 65.83 10.00  39.00 3030.56
   08:08:09.241.03-Feb-2020 4023.01 2553.13 65.83 10.00  39.20 3030.56
   08:08:09.441.03-Feb-2020 4023.01 2618.91 65.83 10.00  39.40 3030.56
   08:08:09.641.03-Feb-2020 4023.01 2649.51 65.83 10.00  39.60 3030.56
   08:08:09.841.03-Feb-2020 4023.01 2676.69 65.83 10.00  39.80 3030.56
   08:08:10.041.03-Feb-2020 4023.01 2704.13 65.83 10.00  40.00 3030.56
   08:08:10.241.03-Feb-2020 4023.01 2704.13 65.83 10.00  40.20 3030.56
   08:08:10.441.03-Feb-2020 4023.01 2752.80 65.83 10.00  40.40 3030.56
   08:08:10.641.03-Feb-2020 4023.01 2774.58 65.83 10.00  40.60 3030.56
   08:08:10.841.03-Feb-2020 4023.01 2796.17 65.83 10.00  40.80 3030.56
   08:08:11.041.03-Feb-2020 4023.01 2815.27 65.83 10.00  41.00 3030.56
   08:08:11.241.03-Feb-2020 4023.01 2815.27 65.83 10.00  41.20 3030.56
   08:08:11.441.03-Feb-2020 4023.01 2851.94 65.83 10.00  41.40 3030.56
   08:08:11.641.03-Feb-2020 4023.01 2867.65 65.83 10.00  41.60 3030.56
   08:08:11.841.03-Feb-2020 4023.01 2883.42 65.83 10.00  41.80 3030.56
   08:08:12.041.03-Feb-2020 4023.01 2898.54 65.83 10.00  42.00 3030.56
   08:08:12.241.03-Feb-2020 4023.01 2898.54 65.83 10.00  42.20 3030.56
   08:08:12.441.03-Feb-2020 4023.01 2924.49 65.83 10.00  42.40 3030.56
   08:08:12.641.03-Feb-2020 4023.01 2937.04 65.83 10.00  42.60 3030.56
   08:08:12.841.03-Feb-2020 4023.01 2949.21 65.83 10.00  42.80 3030.56
   08:08:13.041.03-Feb-2020 4023.01 2960.34 65.83 10.00  43.00 3030.56
   08:08:13.241.03-Feb-2020 4023.01 2960.34 65.83 10.00  43.20 3030.56
   08:08:13.441.03-Feb-2020 4023.01 2979.44 65.83 10.00  43.40 3030.56
   08:08:13.641.03-Feb-2020 4023.01 2988.23 65.83 10.00  43.60 3030.56
   08:08:13.841.03-Feb-2020 4023.01 2997.63 65.83 10.00  43.80 3030.56
   08:08:14.041.03-Feb-2020 4023.01 3005.70 65.83 10.00  44.00 3030.56
   08:08:14.241.03-Feb-2020 4023.01 3005.70 65.83 10.00  44.20 3030.56
   08:08:14.441.03-Feb-2020 4023.01 3020.52 65.83 10.00  44.40 3030.56
   08:08:14.641.03-Feb-2020 4023.01 3026.26 65.83 10.00  44.60 3030.56
   08:08:14.841.03-Feb-2020 4023.01 3033.51 65.83 10.00  44.80 3030.56
   08:08:15.041.03-Feb-2020 4023.01 3039.65 65.84 10.00  45.00 3030.56
