~Version Information
 VERS.                  2.0:   CWLS log ASCII Standard -VERSION 2.0
 WRAP.                   NO:   One line per depth step
~Well Information Block
#MNEM.UNIT     VALUE/NAME     DESCRIPTION
#---------     -----------    ---------------------------
 STRT.S             02:50:23 03-Feb-20: START TIME 02:50:23 03-Feb-20
 STOP.S             02:58:14 03-Feb-20: STOP TIME  02:58:14 03-Feb-20
 STEP.S                   0.00: STEP TIME
 NULL.                 -999.25: NULL VALUE
 DFWT.                        :  DIST FWL TEXT
 DFST.                        :  DIST FSL TEXT
 DMF .             Drill Floor:  DRILL MEAS FROM
 STIM.      09.30.00 26-Dec-19:  START TIME
 DATE.      08.00.00 20-Jan-20:  END TIME
 SPUD.               23-Nov-19:  SPUD DATE
 NREF.                    Grid:  NORTH REFERENCE
 HPTY.       Minimum Curvature:  HOLE POS TYPE
 DMOD.             Drill Model:  DRILL MOD DESC
 SVYD.                  Survey:  SURVEY DESC
 ILTD.               Lithology:  INTERP LTH DESC
 FTOP.          Formation Tops:  FORM TOPS DESC
 SON .        AZ-XX-0906192647:  JOB NUMBER
 WTYP.                Deviated:  WELL TYPE
 COMP.     BP Exploration (Caspian Sea) Ltd:  COMPANY
 BASE.              Azerbaijan:  LOGGING EQUIPMENT BASE LOCATION
 REGN.                 Eurasia:  REGION
 FLD .                     ACG:  FIELD NAME
 SRVC.              KCA Deutag:  CONTRACTOR
 MWDS.                    Baku:  MWD SHOP
 WELL.     A10 (Slot 20) - SCP:  WELL NAME
 JOBN.        AZ-XX-0906192647:  JOB TICKET NUMB
 RIG .                 Chirag1:  RIG NAME
 DCON.     Halliburton Sperry Drilling:  DIRECTNL CONTR
 UNIT.                     N/A:  LOGGING EQUIPMENT ID
 PDAT.          Mean Sea Level:  PERMANENT DATUM
 MDS .        Operator Entered:  MAG DATA SOURCE
 CTRY.              Azerbaijan:  COUNTRY NAME
 UWI .            /AZE00000090:  UNIQUE WELL IDENTIFIER
 API .            /AZE00000090:  API NUMBER
 CNTY.                        :  COUNTY
 PROV.                        :  PROVINCE
 STAT.                        :  STATE
 LOC .                        :  LOCATION
 LMF .             Drill Floor:  LOG MEASURED FROM
 TVDS.m                  36.60:  TVDSS CORRECTN
 LATI.deg                40.08:  LATITUDE
 LONG.deg                51.24:  LONGITUDE
 WHNS.m                  -7.94:  WELL HEAD N/S
 WHEW.m                   1.56:  WELL HEAD E/W
 UTMX.m              520429.26:  UTM X
 UTMY.m             4438973.87:  UTM Y
 DFWL.m                   0.00:  DISTANCE FWL
 DFSL.m                   0.00:  DISTANCE FSL
 SDEP.m                1455.00:  START DEPTH
 TDD .m                4047.51:  TOTAL DEPTH (DRILLER)
 VSDR.deg               112.75:  VERT SEC DIRECT
 GVFD.g                   1.00:  GRAVITY FIELD
 MFLD.nT              50261.00:  MAGNETIC FIELD
 MDIP.deg                59.52:  MAGNETIC DIP
 MDEC.deg                 6.42:  MAGNETIC DECL
 GRDC.deg                 0.17:  GRID CORRECTION
 AZTC.deg                 6.25:  AZM TOTAL CORR
 EPD .m                   0.00:  ELEVATION
 EGL .m                   0.00:  GROUND ELEVATION
 WDMS.m                 121.00:  WD ELEV
 APD .m                  36.60:  DEPTH ABOVE PD
 AGAP.m                  36.60:  AIR GAP
 VSEW.m                   1.56:  VERT SEC E/W
 VSNS.m                  -7.94:  VERT SEC N/S
 DEP .m                1140.01:  DEPTH
 EKB .m                  36.60:  KB ELEVATION
 EDF .m                  36.60:  DF ELEVATION
 VSC .                       0:  VS TO CLOSURE
 MAGU.                 1849206:  MAGUTM CHECKSUM
~Parameter Information Block
#MNEM.UNIT       Value        Description
#---------     -----------    ---------------------------
 AV  .mps                 1.70:  Ann Velocity 
 AVMX.mps                 2.30:  Max Ann Veloc 
 AZIF.deg               137.03:  Azm, Final 
 BHAT.                   Other:  BHA Type 
 BROT.°/30m               0.80:  Build Rotating 
 BS  .in                  8.00:  Bit Size 
 BTPL.psig              161.00:  Bit Press Loss 
 CABU.                      No:  Customer Abuse 
 COMM.                     ´Î`:  Run Comments 1 
 TCS .hr                  9.59:  Time Ciculation Ended 
 CV  .mps                 3.76:  Crit Velocity 
 CVMX.mps                 4.26:  Max Crit Veloc 
 DD1 .         Intigam Rahimov:  Direct Drillr 1 
 DD2 .          Rashad Gojayev:  Direct Drillr 2 
 DDSV.                   Other:  DD Service 
 DEFF.%                 100.00:  % Det Eff 
 DLRX.°/30m               1.44:  Dogleg Rot Max 
 DLSO.°/30m               0.00:  Dogleg Oriented 
 DLSX.°/30m               0.00:  Dogleg Str Max 
 DRET.      03.31.12 02-Feb-20:  Drill End Time 
 DRST.      03.31.12 02-Feb-20:  Drill Start Tim 
 DTIM.hr                  1.99:  Time Drilling 
 EDEP.m                4047.51:  End Depth 
 ENG1.           Eldar Hajiyev:  Engineer 1 
 ENG2.          Rasim Hashimov:  Engineer 2 
 ENG3.          Rustam Safarov:  Engineer 3 
 ETIM.      03.31.12 02-Feb-20:  End Time 
 FLOI.gpm               300.00:  Flow In 
 FLON.gpm               250.00:  Flow In Min 
 FLOS.cptm                0.00:  Fluid Loss 
 FLOX.gpm               330.00:  Flow In Max 
 HFLO.                      No:  High Flow 
 HPRE.                      No:  High Pressure 
 HTEM.                      No:  High Temp 
 HYDO.m                   2.50:  Hydro Offset 
 IFIN.deg                39.54:  Inc, Final 
 IMAX.deg                41.14:  Inc Max 
 IMIN.deg                39.81:  Inc Min 
 IMND.m                4005.21:  Inc Min Depth 
 IMXD.m                3948.42:  Inc Max Depth 
 JARR.                      No:  Jarring 
 LETM.      03.31.12 02-Feb-20:  Log End Time 
 LOST.hr                     0:  Lost Rig Time 
 LSTM.      03.31.12 02-Feb-20:  Log Start Time 
 MDCL.ppm             35000.00:  Mud Chlorides 
 MDES.     Inversion Oil/Synthetic:  Mud Desc 
 DFD .sg                  1.32:  Mud Density 
 MDMN.sg                  1.32:  Dens Mud Min 
 MDMX.sg                  1.32:  Dens Mud Max 
 MOIL.                      59:  Run Mud Oil % 
 MOWR.                   71:29:  Run Mud OWR 
 MSND.                       0:  Run Mud Sand % 
 MSOL.                      17:  Run Mud Solids% 
 DFV .spqt               86.00:  Mud Viscosity 
 MWOD.in                  4.75:  MWD Tool OD 
 MWSI.                      No:  Serv Intrp, MWD 
 OTIM.hr                 46.72:  Time Operating 
 PCON.           Look Like New:  Pad Condition 
 PMAX.psia             3300.00:  Press Op, Max 
 PV  .cP                 30.00:  Mud PV 
 RUN .                     400:  Run Number 
 ROPA.m/hr               35.00:  ROP Avg 
 ROPN.m/hr               25.00:  ROP Min 
 ROPX.m/hr               40.00:  ROP Max 
 RPMA.rpm                80.00:  RPM Surface Avg 
 RPMN.rpm                60.00:  RPM Surface Min 
 RPMX.rpm               100.00:  RPM Surface Max 
 RRUN.                     400:  Rig Run Number 
 RTIM.hr                  1.99:  Time Reaming 
 SAZI.deg               133.93:  Azm, Start 
 SDEP.m                4047.51:  Start Depth 
 SIDD.                      No:  Serv Intrp, DD 
 SINC.deg                40.28:  Inc, Start 
 SPPA.psig             3250.00:  SPP Avg 
 SPPN.psig             3200.00:  SPP Min 
 SPPX.psig             3300.00:  SPP Max 
 STIM.      03.31.12 02-Feb-20:  Start Time 
 SVCS.                 DD, MWD:  Services 
 SVER.                    9.20:  Sperry Version 
 TDAT.m                  47.00:  Tot Depth Attmp 
 TDDF.                      No:  Trip for DD 
 TFF .                      No:  Trip for Fail 
 TQAA.f-kp                0.00:  Torque Abs Avg 
 TQAN.f-kp                0.00:  Torque Abs Min 
 TQAX.f-kp                0.00:  Torque Abs Max 
 TRRT.°/30m               0.70:  Turn Rotating 
 MRT .                    HCIM:  Maximum Recorded Temperature 
 TTMX.degC               70.59:  Max Tool Temp 
 VS01.             90598770F11:  Virtual Str1 SN 
 VS02.             90598769F11:  Virtual Str2 SN 
 VS03.            90515978Z1W1:  Virtual Str3 SN 
 VS04.          90584144R12X14:  Virtual Str4 SN 
 WBMN.klb                 0.00:  WOB Min 
 WITN.            Peter Wilson:  Customer Rep 
 WOBA.klb                 0.00:  WOB Avg 
 WOBX.klb                 0.00:  WOB Max 
 YP  .lhf2               29.00:  Yield Point 
~Curve Information Block
#MNEM.UNIT                 API CODE     Curve Description
#---------               -----------    ---------------------------
 TIME.HHMMSS            00 000 000 000:  GT Time & Date
 GTDEPTH.m              00 000 000 000:  GT Depth
 GTPQH.psia             00 000 000 000:  GT HR Quartz Pressure
 GTTQ.degC              00 000 000 000:  GT Quartz Temperature
 GTTN.NONE              00 000 000 000:  GT Test Number
 GTET.sec               00 000 000 000:  GT Elapsed Test Time
 GTTVD.m                00 000 000 000:  GT True Vertical Depth
#Other Information
#
#WARRANTY: Halliburton will use its best efforts to furnish customers with 
#accurate information and interpretations that are part of, and incident to, the services 
#provided.  However, Halliburton cannot and does not warrant the accuracy 
#or correctness of such information and interpretations.  Under no circumstances should any 
#such information or interpretation be relied upon as the sole basis for any drilling, 
#completion, production, or financial decision or any procedure involving any risk to the 
#safety of any drilling venture, drilling rig or its crew or any other third party.  The 
#Customer has full responsibility for all drilling, completion and production operation.  
#Halliburton makes no representations or warranties, either expressed or 
#implied, including, but not limited to, the implied warranties of merchantability or fitness 
#for a particular purpose, with respect to the services rendered.  In no event will 
#Halliburton be liable for failure to obtain any particular results or for 
#any damages, including, but not limited to, indirect, special or consequential damages, 
#resulting from the use of any information or interpretation provided by Halliburton.
#
~A           TIME           GTDEPTH  GTPQH  GTTQ  GTTN  GTET   GTTVD  
# ...
   02:53:27.814.03-Feb-2020 4022.51 3156.06 64.40 1.00 184.04 3030.18
   02:53:28.014.03-Feb-2020 4022.51 3156.06 64.40 1.00 184.24 3030.18
   02:53:28.214.03-Feb-2020 4022.51 3156.06 64.40 1.00 184.44 3030.18
   02:53:28.414.03-Feb-2020 4022.51 3156.09 64.40 1.00 184.64 3030.18
   02:53:28.614.03-Feb-2020 4022.51 3155.76 64.40 1.00 184.84 3030.18
   02:53:28.814.03-Feb-2020 4022.51 3156.46 64.40 1.00 185.04 3030.18
   02:53:29.014.03-Feb-2020 4022.51 3156.46 64.40 1.00 185.24 3030.18
   02:53:29.214.03-Feb-2020 4022.51 3156.42 64.40 1.00 185.44 3030.18
   02:53:29.414.03-Feb-2020 4022.51 3156.02 64.40 1.00 185.64 3030.18
   02:53:29.614.03-Feb-2020 4022.51 3156.26 64.40 1.00 185.84 3030.18
   02:53:29.814.03-Feb-2020 4022.51 3156.16 64.40 1.00 186.04 3030.18
   02:53:30.014.03-Feb-2020 4022.51 3156.16 64.40 1.00 186.24 3030.18
   02:53:30.214.03-Feb-2020 4022.51 3156.29 64.40 1.00 186.44 3030.18
   02:53:30.414.03-Feb-2020 4022.51 3156.33 64.40 1.00 186.64 3030.18
   02:53:30.614.03-Feb-2020 4022.51 3156.25 64.40 1.00 186.84 3030.18
   02:53:30.814.03-Feb-2020 4022.51 3156.19 64.40 1.00 187.04 3030.18
   02:53:31.014.03-Feb-2020 4022.51 3156.19 64.40 1.00 187.24 3030.18
   02:53:31.214.03-Feb-2020 4022.51 3156.24 64.40 1.00 187.44 3030.18
   02:53:31.414.03-Feb-2020 4022.51 3156.45 64.40 1.00 187.64 3030.18
   02:53:31.614.03-Feb-2020 4022.51 3156.50 64.40 1.00 187.84 3030.18
   02:53:31.814.03-Feb-2020 4022.51 3156.42 64.40 1.00 188.04 3030.18
   02:53:32.014.03-Feb-2020 4022.51 3156.42 64.40 1.00 188.24 3030.18
   02:53:32.215.03-Feb-2020 4022.51 3156.33 64.40 1.00 188.44 3030.18
   02:53:32.415.03-Feb-2020 4022.51 3155.98 64.40 1.00 188.64 3030.18
   02:53:32.615.03-Feb-2020 4022.51 3156.85 64.40 1.00 188.84 3030.18
   02:53:32.815.03-Feb-2020 4022.51 3156.16 64.40 1.00 189.04 3030.18
   02:53:33.015.03-Feb-2020 4022.51 3156.16 64.40 1.00 189.24 3030.18
   02:53:33.215.03-Feb-2020 4022.51 3156.49 64.40 1.00 189.44 3030.18
   02:53:33.415.03-Feb-2020 4022.51 3156.46 64.40 1.00 189.64 3030.18
   02:53:33.615.03-Feb-2020 4022.51 3156.40 64.40 1.00 189.84 3030.18
   02:53:33.815.03-Feb-2020 4022.51 3156.56 64.40 1.00 190.04 3030.18
   02:53:34.015.03-Feb-2020 4022.51 3156.56 64.40 1.00 190.24 3030.18
   02:53:34.215.03-Feb-2020 4022.51 3156.49 64.40 1.00 190.44 3030.18
   02:53:34.415.03-Feb-2020 4022.51 3156.52 64.40 1.00 190.64 3030.18
   02:53:34.615.03-Feb-2020 4022.51 3156.49 64.40 1.00 190.84 3030.18
   02:53:34.815.03-Feb-2020 4022.51 3156.51 64.40 1.00 191.04 3030.18
   02:53:35.015.03-Feb-2020 4022.51 3156.51 64.40 1.00 191.24 3030.18
   02:53:35.215.03-Feb-2020 4022.51 3156.44 64.40 1.00 191.44 3030.18
   02:53:35.415.03-Feb-2020 4022.51 3156.60 64.40 1.00 191.64 3030.18
   02:53:35.615.03-Feb-2020 4022.51 3156.58 64.40 1.00 191.84 3030.18
   02:53:35.815.03-Feb-2020 4022.51 3156.19 64.40 1.00 192.04 3030.18
   02:53:36.015.03-Feb-2020 4022.51 3156.19 64.40 1.00 192.24 3030.18
   02:53:36.215.03-Feb-2020 4022.51 3156.55 64.40 1.00 192.44 3030.18
   02:53:36.415.03-Feb-2020 4022.51 3156.64 64.40 1.00 192.64 3030.18
   02:53:36.615.03-Feb-2020 4022.51 3156.65 64.39 1.00 192.84 3030.18
   02:53:36.816.03-Feb-2020 4022.51 3156.64 64.39 1.00 193.04 3030.18
   02:53:37.016.03-Feb-2020 4022.51 3156.64 64.39 1.00 193.24 3030.18
   02:53:37.216.03-Feb-2020 4022.51 3156.64 64.39 1.00 193.44 3030.18
   02:53:37.416.03-Feb-2020 4022.51 3156.63 64.39 1.00 193.64 3030.18
   02:53:37.616.03-Feb-2020 4022.51 3156.62 64.39 1.00 193.84 3030.18
   02:53:37.816.03-Feb-2020 4022.51 3156.66 64.39 1.00 194.04 3030.18
   02:53:38.016.03-Feb-2020 4022.51 3156.66 64.39 1.00 194.24 3030.18
   02:53:38.216.03-Feb-2020 4022.51 3156.18 64.39 1.00 194.44 3030.18
   02:53:38.416.03-Feb-2020 4022.51 3157.01 64.39 1.00 194.64 3030.18
   02:53:38.616.03-Feb-2020 4022.51 3156.43 64.39 1.00 194.84 3030.18
   02:53:38.816.03-Feb-2020 4022.51 3156.91 64.39 1.00 195.04 3030.18
   02:53:39.016.03-Feb-2020 4022.51 3156.91 64.39 1.00 195.24 3030.18
   02:53:39.216.03-Feb-2020 4022.51 3157.11 64.39 1.00 195.44 3030.18
   02:53:39.416.03-Feb-2020 4022.51 3156.58 64.39 1.00 195.64 3030.18
   02:53:39.616.03-Feb-2020 4022.51 3156.93 64.39 1.00 195.84 3030.18
   02:53:39.816.03-Feb-2020 4022.51 3156.71 64.39 1.00 196.04 3030.18
   02:53:40.016.03-Feb-2020 4022.51 3156.71 64.39 1.00 196.24 3030.18
   02:53:40.216.03-Feb-2020 4022.51 3156.79 64.39 1.00 196.44 3030.18
   02:53:40.416.03-Feb-2020 4022.51 3156.73 64.39 1.00 196.64 3030.18
   02:53:40.616.03-Feb-2020 4022.51 3156.39 64.39 1.00 196.84 3030.18
   02:53:40.816.03-Feb-2020 4022.51 3156.92 64.39 1.00 197.04 3030.18
   02:53:41.016.03-Feb-2020 4022.51 3156.92 64.39 1.00 197.24 3030.18
   02:53:41.216.03-Feb-2020 4022.51 3156.97 64.39 1.00 197.44 3030.18
   02:53:41.416.03-Feb-2020 4022.51 3156.87 64.39 1.00 197.64 3030.18
   02:53:41.617.03-Feb-2020 4022.51 3156.78 64.39 1.00 197.84 3030.18
   02:53:41.817.03-Feb-2020 4022.51 3156.78 64.39 1.00 198.04 3030.18
   02:53:42.017.03-Feb-2020 4022.51 3156.78 64.39 1.00 198.24 3030.18
   02:53:42.217.03-Feb-2020 4022.51 3156.77 64.39 1.00 198.44 3030.18
   02:53:42.417.03-Feb-2020 4022.51 3156.69 64.39 1.00 198.64 3030.18
   02:53:42.617.03-Feb-2020 4022.51 3156.93 64.39 1.00 198.84 3030.18
   02:53:42.817.03-Feb-2020 4022.51 3156.85 64.39 1.00 199.04 3030.18
   02:53:43.017.03-Feb-2020 4022.51 3156.85 64.39 1.00 199.24 3030.18
   02:53:43.217.03-Feb-2020 4022.51 3156.78 64.39 1.00 199.44 3030.18
   02:53:43.417.03-Feb-2020 4022.51 3156.85 64.39 1.00 199.64 3030.18
   02:53:43.617.03-Feb-2020 4022.51 3156.94 64.39 1.00 199.84 3030.18
   02:53:43.817.03-Feb-2020 4022.51 3156.90 64.39 1.00 200.04 3030.18
   02:53:44.017.03-Feb-2020 4022.51 3156.90 64.39 1.00 200.24 3030.18
   02:53:44.217.03-Feb-2020 4022.51 3156.89 64.39 1.00 200.44 3030.18
   02:53:44.417.03-Feb-2020 4022.51 3156.89 64.39 1.00 200.64 3030.18
   02:53:44.617.03-Feb-2020 4022.51 3156.85 64.39 1.00 200.84 3030.18
   02:53:44.817.03-Feb-2020 4022.51 3156.84 64.39 1.00 201.04 3030.18
   02:53:45.017.03-Feb-2020 4022.51 3156.84 64.39 1.00 201.24 3030.18
   02:53:45.217.03-Feb-2020 4022.51 3156.94 64.39 1.00 201.44 3030.18
   02:53:45.417.03-Feb-2020 4022.51 3156.36 64.39 1.00 201.64 3030.18
   02:53:45.617.03-Feb-2020 4022.51 3157.27 64.39 1.00 201.84 3030.18
   02:53:45.817.03-Feb-2020 4022.51 3156.78 64.39 1.00 202.04 3030.18
   02:53:46.017.03-Feb-2020 4022.51 3156.78 64.39 1.00 202.24 3030.18
   02:53:46.217.03-Feb-2020 4022.51 3156.93 64.39 1.00 202.44 3030.18
   02:53:46.418.03-Feb-2020 4022.51 3156.96 64.39 1.00 202.64 3030.18
   02:53:46.618.03-Feb-2020 4022.51 3156.95 64.39 1.00 202.84 3030.18
   02:53:46.818.03-Feb-2020 4022.51 3156.95 64.39 1.00 203.04 3030.18
   02:53:47.018.03-Feb-2020 4022.51 3156.95 64.39 1.00 203.24 3030.18
   02:53:47.218.03-Feb-2020 4022.51 3156.97 64.38 1.00 203.44 3030.18
   02:53:47.418.03-Feb-2020 4022.51 3156.92 64.38 1.00 203.64 3030.18
   02:53:47.618.03-Feb-2020 4022.51 3157.02 64.38 1.00 203.84 3030.18
   02:53:47.818.03-Feb-2020 4022.51 3156.80 64.38 1.00 204.04 3030.18
   02:53:48.018.03-Feb-2020 4022.51 3156.80 64.38 1.00 204.24 3030.18
   02:53:48.218.03-Feb-2020 4022.51 3156.80 64.38 1.00 204.44 3030.18
   02:53:48.418.03-Feb-2020 4022.51 3157.13 64.38 1.00 204.64 3030.18
   02:53:48.618.03-Feb-2020 4022.51 3156.86 64.38 1.00 204.84 3030.18
   02:53:48.818.03-Feb-2020 4022.51 3157.02 64.38 1.00 205.04 3030.18
   02:53:49.018.03-Feb-2020 4022.51 3157.02 64.38 1.00 205.24 3030.18
   02:53:49.218.03-Feb-2020 4022.51 3157.14 64.38 1.00 205.44 3030.18
   02:53:49.418.03-Feb-2020 4022.51 3157.07 64.38 1.00 205.64 3030.18
   02:53:49.618.03-Feb-2020 4022.51 3157.03 64.38 1.00 205.84 3030.18
   02:53:49.818.03-Feb-2020 4022.51 3157.03 64.38 1.00 206.04 3030.18
   02:53:50.018.03-Feb-2020 4022.51 3157.03 64.38 1.00 206.24 3030.18
   02:53:50.218.03-Feb-2020 4022.51 3156.41 64.38 1.00 206.44 3030.18
   02:53:50.418.03-Feb-2020 4022.51 3157.49 64.38 1.00 206.64 3030.18
   02:53:50.618.03-Feb-2020 4022.51 3156.87 64.38 1.00 206.84 3030.18
