~Version Information
 VERS.                  2.0:   CWLS log ASCII Standard -VERSION 2.0
 WRAP.                   NO:   One line per depth step
~Well Information Block
#MNEM.UNIT     VALUE/NAME     DESCRIPTION
#---------     -----------    ---------------------------
 STRT.S             08:33:17 03-Feb-20: START TIME 08:33:17 03-Feb-20
 STOP.S             08:41:10 03-Feb-20: STOP TIME  08:41:10 03-Feb-20
 STEP.S                   0.00: STEP TIME
 NULL.                 -999.25: NULL VALUE
 DFWT.                        :  DIST FWL TEXT
 DFST.                        :  DIST FSL TEXT
 DMF .             Drill Floor:  DRILL MEAS FROM
 STIM.      09.30.00 26-Dec-19:  START TIME
 DATE.      08.00.00 20-Jan-20:  END TIME
 SPUD.               23-Nov-19:  SPUD DATE
 NREF.                    Grid:  NORTH REFERENCE
 HPTY.       Minimum Curvature:  HOLE POS TYPE
 DMOD.             Drill Model:  DRILL MOD DESC
 SVYD.                  Survey:  SURVEY DESC
 ILTD.               Lithology:  INTERP LTH DESC
 FTOP.          Formation Tops:  FORM TOPS DESC
 SON .        AZ-XX-0906192647:  JOB NUMBER
 WTYP.                Deviated:  WELL TYPE
 COMP.     BP Exploration (Caspian Sea) Ltd:  COMPANY
 BASE.              Azerbaijan:  LOGGING EQUIPMENT BASE LOCATION
 REGN.                 Eurasia:  REGION
 FLD .                     ACG:  FIELD NAME
 SRVC.              KCA Deutag:  CONTRACTOR
 MWDS.                    Baku:  MWD SHOP
 WELL.     A10 (Slot 20) - SCP:  WELL NAME
 JOBN.        AZ-XX-0906192647:  JOB TICKET NUMB
 RIG .                 Chirag1:  RIG NAME
 DCON.     Halliburton Sperry Drilling:  DIRECTNL CONTR
 UNIT.                     N/A:  LOGGING EQUIPMENT ID
 PDAT.          Mean Sea Level:  PERMANENT DATUM
 MDS .        Operator Entered:  MAG DATA SOURCE
 CTRY.              Azerbaijan:  COUNTRY NAME
 UWI .            /AZE00000090:  UNIQUE WELL IDENTIFIER
 API .            /AZE00000090:  API NUMBER
 CNTY.                        :  COUNTY
 PROV.                        :  PROVINCE
 STAT.                        :  STATE
 LOC .                        :  LOCATION
 LMF .             Drill Floor:  LOG MEASURED FROM
 TVDS.m                  36.60:  TVDSS CORRECTN
 LATI.deg                40.08:  LATITUDE
 LONG.deg                51.24:  LONGITUDE
 WHNS.m                  -7.94:  WELL HEAD N/S
 WHEW.m                   1.56:  WELL HEAD E/W
 UTMX.m              520429.26:  UTM X
 UTMY.m             4438973.87:  UTM Y
 DFWL.m                   0.00:  DISTANCE FWL
 DFSL.m                   0.00:  DISTANCE FSL
 SDEP.m                1455.00:  START DEPTH
 TDD .m                4047.51:  TOTAL DEPTH (DRILLER)
 VSDR.deg               112.75:  VERT SEC DIRECT
 GVFD.g                   1.00:  GRAVITY FIELD
 MFLD.nT              50261.00:  MAGNETIC FIELD
 MDIP.deg                59.52:  MAGNETIC DIP
 MDEC.deg                 6.42:  MAGNETIC DECL
 GRDC.deg                 0.17:  GRID CORRECTION
 AZTC.deg                 6.25:  AZM TOTAL CORR
 EPD .m                   0.00:  ELEVATION
 EGL .m                   0.00:  GROUND ELEVATION
 WDMS.m                 121.00:  WD ELEV
 APD .m                  36.60:  DEPTH ABOVE PD
 AGAP.m                  36.60:  AIR GAP
 VSEW.m                   1.56:  VERT SEC E/W
 VSNS.m                  -7.94:  VERT SEC N/S
 DEP .m                1140.01:  DEPTH
 EKB .m                  36.60:  KB ELEVATION
 EDF .m                  36.60:  DF ELEVATION
 VSC .                       0:  VS TO CLOSURE
 MAGU.                 1849206:  MAGUTM CHECKSUM
~Parameter Information Block
#MNEM.UNIT       Value        Description
#---------     -----------    ---------------------------
 AV  .mps                 1.70:  Ann Velocity 
 AVMX.mps                 2.30:  Max Ann Veloc 
 AZIF.deg               137.03:  Azm, Final 
 BHAT.                   Other:  BHA Type 
 BROT.°/30m               0.80:  Build Rotating 
 BS  .in                  8.00:  Bit Size 
 BTPL.psig              161.00:  Bit Press Loss 
 CABU.                      No:  Customer Abuse 
 COMM.                     äör:  Run Comments 1 
 TCS .hr                  9.59:  Time Ciculation Ended 
 CV  .mps                 3.76:  Crit Velocity 
 CVMX.mps                 4.26:  Max Crit Veloc 
 DD1 .         Intigam Rahimov:  Direct Drillr 1 
 DD2 .          Rashad Gojayev:  Direct Drillr 2 
 DDSV.                   Other:  DD Service 
 DEFF.%                 100.00:  % Det Eff 
 DLRX.°/30m               1.44:  Dogleg Rot Max 
 DLSO.°/30m               0.00:  Dogleg Oriented 
 DLSX.°/30m               0.00:  Dogleg Str Max 
 DRET.      03.31.12 02-Feb-20:  Drill End Time 
 DRST.      03.31.12 02-Feb-20:  Drill Start Tim 
 DTIM.hr                  1.99:  Time Drilling 
 EDEP.m                4047.51:  End Depth 
 ENG1.           Eldar Hajiyev:  Engineer 1 
 ENG2.          Rasim Hashimov:  Engineer 2 
 ENG3.          Rustam Safarov:  Engineer 3 
 ETIM.      03.31.12 02-Feb-20:  End Time 
 FLOI.gpm               300.00:  Flow In 
 FLON.gpm               250.00:  Flow In Min 
 FLOS.cptm                0.00:  Fluid Loss 
 FLOX.gpm               330.00:  Flow In Max 
 HFLO.                      No:  High Flow 
 HPRE.                      No:  High Pressure 
 HTEM.                      No:  High Temp 
 HYDO.m                   2.50:  Hydro Offset 
 IFIN.deg                39.54:  Inc, Final 
 IMAX.deg                41.14:  Inc Max 
 IMIN.deg                39.81:  Inc Min 
 IMND.m                4005.21:  Inc Min Depth 
 IMXD.m                3948.42:  Inc Max Depth 
 JARR.                      No:  Jarring 
 LETM.      03.31.12 02-Feb-20:  Log End Time 
 LOST.hr                     0:  Lost Rig Time 
 LSTM.      03.31.12 02-Feb-20:  Log Start Time 
 MDCL.ppm             35000.00:  Mud Chlorides 
 MDES.     Inversion Oil/Synthetic:  Mud Desc 
 DFD .sg                  1.32:  Mud Density 
 MDMN.sg                  1.32:  Dens Mud Min 
 MDMX.sg                  1.32:  Dens Mud Max 
 MOIL.                      59:  Run Mud Oil % 
 MOWR.                   71:29:  Run Mud OWR 
 MSND.                       0:  Run Mud Sand % 
 MSOL.                      17:  Run Mud Solids% 
 DFV .spqt               86.00:  Mud Viscosity 
 MWOD.in                  4.75:  MWD Tool OD 
 MWSI.                      No:  Serv Intrp, MWD 
 OTIM.hr                 46.72:  Time Operating 
 PCON.           Look Like New:  Pad Condition 
 PMAX.psia             3300.00:  Press Op, Max 
 PV  .cP                 30.00:  Mud PV 
 RUN .                     400:  Run Number 
 ROPA.m/hr               35.00:  ROP Avg 
 ROPN.m/hr               25.00:  ROP Min 
 ROPX.m/hr               40.00:  ROP Max 
 RPMA.rpm                80.00:  RPM Surface Avg 
 RPMN.rpm                60.00:  RPM Surface Min 
 RPMX.rpm               100.00:  RPM Surface Max 
 RRUN.                     400:  Rig Run Number 
 RTIM.hr                  1.99:  Time Reaming 
 SAZI.deg               133.93:  Azm, Start 
 SDEP.m                4047.51:  Start Depth 
 SIDD.                      No:  Serv Intrp, DD 
 SINC.deg                40.28:  Inc, Start 
 SPPA.psig             3250.00:  SPP Avg 
 SPPN.psig             3200.00:  SPP Min 
 SPPX.psig             3300.00:  SPP Max 
 STIM.      03.31.12 02-Feb-20:  Start Time 
 SVCS.                 DD, MWD:  Services 
 SVER.                    9.20:  Sperry Version 
 TDAT.m                  47.00:  Tot Depth Attmp 
 TDDF.                      No:  Trip for DD 
 TFF .                      No:  Trip for Fail 
 TQAA.f-kp                0.00:  Torque Abs Avg 
 TQAN.f-kp                0.00:  Torque Abs Min 
 TQAX.f-kp                0.00:  Torque Abs Max 
 TRRT.°/30m               0.70:  Turn Rotating 
 MRT .                    HCIM:  Maximum Recorded Temperature 
 TTMX.degC               70.59:  Max Tool Temp 
 VS01.             90598770F11:  Virtual Str1 SN 
 VS02.             90598769F11:  Virtual Str2 SN 
 VS03.            90515978Z1W1:  Virtual Str3 SN 
 VS04.          90584144R12X14:  Virtual Str4 SN 
 WBMN.klb                 0.00:  WOB Min 
 WITN.            Peter Wilson:  Customer Rep 
 WOBA.klb                 0.00:  WOB Avg 
 WOBX.klb                 0.00:  WOB Max 
 YP  .lhf2               29.00:  Yield Point 
~Curve Information Block
#MNEM.UNIT                 API CODE     Curve Description
#---------               -----------    ---------------------------
 TIME.HHMMSS            00 000 000 000:  GT Time & Date
 GTDEPTH.m              00 000 000 000:  GT Depth
 GTPQH.psia             00 000 000 000:  GT HR Quartz Pressure
 GTTQ.degC              00 000 000 000:  GT Quartz Temperature
 GTTN.NONE              00 000 000 000:  GT Test Number
 GTET.sec               00 000 000 000:  GT Elapsed Test Time
 GTTVD.m                00 000 000 000:  GT True Vertical Depth
#Other Information
#
#WARRANTY: Halliburton will use its best efforts to furnish customers with 
#accurate information and interpretations that are part of, and incident to, the services 
#provided.  However, Halliburton cannot and does not warrant the accuracy 
#or correctness of such information and interpretations.  Under no circumstances should any 
#such information or interpretation be relied upon as the sole basis for any drilling, 
#completion, production, or financial decision or any procedure involving any risk to the 
#safety of any drilling venture, drilling rig or its crew or any other third party.  The 
#Customer has full responsibility for all drilling, completion and production operation.  
#Halliburton makes no representations or warranties, either expressed or 
#implied, including, but not limited to, the implied warranties of merchantability or fitness 
#for a particular purpose, with respect to the services rendered.  In no event will 
#Halliburton be liable for failure to obtain any particular results or for 
#any damages, including, but not limited to, indirect, special or consequential damages, 
#resulting from the use of any information or interpretation provided by Halliburton.
#
~A           TIME           GTDEPTH  GTPQH  GTTQ  GTTN   GTET   GTTVD  
# ...
   08:37:25.689.03-Feb-2020 4013.71 3132.26 64.43 11.00 248.61 3023.43
   08:37:25.890.03-Feb-2020 4013.71 3132.24 64.43 11.00 248.81 3023.43
   08:37:26.090.03-Feb-2020 4013.71 3132.22 64.43 11.00 249.01 3023.43
   08:37:26.290.03-Feb-2020 4013.71 3132.22 64.43 11.00 249.21 3023.43
   08:37:26.490.03-Feb-2020 4013.71 3132.00 64.43 11.00 249.41 3023.43
   08:37:26.690.03-Feb-2020 4013.71 3132.35 64.43 11.00 249.61 3023.43
   08:37:26.890.03-Feb-2020 4013.71 3132.22 64.43 11.00 249.81 3023.43
   08:37:27.090.03-Feb-2020 4013.71 3132.31 64.43 11.00 250.01 3023.43
   08:37:27.290.03-Feb-2020 4013.71 3132.31 64.43 11.00 250.21 3023.43
   08:37:27.490.03-Feb-2020 4013.71 3132.17 64.43 11.00 250.41 3023.43
   08:37:27.690.03-Feb-2020 4013.71 3132.22 64.43 11.00 250.61 3023.43
   08:37:27.890.03-Feb-2020 4013.71 3132.17 64.43 11.00 250.81 3023.43
   08:37:28.090.03-Feb-2020 4013.71 3132.32 64.43 11.00 251.01 3023.43
   08:37:28.290.03-Feb-2020 4013.71 3132.32 64.43 11.00 251.21 3023.43
   08:37:28.490.03-Feb-2020 4013.71 3132.27 64.43 11.00 251.41 3023.43
   08:37:28.690.03-Feb-2020 4013.71 3132.00 64.43 11.00 251.61 3023.43
   08:37:28.890.03-Feb-2020 4013.71 3132.40 64.43 11.00 251.81 3023.43
   08:37:29.090.03-Feb-2020 4013.71 3132.21 64.43 11.00 252.01 3023.43
   08:37:29.290.03-Feb-2020 4013.71 3132.21 64.43 11.00 252.21 3023.43
   08:37:29.490.03-Feb-2020 4013.71 3132.27 64.43 11.00 252.41 3023.43
   08:37:29.690.03-Feb-2020 4013.71 3132.27 64.43 11.00 252.61 3023.43
   08:37:29.890.03-Feb-2020 4013.71 3132.08 64.43 11.00 252.81 3023.43
   08:37:30.090.03-Feb-2020 4013.71 3132.25 64.43 11.00 253.01 3023.43
   08:37:30.290.03-Feb-2020 4013.71 3132.25 64.43 11.00 253.21 3023.43
   08:37:30.490.03-Feb-2020 4013.71 3132.29 64.43 11.00 253.41 3023.43
   08:37:30.690.03-Feb-2020 4013.71 3132.28 64.43 11.00 253.61 3023.43
   08:37:30.890.03-Feb-2020 4013.71 3132.25 64.43 11.00 253.81 3023.43
   08:37:31.090.03-Feb-2020 4013.71 3132.28 64.43 11.00 254.01 3023.43
   08:37:31.290.03-Feb-2020 4013.71 3132.28 64.43 11.00 254.21 3023.43
   08:37:31.490.03-Feb-2020 4013.71 3132.24 64.43 11.00 254.41 3023.43
   08:37:31.690.03-Feb-2020 4013.71 3132.29 64.43 11.00 254.61 3023.43
   08:37:31.890.03-Feb-2020 4013.71 3132.25 64.43 11.00 254.81 3023.43
   08:37:32.090.03-Feb-2020 4013.71 3132.25 64.43 11.00 255.01 3023.43
   08:37:32.290.03-Feb-2020 4013.71 3132.25 64.43 11.00 255.21 3023.43
   08:37:32.490.03-Feb-2020 4013.71 3132.23 64.43 11.00 255.41 3023.43
   08:37:32.690.03-Feb-2020 4013.71 3132.26 64.43 11.00 255.61 3023.43
   08:37:32.890.03-Feb-2020 4013.71 3132.28 64.43 11.00 255.81 3023.43
   08:37:33.090.03-Feb-2020 4013.71 3132.03 64.43 11.00 256.01 3023.43
   08:37:33.290.03-Feb-2020 4013.71 3132.03 64.43 11.00 256.21 3023.43
   08:37:33.490.03-Feb-2020 4013.71 3132.17 64.43 11.00 256.41 3023.43
   08:37:33.690.03-Feb-2020 4013.71 3132.31 64.43 11.00 256.61 3023.43
   08:37:33.890.03-Feb-2020 4013.71 3132.23 64.43 11.00 256.81 3023.43
   08:37:34.090.03-Feb-2020 4013.71 3132.26 64.43 11.00 257.01 3023.43
   08:37:34.290.03-Feb-2020 4013.71 3132.26 64.43 11.00 257.21 3023.43
   08:37:34.490.03-Feb-2020 4013.71 3132.26 64.43 11.00 257.41 3023.43
   08:37:34.690.03-Feb-2020 4013.71 3132.28 64.43 11.00 257.61 3023.43
   08:37:34.890.03-Feb-2020 4013.71 3132.27 64.43 11.00 257.81 3023.43
   08:37:35.090.03-Feb-2020 4013.71 3132.26 64.43 11.00 258.01 3023.43
   08:37:35.290.03-Feb-2020 4013.71 3132.26 64.43 11.00 258.21 3023.43
   08:37:35.490.03-Feb-2020 4013.71 3132.27 64.43 11.00 258.41 3023.43
   08:37:35.690.03-Feb-2020 4013.71 3132.13 64.43 11.00 258.61 3023.43
   08:37:35.890.03-Feb-2020 4013.71 3132.26 64.43 11.00 258.81 3023.43
   08:37:36.090.03-Feb-2020 4013.71 3132.33 64.43 11.00 259.01 3023.43
   08:37:36.290.03-Feb-2020 4013.71 3132.33 64.43 11.00 259.21 3023.43
   08:37:36.490.03-Feb-2020 4013.71 3132.26 64.43 11.00 259.41 3023.43
   08:37:36.690.03-Feb-2020 4013.71 3132.07 64.43 11.00 259.61 3023.43
   08:37:36.890.03-Feb-2020 4013.71 3132.43 64.43 11.00 259.81 3023.43
   08:37:37.090.03-Feb-2020 4013.71 3132.18 64.43 11.00 260.01 3023.43
   08:37:37.290.03-Feb-2020 4013.71 3132.18 64.43 11.00 260.21 3023.43
   08:37:37.490.03-Feb-2020 4013.71 3132.27 64.43 11.00 260.41 3023.43
   08:37:37.690.03-Feb-2020 4013.71 3132.29 64.43 11.00 260.61 3023.43
   08:37:37.890.03-Feb-2020 4013.71 3132.10 64.43 11.00 260.81 3023.43
   08:37:38.090.03-Feb-2020 4013.71 3132.30 64.43 11.00 261.01 3023.43
   08:37:38.290.03-Feb-2020 4013.71 3132.30 64.43 11.00 261.21 3023.43
   08:37:38.490.03-Feb-2020 4013.71 3132.31 64.43 11.00 261.41 3023.43
   08:37:38.690.03-Feb-2020 4013.71 3132.32 64.43 11.00 261.61 3023.43
   08:37:38.890.03-Feb-2020 4013.71 3132.21 64.43 11.00 261.81 3023.43
   08:37:39.090.03-Feb-2020 4013.71 3132.27 64.43 11.00 262.01 3023.43
   08:37:39.290.03-Feb-2020 4013.71 3132.27 64.43 11.00 262.21 3023.43
   08:37:39.490.03-Feb-2020 4013.71 3132.30 64.43 11.00 262.41 3023.43
   08:37:39.690.03-Feb-2020 4013.71 3132.30 64.43 11.00 262.61 3023.43
   08:37:39.890.03-Feb-2020 4013.71 3132.30 64.43 11.00 262.81 3023.43
   08:37:40.090.03-Feb-2020 4013.71 3132.26 64.43 11.00 263.01 3023.43
   08:37:40.290.03-Feb-2020 4013.71 3132.26 64.43 11.00 263.21 3023.43
   08:37:40.490.03-Feb-2020 4013.71 3132.24 64.43 11.00 263.41 3023.43
   08:37:40.690.03-Feb-2020 4013.71 3132.26 64.43 11.00 263.61 3023.43
   08:37:40.890.03-Feb-2020 4013.71 3132.32 64.43 11.00 263.81 3023.43
   08:37:41.090.03-Feb-2020 4013.71 3132.26 64.43 11.00 264.01 3023.43
   08:37:41.290.03-Feb-2020 4013.71 3132.26 64.43 11.00 264.21 3023.43
   08:37:41.490.03-Feb-2020 4013.71 3132.29 64.43 11.00 264.41 3023.43
   08:37:41.690.03-Feb-2020 4013.71 3132.25 64.43 11.00 264.61 3023.43
   08:37:41.890.03-Feb-2020 4013.71 3132.29 64.43 11.00 264.81 3023.43
   08:37:42.090.03-Feb-2020 4013.71 3132.31 64.43 11.00 265.01 3023.43
   08:37:42.290.03-Feb-2020 4013.71 3132.31 64.43 11.00 265.21 3023.43
   08:37:42.490.03-Feb-2020 4013.71 3132.41 64.43 11.00 265.41 3023.43
   08:37:42.690.03-Feb-2020 4013.71 3132.25 64.43 11.00 265.61 3023.43
   08:37:42.890.03-Feb-2020 4013.71 3132.33 64.43 11.00 265.81 3023.43
   08:37:43.090.03-Feb-2020 4013.71 3132.27 64.43 11.00 266.01 3023.43
   08:37:43.290.03-Feb-2020 4013.71 3132.27 64.43 11.00 266.21 3023.43
   08:37:43.490.03-Feb-2020 4013.71 3132.27 64.43 11.00 266.41 3023.43
   08:37:43.690.03-Feb-2020 4013.71 3132.30 64.43 11.00 266.61 3023.43
   08:37:43.890.03-Feb-2020 4013.71 3132.30 64.43 11.00 266.81 3023.43
   08:37:44.090.03-Feb-2020 4013.71 3132.29 64.43 11.00 267.01 3023.43
   08:37:44.290.03-Feb-2020 4013.71 3132.29 64.43 11.00 267.21 3023.43
   08:37:44.490.03-Feb-2020 4013.71 3132.28 64.43 11.00 267.41 3023.43
   08:37:44.690.03-Feb-2020 4013.71 3132.22 64.43 11.00 267.61 3023.43
   08:37:44.890.03-Feb-2020 4013.71 3132.29 64.43 11.00 267.81 3023.43
   08:37:45.090.03-Feb-2020 4013.71 3132.20 64.42 11.00 268.01 3023.43
   08:37:45.290.03-Feb-2020 4013.71 3132.20 64.42 11.00 268.21 3023.43
   08:37:45.490.03-Feb-2020 4013.71 3132.30 64.42 11.00 268.41 3023.43
   08:37:45.690.03-Feb-2020 4013.71 3132.30 64.42 11.00 268.61 3023.43
   08:37:45.890.03-Feb-2020 4013.71 3132.04 64.42 11.00 268.81 3023.43
   08:37:46.090.03-Feb-2020 4013.71 3132.48 64.42 11.00 269.01 3023.43
   08:37:46.290.03-Feb-2020 4013.71 3132.48 64.42 11.00 269.21 3023.43
   08:37:46.490.03-Feb-2020 4013.71 3132.35 64.42 11.00 269.41 3023.43
   08:37:46.690.03-Feb-2020 4013.71 3132.30 64.42 11.00 269.61 3023.43
   08:37:46.890.03-Feb-2020 4013.71 3132.23 64.42 11.00 269.81 3023.43
   08:37:47.090.03-Feb-2020 4013.71 3132.27 64.42 11.00 270.01 3023.43
   08:37:47.290.03-Feb-2020 4013.71 3132.27 64.42 11.00 270.21 3023.43
   08:37:47.490.03-Feb-2020 4013.71 3132.35 64.42 11.00 270.41 3023.43
   08:37:47.690.03-Feb-2020 4013.71 3132.32 64.42 11.00 270.61 3023.43
   08:37:47.890.03-Feb-2020 4013.71 3132.36 64.42 11.00 270.81 3023.43
   08:37:48.090.03-Feb-2020 4013.71 3132.08 64.42 11.00 271.01 3023.43
