~Version Information
 VERS.                  2.0:   CWLS log ASCII Standard -VERSION 2.0
 WRAP.                   NO:   One line per depth step
~Well Information Block
#MNEM.UNIT     VALUE/NAME     DESCRIPTION
#---------     -----------    ---------------------------
 STRT.S             03:10:10 03-Feb-20: START TIME 03:10:10 03-Feb-20
 STOP.S             03:17:58 03-Feb-20: STOP TIME  03:17:58 03-Feb-20
 STEP.S                   0.00: STEP TIME
 NULL.                 -999.25: NULL VALUE
 DFWT.                        :  DIST FWL TEXT
 DFST.                        :  DIST FSL TEXT
 DMF .             Drill Floor:  DRILL MEAS FROM
 STIM.      09.30.00 26-Dec-19:  START TIME
 DATE.      08.00.00 20-Jan-20:  END TIME
 SPUD.               23-Nov-19:  SPUD DATE
 NREF.                    Grid:  NORTH REFERENCE
 HPTY.       Minimum Curvature:  HOLE POS TYPE
 DMOD.             Drill Model:  DRILL MOD DESC
 SVYD.                  Survey:  SURVEY DESC
 ILTD.               Lithology:  INTERP LTH DESC
 FTOP.          Formation Tops:  FORM TOPS DESC
 SON .        AZ-XX-0906192647:  JOB NUMBER
 WTYP.                Deviated:  WELL TYPE
 COMP.     BP Exploration (Caspian Sea) Ltd:  COMPANY
 BASE.              Azerbaijan:  LOGGING EQUIPMENT BASE LOCATION
 REGN.                 Eurasia:  REGION
 FLD .                     ACG:  FIELD NAME
 SRVC.              KCA Deutag:  CONTRACTOR
 MWDS.                    Baku:  MWD SHOP
 WELL.     A10 (Slot 20) - SCP:  WELL NAME
 JOBN.        AZ-XX-0906192647:  JOB TICKET NUMB
 RIG .                 Chirag1:  RIG NAME
 DCON.     Halliburton Sperry Drilling:  DIRECTNL CONTR
 UNIT.                     N/A:  LOGGING EQUIPMENT ID
 PDAT.          Mean Sea Level:  PERMANENT DATUM
 MDS .        Operator Entered:  MAG DATA SOURCE
 CTRY.              Azerbaijan:  COUNTRY NAME
 UWI .            /AZE00000090:  UNIQUE WELL IDENTIFIER
 API .            /AZE00000090:  API NUMBER
 CNTY.                        :  COUNTY
 PROV.                        :  PROVINCE
 STAT.                        :  STATE
 LOC .                        :  LOCATION
 LMF .             Drill Floor:  LOG MEASURED FROM
 TVDS.m                  36.60:  TVDSS CORRECTN
 LATI.deg                40.08:  LATITUDE
 LONG.deg                51.24:  LONGITUDE
 WHNS.m                  -7.94:  WELL HEAD N/S
 WHEW.m                   1.56:  WELL HEAD E/W
 UTMX.m              520429.26:  UTM X
 UTMY.m             4438973.87:  UTM Y
 DFWL.m                   0.00:  DISTANCE FWL
 DFSL.m                   0.00:  DISTANCE FSL
 SDEP.m                1455.00:  START DEPTH
 TDD .m                4047.51:  TOTAL DEPTH (DRILLER)
 VSDR.deg               112.75:  VERT SEC DIRECT
 GVFD.g                   1.00:  GRAVITY FIELD
 MFLD.nT              50261.00:  MAGNETIC FIELD
 MDIP.deg                59.52:  MAGNETIC DIP
 MDEC.deg                 6.42:  MAGNETIC DECL
 GRDC.deg                 0.17:  GRID CORRECTION
 AZTC.deg                 6.25:  AZM TOTAL CORR
 EPD .m                   0.00:  ELEVATION
 EGL .m                   0.00:  GROUND ELEVATION
 WDMS.m                 121.00:  WD ELEV
 APD .m                  36.60:  DEPTH ABOVE PD
 AGAP.m                  36.60:  AIR GAP
 VSEW.m                   1.56:  VERT SEC E/W
 VSNS.m                  -7.94:  VERT SEC N/S
 DEP .m                1140.01:  DEPTH
 EKB .m                  36.60:  KB ELEVATION
 EDF .m                  36.60:  DF ELEVATION
 VSC .                       0:  VS TO CLOSURE
 MAGU.                 1849206:  MAGUTM CHECKSUM
~Parameter Information Block
#MNEM.UNIT       Value        Description
#---------     -----------    ---------------------------
 AV  .mps                 1.70:  Ann Velocity 
 AVMX.mps                 2.30:  Max Ann Veloc 
 AZIF.deg               137.03:  Azm, Final 
 BHAT.                   Other:  BHA Type 
 BROT.°/30m               0.80:  Build Rotating 
 BS  .in                  8.00:  Bit Size 
 BTPL.psig              161.00:  Bit Press Loss 
 CABU.                      No:  Customer Abuse 
 TCS .hr                  9.59:  Time Ciculation Ended 
 CV  .mps                 3.76:  Crit Velocity 
 CVMX.mps                 4.26:  Max Crit Veloc 
 DD1 .         Intigam Rahimov:  Direct Drillr 1 
 DD2 .          Rashad Gojayev:  Direct Drillr 2 
 DDSV.                   Other:  DD Service 
 DEFF.%                 100.00:  % Det Eff 
 DLRX.°/30m               1.44:  Dogleg Rot Max 
 DLSO.°/30m               0.00:  Dogleg Oriented 
 DLSX.°/30m               0.00:  Dogleg Str Max 
 DRET.      03.31.12 02-Feb-20:  Drill End Time 
 DRST.      03.31.12 02-Feb-20:  Drill Start Tim 
 DTIM.hr                  1.99:  Time Drilling 
 EDEP.m                4047.51:  End Depth 
 ENG1.           Eldar Hajiyev:  Engineer 1 
 ENG2.          Rasim Hashimov:  Engineer 2 
 ENG3.          Rustam Safarov:  Engineer 3 
 ETIM.      03.31.12 02-Feb-20:  End Time 
 FLOI.gpm               300.00:  Flow In 
 FLON.gpm               250.00:  Flow In Min 
 FLOS.cptm                0.00:  Fluid Loss 
 FLOX.gpm               330.00:  Flow In Max 
 HFLO.                      No:  High Flow 
 HPRE.                      No:  High Pressure 
 HTEM.                      No:  High Temp 
 HYDO.m                   2.50:  Hydro Offset 
 IFIN.deg                39.54:  Inc, Final 
 IMAX.deg                41.14:  Inc Max 
 IMIN.deg                39.81:  Inc Min 
 IMND.m                4005.21:  Inc Min Depth 
 IMXD.m                3948.42:  Inc Max Depth 
 JARR.                      No:  Jarring 
 LETM.      03.31.12 02-Feb-20:  Log End Time 
 LOST.hr                     0:  Lost Rig Time 
 LSTM.      03.31.12 02-Feb-20:  Log Start Time 
 MDCL.ppm             35000.00:  Mud Chlorides 
 MDES.     Inversion Oil/Synthetic:  Mud Desc 
 DFD .sg                  1.32:  Mud Density 
 MDMN.sg                  1.32:  Dens Mud Min 
 MDMX.sg                  1.32:  Dens Mud Max 
 MOIL.                      59:  Run Mud Oil % 
 MOWR.                   71:29:  Run Mud OWR 
 MSND.                       0:  Run Mud Sand % 
 MSOL.                      17:  Run Mud Solids% 
 DFV .spqt               86.00:  Mud Viscosity 
 MWOD.in                  4.75:  MWD Tool OD 
 MWSI.                      No:  Serv Intrp, MWD 
 OTIM.hr                 46.72:  Time Operating 
 PCON.           Look Like New:  Pad Condition 
 PMAX.psia             3300.00:  Press Op, Max 
 PV  .cP                 30.00:  Mud PV 
 RUN .                     400:  Run Number 
 ROPA.m/hr               35.00:  ROP Avg 
 ROPN.m/hr               25.00:  ROP Min 
 ROPX.m/hr               40.00:  ROP Max 
 RPMA.rpm                80.00:  RPM Surface Avg 
 RPMN.rpm                60.00:  RPM Surface Min 
 RPMX.rpm               100.00:  RPM Surface Max 
 RRUN.                     400:  Rig Run Number 
 RTIM.hr                  1.99:  Time Reaming 
 SAZI.deg               133.93:  Azm, Start 
 SDEP.m                4047.51:  Start Depth 
 SIDD.                      No:  Serv Intrp, DD 
 SINC.deg                40.28:  Inc, Start 
 SPPA.psig             3250.00:  SPP Avg 
 SPPN.psig             3200.00:  SPP Min 
 SPPX.psig             3300.00:  SPP Max 
 STIM.      03.31.12 02-Feb-20:  Start Time 
 SVCS.                 DD, MWD:  Services 
 SVER.                    9.20:  Sperry Version 
 TDAT.m                  47.00:  Tot Depth Attmp 
 TDDF.                      No:  Trip for DD 
 TFF .                      No:  Trip for Fail 
 TQAA.f-kp                0.00:  Torque Abs Avg 
 TQAN.f-kp                0.00:  Torque Abs Min 
 TQAX.f-kp                0.00:  Torque Abs Max 
 TRRT.°/30m               0.70:  Turn Rotating 
 MRT .                    HCIM:  Maximum Recorded Temperature 
 TTMX.degC               70.59:  Max Tool Temp 
 VS01.             90598770F11:  Virtual Str1 SN 
 VS02.             90598769F11:  Virtual Str2 SN 
 VS03.            90515978Z1W1:  Virtual Str3 SN 
 VS04.          90584144R12X14:  Virtual Str4 SN 
 WBMN.klb                 0.00:  WOB Min 
 WITN.            Peter Wilson:  Customer Rep 
 WOBA.klb                 0.00:  WOB Avg 
 WOBX.klb                 0.00:  WOB Max 
 YP  .lhf2               29.00:  Yield Point 
~Curve Information Block
#MNEM.UNIT                 API CODE     Curve Description
#---------               -----------    ---------------------------
 TIME.HHMMSS            00 000 000 000:  GT Time & Date
 GTDEPTH.m              00 000 000 000:  GT Depth
 GTPQH.psia             00 000 000 000:  GT HR Quartz Pressure
 GTTQ.degC              00 000 000 000:  GT Quartz Temperature
 GTTN.NONE              00 000 000 000:  GT Test Number
 GTET.sec               00 000 000 000:  GT Elapsed Test Time
 GTTVD.m                00 000 000 000:  GT True Vertical Depth
#Other Information
#
#WARRANTY: Halliburton will use its best efforts to furnish customers with 
#accurate information and interpretations that are part of, and incident to, the services 
#provided.  However, Halliburton cannot and does not warrant the accuracy 
#or correctness of such information and interpretations.  Under no circumstances should any 
#such information or interpretation be relied upon as the sole basis for any drilling, 
#completion, production, or financial decision or any procedure involving any risk to the 
#safety of any drilling venture, drilling rig or its crew or any other third party.  The 
#Customer has full responsibility for all drilling, completion and production operation.  
#Halliburton makes no representations or warranties, either expressed or 
#implied, including, but not limited to, the implied warranties of merchantability or fitness 
#for a particular purpose, with respect to the services rendered.  In no event will 
#Halliburton be liable for failure to obtain any particular results or for 
#any damages, including, but not limited to, indirect, special or consequential damages, 
#resulting from the use of any information or interpretation provided by Halliburton.
#
~A           TIME           GTDEPTH  GTPQH  GTTQ  GTTN  GTET   GTTVD  
# ...
   03:16:18.101.03-Feb-2020 4017.01 3135.22 62.97 2.00 368.08 3025.96
   03:16:18.301.03-Feb-2020 4017.01 3135.22 62.97 2.00 368.28 3025.96
   03:16:18.501.03-Feb-2020 4017.01 3135.18 62.97 2.00 368.48 3025.96
   03:16:18.701.03-Feb-2020 4017.01 3135.10 62.97 2.00 368.68 3025.96
   03:16:18.901.03-Feb-2020 4017.01 3135.12 62.97 2.00 368.88 3025.96
   03:16:19.101.03-Feb-2020 4017.01 3135.13 62.97 2.00 369.08 3025.96
   03:16:19.301.03-Feb-2020 4017.01 3135.13 62.97 2.00 369.28 3025.96
   03:16:19.501.03-Feb-2020 4017.01 3135.16 62.97 2.00 369.48 3025.96
   03:16:19.701.03-Feb-2020 4017.01 3135.15 62.97 2.00 369.68 3025.96
   03:16:19.901.03-Feb-2020 4017.01 3135.13 62.97 2.00 369.88 3025.96
   03:16:20.101.03-Feb-2020 4017.01 3134.69 62.97 2.00 370.08 3025.96
   03:16:20.301.03-Feb-2020 4017.01 3134.69 62.97 2.00 370.28 3025.96
   03:16:20.501.03-Feb-2020 4017.01 3134.97 62.97 2.00 370.48 3025.96
   03:16:20.701.03-Feb-2020 4017.01 3135.35 62.97 2.00 370.68 3025.96
   03:16:20.901.03-Feb-2020 4017.01 3135.14 62.97 2.00 370.88 3025.96
   03:16:21.101.03-Feb-2020 4017.01 3135.17 62.97 2.00 371.08 3025.96
   03:16:21.301.03-Feb-2020 4017.01 3135.17 62.97 2.00 371.28 3025.96
   03:16:21.501.03-Feb-2020 4017.01 3135.34 62.97 2.00 371.48 3025.96
   03:16:21.701.03-Feb-2020 4017.01 3135.10 62.97 2.00 371.68 3025.96
   03:16:21.901.03-Feb-2020 4017.01 3135.26 62.97 2.00 371.88 3025.96
   03:16:22.101.03-Feb-2020 4017.01 3135.17 62.97 2.00 372.08 3025.96
   03:16:22.301.03-Feb-2020 4017.01 3135.17 62.97 2.00 372.28 3025.96
   03:16:22.502.03-Feb-2020 4017.01 3134.91 62.97 2.00 372.48 3025.96
   03:16:22.702.03-Feb-2020 4017.01 3135.15 62.97 2.00 372.68 3025.96
   03:16:22.902.03-Feb-2020 4017.01 3135.20 62.97 2.00 372.88 3025.96
   03:16:23.102.03-Feb-2020 4017.01 3135.30 62.97 2.00 373.08 3025.96
   03:16:23.302.03-Feb-2020 4017.01 3135.30 62.97 2.00 373.28 3025.96
   03:16:23.502.03-Feb-2020 4017.01 3135.38 62.97 2.00 373.48 3025.96
   03:16:23.702.03-Feb-2020 4017.01 3135.12 62.97 2.00 373.68 3025.96
   03:16:23.902.03-Feb-2020 4017.01 3135.21 62.97 2.00 373.88 3025.96
   03:16:24.102.03-Feb-2020 4017.01 3135.14 62.97 2.00 374.08 3025.96
   03:16:24.302.03-Feb-2020 4017.01 3135.14 62.97 2.00 374.28 3025.96
   03:16:24.502.03-Feb-2020 4017.01 3135.16 62.97 2.00 374.48 3025.96
   03:16:24.702.03-Feb-2020 4017.01 3135.16 62.97 2.00 374.68 3025.96
   03:16:24.902.03-Feb-2020 4017.01 3135.18 62.97 2.00 374.88 3025.96
   03:16:25.102.03-Feb-2020 4017.01 3135.10 62.97 2.00 375.08 3025.96
   03:16:25.302.03-Feb-2020 4017.01 3135.10 62.97 2.00 375.28 3025.96
   03:16:25.502.03-Feb-2020 4017.01 3135.23 62.97 2.00 375.48 3025.96
   03:16:25.702.03-Feb-2020 4017.01 3135.14 62.97 2.00 375.68 3025.96
   03:16:25.902.03-Feb-2020 4017.01 3135.17 62.97 2.00 375.88 3025.96
   03:16:26.102.03-Feb-2020 4017.01 3135.17 62.97 2.00 376.08 3025.96
   03:16:26.302.03-Feb-2020 4017.01 3135.17 62.97 2.00 376.28 3025.96
   03:16:26.502.03-Feb-2020 4017.01 3135.01 62.97 2.00 376.48 3025.96
   03:16:26.702.03-Feb-2020 4017.01 3135.19 62.97 2.00 376.68 3025.96
   03:16:26.902.03-Feb-2020 4017.01 3134.92 62.97 2.00 376.88 3025.96
   03:16:27.102.03-Feb-2020 4017.01 3135.33 62.97 2.00 377.08 3025.96
   03:16:27.303.03-Feb-2020 4017.01 3135.33 62.97 2.00 377.28 3025.96
   03:16:27.503.03-Feb-2020 4017.01 3135.18 62.97 2.00 377.48 3025.96
   03:16:27.703.03-Feb-2020 4017.01 3135.18 62.97 2.00 377.68 3025.96
   03:16:27.903.03-Feb-2020 4017.01 3135.19 62.97 2.00 377.88 3025.96
   03:16:28.103.03-Feb-2020 4017.01 3135.14 62.97 2.00 378.08 3025.96
   03:16:28.303.03-Feb-2020 4017.01 3135.14 62.97 2.00 378.28 3025.96
   03:16:28.503.03-Feb-2020 4017.01 3135.21 62.97 2.00 378.48 3025.96
   03:16:28.703.03-Feb-2020 4017.01 3135.16 62.97 2.00 378.68 3025.96
   03:16:28.903.03-Feb-2020 4017.01 3135.21 62.97 2.00 378.88 3025.96
   03:16:29.103.03-Feb-2020 4017.01 3134.72 62.97 2.00 379.08 3025.96
   03:16:29.303.03-Feb-2020 4017.01 3134.72 62.97 2.00 379.28 3025.96
   03:16:29.503.03-Feb-2020 4017.01 3135.25 62.97 2.00 379.48 3025.96
   03:16:29.703.03-Feb-2020 4017.01 3135.32 62.97 2.00 379.68 3025.96
   03:16:29.903.03-Feb-2020 4017.01 3135.20 62.97 2.00 379.88 3025.96
   03:16:30.103.03-Feb-2020 4017.01 3135.24 62.97 2.00 380.08 3025.96
   03:16:30.303.03-Feb-2020 4017.01 3135.24 62.97 2.00 380.28 3025.96
   03:16:30.503.03-Feb-2020 4017.01 3135.15 62.97 2.00 380.48 3025.96
   03:16:30.703.03-Feb-2020 4017.01 3135.29 62.97 2.00 380.68 3025.96
   03:16:30.903.03-Feb-2020 4017.01 3135.21 62.97 2.00 380.88 3025.96
   03:16:31.103.03-Feb-2020 4017.01 3135.24 62.97 2.00 381.08 3025.96
   03:16:31.303.03-Feb-2020 4017.01 3135.24 62.97 2.00 381.28 3025.96
   03:16:31.503.03-Feb-2020 4017.01 3135.25 62.97 2.00 381.48 3025.96
   03:16:31.703.03-Feb-2020 4017.01 3134.99 62.97 2.00 381.68 3025.96
   03:16:31.904.03-Feb-2020 4017.01 3135.35 62.97 2.00 381.88 3025.96
   03:16:32.104.03-Feb-2020 4017.01 3135.28 62.97 2.00 382.08 3025.96
   03:16:32.304.03-Feb-2020 4017.01 3135.28 62.97 2.00 382.28 3025.96
   03:16:32.504.03-Feb-2020 4017.01 3135.18 62.97 2.00 382.48 3025.96
   03:16:32.704.03-Feb-2020 4017.01 3135.25 62.97 2.00 382.68 3025.96
   03:16:32.904.03-Feb-2020 4017.01 3135.18 62.97 2.00 382.88 3025.96
   03:16:33.104.03-Feb-2020 4017.01 3135.28 62.97 2.00 383.08 3025.96
   03:16:33.304.03-Feb-2020 4017.01 3135.28 62.97 2.00 383.28 3025.96
   03:16:33.504.03-Feb-2020 4017.01 3135.22 62.97 2.00 383.48 3025.96
   03:16:33.704.03-Feb-2020 4017.01 3135.21 62.97 2.00 383.68 3025.96
   03:16:33.904.03-Feb-2020 4017.01 3135.18 62.97 2.00 383.88 3025.96
   03:16:34.104.03-Feb-2020 4017.01 3135.16 62.97 2.00 384.08 3025.96
   03:16:34.304.03-Feb-2020 4017.01 3135.16 62.97 2.00 384.28 3025.96
   03:16:34.504.03-Feb-2020 4017.01 3135.24 62.97 2.00 384.48 3025.96
   03:16:34.704.03-Feb-2020 4017.01 3135.19 62.97 2.00 384.68 3025.96
   03:16:34.904.03-Feb-2020 4017.01 3135.17 62.97 2.00 384.88 3025.96
   03:16:35.104.03-Feb-2020 4017.01 3135.21 62.97 2.00 385.08 3025.96
   03:16:35.304.03-Feb-2020 4017.01 3135.21 62.97 2.00 385.28 3025.96
   03:16:35.504.03-Feb-2020 4017.01 3134.75 62.97 2.00 385.48 3025.96
   03:16:35.704.03-Feb-2020 4017.01 3135.52 62.97 2.00 385.68 3025.96
   03:16:35.904.03-Feb-2020 4017.01 3135.00 62.97 2.00 385.88 3025.96
   03:16:36.104.03-Feb-2020 4017.01 3135.36 62.97 2.00 386.08 3025.96
   03:16:36.304.03-Feb-2020 4017.01 3135.36 62.97 2.00 386.28 3025.96
   03:16:36.504.03-Feb-2020 4017.01 3135.36 62.97 2.00 386.48 3025.96
   03:16:36.705.03-Feb-2020 4017.01 3135.18 62.97 2.00 386.68 3025.96
   03:16:36.905.03-Feb-2020 4017.01 3135.20 62.97 2.00 386.88 3025.96
   03:16:37.105.03-Feb-2020 4017.01 3135.22 62.97 2.00 387.08 3025.96
   03:16:37.305.03-Feb-2020 4017.01 3135.22 62.97 2.00 387.28 3025.96
   03:16:37.505.03-Feb-2020 4017.01 3135.24 62.97 2.00 387.48 3025.96
   03:16:37.705.03-Feb-2020 4017.01 3135.23 62.97 2.00 387.68 3025.96
   03:16:37.905.03-Feb-2020 4017.01 3135.23 62.97 2.00 387.88 3025.96
   03:16:38.105.03-Feb-2020 4017.01 3134.95 62.97 2.00 388.08 3025.96
   03:16:38.305.03-Feb-2020 4017.01 3134.95 62.97 2.00 388.28 3025.96
   03:16:38.505.03-Feb-2020 4017.01 3135.39 62.97 2.00 388.48 3025.96
   03:16:38.705.03-Feb-2020 4017.01 3135.30 62.97 2.00 388.68 3025.96
   03:16:38.905.03-Feb-2020 4017.01 3135.27 62.97 2.00 388.88 3025.96
   03:16:39.105.03-Feb-2020 4017.01 3135.05 62.97 2.00 389.08 3025.96
   03:16:39.305.03-Feb-2020 4017.01 3135.05 62.97 2.00 389.28 3025.96
   03:16:39.505.03-Feb-2020 4017.01 3135.04 62.97 2.00 389.48 3025.96
   03:16:39.705.03-Feb-2020 4017.01 3135.36 62.97 2.00 389.68 3025.96
   03:16:39.905.03-Feb-2020 4017.01 3135.23 62.97 2.00 389.88 3025.96
   03:16:40.105.03-Feb-2020 4017.01 3135.27 62.97 2.00 390.08 3025.96
   03:16:40.305.03-Feb-2020 4017.01 3135.27 62.97 2.00 390.28 3025.96
   03:16:40.505.03-Feb-2020 4017.01 3135.62 62.96 2.00 390.48 3025.96
   03:16:40.705.03-Feb-2020 4017.01 3135.02 62.96 2.00 390.68 3025.96
   03:16:40.905.03-Feb-2020 4017.01 3135.40 62.96 2.00 390.88 3025.96
