~Version Information
 VERS.                  2.0:   CWLS log ASCII Standard -VERSION 2.0
 WRAP.                   NO:   One line per depth step
~Well Information Block
#MNEM.UNIT     VALUE/NAME     DESCRIPTION
#---------     -----------    ---------------------------
 STRT.S             08:33:17 03-Feb-20: START TIME 08:33:17 03-Feb-20
 STOP.S             08:41:10 03-Feb-20: STOP TIME  08:41:10 03-Feb-20
 STEP.S                   0.00: STEP TIME
 NULL.                 -999.25: NULL VALUE
 DFWT.                        :  DIST FWL TEXT
 DFST.                        :  DIST FSL TEXT
 DMF .             Drill Floor:  DRILL MEAS FROM
 STIM.      09.30.00 26-Dec-19:  START TIME
 DATE.      08.00.00 20-Jan-20:  END TIME
 SPUD.               23-Nov-19:  SPUD DATE
 NREF.                    Grid:  NORTH REFERENCE
 HPTY.       Minimum Curvature:  HOLE POS TYPE
 DMOD.             Drill Model:  DRILL MOD DESC
 SVYD.                  Survey:  SURVEY DESC
 ILTD.               Lithology:  INTERP LTH DESC
 FTOP.          Formation Tops:  FORM TOPS DESC
 SON .        AZ-XX-0906192647:  JOB NUMBER
 WTYP.                Deviated:  WELL TYPE
 COMP.     BP Exploration (Caspian Sea) Ltd:  COMPANY
 BASE.              Azerbaijan:  LOGGING EQUIPMENT BASE LOCATION
 REGN.                 Eurasia:  REGION
 FLD .                     ACG:  FIELD NAME
 SRVC.              KCA Deutag:  CONTRACTOR
 MWDS.                    Baku:  MWD SHOP
 WELL.     A10 (Slot 20) - SCP:  WELL NAME
 JOBN.        AZ-XX-0906192647:  JOB TICKET NUMB
 RIG .                 Chirag1:  RIG NAME
 DCON.     Halliburton Sperry Drilling:  DIRECTNL CONTR
 UNIT.                     N/A:  LOGGING EQUIPMENT ID
 PDAT.          Mean Sea Level:  PERMANENT DATUM
 MDS .        Operator Entered:  MAG DATA SOURCE
 CTRY.              Azerbaijan:  COUNTRY NAME
 UWI .            /AZE00000090:  UNIQUE WELL IDENTIFIER
 API .            /AZE00000090:  API NUMBER
 CNTY.                        :  COUNTY
 PROV.                        :  PROVINCE
 STAT.                        :  STATE
 LOC .                        :  LOCATION
 LMF .             Drill Floor:  LOG MEASURED FROM
 TVDS.m                  36.60:  TVDSS CORRECTN
 LATI.deg                40.08:  LATITUDE
 LONG.deg                51.24:  LONGITUDE
 WHNS.m                  -7.94:  WELL HEAD N/S
 WHEW.m                   1.56:  WELL HEAD E/W
 UTMX.m              520429.26:  UTM X
 UTMY.m             4438973.87:  UTM Y
 DFWL.m                   0.00:  DISTANCE FWL
 DFSL.m                   0.00:  DISTANCE FSL
 SDEP.m                1455.00:  START DEPTH
 TDD .m                4047.51:  TOTAL DEPTH (DRILLER)
 VSDR.deg               112.75:  VERT SEC DIRECT
 GVFD.g                   1.00:  GRAVITY FIELD
 MFLD.nT              50261.00:  MAGNETIC FIELD
 MDIP.deg                59.52:  MAGNETIC DIP
 MDEC.deg                 6.42:  MAGNETIC DECL
 GRDC.deg                 0.17:  GRID CORRECTION
 AZTC.deg                 6.25:  AZM TOTAL CORR
 EPD .m                   0.00:  ELEVATION
 EGL .m                   0.00:  GROUND ELEVATION
 WDMS.m                 121.00:  WD ELEV
 APD .m                  36.60:  DEPTH ABOVE PD
 AGAP.m                  36.60:  AIR GAP
 VSEW.m                   1.56:  VERT SEC E/W
 VSNS.m                  -7.94:  VERT SEC N/S
 DEP .m                1140.01:  DEPTH
 EKB .m                  36.60:  KB ELEVATION
 EDF .m                  36.60:  DF ELEVATION
 VSC .                       0:  VS TO CLOSURE
 MAGU.                 1849206:  MAGUTM CHECKSUM
~Parameter Information Block
#MNEM.UNIT       Value        Description
#---------     -----------    ---------------------------
 AV  .mps                 1.70:  Ann Velocity 
 AVMX.mps                 2.30:  Max Ann Veloc 
 AZIF.deg               137.03:  Azm, Final 
 BHAT.                   Other:  BHA Type 
 BROT.°/30m               0.80:  Build Rotating 
 BS  .in                  8.00:  Bit Size 
 BTPL.psig              161.00:  Bit Press Loss 
 CABU.                      No:  Customer Abuse 
 COMM.                     äör:  Run Comments 1 
 TCS .hr                  9.59:  Time Ciculation Ended 
 CV  .mps                 3.76:  Crit Velocity 
 CVMX.mps                 4.26:  Max Crit Veloc 
 DD1 .         Intigam Rahimov:  Direct Drillr 1 
 DD2 .          Rashad Gojayev:  Direct Drillr 2 
 DDSV.                   Other:  DD Service 
 DEFF.%                 100.00:  % Det Eff 
 DLRX.°/30m               1.44:  Dogleg Rot Max 
 DLSO.°/30m               0.00:  Dogleg Oriented 
 DLSX.°/30m               0.00:  Dogleg Str Max 
 DRET.      03.31.12 02-Feb-20:  Drill End Time 
 DRST.      03.31.12 02-Feb-20:  Drill Start Tim 
 DTIM.hr                  1.99:  Time Drilling 
 EDEP.m                4047.51:  End Depth 
 ENG1.           Eldar Hajiyev:  Engineer 1 
 ENG2.          Rasim Hashimov:  Engineer 2 
 ENG3.          Rustam Safarov:  Engineer 3 
 ETIM.      03.31.12 02-Feb-20:  End Time 
 FLOI.gpm               300.00:  Flow In 
 FLON.gpm               250.00:  Flow In Min 
 FLOS.cptm                0.00:  Fluid Loss 
 FLOX.gpm               330.00:  Flow In Max 
 HFLO.                      No:  High Flow 
 HPRE.                      No:  High Pressure 
 HTEM.                      No:  High Temp 
 HYDO.m                   2.50:  Hydro Offset 
 IFIN.deg                39.54:  Inc, Final 
 IMAX.deg                41.14:  Inc Max 
 IMIN.deg                39.81:  Inc Min 
 IMND.m                4005.21:  Inc Min Depth 
 IMXD.m                3948.42:  Inc Max Depth 
 JARR.                      No:  Jarring 
 LETM.      03.31.12 02-Feb-20:  Log End Time 
 LOST.hr                     0:  Lost Rig Time 
 LSTM.      03.31.12 02-Feb-20:  Log Start Time 
 MDCL.ppm             35000.00:  Mud Chlorides 
 MDES.     Inversion Oil/Synthetic:  Mud Desc 
 DFD .sg                  1.32:  Mud Density 
 MDMN.sg                  1.32:  Dens Mud Min 
 MDMX.sg                  1.32:  Dens Mud Max 
 MOIL.                      59:  Run Mud Oil % 
 MOWR.                   71:29:  Run Mud OWR 
 MSND.                       0:  Run Mud Sand % 
 MSOL.                      17:  Run Mud Solids% 
 DFV .spqt               86.00:  Mud Viscosity 
 MWOD.in                  4.75:  MWD Tool OD 
 MWSI.                      No:  Serv Intrp, MWD 
 OTIM.hr                 46.72:  Time Operating 
 PCON.           Look Like New:  Pad Condition 
 PMAX.psia             3300.00:  Press Op, Max 
 PV  .cP                 30.00:  Mud PV 
 RUN .                     400:  Run Number 
 ROPA.m/hr               35.00:  ROP Avg 
 ROPN.m/hr               25.00:  ROP Min 
 ROPX.m/hr               40.00:  ROP Max 
 RPMA.rpm                80.00:  RPM Surface Avg 
 RPMN.rpm                60.00:  RPM Surface Min 
 RPMX.rpm               100.00:  RPM Surface Max 
 RRUN.                     400:  Rig Run Number 
 RTIM.hr                  1.99:  Time Reaming 
 SAZI.deg               133.93:  Azm, Start 
 SDEP.m                4047.51:  Start Depth 
 SIDD.                      No:  Serv Intrp, DD 
 SINC.deg                40.28:  Inc, Start 
 SPPA.psig             3250.00:  SPP Avg 
 SPPN.psig             3200.00:  SPP Min 
 SPPX.psig             3300.00:  SPP Max 
 STIM.      03.31.12 02-Feb-20:  Start Time 
 SVCS.                 DD, MWD:  Services 
 SVER.                    9.20:  Sperry Version 
 TDAT.m                  47.00:  Tot Depth Attmp 
 TDDF.                      No:  Trip for DD 
 TFF .                      No:  Trip for Fail 
 TQAA.f-kp                0.00:  Torque Abs Avg 
 TQAN.f-kp                0.00:  Torque Abs Min 
 TQAX.f-kp                0.00:  Torque Abs Max 
 TRRT.°/30m               0.70:  Turn Rotating 
 MRT .                    HCIM:  Maximum Recorded Temperature 
 TTMX.degC               70.59:  Max Tool Temp 
 VS01.             90598770F11:  Virtual Str1 SN 
 VS02.             90598769F11:  Virtual Str2 SN 
 VS03.            90515978Z1W1:  Virtual Str3 SN 
 VS04.          90584144R12X14:  Virtual Str4 SN 
 WBMN.klb                 0.00:  WOB Min 
 WITN.            Peter Wilson:  Customer Rep 
 WOBA.klb                 0.00:  WOB Avg 
 WOBX.klb                 0.00:  WOB Max 
 YP  .lhf2               29.00:  Yield Point 
~Curve Information Block
#MNEM.UNIT                 API CODE     Curve Description
#---------               -----------    ---------------------------
 TIME.HHMMSS            00 000 000 000:  GT Time & Date
 GTDEPTH.m              00 000 000 000:  GT Depth
 GTPQH.psia             00 000 000 000:  GT HR Quartz Pressure
 GTTQ.degC              00 000 000 000:  GT Quartz Temperature
 GTTN.NONE              00 000 000 000:  GT Test Number
 GTET.sec               00 000 000 000:  GT Elapsed Test Time
 GTTVD.m                00 000 000 000:  GT True Vertical Depth
#Other Information
#
#WARRANTY: Halliburton will use its best efforts to furnish customers with 
#accurate information and interpretations that are part of, and incident to, the services 
#provided.  However, Halliburton cannot and does not warrant the accuracy 
#or correctness of such information and interpretations.  Under no circumstances should any 
#such information or interpretation be relied upon as the sole basis for any drilling, 
#completion, production, or financial decision or any procedure involving any risk to the 
#safety of any drilling venture, drilling rig or its crew or any other third party.  The 
#Customer has full responsibility for all drilling, completion and production operation.  
#Halliburton makes no representations or warranties, either expressed or 
#implied, including, but not limited to, the implied warranties of merchantability or fitness 
#for a particular purpose, with respect to the services rendered.  In no event will 
#Halliburton be liable for failure to obtain any particular results or for 
#any damages, including, but not limited to, indirect, special or consequential damages, 
#resulting from the use of any information or interpretation provided by Halliburton.
#
~A           TIME           GTDEPTH  GTPQH  GTTQ  GTTN   GTET   GTTVD  
# ...
   08:40:26.495.03-Feb-2020 4013.71 3132.44 64.38 11.00 429.41 3023.43
   08:40:26.695.03-Feb-2020 4013.71 3132.50 64.38 11.00 429.61 3023.43
   08:40:26.895.03-Feb-2020 4013.71 3132.48 64.38 11.00 429.81 3023.43
   08:40:27.095.03-Feb-2020 4013.71 3132.19 64.38 11.00 430.01 3023.43
   08:40:27.295.03-Feb-2020 4013.71 3132.19 64.38 11.00 430.21 3023.43
   08:40:27.495.03-Feb-2020 4013.71 3132.39 64.38 11.00 430.41 3023.43
   08:40:27.695.03-Feb-2020 4013.71 3132.53 64.38 11.00 430.61 3023.43
   08:40:27.895.03-Feb-2020 4013.71 3132.46 64.38 11.00 430.81 3023.43
   08:40:28.095.03-Feb-2020 4013.71 3132.46 64.38 11.00 431.01 3023.43
   08:40:28.295.03-Feb-2020 4013.71 3132.46 64.38 11.00 431.21 3023.43
   08:40:28.495.03-Feb-2020 4013.71 3132.47 64.38 11.00 431.41 3023.43
   08:40:28.695.03-Feb-2020 4013.71 3132.48 64.38 11.00 431.61 3023.43
   08:40:28.895.03-Feb-2020 4013.71 3132.48 64.38 11.00 431.81 3023.43
   08:40:29.095.03-Feb-2020 4013.71 3132.48 64.38 11.00 432.01 3023.43
   08:40:29.295.03-Feb-2020 4013.71 3132.48 64.38 11.00 432.21 3023.43
   08:40:29.495.03-Feb-2020 4013.71 3132.41 64.38 11.00 432.41 3023.43
   08:40:29.695.03-Feb-2020 4013.71 3132.42 64.38 11.00 432.61 3023.43
   08:40:29.895.03-Feb-2020 4013.71 3132.39 64.38 11.00 432.81 3023.43
   08:40:30.095.03-Feb-2020 4013.71 3132.58 64.38 11.00 433.01 3023.43
   08:40:30.295.03-Feb-2020 4013.71 3132.58 64.38 11.00 433.21 3023.43
   08:40:30.495.03-Feb-2020 4013.71 3132.48 64.38 11.00 433.41 3023.43
   08:40:30.695.03-Feb-2020 4013.71 3132.23 64.38 11.00 433.61 3023.43
   08:40:30.895.03-Feb-2020 4013.71 3132.66 64.38 11.00 433.81 3023.43
   08:40:31.095.03-Feb-2020 4013.71 3132.42 64.38 11.00 434.01 3023.43
   08:40:31.295.03-Feb-2020 4013.71 3132.42 64.38 11.00 434.21 3023.43
   08:40:31.495.03-Feb-2020 4013.71 3132.48 64.38 11.00 434.41 3023.43
   08:40:31.695.03-Feb-2020 4013.71 3132.42 64.38 11.00 434.61 3023.43
   08:40:31.895.03-Feb-2020 4013.71 3132.44 64.38 11.00 434.81 3023.43
   08:40:32.095.03-Feb-2020 4013.71 3132.44 64.38 11.00 435.01 3023.43
   08:40:32.295.03-Feb-2020 4013.71 3132.44 64.38 11.00 435.21 3023.43
   08:40:32.495.03-Feb-2020 4013.71 3132.51 64.38 11.00 435.41 3023.43
   08:40:32.695.03-Feb-2020 4013.71 3132.53 64.38 11.00 435.61 3023.43
   08:40:32.895.03-Feb-2020 4013.71 3132.30 64.38 11.00 435.81 3023.43
   08:40:33.095.03-Feb-2020 4013.71 3132.62 64.38 11.00 436.01 3023.43
   08:40:33.295.03-Feb-2020 4013.71 3132.62 64.38 11.00 436.21 3023.43
   08:40:33.495.03-Feb-2020 4013.71 3132.53 64.38 11.00 436.41 3023.43
   08:40:33.695.03-Feb-2020 4013.71 3132.52 64.38 11.00 436.61 3023.43
   08:40:33.895.03-Feb-2020 4013.71 3132.50 64.38 11.00 436.81 3023.43
   08:40:34.095.03-Feb-2020 4013.71 3132.49 64.38 11.00 437.01 3023.43
   08:40:34.295.03-Feb-2020 4013.71 3132.49 64.38 11.00 437.21 3023.43
   08:40:34.495.03-Feb-2020 4013.71 3132.44 64.38 11.00 437.41 3023.43
   08:40:34.695.03-Feb-2020 4013.71 3132.50 64.38 11.00 437.61 3023.43
   08:40:34.895.03-Feb-2020 4013.71 3132.52 64.38 11.00 437.81 3023.43
   08:40:35.095.03-Feb-2020 4013.71 3132.46 64.38 11.00 438.01 3023.43
   08:40:35.295.03-Feb-2020 4013.71 3132.46 64.38 11.00 438.21 3023.43
   08:40:35.495.03-Feb-2020 4013.71 3132.49 64.38 11.00 438.41 3023.43
   08:40:35.695.03-Feb-2020 4013.71 3132.45 64.38 11.00 438.61 3023.43
   08:40:35.895.03-Feb-2020 4013.71 3132.53 64.38 11.00 438.81 3023.43
   08:40:36.095.03-Feb-2020 4013.71 3132.51 64.38 11.00 439.01 3023.43
   08:40:36.295.03-Feb-2020 4013.71 3132.51 64.38 11.00 439.21 3023.43
   08:40:36.495.03-Feb-2020 4013.71 3132.55 64.38 11.00 439.41 3023.43
   08:40:36.695.03-Feb-2020 4013.71 3132.50 64.38 11.00 439.61 3023.43
   08:40:36.895.03-Feb-2020 4013.71 3132.57 64.38 11.00 439.81 3023.43
   08:40:37.095.03-Feb-2020 4013.71 3140.35 64.38 11.00 440.01 3023.43
   08:40:37.295.03-Feb-2020 4013.71 3140.35 64.38 11.00 440.21 3023.43
   08:40:37.495.03-Feb-2020 4013.71 3182.94 64.38 11.00 440.41 3023.43
   08:40:37.695.03-Feb-2020 4013.71 5308.47 64.38 11.00 440.61 3023.43
   08:40:37.895.03-Feb-2020 4013.71 6080.54 64.38 11.00 440.81 3023.43
   08:40:38.095.03-Feb-2020 4013.71 6081.06 64.38 11.00 441.01 3023.43
   08:40:38.295.03-Feb-2020 4013.71 6081.06 64.38 11.00 441.21 3023.43
   08:40:38.495.03-Feb-2020 4013.71 6080.51 64.38 11.00 441.41 3023.43
   08:40:38.695.03-Feb-2020 4013.71 6073.94 64.38 11.00 441.61 3023.43
   08:40:38.895.03-Feb-2020 4013.71 6080.99 64.38 11.00 441.81 3023.43
   08:40:39.095.03-Feb-2020 4013.71 6077.06 64.38 11.00 442.01 3023.43
   08:40:39.295.03-Feb-2020 4013.71 6077.06 64.38 11.00 442.21 3023.43
   08:40:39.495.03-Feb-2020 4013.71 6084.86 64.38 11.00 442.41 3023.43
   08:40:39.695.03-Feb-2020 4013.71 6085.22 64.38 11.00 442.61 3023.43
   08:40:39.895.03-Feb-2020 4013.71 6075.51 64.38 11.00 442.81 3023.43
   08:40:40.095.03-Feb-2020 4013.71 6087.15 64.38 11.00 443.01 3023.43
   08:40:40.295.03-Feb-2020 4013.71 6087.15 64.38 11.00 443.21 3023.43
   08:40:40.495.03-Feb-2020 4013.71 6088.36 64.38 11.00 443.41 3023.43
   08:40:40.695.03-Feb-2020 4013.71 6087.42 64.38 11.00 443.61 3023.43
   08:40:40.895.03-Feb-2020 4013.71 6079.67 64.38 11.00 443.81 3023.43
   08:40:41.095.03-Feb-2020 4013.71 6086.64 64.38 11.00 444.01 3023.43
   08:40:41.295.03-Feb-2020 4013.71 6086.64 64.38 11.00 444.21 3023.43
   08:40:41.495.03-Feb-2020 4013.71 6086.60 64.39 11.00 444.41 3023.43
   08:40:41.695.03-Feb-2020 4013.71 6087.85 64.39 11.00 444.61 3023.43
   08:40:41.895.03-Feb-2020 4013.71 6089.82 64.39 11.00 444.81 3023.43
   08:40:42.095.03-Feb-2020 4013.71 6077.44 64.39 11.00 445.01 3023.43
   08:40:42.295.03-Feb-2020 4013.71 6077.44 64.39 11.00 445.21 3023.43
   08:40:42.495.03-Feb-2020 4013.71 6081.57 64.39 11.00 445.41 3023.43
   08:40:42.695.03-Feb-2020 4013.71 6086.92 64.39 11.00 445.61 3023.43
   08:40:42.895.03-Feb-2020 4013.71 6088.03 64.39 11.00 445.81 3023.43
   08:40:43.095.03-Feb-2020 4013.71 6088.06 64.39 11.00 446.01 3023.43
   08:40:43.295.03-Feb-2020 4013.71 6088.06 64.39 11.00 446.21 3023.43
   08:40:43.495.03-Feb-2020 4013.71 6088.07 64.39 11.00 446.41 3023.43
   08:40:43.695.03-Feb-2020 4013.71 6085.91 64.40 11.00 446.61 3023.43
   08:40:43.895.03-Feb-2020 4013.71 6087.78 64.40 11.00 446.81 3023.43
   08:40:44.095.03-Feb-2020 4013.71 6088.68 64.40 11.00 447.01 3023.43
   08:40:44.295.03-Feb-2020 4013.71 6088.68 64.40 11.00 447.21 3023.43
   08:40:44.495.03-Feb-2020 4013.71 6088.00 64.40 11.00 447.41 3023.43
   08:40:44.695.03-Feb-2020 4013.71 6088.26 64.40 11.00 447.61 3023.43
   08:40:44.895.03-Feb-2020 4013.71 6086.60 64.40 11.00 447.81 3023.43
   08:40:45.095.03-Feb-2020 4013.71 6089.31 64.40 11.00 448.01 3023.43
   08:40:45.295.03-Feb-2020 4013.71 6089.31 64.40 11.00 448.21 3023.43
   08:40:45.495.03-Feb-2020 4013.71 6080.74 64.40 11.00 448.41 3023.43
   08:40:45.695.03-Feb-2020 4013.71 6084.93 64.40 11.00 448.61 3023.43
   08:40:45.895.03-Feb-2020 4013.71 6086.56 64.40 11.00 448.81 3023.43
   08:40:46.095.03-Feb-2020 4013.71 6086.88 64.40 11.00 449.01 3023.43
   08:40:46.295.03-Feb-2020 4013.71 6086.88 64.40 11.00 449.21 3023.43
   08:40:46.495.03-Feb-2020 4013.71 6086.79 64.40 11.00 449.41 3023.43
   08:40:46.695.03-Feb-2020 4013.71 6086.28 64.41 11.00 449.61 3023.43
   08:40:46.895.03-Feb-2020 4013.71 6087.69 64.41 11.00 449.81 3023.43
   08:40:47.095.03-Feb-2020 4013.71 6088.08 64.41 11.00 450.01 3023.43
   08:40:47.295.03-Feb-2020 4013.71 6088.08 64.41 11.00 450.21 3023.43
   08:40:47.495.03-Feb-2020 4013.71 6088.64 64.41 11.00 450.41 3023.43
   08:40:47.695.03-Feb-2020 4013.71 6087.68 64.41 11.00 450.61 3023.43
   08:40:47.895.03-Feb-2020 4013.71 6076.95 64.41 11.00 450.81 3023.43
   08:40:48.095.03-Feb-2020 4013.71 6089.88 64.41 11.00 451.01 3023.43
   08:40:48.295.03-Feb-2020 4013.71 6089.88 64.41 11.00 451.21 3023.43
   08:40:48.495.03-Feb-2020 4013.71 6090.60 64.41 11.00 451.41 3023.43
   08:40:48.695.03-Feb-2020 4013.71 6077.05 64.41 11.00 451.61 3023.43
   08:40:48.895.03-Feb-2020 4013.71 6089.91 64.41 11.00 451.81 3023.43
