~Version Information
 VERS.                  2.0:   CWLS log ASCII Standard -VERSION 2.0
 WRAP.                   NO:   One line per depth step
~Well Information Block
#MNEM.UNIT     VALUE/NAME     DESCRIPTION
#---------     -----------    ---------------------------
 STRT.S             19:03:38 27-Apr-21: START TIME 19:03:38 27-Apr-21
 STOP.S             19:10:06 27-Apr-21: STOP TIME  19:10:06 27-Apr-21
 STEP.S                   0.00: STEP TIME
 NULL.                 -999.25: NULL VALUE
 DFWT.                        :  DIST FWL TEXT
 DFST.                        :  DIST FSL TEXT
 DMF .             Drill Floor:  DRILL MEAS FROM
 STIM.      02.00.00 12-Apr-21:  START TIME
 DATE.      02.00.00 02-May-21:  END TIME
 SPUD.               09-Apr-21:  SPUD DATE
 NREF.                    Grid:  NORTH REFERENCE
 HPTY.       Minimum Curvature:  HOLE POS TYPE
 DMOD.             Drill Model:  DRILL MOD DESC
 SVYD.                  Survey:  SURVEY DESC
 ILTD.               Lithology:  INTERP LTH DESC
 FTOP.          Formation Tops:  FORM TOPS DESC
 PDAT.          Mean Sea Level:  PERMANENT DATUM
 FLD .                     ACG:  FIELD NAME
 SON .        AZ-XX-0907021034:  JOB NUMBER
 CTRY.              Azerbaijan:  COUNTRY NAME
 WELL.                    E01x:  WELL NAME
 COMP.     BP Exploration (Caspian Sea) LTD.:  COMPANY
 UWI .            /AZE00001403:  UNIQUE WELL IDENTIFIER
 API .            /AZE00001403:  API NUMBER
 WTYP.                Deviated:  WELL TYPE
 MDS .        Operator Entered:  MAG DATA SOURCE
 BASE.              Azerbaijan:  LOGGING EQUIPMENT BASE LOCATION
 REGN.                   EESSA:  REGION
 PROV.                    Baku:  PROVINCE
 STAT.                    Baku:  STATE NAME
 SRVC.          Turan Drilling:  CONTRACTOR
 MWDS.                    Baku:  MWD SHOP
 JOBN.        AZ-XX-0907021034:  JOB TICKET NUMB
 RIG .                     DWG:  RIG NAME
 DOE .                     N/A:  DOE NUMBER
 DCON.         Sperry Drilling:  DIRECTNL CONTR
 UNIT.                     N/A:  LOGGING EQUIPMENT ID
 CNTY.                        :  COUNTY
 LOC .                        :  LOCATION
 LMF .             Drill Floor:  LOG MEASURED FROM
 TVDS.m                  43.16:  TVDSS CORRECTN
 LATI.deg                40.17:  LATITUDE
 LONG.deg                51.17:  LONGITUDE
 WHNS.m                  -5.90:  WELL HEAD N/S
 WHEW.m                  -6.61:  WELL HEAD E/W
 UTMX.m              514337.95:  UTM X
 UTMY.m             4448627.46:  UTM Y
 DFWL.m                   0.00:  DISTANCE FWL
 DFSL.m                   0.00:  DISTANCE FSL
 SDEP.m                2606.87:  START DEPTH
 TDD .m                3618.01:  TOTAL DEPTH (DRILLER)
 VSDR.deg               177.42:  VERT SEC DIRECT
 GVFD.g                   1.00:  GRAVITY FIELD
 MFLD.nT              50399.00:  MAGNETIC FIELD
 MDIP.deg                59.67:  MAGNETIC DIP
 MDEC.deg                 6.56:  MAGNETIC DECL
 GRDC.deg                 0.11:  GRID CORRECTION
 AZTC.deg                 6.45:  AZM TOTAL CORR
 EPD .m                   0.00:  ELEVATION
 EGL .m                   0.00:  GROUND ELEVATION
 WDMS.m                 176.20:  WD ELEV
 APD .m                  43.16:  DEPTH ABOVE PD
 DEP .m                2606.87:  DEPTH
 AGAP.m                  43.16:  AIR GAP
 VSEW.m                  -6.61:  VERT SEC E/W
 VSNS.m                  -5.90:  VERT SEC N/S
 EKB .m                  43.16:  KB ELEVATION
 EDF .m                  43.16:  DF ELEVATION
 TDL .m                 438.00:  TOTAL DEPTH (LOGGER)
 VSC .                       0:  VS TO CLOSURE
 MAGU.                 1855490:  MAGUTM CHECKSUM
~Parameter Information Block
#MNEM.UNIT       Value        Description
#---------     -----------    ---------------------------
 AV  .mps                 2.20:  Ann Velocity 
 AVMX.mps                 2.50:  Max Ann Veloc 
 AZIF.deg               150.21:  Azm, Final 
 BHAT.        Rotary Steerable:  BHA Type 
 BROT.°/30m               0.08:  Build Rotating 
 BS  .in                  6.50:  Bit Size 
 BSZ .in                  6.50:  Bit Size 
 BTPL.psig              108.00:  Bit Press Loss 
 CABU.                     Yes:  Customer Abuse 
 CGEO.           Emin Aliyarli:  Customer Geo 
 COMM.                     LÊS:  Run Comments 1 
 TCS .hr                 74.20:  Time Ciculation Ended 
 CV  .mps                 3.63:  Crit Velocity 
 CVMX.mps                 3.66:  Max Crit Veloc 
 DD1 .         Intigam Rahimov:  Direct Drillr 1 
 DD2 .          Teymur Aghayev:  Direct Drillr 2 
 DDSV.               Geo-Pilot:  DD Service 
 DEFF.%                  97.00:  % Det Eff 
 DLRX.°/30m               1.63:  Dogleg Rot Max 
 DLSO.°/30m               0.00:  Dogleg Oriented 
 DLSX.°/30m               0.00:  Dogleg Str Max 
 DRET.      20.20.00 28-Apr-21:  Drill End Time 
 DRST.      04.45.00 26-Apr-21:  Drill Start Tim 
 DTIM.hr                 34.30:  Time Drilling 
 EDEP.m                3618.01:  End Depth 
 ENG1.           Amrah Tahirov:  Engineer 1 
 ENG2.         Bahruz Mehdiyev:  Engineer 2 
 ENG3.         Farhad Orujzade:  Engineer 3 
 ETIM.      19.00.00 29-Apr-21:  End Time 
 FLOI.gpm               370.00:  Flow In 
 FLON.gpm               300.00:  Flow In Min 
 FLOS.cptm                0.00:  Fluid Loss 
 FLOX.gpm               410.00:  Flow In Max 
 HFLO.                      No:  High Flow 
 HPRE.                      No:  High Pressure 
 HTEM.                      No:  High Temp 
 HYDO.m                   1.80:  Hydro Offset 
 IFIN.deg                67.19:  Inc, Final 
 IMAX.deg                68.42:  Inc Max 
 IMIN.deg                66.33:  Inc Min 
 IMND.m                3532.79:  Inc Min Depth 
 IMXD.m                3192.15:  Inc Max Depth 
 JARR.                      No:  Jarring 
 LETM.      20.20.00 28-Apr-21:  Log End Time 
 LOST.hr                     0:  Lost Rig Time 
 LSTM.      04.45.00 26-Apr-21:  Log Start Time 
 MDCL.ppm             36500.00:  Mud Chlorides 
 MDES.     Inversion Oil/Synthetic:  Mud Desc 
 DFD .sg                  1.42:  Mud Density 
 MDMN.sg                  1.42:  Dens Mud Min 
 MDMX.sg                  1.42:  Dens Mud Max 
 MOIL.                    55.7:  Run Mud Oil % 
 MOWR.                   71:29:  Run Mud OWR 
 MSND.                     0.1:  Run Mud Sand % 
 MSOL.                    19.9:  Run Mud Solids% 
 DFV .spqt               83.00:  Mud Viscosity 
 MWOD.in                  5.15:  MWD Tool OD 
 MWSI.                      No:  Serv Intrp, MWD 
 OTIM.hr                120.59:  Time Operating 
 PCON.           Look Like New:  Pad Condition 
 PMAX.psia            11292.93:  Press Op, Max 
 PV  .cP                 27.00:  Mud PV 
 RUN .                     400:  Run Number 
 ROPA.m/hr               14.00:  ROP Avg 
 ROPN.m/hr                9.00:  ROP Min 
 ROPX.m/hr               18.00:  ROP Max 
 RPMA.rpm               130.00:  RPM Surface Avg 
 RPMN.rpm               100.00:  RPM Surface Min 
 RPMX.rpm               140.00:  RPM Surface Max 
 RRUN.                    0400:  Rig Run Number 
 RTIM.hr                 38.60:  Time Reaming 
 SAZI.deg               149.55:  Azm, Start 
 SDEP.m                3180.01:  Start Depth 
 SIDD.                      No:  Serv Intrp, DD 
 SINC.deg                68.42:  Inc, Start 
 SPPA.psig             4400.00:  SPP Avg 
 SPPN.psig             3580.00:  SPP Min 
 SPPX.psig             4850.00:  SPP Max 
 STIM.      12.30.00 24-Apr-21:  Start Time 
 SVCS.                 DD, MWD:  Services 
 SVER.                    9.20:  Sperry Version 
 TDAT.m                 438.00:  Tot Depth Attmp 
 TDDF.                      No:  Trip for DD 
 TDLG.m                 438.00:  Tot Depth Loggd 
 TFF .                      No:  Trip for Fail 
 TQAA.f-kp               11.00:  Torque Abs Avg 
 TQAN.f-kp                9.00:  Torque Abs Min 
 TQAX.f-kp               14.00:  Torque Abs Max 
 TRRT.°/30m               0.04:  Turn Rotating 
 MRT .                    HCIM:  Maximum Recorded Temperature 
 TTMX.degC               84.31:  Max Tool Temp 
 VS01.                90521954:  Virtual Str1 SN 
 VS02.                90519327:  Virtual Str2 SN 
 VS03.                90522273:  Virtual Str3 SN 
 VS04.                11108038:  Virtual Str4 SN 
 VS05.                12258760:  Virtual Str5 SN 
 WBMN.klb                 1.00:  WOB Min 
 WITN.           Adil Mammadov:  Customer Rep 
 WITN.         Alex Yadullayev:  Customer Rep 2 
 WOBA.klb                 6.00:  WOB Avg 
 WOBX.klb                 9.00:  WOB Max 
 YP  .lhf2               31.00:  Yield Point 
~Curve Information Block
#MNEM.UNIT                 API CODE     Curve Description
#---------               -----------    ---------------------------
 TIME.HHMMSS            00 000 000 000:  GT Time & Date
 GTDEPTH.m              00 000 000 000:  GT Depth
 GTPQH.psia             00 000 000 000:  GT HR Quartz Pressure
 GTTQ.degC              00 000 000 000:  GT Quartz Temperature
 GTTN.NONE              00 000 000 000:  GT Test Number
 GTET.sec               00 000 000 000:  GT Elapsed Test Time
 GTTVD.m                00 000 000 000:  GT True Vertical Depth
#Other Information
#
#WARRANTY: Halliburton will use its best efforts to furnish customers with 
#accurate information and interpretations that are part of, and incident to, the services 
#provided.  However, Halliburton cannot and does not warrant the accuracy 
#or correctness of such information and interpretations.  Under no circumstances should any 
#such information or interpretation be relied upon as the sole basis for any drilling, 
#completion, production, or financial decision or any procedure involving any risk to the 
#safety of any drilling venture, drilling rig or its crew or any other third party.  The 
#Customer has full responsibility for all drilling, completion and production operation.  
#Halliburton makes no representations or warranties, either expressed or 
#implied, including, but not limited to, the implied warranties of merchantability or fitness 
#for a particular purpose, with respect to the services rendered.  In no event will 
#Halliburton be liable for failure to obtain any particular results or for 
#any damages, including, but not limited to, indirect, special or consequential damages, 
#resulting from the use of any information or interpretation provided by Halliburton.
#
~A           TIME           GTDEPTH  GTPQH  GTTQ  GTTN  GTET   GTTVD  
# ...
   19:05:33.655.27-Apr-2021 3392.01 3474.05 73.15 5.00 115.03 2716.87
   19:05:33.855.27-Apr-2021 3392.01 3474.05 73.15 5.00 115.23 2716.87
   19:05:34.055.27-Apr-2021 3392.01 3474.03 73.15 5.00 115.43 2716.87
   19:05:34.255.27-Apr-2021 3392.01 3474.08 73.14 5.00 115.63 2716.87
   19:05:34.455.27-Apr-2021 3392.01 3474.05 73.14 5.00 115.83 2716.87
   19:05:34.655.27-Apr-2021 3392.01 3474.07 73.14 5.00 116.03 2716.87
   19:05:34.855.27-Apr-2021 3392.01 3474.07 73.14 5.00 116.23 2716.87
   19:05:35.055.27-Apr-2021 3392.01 3474.06 73.14 5.00 116.43 2716.87
   19:05:35.255.27-Apr-2021 3392.01 3473.84 73.14 5.00 116.63 2716.87
   19:05:35.455.27-Apr-2021 3392.01 3474.11 73.14 5.00 116.83 2716.87
   19:05:35.655.27-Apr-2021 3392.01 3474.10 73.14 5.00 117.03 2716.87
   19:05:35.855.27-Apr-2021 3392.01 3474.10 73.14 5.00 117.23 2716.87
   19:05:36.056.27-Apr-2021 3392.01 3474.08 73.14 5.00 117.43 2716.87
   19:05:36.256.27-Apr-2021 3392.01 3474.02 73.14 5.00 117.63 2716.87
   19:05:36.456.27-Apr-2021 3392.01 3474.07 73.14 5.00 117.83 2716.87
   19:05:36.656.27-Apr-2021 3392.01 3474.03 73.14 5.00 118.03 2716.87
   19:05:36.856.27-Apr-2021 3392.01 3474.03 73.14 5.00 118.23 2716.87
   19:05:37.056.27-Apr-2021 3392.01 3474.02 73.14 5.00 118.43 2716.87
   19:05:37.256.27-Apr-2021 3392.01 3474.05 73.14 5.00 118.63 2716.87
   19:05:37.456.27-Apr-2021 3392.01 3474.02 73.14 5.00 118.83 2716.87
   19:05:37.656.27-Apr-2021 3392.01 3474.04 73.14 5.00 119.03 2716.87
   19:05:37.856.27-Apr-2021 3392.01 3474.04 73.14 5.00 119.23 2716.87
   19:05:38.056.27-Apr-2021 3392.01 3473.93 73.14 5.00 119.43 2716.87
   19:05:38.256.27-Apr-2021 3392.01 3474.06 73.13 5.00 119.63 2716.87
   19:05:38.456.27-Apr-2021 3392.01 3474.00 73.13 5.00 119.83 2716.87
   19:05:38.656.27-Apr-2021 3392.01 3474.06 73.13 5.00 120.03 2716.87
   19:05:38.856.27-Apr-2021 3392.01 3474.06 73.13 5.00 120.23 2716.87
   19:05:39.056.27-Apr-2021 3392.01 3473.85 73.13 5.00 120.43 2716.87
   19:05:39.256.27-Apr-2021 3392.01 3474.08 73.13 5.00 120.63 2716.87
   19:05:39.456.27-Apr-2021 3392.01 3474.04 73.13 5.00 120.83 2716.87
   19:05:39.656.27-Apr-2021 3392.01 3474.00 73.13 5.00 121.03 2716.87
   19:05:39.856.27-Apr-2021 3392.01 3474.00 73.13 5.00 121.23 2716.87
   19:05:40.056.27-Apr-2021 3392.01 3474.12 73.13 5.00 121.43 2716.87
   19:05:40.257.27-Apr-2021 3392.01 3473.99 73.13 5.00 121.63 2716.87
   19:05:40.457.27-Apr-2021 3392.01 3474.01 73.13 5.00 121.83 2716.87
   19:05:40.657.27-Apr-2021 3392.01 3474.00 73.13 5.00 122.03 2716.87
   19:05:40.857.27-Apr-2021 3392.01 3474.00 73.13 5.00 122.23 2716.87
   19:05:41.057.27-Apr-2021 3392.01 3473.80 73.13 5.00 122.43 2716.87
   19:05:41.257.27-Apr-2021 3392.01 3474.11 73.13 5.00 122.63 2716.87
   19:05:41.457.27-Apr-2021 3392.01 3474.04 73.13 5.00 122.83 2716.87
   19:05:41.657.27-Apr-2021 3392.01 3473.96 73.13 5.00 123.03 2716.87
   19:05:41.857.27-Apr-2021 3392.01 3473.96 73.13 5.00 123.23 2716.87
   19:05:42.057.27-Apr-2021 3392.01 3473.98 73.13 5.00 123.43 2716.87
   19:05:42.257.27-Apr-2021 3392.01 3474.02 73.12 5.00 123.63 2716.87
   19:05:42.457.27-Apr-2021 3392.01 3473.98 73.12 5.00 123.83 2716.87
   19:05:42.657.27-Apr-2021 3392.01 3474.00 73.12 5.00 124.03 2716.87
   19:05:42.857.27-Apr-2021 3392.01 3474.00 73.12 5.00 124.23 2716.87
   19:05:43.057.27-Apr-2021 3392.01 3474.01 73.12 5.00 124.43 2716.87
   19:05:43.257.27-Apr-2021 3392.01 3473.97 73.12 5.00 124.63 2716.87
   19:05:43.457.27-Apr-2021 3392.01 3473.99 73.12 5.00 124.83 2716.87
   19:05:43.657.27-Apr-2021 3392.01 3473.96 73.12 5.00 125.03 2716.87
   19:05:43.857.27-Apr-2021 3392.01 3473.96 73.12 5.00 125.23 2716.87
   19:05:44.057.27-Apr-2021 3392.01 3474.02 73.12 5.00 125.43 2716.87
   19:05:44.258.27-Apr-2021 3392.01 3473.95 73.12 5.00 125.63 2716.87
   19:05:44.458.27-Apr-2021 3392.01 3474.01 73.12 5.00 125.83 2716.87
   19:05:44.658.27-Apr-2021 3392.01 3473.97 73.12 5.00 126.03 2716.87
   19:05:44.858.27-Apr-2021 3392.01 3473.97 73.12 5.00 126.23 2716.87
   19:05:45.058.27-Apr-2021 3392.01 3473.97 73.12 5.00 126.43 2716.87
   19:05:45.258.27-Apr-2021 3392.01 3473.99 73.12 5.00 126.63 2716.87
   19:05:45.458.27-Apr-2021 3392.01 3473.97 73.12 5.00 126.83 2716.87
   19:05:45.658.27-Apr-2021 3392.01 3473.97 73.12 5.00 127.03 2716.87
   19:05:45.858.27-Apr-2021 3392.01 3473.97 73.12 5.00 127.23 2716.87
   19:05:46.058.27-Apr-2021 3392.01 3473.94 73.12 5.00 127.43 2716.87
   19:05:46.258.27-Apr-2021 3392.01 3474.01 73.11 5.00 127.63 2716.87
   19:05:46.458.27-Apr-2021 3392.01 3473.80 73.11 5.00 127.83 2716.87
   19:05:46.658.27-Apr-2021 3392.01 3474.03 73.11 5.00 128.03 2716.87
   19:05:46.858.27-Apr-2021 3392.01 3474.03 73.11 5.00 128.23 2716.87
   19:05:47.058.27-Apr-2021 3392.01 3473.94 73.11 5.00 128.43 2716.87
   19:05:47.258.27-Apr-2021 3392.01 3473.99 73.11 5.00 128.63 2716.87
   19:05:47.458.27-Apr-2021 3392.01 3473.92 73.11 5.00 128.83 2716.87
   19:05:47.658.27-Apr-2021 3392.01 3473.90 73.11 5.00 129.03 2716.87
   19:05:47.858.27-Apr-2021 3392.01 3473.90 73.11 5.00 129.23 2716.87
   19:05:48.058.27-Apr-2021 3392.01 3473.97 73.11 5.00 129.43 2716.87
   19:05:48.258.27-Apr-2021 3392.01 3473.95 73.11 5.00 129.63 2716.87
   19:05:48.459.27-Apr-2021 3392.01 3473.81 73.11 5.00 129.83 2716.87
   19:05:48.659.27-Apr-2021 3392.01 3474.00 73.11 5.00 130.03 2716.87
   19:05:48.859.27-Apr-2021 3392.01 3474.00 73.11 5.00 130.23 2716.87
   19:05:49.059.27-Apr-2021 3392.01 3469.78 73.11 5.00 130.43 2716.87
   19:05:49.259.27-Apr-2021 3392.01 3459.14 73.11 5.00 130.63 2716.87
   19:05:49.459.27-Apr-2021 3392.01 3458.86 73.11 5.00 130.83 2716.87
   19:05:49.659.27-Apr-2021 3392.01 3458.15 73.11 5.00 131.03 2716.87
   19:05:49.859.27-Apr-2021 3392.01 3458.15 73.11 5.00 131.23 2716.87
   19:05:50.059.27-Apr-2021 3392.01 3458.77 73.11 5.00 131.43 2716.87
   19:05:50.259.27-Apr-2021 3392.01 3458.62 73.11 5.00 131.63 2716.87
   19:05:50.459.27-Apr-2021 3392.01 3458.53 73.10 5.00 131.83 2716.87
   19:05:50.659.27-Apr-2021 3392.01 3458.57 73.10 5.00 132.03 2716.87
   19:05:50.859.27-Apr-2021 3392.01 3458.57 73.10 5.00 132.23 2716.87
   19:05:51.059.27-Apr-2021 3392.01 3458.52 73.10 5.00 132.43 2716.87
   19:05:51.259.27-Apr-2021 3392.01 3458.52 73.10 5.00 132.63 2716.87
   19:05:51.459.27-Apr-2021 3392.01 3458.44 73.10 5.00 132.83 2716.87
   19:05:51.659.27-Apr-2021 3392.01 3458.36 73.10 5.00 133.03 2716.87
   19:05:51.859.27-Apr-2021 3392.01 3458.36 73.10 5.00 133.23 2716.87
   19:05:52.059.27-Apr-2021 3392.01 3458.24 73.10 5.00 133.43 2716.87
   19:05:52.259.27-Apr-2021 3392.01 3457.89 73.10 5.00 133.63 2716.87
   19:05:52.460.27-Apr-2021 3392.01 3458.30 73.10 5.00 133.83 2716.87
   19:05:52.660.27-Apr-2021 3392.01 3458.25 73.10 5.00 134.03 2716.87
   19:05:52.860.27-Apr-2021 3392.01 3458.25 73.10 5.00 134.23 2716.87
   19:05:53.060.27-Apr-2021 3392.01 3458.26 73.10 5.00 134.43 2716.87
   19:05:53.260.27-Apr-2021 3392.01 3458.05 73.10 5.00 134.63 2716.87
   19:05:53.460.27-Apr-2021 3392.01 3458.11 73.10 5.00 134.83 2716.87
   19:05:53.660.27-Apr-2021 3392.01 3458.10 73.10 5.00 135.03 2716.87
   19:05:53.860.27-Apr-2021 3392.01 3458.10 73.10 5.00 135.23 2716.87
   19:05:54.060.27-Apr-2021 3392.01 3458.07 73.10 5.00 135.43 2716.87
   19:05:54.260.27-Apr-2021 3392.01 3458.33 73.10 5.00 135.63 2716.87
   19:05:54.460.27-Apr-2021 3392.01 3457.99 73.09 5.00 135.83 2716.87
   19:05:54.660.27-Apr-2021 3392.01 3458.29 73.09 5.00 136.03 2716.87
   19:05:54.860.27-Apr-2021 3392.01 3458.29 73.09 5.00 136.23 2716.87
   19:05:55.060.27-Apr-2021 3392.01 3457.79 73.09 5.00 136.43 2716.87
   19:05:55.260.27-Apr-2021 3392.01 3458.51 73.09 5.00 136.63 2716.87
   19:05:55.460.27-Apr-2021 3392.01 3458.10 73.09 5.00 136.83 2716.87
   19:05:55.660.27-Apr-2021 3392.01 3458.06 73.09 5.00 137.03 2716.87
   19:05:55.860.27-Apr-2021 3392.01 3458.06 73.09 5.00 137.23 2716.87
   19:05:56.060.27-Apr-2021 3392.01 3457.77 73.09 5.00 137.43 2716.87
   19:05:56.260.27-Apr-2021 3392.01 3458.19 73.09 5.00 137.63 2716.87
   19:05:56.460.27-Apr-2021 3392.01 3458.30 73.09 5.00 137.83 2716.87
