~Version Information
 VERS.                  2.0:   CWLS log ASCII Standard -VERSION 2.0
 WRAP.                   NO:   One line per depth step
~Well Information Block
#MNEM.UNIT     VALUE/NAME     DESCRIPTION
#---------     -----------    ---------------------------
 STRT.S             18:57:18 28-Apr-21: START TIME 18:57:18 28-Apr-21
 STOP.S             19:03:45 28-Apr-21: STOP TIME  19:03:45 28-Apr-21
 STEP.S                   0.00: STEP TIME
 NULL.                 -999.25: NULL VALUE
 DFWT.                        :  DIST FWL TEXT
 DFST.                        :  DIST FSL TEXT
 DMF .             Drill Floor:  DRILL MEAS FROM
 STIM.      02.00.00 12-Apr-21:  START TIME
 DATE.      02.00.00 02-May-21:  END TIME
 SPUD.               09-Apr-21:  SPUD DATE
 NREF.                    Grid:  NORTH REFERENCE
 HPTY.       Minimum Curvature:  HOLE POS TYPE
 DMOD.             Drill Model:  DRILL MOD DESC
 SVYD.                  Survey:  SURVEY DESC
 ILTD.               Lithology:  INTERP LTH DESC
 FTOP.          Formation Tops:  FORM TOPS DESC
 PDAT.          Mean Sea Level:  PERMANENT DATUM
 FLD .                     ACG:  FIELD NAME
 SON .        AZ-XX-0907021034:  JOB NUMBER
 CTRY.              Azerbaijan:  COUNTRY NAME
 WELL.                    E01x:  WELL NAME
 COMP.     BP Exploration (Caspian Sea) LTD.:  COMPANY
 UWI .            /AZE00001403:  UNIQUE WELL IDENTIFIER
 API .            /AZE00001403:  API NUMBER
 WTYP.                Deviated:  WELL TYPE
 MDS .        Operator Entered:  MAG DATA SOURCE
 BASE.              Azerbaijan:  LOGGING EQUIPMENT BASE LOCATION
 REGN.                   EESSA:  REGION
 PROV.                    Baku:  PROVINCE
 STAT.                    Baku:  STATE NAME
 SRVC.          Turan Drilling:  CONTRACTOR
 MWDS.                    Baku:  MWD SHOP
 JOBN.        AZ-XX-0907021034:  JOB TICKET NUMB
 RIG .                     DWG:  RIG NAME
 DOE .                     N/A:  DOE NUMBER
 DCON.         Sperry Drilling:  DIRECTNL CONTR
 UNIT.                     N/A:  LOGGING EQUIPMENT ID
 CNTY.                        :  COUNTY
 LOC .                        :  LOCATION
 LMF .             Drill Floor:  LOG MEASURED FROM
 TVDS.m                  43.16:  TVDSS CORRECTN
 LATI.deg                40.17:  LATITUDE
 LONG.deg                51.17:  LONGITUDE
 WHNS.m                  -5.90:  WELL HEAD N/S
 WHEW.m                  -6.61:  WELL HEAD E/W
 UTMX.m              514337.95:  UTM X
 UTMY.m             4448627.46:  UTM Y
 DFWL.m                   0.00:  DISTANCE FWL
 DFSL.m                   0.00:  DISTANCE FSL
 SDEP.m                2606.87:  START DEPTH
 TDD .m                3618.01:  TOTAL DEPTH (DRILLER)
 VSDR.deg               177.42:  VERT SEC DIRECT
 GVFD.g                   1.00:  GRAVITY FIELD
 MFLD.nT              50399.00:  MAGNETIC FIELD
 MDIP.deg                59.67:  MAGNETIC DIP
 MDEC.deg                 6.56:  MAGNETIC DECL
 GRDC.deg                 0.11:  GRID CORRECTION
 AZTC.deg                 6.45:  AZM TOTAL CORR
 EPD .m                   0.00:  ELEVATION
 EGL .m                   0.00:  GROUND ELEVATION
 WDMS.m                 176.20:  WD ELEV
 APD .m                  43.16:  DEPTH ABOVE PD
 DEP .m                2606.87:  DEPTH
 AGAP.m                  43.16:  AIR GAP
 VSEW.m                  -6.61:  VERT SEC E/W
 VSNS.m                  -5.90:  VERT SEC N/S
 EKB .m                  43.16:  KB ELEVATION
 EDF .m                  43.16:  DF ELEVATION
 TDL .m                 438.00:  TOTAL DEPTH (LOGGER)
 VSC .                       0:  VS TO CLOSURE
 MAGU.                 1855490:  MAGUTM CHECKSUM
~Parameter Information Block
#MNEM.UNIT       Value        Description
#---------     -----------    ---------------------------
 AV  .mps                 2.20:  Ann Velocity 
 AVMX.mps                 2.50:  Max Ann Veloc 
 AZIF.deg               150.21:  Azm, Final 
 BHAT.        Rotary Steerable:  BHA Type 
 BROT.°/30m               0.08:  Build Rotating 
 BS  .in                  6.50:  Bit Size 
 BSZ .in                  6.50:  Bit Size 
 BTPL.psig              108.00:  Bit Press Loss 
 CABU.                     Yes:  Customer Abuse 
 CGEO.           Emin Aliyarli:  Customer Geo 
 COMM.                     ´âi:  Run Comments 1 
 TCS .hr                 74.20:  Time Ciculation Ended 
 CV  .mps                 3.63:  Crit Velocity 
 CVMX.mps                 3.66:  Max Crit Veloc 
 DD1 .         Intigam Rahimov:  Direct Drillr 1 
 DD2 .          Teymur Aghayev:  Direct Drillr 2 
 DDSV.               Geo-Pilot:  DD Service 
 DEFF.%                  97.00:  % Det Eff 
 DLRX.°/30m               1.63:  Dogleg Rot Max 
 DLSO.°/30m               0.00:  Dogleg Oriented 
 DLSX.°/30m               0.00:  Dogleg Str Max 
 DRET.      20.20.00 28-Apr-21:  Drill End Time 
 DRST.      04.45.00 26-Apr-21:  Drill Start Tim 
 DTIM.hr                 34.30:  Time Drilling 
 EDEP.m                3618.01:  End Depth 
 ENG1.           Amrah Tahirov:  Engineer 1 
 ENG2.         Bahruz Mehdiyev:  Engineer 2 
 ENG3.         Farhad Orujzade:  Engineer 3 
 ETIM.      19.00.00 29-Apr-21:  End Time 
 FLOI.gpm               370.00:  Flow In 
 FLON.gpm               300.00:  Flow In Min 
 FLOS.cptm                0.00:  Fluid Loss 
 FLOX.gpm               410.00:  Flow In Max 
 HFLO.                      No:  High Flow 
 HPRE.                      No:  High Pressure 
 HTEM.                      No:  High Temp 
 HYDO.m                   1.80:  Hydro Offset 
 IFIN.deg                67.19:  Inc, Final 
 IMAX.deg                68.42:  Inc Max 
 IMIN.deg                66.33:  Inc Min 
 IMND.m                3532.79:  Inc Min Depth 
 IMXD.m                3192.15:  Inc Max Depth 
 JARR.                      No:  Jarring 
 LETM.      20.20.00 28-Apr-21:  Log End Time 
 LOST.hr                     0:  Lost Rig Time 
 LSTM.      04.45.00 26-Apr-21:  Log Start Time 
 MDCL.ppm             36500.00:  Mud Chlorides 
 MDES.     Inversion Oil/Synthetic:  Mud Desc 
 DFD .sg                  1.42:  Mud Density 
 MDMN.sg                  1.42:  Dens Mud Min 
 MDMX.sg                  1.42:  Dens Mud Max 
 MOIL.                    55.7:  Run Mud Oil % 
 MOWR.                   71:29:  Run Mud OWR 
 MSND.                     0.1:  Run Mud Sand % 
 MSOL.                    19.9:  Run Mud Solids% 
 DFV .spqt               83.00:  Mud Viscosity 
 MWOD.in                  5.15:  MWD Tool OD 
 MWSI.                      No:  Serv Intrp, MWD 
 OTIM.hr                120.59:  Time Operating 
 PCON.           Look Like New:  Pad Condition 
 PMAX.psia            11292.93:  Press Op, Max 
 PV  .cP                 27.00:  Mud PV 
 RUN .                     400:  Run Number 
 ROPA.m/hr               14.00:  ROP Avg 
 ROPN.m/hr                9.00:  ROP Min 
 ROPX.m/hr               18.00:  ROP Max 
 RPMA.rpm               130.00:  RPM Surface Avg 
 RPMN.rpm               100.00:  RPM Surface Min 
 RPMX.rpm               140.00:  RPM Surface Max 
 RRUN.                    0400:  Rig Run Number 
 RTIM.hr                 38.60:  Time Reaming 
 SAZI.deg               149.55:  Azm, Start 
 SDEP.m                3180.01:  Start Depth 
 SIDD.                      No:  Serv Intrp, DD 
 SINC.deg                68.42:  Inc, Start 
 SPPA.psig             4400.00:  SPP Avg 
 SPPN.psig             3580.00:  SPP Min 
 SPPX.psig             4850.00:  SPP Max 
 STIM.      12.30.00 24-Apr-21:  Start Time 
 SVCS.                 DD, MWD:  Services 
 SVER.                    9.20:  Sperry Version 
 TDAT.m                 438.00:  Tot Depth Attmp 
 TDDF.                      No:  Trip for DD 
 TDLG.m                 438.00:  Tot Depth Loggd 
 TFF .                      No:  Trip for Fail 
 TQAA.f-kp               11.00:  Torque Abs Avg 
 TQAN.f-kp                9.00:  Torque Abs Min 
 TQAX.f-kp               14.00:  Torque Abs Max 
 TRRT.°/30m               0.04:  Turn Rotating 
 MRT .                    HCIM:  Maximum Recorded Temperature 
 TTMX.degC               84.31:  Max Tool Temp 
 VS01.                90521954:  Virtual Str1 SN 
 VS02.                90519327:  Virtual Str2 SN 
 VS03.                90522273:  Virtual Str3 SN 
 VS04.                11108038:  Virtual Str4 SN 
 VS05.                12258760:  Virtual Str5 SN 
 WBMN.klb                 1.00:  WOB Min 
 WITN.           Adil Mammadov:  Customer Rep 
 WITN.         Alex Yadullayev:  Customer Rep 2 
 WOBA.klb                 6.00:  WOB Avg 
 WOBX.klb                 9.00:  WOB Max 
 YP  .lhf2               31.00:  Yield Point 
~Curve Information Block
#MNEM.UNIT                 API CODE     Curve Description
#---------               -----------    ---------------------------
 TIME.HHMMSS            00 000 000 000:  GT Time & Date
 GTDEPTH.m              00 000 000 000:  GT Depth
 GTPQH.psia             00 000 000 000:  GT HR Quartz Pressure
 GTTQ.degC              00 000 000 000:  GT Quartz Temperature
 GTTN.NONE              00 000 000 000:  GT Test Number
 GTET.sec               00 000 000 000:  GT Elapsed Test Time
 GTTVD.m                00 000 000 000:  GT True Vertical Depth
#Other Information
#
#WARRANTY: Halliburton will use its best efforts to furnish customers with 
#accurate information and interpretations that are part of, and incident to, the services 
#provided.  However, Halliburton cannot and does not warrant the accuracy 
#or correctness of such information and interpretations.  Under no circumstances should any 
#such information or interpretation be relied upon as the sole basis for any drilling, 
#completion, production, or financial decision or any procedure involving any risk to the 
#safety of any drilling venture, drilling rig or its crew or any other third party.  The 
#Customer has full responsibility for all drilling, completion and production operation.  
#Halliburton makes no representations or warranties, either expressed or 
#implied, including, but not limited to, the implied warranties of merchantability or fitness 
#for a particular purpose, with respect to the services rendered.  In no event will 
#Halliburton be liable for failure to obtain any particular results or for 
#any damages, including, but not limited to, indirect, special or consequential damages, 
#resulting from the use of any information or interpretation provided by Halliburton.
#
~A           TIME           GTDEPTH  GTPQH  GTTQ  GTTN   GTET   GTTVD  
# ...
   18:59:56.480.28-Apr-2021 3565.01 4084.13 75.17 11.00 158.25 2784.87
   18:59:56.680.28-Apr-2021 3565.01 4084.10 75.17 11.00 158.45 2784.87
   18:59:56.880.28-Apr-2021 3565.01 4084.05 75.17 11.00 158.65 2784.87
   18:59:57.080.28-Apr-2021 3565.01 4084.08 75.17 11.00 158.85 2784.87
   18:59:57.280.28-Apr-2021 3565.01 4084.10 75.17 11.00 159.05 2784.87
   18:59:57.480.28-Apr-2021 3565.01 4084.10 75.17 11.00 159.25 2784.87
   18:59:57.680.28-Apr-2021 3565.01 4084.08 75.17 11.00 159.45 2784.87
   18:59:57.880.28-Apr-2021 3565.01 4084.06 75.17 11.00 159.65 2784.87
   18:59:58.080.28-Apr-2021 3565.01 4084.07 75.17 11.00 159.85 2784.87
   18:59:58.280.28-Apr-2021 3565.01 4084.06 75.17 11.00 160.05 2784.87
   18:59:58.480.28-Apr-2021 3565.01 4084.06 75.17 11.00 160.25 2784.87
   18:59:58.680.28-Apr-2021 3565.01 4083.90 75.17 11.00 160.45 2784.87
   18:59:58.880.28-Apr-2021 3565.01 4084.11 75.17 11.00 160.65 2784.87
   18:59:59.080.28-Apr-2021 3565.01 4084.09 75.17 11.00 160.85 2784.87
   18:59:59.280.28-Apr-2021 3565.01 4084.09 75.17 11.00 161.05 2784.87
   18:59:59.481.28-Apr-2021 3565.01 4084.09 75.17 11.00 161.25 2784.87
   18:59:59.681.28-Apr-2021 3565.01 4084.03 75.17 11.00 161.45 2784.87
   18:59:59.881.28-Apr-2021 3565.01 4083.94 75.16 11.00 161.65 2784.87
   19:00:00.081.28-Apr-2021 3565.01 4084.15 75.16 11.00 161.85 2784.87
   19:00:00.281.28-Apr-2021 3565.01 4084.10 75.16 11.00 162.05 2784.87
   19:00:00.481.28-Apr-2021 3565.01 4084.10 75.16 11.00 162.25 2784.87
   19:00:00.681.28-Apr-2021 3565.01 4084.06 75.16 11.00 162.45 2784.87
   19:00:00.881.28-Apr-2021 3565.01 4084.06 75.16 11.00 162.65 2784.87
   19:00:01.081.28-Apr-2021 3565.01 4083.98 75.16 11.00 162.85 2784.87
   19:00:01.281.28-Apr-2021 3565.01 4084.07 75.16 11.00 163.05 2784.87
   19:00:01.481.28-Apr-2021 3565.01 4084.07 75.16 11.00 163.25 2784.87
   19:00:01.681.28-Apr-2021 3565.01 4084.12 75.16 11.00 163.45 2784.87
   19:00:01.881.28-Apr-2021 3565.01 4084.06 75.16 11.00 163.65 2784.87
   19:00:02.081.28-Apr-2021 3565.01 4084.05 75.16 11.00 163.85 2784.87
   19:00:02.281.28-Apr-2021 3565.01 4084.06 75.16 11.00 164.05 2784.87
   19:00:02.481.28-Apr-2021 3565.01 4084.06 75.16 11.00 164.25 2784.87
   19:00:02.681.28-Apr-2021 3565.01 4084.14 75.16 11.00 164.45 2784.87
   19:00:02.882.28-Apr-2021 3565.01 4084.09 75.16 11.00 164.65 2784.87
   19:00:03.082.28-Apr-2021 3565.01 4084.08 75.16 11.00 164.85 2784.87
   19:00:03.282.28-Apr-2021 3565.01 4084.06 75.16 11.00 165.05 2784.87
   19:00:03.482.28-Apr-2021 3565.01 4084.06 75.16 11.00 165.25 2784.87
   19:00:03.682.28-Apr-2021 3565.01 4084.11 75.15 11.00 165.45 2784.87
   19:00:03.882.28-Apr-2021 3565.01 4084.05 75.15 11.00 165.65 2784.87
   19:00:04.082.28-Apr-2021 3565.01 4084.07 75.15 11.00 165.85 2784.87
   19:00:04.282.28-Apr-2021 3565.01 4084.04 75.15 11.00 166.05 2784.87
   19:00:04.482.28-Apr-2021 3565.01 4084.04 75.15 11.00 166.25 2784.87
   19:00:04.682.28-Apr-2021 3565.01 4084.06 75.15 11.00 166.45 2784.87
   19:00:04.882.28-Apr-2021 3565.01 4084.04 75.15 11.00 166.65 2784.87
   19:00:05.082.28-Apr-2021 3565.01 4083.91 75.15 11.00 166.85 2784.87
   19:00:05.282.28-Apr-2021 3565.01 4084.09 75.15 11.00 167.05 2784.87
   19:00:05.482.28-Apr-2021 3565.01 4084.09 75.15 11.00 167.25 2784.87
   19:00:05.682.28-Apr-2021 3565.01 4084.09 75.15 11.00 167.45 2784.87
   19:00:05.882.28-Apr-2021 3565.01 4084.07 75.15 11.00 167.65 2784.87
   19:00:06.082.28-Apr-2021 3565.01 4084.02 75.15 11.00 167.85 2784.87
   19:00:06.283.28-Apr-2021 3565.01 4084.06 75.15 11.00 168.05 2784.87
   19:00:06.483.28-Apr-2021 3565.01 4084.06 75.15 11.00 168.25 2784.87
   19:00:06.683.28-Apr-2021 3565.01 4084.06 75.15 11.00 168.45 2784.87
   19:00:06.883.28-Apr-2021 3565.01 4084.07 75.15 11.00 168.65 2784.87
   19:00:07.083.28-Apr-2021 3565.01 4084.02 75.15 11.00 168.85 2784.87
   19:00:07.283.28-Apr-2021 3565.01 4084.04 75.14 11.00 169.05 2784.87
   19:00:07.483.28-Apr-2021 3565.01 4084.04 75.14 11.00 169.25 2784.87
   19:00:07.683.28-Apr-2021 3565.01 4084.05 75.14 11.00 169.45 2784.87
   19:00:07.883.28-Apr-2021 3565.01 4083.85 75.14 11.00 169.65 2784.87
   19:00:08.083.28-Apr-2021 3565.01 4084.13 75.14 11.00 169.85 2784.87
   19:00:08.283.28-Apr-2021 3565.01 4084.10 75.14 11.00 170.05 2784.87
   19:00:08.483.28-Apr-2021 3565.01 4084.10 75.14 11.00 170.25 2784.87
   19:00:08.683.28-Apr-2021 3565.01 4084.08 75.14 11.00 170.45 2784.87
   19:00:08.883.28-Apr-2021 3565.01 4084.02 75.14 11.00 170.65 2784.87
   19:00:09.083.28-Apr-2021 3565.01 4083.84 75.14 11.00 170.85 2784.87
   19:00:09.283.28-Apr-2021 3565.01 4084.19 75.14 11.00 171.05 2784.87
   19:00:09.483.28-Apr-2021 3565.01 4084.19 75.14 11.00 171.25 2784.87
   19:00:09.684.28-Apr-2021 3565.01 4084.08 75.14 11.00 171.45 2784.87
   19:00:09.884.28-Apr-2021 3565.01 4084.03 75.14 11.00 171.65 2784.87
   19:00:10.084.28-Apr-2021 3565.01 4084.03 75.14 11.00 171.85 2784.87
   19:00:10.284.28-Apr-2021 3565.01 4083.92 75.14 11.00 172.05 2784.87
   19:00:10.484.28-Apr-2021 3565.01 4083.92 75.14 11.00 172.25 2784.87
   19:00:10.684.28-Apr-2021 3565.01 4084.06 75.14 11.00 172.45 2784.87
   19:00:10.884.28-Apr-2021 3565.01 4084.06 75.13 11.00 172.65 2784.87
   19:00:11.084.28-Apr-2021 3565.01 4084.06 75.13 11.00 172.85 2784.87
   19:00:11.284.28-Apr-2021 3565.01 4084.01 75.13 11.00 173.05 2784.87
   19:00:11.484.28-Apr-2021 3565.01 4084.01 75.13 11.00 173.25 2784.87
   19:00:11.684.28-Apr-2021 3565.01 4084.09 75.13 11.00 173.45 2784.87
   19:00:11.884.28-Apr-2021 3565.01 4084.05 75.13 11.00 173.65 2784.87
   19:00:12.084.28-Apr-2021 3565.01 4084.09 75.13 11.00 173.85 2784.87
   19:00:12.284.28-Apr-2021 3565.01 4084.03 75.13 11.00 174.05 2784.87
   19:00:12.484.28-Apr-2021 3565.01 4084.03 75.13 11.00 174.25 2784.87
   19:00:12.684.28-Apr-2021 3565.01 4084.06 75.13 11.00 174.45 2784.87
   19:00:12.885.28-Apr-2021 3565.01 4084.07 75.13 11.00 174.65 2784.87
   19:00:13.085.28-Apr-2021 3565.01 4084.03 75.13 11.00 174.85 2784.87
   19:00:13.285.28-Apr-2021 3565.01 4084.03 75.13 11.00 175.05 2784.87
   19:00:13.485.28-Apr-2021 3565.01 4084.03 75.13 11.00 175.25 2784.87
   19:00:13.685.28-Apr-2021 3565.01 4084.02 75.13 11.00 175.45 2784.87
   19:00:13.885.28-Apr-2021 3565.01 4084.05 75.13 11.00 175.65 2784.87
   19:00:14.085.28-Apr-2021 3565.01 4084.01 75.13 11.00 175.85 2784.87
   19:00:14.285.28-Apr-2021 3565.01 4083.82 75.13 11.00 176.05 2784.87
   19:00:14.485.28-Apr-2021 3565.01 4083.82 75.13 11.00 176.25 2784.87
   19:00:14.685.28-Apr-2021 3565.01 4084.05 75.12 11.00 176.45 2784.87
   19:00:14.885.28-Apr-2021 3565.01 4084.06 75.12 11.00 176.65 2784.87
   19:00:15.085.28-Apr-2021 3565.01 4084.03 75.12 11.00 176.85 2784.87
   19:00:15.285.28-Apr-2021 3565.01 4084.00 75.12 11.00 177.05 2784.87
   19:00:15.485.28-Apr-2021 3565.01 4084.00 75.12 11.00 177.25 2784.87
   19:00:15.685.28-Apr-2021 3565.01 4084.05 75.12 11.00 177.45 2784.87
   19:00:15.885.28-Apr-2021 3565.01 4084.02 75.12 11.00 177.65 2784.87
   19:00:16.085.28-Apr-2021 3565.01 4084.02 75.12 11.00 177.85 2784.87
   19:00:16.286.28-Apr-2021 3565.01 4084.00 75.12 11.00 178.05 2784.87
   19:00:16.486.28-Apr-2021 3565.01 4084.00 75.12 11.00 178.25 2784.87
   19:00:16.686.28-Apr-2021 3565.01 4084.05 75.12 11.00 178.45 2784.87
   19:00:16.886.28-Apr-2021 3565.01 4083.99 75.12 11.00 178.65 2784.87
   19:00:17.086.28-Apr-2021 3565.01 4083.86 75.12 11.00 178.85 2784.87
   19:00:17.286.28-Apr-2021 3565.01 4084.08 75.12 11.00 179.05 2784.87
   19:00:17.486.28-Apr-2021 3565.01 4084.08 75.12 11.00 179.25 2784.87
   19:00:17.686.28-Apr-2021 3565.01 4084.04 75.12 11.00 179.45 2784.87
   19:00:17.886.28-Apr-2021 3565.01 4084.01 75.12 11.00 179.65 2784.87
   19:00:18.086.28-Apr-2021 3565.01 4083.98 75.12 11.00 179.85 2784.87
   19:00:18.286.28-Apr-2021 3565.01 4083.92 75.11 11.00 180.05 2784.87
   19:00:18.486.28-Apr-2021 3565.01 4083.92 75.11 11.00 180.25 2784.87
   19:00:18.686.28-Apr-2021 3565.01 4084.07 75.11 11.00 180.45 2784.87
   19:00:18.886.28-Apr-2021 3565.01 4084.02 75.11 11.00 180.65 2784.87
