~Version Information
 VERS.                  2.0:   CWLS log ASCII Standard -VERSION 2.0
 WRAP.                   NO:   One line per depth step
~Well Information Block
#MNEM.UNIT     VALUE/NAME     DESCRIPTION
#---------     -----------    ---------------------------
 STRT.S             19:03:38 27-Apr-21: START TIME 19:03:38 27-Apr-21
 STOP.S             19:10:06 27-Apr-21: STOP TIME  19:10:06 27-Apr-21
 STEP.S                   0.00: STEP TIME
 NULL.                 -999.25: NULL VALUE
 DFWT.                        :  DIST FWL TEXT
 DFST.                        :  DIST FSL TEXT
 DMF .             Drill Floor:  DRILL MEAS FROM
 STIM.      02.00.00 12-Apr-21:  START TIME
 DATE.      02.00.00 02-May-21:  END TIME
 SPUD.               09-Apr-21:  SPUD DATE
 NREF.                    Grid:  NORTH REFERENCE
 HPTY.       Minimum Curvature:  HOLE POS TYPE
 DMOD.             Drill Model:  DRILL MOD DESC
 SVYD.                  Survey:  SURVEY DESC
 ILTD.               Lithology:  INTERP LTH DESC
 FTOP.          Formation Tops:  FORM TOPS DESC
 PDAT.          Mean Sea Level:  PERMANENT DATUM
 FLD .                     ACG:  FIELD NAME
 SON .        AZ-XX-0907021034:  JOB NUMBER
 CTRY.              Azerbaijan:  COUNTRY NAME
 WELL.                    E01x:  WELL NAME
 COMP.     BP Exploration (Caspian Sea) LTD.:  COMPANY
 UWI .            /AZE00001403:  UNIQUE WELL IDENTIFIER
 API .            /AZE00001403:  API NUMBER
 WTYP.                Deviated:  WELL TYPE
 MDS .        Operator Entered:  MAG DATA SOURCE
 BASE.              Azerbaijan:  LOGGING EQUIPMENT BASE LOCATION
 REGN.                   EESSA:  REGION
 PROV.                    Baku:  PROVINCE
 STAT.                    Baku:  STATE NAME
 SRVC.          Turan Drilling:  CONTRACTOR
 MWDS.                    Baku:  MWD SHOP
 JOBN.        AZ-XX-0907021034:  JOB TICKET NUMB
 RIG .                     DWG:  RIG NAME
 DOE .                     N/A:  DOE NUMBER
 DCON.         Sperry Drilling:  DIRECTNL CONTR
 UNIT.                     N/A:  LOGGING EQUIPMENT ID
 CNTY.                        :  COUNTY
 LOC .                        :  LOCATION
 LMF .             Drill Floor:  LOG MEASURED FROM
 TVDS.m                  43.16:  TVDSS CORRECTN
 LATI.deg                40.17:  LATITUDE
 LONG.deg                51.17:  LONGITUDE
 WHNS.m                  -5.90:  WELL HEAD N/S
 WHEW.m                  -6.61:  WELL HEAD E/W
 UTMX.m              514337.95:  UTM X
 UTMY.m             4448627.46:  UTM Y
 DFWL.m                   0.00:  DISTANCE FWL
 DFSL.m                   0.00:  DISTANCE FSL
 SDEP.m                2606.87:  START DEPTH
 TDD .m                3618.01:  TOTAL DEPTH (DRILLER)
 VSDR.deg               177.42:  VERT SEC DIRECT
 GVFD.g                   1.00:  GRAVITY FIELD
 MFLD.nT              50399.00:  MAGNETIC FIELD
 MDIP.deg                59.67:  MAGNETIC DIP
 MDEC.deg                 6.56:  MAGNETIC DECL
 GRDC.deg                 0.11:  GRID CORRECTION
 AZTC.deg                 6.45:  AZM TOTAL CORR
 EPD .m                   0.00:  ELEVATION
 EGL .m                   0.00:  GROUND ELEVATION
 WDMS.m                 176.20:  WD ELEV
 APD .m                  43.16:  DEPTH ABOVE PD
 DEP .m                2606.87:  DEPTH
 AGAP.m                  43.16:  AIR GAP
 VSEW.m                  -6.61:  VERT SEC E/W
 VSNS.m                  -5.90:  VERT SEC N/S
 EKB .m                  43.16:  KB ELEVATION
 EDF .m                  43.16:  DF ELEVATION
 TDL .m                 438.00:  TOTAL DEPTH (LOGGER)
 VSC .                       0:  VS TO CLOSURE
 MAGU.                 1855490:  MAGUTM CHECKSUM
~Parameter Information Block
#MNEM.UNIT       Value        Description
#---------     -----------    ---------------------------
 AV  .mps                 2.20:  Ann Velocity 
 AVMX.mps                 2.50:  Max Ann Veloc 
 AZIF.deg               150.21:  Azm, Final 
 BHAT.        Rotary Steerable:  BHA Type 
 BROT.°/30m               0.08:  Build Rotating 
 BS  .in                  6.50:  Bit Size 
 BSZ .in                  6.50:  Bit Size 
 BTPL.psig              108.00:  Bit Press Loss 
 CABU.                     Yes:  Customer Abuse 
 CGEO.           Emin Aliyarli:  Customer Geo 
 COMM.                     LÊS:  Run Comments 1 
 TCS .hr                 74.20:  Time Ciculation Ended 
 CV  .mps                 3.63:  Crit Velocity 
 CVMX.mps                 3.66:  Max Crit Veloc 
 DD1 .         Intigam Rahimov:  Direct Drillr 1 
 DD2 .          Teymur Aghayev:  Direct Drillr 2 
 DDSV.               Geo-Pilot:  DD Service 
 DEFF.%                  97.00:  % Det Eff 
 DLRX.°/30m               1.63:  Dogleg Rot Max 
 DLSO.°/30m               0.00:  Dogleg Oriented 
 DLSX.°/30m               0.00:  Dogleg Str Max 
 DRET.      20.20.00 28-Apr-21:  Drill End Time 
 DRST.      04.45.00 26-Apr-21:  Drill Start Tim 
 DTIM.hr                 34.30:  Time Drilling 
 EDEP.m                3618.01:  End Depth 
 ENG1.           Amrah Tahirov:  Engineer 1 
 ENG2.         Bahruz Mehdiyev:  Engineer 2 
 ENG3.         Farhad Orujzade:  Engineer 3 
 ETIM.      19.00.00 29-Apr-21:  End Time 
 FLOI.gpm               370.00:  Flow In 
 FLON.gpm               300.00:  Flow In Min 
 FLOS.cptm                0.00:  Fluid Loss 
 FLOX.gpm               410.00:  Flow In Max 
 HFLO.                      No:  High Flow 
 HPRE.                      No:  High Pressure 
 HTEM.                      No:  High Temp 
 HYDO.m                   1.80:  Hydro Offset 
 IFIN.deg                67.19:  Inc, Final 
 IMAX.deg                68.42:  Inc Max 
 IMIN.deg                66.33:  Inc Min 
 IMND.m                3532.79:  Inc Min Depth 
 IMXD.m                3192.15:  Inc Max Depth 
 JARR.                      No:  Jarring 
 LETM.      20.20.00 28-Apr-21:  Log End Time 
 LOST.hr                     0:  Lost Rig Time 
 LSTM.      04.45.00 26-Apr-21:  Log Start Time 
 MDCL.ppm             36500.00:  Mud Chlorides 
 MDES.     Inversion Oil/Synthetic:  Mud Desc 
 DFD .sg                  1.42:  Mud Density 
 MDMN.sg                  1.42:  Dens Mud Min 
 MDMX.sg                  1.42:  Dens Mud Max 
 MOIL.                    55.7:  Run Mud Oil % 
 MOWR.                   71:29:  Run Mud OWR 
 MSND.                     0.1:  Run Mud Sand % 
 MSOL.                    19.9:  Run Mud Solids% 
 DFV .spqt               83.00:  Mud Viscosity 
 MWOD.in                  5.15:  MWD Tool OD 
 MWSI.                      No:  Serv Intrp, MWD 
 OTIM.hr                120.59:  Time Operating 
 PCON.           Look Like New:  Pad Condition 
 PMAX.psia            11292.93:  Press Op, Max 
 PV  .cP                 27.00:  Mud PV 
 RUN .                     400:  Run Number 
 ROPA.m/hr               14.00:  ROP Avg 
 ROPN.m/hr                9.00:  ROP Min 
 ROPX.m/hr               18.00:  ROP Max 
 RPMA.rpm               130.00:  RPM Surface Avg 
 RPMN.rpm               100.00:  RPM Surface Min 
 RPMX.rpm               140.00:  RPM Surface Max 
 RRUN.                    0400:  Rig Run Number 
 RTIM.hr                 38.60:  Time Reaming 
 SAZI.deg               149.55:  Azm, Start 
 SDEP.m                3180.01:  Start Depth 
 SIDD.                      No:  Serv Intrp, DD 
 SINC.deg                68.42:  Inc, Start 
 SPPA.psig             4400.00:  SPP Avg 
 SPPN.psig             3580.00:  SPP Min 
 SPPX.psig             4850.00:  SPP Max 
 STIM.      12.30.00 24-Apr-21:  Start Time 
 SVCS.                 DD, MWD:  Services 
 SVER.                    9.20:  Sperry Version 
 TDAT.m                 438.00:  Tot Depth Attmp 
 TDDF.                      No:  Trip for DD 
 TDLG.m                 438.00:  Tot Depth Loggd 
 TFF .                      No:  Trip for Fail 
 TQAA.f-kp               11.00:  Torque Abs Avg 
 TQAN.f-kp                9.00:  Torque Abs Min 
 TQAX.f-kp               14.00:  Torque Abs Max 
 TRRT.°/30m               0.04:  Turn Rotating 
 MRT .                    HCIM:  Maximum Recorded Temperature 
 TTMX.degC               84.31:  Max Tool Temp 
 VS01.                90521954:  Virtual Str1 SN 
 VS02.                90519327:  Virtual Str2 SN 
 VS03.                90522273:  Virtual Str3 SN 
 VS04.                11108038:  Virtual Str4 SN 
 VS05.                12258760:  Virtual Str5 SN 
 WBMN.klb                 1.00:  WOB Min 
 WITN.           Adil Mammadov:  Customer Rep 
 WITN.         Alex Yadullayev:  Customer Rep 2 
 WOBA.klb                 6.00:  WOB Avg 
 WOBX.klb                 9.00:  WOB Max 
 YP  .lhf2               31.00:  Yield Point 
~Curve Information Block
#MNEM.UNIT                 API CODE     Curve Description
#---------               -----------    ---------------------------
 TIME.HHMMSS            00 000 000 000:  GT Time & Date
 GTDEPTH.m              00 000 000 000:  GT Depth
 GTPQH.psia             00 000 000 000:  GT HR Quartz Pressure
 GTTQ.degC              00 000 000 000:  GT Quartz Temperature
 GTTN.NONE              00 000 000 000:  GT Test Number
 GTET.sec               00 000 000 000:  GT Elapsed Test Time
 GTTVD.m                00 000 000 000:  GT True Vertical Depth
#Other Information
#
#WARRANTY: Halliburton will use its best efforts to furnish customers with 
#accurate information and interpretations that are part of, and incident to, the services 
#provided.  However, Halliburton cannot and does not warrant the accuracy 
#or correctness of such information and interpretations.  Under no circumstances should any 
#such information or interpretation be relied upon as the sole basis for any drilling, 
#completion, production, or financial decision or any procedure involving any risk to the 
#safety of any drilling venture, drilling rig or its crew or any other third party.  The 
#Customer has full responsibility for all drilling, completion and production operation.  
#Halliburton makes no representations or warranties, either expressed or 
#implied, including, but not limited to, the implied warranties of merchantability or fitness 
#for a particular purpose, with respect to the services rendered.  In no event will 
#Halliburton be liable for failure to obtain any particular results or for 
#any damages, including, but not limited to, indirect, special or consequential damages, 
#resulting from the use of any information or interpretation provided by Halliburton.
#
~A           TIME           GTDEPTH  GTPQH  GTTQ  GTTN  GTET   GTTVD  
# ...
   19:05:10.649.27-Apr-2021 3392.01 3474.25 73.20 5.00  92.02 2716.87
   19:05:10.849.27-Apr-2021 3392.01 3474.25 73.20 5.00  92.22 2716.87
   19:05:11.049.27-Apr-2021 3392.01 3474.25 73.20 5.00  92.42 2716.87
   19:05:11.249.27-Apr-2021 3392.01 3474.22 73.20 5.00  92.62 2716.87
   19:05:11.450.27-Apr-2021 3392.01 3474.24 73.20 5.00  92.82 2716.87
   19:05:11.650.27-Apr-2021 3392.01 3474.24 73.20 5.00  93.02 2716.87
   19:05:11.850.27-Apr-2021 3392.01 3474.24 73.20 5.00  93.22 2716.87
   19:05:12.050.27-Apr-2021 3392.01 3474.25 73.20 5.00  93.42 2716.87
   19:05:12.250.27-Apr-2021 3392.01 3474.14 73.20 5.00  93.62 2716.87
   19:05:12.450.27-Apr-2021 3392.01 3474.20 73.20 5.00  93.82 2716.87
   19:05:12.650.27-Apr-2021 3392.01 3474.19 73.20 5.00  94.02 2716.87
   19:05:12.850.27-Apr-2021 3392.01 3474.19 73.20 5.00  94.22 2716.87
   19:05:13.050.27-Apr-2021 3392.01 3474.22 73.20 5.00  94.42 2716.87
   19:05:13.250.27-Apr-2021 3392.01 3474.22 73.20 5.00  94.62 2716.87
   19:05:13.450.27-Apr-2021 3392.01 3474.02 73.20 5.00  94.82 2716.87
   19:05:13.650.27-Apr-2021 3392.01 3474.29 73.20 5.00  95.02 2716.87
   19:05:13.850.27-Apr-2021 3392.01 3474.29 73.20 5.00  95.22 2716.87
   19:05:14.050.27-Apr-2021 3392.01 3474.18 73.20 5.00  95.42 2716.87
   19:05:14.250.27-Apr-2021 3392.01 3474.05 73.20 5.00  95.62 2716.87
   19:05:14.450.27-Apr-2021 3392.01 3474.28 73.19 5.00  95.82 2716.87
   19:05:14.650.27-Apr-2021 3392.01 3474.24 73.19 5.00  96.02 2716.87
   19:05:14.850.27-Apr-2021 3392.01 3474.24 73.19 5.00  96.22 2716.87
   19:05:15.050.27-Apr-2021 3392.01 3474.23 73.19 5.00  96.42 2716.87
   19:05:15.250.27-Apr-2021 3392.01 3474.20 73.19 5.00  96.62 2716.87
   19:05:15.450.27-Apr-2021 3392.01 3474.00 73.19 5.00  96.82 2716.87
   19:05:15.651.27-Apr-2021 3392.01 3474.28 73.19 5.00  97.02 2716.87
   19:05:15.851.27-Apr-2021 3392.01 3474.28 73.19 5.00  97.22 2716.87
   19:05:16.051.27-Apr-2021 3392.01 3474.17 73.19 5.00  97.42 2716.87
   19:05:16.251.27-Apr-2021 3392.01 3474.19 73.19 5.00  97.62 2716.87
   19:05:16.451.27-Apr-2021 3392.01 3474.21 73.19 5.00  97.82 2716.87
   19:05:16.651.27-Apr-2021 3392.01 3474.17 73.19 5.00  98.02 2716.87
   19:05:16.851.27-Apr-2021 3392.01 3474.17 73.19 5.00  98.22 2716.87
   19:05:17.051.27-Apr-2021 3392.01 3474.15 73.19 5.00  98.42 2716.87
   19:05:17.251.27-Apr-2021 3392.01 3474.21 73.19 5.00  98.62 2716.87
   19:05:17.451.27-Apr-2021 3392.01 3474.19 73.19 5.00  98.82 2716.87
   19:05:17.651.27-Apr-2021 3392.01 3474.16 73.19 5.00  99.02 2716.87
   19:05:17.851.27-Apr-2021 3392.01 3474.16 73.19 5.00  99.22 2716.87
   19:05:18.051.27-Apr-2021 3392.01 3474.08 73.19 5.00  99.42 2716.87
   19:05:18.251.27-Apr-2021 3392.01 3474.15 73.19 5.00  99.62 2716.87
   19:05:18.451.27-Apr-2021 3392.01 3474.16 73.18 5.00  99.82 2716.87
   19:05:18.651.27-Apr-2021 3392.01 3474.19 73.18 5.00 100.02 2716.87
   19:05:18.851.27-Apr-2021 3392.01 3474.19 73.18 5.00 100.22 2716.87
   19:05:19.051.27-Apr-2021 3392.01 3474.19 73.18 5.00 100.42 2716.87
   19:05:19.251.27-Apr-2021 3392.01 3474.15 73.18 5.00 100.62 2716.87
   19:05:19.451.27-Apr-2021 3392.01 3474.17 73.18 5.00 100.82 2716.87
   19:05:19.652.27-Apr-2021 3392.01 3474.18 73.18 5.00 101.02 2716.87
   19:05:19.852.27-Apr-2021 3392.01 3474.18 73.18 5.00 101.22 2716.87
   19:05:20.052.27-Apr-2021 3392.01 3474.19 73.18 5.00 101.42 2716.87
   19:05:20.252.27-Apr-2021 3392.01 3474.14 73.18 5.00 101.62 2716.87
   19:05:20.452.27-Apr-2021 3392.01 3474.19 73.18 5.00 101.82 2716.87
   19:05:20.652.27-Apr-2021 3392.01 3474.14 73.18 5.00 102.02 2716.87
   19:05:20.852.27-Apr-2021 3392.01 3474.14 73.18 5.00 102.22 2716.87
   19:05:21.052.27-Apr-2021 3392.01 3474.23 73.18 5.00 102.43 2716.87
   19:05:21.252.27-Apr-2021 3392.01 3474.18 73.18 5.00 102.63 2716.87
   19:05:21.452.27-Apr-2021 3392.01 3474.12 73.18 5.00 102.83 2716.87
   19:05:21.652.27-Apr-2021 3392.01 3474.18 73.18 5.00 103.03 2716.87
   19:05:21.852.27-Apr-2021 3392.01 3474.18 73.18 5.00 103.23 2716.87
   19:05:22.052.27-Apr-2021 3392.01 3474.10 73.18 5.00 103.43 2716.87
   19:05:22.252.27-Apr-2021 3392.01 3474.18 73.17 5.00 103.63 2716.87
   19:05:22.452.27-Apr-2021 3392.01 3474.10 73.17 5.00 103.83 2716.87
   19:05:22.652.27-Apr-2021 3392.01 3474.19 73.17 5.00 104.03 2716.87
   19:05:22.852.27-Apr-2021 3392.01 3474.19 73.17 5.00 104.23 2716.87
   19:05:23.052.27-Apr-2021 3392.01 3474.22 73.17 5.00 104.43 2716.87
   19:05:23.252.27-Apr-2021 3392.01 3474.18 73.17 5.00 104.63 2716.87
   19:05:23.452.27-Apr-2021 3392.01 3474.12 73.17 5.00 104.83 2716.87
   19:05:23.652.27-Apr-2021 3392.01 3474.15 73.17 5.00 105.03 2716.87
   19:05:23.853.27-Apr-2021 3392.01 3474.15 73.17 5.00 105.23 2716.87
   19:05:24.053.27-Apr-2021 3392.01 3474.02 73.17 5.00 105.43 2716.87
   19:05:24.253.27-Apr-2021 3392.01 3474.14 73.17 5.00 105.63 2716.87
   19:05:24.453.27-Apr-2021 3392.01 3474.18 73.17 5.00 105.83 2716.87
   19:05:24.653.27-Apr-2021 3392.01 3474.10 73.17 5.00 106.03 2716.87
   19:05:24.853.27-Apr-2021 3392.01 3474.10 73.17 5.00 106.23 2716.87
   19:05:25.053.27-Apr-2021 3392.01 3474.10 73.17 5.00 106.43 2716.87
   19:05:25.253.27-Apr-2021 3392.01 3474.15 73.17 5.00 106.63 2716.87
   19:05:25.453.27-Apr-2021 3392.01 3474.13 73.17 5.00 106.83 2716.87
   19:05:25.653.27-Apr-2021 3392.01 3474.11 73.17 5.00 107.03 2716.87
   19:05:25.853.27-Apr-2021 3392.01 3474.11 73.17 5.00 107.23 2716.87
   19:05:26.053.27-Apr-2021 3392.01 3474.09 73.17 5.00 107.43 2716.87
   19:05:26.253.27-Apr-2021 3392.01 3474.13 73.16 5.00 107.63 2716.87
   19:05:26.453.27-Apr-2021 3392.01 3474.09 73.16 5.00 107.83 2716.87
   19:05:26.653.27-Apr-2021 3392.01 3473.95 73.16 5.00 108.03 2716.87
   19:05:26.853.27-Apr-2021 3392.01 3473.95 73.16 5.00 108.23 2716.87
   19:05:27.053.27-Apr-2021 3392.01 3474.14 73.16 5.00 108.43 2716.87
   19:05:27.253.27-Apr-2021 3392.01 3474.06 73.16 5.00 108.63 2716.87
   19:05:27.453.27-Apr-2021 3392.01 3474.12 73.16 5.00 108.83 2716.87
   19:05:27.653.27-Apr-2021 3392.01 3474.11 73.16 5.00 109.03 2716.87
   19:05:27.854.27-Apr-2021 3392.01 3474.11 73.16 5.00 109.23 2716.87
   19:05:28.054.27-Apr-2021 3392.01 3474.13 73.16 5.00 109.43 2716.87
   19:05:28.254.27-Apr-2021 3392.01 3474.08 73.16 5.00 109.63 2716.87
   19:05:28.454.27-Apr-2021 3392.01 3474.12 73.16 5.00 109.83 2716.87
   19:05:28.654.27-Apr-2021 3392.01 3474.09 73.16 5.00 110.03 2716.87
   19:05:28.854.27-Apr-2021 3392.01 3474.09 73.16 5.00 110.23 2716.87
   19:05:29.054.27-Apr-2021 3392.01 3474.09 73.16 5.00 110.43 2716.87
   19:05:29.254.27-Apr-2021 3392.01 3474.10 73.16 5.00 110.63 2716.87
   19:05:29.454.27-Apr-2021 3392.01 3473.90 73.16 5.00 110.83 2716.87
   19:05:29.654.27-Apr-2021 3392.01 3474.15 73.16 5.00 111.03 2716.87
   19:05:29.854.27-Apr-2021 3392.01 3474.15 73.16 5.00 111.23 2716.87
   19:05:30.054.27-Apr-2021 3392.01 3474.04 73.16 5.00 111.43 2716.87
   19:05:30.254.27-Apr-2021 3392.01 3474.13 73.15 5.00 111.63 2716.87
   19:05:30.454.27-Apr-2021 3392.01 3473.89 73.15 5.00 111.83 2716.87
   19:05:30.654.27-Apr-2021 3392.01 3474.19 73.15 5.00 112.03 2716.87
   19:05:30.854.27-Apr-2021 3392.01 3474.19 73.15 5.00 112.23 2716.87
   19:05:31.054.27-Apr-2021 3392.01 3474.06 73.15 5.00 112.43 2716.87
   19:05:31.254.27-Apr-2021 3392.01 3474.03 73.15 5.00 112.63 2716.87
   19:05:31.454.27-Apr-2021 3392.01 3474.06 73.15 5.00 112.83 2716.87
   19:05:31.654.27-Apr-2021 3392.01 3474.06 73.15 5.00 113.03 2716.87
   19:05:31.854.27-Apr-2021 3392.01 3474.06 73.15 5.00 113.23 2716.87
   19:05:32.055.27-Apr-2021 3392.01 3474.09 73.15 5.00 113.43 2716.87
   19:05:32.255.27-Apr-2021 3392.01 3474.05 73.15 5.00 113.63 2716.87
   19:05:32.455.27-Apr-2021 3392.01 3473.99 73.15 5.00 113.83 2716.87
   19:05:32.655.27-Apr-2021 3392.01 3474.05 73.15 5.00 114.03 2716.87
   19:05:32.855.27-Apr-2021 3392.01 3474.05 73.15 5.00 114.23 2716.87
   19:05:33.055.27-Apr-2021 3392.01 3474.04 73.15 5.00 114.43 2716.87
   19:05:33.255.27-Apr-2021 3392.01 3474.10 73.15 5.00 114.63 2716.87
   19:05:33.455.27-Apr-2021 3392.01 3474.06 73.15 5.00 114.83 2716.87
