~Version Information
 VERS.                  2.0:   CWLS log ASCII Standard -VERSION 2.0
 WRAP.                   NO:   One line per depth step
~Well Information Block
#MNEM.UNIT     VALUE/NAME     DESCRIPTION
#---------     -----------    ---------------------------
 STRT.S             18:57:18 28-Apr-21: START TIME 18:57:18 28-Apr-21
 STOP.S             19:03:45 28-Apr-21: STOP TIME  19:03:45 28-Apr-21
 STEP.S                   0.00: STEP TIME
 NULL.                 -999.25: NULL VALUE
 DFWT.                        :  DIST FWL TEXT
 DFST.                        :  DIST FSL TEXT
 DMF .             Drill Floor:  DRILL MEAS FROM
 STIM.      02.00.00 12-Apr-21:  START TIME
 DATE.      02.00.00 02-May-21:  END TIME
 SPUD.               09-Apr-21:  SPUD DATE
 NREF.                    Grid:  NORTH REFERENCE
 HPTY.       Minimum Curvature:  HOLE POS TYPE
 DMOD.             Drill Model:  DRILL MOD DESC
 SVYD.                  Survey:  SURVEY DESC
 ILTD.               Lithology:  INTERP LTH DESC
 FTOP.          Formation Tops:  FORM TOPS DESC
 PDAT.          Mean Sea Level:  PERMANENT DATUM
 FLD .                     ACG:  FIELD NAME
 SON .        AZ-XX-0907021034:  JOB NUMBER
 CTRY.              Azerbaijan:  COUNTRY NAME
 WELL.                    E01x:  WELL NAME
 COMP.     BP Exploration (Caspian Sea) LTD.:  COMPANY
 UWI .            /AZE00001403:  UNIQUE WELL IDENTIFIER
 API .            /AZE00001403:  API NUMBER
 WTYP.                Deviated:  WELL TYPE
 MDS .        Operator Entered:  MAG DATA SOURCE
 BASE.              Azerbaijan:  LOGGING EQUIPMENT BASE LOCATION
 REGN.                   EESSA:  REGION
 PROV.                    Baku:  PROVINCE
 STAT.                    Baku:  STATE NAME
 SRVC.          Turan Drilling:  CONTRACTOR
 MWDS.                    Baku:  MWD SHOP
 JOBN.        AZ-XX-0907021034:  JOB TICKET NUMB
 RIG .                     DWG:  RIG NAME
 DOE .                     N/A:  DOE NUMBER
 DCON.         Sperry Drilling:  DIRECTNL CONTR
 UNIT.                     N/A:  LOGGING EQUIPMENT ID
 CNTY.                        :  COUNTY
 LOC .                        :  LOCATION
 LMF .             Drill Floor:  LOG MEASURED FROM
 TVDS.m                  43.16:  TVDSS CORRECTN
 LATI.deg                40.17:  LATITUDE
 LONG.deg                51.17:  LONGITUDE
 WHNS.m                  -5.90:  WELL HEAD N/S
 WHEW.m                  -6.61:  WELL HEAD E/W
 UTMX.m              514337.95:  UTM X
 UTMY.m             4448627.46:  UTM Y
 DFWL.m                   0.00:  DISTANCE FWL
 DFSL.m                   0.00:  DISTANCE FSL
 SDEP.m                2606.87:  START DEPTH
 TDD .m                3618.01:  TOTAL DEPTH (DRILLER)
 VSDR.deg               177.42:  VERT SEC DIRECT
 GVFD.g                   1.00:  GRAVITY FIELD
 MFLD.nT              50399.00:  MAGNETIC FIELD
 MDIP.deg                59.67:  MAGNETIC DIP
 MDEC.deg                 6.56:  MAGNETIC DECL
 GRDC.deg                 0.11:  GRID CORRECTION
 AZTC.deg                 6.45:  AZM TOTAL CORR
 EPD .m                   0.00:  ELEVATION
 EGL .m                   0.00:  GROUND ELEVATION
 WDMS.m                 176.20:  WD ELEV
 APD .m                  43.16:  DEPTH ABOVE PD
 DEP .m                2606.87:  DEPTH
 AGAP.m                  43.16:  AIR GAP
 VSEW.m                  -6.61:  VERT SEC E/W
 VSNS.m                  -5.90:  VERT SEC N/S
 EKB .m                  43.16:  KB ELEVATION
 EDF .m                  43.16:  DF ELEVATION
 TDL .m                 438.00:  TOTAL DEPTH (LOGGER)
 VSC .                       0:  VS TO CLOSURE
 MAGU.                 1855490:  MAGUTM CHECKSUM
~Parameter Information Block
#MNEM.UNIT       Value        Description
#---------     -----------    ---------------------------
 AV  .mps                 2.20:  Ann Velocity 
 AVMX.mps                 2.50:  Max Ann Veloc 
 AZIF.deg               150.21:  Azm, Final 
 BHAT.        Rotary Steerable:  BHA Type 
 BROT.°/30m               0.08:  Build Rotating 
 BS  .in                  6.50:  Bit Size 
 BSZ .in                  6.50:  Bit Size 
 BTPL.psig              108.00:  Bit Press Loss 
 CABU.                     Yes:  Customer Abuse 
 CGEO.           Emin Aliyarli:  Customer Geo 
 COMM.                     ´âi:  Run Comments 1 
 TCS .hr                 74.20:  Time Ciculation Ended 
 CV  .mps                 3.63:  Crit Velocity 
 CVMX.mps                 3.66:  Max Crit Veloc 
 DD1 .         Intigam Rahimov:  Direct Drillr 1 
 DD2 .          Teymur Aghayev:  Direct Drillr 2 
 DDSV.               Geo-Pilot:  DD Service 
 DEFF.%                  97.00:  % Det Eff 
 DLRX.°/30m               1.63:  Dogleg Rot Max 
 DLSO.°/30m               0.00:  Dogleg Oriented 
 DLSX.°/30m               0.00:  Dogleg Str Max 
 DRET.      20.20.00 28-Apr-21:  Drill End Time 
 DRST.      04.45.00 26-Apr-21:  Drill Start Tim 
 DTIM.hr                 34.30:  Time Drilling 
 EDEP.m                3618.01:  End Depth 
 ENG1.           Amrah Tahirov:  Engineer 1 
 ENG2.         Bahruz Mehdiyev:  Engineer 2 
 ENG3.         Farhad Orujzade:  Engineer 3 
 ETIM.      19.00.00 29-Apr-21:  End Time 
 FLOI.gpm               370.00:  Flow In 
 FLON.gpm               300.00:  Flow In Min 
 FLOS.cptm                0.00:  Fluid Loss 
 FLOX.gpm               410.00:  Flow In Max 
 HFLO.                      No:  High Flow 
 HPRE.                      No:  High Pressure 
 HTEM.                      No:  High Temp 
 HYDO.m                   1.80:  Hydro Offset 
 IFIN.deg                67.19:  Inc, Final 
 IMAX.deg                68.42:  Inc Max 
 IMIN.deg                66.33:  Inc Min 
 IMND.m                3532.79:  Inc Min Depth 
 IMXD.m                3192.15:  Inc Max Depth 
 JARR.                      No:  Jarring 
 LETM.      20.20.00 28-Apr-21:  Log End Time 
 LOST.hr                     0:  Lost Rig Time 
 LSTM.      04.45.00 26-Apr-21:  Log Start Time 
 MDCL.ppm             36500.00:  Mud Chlorides 
 MDES.     Inversion Oil/Synthetic:  Mud Desc 
 DFD .sg                  1.42:  Mud Density 
 MDMN.sg                  1.42:  Dens Mud Min 
 MDMX.sg                  1.42:  Dens Mud Max 
 MOIL.                    55.7:  Run Mud Oil % 
 MOWR.                   71:29:  Run Mud OWR 
 MSND.                     0.1:  Run Mud Sand % 
 MSOL.                    19.9:  Run Mud Solids% 
 DFV .spqt               83.00:  Mud Viscosity 
 MWOD.in                  5.15:  MWD Tool OD 
 MWSI.                      No:  Serv Intrp, MWD 
 OTIM.hr                120.59:  Time Operating 
 PCON.           Look Like New:  Pad Condition 
 PMAX.psia            11292.93:  Press Op, Max 
 PV  .cP                 27.00:  Mud PV 
 RUN .                     400:  Run Number 
 ROPA.m/hr               14.00:  ROP Avg 
 ROPN.m/hr                9.00:  ROP Min 
 ROPX.m/hr               18.00:  ROP Max 
 RPMA.rpm               130.00:  RPM Surface Avg 
 RPMN.rpm               100.00:  RPM Surface Min 
 RPMX.rpm               140.00:  RPM Surface Max 
 RRUN.                    0400:  Rig Run Number 
 RTIM.hr                 38.60:  Time Reaming 
 SAZI.deg               149.55:  Azm, Start 
 SDEP.m                3180.01:  Start Depth 
 SIDD.                      No:  Serv Intrp, DD 
 SINC.deg                68.42:  Inc, Start 
 SPPA.psig             4400.00:  SPP Avg 
 SPPN.psig             3580.00:  SPP Min 
 SPPX.psig             4850.00:  SPP Max 
 STIM.      12.30.00 24-Apr-21:  Start Time 
 SVCS.                 DD, MWD:  Services 
 SVER.                    9.20:  Sperry Version 
 TDAT.m                 438.00:  Tot Depth Attmp 
 TDDF.                      No:  Trip for DD 
 TDLG.m                 438.00:  Tot Depth Loggd 
 TFF .                      No:  Trip for Fail 
 TQAA.f-kp               11.00:  Torque Abs Avg 
 TQAN.f-kp                9.00:  Torque Abs Min 
 TQAX.f-kp               14.00:  Torque Abs Max 
 TRRT.°/30m               0.04:  Turn Rotating 
 MRT .                    HCIM:  Maximum Recorded Temperature 
 TTMX.degC               84.31:  Max Tool Temp 
 VS01.                90521954:  Virtual Str1 SN 
 VS02.                90519327:  Virtual Str2 SN 
 VS03.                90522273:  Virtual Str3 SN 
 VS04.                11108038:  Virtual Str4 SN 
 VS05.                12258760:  Virtual Str5 SN 
 WBMN.klb                 1.00:  WOB Min 
 WITN.           Adil Mammadov:  Customer Rep 
 WITN.         Alex Yadullayev:  Customer Rep 2 
 WOBA.klb                 6.00:  WOB Avg 
 WOBX.klb                 9.00:  WOB Max 
 YP  .lhf2               31.00:  Yield Point 
~Curve Information Block
#MNEM.UNIT                 API CODE     Curve Description
#---------               -----------    ---------------------------
 TIME.HHMMSS            00 000 000 000:  GT Time & Date
 GTDEPTH.m              00 000 000 000:  GT Depth
 GTPQH.psia             00 000 000 000:  GT HR Quartz Pressure
 GTTQ.degC              00 000 000 000:  GT Quartz Temperature
 GTTN.NONE              00 000 000 000:  GT Test Number
 GTET.sec               00 000 000 000:  GT Elapsed Test Time
 GTTVD.m                00 000 000 000:  GT True Vertical Depth
#Other Information
#
#WARRANTY: Halliburton will use its best efforts to furnish customers with 
#accurate information and interpretations that are part of, and incident to, the services 
#provided.  However, Halliburton cannot and does not warrant the accuracy 
#or correctness of such information and interpretations.  Under no circumstances should any 
#such information or interpretation be relied upon as the sole basis for any drilling, 
#completion, production, or financial decision or any procedure involving any risk to the 
#safety of any drilling venture, drilling rig or its crew or any other third party.  The 
#Customer has full responsibility for all drilling, completion and production operation.  
#Halliburton makes no representations or warranties, either expressed or 
#implied, including, but not limited to, the implied warranties of merchantability or fitness 
#for a particular purpose, with respect to the services rendered.  In no event will 
#Halliburton be liable for failure to obtain any particular results or for 
#any damages, including, but not limited to, indirect, special or consequential damages, 
#resulting from the use of any information or interpretation provided by Halliburton.
#
~A           TIME           GTDEPTH  GTPQH  GTTQ  GTTN   GTET   GTTVD  
# ...
   19:01:26.906.28-Apr-2021 3565.01 4083.75 74.93 11.00 248.67 2784.87
   19:01:27.106.28-Apr-2021 3565.01 4083.75 74.93 11.00 248.87 2784.87
   19:01:27.307.28-Apr-2021 3565.01 4083.75 74.93 11.00 249.07 2784.87
   19:01:27.507.28-Apr-2021 3565.01 4083.75 74.93 11.00 249.27 2784.87
   19:01:27.707.28-Apr-2021 3565.01 4083.76 74.93 11.00 249.47 2784.87
   19:01:27.907.28-Apr-2021 3565.01 4083.61 74.93 11.00 249.67 2784.87
   19:01:28.107.28-Apr-2021 3565.01 4083.96 74.93 11.00 249.87 2784.87
   19:01:28.307.28-Apr-2021 3565.01 4083.89 74.93 11.00 250.07 2784.87
   19:01:28.507.28-Apr-2021 3565.01 4083.89 74.93 11.00 250.27 2784.87
   19:01:28.707.28-Apr-2021 3565.01 4083.85 74.92 11.00 250.47 2784.87
   19:01:28.907.28-Apr-2021 3565.01 4083.84 74.92 11.00 250.67 2784.87
   19:01:29.107.28-Apr-2021 3565.01 4083.86 74.92 11.00 250.87 2784.87
   19:01:29.307.28-Apr-2021 3565.01 4083.89 74.92 11.00 251.07 2784.87
   19:01:29.507.28-Apr-2021 3565.01 4083.89 74.92 11.00 251.27 2784.87
   19:01:29.707.28-Apr-2021 3565.01 4083.86 74.92 11.00 251.47 2784.87
   19:01:29.907.28-Apr-2021 3565.01 4083.83 74.92 11.00 251.67 2784.87
   19:01:30.107.28-Apr-2021 3565.01 4083.84 74.92 11.00 251.87 2784.87
   19:01:30.307.28-Apr-2021 3565.01 4083.88 74.92 11.00 252.07 2784.87
   19:01:30.507.28-Apr-2021 3565.01 4083.88 74.92 11.00 252.27 2784.87
   19:01:30.708.28-Apr-2021 3565.01 4083.67 74.92 11.00 252.47 2784.87
   19:01:30.908.28-Apr-2021 3565.01 4083.98 74.92 11.00 252.67 2784.87
   19:01:31.108.28-Apr-2021 3565.01 4083.93 74.92 11.00 252.87 2784.87
   19:01:31.308.28-Apr-2021 3565.01 4083.89 74.92 11.00 253.07 2784.87
   19:01:31.508.28-Apr-2021 3565.01 4083.89 74.92 11.00 253.27 2784.87
   19:01:31.708.28-Apr-2021 3565.01 4083.64 74.92 11.00 253.47 2784.87
   19:01:31.908.28-Apr-2021 3565.01 4084.03 74.92 11.00 253.68 2784.87
   19:01:32.108.28-Apr-2021 3565.01 4083.97 74.92 11.00 253.88 2784.87
   19:01:32.308.28-Apr-2021 3565.01 4083.90 74.92 11.00 254.08 2784.87
   19:01:32.508.28-Apr-2021 3565.01 4083.90 74.92 11.00 254.28 2784.87
   19:01:32.708.28-Apr-2021 3565.01 4083.87 74.91 11.00 254.48 2784.87
   19:01:32.908.28-Apr-2021 3565.01 4083.69 74.91 11.00 254.68 2784.87
   19:01:33.108.28-Apr-2021 3565.01 4084.05 74.91 11.00 254.88 2784.87
   19:01:33.308.28-Apr-2021 3565.01 4083.92 74.91 11.00 255.08 2784.87
   19:01:33.508.28-Apr-2021 3565.01 4083.92 74.91 11.00 255.28 2784.87
   19:01:33.708.28-Apr-2021 3565.01 4083.90 74.91 11.00 255.48 2784.87
   19:01:33.908.28-Apr-2021 3565.01 4083.76 74.91 11.00 255.68 2784.87
   19:01:34.109.28-Apr-2021 3565.01 4083.93 74.91 11.00 255.88 2784.87
   19:01:34.309.28-Apr-2021 3565.01 4083.94 74.91 11.00 256.08 2784.87
   19:01:34.509.28-Apr-2021 3565.01 4083.94 74.91 11.00 256.28 2784.87
   19:01:34.709.28-Apr-2021 3565.01 4083.89 74.91 11.00 256.48 2784.87
   19:01:34.909.28-Apr-2021 3565.01 4083.91 74.91 11.00 256.68 2784.87
   19:01:35.109.28-Apr-2021 3565.01 4083.90 74.91 11.00 256.88 2784.87
   19:01:35.309.28-Apr-2021 3565.01 4083.93 74.91 11.00 257.08 2784.87
   19:01:35.509.28-Apr-2021 3565.01 4083.93 74.91 11.00 257.28 2784.87
   19:01:35.709.28-Apr-2021 3565.01 4083.88 74.91 11.00 257.48 2784.87
   19:01:35.909.28-Apr-2021 3565.01 4083.89 74.91 11.00 257.68 2784.87
   19:01:36.109.28-Apr-2021 3565.01 4083.87 74.91 11.00 257.88 2784.87
   19:01:36.309.28-Apr-2021 3565.01 4083.92 74.90 11.00 258.08 2784.87
   19:01:36.509.28-Apr-2021 3565.01 4083.92 74.90 11.00 258.28 2784.87
   19:01:36.709.28-Apr-2021 3565.01 4083.68 74.90 11.00 258.48 2784.87
   19:01:36.909.28-Apr-2021 3565.01 4083.98 74.90 11.00 258.68 2784.87
   19:01:37.109.28-Apr-2021 3565.01 4083.91 74.90 11.00 258.88 2784.87
   19:01:37.309.28-Apr-2021 3565.01 4083.95 74.90 11.00 259.08 2784.87
   19:01:37.510.28-Apr-2021 3565.01 4083.95 74.90 11.00 259.28 2784.87
   19:01:37.710.28-Apr-2021 3565.01 4083.87 74.90 11.00 259.48 2784.87
   19:01:37.910.28-Apr-2021 3565.01 4083.89 74.90 11.00 259.68 2784.87
   19:01:38.110.28-Apr-2021 3565.01 4083.90 74.90 11.00 259.88 2784.87
   19:01:38.310.28-Apr-2021 3565.01 4083.90 74.90 11.00 260.08 2784.87
   19:01:38.510.28-Apr-2021 3565.01 4083.90 74.90 11.00 260.28 2784.87
   19:01:38.710.28-Apr-2021 3565.01 4083.88 74.90 11.00 260.48 2784.87
   19:01:38.910.28-Apr-2021 3565.01 4083.85 74.90 11.00 260.68 2784.87
   19:01:39.110.28-Apr-2021 3565.01 4083.90 74.90 11.00 260.88 2784.87
   19:01:39.310.28-Apr-2021 3565.01 4083.86 74.90 11.00 261.08 2784.87
   19:01:39.510.28-Apr-2021 3565.01 4083.86 74.90 11.00 261.28 2784.87
   19:01:39.710.28-Apr-2021 3565.01 4084.00 74.90 11.00 261.48 2784.87
   19:01:39.910.28-Apr-2021 3565.01 4083.93 74.90 11.00 261.68 2784.87
   19:01:40.110.28-Apr-2021 3565.01 4083.91 74.89 11.00 261.88 2784.87
   19:01:40.310.28-Apr-2021 3565.01 4083.88 74.89 11.00 262.08 2784.87
   19:01:40.510.28-Apr-2021 3565.01 4083.88 74.89 11.00 262.28 2784.87
   19:01:40.710.28-Apr-2021 3565.01 4083.68 74.89 11.00 262.48 2784.87
   19:01:40.911.28-Apr-2021 3565.01 4084.03 74.89 11.00 262.68 2784.87
   19:01:41.111.28-Apr-2021 3565.01 4083.94 74.89 11.00 262.88 2784.87
   19:01:41.311.28-Apr-2021 3565.01 4083.89 74.89 11.00 263.08 2784.87
   19:01:41.511.28-Apr-2021 3565.01 4083.89 74.89 11.00 263.28 2784.87
   19:01:41.711.28-Apr-2021 3565.01 4083.85 74.89 11.00 263.48 2784.87
   19:01:41.911.28-Apr-2021 3565.01 4083.75 74.89 11.00 263.68 2784.87
   19:01:42.111.28-Apr-2021 3565.01 4083.98 74.89 11.00 263.88 2784.87
   19:01:42.311.28-Apr-2021 3565.01 4083.91 74.89 11.00 264.08 2784.87
   19:01:42.511.28-Apr-2021 3565.01 4083.91 74.89 11.00 264.28 2784.87
   19:01:42.711.28-Apr-2021 3565.01 4083.89 74.89 11.00 264.48 2784.87
   19:01:42.911.28-Apr-2021 3565.01 4083.87 74.89 11.00 264.68 2784.87
   19:01:43.111.28-Apr-2021 3565.01 4083.86 74.89 11.00 264.88 2784.87
   19:01:43.311.28-Apr-2021 3565.01 4083.80 74.89 11.00 265.08 2784.87
   19:01:43.511.28-Apr-2021 3565.01 4083.80 74.89 11.00 265.28 2784.87
   19:01:43.711.28-Apr-2021 3565.01 4083.95 74.89 11.00 265.48 2784.87
   19:01:43.911.28-Apr-2021 3565.01 4083.89 74.88 11.00 265.68 2784.87
   19:01:44.111.28-Apr-2021 3565.01 4083.89 74.88 11.00 265.88 2784.87
   19:01:44.312.28-Apr-2021 3565.01 4083.90 74.88 11.00 266.08 2784.87
   19:01:44.512.28-Apr-2021 3565.01 4083.90 74.88 11.00 266.28 2784.87
   19:01:44.712.28-Apr-2021 3565.01 4083.89 74.88 11.00 266.48 2784.87
   19:01:44.912.28-Apr-2021 3565.01 4083.86 74.88 11.00 266.68 2784.87
   19:01:45.112.28-Apr-2021 3565.01 4083.88 74.88 11.00 266.88 2784.87
   19:01:45.312.28-Apr-2021 3565.01 4083.86 74.88 11.00 267.08 2784.87
   19:01:45.512.28-Apr-2021 3565.01 4083.86 74.88 11.00 267.28 2784.87
   19:01:45.712.28-Apr-2021 3565.01 4083.88 74.88 11.00 267.48 2784.87
   19:01:45.912.28-Apr-2021 3565.01 4083.68 74.88 11.00 267.68 2784.87
   19:01:46.112.28-Apr-2021 3565.01 4083.94 74.88 11.00 267.88 2784.87
   19:01:46.312.28-Apr-2021 3565.01 4083.89 74.88 11.00 268.08 2784.87
   19:01:46.512.28-Apr-2021 3565.01 4083.89 74.88 11.00 268.28 2784.87
   19:01:46.712.28-Apr-2021 3565.01 4083.89 74.88 11.00 268.48 2784.87
   19:01:46.912.28-Apr-2021 3565.01 4083.84 74.88 11.00 268.68 2784.87
   19:01:47.112.28-Apr-2021 3565.01 4083.89 74.88 11.00 268.88 2784.87
   19:01:47.312.28-Apr-2021 3565.01 4083.88 74.88 11.00 269.08 2784.87
   19:01:47.512.28-Apr-2021 3565.01 4083.88 74.88 11.00 269.28 2784.87
   19:01:47.713.28-Apr-2021 3565.01 4083.85 74.87 11.00 269.48 2784.87
   19:01:47.913.28-Apr-2021 3565.01 4083.85 74.87 11.00 269.68 2784.87
   19:01:48.113.28-Apr-2021 3565.01 4083.84 74.87 11.00 269.88 2784.87
   19:01:48.313.28-Apr-2021 3565.01 4083.87 74.87 11.00 270.08 2784.87
   19:01:48.513.28-Apr-2021 3565.01 4083.87 74.87 11.00 270.28 2784.87
   19:01:48.713.28-Apr-2021 3565.01 4083.62 74.87 11.00 270.48 2784.87
   19:01:48.913.28-Apr-2021 3565.01 4083.99 74.87 11.00 270.68 2784.87
   19:01:49.113.28-Apr-2021 3565.01 4083.89 74.87 11.00 270.88 2784.87
   19:01:49.313.28-Apr-2021 3565.01 4083.89 74.87 11.00 271.08 2784.87
