~Version Information
 VERS.                  2.0:   CWLS log ASCII Standard -VERSION 2.0
 WRAP.                   NO:   One line per depth step
~Well Information Block
#MNEM.UNIT     VALUE/NAME     DESCRIPTION
#---------     -----------    ---------------------------
 STRT.S             19:03:38 27-Apr-21: START TIME 19:03:38 27-Apr-21
 STOP.S             19:10:06 27-Apr-21: STOP TIME  19:10:06 27-Apr-21
 STEP.S                   0.00: STEP TIME
 NULL.                 -999.25: NULL VALUE
 DFWT.                        :  DIST FWL TEXT
 DFST.                        :  DIST FSL TEXT
 DMF .             Drill Floor:  DRILL MEAS FROM
 STIM.      02.00.00 12-Apr-21:  START TIME
 DATE.      02.00.00 02-May-21:  END TIME
 SPUD.               09-Apr-21:  SPUD DATE
 NREF.                    Grid:  NORTH REFERENCE
 HPTY.       Minimum Curvature:  HOLE POS TYPE
 DMOD.             Drill Model:  DRILL MOD DESC
 SVYD.                  Survey:  SURVEY DESC
 ILTD.               Lithology:  INTERP LTH DESC
 FTOP.          Formation Tops:  FORM TOPS DESC
 PDAT.          Mean Sea Level:  PERMANENT DATUM
 FLD .                     ACG:  FIELD NAME
 SON .        AZ-XX-0907021034:  JOB NUMBER
 CTRY.              Azerbaijan:  COUNTRY NAME
 WELL.                    E01x:  WELL NAME
 COMP.     BP Exploration (Caspian Sea) LTD.:  COMPANY
 UWI .            /AZE00001403:  UNIQUE WELL IDENTIFIER
 API .            /AZE00001403:  API NUMBER
 WTYP.                Deviated:  WELL TYPE
 MDS .        Operator Entered:  MAG DATA SOURCE
 BASE.              Azerbaijan:  LOGGING EQUIPMENT BASE LOCATION
 REGN.                   EESSA:  REGION
 PROV.                    Baku:  PROVINCE
 STAT.                    Baku:  STATE NAME
 SRVC.          Turan Drilling:  CONTRACTOR
 MWDS.                    Baku:  MWD SHOP
 JOBN.        AZ-XX-0907021034:  JOB TICKET NUMB
 RIG .                     DWG:  RIG NAME
 DOE .                     N/A:  DOE NUMBER
 DCON.         Sperry Drilling:  DIRECTNL CONTR
 UNIT.                     N/A:  LOGGING EQUIPMENT ID
 CNTY.                        :  COUNTY
 LOC .                        :  LOCATION
 LMF .             Drill Floor:  LOG MEASURED FROM
 TVDS.m                  43.16:  TVDSS CORRECTN
 LATI.deg                40.17:  LATITUDE
 LONG.deg                51.17:  LONGITUDE
 WHNS.m                  -5.90:  WELL HEAD N/S
 WHEW.m                  -6.61:  WELL HEAD E/W
 UTMX.m              514337.95:  UTM X
 UTMY.m             4448627.46:  UTM Y
 DFWL.m                   0.00:  DISTANCE FWL
 DFSL.m                   0.00:  DISTANCE FSL
 SDEP.m                2606.87:  START DEPTH
 TDD .m                3618.01:  TOTAL DEPTH (DRILLER)
 VSDR.deg               177.42:  VERT SEC DIRECT
 GVFD.g                   1.00:  GRAVITY FIELD
 MFLD.nT              50399.00:  MAGNETIC FIELD
 MDIP.deg                59.67:  MAGNETIC DIP
 MDEC.deg                 6.56:  MAGNETIC DECL
 GRDC.deg                 0.11:  GRID CORRECTION
 AZTC.deg                 6.45:  AZM TOTAL CORR
 EPD .m                   0.00:  ELEVATION
 EGL .m                   0.00:  GROUND ELEVATION
 WDMS.m                 176.20:  WD ELEV
 APD .m                  43.16:  DEPTH ABOVE PD
 DEP .m                2606.87:  DEPTH
 AGAP.m                  43.16:  AIR GAP
 VSEW.m                  -6.61:  VERT SEC E/W
 VSNS.m                  -5.90:  VERT SEC N/S
 EKB .m                  43.16:  KB ELEVATION
 EDF .m                  43.16:  DF ELEVATION
 TDL .m                 438.00:  TOTAL DEPTH (LOGGER)
 VSC .                       0:  VS TO CLOSURE
 MAGU.                 1855490:  MAGUTM CHECKSUM
~Parameter Information Block
#MNEM.UNIT       Value        Description
#---------     -----------    ---------------------------
 AV  .mps                 2.20:  Ann Velocity 
 AVMX.mps                 2.50:  Max Ann Veloc 
 AZIF.deg               150.21:  Azm, Final 
 BHAT.        Rotary Steerable:  BHA Type 
 BROT.°/30m               0.08:  Build Rotating 
 BS  .in                  6.50:  Bit Size 
 BSZ .in                  6.50:  Bit Size 
 BTPL.psig              108.00:  Bit Press Loss 
 CABU.                     Yes:  Customer Abuse 
 CGEO.           Emin Aliyarli:  Customer Geo 
 COMM.                     LÊS:  Run Comments 1 
 TCS .hr                 74.20:  Time Ciculation Ended 
 CV  .mps                 3.63:  Crit Velocity 
 CVMX.mps                 3.66:  Max Crit Veloc 
 DD1 .         Intigam Rahimov:  Direct Drillr 1 
 DD2 .          Teymur Aghayev:  Direct Drillr 2 
 DDSV.               Geo-Pilot:  DD Service 
 DEFF.%                  97.00:  % Det Eff 
 DLRX.°/30m               1.63:  Dogleg Rot Max 
 DLSO.°/30m               0.00:  Dogleg Oriented 
 DLSX.°/30m               0.00:  Dogleg Str Max 
 DRET.      20.20.00 28-Apr-21:  Drill End Time 
 DRST.      04.45.00 26-Apr-21:  Drill Start Tim 
 DTIM.hr                 34.30:  Time Drilling 
 EDEP.m                3618.01:  End Depth 
 ENG1.           Amrah Tahirov:  Engineer 1 
 ENG2.         Bahruz Mehdiyev:  Engineer 2 
 ENG3.         Farhad Orujzade:  Engineer 3 
 ETIM.      19.00.00 29-Apr-21:  End Time 
 FLOI.gpm               370.00:  Flow In 
 FLON.gpm               300.00:  Flow In Min 
 FLOS.cptm                0.00:  Fluid Loss 
 FLOX.gpm               410.00:  Flow In Max 
 HFLO.                      No:  High Flow 
 HPRE.                      No:  High Pressure 
 HTEM.                      No:  High Temp 
 HYDO.m                   1.80:  Hydro Offset 
 IFIN.deg                67.19:  Inc, Final 
 IMAX.deg                68.42:  Inc Max 
 IMIN.deg                66.33:  Inc Min 
 IMND.m                3532.79:  Inc Min Depth 
 IMXD.m                3192.15:  Inc Max Depth 
 JARR.                      No:  Jarring 
 LETM.      20.20.00 28-Apr-21:  Log End Time 
 LOST.hr                     0:  Lost Rig Time 
 LSTM.      04.45.00 26-Apr-21:  Log Start Time 
 MDCL.ppm             36500.00:  Mud Chlorides 
 MDES.     Inversion Oil/Synthetic:  Mud Desc 
 DFD .sg                  1.42:  Mud Density 
 MDMN.sg                  1.42:  Dens Mud Min 
 MDMX.sg                  1.42:  Dens Mud Max 
 MOIL.                    55.7:  Run Mud Oil % 
 MOWR.                   71:29:  Run Mud OWR 
 MSND.                     0.1:  Run Mud Sand % 
 MSOL.                    19.9:  Run Mud Solids% 
 DFV .spqt               83.00:  Mud Viscosity 
 MWOD.in                  5.15:  MWD Tool OD 
 MWSI.                      No:  Serv Intrp, MWD 
 OTIM.hr                120.59:  Time Operating 
 PCON.           Look Like New:  Pad Condition 
 PMAX.psia            11292.93:  Press Op, Max 
 PV  .cP                 27.00:  Mud PV 
 RUN .                     400:  Run Number 
 ROPA.m/hr               14.00:  ROP Avg 
 ROPN.m/hr                9.00:  ROP Min 
 ROPX.m/hr               18.00:  ROP Max 
 RPMA.rpm               130.00:  RPM Surface Avg 
 RPMN.rpm               100.00:  RPM Surface Min 
 RPMX.rpm               140.00:  RPM Surface Max 
 RRUN.                    0400:  Rig Run Number 
 RTIM.hr                 38.60:  Time Reaming 
 SAZI.deg               149.55:  Azm, Start 
 SDEP.m                3180.01:  Start Depth 
 SIDD.                      No:  Serv Intrp, DD 
 SINC.deg                68.42:  Inc, Start 
 SPPA.psig             4400.00:  SPP Avg 
 SPPN.psig             3580.00:  SPP Min 
 SPPX.psig             4850.00:  SPP Max 
 STIM.      12.30.00 24-Apr-21:  Start Time 
 SVCS.                 DD, MWD:  Services 
 SVER.                    9.20:  Sperry Version 
 TDAT.m                 438.00:  Tot Depth Attmp 
 TDDF.                      No:  Trip for DD 
 TDLG.m                 438.00:  Tot Depth Loggd 
 TFF .                      No:  Trip for Fail 
 TQAA.f-kp               11.00:  Torque Abs Avg 
 TQAN.f-kp                9.00:  Torque Abs Min 
 TQAX.f-kp               14.00:  Torque Abs Max 
 TRRT.°/30m               0.04:  Turn Rotating 
 MRT .                    HCIM:  Maximum Recorded Temperature 
 TTMX.degC               84.31:  Max Tool Temp 
 VS01.                90521954:  Virtual Str1 SN 
 VS02.                90519327:  Virtual Str2 SN 
 VS03.                90522273:  Virtual Str3 SN 
 VS04.                11108038:  Virtual Str4 SN 
 VS05.                12258760:  Virtual Str5 SN 
 WBMN.klb                 1.00:  WOB Min 
 WITN.           Adil Mammadov:  Customer Rep 
 WITN.         Alex Yadullayev:  Customer Rep 2 
 WOBA.klb                 6.00:  WOB Avg 
 WOBX.klb                 9.00:  WOB Max 
 YP  .lhf2               31.00:  Yield Point 
~Curve Information Block
#MNEM.UNIT                 API CODE     Curve Description
#---------               -----------    ---------------------------
 TIME.HHMMSS            00 000 000 000:  GT Time & Date
 GTDEPTH.m              00 000 000 000:  GT Depth
 GTPQH.psia             00 000 000 000:  GT HR Quartz Pressure
 GTTQ.degC              00 000 000 000:  GT Quartz Temperature
 GTTN.NONE              00 000 000 000:  GT Test Number
 GTET.sec               00 000 000 000:  GT Elapsed Test Time
 GTTVD.m                00 000 000 000:  GT True Vertical Depth
#Other Information
#
#WARRANTY: Halliburton will use its best efforts to furnish customers with 
#accurate information and interpretations that are part of, and incident to, the services 
#provided.  However, Halliburton cannot and does not warrant the accuracy 
#or correctness of such information and interpretations.  Under no circumstances should any 
#such information or interpretation be relied upon as the sole basis for any drilling, 
#completion, production, or financial decision or any procedure involving any risk to the 
#safety of any drilling venture, drilling rig or its crew or any other third party.  The 
#Customer has full responsibility for all drilling, completion and production operation.  
#Halliburton makes no representations or warranties, either expressed or 
#implied, including, but not limited to, the implied warranties of merchantability or fitness 
#for a particular purpose, with respect to the services rendered.  In no event will 
#Halliburton be liable for failure to obtain any particular results or for 
#any damages, including, but not limited to, indirect, special or consequential damages, 
#resulting from the use of any information or interpretation provided by Halliburton.
#
~A           TIME           GTDEPTH  GTPQH  GTTQ  GTTN  GTET   GTTVD  
# ...
   19:08:14.694.27-Apr-2021 3392.01 3473.43 72.78 5.00 276.07 2716.87
   19:08:14.894.27-Apr-2021 3392.01 3473.43 72.78 5.00 276.27 2716.87
   19:08:15.094.27-Apr-2021 3392.01 3473.44 72.77 5.00 276.47 2716.87
   19:08:15.294.27-Apr-2021 3392.01 3473.26 72.77 5.00 276.67 2716.87
   19:08:15.494.27-Apr-2021 3392.01 3473.55 72.77 5.00 276.87 2716.87
   19:08:15.695.27-Apr-2021 3392.01 3473.52 72.77 5.00 277.07 2716.87
   19:08:15.895.27-Apr-2021 3392.01 3473.52 72.77 5.00 277.27 2716.87
   19:08:16.095.27-Apr-2021 3392.01 3473.49 72.77 5.00 277.47 2716.87
   19:08:16.295.27-Apr-2021 3392.01 3473.49 72.77 5.00 277.67 2716.87
   19:08:16.495.27-Apr-2021 3392.01 3473.43 72.77 5.00 277.87 2716.87
   19:08:16.695.27-Apr-2021 3392.01 3473.49 72.77 5.00 278.07 2716.87
   19:08:16.895.27-Apr-2021 3392.01 3473.49 72.77 5.00 278.27 2716.87
   19:08:17.095.27-Apr-2021 3392.01 3473.49 72.77 5.00 278.47 2716.87
   19:08:17.295.27-Apr-2021 3392.01 3473.42 72.77 5.00 278.67 2716.87
   19:08:17.495.27-Apr-2021 3392.01 3473.45 72.77 5.00 278.87 2716.87
   19:08:17.695.27-Apr-2021 3392.01 3473.44 72.77 5.00 279.07 2716.87
   19:08:17.895.27-Apr-2021 3392.01 3473.44 72.77 5.00 279.27 2716.87
   19:08:18.095.27-Apr-2021 3392.01 3473.29 72.77 5.00 279.47 2716.87
   19:08:18.295.27-Apr-2021 3392.01 3473.50 72.77 5.00 279.67 2716.87
   19:08:18.495.27-Apr-2021 3392.01 3473.48 72.77 5.00 279.87 2716.87
   19:08:18.695.27-Apr-2021 3392.01 3473.44 72.77 5.00 280.07 2716.87
   19:08:18.895.27-Apr-2021 3392.01 3473.44 72.77 5.00 280.27 2716.87
   19:08:19.095.27-Apr-2021 3392.01 3473.23 72.77 5.00 280.47 2716.87
   19:08:19.295.27-Apr-2021 3392.01 3473.58 72.77 5.00 280.67 2716.87
   19:08:19.495.27-Apr-2021 3392.01 3473.47 72.76 5.00 280.87 2716.87
   19:08:19.695.27-Apr-2021 3392.01 3473.46 72.76 5.00 281.07 2716.87
   19:08:19.896.27-Apr-2021 3392.01 3473.46 72.76 5.00 281.27 2716.87
   19:08:20.096.27-Apr-2021 3392.01 3473.51 72.76 5.00 281.47 2716.87
   19:08:20.296.27-Apr-2021 3392.01 3473.46 72.76 5.00 281.67 2716.87
   19:08:20.496.27-Apr-2021 3392.01 3473.44 72.76 5.00 281.87 2716.87
   19:08:20.696.27-Apr-2021 3392.01 3473.49 72.76 5.00 282.07 2716.87
   19:08:20.896.27-Apr-2021 3392.01 3473.49 72.76 5.00 282.27 2716.87
   19:08:21.096.27-Apr-2021 3392.01 3473.28 72.76 5.00 282.47 2716.87
   19:08:21.296.27-Apr-2021 3392.01 3473.53 72.76 5.00 282.67 2716.87
   19:08:21.496.27-Apr-2021 3392.01 3473.54 72.76 5.00 282.87 2716.87
   19:08:21.696.27-Apr-2021 3392.01 3473.42 72.76 5.00 283.07 2716.87
   19:08:21.896.27-Apr-2021 3392.01 3473.42 72.76 5.00 283.27 2716.87
   19:08:22.096.27-Apr-2021 3392.01 3473.46 72.76 5.00 283.47 2716.87
   19:08:22.296.27-Apr-2021 3392.01 3473.45 72.76 5.00 283.67 2716.87
   19:08:22.496.27-Apr-2021 3392.01 3473.47 72.76 5.00 283.87 2716.87
   19:08:22.696.27-Apr-2021 3392.01 3473.42 72.76 5.00 284.07 2716.87
   19:08:22.896.27-Apr-2021 3392.01 3473.42 72.76 5.00 284.27 2716.87
   19:08:23.096.27-Apr-2021 3392.01 3473.43 72.76 5.00 284.47 2716.87
   19:08:23.296.27-Apr-2021 3392.01 3473.44 72.76 5.00 284.67 2716.87
   19:08:23.496.27-Apr-2021 3392.01 3473.43 72.76 5.00 284.87 2716.87
   19:08:23.696.27-Apr-2021 3392.01 3473.31 72.76 5.00 285.07 2716.87
   19:08:23.897.27-Apr-2021 3392.01 3473.31 72.76 5.00 285.27 2716.87
   19:08:24.097.27-Apr-2021 3392.01 3473.47 72.75 5.00 285.47 2716.87
   19:08:24.297.27-Apr-2021 3392.01 3473.44 72.75 5.00 285.67 2716.87
   19:08:24.497.27-Apr-2021 3392.01 3473.46 72.75 5.00 285.87 2716.87
   19:08:24.697.27-Apr-2021 3392.01 3473.47 72.75 5.00 286.07 2716.87
   19:08:24.897.27-Apr-2021 3392.01 3473.47 72.75 5.00 286.27 2716.87
   19:08:25.097.27-Apr-2021 3392.01 3473.48 72.75 5.00 286.47 2716.87
   19:08:25.297.27-Apr-2021 3392.01 3473.43 72.75 5.00 286.67 2716.87
   19:08:25.497.27-Apr-2021 3392.01 3473.45 72.75 5.00 286.87 2716.87
   19:08:25.697.27-Apr-2021 3392.01 3473.43 72.75 5.00 287.07 2716.87
   19:08:25.897.27-Apr-2021 3392.01 3473.43 72.75 5.00 287.27 2716.87
   19:08:26.097.27-Apr-2021 3392.01 3473.44 72.75 5.00 287.47 2716.87
   19:08:26.297.27-Apr-2021 3392.01 3473.42 72.75 5.00 287.67 2716.87
   19:08:26.497.27-Apr-2021 3392.01 3473.23 72.75 5.00 287.87 2716.87
   19:08:26.697.27-Apr-2021 3392.01 3473.53 72.75 5.00 288.07 2716.87
   19:08:26.897.27-Apr-2021 3392.01 3473.53 72.75 5.00 288.27 2716.87
   19:08:27.097.27-Apr-2021 3392.01 3473.40 72.75 5.00 288.47 2716.87
   19:08:27.297.27-Apr-2021 3392.01 3473.50 72.75 5.00 288.67 2716.87
   19:08:27.497.27-Apr-2021 3392.01 3473.23 72.75 5.00 288.87 2716.87
   19:08:27.697.27-Apr-2021 3392.01 3473.57 72.75 5.00 289.07 2716.87
   19:08:27.897.27-Apr-2021 3392.01 3473.57 72.75 5.00 289.27 2716.87
   19:08:28.098.27-Apr-2021 3392.01 3473.40 72.75 5.00 289.47 2716.87
   19:08:28.298.27-Apr-2021 3392.01 3473.46 72.75 5.00 289.67 2716.87
   19:08:28.498.27-Apr-2021 3392.01 3473.38 72.75 5.00 289.87 2716.87
   19:08:28.698.27-Apr-2021 3392.01 3473.45 72.74 5.00 290.07 2716.87
   19:08:28.898.27-Apr-2021 3392.01 3473.45 72.74 5.00 290.27 2716.87
   19:08:29.098.27-Apr-2021 3392.01 3473.47 72.74 5.00 290.47 2716.87
   19:08:29.298.27-Apr-2021 3392.01 3473.43 72.74 5.00 290.67 2716.87
   19:08:29.498.27-Apr-2021 3392.01 3473.26 72.74 5.00 290.87 2716.87
   19:08:29.698.27-Apr-2021 3392.01 3473.55 72.74 5.00 291.07 2716.87
   19:08:29.898.27-Apr-2021 3392.01 3473.55 72.74 5.00 291.27 2716.87
   19:08:30.098.27-Apr-2021 3392.01 3473.41 72.74 5.00 291.47 2716.87
   19:08:30.298.27-Apr-2021 3392.01 3473.47 72.74 5.00 291.67 2716.87
   19:08:30.498.27-Apr-2021 3392.01 3473.47 72.74 5.00 291.87 2716.87
   19:08:30.698.27-Apr-2021 3392.01 3473.40 72.74 5.00 292.07 2716.87
   19:08:30.898.27-Apr-2021 3392.01 3473.40 72.74 5.00 292.27 2716.87
   19:08:31.098.27-Apr-2021 3392.01 3473.40 72.74 5.00 292.47 2716.87
   19:08:31.298.27-Apr-2021 3392.01 3473.46 72.74 5.00 292.67 2716.87
   19:08:31.498.27-Apr-2021 3392.01 3473.41 72.74 5.00 292.87 2716.87
   19:08:31.698.27-Apr-2021 3392.01 3473.42 72.74 5.00 293.07 2716.87
   19:08:31.898.27-Apr-2021 3392.01 3473.42 72.74 5.00 293.27 2716.87
   19:08:32.099.27-Apr-2021 3392.01 3473.38 72.74 5.00 293.47 2716.87
   19:08:32.299.27-Apr-2021 3392.01 3473.35 72.74 5.00 293.67 2716.87
   19:08:32.499.27-Apr-2021 3392.01 3473.44 72.74 5.00 293.87 2716.87
   19:08:32.699.27-Apr-2021 3392.01 3473.47 72.74 5.00 294.07 2716.87
   19:08:32.899.27-Apr-2021 3392.01 3473.47 72.74 5.00 294.27 2716.87
   19:08:33.099.27-Apr-2021 3392.01 3473.47 72.74 5.00 294.47 2716.87
   19:08:33.299.27-Apr-2021 3392.01 3473.41 72.73 5.00 294.67 2716.87
   19:08:33.499.27-Apr-2021 3392.01 3473.46 72.73 5.00 294.87 2716.87
   19:08:33.699.27-Apr-2021 3392.01 3473.43 72.73 5.00 295.07 2716.87
   19:08:33.899.27-Apr-2021 3392.01 3473.43 72.73 5.00 295.27 2716.87
   19:08:34.099.27-Apr-2021 3392.01 3473.44 72.73 5.00 295.47 2716.87
   19:08:34.299.27-Apr-2021 3392.01 3473.40 72.73 5.00 295.67 2716.87
   19:08:34.499.27-Apr-2021 3392.01 3473.43 72.73 5.00 295.87 2716.87
   19:08:34.699.27-Apr-2021 3392.01 3473.41 72.73 5.00 296.07 2716.87
   19:08:34.899.27-Apr-2021 3392.01 3473.41 72.73 5.00 296.27 2716.87
   19:08:35.099.27-Apr-2021 3392.01 3473.47 72.73 5.00 296.47 2716.87
   19:08:35.299.27-Apr-2021 3392.01 3473.46 72.73 5.00 296.67 2716.87
   19:08:35.499.27-Apr-2021 3392.01 3473.39 72.73 5.00 296.87 2716.87
   19:08:35.699.27-Apr-2021 3392.01 3473.49 72.73 5.00 297.07 2716.87
   19:08:35.899.27-Apr-2021 3392.01 3473.49 72.73 5.00 297.27 2716.87
   19:08:36.100.27-Apr-2021 3392.01 3473.44 72.73 5.00 297.47 2716.87
   19:08:36.300.27-Apr-2021 3392.01 3473.46 72.73 5.00 297.67 2716.87
   19:08:36.500.27-Apr-2021 3392.01 3473.40 72.73 5.00 297.87 2716.87
   19:08:36.700.27-Apr-2021 3392.01 3473.49 72.73 5.00 298.07 2716.87
   19:08:36.900.27-Apr-2021 3392.01 3473.49 72.73 5.00 298.27 2716.87
   19:08:37.100.27-Apr-2021 3392.01 3473.53 72.73 5.00 298.47 2716.87
   19:08:37.300.27-Apr-2021 3392.01 3473.45 72.73 5.00 298.67 2716.87
   19:08:37.500.27-Apr-2021 3392.01 3473.43 72.73 5.00 298.87 2716.87
