~Version Information
 VERS.                  2.0:   CWLS log ASCII Standard -VERSION 2.0
 WRAP.                   NO:   One line per depth step
~Well Information Block
#MNEM.UNIT     VALUE/NAME     DESCRIPTION
#---------     -----------    ---------------------------
 STRT.S             00:41:47 27-Apr-21: START TIME 00:41:47 27-Apr-21
 STOP.S             00:48:15 27-Apr-21: STOP TIME  00:48:15 27-Apr-21
 STEP.S                   0.00: STEP TIME
 NULL.                 -999.25: NULL VALUE
 DFWT.                        :  DIST FWL TEXT
 DFST.                        :  DIST FSL TEXT
 DMF .             Drill Floor:  DRILL MEAS FROM
 STIM.      02.00.00 12-Apr-21:  START TIME
 DATE.      02.00.00 02-May-21:  END TIME
 SPUD.               09-Apr-21:  SPUD DATE
 NREF.                    Grid:  NORTH REFERENCE
 HPTY.       Minimum Curvature:  HOLE POS TYPE
 DMOD.             Drill Model:  DRILL MOD DESC
 SVYD.                  Survey:  SURVEY DESC
 ILTD.               Lithology:  INTERP LTH DESC
 FTOP.          Formation Tops:  FORM TOPS DESC
 PDAT.          Mean Sea Level:  PERMANENT DATUM
 FLD .                     ACG:  FIELD NAME
 SON .        AZ-XX-0907021034:  JOB NUMBER
 CTRY.              Azerbaijan:  COUNTRY NAME
 WELL.                    E01x:  WELL NAME
 COMP.     BP Exploration (Caspian Sea) LTD.:  COMPANY
 UWI .            /AZE00001403:  UNIQUE WELL IDENTIFIER
 API .            /AZE00001403:  API NUMBER
 WTYP.                Deviated:  WELL TYPE
 MDS .        Operator Entered:  MAG DATA SOURCE
 BASE.              Azerbaijan:  LOGGING EQUIPMENT BASE LOCATION
 REGN.                   EESSA:  REGION
 PROV.                    Baku:  PROVINCE
 STAT.                    Baku:  STATE NAME
 SRVC.          Turan Drilling:  CONTRACTOR
 MWDS.                    Baku:  MWD SHOP
 JOBN.        AZ-XX-0907021034:  JOB TICKET NUMB
 RIG .                     DWG:  RIG NAME
 DOE .                     N/A:  DOE NUMBER
 DCON.         Sperry Drilling:  DIRECTNL CONTR
 UNIT.                     N/A:  LOGGING EQUIPMENT ID
 CNTY.                        :  COUNTY
 LOC .                        :  LOCATION
 LMF .             Drill Floor:  LOG MEASURED FROM
 TVDS.m                  43.16:  TVDSS CORRECTN
 LATI.deg                40.17:  LATITUDE
 LONG.deg                51.17:  LONGITUDE
 WHNS.m                  -5.90:  WELL HEAD N/S
 WHEW.m                  -6.61:  WELL HEAD E/W
 UTMX.m              514337.95:  UTM X
 UTMY.m             4448627.46:  UTM Y
 DFWL.m                   0.00:  DISTANCE FWL
 DFSL.m                   0.00:  DISTANCE FSL
 SDEP.m                2606.87:  START DEPTH
 TDD .m                3618.01:  TOTAL DEPTH (DRILLER)
 VSDR.deg               177.42:  VERT SEC DIRECT
 GVFD.g                   1.00:  GRAVITY FIELD
 MFLD.nT              50399.00:  MAGNETIC FIELD
 MDIP.deg                59.67:  MAGNETIC DIP
 MDEC.deg                 6.56:  MAGNETIC DECL
 GRDC.deg                 0.11:  GRID CORRECTION
 AZTC.deg                 6.45:  AZM TOTAL CORR
 EPD .m                   0.00:  ELEVATION
 EGL .m                   0.00:  GROUND ELEVATION
 WDMS.m                 176.20:  WD ELEV
 APD .m                  43.16:  DEPTH ABOVE PD
 DEP .m                2606.87:  DEPTH
 AGAP.m                  43.16:  AIR GAP
 VSEW.m                  -6.61:  VERT SEC E/W
 VSNS.m                  -5.90:  VERT SEC N/S
 EKB .m                  43.16:  KB ELEVATION
 EDF .m                  43.16:  DF ELEVATION
 TDL .m                 438.00:  TOTAL DEPTH (LOGGER)
 VSC .                       0:  VS TO CLOSURE
 MAGU.                 1855490:  MAGUTM CHECKSUM
~Parameter Information Block
#MNEM.UNIT       Value        Description
#---------     -----------    ---------------------------
 AV  .mps                 2.20:  Ann Velocity 
 AVMX.mps                 2.50:  Max Ann Veloc 
 AZIF.deg               150.21:  Azm, Final 
 BHAT.        Rotary Steerable:  BHA Type 
 BROT.°/30m               0.08:  Build Rotating 
 BS  .in                  6.50:  Bit Size 
 BSZ .in                  6.50:  Bit Size 
 BTPL.psig              108.00:  Bit Press Loss 
 CABU.                     Yes:  Customer Abuse 
 CGEO.           Emin Aliyarli:  Customer Geo 
 COMM.                     lJm:  Run Comments 1 
 TCS .hr                 74.20:  Time Ciculation Ended 
 CV  .mps                 3.63:  Crit Velocity 
 CVMX.mps                 3.66:  Max Crit Veloc 
 DD1 .         Intigam Rahimov:  Direct Drillr 1 
 DD2 .          Teymur Aghayev:  Direct Drillr 2 
 DDSV.               Geo-Pilot:  DD Service 
 DEFF.%                  97.00:  % Det Eff 
 DLRX.°/30m               1.63:  Dogleg Rot Max 
 DLSO.°/30m               0.00:  Dogleg Oriented 
 DLSX.°/30m               0.00:  Dogleg Str Max 
 DRET.      20.20.00 28-Apr-21:  Drill End Time 
 DRST.      04.45.00 26-Apr-21:  Drill Start Tim 
 DTIM.hr                 34.30:  Time Drilling 
 EDEP.m                3618.01:  End Depth 
 ENG1.           Amrah Tahirov:  Engineer 1 
 ENG2.         Bahruz Mehdiyev:  Engineer 2 
 ENG3.         Farhad Orujzade:  Engineer 3 
 ETIM.      19.00.00 29-Apr-21:  End Time 
 FLOI.gpm               370.00:  Flow In 
 FLON.gpm               300.00:  Flow In Min 
 FLOS.cptm                0.00:  Fluid Loss 
 FLOX.gpm               410.00:  Flow In Max 
 HFLO.                      No:  High Flow 
 HPRE.                      No:  High Pressure 
 HTEM.                      No:  High Temp 
 HYDO.m                   1.80:  Hydro Offset 
 IFIN.deg                67.19:  Inc, Final 
 IMAX.deg                68.42:  Inc Max 
 IMIN.deg                66.33:  Inc Min 
 IMND.m                3532.79:  Inc Min Depth 
 IMXD.m                3192.15:  Inc Max Depth 
 JARR.                      No:  Jarring 
 LETM.      20.20.00 28-Apr-21:  Log End Time 
 LOST.hr                     0:  Lost Rig Time 
 LSTM.      04.45.00 26-Apr-21:  Log Start Time 
 MDCL.ppm             36500.00:  Mud Chlorides 
 MDES.     Inversion Oil/Synthetic:  Mud Desc 
 DFD .sg                  1.42:  Mud Density 
 MDMN.sg                  1.42:  Dens Mud Min 
 MDMX.sg                  1.42:  Dens Mud Max 
 MOIL.                    55.7:  Run Mud Oil % 
 MOWR.                   71:29:  Run Mud OWR 
 MSND.                     0.1:  Run Mud Sand % 
 MSOL.                    19.9:  Run Mud Solids% 
 DFV .spqt               83.00:  Mud Viscosity 
 MWOD.in                  5.15:  MWD Tool OD 
 MWSI.                      No:  Serv Intrp, MWD 
 OTIM.hr                120.59:  Time Operating 
 PCON.           Look Like New:  Pad Condition 
 PMAX.psia            11292.93:  Press Op, Max 
 PV  .cP                 27.00:  Mud PV 
 RUN .                     400:  Run Number 
 ROPA.m/hr               14.00:  ROP Avg 
 ROPN.m/hr                9.00:  ROP Min 
 ROPX.m/hr               18.00:  ROP Max 
 RPMA.rpm               130.00:  RPM Surface Avg 
 RPMN.rpm               100.00:  RPM Surface Min 
 RPMX.rpm               140.00:  RPM Surface Max 
 RRUN.                    0400:  Rig Run Number 
 RTIM.hr                 38.60:  Time Reaming 
 SAZI.deg               149.55:  Azm, Start 
 SDEP.m                3180.01:  Start Depth 
 SIDD.                      No:  Serv Intrp, DD 
 SINC.deg                68.42:  Inc, Start 
 SPPA.psig             4400.00:  SPP Avg 
 SPPN.psig             3580.00:  SPP Min 
 SPPX.psig             4850.00:  SPP Max 
 STIM.      12.30.00 24-Apr-21:  Start Time 
 SVCS.                 DD, MWD:  Services 
 SVER.                    9.20:  Sperry Version 
 TDAT.m                 438.00:  Tot Depth Attmp 
 TDDF.                      No:  Trip for DD 
 TDLG.m                 438.00:  Tot Depth Loggd 
 TFF .                      No:  Trip for Fail 
 TQAA.f-kp               11.00:  Torque Abs Avg 
 TQAN.f-kp                9.00:  Torque Abs Min 
 TQAX.f-kp               14.00:  Torque Abs Max 
 TRRT.°/30m               0.04:  Turn Rotating 
 MRT .                    HCIM:  Maximum Recorded Temperature 
 TTMX.degC               84.31:  Max Tool Temp 
 VS01.                90521954:  Virtual Str1 SN 
 VS02.                90519327:  Virtual Str2 SN 
 VS03.                90522273:  Virtual Str3 SN 
 VS04.                11108038:  Virtual Str4 SN 
 VS05.                12258760:  Virtual Str5 SN 
 WBMN.klb                 1.00:  WOB Min 
 WITN.           Adil Mammadov:  Customer Rep 
 WITN.         Alex Yadullayev:  Customer Rep 2 
 WOBA.klb                 6.00:  WOB Avg 
 WOBX.klb                 9.00:  WOB Max 
 YP  .lhf2               31.00:  Yield Point 
~Curve Information Block
#MNEM.UNIT                 API CODE     Curve Description
#---------               -----------    ---------------------------
 TIME.HHMMSS            00 000 000 000:  GT Time & Date
 GTDEPTH.m              00 000 000 000:  GT Depth
 GTPQH.psia             00 000 000 000:  GT HR Quartz Pressure
 GTTQ.degC              00 000 000 000:  GT Quartz Temperature
 GTTN.NONE              00 000 000 000:  GT Test Number
 GTET.sec               00 000 000 000:  GT Elapsed Test Time
 GTTVD.m                00 000 000 000:  GT True Vertical Depth
#Other Information
#
#WARRANTY: Halliburton will use its best efforts to furnish customers with 
#accurate information and interpretations that are part of, and incident to, the services 
#provided.  However, Halliburton cannot and does not warrant the accuracy 
#or correctness of such information and interpretations.  Under no circumstances should any 
#such information or interpretation be relied upon as the sole basis for any drilling, 
#completion, production, or financial decision or any procedure involving any risk to the 
#safety of any drilling venture, drilling rig or its crew or any other third party.  The 
#Customer has full responsibility for all drilling, completion and production operation.  
#Halliburton makes no representations or warranties, either expressed or 
#implied, including, but not limited to, the implied warranties of merchantability or fitness 
#for a particular purpose, with respect to the services rendered.  In no event will 
#Halliburton be liable for failure to obtain any particular results or for 
#any damages, including, but not limited to, indirect, special or consequential damages, 
#resulting from the use of any information or interpretation provided by Halliburton.
#
~A           TIME           GTDEPTH  GTPQH  GTTQ  GTTN  GTET   GTTVD  
# ...
   00:42:33.735.27-Apr-2021 3226.01 4274.29 72.08 2.00  46.01 2651.33
   00:42:33.935.27-Apr-2021 3226.01 4274.29 72.08 2.00  46.21 2651.33
   00:42:34.135.27-Apr-2021 3226.01 4274.24 72.08 2.00  46.41 2651.33
   00:42:34.335.27-Apr-2021 3226.01 4274.28 72.08 2.00  46.61 2651.33
   00:42:34.535.27-Apr-2021 3226.01 4274.24 72.07 2.00  46.81 2651.33
   00:42:34.735.27-Apr-2021 3226.01 4274.18 72.07 2.00  47.01 2651.33
   00:42:34.935.27-Apr-2021 3226.01 4274.18 72.07 2.00  47.21 2651.33
   00:42:35.135.27-Apr-2021 3226.01 4274.33 72.07 2.00  47.41 2651.33
   00:42:35.335.27-Apr-2021 3226.01 4274.16 72.07 2.00  47.61 2651.33
   00:42:35.535.27-Apr-2021 3226.01 4274.34 72.07 2.00  47.81 2651.33
   00:42:35.735.27-Apr-2021 3226.01 4274.31 72.07 2.00  48.01 2651.33
   00:42:35.935.27-Apr-2021 3226.01 4274.31 72.07 2.00  48.21 2651.33
   00:42:36.135.27-Apr-2021 3226.01 4274.37 72.07 2.00  48.41 2651.33
   00:42:36.335.27-Apr-2021 3226.01 4274.28 72.07 2.00  48.61 2651.33
   00:42:36.535.27-Apr-2021 3226.01 4274.22 72.07 2.00  48.81 2651.33
   00:42:36.735.27-Apr-2021 3226.01 4274.39 72.07 2.00  49.01 2651.33
   00:42:36.935.27-Apr-2021 3226.01 4274.39 72.07 2.00  49.21 2651.33
   00:42:37.136.27-Apr-2021 3226.01 4274.40 72.07 2.00  49.41 2651.33
   00:42:37.336.27-Apr-2021 3226.01 4274.32 72.06 2.00  49.61 2651.33
   00:42:37.536.27-Apr-2021 3226.01 4274.34 72.06 2.00  49.81 2651.33
   00:42:37.736.27-Apr-2021 3226.01 4274.35 72.06 2.00  50.01 2651.33
   00:42:37.936.27-Apr-2021 3226.01 4274.35 72.06 2.00  50.21 2651.33
   00:42:38.136.27-Apr-2021 3226.01 4274.38 72.06 2.00  50.41 2651.33
   00:42:38.336.27-Apr-2021 3226.01 4274.39 72.06 2.00  50.61 2651.33
   00:42:38.536.27-Apr-2021 3226.01 4274.37 72.06 2.00  50.81 2651.33
   00:42:38.736.27-Apr-2021 3226.01 4274.40 72.06 2.00  51.01 2651.33
   00:42:38.936.27-Apr-2021 3226.01 4274.40 72.06 2.00  51.21 2651.33
   00:42:39.136.27-Apr-2021 3226.01 4274.28 72.06 2.00  51.41 2651.33
   00:42:39.336.27-Apr-2021 3226.01 4274.41 72.06 2.00  51.61 2651.33
   00:42:39.536.27-Apr-2021 3226.01 4274.42 72.06 2.00  51.81 2651.33
   00:42:39.736.27-Apr-2021 3226.01 4274.45 72.06 2.00  52.01 2651.33
   00:42:39.936.27-Apr-2021 3226.01 4274.45 72.06 2.00  52.21 2651.33
   00:42:40.136.27-Apr-2021 3226.01 4274.46 72.05 2.00  52.41 2651.33
   00:42:40.336.27-Apr-2021 3226.01 4274.41 72.05 2.00  52.61 2651.33
   00:42:40.536.27-Apr-2021 3226.01 4274.53 72.05 2.00  52.81 2651.33
   00:42:40.736.27-Apr-2021 3226.01 4274.44 72.05 2.00  53.01 2651.33
   00:42:40.936.27-Apr-2021 3226.01 4274.44 72.05 2.00  53.21 2651.33
   00:42:41.136.27-Apr-2021 3226.01 4274.42 72.05 2.00  53.41 2651.33
   00:42:41.336.27-Apr-2021 3226.01 4274.51 72.05 2.00  53.61 2651.33
   00:42:41.536.27-Apr-2021 3226.01 4274.44 72.05 2.00  53.81 2651.33
   00:42:41.736.27-Apr-2021 3226.01 4274.34 72.05 2.00  54.01 2651.33
   00:42:41.936.27-Apr-2021 3226.01 4274.34 72.05 2.00  54.21 2651.33
   00:42:42.137.27-Apr-2021 3226.01 4274.50 72.05 2.00  54.41 2651.33
   00:42:42.337.27-Apr-2021 3226.01 4274.46 72.05 2.00  54.61 2651.33
   00:42:42.537.27-Apr-2021 3226.01 4274.50 72.05 2.00  54.81 2651.33
   00:42:42.737.27-Apr-2021 3226.01 4274.46 72.05 2.00  55.01 2651.33
   00:42:42.937.27-Apr-2021 3226.01 4274.46 72.05 2.00  55.21 2651.33
   00:42:43.137.27-Apr-2021 3226.01 4274.36 72.04 2.00  55.41 2651.33
   00:42:43.337.27-Apr-2021 3226.01 4274.55 72.04 2.00  55.61 2651.33
   00:42:43.537.27-Apr-2021 3226.01 4274.52 72.04 2.00  55.81 2651.33
   00:42:43.737.27-Apr-2021 3226.01 4274.46 72.04 2.00  56.01 2651.33
   00:42:43.937.27-Apr-2021 3226.01 4274.46 72.04 2.00  56.21 2651.33
   00:42:44.137.27-Apr-2021 3226.01 4276.52 72.04 2.00  56.41 2651.33
   00:42:44.337.27-Apr-2021 3226.01 4274.53 72.04 2.00  56.61 2651.33
   00:42:44.537.27-Apr-2021 3226.01 4274.50 72.04 2.00  56.81 2651.33
   00:42:44.737.27-Apr-2021 3226.01 4274.30 72.04 2.00  57.01 2651.33
   00:42:44.937.27-Apr-2021 3226.01 4274.30 72.04 2.00  57.21 2651.33
   00:42:45.137.27-Apr-2021 3226.01 4274.51 72.04 2.00  57.41 2651.33
   00:42:45.337.27-Apr-2021 3226.01 4274.52 72.04 2.00  57.61 2651.33
   00:42:45.537.27-Apr-2021 3226.01 4274.56 72.04 2.00  57.81 2651.33
   00:42:45.737.27-Apr-2021 3226.01 4274.48 72.04 2.00  58.01 2651.33
   00:42:45.937.27-Apr-2021 3226.01 4274.48 72.04 2.00  58.21 2651.33
   00:42:46.137.27-Apr-2021 3226.01 4274.49 72.03 2.00  58.41 2651.33
   00:42:46.337.27-Apr-2021 3226.01 4274.58 72.03 2.00  58.61 2651.33
   00:42:46.537.27-Apr-2021 3226.01 4274.48 72.03 2.00  58.81 2651.33
   00:42:46.737.27-Apr-2021 3226.01 4274.53 72.03 2.00  59.01 2651.33
   00:42:46.937.27-Apr-2021 3226.01 4274.53 72.03 2.00  59.21 2651.33
   00:42:47.137.27-Apr-2021 3226.01 4274.52 72.03 2.00  59.41 2651.33
   00:42:47.338.27-Apr-2021 3226.01 4274.28 72.03 2.00  59.61 2651.33
   00:42:47.538.27-Apr-2021 3226.01 4274.48 72.03 2.00  59.81 2651.33
   00:42:47.738.27-Apr-2021 3226.01 4274.52 72.03 2.00  60.01 2651.33
   00:42:47.938.27-Apr-2021 3226.01 4274.52 72.03 2.00  60.21 2651.33
   00:42:48.138.27-Apr-2021 3226.01 4274.52 72.03 2.00  60.41 2651.33
   00:42:48.338.27-Apr-2021 3226.01 4274.53 72.03 2.00  60.61 2651.33
   00:42:48.538.27-Apr-2021 3226.01 4274.53 72.03 2.00  60.81 2651.33
   00:42:48.738.27-Apr-2021 3226.01 4274.56 72.02 2.00  61.01 2651.33
   00:42:48.938.27-Apr-2021 3226.01 4274.56 72.02 2.00  61.21 2651.33
   00:42:49.138.27-Apr-2021 3226.01 4274.55 72.02 2.00  61.41 2651.33
   00:42:49.338.27-Apr-2021 3226.01 4274.56 72.02 2.00  61.61 2651.33
   00:42:49.538.27-Apr-2021 3226.01 4274.50 72.02 2.00  61.81 2651.33
   00:42:49.738.27-Apr-2021 3226.01 4274.60 72.02 2.00  62.01 2651.33
   00:42:49.938.27-Apr-2021 3226.01 4274.60 72.02 2.00  62.21 2651.33
   00:42:50.138.27-Apr-2021 3226.01 4274.34 72.02 2.00  62.41 2651.33
   00:42:50.338.27-Apr-2021 3226.01 4274.49 72.02 2.00  62.61 2651.33
   00:42:50.538.27-Apr-2021 3226.01 4274.60 72.02 2.00  62.81 2651.33
   00:42:50.738.27-Apr-2021 3226.01 4274.54 72.02 2.00  63.01 2651.33
   00:42:50.938.27-Apr-2021 3226.01 4274.54 72.02 2.00  63.21 2651.33
   00:42:51.138.27-Apr-2021 3226.01 4274.53 72.02 2.00  63.41 2651.33
   00:42:51.338.27-Apr-2021 3226.01 4274.37 72.02 2.00  63.61 2651.33
   00:42:51.538.27-Apr-2021 3226.01 4274.55 72.02 2.00  63.81 2651.33
   00:42:51.738.27-Apr-2021 3226.01 4274.64 72.01 2.00  64.01 2651.33
   00:42:51.938.27-Apr-2021 3226.01 4274.64 72.01 2.00  64.21 2651.33
   00:42:52.138.27-Apr-2021 3226.01 4274.55 72.01 2.00  64.41 2651.33
   00:42:52.339.27-Apr-2021 3226.01 4274.39 72.01 2.00  64.61 2651.33
   00:42:52.539.27-Apr-2021 3226.01 4274.58 72.01 2.00  64.81 2651.33
   00:42:52.739.27-Apr-2021 3226.01 4274.56 72.01 2.00  65.01 2651.33
   00:42:52.939.27-Apr-2021 3226.01 4274.56 72.01 2.00  65.21 2651.33
   00:42:53.139.27-Apr-2021 3226.01 4274.35 72.01 2.00  65.41 2651.33
   00:42:53.339.27-Apr-2021 3226.01 4274.55 72.01 2.00  65.61 2651.33
   00:42:53.539.27-Apr-2021 3226.01 4274.57 72.01 2.00  65.81 2651.33
   00:42:53.739.27-Apr-2021 3226.01 4274.61 72.01 2.00  66.01 2651.33
   00:42:53.939.27-Apr-2021 3226.01 4274.61 72.01 2.00  66.21 2651.33
   00:42:54.139.27-Apr-2021 3226.01 4274.55 72.01 2.00  66.41 2651.33
   00:42:54.339.27-Apr-2021 3226.01 4274.57 72.01 2.00  66.61 2651.33
   00:42:54.539.27-Apr-2021 3226.01 4274.58 72.01 2.00  66.81 2651.33
   00:42:54.739.27-Apr-2021 3226.01 4274.61 72.00 2.00  67.01 2651.33
   00:42:54.939.27-Apr-2021 3226.01 4274.61 72.00 2.00  67.21 2651.33
   00:42:55.139.27-Apr-2021 3226.01 4274.57 72.00 2.00  67.41 2651.33
   00:42:55.339.27-Apr-2021 3226.01 4274.50 72.00 2.00  67.61 2651.33
   00:42:55.539.27-Apr-2021 3226.01 4274.56 72.00 2.00  67.81 2651.33
   00:42:55.739.27-Apr-2021 3226.01 4274.28 72.00 2.00  68.01 2651.33
   00:42:55.939.27-Apr-2021 3226.01 4274.28 72.00 2.00  68.21 2651.33
   00:42:56.139.27-Apr-2021 3226.01 4274.55 72.00 2.00  68.41 2651.33
   00:42:56.339.27-Apr-2021 3226.01 4274.58 72.00 2.00  68.61 2651.33
   00:42:56.539.27-Apr-2021 3226.01 4274.54 72.00 2.00  68.81 2651.33
