~Version Information
 VERS.                  2.0:   CWLS log ASCII Standard -VERSION 2.0
 WRAP.                   NO:   One line per depth step
~Well Information Block
#MNEM.UNIT     VALUE/NAME     DESCRIPTION
#---------     -----------    ---------------------------
 STRT.S             19:03:38 27-Apr-21: START TIME 19:03:38 27-Apr-21
 STOP.S             19:10:06 27-Apr-21: STOP TIME  19:10:06 27-Apr-21
 STEP.S                   0.00: STEP TIME
 NULL.                 -999.25: NULL VALUE
 DFWT.                        :  DIST FWL TEXT
 DFST.                        :  DIST FSL TEXT
 DMF .             Drill Floor:  DRILL MEAS FROM
 STIM.      02.00.00 12-Apr-21:  START TIME
 DATE.      02.00.00 02-May-21:  END TIME
 SPUD.               09-Apr-21:  SPUD DATE
 NREF.                    Grid:  NORTH REFERENCE
 HPTY.       Minimum Curvature:  HOLE POS TYPE
 DMOD.             Drill Model:  DRILL MOD DESC
 SVYD.                  Survey:  SURVEY DESC
 ILTD.               Lithology:  INTERP LTH DESC
 FTOP.          Formation Tops:  FORM TOPS DESC
 PDAT.          Mean Sea Level:  PERMANENT DATUM
 FLD .                     ACG:  FIELD NAME
 SON .        AZ-XX-0907021034:  JOB NUMBER
 CTRY.              Azerbaijan:  COUNTRY NAME
 WELL.                    E01x:  WELL NAME
 COMP.     BP Exploration (Caspian Sea) LTD.:  COMPANY
 UWI .            /AZE00001403:  UNIQUE WELL IDENTIFIER
 API .            /AZE00001403:  API NUMBER
 WTYP.                Deviated:  WELL TYPE
 MDS .        Operator Entered:  MAG DATA SOURCE
 BASE.              Azerbaijan:  LOGGING EQUIPMENT BASE LOCATION
 REGN.                   EESSA:  REGION
 PROV.                    Baku:  PROVINCE
 STAT.                    Baku:  STATE NAME
 SRVC.          Turan Drilling:  CONTRACTOR
 MWDS.                    Baku:  MWD SHOP
 JOBN.        AZ-XX-0907021034:  JOB TICKET NUMB
 RIG .                     DWG:  RIG NAME
 DOE .                     N/A:  DOE NUMBER
 DCON.         Sperry Drilling:  DIRECTNL CONTR
 UNIT.                     N/A:  LOGGING EQUIPMENT ID
 CNTY.                        :  COUNTY
 LOC .                        :  LOCATION
 LMF .             Drill Floor:  LOG MEASURED FROM
 TVDS.m                  43.16:  TVDSS CORRECTN
 LATI.deg                40.17:  LATITUDE
 LONG.deg                51.17:  LONGITUDE
 WHNS.m                  -5.90:  WELL HEAD N/S
 WHEW.m                  -6.61:  WELL HEAD E/W
 UTMX.m              514337.95:  UTM X
 UTMY.m             4448627.46:  UTM Y
 DFWL.m                   0.00:  DISTANCE FWL
 DFSL.m                   0.00:  DISTANCE FSL
 SDEP.m                2606.87:  START DEPTH
 TDD .m                3618.01:  TOTAL DEPTH (DRILLER)
 VSDR.deg               177.42:  VERT SEC DIRECT
 GVFD.g                   1.00:  GRAVITY FIELD
 MFLD.nT              50399.00:  MAGNETIC FIELD
 MDIP.deg                59.67:  MAGNETIC DIP
 MDEC.deg                 6.56:  MAGNETIC DECL
 GRDC.deg                 0.11:  GRID CORRECTION
 AZTC.deg                 6.45:  AZM TOTAL CORR
 EPD .m                   0.00:  ELEVATION
 EGL .m                   0.00:  GROUND ELEVATION
 WDMS.m                 176.20:  WD ELEV
 APD .m                  43.16:  DEPTH ABOVE PD
 DEP .m                2606.87:  DEPTH
 AGAP.m                  43.16:  AIR GAP
 VSEW.m                  -6.61:  VERT SEC E/W
 VSNS.m                  -5.90:  VERT SEC N/S
 EKB .m                  43.16:  KB ELEVATION
 EDF .m                  43.16:  DF ELEVATION
 TDL .m                 438.00:  TOTAL DEPTH (LOGGER)
 VSC .                       0:  VS TO CLOSURE
 MAGU.                 1855490:  MAGUTM CHECKSUM
~Parameter Information Block
#MNEM.UNIT       Value        Description
#---------     -----------    ---------------------------
 AV  .mps                 2.20:  Ann Velocity 
 AVMX.mps                 2.50:  Max Ann Veloc 
 AZIF.deg               150.21:  Azm, Final 
 BHAT.        Rotary Steerable:  BHA Type 
 BROT.°/30m               0.08:  Build Rotating 
 BS  .in                  6.50:  Bit Size 
 BSZ .in                  6.50:  Bit Size 
 BTPL.psig              108.00:  Bit Press Loss 
 CABU.                     Yes:  Customer Abuse 
 CGEO.           Emin Aliyarli:  Customer Geo 
 COMM.                     LÊS:  Run Comments 1 
 TCS .hr                 74.20:  Time Ciculation Ended 
 CV  .mps                 3.63:  Crit Velocity 
 CVMX.mps                 3.66:  Max Crit Veloc 
 DD1 .         Intigam Rahimov:  Direct Drillr 1 
 DD2 .          Teymur Aghayev:  Direct Drillr 2 
 DDSV.               Geo-Pilot:  DD Service 
 DEFF.%                  97.00:  % Det Eff 
 DLRX.°/30m               1.63:  Dogleg Rot Max 
 DLSO.°/30m               0.00:  Dogleg Oriented 
 DLSX.°/30m               0.00:  Dogleg Str Max 
 DRET.      20.20.00 28-Apr-21:  Drill End Time 
 DRST.      04.45.00 26-Apr-21:  Drill Start Tim 
 DTIM.hr                 34.30:  Time Drilling 
 EDEP.m                3618.01:  End Depth 
 ENG1.           Amrah Tahirov:  Engineer 1 
 ENG2.         Bahruz Mehdiyev:  Engineer 2 
 ENG3.         Farhad Orujzade:  Engineer 3 
 ETIM.      19.00.00 29-Apr-21:  End Time 
 FLOI.gpm               370.00:  Flow In 
 FLON.gpm               300.00:  Flow In Min 
 FLOS.cptm                0.00:  Fluid Loss 
 FLOX.gpm               410.00:  Flow In Max 
 HFLO.                      No:  High Flow 
 HPRE.                      No:  High Pressure 
 HTEM.                      No:  High Temp 
 HYDO.m                   1.80:  Hydro Offset 
 IFIN.deg                67.19:  Inc, Final 
 IMAX.deg                68.42:  Inc Max 
 IMIN.deg                66.33:  Inc Min 
 IMND.m                3532.79:  Inc Min Depth 
 IMXD.m                3192.15:  Inc Max Depth 
 JARR.                      No:  Jarring 
 LETM.      20.20.00 28-Apr-21:  Log End Time 
 LOST.hr                     0:  Lost Rig Time 
 LSTM.      04.45.00 26-Apr-21:  Log Start Time 
 MDCL.ppm             36500.00:  Mud Chlorides 
 MDES.     Inversion Oil/Synthetic:  Mud Desc 
 DFD .sg                  1.42:  Mud Density 
 MDMN.sg                  1.42:  Dens Mud Min 
 MDMX.sg                  1.42:  Dens Mud Max 
 MOIL.                    55.7:  Run Mud Oil % 
 MOWR.                   71:29:  Run Mud OWR 
 MSND.                     0.1:  Run Mud Sand % 
 MSOL.                    19.9:  Run Mud Solids% 
 DFV .spqt               83.00:  Mud Viscosity 
 MWOD.in                  5.15:  MWD Tool OD 
 MWSI.                      No:  Serv Intrp, MWD 
 OTIM.hr                120.59:  Time Operating 
 PCON.           Look Like New:  Pad Condition 
 PMAX.psia            11292.93:  Press Op, Max 
 PV  .cP                 27.00:  Mud PV 
 RUN .                     400:  Run Number 
 ROPA.m/hr               14.00:  ROP Avg 
 ROPN.m/hr                9.00:  ROP Min 
 ROPX.m/hr               18.00:  ROP Max 
 RPMA.rpm               130.00:  RPM Surface Avg 
 RPMN.rpm               100.00:  RPM Surface Min 
 RPMX.rpm               140.00:  RPM Surface Max 
 RRUN.                    0400:  Rig Run Number 
 RTIM.hr                 38.60:  Time Reaming 
 SAZI.deg               149.55:  Azm, Start 
 SDEP.m                3180.01:  Start Depth 
 SIDD.                      No:  Serv Intrp, DD 
 SINC.deg                68.42:  Inc, Start 
 SPPA.psig             4400.00:  SPP Avg 
 SPPN.psig             3580.00:  SPP Min 
 SPPX.psig             4850.00:  SPP Max 
 STIM.      12.30.00 24-Apr-21:  Start Time 
 SVCS.                 DD, MWD:  Services 
 SVER.                    9.20:  Sperry Version 
 TDAT.m                 438.00:  Tot Depth Attmp 
 TDDF.                      No:  Trip for DD 
 TDLG.m                 438.00:  Tot Depth Loggd 
 TFF .                      No:  Trip for Fail 
 TQAA.f-kp               11.00:  Torque Abs Avg 
 TQAN.f-kp                9.00:  Torque Abs Min 
 TQAX.f-kp               14.00:  Torque Abs Max 
 TRRT.°/30m               0.04:  Turn Rotating 
 MRT .                    HCIM:  Maximum Recorded Temperature 
 TTMX.degC               84.31:  Max Tool Temp 
 VS01.                90521954:  Virtual Str1 SN 
 VS02.                90519327:  Virtual Str2 SN 
 VS03.                90522273:  Virtual Str3 SN 
 VS04.                11108038:  Virtual Str4 SN 
 VS05.                12258760:  Virtual Str5 SN 
 WBMN.klb                 1.00:  WOB Min 
 WITN.           Adil Mammadov:  Customer Rep 
 WITN.         Alex Yadullayev:  Customer Rep 2 
 WOBA.klb                 6.00:  WOB Avg 
 WOBX.klb                 9.00:  WOB Max 
 YP  .lhf2               31.00:  Yield Point 
~Curve Information Block
#MNEM.UNIT                 API CODE     Curve Description
#---------               -----------    ---------------------------
 TIME.HHMMSS            00 000 000 000:  GT Time & Date
 GTDEPTH.m              00 000 000 000:  GT Depth
 GTPQH.psia             00 000 000 000:  GT HR Quartz Pressure
 GTTQ.degC              00 000 000 000:  GT Quartz Temperature
 GTTN.NONE              00 000 000 000:  GT Test Number
 GTET.sec               00 000 000 000:  GT Elapsed Test Time
 GTTVD.m                00 000 000 000:  GT True Vertical Depth
#Other Information
#
#WARRANTY: Halliburton will use its best efforts to furnish customers with 
#accurate information and interpretations that are part of, and incident to, the services 
#provided.  However, Halliburton cannot and does not warrant the accuracy 
#or correctness of such information and interpretations.  Under no circumstances should any 
#such information or interpretation be relied upon as the sole basis for any drilling, 
#completion, production, or financial decision or any procedure involving any risk to the 
#safety of any drilling venture, drilling rig or its crew or any other third party.  The 
#Customer has full responsibility for all drilling, completion and production operation.  
#Halliburton makes no representations or warranties, either expressed or 
#implied, including, but not limited to, the implied warranties of merchantability or fitness 
#for a particular purpose, with respect to the services rendered.  In no event will 
#Halliburton be liable for failure to obtain any particular results or for 
#any damages, including, but not limited to, indirect, special or consequential damages, 
#resulting from the use of any information or interpretation provided by Halliburton.
#
~A           TIME           GTDEPTH  GTPQH  GTTQ  GTTN  GTET   GTTVD  
# ...
   19:09:23.711.27-Apr-2021 3392.01 5328.25 72.63 5.00 345.08 2716.87
   19:09:23.911.27-Apr-2021 3392.01 5328.25 72.63 5.00 345.28 2716.87
   19:09:24.111.27-Apr-2021 3392.01 6018.28 72.63 5.00 345.48 2716.87
   19:09:24.311.27-Apr-2021 3392.01 6020.87 72.63 5.00 345.68 2716.87
   19:09:24.511.27-Apr-2021 3392.01 6020.78 72.63 5.00 345.88 2716.87
   19:09:24.711.27-Apr-2021 3392.01 6021.56 72.63 5.00 346.08 2716.87
   19:09:24.911.27-Apr-2021 3392.01 6021.56 72.63 5.00 346.28 2716.87
   19:09:25.111.27-Apr-2021 3392.01 6024.93 72.63 5.00 346.48 2716.87
   19:09:25.312.27-Apr-2021 3392.01 6025.68 72.63 5.00 346.68 2716.87
   19:09:25.512.27-Apr-2021 3392.01 6027.75 72.63 5.00 346.88 2716.87
   19:09:25.712.27-Apr-2021 3392.01 6023.26 72.63 5.00 347.08 2716.87
   19:09:25.912.27-Apr-2021 3392.01 6023.26 72.63 5.00 347.28 2716.87
   19:09:26.112.27-Apr-2021 3392.01 6028.93 72.63 5.00 347.48 2716.87
   19:09:26.312.27-Apr-2021 3392.01 6023.70 72.63 5.00 347.68 2716.87
   19:09:26.512.27-Apr-2021 3392.01 6030.27 72.63 5.00 347.88 2716.87
   19:09:26.712.27-Apr-2021 3392.01 6026.54 72.63 5.00 348.09 2716.87
   19:09:26.912.27-Apr-2021 3392.01 6026.54 72.63 5.00 348.29 2716.87
   19:09:27.112.27-Apr-2021 3392.01 6029.25 72.63 5.00 348.49 2716.87
   19:09:27.312.27-Apr-2021 3392.01 6023.90 72.63 5.00 348.69 2716.87
   19:09:27.512.27-Apr-2021 3392.01 6030.77 72.63 5.00 348.89 2716.87
   19:09:27.712.27-Apr-2021 3392.01 6018.31 72.63 5.00 349.09 2716.87
   19:09:27.912.27-Apr-2021 3392.01 6018.31 72.63 5.00 349.29 2716.87
   19:09:28.112.27-Apr-2021 3392.01 6029.87 72.63 5.00 349.49 2716.87
   19:09:28.312.27-Apr-2021 3392.01 6026.96 72.63 5.00 349.69 2716.87
   19:09:28.512.27-Apr-2021 3392.01 6028.68 72.63 5.00 349.89 2716.87
   19:09:28.712.27-Apr-2021 3392.01 6028.99 72.63 5.00 350.09 2716.87
   19:09:28.912.27-Apr-2021 3392.01 6028.99 72.63 5.00 350.29 2716.87
   19:09:29.112.27-Apr-2021 3392.01 6027.39 72.63 5.00 350.49 2716.87
   19:09:29.313.27-Apr-2021 3392.01 6027.20 72.63 5.00 350.69 2716.87
   19:09:29.513.27-Apr-2021 3392.01 6028.42 72.63 5.00 350.89 2716.87
   19:09:29.713.27-Apr-2021 3392.01 6031.12 72.63 5.00 351.09 2716.87
   19:09:29.913.27-Apr-2021 3392.01 6031.12 72.63 5.00 351.29 2716.87
   19:09:30.113.27-Apr-2021 3392.01 6031.77 72.63 5.00 351.49 2716.87
   19:09:30.313.27-Apr-2021 3392.01 6029.47 72.63 5.00 351.69 2716.87
   19:09:30.513.27-Apr-2021 3392.01 6029.53 72.63 5.00 351.89 2716.87
   19:09:30.713.27-Apr-2021 3392.01 6032.18 72.63 5.00 352.09 2716.87
   19:09:30.913.27-Apr-2021 3392.01 6032.18 72.63 5.00 352.29 2716.87
   19:09:31.113.27-Apr-2021 3392.01 6030.13 72.63 5.00 352.49 2716.87
   19:09:31.313.27-Apr-2021 3392.01 6030.21 72.63 5.00 352.69 2716.87
   19:09:31.513.27-Apr-2021 3392.01 6017.37 72.63 5.00 352.89 2716.87
   19:09:31.713.27-Apr-2021 3392.01 6029.37 72.63 5.00 353.09 2716.87
   19:09:31.913.27-Apr-2021 3392.01 6029.37 72.63 5.00 353.29 2716.87
   19:09:32.113.27-Apr-2021 3392.01 6022.60 72.63 5.00 353.49 2716.87
   19:09:32.313.27-Apr-2021 3392.01 6028.87 72.64 5.00 353.69 2716.87
   19:09:32.513.27-Apr-2021 3392.01 6027.61 72.63 5.00 353.89 2716.87
   19:09:32.713.27-Apr-2021 3392.01 6026.86 72.64 5.00 354.09 2716.87
   19:09:32.913.27-Apr-2021 3392.01 6026.86 72.64 5.00 354.29 2716.87
   19:09:33.113.27-Apr-2021 3392.01 6027.55 72.64 5.00 354.49 2716.87
   19:09:33.313.27-Apr-2021 3392.01 6030.87 72.64 5.00 354.69 2716.87
   19:09:33.514.27-Apr-2021 3392.01 6029.47 72.63 5.00 354.89 2716.87
   19:09:33.714.27-Apr-2021 3392.01 6029.77 72.63 5.00 355.09 2716.87
   19:09:33.914.27-Apr-2021 3392.01 6029.77 72.63 5.00 355.29 2716.87
   19:09:34.114.27-Apr-2021 3392.01 6031.19 72.63 5.00 355.49 2716.87
   19:09:34.314.27-Apr-2021 3392.01 6018.64 72.63 5.00 355.69 2716.87
   19:09:34.514.27-Apr-2021 3392.01 6030.48 72.63 5.00 355.89 2716.87
   19:09:34.714.27-Apr-2021 3392.01 6028.07 72.63 5.00 356.09 2716.87
   19:09:34.914.27-Apr-2021 3392.01 6028.07 72.63 5.00 356.29 2716.87
   19:09:35.114.27-Apr-2021 3392.01 6030.72 72.63 5.00 356.49 2716.87
   19:09:35.314.27-Apr-2021 3392.01 6017.18 72.63 5.00 356.69 2716.87
   19:09:35.514.27-Apr-2021 3392.01 6032.24 72.63 5.00 356.89 2716.87
   19:09:35.714.27-Apr-2021 3392.01 6028.83 72.63 5.00 357.09 2716.87
   19:09:35.914.27-Apr-2021 3392.01 6028.83 72.63 5.00 357.29 2716.87
   19:09:36.114.27-Apr-2021 3392.01 6031.37 72.63 5.00 357.49 2716.87
   19:09:36.314.27-Apr-2021 3392.01 6020.00 72.63 5.00 357.69 2716.87
   19:09:36.514.27-Apr-2021 3392.01 6028.75 72.63 5.00 357.89 2716.87
   19:09:36.714.27-Apr-2021 3392.01 6031.59 72.63 5.00 358.09 2716.87
   19:09:36.914.27-Apr-2021 3392.01 6031.59 72.63 5.00 358.29 2716.87
   19:09:37.114.27-Apr-2021 3392.01 6017.66 72.63 5.00 358.49 2716.87
   19:09:37.314.27-Apr-2021 3392.01 6032.13 72.63 5.00 358.69 2716.87
   19:09:37.515.27-Apr-2021 3392.01 6027.76 72.63 5.00 358.89 2716.87
   19:09:37.715.27-Apr-2021 3392.01 6025.58 72.63 5.00 359.09 2716.87
   19:09:37.915.27-Apr-2021 3392.01 6025.58 72.63 5.00 359.29 2716.87
   19:09:38.115.27-Apr-2021 3392.01 6030.68 72.63 5.00 359.49 2716.87
   19:09:38.315.27-Apr-2021 3392.01 6028.50 72.63 5.00 359.69 2716.87
   19:09:38.515.27-Apr-2021 3392.01 6028.67 72.63 5.00 359.89 2716.87
   19:09:38.715.27-Apr-2021 3392.01 6030.36 72.63 5.00 360.09 2716.87
   19:09:38.915.27-Apr-2021 3392.01 6030.36 72.63 5.00 360.29 2716.87
   19:09:39.115.27-Apr-2021 3392.01 6031.39 72.63 5.00 360.49 2716.87
   19:09:39.315.27-Apr-2021 3392.01 6028.74 72.63 5.00 360.69 2716.87
   19:09:39.515.27-Apr-2021 3392.01 6031.63 72.63 5.00 360.89 2716.87
   19:09:39.715.27-Apr-2021 3392.01 6026.77 72.63 5.00 361.09 2716.87
   19:09:39.915.27-Apr-2021 3392.01 6026.77 72.63 5.00 361.29 2716.87
   19:09:40.115.27-Apr-2021 3392.01 6026.56 72.63 5.00 361.49 2716.87
   19:09:40.315.27-Apr-2021 3392.01 6025.74 72.63 5.00 361.69 2716.87
   19:09:40.515.27-Apr-2021 3392.01 6027.43 72.63 5.00 361.89 2716.87
   19:09:40.715.27-Apr-2021 3392.01 6027.44 72.63 5.00 362.09 2716.87
   19:09:40.915.27-Apr-2021 3392.01 6027.44 72.63 5.00 362.29 2716.87
   19:09:41.115.27-Apr-2021 3392.01 6026.76 72.63 5.00 362.49 2716.87
   19:09:41.315.27-Apr-2021 3392.01 6028.26 72.63 5.00 362.69 2716.87
   19:09:41.515.27-Apr-2021 3392.01 6027.83 72.63 5.00 362.89 2716.87
   19:09:41.716.27-Apr-2021 3392.01 6031.87 72.62 5.00 363.09 2716.87
   19:09:41.916.27-Apr-2021 3392.01 6031.87 72.62 5.00 363.29 2716.87
   19:09:42.116.27-Apr-2021 3392.01 6029.95 72.62 5.00 363.49 2716.87
   19:09:42.316.27-Apr-2021 3392.01 6030.04 72.62 5.00 363.69 2716.87
   19:09:42.516.27-Apr-2021 3392.01 6030.34 72.62 5.00 363.89 2716.87
   19:09:42.716.27-Apr-2021 3392.01 6016.76 72.62 5.00 364.09 2716.87
   19:09:42.916.27-Apr-2021 3392.01 6016.76 72.62 5.00 364.29 2716.87
   19:09:43.116.27-Apr-2021 3392.01 6031.05 72.62 5.00 364.49 2716.87
   19:09:43.316.27-Apr-2021 3392.01 6024.03 72.62 5.00 364.69 2716.87
   19:09:43.516.27-Apr-2021 3392.01 6030.76 72.62 5.00 364.89 2716.87
   19:09:43.716.27-Apr-2021 3392.01 6025.99 72.62 5.00 365.09 2716.87
   19:09:43.916.27-Apr-2021 3392.01 6025.99 72.62 5.00 365.29 2716.87
   19:09:44.116.27-Apr-2021 3392.01 6024.26 72.62 5.00 365.49 2716.87
   19:09:44.316.27-Apr-2021 3392.01 6026.02 72.62 5.00 365.69 2716.87
   19:09:44.516.27-Apr-2021 3392.01 6029.73 72.62 5.00 365.89 2716.87
   19:09:44.716.27-Apr-2021 3392.01 6023.11 72.62 5.00 366.09 2716.87
   19:09:44.916.27-Apr-2021 3392.01 6023.11 72.62 5.00 366.29 2716.87
   19:09:45.116.27-Apr-2021 3392.01 6028.48 72.62 5.00 366.49 2716.87
   19:09:45.316.27-Apr-2021 3392.01 6029.84 72.62 5.00 366.69 2716.87
   19:09:45.516.27-Apr-2021 3392.01 6027.65 72.62 5.00 366.89 2716.87
   19:09:45.717.27-Apr-2021 3392.01 6032.15 72.62 5.00 367.09 2716.87
   19:09:45.917.27-Apr-2021 3392.01 6032.15 72.62 5.00 367.29 2716.87
   19:09:46.117.27-Apr-2021 3392.01 6032.60 72.62 5.00 367.49 2716.87
   19:09:46.317.27-Apr-2021 3392.01 6030.53 72.62 5.00 367.69 2716.87
   19:09:46.517.27-Apr-2021 3392.01 6025.79 72.62 5.00 367.89 2716.87
