~Version Information
 VERS.                  2.0:   CWLS log ASCII Standard -VERSION 2.0
 WRAP.                   NO:   One line per depth step
~Well Information Block
#MNEM.UNIT     VALUE/NAME     DESCRIPTION
#---------     -----------    ---------------------------
 STRT.S             18:57:18 28-Apr-21: START TIME 18:57:18 28-Apr-21
 STOP.S             19:03:45 28-Apr-21: STOP TIME  19:03:45 28-Apr-21
 STEP.S                   0.00: STEP TIME
 NULL.                 -999.25: NULL VALUE
 DFWT.                        :  DIST FWL TEXT
 DFST.                        :  DIST FSL TEXT
 DMF .             Drill Floor:  DRILL MEAS FROM
 STIM.      02.00.00 12-Apr-21:  START TIME
 DATE.      02.00.00 02-May-21:  END TIME
 SPUD.               09-Apr-21:  SPUD DATE
 NREF.                    Grid:  NORTH REFERENCE
 HPTY.       Minimum Curvature:  HOLE POS TYPE
 DMOD.             Drill Model:  DRILL MOD DESC
 SVYD.                  Survey:  SURVEY DESC
 ILTD.               Lithology:  INTERP LTH DESC
 FTOP.          Formation Tops:  FORM TOPS DESC
 PDAT.          Mean Sea Level:  PERMANENT DATUM
 FLD .                     ACG:  FIELD NAME
 SON .        AZ-XX-0907021034:  JOB NUMBER
 CTRY.              Azerbaijan:  COUNTRY NAME
 WELL.                    E01x:  WELL NAME
 COMP.     BP Exploration (Caspian Sea) LTD.:  COMPANY
 UWI .            /AZE00001403:  UNIQUE WELL IDENTIFIER
 API .            /AZE00001403:  API NUMBER
 WTYP.                Deviated:  WELL TYPE
 MDS .        Operator Entered:  MAG DATA SOURCE
 BASE.              Azerbaijan:  LOGGING EQUIPMENT BASE LOCATION
 REGN.                   EESSA:  REGION
 PROV.                    Baku:  PROVINCE
 STAT.                    Baku:  STATE NAME
 SRVC.          Turan Drilling:  CONTRACTOR
 MWDS.                    Baku:  MWD SHOP
 JOBN.        AZ-XX-0907021034:  JOB TICKET NUMB
 RIG .                     DWG:  RIG NAME
 DOE .                     N/A:  DOE NUMBER
 DCON.         Sperry Drilling:  DIRECTNL CONTR
 UNIT.                     N/A:  LOGGING EQUIPMENT ID
 CNTY.                        :  COUNTY
 LOC .                        :  LOCATION
 LMF .             Drill Floor:  LOG MEASURED FROM
 TVDS.m                  43.16:  TVDSS CORRECTN
 LATI.deg                40.17:  LATITUDE
 LONG.deg                51.17:  LONGITUDE
 WHNS.m                  -5.90:  WELL HEAD N/S
 WHEW.m                  -6.61:  WELL HEAD E/W
 UTMX.m              514337.95:  UTM X
 UTMY.m             4448627.46:  UTM Y
 DFWL.m                   0.00:  DISTANCE FWL
 DFSL.m                   0.00:  DISTANCE FSL
 SDEP.m                2606.87:  START DEPTH
 TDD .m                3618.01:  TOTAL DEPTH (DRILLER)
 VSDR.deg               177.42:  VERT SEC DIRECT
 GVFD.g                   1.00:  GRAVITY FIELD
 MFLD.nT              50399.00:  MAGNETIC FIELD
 MDIP.deg                59.67:  MAGNETIC DIP
 MDEC.deg                 6.56:  MAGNETIC DECL
 GRDC.deg                 0.11:  GRID CORRECTION
 AZTC.deg                 6.45:  AZM TOTAL CORR
 EPD .m                   0.00:  ELEVATION
 EGL .m                   0.00:  GROUND ELEVATION
 WDMS.m                 176.20:  WD ELEV
 APD .m                  43.16:  DEPTH ABOVE PD
 DEP .m                2606.87:  DEPTH
 AGAP.m                  43.16:  AIR GAP
 VSEW.m                  -6.61:  VERT SEC E/W
 VSNS.m                  -5.90:  VERT SEC N/S
 EKB .m                  43.16:  KB ELEVATION
 EDF .m                  43.16:  DF ELEVATION
 TDL .m                 438.00:  TOTAL DEPTH (LOGGER)
 VSC .                       0:  VS TO CLOSURE
 MAGU.                 1855490:  MAGUTM CHECKSUM
~Parameter Information Block
#MNEM.UNIT       Value        Description
#---------     -----------    ---------------------------
 AV  .mps                 2.20:  Ann Velocity 
 AVMX.mps                 2.50:  Max Ann Veloc 
 AZIF.deg               150.21:  Azm, Final 
 BHAT.        Rotary Steerable:  BHA Type 
 BROT.°/30m               0.08:  Build Rotating 
 BS  .in                  6.50:  Bit Size 
 BSZ .in                  6.50:  Bit Size 
 BTPL.psig              108.00:  Bit Press Loss 
 CABU.                     Yes:  Customer Abuse 
 CGEO.           Emin Aliyarli:  Customer Geo 
 COMM.                     ´âi:  Run Comments 1 
 TCS .hr                 74.20:  Time Ciculation Ended 
 CV  .mps                 3.63:  Crit Velocity 
 CVMX.mps                 3.66:  Max Crit Veloc 
 DD1 .         Intigam Rahimov:  Direct Drillr 1 
 DD2 .          Teymur Aghayev:  Direct Drillr 2 
 DDSV.               Geo-Pilot:  DD Service 
 DEFF.%                  97.00:  % Det Eff 
 DLRX.°/30m               1.63:  Dogleg Rot Max 
 DLSO.°/30m               0.00:  Dogleg Oriented 
 DLSX.°/30m               0.00:  Dogleg Str Max 
 DRET.      20.20.00 28-Apr-21:  Drill End Time 
 DRST.      04.45.00 26-Apr-21:  Drill Start Tim 
 DTIM.hr                 34.30:  Time Drilling 
 EDEP.m                3618.01:  End Depth 
 ENG1.           Amrah Tahirov:  Engineer 1 
 ENG2.         Bahruz Mehdiyev:  Engineer 2 
 ENG3.         Farhad Orujzade:  Engineer 3 
 ETIM.      19.00.00 29-Apr-21:  End Time 
 FLOI.gpm               370.00:  Flow In 
 FLON.gpm               300.00:  Flow In Min 
 FLOS.cptm                0.00:  Fluid Loss 
 FLOX.gpm               410.00:  Flow In Max 
 HFLO.                      No:  High Flow 
 HPRE.                      No:  High Pressure 
 HTEM.                      No:  High Temp 
 HYDO.m                   1.80:  Hydro Offset 
 IFIN.deg                67.19:  Inc, Final 
 IMAX.deg                68.42:  Inc Max 
 IMIN.deg                66.33:  Inc Min 
 IMND.m                3532.79:  Inc Min Depth 
 IMXD.m                3192.15:  Inc Max Depth 
 JARR.                      No:  Jarring 
 LETM.      20.20.00 28-Apr-21:  Log End Time 
 LOST.hr                     0:  Lost Rig Time 
 LSTM.      04.45.00 26-Apr-21:  Log Start Time 
 MDCL.ppm             36500.00:  Mud Chlorides 
 MDES.     Inversion Oil/Synthetic:  Mud Desc 
 DFD .sg                  1.42:  Mud Density 
 MDMN.sg                  1.42:  Dens Mud Min 
 MDMX.sg                  1.42:  Dens Mud Max 
 MOIL.                    55.7:  Run Mud Oil % 
 MOWR.                   71:29:  Run Mud OWR 
 MSND.                     0.1:  Run Mud Sand % 
 MSOL.                    19.9:  Run Mud Solids% 
 DFV .spqt               83.00:  Mud Viscosity 
 MWOD.in                  5.15:  MWD Tool OD 
 MWSI.                      No:  Serv Intrp, MWD 
 OTIM.hr                120.59:  Time Operating 
 PCON.           Look Like New:  Pad Condition 
 PMAX.psia            11292.93:  Press Op, Max 
 PV  .cP                 27.00:  Mud PV 
 RUN .                     400:  Run Number 
 ROPA.m/hr               14.00:  ROP Avg 
 ROPN.m/hr                9.00:  ROP Min 
 ROPX.m/hr               18.00:  ROP Max 
 RPMA.rpm               130.00:  RPM Surface Avg 
 RPMN.rpm               100.00:  RPM Surface Min 
 RPMX.rpm               140.00:  RPM Surface Max 
 RRUN.                    0400:  Rig Run Number 
 RTIM.hr                 38.60:  Time Reaming 
 SAZI.deg               149.55:  Azm, Start 
 SDEP.m                3180.01:  Start Depth 
 SIDD.                      No:  Serv Intrp, DD 
 SINC.deg                68.42:  Inc, Start 
 SPPA.psig             4400.00:  SPP Avg 
 SPPN.psig             3580.00:  SPP Min 
 SPPX.psig             4850.00:  SPP Max 
 STIM.      12.30.00 24-Apr-21:  Start Time 
 SVCS.                 DD, MWD:  Services 
 SVER.                    9.20:  Sperry Version 
 TDAT.m                 438.00:  Tot Depth Attmp 
 TDDF.                      No:  Trip for DD 
 TDLG.m                 438.00:  Tot Depth Loggd 
 TFF .                      No:  Trip for Fail 
 TQAA.f-kp               11.00:  Torque Abs Avg 
 TQAN.f-kp                9.00:  Torque Abs Min 
 TQAX.f-kp               14.00:  Torque Abs Max 
 TRRT.°/30m               0.04:  Turn Rotating 
 MRT .                    HCIM:  Maximum Recorded Temperature 
 TTMX.degC               84.31:  Max Tool Temp 
 VS01.                90521954:  Virtual Str1 SN 
 VS02.                90519327:  Virtual Str2 SN 
 VS03.                90522273:  Virtual Str3 SN 
 VS04.                11108038:  Virtual Str4 SN 
 VS05.                12258760:  Virtual Str5 SN 
 WBMN.klb                 1.00:  WOB Min 
 WITN.           Adil Mammadov:  Customer Rep 
 WITN.         Alex Yadullayev:  Customer Rep 2 
 WOBA.klb                 6.00:  WOB Avg 
 WOBX.klb                 9.00:  WOB Max 
 YP  .lhf2               31.00:  Yield Point 
~Curve Information Block
#MNEM.UNIT                 API CODE     Curve Description
#---------               -----------    ---------------------------
 TIME.HHMMSS            00 000 000 000:  GT Time & Date
 GTDEPTH.m              00 000 000 000:  GT Depth
 GTPQH.psia             00 000 000 000:  GT HR Quartz Pressure
 GTTQ.degC              00 000 000 000:  GT Quartz Temperature
 GTTN.NONE              00 000 000 000:  GT Test Number
 GTET.sec               00 000 000 000:  GT Elapsed Test Time
 GTTVD.m                00 000 000 000:  GT True Vertical Depth
#Other Information
#
#WARRANTY: Halliburton will use its best efforts to furnish customers with 
#accurate information and interpretations that are part of, and incident to, the services 
#provided.  However, Halliburton cannot and does not warrant the accuracy 
#or correctness of such information and interpretations.  Under no circumstances should any 
#such information or interpretation be relied upon as the sole basis for any drilling, 
#completion, production, or financial decision or any procedure involving any risk to the 
#safety of any drilling venture, drilling rig or its crew or any other third party.  The 
#Customer has full responsibility for all drilling, completion and production operation.  
#Halliburton makes no representations or warranties, either expressed or 
#implied, including, but not limited to, the implied warranties of merchantability or fitness 
#for a particular purpose, with respect to the services rendered.  In no event will 
#Halliburton be liable for failure to obtain any particular results or for 
#any damages, including, but not limited to, indirect, special or consequential damages, 
#resulting from the use of any information or interpretation provided by Halliburton.
#
~A           TIME           GTDEPTH  GTPQH  GTTQ  GTTN   GTET   GTTVD  
# ...
   19:01:49.513.28-Apr-2021 3565.01 4083.89 74.87 11.00 271.28 2784.87
   19:01:49.713.28-Apr-2021 3565.01 4083.85 74.87 11.00 271.48 2784.87
   19:01:49.913.28-Apr-2021 3565.01 4083.71 74.87 11.00 271.68 2784.87
   19:01:50.113.28-Apr-2021 3565.01 4083.96 74.87 11.00 271.88 2784.87
   19:01:50.313.28-Apr-2021 3565.01 4083.92 74.87 11.00 272.08 2784.87
   19:01:50.513.28-Apr-2021 3565.01 4083.92 74.87 11.00 272.28 2784.87
   19:01:50.713.28-Apr-2021 3565.01 4083.90 74.87 11.00 272.48 2784.87
   19:01:50.913.28-Apr-2021 3565.01 4083.85 74.87 11.00 272.68 2784.87
   19:01:51.114.28-Apr-2021 3565.01 4083.74 74.87 11.00 272.88 2784.87
   19:01:51.314.28-Apr-2021 3565.01 4083.98 74.87 11.00 273.08 2784.87
   19:01:51.514.28-Apr-2021 3565.01 4083.98 74.87 11.00 273.28 2784.87
   19:01:51.714.28-Apr-2021 3565.01 4083.92 74.86 11.00 273.48 2784.87
   19:01:51.914.28-Apr-2021 3565.01 4083.86 74.86 11.00 273.68 2784.87
   19:01:52.114.28-Apr-2021 3565.01 4083.87 74.86 11.00 273.88 2784.87
   19:01:52.314.28-Apr-2021 3565.01 4083.88 74.86 11.00 274.08 2784.87
   19:01:52.514.28-Apr-2021 3565.01 4083.88 74.86 11.00 274.28 2784.87
   19:01:52.714.28-Apr-2021 3565.01 4083.97 74.86 11.00 274.48 2784.87
   19:01:52.914.28-Apr-2021 3565.01 4083.91 74.86 11.00 274.68 2784.87
   19:01:53.114.28-Apr-2021 3565.01 4083.89 74.86 11.00 274.88 2784.87
   19:01:53.314.28-Apr-2021 3565.01 4083.87 74.86 11.00 275.08 2784.87
   19:01:53.514.28-Apr-2021 3565.01 4083.87 74.86 11.00 275.28 2784.87
   19:01:53.714.28-Apr-2021 3565.01 4083.88 74.86 11.00 275.48 2784.87
   19:01:53.914.28-Apr-2021 3565.01 4083.86 74.86 11.00 275.68 2784.87
   19:01:54.114.28-Apr-2021 3565.01 4083.87 74.86 11.00 275.88 2784.87
   19:01:54.314.28-Apr-2021 3565.01 4083.84 74.86 11.00 276.08 2784.87
   19:01:54.515.28-Apr-2021 3565.01 4083.84 74.86 11.00 276.28 2784.87
   19:01:54.715.28-Apr-2021 3565.01 4083.84 74.86 11.00 276.48 2784.87
   19:01:54.915.28-Apr-2021 3565.01 4083.87 74.86 11.00 276.68 2784.87
   19:01:55.115.28-Apr-2021 3565.01 4083.71 74.86 11.00 276.88 2784.87
   19:01:55.315.28-Apr-2021 3565.01 4083.86 74.85 11.00 277.08 2784.87
   19:01:55.515.28-Apr-2021 3565.01 4083.86 74.85 11.00 277.28 2784.87
   19:01:55.715.28-Apr-2021 3565.01 4083.90 74.85 11.00 277.48 2784.87
   19:01:55.915.28-Apr-2021 3565.01 4083.89 74.85 11.00 277.68 2784.87
   19:01:56.115.28-Apr-2021 3565.01 4083.82 74.85 11.00 277.88 2784.87
   19:01:56.315.28-Apr-2021 3565.01 4083.87 74.85 11.00 278.08 2784.87
   19:01:56.515.28-Apr-2021 3565.01 4083.87 74.85 11.00 278.28 2784.87
   19:01:56.715.28-Apr-2021 3565.01 4083.86 74.85 11.00 278.48 2784.87
   19:01:56.915.28-Apr-2021 3565.01 4083.86 74.85 11.00 278.68 2784.87
   19:01:57.115.28-Apr-2021 3565.01 4083.83 74.85 11.00 278.88 2784.87
   19:01:57.315.28-Apr-2021 3565.01 4083.84 74.85 11.00 279.08 2784.87
   19:01:57.515.28-Apr-2021 3565.01 4083.84 74.85 11.00 279.28 2784.87
   19:01:57.716.28-Apr-2021 3565.01 4083.88 74.85 11.00 279.48 2784.87
   19:01:57.916.28-Apr-2021 3565.01 4083.63 74.85 11.00 279.68 2784.87
   19:01:58.116.28-Apr-2021 3565.01 4083.95 74.85 11.00 279.88 2784.87
   19:01:58.316.28-Apr-2021 3565.01 4083.88 74.85 11.00 280.08 2784.87
   19:01:58.516.28-Apr-2021 3565.01 4083.88 74.85 11.00 280.28 2784.87
   19:01:58.716.28-Apr-2021 3565.01 4083.88 74.85 11.00 280.48 2784.87
   19:01:58.916.28-Apr-2021 3565.01 4083.82 74.85 11.00 280.68 2784.87
   19:01:59.116.28-Apr-2021 3565.01 4083.72 74.84 11.00 280.88 2784.87
   19:01:59.316.28-Apr-2021 3565.01 4083.94 74.84 11.00 281.08 2784.87
   19:01:59.516.28-Apr-2021 3565.01 4083.94 74.84 11.00 281.28 2784.87
   19:01:59.716.28-Apr-2021 3565.01 4083.90 74.84 11.00 281.48 2784.87
   19:01:59.916.28-Apr-2021 3565.01 4083.84 74.84 11.00 281.68 2784.87
   19:02:00.116.28-Apr-2021 3565.01 4083.86 74.84 11.00 281.88 2784.87
   19:02:00.316.28-Apr-2021 3565.01 4083.72 74.84 11.00 282.08 2784.87
   19:02:00.516.28-Apr-2021 3565.01 4083.72 74.84 11.00 282.28 2784.87
   19:02:00.716.28-Apr-2021 3565.01 4083.87 74.84 11.00 282.48 2784.87
   19:02:00.916.28-Apr-2021 3565.01 4083.89 74.84 11.00 282.68 2784.87
   19:02:01.117.28-Apr-2021 3565.01 4083.87 74.84 11.00 282.88 2784.87
   19:02:01.317.28-Apr-2021 3565.01 4083.84 74.84 11.00 283.08 2784.87
   19:02:01.517.28-Apr-2021 3565.01 4083.84 74.84 11.00 283.28 2784.87
   19:02:01.717.28-Apr-2021 3565.01 4083.64 74.84 11.00 283.48 2784.87
   19:02:01.917.28-Apr-2021 3565.01 4084.00 74.84 11.00 283.68 2784.87
   19:02:02.117.28-Apr-2021 3565.01 4083.89 74.84 11.00 283.88 2784.87
   19:02:02.317.28-Apr-2021 3565.01 4083.87 74.84 11.00 284.08 2784.87
   19:02:02.517.28-Apr-2021 3565.01 4083.87 74.84 11.00 284.28 2784.87
   19:02:02.717.28-Apr-2021 3565.01 4083.84 74.83 11.00 284.48 2784.87
   19:02:02.917.28-Apr-2021 3565.01 4083.89 74.83 11.00 284.68 2784.87
   19:02:03.117.28-Apr-2021 3565.01 4083.85 74.83 11.00 284.88 2784.87
   19:02:03.317.28-Apr-2021 3565.01 4083.86 74.83 11.00 285.08 2784.87
   19:02:03.517.28-Apr-2021 3565.01 4083.86 74.83 11.00 285.28 2784.87
   19:02:03.717.28-Apr-2021 3565.01 4083.85 74.83 11.00 285.48 2784.87
   19:02:03.917.28-Apr-2021 3565.01 4083.84 74.83 11.00 285.68 2784.87
   19:02:04.117.28-Apr-2021 3565.01 4083.84 74.83 11.00 285.88 2784.87
   19:02:04.317.28-Apr-2021 3565.01 4083.75 74.83 11.00 286.08 2784.87
   19:02:04.518.28-Apr-2021 3565.01 4083.75 74.83 11.00 286.28 2784.87
   19:02:04.718.28-Apr-2021 3565.01 4083.90 74.83 11.00 286.48 2784.87
   19:02:04.918.28-Apr-2021 3565.01 4083.90 74.83 11.00 286.68 2784.87
   19:02:05.118.28-Apr-2021 3565.01 4083.87 74.83 11.00 286.88 2784.87
   19:02:05.318.28-Apr-2021 3565.01 4083.82 74.83 11.00 287.08 2784.87
   19:02:05.518.28-Apr-2021 3565.01 4083.82 74.83 11.00 287.28 2784.87
   19:02:05.718.28-Apr-2021 3565.01 4083.88 74.83 11.00 287.49 2784.87
   19:02:05.918.28-Apr-2021 3565.01 4083.83 74.83 11.00 287.69 2784.87
   19:02:06.118.28-Apr-2021 3565.01 4083.85 74.83 11.00 287.89 2784.87
   19:02:06.318.28-Apr-2021 3565.01 4083.82 74.83 11.00 288.09 2784.87
   19:02:06.518.28-Apr-2021 3565.01 4083.82 74.83 11.00 288.29 2784.87
   19:02:06.718.28-Apr-2021 3565.01 4083.82 74.82 11.00 288.49 2784.87
   19:02:06.918.28-Apr-2021 3565.01 4083.85 74.82 11.00 288.69 2784.87
   19:02:07.118.28-Apr-2021 3565.01 4083.65 74.82 11.00 288.89 2784.87
   19:02:07.318.28-Apr-2021 3565.01 4083.92 74.82 11.00 289.09 2784.87
   19:02:07.518.28-Apr-2021 3565.01 4083.92 74.82 11.00 289.29 2784.87
   19:02:07.718.28-Apr-2021 3565.01 4083.87 74.82 11.00 289.49 2784.87
   19:02:07.919.28-Apr-2021 3565.01 4083.87 74.82 11.00 289.69 2784.87
   19:02:08.119.28-Apr-2021 3565.01 4083.83 74.82 11.00 289.89 2784.87
   19:02:08.319.28-Apr-2021 3565.01 4083.70 74.82 11.00 290.09 2784.87
   19:02:08.519.28-Apr-2021 3565.01 4083.70 74.82 11.00 290.29 2784.87
   19:02:08.719.28-Apr-2021 3565.01 4083.88 74.82 11.00 290.49 2784.87
   19:02:08.919.28-Apr-2021 3565.01 4083.90 74.82 11.00 290.69 2784.87
   19:02:09.119.28-Apr-2021 3565.01 4083.84 74.82 11.00 290.89 2784.87
   19:02:09.319.28-Apr-2021 3565.01 4083.84 74.82 11.00 291.09 2784.87
   19:02:09.519.28-Apr-2021 3565.01 4083.84 74.82 11.00 291.29 2784.87
   19:02:09.719.28-Apr-2021 3565.01 4083.88 74.82 11.00 291.49 2784.87
   19:02:09.919.28-Apr-2021 3565.01 4083.90 74.82 11.00 291.69 2784.87
   19:02:10.119.28-Apr-2021 3565.01 4083.88 74.82 11.00 291.89 2784.87
   19:02:10.319.28-Apr-2021 3565.01 4083.86 74.81 11.00 292.09 2784.87
   19:02:10.519.28-Apr-2021 3565.01 4083.86 74.81 11.00 292.29 2784.87
   19:02:10.719.28-Apr-2021 3565.01 4083.88 74.81 11.00 292.49 2784.87
   19:02:10.919.28-Apr-2021 3565.01 4083.64 74.81 11.00 292.69 2784.87
   19:02:11.119.28-Apr-2021 3565.01 4083.98 74.81 11.00 292.89 2784.87
   19:02:11.320.28-Apr-2021 3565.01 4083.90 74.81 11.00 293.09 2784.87
   19:02:11.520.28-Apr-2021 3565.01 4083.90 74.81 11.00 293.29 2784.87
   19:02:11.720.28-Apr-2021 3565.01 4083.87 74.81 11.00 293.49 2784.87
   19:02:11.920.28-Apr-2021 3565.01 4083.83 74.81 11.00 293.69 2784.87
