~Version Information
 VERS.                  2.0:   CWLS log ASCII Standard -VERSION 2.0
 WRAP.                   NO:   One line per depth step
~Well Information Block
#MNEM.UNIT     VALUE/NAME     DESCRIPTION
#---------     -----------    ---------------------------
 STRT.S             06:54:29 28-Apr-21: START TIME 06:54:29 28-Apr-21
 STOP.S             07:00:57 28-Apr-21: STOP TIME  07:00:57 28-Apr-21
 STEP.S                   0.00: STEP TIME
 NULL.                 -999.25: NULL VALUE
 DFWT.                        :  DIST FWL TEXT
 DFST.                        :  DIST FSL TEXT
 DMF .             Drill Floor:  DRILL MEAS FROM
 STIM.      02.00.00 12-Apr-21:  START TIME
 DATE.      02.00.00 02-May-21:  END TIME
 SPUD.               09-Apr-21:  SPUD DATE
 NREF.                    Grid:  NORTH REFERENCE
 HPTY.       Minimum Curvature:  HOLE POS TYPE
 DMOD.             Drill Model:  DRILL MOD DESC
 SVYD.                  Survey:  SURVEY DESC
 ILTD.               Lithology:  INTERP LTH DESC
 FTOP.          Formation Tops:  FORM TOPS DESC
 PDAT.          Mean Sea Level:  PERMANENT DATUM
 FLD .                     ACG:  FIELD NAME
 SON .        AZ-XX-0907021034:  JOB NUMBER
 CTRY.              Azerbaijan:  COUNTRY NAME
 WELL.                    E01x:  WELL NAME
 COMP.     BP Exploration (Caspian Sea) LTD.:  COMPANY
 UWI .            /AZE00001403:  UNIQUE WELL IDENTIFIER
 API .            /AZE00001403:  API NUMBER
 WTYP.                Deviated:  WELL TYPE
 MDS .        Operator Entered:  MAG DATA SOURCE
 BASE.              Azerbaijan:  LOGGING EQUIPMENT BASE LOCATION
 REGN.                   EESSA:  REGION
 PROV.                    Baku:  PROVINCE
 STAT.                    Baku:  STATE NAME
 SRVC.          Turan Drilling:  CONTRACTOR
 MWDS.                    Baku:  MWD SHOP
 JOBN.        AZ-XX-0907021034:  JOB TICKET NUMB
 RIG .                     DWG:  RIG NAME
 DOE .                     N/A:  DOE NUMBER
 DCON.         Sperry Drilling:  DIRECTNL CONTR
 UNIT.                     N/A:  LOGGING EQUIPMENT ID
 CNTY.                        :  COUNTY
 LOC .                        :  LOCATION
 LMF .             Drill Floor:  LOG MEASURED FROM
 TVDS.m                  43.16:  TVDSS CORRECTN
 LATI.deg                40.17:  LATITUDE
 LONG.deg                51.17:  LONGITUDE
 WHNS.m                  -5.90:  WELL HEAD N/S
 WHEW.m                  -6.61:  WELL HEAD E/W
 UTMX.m              514337.95:  UTM X
 UTMY.m             4448627.46:  UTM Y
 DFWL.m                   0.00:  DISTANCE FWL
 DFSL.m                   0.00:  DISTANCE FSL
 SDEP.m                2606.87:  START DEPTH
 TDD .m                3618.01:  TOTAL DEPTH (DRILLER)
 VSDR.deg               177.42:  VERT SEC DIRECT
 GVFD.g                   1.00:  GRAVITY FIELD
 MFLD.nT              50399.00:  MAGNETIC FIELD
 MDIP.deg                59.67:  MAGNETIC DIP
 MDEC.deg                 6.56:  MAGNETIC DECL
 GRDC.deg                 0.11:  GRID CORRECTION
 AZTC.deg                 6.45:  AZM TOTAL CORR
 EPD .m                   0.00:  ELEVATION
 EGL .m                   0.00:  GROUND ELEVATION
 WDMS.m                 176.20:  WD ELEV
 APD .m                  43.16:  DEPTH ABOVE PD
 DEP .m                2606.87:  DEPTH
 AGAP.m                  43.16:  AIR GAP
 VSEW.m                  -6.61:  VERT SEC E/W
 VSNS.m                  -5.90:  VERT SEC N/S
 EKB .m                  43.16:  KB ELEVATION
 EDF .m                  43.16:  DF ELEVATION
 TDL .m                 438.00:  TOTAL DEPTH (LOGGER)
 VSC .                       0:  VS TO CLOSURE
 MAGU.                 1855490:  MAGUTM CHECKSUM
~Parameter Information Block
#MNEM.UNIT       Value        Description
#---------     -----------    ---------------------------
 AV  .mps                 2.20:  Ann Velocity 
 AVMX.mps                 2.50:  Max Ann Veloc 
 AZIF.deg               150.21:  Azm, Final 
 BHAT.        Rotary Steerable:  BHA Type 
 BROT.°/30m               0.08:  Build Rotating 
 BS  .in                  6.50:  Bit Size 
 BSZ .in                  6.50:  Bit Size 
 BTPL.psig              108.00:  Bit Press Loss 
 CABU.                     Yes:  Customer Abuse 
 CGEO.           Emin Aliyarli:  Customer Geo 
 COMM.                     Ô8c:  Run Comments 1 
 TCS .hr                 74.20:  Time Ciculation Ended 
 CV  .mps                 3.63:  Crit Velocity 
 CVMX.mps                 3.66:  Max Crit Veloc 
 DD1 .         Intigam Rahimov:  Direct Drillr 1 
 DD2 .          Teymur Aghayev:  Direct Drillr 2 
 DDSV.               Geo-Pilot:  DD Service 
 DEFF.%                  97.00:  % Det Eff 
 DLRX.°/30m               1.63:  Dogleg Rot Max 
 DLSO.°/30m               0.00:  Dogleg Oriented 
 DLSX.°/30m               0.00:  Dogleg Str Max 
 DRET.      20.20.00 28-Apr-21:  Drill End Time 
 DRST.      04.45.00 26-Apr-21:  Drill Start Tim 
 DTIM.hr                 34.30:  Time Drilling 
 EDEP.m                3618.01:  End Depth 
 ENG1.           Amrah Tahirov:  Engineer 1 
 ENG2.         Bahruz Mehdiyev:  Engineer 2 
 ENG3.         Farhad Orujzade:  Engineer 3 
 ETIM.      19.00.00 29-Apr-21:  End Time 
 FLOI.gpm               370.00:  Flow In 
 FLON.gpm               300.00:  Flow In Min 
 FLOS.cptm                0.00:  Fluid Loss 
 FLOX.gpm               410.00:  Flow In Max 
 HFLO.                      No:  High Flow 
 HPRE.                      No:  High Pressure 
 HTEM.                      No:  High Temp 
 HYDO.m                   1.80:  Hydro Offset 
 IFIN.deg                67.19:  Inc, Final 
 IMAX.deg                68.42:  Inc Max 
 IMIN.deg                66.33:  Inc Min 
 IMND.m                3532.79:  Inc Min Depth 
 IMXD.m                3192.15:  Inc Max Depth 
 JARR.                      No:  Jarring 
 LETM.      20.20.00 28-Apr-21:  Log End Time 
 LOST.hr                     0:  Lost Rig Time 
 LSTM.      04.45.00 26-Apr-21:  Log Start Time 
 MDCL.ppm             36500.00:  Mud Chlorides 
 MDES.     Inversion Oil/Synthetic:  Mud Desc 
 DFD .sg                  1.42:  Mud Density 
 MDMN.sg                  1.42:  Dens Mud Min 
 MDMX.sg                  1.42:  Dens Mud Max 
 MOIL.                    55.7:  Run Mud Oil % 
 MOWR.                   71:29:  Run Mud OWR 
 MSND.                     0.1:  Run Mud Sand % 
 MSOL.                    19.9:  Run Mud Solids% 
 DFV .spqt               83.00:  Mud Viscosity 
 MWOD.in                  5.15:  MWD Tool OD 
 MWSI.                      No:  Serv Intrp, MWD 
 OTIM.hr                120.59:  Time Operating 
 PCON.           Look Like New:  Pad Condition 
 PMAX.psia            11292.93:  Press Op, Max 
 PV  .cP                 27.00:  Mud PV 
 RUN .                     400:  Run Number 
 ROPA.m/hr               14.00:  ROP Avg 
 ROPN.m/hr                9.00:  ROP Min 
 ROPX.m/hr               18.00:  ROP Max 
 RPMA.rpm               130.00:  RPM Surface Avg 
 RPMN.rpm               100.00:  RPM Surface Min 
 RPMX.rpm               140.00:  RPM Surface Max 
 RRUN.                    0400:  Rig Run Number 
 RTIM.hr                 38.60:  Time Reaming 
 SAZI.deg               149.55:  Azm, Start 
 SDEP.m                3180.01:  Start Depth 
 SIDD.                      No:  Serv Intrp, DD 
 SINC.deg                68.42:  Inc, Start 
 SPPA.psig             4400.00:  SPP Avg 
 SPPN.psig             3580.00:  SPP Min 
 SPPX.psig             4850.00:  SPP Max 
 STIM.      12.30.00 24-Apr-21:  Start Time 
 SVCS.                 DD, MWD:  Services 
 SVER.                    9.20:  Sperry Version 
 TDAT.m                 438.00:  Tot Depth Attmp 
 TDDF.                      No:  Trip for DD 
 TDLG.m                 438.00:  Tot Depth Loggd 
 TFF .                      No:  Trip for Fail 
 TQAA.f-kp               11.00:  Torque Abs Avg 
 TQAN.f-kp                9.00:  Torque Abs Min 
 TQAX.f-kp               14.00:  Torque Abs Max 
 TRRT.°/30m               0.04:  Turn Rotating 
 MRT .                    HCIM:  Maximum Recorded Temperature 
 TTMX.degC               84.31:  Max Tool Temp 
 VS01.                90521954:  Virtual Str1 SN 
 VS02.                90519327:  Virtual Str2 SN 
 VS03.                90522273:  Virtual Str3 SN 
 VS04.                11108038:  Virtual Str4 SN 
 VS05.                12258760:  Virtual Str5 SN 
 WBMN.klb                 1.00:  WOB Min 
 WITN.           Adil Mammadov:  Customer Rep 
 WITN.         Alex Yadullayev:  Customer Rep 2 
 WOBA.klb                 6.00:  WOB Avg 
 WOBX.klb                 9.00:  WOB Max 
 YP  .lhf2               31.00:  Yield Point 
~Curve Information Block
#MNEM.UNIT                 API CODE     Curve Description
#---------               -----------    ---------------------------
 TIME.HHMMSS            00 000 000 000:  GT Time & Date
 GTDEPTH.m              00 000 000 000:  GT Depth
 GTPQH.psia             00 000 000 000:  GT HR Quartz Pressure
 GTTQ.degC              00 000 000 000:  GT Quartz Temperature
 GTTN.NONE              00 000 000 000:  GT Test Number
 GTET.sec               00 000 000 000:  GT Elapsed Test Time
 GTTVD.m                00 000 000 000:  GT True Vertical Depth
#Other Information
#
#WARRANTY: Halliburton will use its best efforts to furnish customers with 
#accurate information and interpretations that are part of, and incident to, the services 
#provided.  However, Halliburton cannot and does not warrant the accuracy 
#or correctness of such information and interpretations.  Under no circumstances should any 
#such information or interpretation be relied upon as the sole basis for any drilling, 
#completion, production, or financial decision or any procedure involving any risk to the 
#safety of any drilling venture, drilling rig or its crew or any other third party.  The 
#Customer has full responsibility for all drilling, completion and production operation.  
#Halliburton makes no representations or warranties, either expressed or 
#implied, including, but not limited to, the implied warranties of merchantability or fitness 
#for a particular purpose, with respect to the services rendered.  In no event will 
#Halliburton be liable for failure to obtain any particular results or for 
#any damages, including, but not limited to, indirect, special or consequential damages, 
#resulting from the use of any information or interpretation provided by Halliburton.
#
~A           TIME           GTDEPTH  GTPQH  GTTQ  GTTN  GTET   GTTVD  
# ...
   06:55:38.782.28-Apr-2021 3473.01 3651.78 72.95 8.00  69.01 2748.71
   06:55:38.982.28-Apr-2021 3473.01 3651.78 72.95 8.00  69.21 2748.71
   06:55:39.182.28-Apr-2021 3473.01 3651.75 72.95 8.00  69.41 2748.71
   06:55:39.382.28-Apr-2021 3473.01 3651.83 72.95 8.00  69.61 2748.71
   06:55:39.582.28-Apr-2021 3473.01 3651.51 72.95 8.00  69.81 2748.71
   06:55:39.782.28-Apr-2021 3473.01 3651.84 72.95 8.00  70.01 2748.71
   06:55:39.982.28-Apr-2021 3473.01 3651.84 72.95 8.00  70.21 2748.71
   06:55:40.182.28-Apr-2021 3473.01 3651.69 72.95 8.00  70.41 2748.71
   06:55:40.382.28-Apr-2021 3473.01 3651.57 72.95 8.00  70.61 2748.71
   06:55:40.582.28-Apr-2021 3473.01 3651.78 72.94 8.00  70.81 2748.71
   06:55:40.782.28-Apr-2021 3473.01 3651.75 72.94 8.00  71.01 2748.71
   06:55:40.982.28-Apr-2021 3473.01 3651.75 72.94 8.00  71.21 2748.71
   06:55:41.182.28-Apr-2021 3473.01 3651.72 72.94 8.00  71.41 2748.71
   06:55:41.382.28-Apr-2021 3473.01 3651.51 72.94 8.00  71.61 2748.71
   06:55:41.582.28-Apr-2021 3473.01 3651.83 72.94 8.00  71.81 2748.71
   06:55:41.782.28-Apr-2021 3473.01 3651.73 72.94 8.00  72.01 2748.71
   06:55:41.982.28-Apr-2021 3473.01 3651.73 72.94 8.00  72.21 2748.71
   06:55:42.182.28-Apr-2021 3473.01 3651.70 72.94 8.00  72.41 2748.71
   06:55:42.382.28-Apr-2021 3473.01 3651.73 72.94 8.00  72.61 2748.71
   06:55:42.582.28-Apr-2021 3473.01 3651.45 72.94 8.00  72.81 2748.71
   06:55:42.782.28-Apr-2021 3473.01 3651.82 72.94 8.00  73.01 2748.71
   06:55:42.982.28-Apr-2021 3473.01 3651.82 72.94 8.00  73.21 2748.71
   06:55:43.182.28-Apr-2021 3473.01 3651.72 72.94 8.00  73.41 2748.71
   06:55:43.382.28-Apr-2021 3473.01 3651.67 72.94 8.00  73.61 2748.71
   06:55:43.582.28-Apr-2021 3473.01 3651.71 72.94 8.00  73.81 2748.71
   06:55:43.782.28-Apr-2021 3473.01 3651.71 72.94 8.00  74.01 2748.71
   06:55:43.982.28-Apr-2021 3473.01 3651.71 72.94 8.00  74.21 2748.71
   06:55:44.182.28-Apr-2021 3473.01 3651.73 72.94 8.00  74.41 2748.71
   06:55:44.382.28-Apr-2021 3473.01 3651.69 72.93 8.00  74.61 2748.71
   06:55:44.582.28-Apr-2021 3473.01 3651.75 72.93 8.00  74.81 2748.71
   06:55:44.782.28-Apr-2021 3473.01 3651.68 72.93 8.00  75.01 2748.71
   06:55:44.982.28-Apr-2021 3473.01 3651.68 72.93 8.00  75.21 2748.71
   06:55:45.182.28-Apr-2021 3473.01 3651.65 72.93 8.00  75.41 2748.71
   06:55:45.383.28-Apr-2021 3473.01 3651.59 72.93 8.00  75.61 2748.71
   06:55:45.583.28-Apr-2021 3473.01 3651.73 72.93 8.00  75.81 2748.71
   06:55:45.783.28-Apr-2021 3473.01 3651.69 72.93 8.00  76.01 2748.71
   06:55:45.983.28-Apr-2021 3473.01 3651.69 72.93 8.00  76.21 2748.71
   06:55:46.183.28-Apr-2021 3473.01 3651.67 72.93 8.00  76.41 2748.71
   06:55:46.383.28-Apr-2021 3473.01 3651.69 72.93 8.00  76.61 2748.71
   06:55:46.583.28-Apr-2021 3473.01 3651.73 72.93 8.00  76.81 2748.71
   06:55:46.783.28-Apr-2021 3473.01 3651.68 72.93 8.00  77.01 2748.71
   06:55:46.983.28-Apr-2021 3473.01 3651.68 72.93 8.00  77.21 2748.71
   06:55:47.183.28-Apr-2021 3473.01 3651.69 72.93 8.00  77.41 2748.71
   06:55:47.383.28-Apr-2021 3473.01 3651.71 72.93 8.00  77.61 2748.71
   06:55:47.583.28-Apr-2021 3473.01 3651.68 72.93 8.00  77.81 2748.71
   06:55:47.783.28-Apr-2021 3473.01 3651.71 72.93 8.00  78.01 2748.71
   06:55:47.983.28-Apr-2021 3473.01 3651.71 72.93 8.00  78.21 2748.71
   06:55:48.183.28-Apr-2021 3473.01 3651.75 72.92 8.00  78.41 2748.71
   06:55:48.383.28-Apr-2021 3473.01 3651.69 72.92 8.00  78.61 2748.71
   06:55:48.583.28-Apr-2021 3473.01 3651.65 72.92 8.00  78.81 2748.71
   06:55:48.783.28-Apr-2021 3473.01 3651.43 72.92 8.00  79.01 2748.71
   06:55:48.983.28-Apr-2021 3473.01 3651.43 72.92 8.00  79.21 2748.71
   06:55:49.183.28-Apr-2021 3473.01 3651.66 72.92 8.00  79.41 2748.71
   06:55:49.383.28-Apr-2021 3473.01 3651.67 72.92 8.00  79.61 2748.71
   06:55:49.583.28-Apr-2021 3473.01 3651.62 72.92 8.00  79.81 2748.71
   06:55:49.783.28-Apr-2021 3473.01 3651.47 72.92 8.00  80.01 2748.71
   06:55:49.983.28-Apr-2021 3473.01 3651.47 72.92 8.00  80.21 2748.71
   06:55:50.183.28-Apr-2021 3473.01 3651.64 72.92 8.00  80.41 2748.71
   06:55:50.383.28-Apr-2021 3473.01 3651.68 72.92 8.00  80.61 2748.71
   06:55:50.583.28-Apr-2021 3473.01 3651.59 72.92 8.00  80.81 2748.71
   06:55:50.783.28-Apr-2021 3473.01 3651.71 72.92 8.00  81.01 2748.71
   06:55:50.983.28-Apr-2021 3473.01 3651.71 72.92 8.00  81.21 2748.71
   06:55:51.183.28-Apr-2021 3473.01 3651.76 72.92 8.00  81.41 2748.71
   06:55:51.383.28-Apr-2021 3473.01 3651.65 72.92 8.00  81.61 2748.71
   06:55:51.583.28-Apr-2021 3473.01 3651.63 72.92 8.00  81.81 2748.71
   06:55:51.783.28-Apr-2021 3473.01 3651.64 72.92 8.00  82.01 2748.71
   06:55:51.983.28-Apr-2021 3473.01 3651.64 72.92 8.00  82.21 2748.71
   06:55:52.184.28-Apr-2021 3473.01 3651.66 72.91 8.00  82.41 2748.71
   06:55:52.384.28-Apr-2021 3473.01 3651.65 72.91 8.00  82.61 2748.71
   06:55:52.584.28-Apr-2021 3473.01 3651.63 72.91 8.00  82.81 2748.71
   06:55:52.784.28-Apr-2021 3473.01 3651.66 72.91 8.00  83.01 2748.71
   06:55:52.984.28-Apr-2021 3473.01 3651.66 72.91 8.00  83.21 2748.71
   06:55:53.184.28-Apr-2021 3473.01 3651.66 72.91 8.00  83.41 2748.71
   06:55:53.384.28-Apr-2021 3473.01 3651.63 72.91 8.00  83.61 2748.71
   06:55:53.584.28-Apr-2021 3473.01 3651.60 72.91 8.00  83.81 2748.71
   06:55:53.784.28-Apr-2021 3473.01 3651.50 72.91 8.00  84.01 2748.71
   06:55:53.984.28-Apr-2021 3473.01 3651.50 72.91 8.00  84.21 2748.71
   06:55:54.184.28-Apr-2021 3473.01 3651.67 72.91 8.00  84.41 2748.71
   06:55:54.384.28-Apr-2021 3473.01 3651.59 72.91 8.00  84.61 2748.71
   06:55:54.584.28-Apr-2021 3473.01 3651.63 72.91 8.00  84.81 2748.71
   06:55:54.784.28-Apr-2021 3473.01 3651.60 72.91 8.00  85.01 2748.71
   06:55:54.984.28-Apr-2021 3473.01 3651.60 72.91 8.00  85.21 2748.71
   06:55:55.184.28-Apr-2021 3473.01 3651.65 72.91 8.00  85.41 2748.71
   06:55:55.384.28-Apr-2021 3473.01 3651.60 72.91 8.00  85.61 2748.71
   06:55:55.584.28-Apr-2021 3473.01 3651.65 72.91 8.00  85.81 2748.71
   06:55:55.784.28-Apr-2021 3473.01 3651.61 72.91 8.00  86.01 2748.71
   06:55:55.984.28-Apr-2021 3473.01 3651.61 72.91 8.00  86.21 2748.71
   06:55:56.184.28-Apr-2021 3473.01 3651.64 72.90 8.00  86.41 2748.71
   06:55:56.384.28-Apr-2021 3473.01 3651.40 72.90 8.00  86.61 2748.71
   06:55:56.584.28-Apr-2021 3473.01 3651.71 72.90 8.00  86.81 2748.71
   06:55:56.784.28-Apr-2021 3473.01 3651.58 72.90 8.00  87.01 2748.71
   06:55:56.984.28-Apr-2021 3473.01 3651.58 72.90 8.00  87.21 2748.71
   06:55:57.184.28-Apr-2021 3473.01 3651.30 72.90 8.00  87.41 2748.71
   06:55:57.384.28-Apr-2021 3473.01 3651.77 72.90 8.00  87.61 2748.71
   06:55:57.584.28-Apr-2021 3473.01 3651.62 72.90 8.00  87.81 2748.71
   06:55:57.784.28-Apr-2021 3473.01 3651.57 72.90 8.00  88.01 2748.71
   06:55:57.984.28-Apr-2021 3473.01 3651.57 72.90 8.00  88.21 2748.71
   06:55:58.184.28-Apr-2021 3473.01 3651.40 72.90 8.00  88.41 2748.71
   06:55:58.384.28-Apr-2021 3473.01 3651.72 72.90 8.00  88.61 2748.71
   06:55:58.584.28-Apr-2021 3473.01 3651.57 72.90 8.00  88.81 2748.71
   06:55:58.784.28-Apr-2021 3473.01 3651.58 72.90 8.00  89.01 2748.71
   06:55:58.985.28-Apr-2021 3473.01 3651.58 72.90 8.00  89.21 2748.71
   06:55:59.185.28-Apr-2021 3473.01 3651.59 72.90 8.00  89.41 2748.71
   06:55:59.385.28-Apr-2021 3473.01 3651.37 72.90 8.00  89.61 2748.71
   06:55:59.585.28-Apr-2021 3473.01 3651.66 72.90 8.00  89.81 2748.71
   06:55:59.785.28-Apr-2021 3473.01 3651.58 72.90 8.00  90.01 2748.71
   06:55:59.985.28-Apr-2021 3473.01 3651.58 72.90 8.00  90.21 2748.71
   06:56:00.185.28-Apr-2021 3473.01 3651.53 72.89 8.00  90.41 2748.71
   06:56:00.385.28-Apr-2021 3473.01 3651.61 72.89 8.00  90.61 2748.71
   06:56:00.585.28-Apr-2021 3473.01 3651.54 72.89 8.00  90.81 2748.71
   06:56:00.785.28-Apr-2021 3473.01 3651.60 72.89 8.00  91.01 2748.71
   06:56:00.985.28-Apr-2021 3473.01 3651.60 72.89 8.00  91.21 2748.71
   06:56:01.185.28-Apr-2021 3473.01 3651.56 72.89 8.00  91.41 2748.71
   06:56:01.385.28-Apr-2021 3473.01 3651.60 72.89 8.00  91.61 2748.71
   06:56:01.585.28-Apr-2021 3473.01 3651.53 72.89 8.00  91.81 2748.71
