~Version Information
 VERS.                  2.0:   CWLS log ASCII Standard -VERSION 2.0
 WRAP.                   NO:   One line per depth step
~Well Information Block
#MNEM.UNIT     VALUE/NAME     DESCRIPTION
#---------     -----------    ---------------------------
 STRT.S             06:42:00 27-Apr-21: START TIME 06:42:00 27-Apr-21
 STOP.S             06:48:27 27-Apr-21: STOP TIME  06:48:27 27-Apr-21
 STEP.S                   0.00: STEP TIME
 NULL.                 -999.25: NULL VALUE
 DFWT.                        :  DIST FWL TEXT
 DFST.                        :  DIST FSL TEXT
 DMF .             Drill Floor:  DRILL MEAS FROM
 STIM.      02.00.00 12-Apr-21:  START TIME
 DATE.      02.00.00 02-May-21:  END TIME
 SPUD.               09-Apr-21:  SPUD DATE
 NREF.                    Grid:  NORTH REFERENCE
 HPTY.       Minimum Curvature:  HOLE POS TYPE
 DMOD.             Drill Model:  DRILL MOD DESC
 SVYD.                  Survey:  SURVEY DESC
 ILTD.               Lithology:  INTERP LTH DESC
 FTOP.          Formation Tops:  FORM TOPS DESC
 PDAT.          Mean Sea Level:  PERMANENT DATUM
 FLD .                     ACG:  FIELD NAME
 SON .        AZ-XX-0907021034:  JOB NUMBER
 CTRY.              Azerbaijan:  COUNTRY NAME
 WELL.                    E01x:  WELL NAME
 COMP.     BP Exploration (Caspian Sea) LTD.:  COMPANY
 UWI .            /AZE00001403:  UNIQUE WELL IDENTIFIER
 API .            /AZE00001403:  API NUMBER
 WTYP.                Deviated:  WELL TYPE
 MDS .        Operator Entered:  MAG DATA SOURCE
 BASE.              Azerbaijan:  LOGGING EQUIPMENT BASE LOCATION
 REGN.                   EESSA:  REGION
 PROV.                    Baku:  PROVINCE
 STAT.                    Baku:  STATE NAME
 SRVC.          Turan Drilling:  CONTRACTOR
 MWDS.                    Baku:  MWD SHOP
 JOBN.        AZ-XX-0907021034:  JOB TICKET NUMB
 RIG .                     DWG:  RIG NAME
 DOE .                     N/A:  DOE NUMBER
 DCON.         Sperry Drilling:  DIRECTNL CONTR
 UNIT.                     N/A:  LOGGING EQUIPMENT ID
 CNTY.                        :  COUNTY
 LOC .                        :  LOCATION
 LMF .             Drill Floor:  LOG MEASURED FROM
 TVDS.m                  43.16:  TVDSS CORRECTN
 LATI.deg                40.17:  LATITUDE
 LONG.deg                51.17:  LONGITUDE
 WHNS.m                  -5.90:  WELL HEAD N/S
 WHEW.m                  -6.61:  WELL HEAD E/W
 UTMX.m              514337.95:  UTM X
 UTMY.m             4448627.46:  UTM Y
 DFWL.m                   0.00:  DISTANCE FWL
 DFSL.m                   0.00:  DISTANCE FSL
 SDEP.m                2606.87:  START DEPTH
 TDD .m                3618.01:  TOTAL DEPTH (DRILLER)
 VSDR.deg               177.42:  VERT SEC DIRECT
 GVFD.g                   1.00:  GRAVITY FIELD
 MFLD.nT              50399.00:  MAGNETIC FIELD
 MDIP.deg                59.67:  MAGNETIC DIP
 MDEC.deg                 6.56:  MAGNETIC DECL
 GRDC.deg                 0.11:  GRID CORRECTION
 AZTC.deg                 6.45:  AZM TOTAL CORR
 EPD .m                   0.00:  ELEVATION
 EGL .m                   0.00:  GROUND ELEVATION
 WDMS.m                 176.20:  WD ELEV
 APD .m                  43.16:  DEPTH ABOVE PD
 DEP .m                2606.87:  DEPTH
 AGAP.m                  43.16:  AIR GAP
 VSEW.m                  -6.61:  VERT SEC E/W
 VSNS.m                  -5.90:  VERT SEC N/S
 EKB .m                  43.16:  KB ELEVATION
 EDF .m                  43.16:  DF ELEVATION
 TDL .m                 438.00:  TOTAL DEPTH (LOGGER)
 VSC .                       0:  VS TO CLOSURE
 MAGU.                 1855490:  MAGUTM CHECKSUM
~Parameter Information Block
#MNEM.UNIT       Value        Description
#---------     -----------    ---------------------------
 AV  .mps                 2.20:  Ann Velocity 
 AVMX.mps                 2.50:  Max Ann Veloc 
 AZIF.deg               150.21:  Azm, Final 
 BHAT.        Rotary Steerable:  BHA Type 
 BROT.°/30m               0.08:  Build Rotating 
 BS  .in                  6.50:  Bit Size 
 BSZ .in                  6.50:  Bit Size 
 BTPL.psig              108.00:  Bit Press Loss 
 CABU.                     Yes:  Customer Abuse 
 CGEO.           Emin Aliyarli:  Customer Geo 
 COMM.                     )M:  Run Comments 1 
 TCS .hr                 74.20:  Time Ciculation Ended 
 CV  .mps                 3.63:  Crit Velocity 
 CVMX.mps                 3.66:  Max Crit Veloc 
 DD1 .         Intigam Rahimov:  Direct Drillr 1 
 DD2 .          Teymur Aghayev:  Direct Drillr 2 
 DDSV.               Geo-Pilot:  DD Service 
 DEFF.%                  97.00:  % Det Eff 
 DLRX.°/30m               1.63:  Dogleg Rot Max 
 DLSO.°/30m               0.00:  Dogleg Oriented 
 DLSX.°/30m               0.00:  Dogleg Str Max 
 DRET.      20.20.00 28-Apr-21:  Drill End Time 
 DRST.      04.45.00 26-Apr-21:  Drill Start Tim 
 DTIM.hr                 34.30:  Time Drilling 
 EDEP.m                3618.01:  End Depth 
 ENG1.           Amrah Tahirov:  Engineer 1 
 ENG2.         Bahruz Mehdiyev:  Engineer 2 
 ENG3.         Farhad Orujzade:  Engineer 3 
 ETIM.      19.00.00 29-Apr-21:  End Time 
 FLOI.gpm               370.00:  Flow In 
 FLON.gpm               300.00:  Flow In Min 
 FLOS.cptm                0.00:  Fluid Loss 
 FLOX.gpm               410.00:  Flow In Max 
 HFLO.                      No:  High Flow 
 HPRE.                      No:  High Pressure 
 HTEM.                      No:  High Temp 
 HYDO.m                   1.80:  Hydro Offset 
 IFIN.deg                67.19:  Inc, Final 
 IMAX.deg                68.42:  Inc Max 
 IMIN.deg                66.33:  Inc Min 
 IMND.m                3532.79:  Inc Min Depth 
 IMXD.m                3192.15:  Inc Max Depth 
 JARR.                      No:  Jarring 
 LETM.      20.20.00 28-Apr-21:  Log End Time 
 LOST.hr                     0:  Lost Rig Time 
 LSTM.      04.45.00 26-Apr-21:  Log Start Time 
 MDCL.ppm             36500.00:  Mud Chlorides 
 MDES.     Inversion Oil/Synthetic:  Mud Desc 
 DFD .sg                  1.42:  Mud Density 
 MDMN.sg                  1.42:  Dens Mud Min 
 MDMX.sg                  1.42:  Dens Mud Max 
 MOIL.                    55.7:  Run Mud Oil % 
 MOWR.                   71:29:  Run Mud OWR 
 MSND.                     0.1:  Run Mud Sand % 
 MSOL.                    19.9:  Run Mud Solids% 
 DFV .spqt               83.00:  Mud Viscosity 
 MWOD.in                  5.15:  MWD Tool OD 
 MWSI.                      No:  Serv Intrp, MWD 
 OTIM.hr                120.59:  Time Operating 
 PCON.           Look Like New:  Pad Condition 
 PMAX.psia            11292.93:  Press Op, Max 
 PV  .cP                 27.00:  Mud PV 
 RUN .                     400:  Run Number 
 ROPA.m/hr               14.00:  ROP Avg 
 ROPN.m/hr                9.00:  ROP Min 
 ROPX.m/hr               18.00:  ROP Max 
 RPMA.rpm               130.00:  RPM Surface Avg 
 RPMN.rpm               100.00:  RPM Surface Min 
 RPMX.rpm               140.00:  RPM Surface Max 
 RRUN.                    0400:  Rig Run Number 
 RTIM.hr                 38.60:  Time Reaming 
 SAZI.deg               149.55:  Azm, Start 
 SDEP.m                3180.01:  Start Depth 
 SIDD.                      No:  Serv Intrp, DD 
 SINC.deg                68.42:  Inc, Start 
 SPPA.psig             4400.00:  SPP Avg 
 SPPN.psig             3580.00:  SPP Min 
 SPPX.psig             4850.00:  SPP Max 
 STIM.      12.30.00 24-Apr-21:  Start Time 
 SVCS.                 DD, MWD:  Services 
 SVER.                    9.20:  Sperry Version 
 TDAT.m                 438.00:  Tot Depth Attmp 
 TDDF.                      No:  Trip for DD 
 TDLG.m                 438.00:  Tot Depth Loggd 
 TFF .                      No:  Trip for Fail 
 TQAA.f-kp               11.00:  Torque Abs Avg 
 TQAN.f-kp                9.00:  Torque Abs Min 
 TQAX.f-kp               14.00:  Torque Abs Max 
 TRRT.°/30m               0.04:  Turn Rotating 
 MRT .                    HCIM:  Maximum Recorded Temperature 
 TTMX.degC               84.31:  Max Tool Temp 
 VS01.                90521954:  Virtual Str1 SN 
 VS02.                90519327:  Virtual Str2 SN 
 VS03.                90522273:  Virtual Str3 SN 
 VS04.                11108038:  Virtual Str4 SN 
 VS05.                12258760:  Virtual Str5 SN 
 WBMN.klb                 1.00:  WOB Min 
 WITN.           Adil Mammadov:  Customer Rep 
 WITN.         Alex Yadullayev:  Customer Rep 2 
 WOBA.klb                 6.00:  WOB Avg 
 WOBX.klb                 9.00:  WOB Max 
 YP  .lhf2               31.00:  Yield Point 
~Curve Information Block
#MNEM.UNIT                 API CODE     Curve Description
#---------               -----------    ---------------------------
 TIME.HHMMSS            00 000 000 000:  GT Time & Date
 GTDEPTH.m              00 000 000 000:  GT Depth
 GTPQH.psia             00 000 000 000:  GT HR Quartz Pressure
 GTTQ.degC              00 000 000 000:  GT Quartz Temperature
 GTTN.NONE              00 000 000 000:  GT Test Number
 GTET.sec               00 000 000 000:  GT Elapsed Test Time
 GTTVD.m                00 000 000 000:  GT True Vertical Depth
#Other Information
#
#WARRANTY: Halliburton will use its best efforts to furnish customers with 
#accurate information and interpretations that are part of, and incident to, the services 
#provided.  However, Halliburton cannot and does not warrant the accuracy 
#or correctness of such information and interpretations.  Under no circumstances should any 
#such information or interpretation be relied upon as the sole basis for any drilling, 
#completion, production, or financial decision or any procedure involving any risk to the 
#safety of any drilling venture, drilling rig or its crew or any other third party.  The 
#Customer has full responsibility for all drilling, completion and production operation.  
#Halliburton makes no representations or warranties, either expressed or 
#implied, including, but not limited to, the implied warranties of merchantability or fitness 
#for a particular purpose, with respect to the services rendered.  In no event will 
#Halliburton be liable for failure to obtain any particular results or for 
#any damages, including, but not limited to, indirect, special or consequential damages, 
#resulting from the use of any information or interpretation provided by Halliburton.
#
~A           TIME           GTDEPTH  GTPQH  GTTQ  GTTN  GTET   GTTVD  
# ...
   06:42:46.861.27-Apr-2021 3278.01 4371.96 74.23 4.00  46.00 2671.88
   06:42:47.061.27-Apr-2021 3278.01 4371.96 74.23 4.00  46.20 2671.88
   06:42:47.261.27-Apr-2021 3278.01 4372.16 74.23 4.00  46.40 2671.88
   06:42:47.461.27-Apr-2021 3278.01 4372.36 74.23 4.00  46.60 2671.88
   06:42:47.661.27-Apr-2021 3278.01 4371.84 74.23 4.00  46.80 2671.88
   06:42:47.861.27-Apr-2021 3278.01 4372.75 74.23 4.00  47.00 2671.88
   06:42:48.061.27-Apr-2021 3278.01 4372.75 74.23 4.00  47.20 2671.88
   06:42:48.261.27-Apr-2021 3278.01 4373.03 74.23 4.00  47.40 2671.88
   06:42:48.461.27-Apr-2021 3278.01 4372.47 74.23 4.00  47.60 2671.88
   06:42:48.661.27-Apr-2021 3278.01 4373.25 74.23 4.00  47.80 2671.88
   06:42:48.861.27-Apr-2021 3278.01 4373.10 74.23 4.00  48.00 2671.88
   06:42:49.061.27-Apr-2021 3278.01 4373.10 74.23 4.00  48.20 2671.88
   06:42:49.261.27-Apr-2021 3278.01 4373.07 74.22 4.00  48.40 2671.88
   06:42:49.461.27-Apr-2021 3278.01 4373.55 74.22 4.00  48.60 2671.88
   06:42:49.661.27-Apr-2021 3278.01 4373.77 74.22 4.00  48.80 2671.88
   06:42:49.861.27-Apr-2021 3278.01 4373.50 74.22 4.00  49.00 2671.88
   06:42:50.061.27-Apr-2021 3278.01 4373.50 74.22 4.00  49.20 2671.88
   06:42:50.261.27-Apr-2021 3278.01 4373.96 74.22 4.00  49.40 2671.88
   06:42:50.461.27-Apr-2021 3278.01 4374.14 74.22 4.00  49.60 2671.88
   06:42:50.661.27-Apr-2021 3278.01 4374.38 74.22 4.00  49.80 2671.88
   06:42:50.861.27-Apr-2021 3278.01 4374.16 74.22 4.00  50.00 2671.88
   06:42:51.061.27-Apr-2021 3278.01 4374.16 74.22 4.00  50.20 2671.88
   06:42:51.261.27-Apr-2021 3278.01 4374.10 74.22 4.00  50.40 2671.88
   06:42:51.461.27-Apr-2021 3278.01 4374.69 74.22 4.00  50.60 2671.88
   06:42:51.661.27-Apr-2021 3278.01 4374.65 74.22 4.00  50.80 2671.88
   06:42:51.861.27-Apr-2021 3278.01 4374.69 74.22 4.00  51.00 2671.88
   06:42:52.061.27-Apr-2021 3278.01 4374.69 74.22 4.00  51.20 2671.88
   06:42:52.261.27-Apr-2021 3278.01 4374.71 74.21 4.00  51.40 2671.88
   06:42:52.461.27-Apr-2021 3278.01 4374.89 74.21 4.00  51.60 2671.88
   06:42:52.661.27-Apr-2021 3278.01 4374.94 74.21 4.00  51.80 2671.88
   06:42:52.861.27-Apr-2021 3278.01 4374.96 74.21 4.00  52.00 2671.88
   06:42:53.062.27-Apr-2021 3278.01 4374.96 74.21 4.00  52.20 2671.88
   06:42:53.262.27-Apr-2021 3278.01 4375.07 74.21 4.00  52.40 2671.88
   06:42:53.462.27-Apr-2021 3278.01 4375.03 74.21 4.00  52.60 2671.88
   06:42:53.662.27-Apr-2021 3278.01 4375.06 74.21 4.00  52.80 2671.88
   06:42:53.862.27-Apr-2021 3278.01 4375.21 74.21 4.00  53.00 2671.88
   06:42:54.062.27-Apr-2021 3278.01 4375.21 74.21 4.00  53.20 2671.88
   06:42:54.262.27-Apr-2021 3278.01 4375.52 74.24 4.00  53.40 2671.88
   06:42:54.462.27-Apr-2021 3278.01 4375.76 74.21 4.00  53.60 2671.88
   06:42:54.662.27-Apr-2021 3278.01 4375.66 74.21 4.00  53.80 2671.88
   06:42:54.862.27-Apr-2021 3278.01 4375.80 74.21 4.00  54.00 2671.88
   06:42:55.062.27-Apr-2021 3278.01 4375.80 74.21 4.00  54.20 2671.88
   06:42:55.262.27-Apr-2021 3278.01 4375.98 74.21 4.00  54.40 2671.88
   06:42:55.462.27-Apr-2021 3278.01 4375.83 74.20 4.00  54.60 2671.88
   06:42:55.662.27-Apr-2021 3278.01 4375.94 74.20 4.00  54.80 2671.88
   06:42:55.862.27-Apr-2021 3278.01 4375.89 74.20 4.00  55.00 2671.88
   06:42:56.062.27-Apr-2021 3278.01 4375.89 74.20 4.00  55.20 2671.88
   06:42:56.262.27-Apr-2021 3278.01 4375.84 74.20 4.00  55.40 2671.88
   06:42:56.462.27-Apr-2021 3278.01 4375.69 74.20 4.00  55.60 2671.88
   06:42:56.662.27-Apr-2021 3278.01 4376.02 74.20 4.00  55.80 2671.88
   06:42:56.862.27-Apr-2021 3278.01 4376.42 74.20 4.00  56.00 2671.88
   06:42:57.062.27-Apr-2021 3278.01 4376.42 74.20 4.00  56.20 2671.88
   06:42:57.262.27-Apr-2021 3278.01 4376.32 74.20 4.00  56.40 2671.88
   06:42:57.462.27-Apr-2021 3278.01 4376.25 74.20 4.00  56.60 2671.88
   06:42:57.662.27-Apr-2021 3278.01 4376.51 74.20 4.00  56.80 2671.88
   06:42:57.862.27-Apr-2021 3278.01 4376.63 74.20 4.00  57.00 2671.88
   06:42:58.062.27-Apr-2021 3278.01 4376.63 74.20 4.00  57.20 2671.88
   06:42:58.262.27-Apr-2021 3278.01 4376.76 74.20 4.00  57.40 2671.88
   06:42:58.462.27-Apr-2021 3278.01 4376.66 74.19 4.00  57.60 2671.88
   06:42:58.662.27-Apr-2021 3278.01 4376.82 74.19 4.00  57.80 2671.88
   06:42:58.862.27-Apr-2021 3278.01 4376.81 74.19 4.00  58.00 2671.88
   06:42:59.062.27-Apr-2021 3278.01 4376.81 74.19 4.00  58.20 2671.88
   06:42:59.262.27-Apr-2021 3278.01 4376.01 74.19 4.00  58.40 2671.88
   06:42:59.462.27-Apr-2021 3278.01 4376.99 74.19 4.00  58.60 2671.88
   06:42:59.662.27-Apr-2021 3278.01 4376.98 74.19 4.00  58.80 2671.88
   06:42:59.862.27-Apr-2021 3278.01 4377.03 74.19 4.00  59.00 2671.88
   06:43:00.062.27-Apr-2021 3278.01 4377.03 74.19 4.00  59.21 2671.88
   06:43:00.262.27-Apr-2021 3278.01 4377.05 74.19 4.00  59.41 2671.88
   06:43:00.462.27-Apr-2021 3278.01 4377.02 74.19 4.00  59.61 2671.88
   06:43:00.662.27-Apr-2021 3278.01 4377.12 74.19 4.00  59.81 2671.88
   06:43:00.862.27-Apr-2021 3278.01 4377.15 74.19 4.00  60.01 2671.88
   06:43:01.062.27-Apr-2021 3278.01 4377.15 74.19 4.00  60.21 2671.88
   06:43:01.262.27-Apr-2021 3278.01 4377.09 74.19 4.00  60.41 2671.88
   06:43:01.462.27-Apr-2021 3278.01 4377.13 74.19 4.00  60.61 2671.88
   06:43:01.662.27-Apr-2021 3278.01 4377.14 74.19 4.00  60.81 2671.88
   06:43:01.862.27-Apr-2021 3278.01 4376.52 74.18 4.00  61.01 2671.88
   06:43:02.062.27-Apr-2021 3278.01 4376.52 74.18 4.00  61.21 2671.88
   06:43:02.262.27-Apr-2021 3278.01 4377.35 74.18 4.00  61.41 2671.88
   06:43:02.462.27-Apr-2021 3278.01 4377.37 74.18 4.00  61.61 2671.88
   06:43:02.662.27-Apr-2021 3278.01 4377.43 74.18 4.00  61.81 2671.88
   06:43:02.862.27-Apr-2021 3278.01 4377.46 74.18 4.00  62.01 2671.88
   06:43:03.062.27-Apr-2021 3278.01 4377.46 74.18 4.00  62.21 2671.88
   06:43:03.262.27-Apr-2021 3278.01 4377.57 74.18 4.00  62.41 2671.88
   06:43:03.462.27-Apr-2021 3278.01 4377.60 74.18 4.00  62.61 2671.88
   06:43:03.662.27-Apr-2021 3278.01 4377.68 74.18 4.00  62.81 2671.88
   06:43:03.862.27-Apr-2021 3278.01 4377.58 74.18 4.00  63.01 2671.88
   06:43:04.062.27-Apr-2021 3278.01 4377.58 74.18 4.00  63.21 2671.88
   06:43:04.262.27-Apr-2021 3278.01 4377.62 74.18 4.00  63.41 2671.88
   06:43:04.462.27-Apr-2021 3278.01 4377.74 74.18 4.00  63.61 2671.88
   06:43:04.662.27-Apr-2021 3278.01 4377.00 74.18 4.00  63.81 2671.88
   06:43:04.863.27-Apr-2021 3278.01 4377.87 74.18 4.00  64.01 2671.88
   06:43:05.063.27-Apr-2021 3278.01 4377.87 74.18 4.00  64.21 2671.88
   06:43:05.263.27-Apr-2021 3278.01 4377.89 74.17 4.00  64.41 2671.88
   06:43:05.463.27-Apr-2021 3278.01 4377.29 74.17 4.00  64.61 2671.88
   06:43:05.663.27-Apr-2021 3278.01 4377.95 74.17 4.00  64.81 2671.88
   06:43:05.863.27-Apr-2021 3278.01 4377.96 74.17 4.00  65.01 2671.88
   06:43:06.063.27-Apr-2021 3278.01 4377.96 74.17 4.00  65.21 2671.88
   06:43:06.263.27-Apr-2021 3278.01 4378.02 74.17 4.00  65.41 2671.88
   06:43:06.463.27-Apr-2021 3278.01 4377.66 74.17 4.00  65.61 2671.88
   06:43:06.663.27-Apr-2021 3278.01 4377.93 74.17 4.00  65.81 2671.88
   06:43:06.863.27-Apr-2021 3278.01 4378.15 74.17 4.00  66.01 2671.88
   06:43:07.063.27-Apr-2021 3278.01 4378.15 74.17 4.00  66.21 2671.88
   06:43:07.263.27-Apr-2021 3278.01 4378.16 74.17 4.00  66.41 2671.88
   06:43:07.463.27-Apr-2021 3278.01 4377.45 74.17 4.00  66.61 2671.88
   06:43:07.663.27-Apr-2021 3278.01 4378.13 74.17 4.00  66.81 2671.88
   06:43:07.863.27-Apr-2021 3278.01 4378.32 74.17 4.00  67.01 2671.88
   06:43:08.063.27-Apr-2021 3278.01 4378.32 74.17 4.00  67.21 2671.88
   06:43:08.263.27-Apr-2021 3278.01 4378.42 74.16 4.00  67.41 2671.88
   06:43:08.463.27-Apr-2021 3278.01 4378.25 74.16 4.00  67.61 2671.88
   06:43:08.663.27-Apr-2021 3278.01 4378.31 74.16 4.00  67.81 2671.88
   06:43:08.863.27-Apr-2021 3278.01 4378.27 74.16 4.00  68.01 2671.88
   06:43:09.063.27-Apr-2021 3278.01 4378.27 74.16 4.00  68.21 2671.88
   06:43:09.263.27-Apr-2021 3278.01 4378.30 74.16 4.00  68.41 2671.88
   06:43:09.463.27-Apr-2021 3278.01 4378.39 74.16 4.00  68.61 2671.88
   06:43:09.663.27-Apr-2021 3278.01 4378.20 74.16 4.00  68.81 2671.88
