~Version Information
 VERS.                  2.0:   CWLS log ASCII Standard -VERSION 2.0
 WRAP.                   NO:   One line per depth step
~Well Information Block
#MNEM.UNIT     VALUE/NAME     DESCRIPTION
#---------     -----------    ---------------------------
 STRT.S             19:03:38 27-Apr-21: START TIME 19:03:38 27-Apr-21
 STOP.S             19:10:06 27-Apr-21: STOP TIME  19:10:06 27-Apr-21
 STEP.S                   0.00: STEP TIME
 NULL.                 -999.25: NULL VALUE
 DFWT.                        :  DIST FWL TEXT
 DFST.                        :  DIST FSL TEXT
 DMF .             Drill Floor:  DRILL MEAS FROM
 STIM.      02.00.00 12-Apr-21:  START TIME
 DATE.      02.00.00 02-May-21:  END TIME
 SPUD.               09-Apr-21:  SPUD DATE
 NREF.                    Grid:  NORTH REFERENCE
 HPTY.       Minimum Curvature:  HOLE POS TYPE
 DMOD.             Drill Model:  DRILL MOD DESC
 SVYD.                  Survey:  SURVEY DESC
 ILTD.               Lithology:  INTERP LTH DESC
 FTOP.          Formation Tops:  FORM TOPS DESC
 PDAT.          Mean Sea Level:  PERMANENT DATUM
 FLD .                     ACG:  FIELD NAME
 SON .        AZ-XX-0907021034:  JOB NUMBER
 CTRY.              Azerbaijan:  COUNTRY NAME
 WELL.                    E01x:  WELL NAME
 COMP.     BP Exploration (Caspian Sea) LTD.:  COMPANY
 UWI .            /AZE00001403:  UNIQUE WELL IDENTIFIER
 API .            /AZE00001403:  API NUMBER
 WTYP.                Deviated:  WELL TYPE
 MDS .        Operator Entered:  MAG DATA SOURCE
 BASE.              Azerbaijan:  LOGGING EQUIPMENT BASE LOCATION
 REGN.                   EESSA:  REGION
 PROV.                    Baku:  PROVINCE
 STAT.                    Baku:  STATE NAME
 SRVC.          Turan Drilling:  CONTRACTOR
 MWDS.                    Baku:  MWD SHOP
 JOBN.        AZ-XX-0907021034:  JOB TICKET NUMB
 RIG .                     DWG:  RIG NAME
 DOE .                     N/A:  DOE NUMBER
 DCON.         Sperry Drilling:  DIRECTNL CONTR
 UNIT.                     N/A:  LOGGING EQUIPMENT ID
 CNTY.                        :  COUNTY
 LOC .                        :  LOCATION
 LMF .             Drill Floor:  LOG MEASURED FROM
 TVDS.m                  43.16:  TVDSS CORRECTN
 LATI.deg                40.17:  LATITUDE
 LONG.deg                51.17:  LONGITUDE
 WHNS.m                  -5.90:  WELL HEAD N/S
 WHEW.m                  -6.61:  WELL HEAD E/W
 UTMX.m              514337.95:  UTM X
 UTMY.m             4448627.46:  UTM Y
 DFWL.m                   0.00:  DISTANCE FWL
 DFSL.m                   0.00:  DISTANCE FSL
 SDEP.m                2606.87:  START DEPTH
 TDD .m                3618.01:  TOTAL DEPTH (DRILLER)
 VSDR.deg               177.42:  VERT SEC DIRECT
 GVFD.g                   1.00:  GRAVITY FIELD
 MFLD.nT              50399.00:  MAGNETIC FIELD
 MDIP.deg                59.67:  MAGNETIC DIP
 MDEC.deg                 6.56:  MAGNETIC DECL
 GRDC.deg                 0.11:  GRID CORRECTION
 AZTC.deg                 6.45:  AZM TOTAL CORR
 EPD .m                   0.00:  ELEVATION
 EGL .m                   0.00:  GROUND ELEVATION
 WDMS.m                 176.20:  WD ELEV
 APD .m                  43.16:  DEPTH ABOVE PD
 DEP .m                2606.87:  DEPTH
 AGAP.m                  43.16:  AIR GAP
 VSEW.m                  -6.61:  VERT SEC E/W
 VSNS.m                  -5.90:  VERT SEC N/S
 EKB .m                  43.16:  KB ELEVATION
 EDF .m                  43.16:  DF ELEVATION
 TDL .m                 438.00:  TOTAL DEPTH (LOGGER)
 VSC .                       0:  VS TO CLOSURE
 MAGU.                 1855490:  MAGUTM CHECKSUM
~Parameter Information Block
#MNEM.UNIT       Value        Description
#---------     -----------    ---------------------------
 AV  .mps                 2.20:  Ann Velocity 
 AVMX.mps                 2.50:  Max Ann Veloc 
 AZIF.deg               150.21:  Azm, Final 
 BHAT.        Rotary Steerable:  BHA Type 
 BROT.°/30m               0.08:  Build Rotating 
 BS  .in                  6.50:  Bit Size 
 BSZ .in                  6.50:  Bit Size 
 BTPL.psig              108.00:  Bit Press Loss 
 CABU.                     Yes:  Customer Abuse 
 CGEO.           Emin Aliyarli:  Customer Geo 
 COMM.                     LÊS:  Run Comments 1 
 TCS .hr                 74.20:  Time Ciculation Ended 
 CV  .mps                 3.63:  Crit Velocity 
 CVMX.mps                 3.66:  Max Crit Veloc 
 DD1 .         Intigam Rahimov:  Direct Drillr 1 
 DD2 .          Teymur Aghayev:  Direct Drillr 2 
 DDSV.               Geo-Pilot:  DD Service 
 DEFF.%                  97.00:  % Det Eff 
 DLRX.°/30m               1.63:  Dogleg Rot Max 
 DLSO.°/30m               0.00:  Dogleg Oriented 
 DLSX.°/30m               0.00:  Dogleg Str Max 
 DRET.      20.20.00 28-Apr-21:  Drill End Time 
 DRST.      04.45.00 26-Apr-21:  Drill Start Tim 
 DTIM.hr                 34.30:  Time Drilling 
 EDEP.m                3618.01:  End Depth 
 ENG1.           Amrah Tahirov:  Engineer 1 
 ENG2.         Bahruz Mehdiyev:  Engineer 2 
 ENG3.         Farhad Orujzade:  Engineer 3 
 ETIM.      19.00.00 29-Apr-21:  End Time 
 FLOI.gpm               370.00:  Flow In 
 FLON.gpm               300.00:  Flow In Min 
 FLOS.cptm                0.00:  Fluid Loss 
 FLOX.gpm               410.00:  Flow In Max 
 HFLO.                      No:  High Flow 
 HPRE.                      No:  High Pressure 
 HTEM.                      No:  High Temp 
 HYDO.m                   1.80:  Hydro Offset 
 IFIN.deg                67.19:  Inc, Final 
 IMAX.deg                68.42:  Inc Max 
 IMIN.deg                66.33:  Inc Min 
 IMND.m                3532.79:  Inc Min Depth 
 IMXD.m                3192.15:  Inc Max Depth 
 JARR.                      No:  Jarring 
 LETM.      20.20.00 28-Apr-21:  Log End Time 
 LOST.hr                     0:  Lost Rig Time 
 LSTM.      04.45.00 26-Apr-21:  Log Start Time 
 MDCL.ppm             36500.00:  Mud Chlorides 
 MDES.     Inversion Oil/Synthetic:  Mud Desc 
 DFD .sg                  1.42:  Mud Density 
 MDMN.sg                  1.42:  Dens Mud Min 
 MDMX.sg                  1.42:  Dens Mud Max 
 MOIL.                    55.7:  Run Mud Oil % 
 MOWR.                   71:29:  Run Mud OWR 
 MSND.                     0.1:  Run Mud Sand % 
 MSOL.                    19.9:  Run Mud Solids% 
 DFV .spqt               83.00:  Mud Viscosity 
 MWOD.in                  5.15:  MWD Tool OD 
 MWSI.                      No:  Serv Intrp, MWD 
 OTIM.hr                120.59:  Time Operating 
 PCON.           Look Like New:  Pad Condition 
 PMAX.psia            11292.93:  Press Op, Max 
 PV  .cP                 27.00:  Mud PV 
 RUN .                     400:  Run Number 
 ROPA.m/hr               14.00:  ROP Avg 
 ROPN.m/hr                9.00:  ROP Min 
 ROPX.m/hr               18.00:  ROP Max 
 RPMA.rpm               130.00:  RPM Surface Avg 
 RPMN.rpm               100.00:  RPM Surface Min 
 RPMX.rpm               140.00:  RPM Surface Max 
 RRUN.                    0400:  Rig Run Number 
 RTIM.hr                 38.60:  Time Reaming 
 SAZI.deg               149.55:  Azm, Start 
 SDEP.m                3180.01:  Start Depth 
 SIDD.                      No:  Serv Intrp, DD 
 SINC.deg                68.42:  Inc, Start 
 SPPA.psig             4400.00:  SPP Avg 
 SPPN.psig             3580.00:  SPP Min 
 SPPX.psig             4850.00:  SPP Max 
 STIM.      12.30.00 24-Apr-21:  Start Time 
 SVCS.                 DD, MWD:  Services 
 SVER.                    9.20:  Sperry Version 
 TDAT.m                 438.00:  Tot Depth Attmp 
 TDDF.                      No:  Trip for DD 
 TDLG.m                 438.00:  Tot Depth Loggd 
 TFF .                      No:  Trip for Fail 
 TQAA.f-kp               11.00:  Torque Abs Avg 
 TQAN.f-kp                9.00:  Torque Abs Min 
 TQAX.f-kp               14.00:  Torque Abs Max 
 TRRT.°/30m               0.04:  Turn Rotating 
 MRT .                    HCIM:  Maximum Recorded Temperature 
 TTMX.degC               84.31:  Max Tool Temp 
 VS01.                90521954:  Virtual Str1 SN 
 VS02.                90519327:  Virtual Str2 SN 
 VS03.                90522273:  Virtual Str3 SN 
 VS04.                11108038:  Virtual Str4 SN 
 VS05.                12258760:  Virtual Str5 SN 
 WBMN.klb                 1.00:  WOB Min 
 WITN.           Adil Mammadov:  Customer Rep 
 WITN.         Alex Yadullayev:  Customer Rep 2 
 WOBA.klb                 6.00:  WOB Avg 
 WOBX.klb                 9.00:  WOB Max 
 YP  .lhf2               31.00:  Yield Point 
~Curve Information Block
#MNEM.UNIT                 API CODE     Curve Description
#---------               -----------    ---------------------------
 TIME.HHMMSS            00 000 000 000:  GT Time & Date
 GTDEPTH.m              00 000 000 000:  GT Depth
 GTPQH.psia             00 000 000 000:  GT HR Quartz Pressure
 GTTQ.degC              00 000 000 000:  GT Quartz Temperature
 GTTN.NONE              00 000 000 000:  GT Test Number
 GTET.sec               00 000 000 000:  GT Elapsed Test Time
 GTTVD.m                00 000 000 000:  GT True Vertical Depth
#Other Information
#
#WARRANTY: Halliburton will use its best efforts to furnish customers with 
#accurate information and interpretations that are part of, and incident to, the services 
#provided.  However, Halliburton cannot and does not warrant the accuracy 
#or correctness of such information and interpretations.  Under no circumstances should any 
#such information or interpretation be relied upon as the sole basis for any drilling, 
#completion, production, or financial decision or any procedure involving any risk to the 
#safety of any drilling venture, drilling rig or its crew or any other third party.  The 
#Customer has full responsibility for all drilling, completion and production operation.  
#Halliburton makes no representations or warranties, either expressed or 
#implied, including, but not limited to, the implied warranties of merchantability or fitness 
#for a particular purpose, with respect to the services rendered.  In no event will 
#Halliburton be liable for failure to obtain any particular results or for 
#any damages, including, but not limited to, indirect, special or consequential damages, 
#resulting from the use of any information or interpretation provided by Halliburton.
#
~A           TIME           GTDEPTH  GTPQH  GTTQ  GTTN  GTET   GTTVD  
# ...
   19:07:51.689.27-Apr-2021 3392.01 3473.52 72.83 5.00 253.06 2716.87
   19:07:51.889.27-Apr-2021 3392.01 3473.52 72.83 5.00 253.26 2716.87
   19:07:52.089.27-Apr-2021 3392.01 3473.48 72.82 5.00 253.46 2716.87
   19:07:52.289.27-Apr-2021 3392.01 3473.49 72.82 5.00 253.66 2716.87
   19:07:52.489.27-Apr-2021 3392.01 3473.47 72.82 5.00 253.86 2716.87
   19:07:52.689.27-Apr-2021 3392.01 3473.48 72.82 5.00 254.06 2716.87
   19:07:52.889.27-Apr-2021 3392.01 3473.48 72.82 5.00 254.26 2716.87
   19:07:53.089.27-Apr-2021 3392.01 3473.32 72.82 5.00 254.46 2716.87
   19:07:53.289.27-Apr-2021 3392.01 3473.56 72.82 5.00 254.66 2716.87
   19:07:53.489.27-Apr-2021 3392.01 3473.53 72.82 5.00 254.86 2716.87
   19:07:53.689.27-Apr-2021 3392.01 3473.45 72.82 5.00 255.06 2716.87
   19:07:53.889.27-Apr-2021 3392.01 3473.45 72.82 5.00 255.26 2716.87
   19:07:54.089.27-Apr-2021 3392.01 3473.36 72.82 5.00 255.46 2716.87
   19:07:54.289.27-Apr-2021 3392.01 3473.54 72.82 5.00 255.66 2716.87
   19:07:54.489.27-Apr-2021 3392.01 3473.52 72.82 5.00 255.86 2716.87
   19:07:54.689.27-Apr-2021 3392.01 3473.46 72.82 5.00 256.06 2716.87
   19:07:54.889.27-Apr-2021 3392.01 3473.46 72.82 5.00 256.26 2716.87
   19:07:55.089.27-Apr-2021 3392.01 3473.59 72.82 5.00 256.46 2716.87
   19:07:55.290.27-Apr-2021 3392.01 3473.55 72.82 5.00 256.66 2716.87
   19:07:55.490.27-Apr-2021 3392.01 3473.45 72.82 5.00 256.86 2716.87
   19:07:55.690.27-Apr-2021 3392.01 3473.35 72.82 5.00 257.06 2716.87
   19:07:55.890.27-Apr-2021 3392.01 3473.35 72.82 5.00 257.26 2716.87
   19:07:56.090.27-Apr-2021 3392.01 3473.56 72.82 5.00 257.46 2716.87
   19:07:56.290.27-Apr-2021 3392.01 3473.46 72.82 5.00 257.66 2716.87
   19:07:56.490.27-Apr-2021 3392.01 3473.52 72.82 5.00 257.86 2716.87
   19:07:56.690.27-Apr-2021 3392.01 3473.54 72.81 5.00 258.06 2716.87
   19:07:56.890.27-Apr-2021 3392.01 3473.54 72.81 5.00 258.26 2716.87
   19:07:57.090.27-Apr-2021 3392.01 3473.52 72.81 5.00 258.46 2716.87
   19:07:57.290.27-Apr-2021 3392.01 3473.47 72.81 5.00 258.66 2716.87
   19:07:57.490.27-Apr-2021 3392.01 3473.52 72.81 5.00 258.86 2716.87
   19:07:57.690.27-Apr-2021 3392.01 3473.47 72.81 5.00 259.06 2716.87
   19:07:57.890.27-Apr-2021 3392.01 3473.47 72.81 5.00 259.26 2716.87
   19:07:58.090.27-Apr-2021 3392.01 3473.49 72.81 5.00 259.46 2716.87
   19:07:58.290.27-Apr-2021 3392.01 3473.37 72.81 5.00 259.66 2716.87
   19:07:58.490.27-Apr-2021 3392.01 3473.51 72.81 5.00 259.86 2716.87
   19:07:58.690.27-Apr-2021 3392.01 3473.49 72.81 5.00 260.06 2716.87
   19:07:58.890.27-Apr-2021 3392.01 3473.49 72.81 5.00 260.26 2716.87
   19:07:59.090.27-Apr-2021 3392.01 3473.50 72.81 5.00 260.46 2716.87
   19:07:59.291.27-Apr-2021 3392.01 3473.53 72.81 5.00 260.66 2716.87
   19:07:59.491.27-Apr-2021 3392.01 3473.45 72.81 5.00 260.86 2716.87
   19:07:59.691.27-Apr-2021 3392.01 3473.52 72.81 5.00 261.06 2716.87
   19:07:59.891.27-Apr-2021 3392.01 3473.52 72.81 5.00 261.26 2716.87
   19:08:00.091.27-Apr-2021 3392.01 3473.48 72.81 5.00 261.46 2716.87
   19:08:00.291.27-Apr-2021 3392.01 3473.51 72.81 5.00 261.66 2716.87
   19:08:00.491.27-Apr-2021 3392.01 3473.45 72.81 5.00 261.86 2716.87
   19:08:00.691.27-Apr-2021 3392.01 3473.47 72.81 5.00 262.06 2716.87
   19:08:00.891.27-Apr-2021 3392.01 3473.47 72.81 5.00 262.26 2716.87
   19:08:01.091.27-Apr-2021 3392.01 3473.46 72.81 5.00 262.46 2716.87
   19:08:01.291.27-Apr-2021 3392.01 3473.57 72.80 5.00 262.66 2716.87
   19:08:01.491.27-Apr-2021 3392.01 3473.54 72.80 5.00 262.86 2716.87
   19:08:01.691.27-Apr-2021 3392.01 3473.45 72.80 5.00 263.06 2716.87
   19:08:01.891.27-Apr-2021 3392.01 3473.45 72.80 5.00 263.26 2716.87
   19:08:02.091.27-Apr-2021 3392.01 3473.33 72.80 5.00 263.46 2716.87
   19:08:02.291.27-Apr-2021 3392.01 3473.58 72.80 5.00 263.66 2716.87
   19:08:02.491.27-Apr-2021 3392.01 3473.52 72.80 5.00 263.86 2716.87
   19:08:02.691.27-Apr-2021 3392.01 3473.44 72.80 5.00 264.06 2716.87
   19:08:02.891.27-Apr-2021 3392.01 3473.44 72.80 5.00 264.26 2716.87
   19:08:03.091.27-Apr-2021 3392.01 3473.34 72.80 5.00 264.46 2716.87
   19:08:03.291.27-Apr-2021 3392.01 3473.56 72.80 5.00 264.66 2716.87
   19:08:03.492.27-Apr-2021 3392.01 3473.50 72.80 5.00 264.86 2716.87
   19:08:03.692.27-Apr-2021 3392.01 3473.50 72.80 5.00 265.06 2716.87
   19:08:03.892.27-Apr-2021 3392.01 3473.50 72.80 5.00 265.26 2716.87
   19:08:04.092.27-Apr-2021 3392.01 3473.35 72.80 5.00 265.46 2716.87
   19:08:04.292.27-Apr-2021 3392.01 3473.57 72.80 5.00 265.66 2716.87
   19:08:04.492.27-Apr-2021 3392.01 3473.50 72.80 5.00 265.86 2716.87
   19:08:04.692.27-Apr-2021 3392.01 3473.47 72.80 5.00 266.07 2716.87
   19:08:04.892.27-Apr-2021 3392.01 3473.47 72.80 5.00 266.27 2716.87
   19:08:05.092.27-Apr-2021 3392.01 3473.52 72.80 5.00 266.47 2716.87
   19:08:05.292.27-Apr-2021 3392.01 3473.44 72.80 5.00 266.67 2716.87
   19:08:05.492.27-Apr-2021 3392.01 3473.52 72.80 5.00 266.87 2716.87
   19:08:05.692.27-Apr-2021 3392.01 3473.45 72.80 5.00 267.07 2716.87
   19:08:05.892.27-Apr-2021 3392.01 3473.45 72.80 5.00 267.27 2716.87
   19:08:06.092.27-Apr-2021 3392.01 3473.48 72.79 5.00 267.47 2716.87
   19:08:06.292.27-Apr-2021 3392.01 3473.45 72.79 5.00 267.67 2716.87
   19:08:06.492.27-Apr-2021 3392.01 3473.48 72.79 5.00 267.87 2716.87
   19:08:06.692.27-Apr-2021 3392.01 3473.44 72.79 5.00 268.07 2716.87
   19:08:06.892.27-Apr-2021 3392.01 3473.44 72.79 5.00 268.27 2716.87
   19:08:07.092.27-Apr-2021 3392.01 3473.51 72.79 5.00 268.47 2716.87
   19:08:07.292.27-Apr-2021 3392.01 3473.53 72.79 5.00 268.67 2716.87
   19:08:07.493.27-Apr-2021 3392.01 3473.45 72.79 5.00 268.87 2716.87
   19:08:07.693.27-Apr-2021 3392.01 3473.50 72.79 5.00 269.07 2716.87
   19:08:07.893.27-Apr-2021 3392.01 3473.50 72.79 5.00 269.27 2716.87
   19:08:08.093.27-Apr-2021 3392.01 3473.48 72.79 5.00 269.47 2716.87
   19:08:08.293.27-Apr-2021 3392.01 3473.49 72.79 5.00 269.67 2716.87
   19:08:08.493.27-Apr-2021 3392.01 3473.46 72.79 5.00 269.87 2716.87
   19:08:08.693.27-Apr-2021 3392.01 3473.49 72.79 5.00 270.07 2716.87
   19:08:08.893.27-Apr-2021 3392.01 3473.49 72.79 5.00 270.27 2716.87
   19:08:09.093.27-Apr-2021 3392.01 3473.47 72.79 5.00 270.47 2716.87
   19:08:09.293.27-Apr-2021 3392.01 3473.45 72.79 5.00 270.67 2716.87
   19:08:09.493.27-Apr-2021 3392.01 3473.35 72.79 5.00 270.87 2716.87
   19:08:09.693.27-Apr-2021 3392.01 3473.46 72.79 5.00 271.07 2716.87
   19:08:09.893.27-Apr-2021 3392.01 3473.46 72.79 5.00 271.27 2716.87
   19:08:10.093.27-Apr-2021 3392.01 3473.46 72.79 5.00 271.47 2716.87
   19:08:10.293.27-Apr-2021 3392.01 3473.51 72.78 5.00 271.67 2716.87
   19:08:10.493.27-Apr-2021 3392.01 3473.42 72.78 5.00 271.87 2716.87
   19:08:10.693.27-Apr-2021 3392.01 3473.43 72.78 5.00 272.07 2716.87
   19:08:10.893.27-Apr-2021 3392.01 3473.43 72.78 5.00 272.27 2716.87
   19:08:11.093.27-Apr-2021 3392.01 3473.44 72.78 5.00 272.47 2716.87
   19:08:11.293.27-Apr-2021 3392.01 3473.52 72.78 5.00 272.67 2716.87
   19:08:11.493.27-Apr-2021 3392.01 3473.28 72.78 5.00 272.87 2716.87
   19:08:11.694.27-Apr-2021 3392.01 3473.59 72.78 5.00 273.07 2716.87
   19:08:11.894.27-Apr-2021 3392.01 3473.59 72.78 5.00 273.27 2716.87
   19:08:12.094.27-Apr-2021 3392.01 3473.45 72.78 5.00 273.47 2716.87
   19:08:12.294.27-Apr-2021 3392.01 3473.49 72.78 5.00 273.67 2716.87
   19:08:12.494.27-Apr-2021 3392.01 3473.42 72.78 5.00 273.87 2716.87
   19:08:12.694.27-Apr-2021 3392.01 3473.46 72.78 5.00 274.07 2716.87
   19:08:12.894.27-Apr-2021 3392.01 3473.46 72.78 5.00 274.27 2716.87
   19:08:13.094.27-Apr-2021 3392.01 3473.51 72.78 5.00 274.47 2716.87
   19:08:13.294.27-Apr-2021 3392.01 3473.47 72.78 5.00 274.67 2716.87
   19:08:13.494.27-Apr-2021 3392.01 3473.51 72.78 5.00 274.87 2716.87
   19:08:13.694.27-Apr-2021 3392.01 3473.44 72.78 5.00 275.07 2716.87
   19:08:13.894.27-Apr-2021 3392.01 3473.44 72.78 5.00 275.27 2716.87
   19:08:14.094.27-Apr-2021 3392.01 3473.47 72.78 5.00 275.47 2716.87
   19:08:14.294.27-Apr-2021 3392.01 3473.44 72.78 5.00 275.67 2716.87
   19:08:14.494.27-Apr-2021 3392.01 3473.49 72.78 5.00 275.87 2716.87
