~Version Information
 VERS.                  2.0:   CWLS log ASCII Standard -VERSION 2.0
 WRAP.                   NO:   One line per depth step
~Well Information Block
#MNEM.UNIT     VALUE/NAME     DESCRIPTION
#---------     -----------    ---------------------------
 STRT.S             06:42:00 27-Apr-21: START TIME 06:42:00 27-Apr-21
 STOP.S             06:48:27 27-Apr-21: STOP TIME  06:48:27 27-Apr-21
 STEP.S                   0.00: STEP TIME
 NULL.                 -999.25: NULL VALUE
 DFWT.                        :  DIST FWL TEXT
 DFST.                        :  DIST FSL TEXT
 DMF .             Drill Floor:  DRILL MEAS FROM
 STIM.      02.00.00 12-Apr-21:  START TIME
 DATE.      02.00.00 02-May-21:  END TIME
 SPUD.               09-Apr-21:  SPUD DATE
 NREF.                    Grid:  NORTH REFERENCE
 HPTY.       Minimum Curvature:  HOLE POS TYPE
 DMOD.             Drill Model:  DRILL MOD DESC
 SVYD.                  Survey:  SURVEY DESC
 ILTD.               Lithology:  INTERP LTH DESC
 FTOP.          Formation Tops:  FORM TOPS DESC
 PDAT.          Mean Sea Level:  PERMANENT DATUM
 FLD .                     ACG:  FIELD NAME
 SON .        AZ-XX-0907021034:  JOB NUMBER
 CTRY.              Azerbaijan:  COUNTRY NAME
 WELL.                    E01x:  WELL NAME
 COMP.     BP Exploration (Caspian Sea) LTD.:  COMPANY
 UWI .            /AZE00001403:  UNIQUE WELL IDENTIFIER
 API .            /AZE00001403:  API NUMBER
 WTYP.                Deviated:  WELL TYPE
 MDS .        Operator Entered:  MAG DATA SOURCE
 BASE.              Azerbaijan:  LOGGING EQUIPMENT BASE LOCATION
 REGN.                   EESSA:  REGION
 PROV.                    Baku:  PROVINCE
 STAT.                    Baku:  STATE NAME
 SRVC.          Turan Drilling:  CONTRACTOR
 MWDS.                    Baku:  MWD SHOP
 JOBN.        AZ-XX-0907021034:  JOB TICKET NUMB
 RIG .                     DWG:  RIG NAME
 DOE .                     N/A:  DOE NUMBER
 DCON.         Sperry Drilling:  DIRECTNL CONTR
 UNIT.                     N/A:  LOGGING EQUIPMENT ID
 CNTY.                        :  COUNTY
 LOC .                        :  LOCATION
 LMF .             Drill Floor:  LOG MEASURED FROM
 TVDS.m                  43.16:  TVDSS CORRECTN
 LATI.deg                40.17:  LATITUDE
 LONG.deg                51.17:  LONGITUDE
 WHNS.m                  -5.90:  WELL HEAD N/S
 WHEW.m                  -6.61:  WELL HEAD E/W
 UTMX.m              514337.95:  UTM X
 UTMY.m             4448627.46:  UTM Y
 DFWL.m                   0.00:  DISTANCE FWL
 DFSL.m                   0.00:  DISTANCE FSL
 SDEP.m                2606.87:  START DEPTH
 TDD .m                3618.01:  TOTAL DEPTH (DRILLER)
 VSDR.deg               177.42:  VERT SEC DIRECT
 GVFD.g                   1.00:  GRAVITY FIELD
 MFLD.nT              50399.00:  MAGNETIC FIELD
 MDIP.deg                59.67:  MAGNETIC DIP
 MDEC.deg                 6.56:  MAGNETIC DECL
 GRDC.deg                 0.11:  GRID CORRECTION
 AZTC.deg                 6.45:  AZM TOTAL CORR
 EPD .m                   0.00:  ELEVATION
 EGL .m                   0.00:  GROUND ELEVATION
 WDMS.m                 176.20:  WD ELEV
 APD .m                  43.16:  DEPTH ABOVE PD
 DEP .m                2606.87:  DEPTH
 AGAP.m                  43.16:  AIR GAP
 VSEW.m                  -6.61:  VERT SEC E/W
 VSNS.m                  -5.90:  VERT SEC N/S
 EKB .m                  43.16:  KB ELEVATION
 EDF .m                  43.16:  DF ELEVATION
 TDL .m                 438.00:  TOTAL DEPTH (LOGGER)
 VSC .                       0:  VS TO CLOSURE
 MAGU.                 1855490:  MAGUTM CHECKSUM
~Parameter Information Block
#MNEM.UNIT       Value        Description
#---------     -----------    ---------------------------
 AV  .mps                 2.20:  Ann Velocity 
 AVMX.mps                 2.50:  Max Ann Veloc 
 AZIF.deg               150.21:  Azm, Final 
 BHAT.        Rotary Steerable:  BHA Type 
 BROT.°/30m               0.08:  Build Rotating 
 BS  .in                  6.50:  Bit Size 
 BSZ .in                  6.50:  Bit Size 
 BTPL.psig              108.00:  Bit Press Loss 
 CABU.                     Yes:  Customer Abuse 
 CGEO.           Emin Aliyarli:  Customer Geo 
 COMM.                     )M:  Run Comments 1 
 TCS .hr                 74.20:  Time Ciculation Ended 
 CV  .mps                 3.63:  Crit Velocity 
 CVMX.mps                 3.66:  Max Crit Veloc 
 DD1 .         Intigam Rahimov:  Direct Drillr 1 
 DD2 .          Teymur Aghayev:  Direct Drillr 2 
 DDSV.               Geo-Pilot:  DD Service 
 DEFF.%                  97.00:  % Det Eff 
 DLRX.°/30m               1.63:  Dogleg Rot Max 
 DLSO.°/30m               0.00:  Dogleg Oriented 
 DLSX.°/30m               0.00:  Dogleg Str Max 
 DRET.      20.20.00 28-Apr-21:  Drill End Time 
 DRST.      04.45.00 26-Apr-21:  Drill Start Tim 
 DTIM.hr                 34.30:  Time Drilling 
 EDEP.m                3618.01:  End Depth 
 ENG1.           Amrah Tahirov:  Engineer 1 
 ENG2.         Bahruz Mehdiyev:  Engineer 2 
 ENG3.         Farhad Orujzade:  Engineer 3 
 ETIM.      19.00.00 29-Apr-21:  End Time 
 FLOI.gpm               370.00:  Flow In 
 FLON.gpm               300.00:  Flow In Min 
 FLOS.cptm                0.00:  Fluid Loss 
 FLOX.gpm               410.00:  Flow In Max 
 HFLO.                      No:  High Flow 
 HPRE.                      No:  High Pressure 
 HTEM.                      No:  High Temp 
 HYDO.m                   1.80:  Hydro Offset 
 IFIN.deg                67.19:  Inc, Final 
 IMAX.deg                68.42:  Inc Max 
 IMIN.deg                66.33:  Inc Min 
 IMND.m                3532.79:  Inc Min Depth 
 IMXD.m                3192.15:  Inc Max Depth 
 JARR.                      No:  Jarring 
 LETM.      20.20.00 28-Apr-21:  Log End Time 
 LOST.hr                     0:  Lost Rig Time 
 LSTM.      04.45.00 26-Apr-21:  Log Start Time 
 MDCL.ppm             36500.00:  Mud Chlorides 
 MDES.     Inversion Oil/Synthetic:  Mud Desc 
 DFD .sg                  1.42:  Mud Density 
 MDMN.sg                  1.42:  Dens Mud Min 
 MDMX.sg                  1.42:  Dens Mud Max 
 MOIL.                    55.7:  Run Mud Oil % 
 MOWR.                   71:29:  Run Mud OWR 
 MSND.                     0.1:  Run Mud Sand % 
 MSOL.                    19.9:  Run Mud Solids% 
 DFV .spqt               83.00:  Mud Viscosity 
 MWOD.in                  5.15:  MWD Tool OD 
 MWSI.                      No:  Serv Intrp, MWD 
 OTIM.hr                120.59:  Time Operating 
 PCON.           Look Like New:  Pad Condition 
 PMAX.psia            11292.93:  Press Op, Max 
 PV  .cP                 27.00:  Mud PV 
 RUN .                     400:  Run Number 
 ROPA.m/hr               14.00:  ROP Avg 
 ROPN.m/hr                9.00:  ROP Min 
 ROPX.m/hr               18.00:  ROP Max 
 RPMA.rpm               130.00:  RPM Surface Avg 
 RPMN.rpm               100.00:  RPM Surface Min 
 RPMX.rpm               140.00:  RPM Surface Max 
 RRUN.                    0400:  Rig Run Number 
 RTIM.hr                 38.60:  Time Reaming 
 SAZI.deg               149.55:  Azm, Start 
 SDEP.m                3180.01:  Start Depth 
 SIDD.                      No:  Serv Intrp, DD 
 SINC.deg                68.42:  Inc, Start 
 SPPA.psig             4400.00:  SPP Avg 
 SPPN.psig             3580.00:  SPP Min 
 SPPX.psig             4850.00:  SPP Max 
 STIM.      12.30.00 24-Apr-21:  Start Time 
 SVCS.                 DD, MWD:  Services 
 SVER.                    9.20:  Sperry Version 
 TDAT.m                 438.00:  Tot Depth Attmp 
 TDDF.                      No:  Trip for DD 
 TDLG.m                 438.00:  Tot Depth Loggd 
 TFF .                      No:  Trip for Fail 
 TQAA.f-kp               11.00:  Torque Abs Avg 
 TQAN.f-kp                9.00:  Torque Abs Min 
 TQAX.f-kp               14.00:  Torque Abs Max 
 TRRT.°/30m               0.04:  Turn Rotating 
 MRT .                    HCIM:  Maximum Recorded Temperature 
 TTMX.degC               84.31:  Max Tool Temp 
 VS01.                90521954:  Virtual Str1 SN 
 VS02.                90519327:  Virtual Str2 SN 
 VS03.                90522273:  Virtual Str3 SN 
 VS04.                11108038:  Virtual Str4 SN 
 VS05.                12258760:  Virtual Str5 SN 
 WBMN.klb                 1.00:  WOB Min 
 WITN.           Adil Mammadov:  Customer Rep 
 WITN.         Alex Yadullayev:  Customer Rep 2 
 WOBA.klb                 6.00:  WOB Avg 
 WOBX.klb                 9.00:  WOB Max 
 YP  .lhf2               31.00:  Yield Point 
~Curve Information Block
#MNEM.UNIT                 API CODE     Curve Description
#---------               -----------    ---------------------------
 TIME.HHMMSS            00 000 000 000:  GT Time & Date
 GTDEPTH.m              00 000 000 000:  GT Depth
 GTPQH.psia             00 000 000 000:  GT HR Quartz Pressure
 GTTQ.degC              00 000 000 000:  GT Quartz Temperature
 GTTN.NONE              00 000 000 000:  GT Test Number
 GTET.sec               00 000 000 000:  GT Elapsed Test Time
 GTTVD.m                00 000 000 000:  GT True Vertical Depth
#Other Information
#
#WARRANTY: Halliburton will use its best efforts to furnish customers with 
#accurate information and interpretations that are part of, and incident to, the services 
#provided.  However, Halliburton cannot and does not warrant the accuracy 
#or correctness of such information and interpretations.  Under no circumstances should any 
#such information or interpretation be relied upon as the sole basis for any drilling, 
#completion, production, or financial decision or any procedure involving any risk to the 
#safety of any drilling venture, drilling rig or its crew or any other third party.  The 
#Customer has full responsibility for all drilling, completion and production operation.  
#Halliburton makes no representations or warranties, either expressed or 
#implied, including, but not limited to, the implied warranties of merchantability or fitness 
#for a particular purpose, with respect to the services rendered.  In no event will 
#Halliburton be liable for failure to obtain any particular results or for 
#any damages, including, but not limited to, indirect, special or consequential damages, 
#resulting from the use of any information or interpretation provided by Halliburton.
#
~A           TIME           GTDEPTH  GTPQH  GTTQ  GTTN  GTET   GTTVD  
# ...
   06:46:13.878.27-Apr-2021 3278.01 4361.24 73.65 4.00 253.02 2671.88
   06:46:14.079.27-Apr-2021 3278.01 4361.24 73.65 4.00 253.22 2671.88
   06:46:14.279.27-Apr-2021 3278.01 4362.11 73.65 4.00 253.42 2671.88
   06:46:14.479.27-Apr-2021 3278.01 4362.79 73.65 4.00 253.62 2671.88
   06:46:14.679.27-Apr-2021 3278.01 4363.55 73.65 4.00 253.82 2671.88
   06:46:14.879.27-Apr-2021 3278.01 4363.94 73.65 4.00 254.02 2671.88
   06:46:15.079.27-Apr-2021 3278.01 4363.94 73.65 4.00 254.22 2671.88
   06:46:15.279.27-Apr-2021 3278.01 4364.78 73.65 4.00 254.42 2671.88
   06:46:15.479.27-Apr-2021 3278.01 4365.31 73.65 4.00 254.62 2671.88
   06:46:15.679.27-Apr-2021 3278.01 4365.66 73.65 4.00 254.82 2671.88
   06:46:15.879.27-Apr-2021 3278.01 4366.15 73.65 4.00 255.02 2671.88
   06:46:16.079.27-Apr-2021 3278.01 4366.15 73.65 4.00 255.22 2671.88
   06:46:16.279.27-Apr-2021 3278.01 4366.70 73.65 4.00 255.42 2671.88
   06:46:16.479.27-Apr-2021 3278.01 4366.96 73.65 4.00 255.62 2671.88
   06:46:16.679.27-Apr-2021 3278.01 4367.47 73.65 4.00 255.82 2671.88
   06:46:16.879.27-Apr-2021 3278.01 4367.58 73.65 4.00 256.02 2671.88
   06:46:17.079.27-Apr-2021 3278.01 4367.58 73.65 4.00 256.22 2671.88
   06:46:17.279.27-Apr-2021 3278.01 4367.95 73.65 4.00 256.42 2671.88
   06:46:17.479.27-Apr-2021 3278.01 4368.29 73.65 4.00 256.62 2671.88
   06:46:17.679.27-Apr-2021 3278.01 4367.88 73.65 4.00 256.82 2671.88
   06:46:17.879.27-Apr-2021 3278.01 4368.84 73.65 4.00 257.02 2671.88
   06:46:18.079.27-Apr-2021 3278.01 4368.84 73.65 4.00 257.22 2671.88
   06:46:18.279.27-Apr-2021 3278.01 4369.40 73.65 4.00 257.42 2671.88
   06:46:18.479.27-Apr-2021 3278.01 4369.59 73.65 4.00 257.62 2671.88
   06:46:18.679.27-Apr-2021 3278.01 4369.84 73.65 4.00 257.82 2671.88
   06:46:18.879.27-Apr-2021 3278.01 4369.96 73.64 4.00 258.02 2671.88
   06:46:19.079.27-Apr-2021 3278.01 4369.96 73.64 4.00 258.22 2671.88
   06:46:19.279.27-Apr-2021 3278.01 4370.59 73.64 4.00 258.42 2671.88
   06:46:19.479.27-Apr-2021 3278.01 4370.75 73.64 4.00 258.62 2671.88
   06:46:19.679.27-Apr-2021 3278.01 4370.82 73.64 4.00 258.82 2671.88
   06:46:19.879.27-Apr-2021 3278.01 4370.93 73.64 4.00 259.02 2671.88
   06:46:20.079.27-Apr-2021 3278.01 4370.93 73.64 4.00 259.22 2671.88
   06:46:20.279.27-Apr-2021 3278.01 4371.20 73.64 4.00 259.42 2671.88
   06:46:20.479.27-Apr-2021 3278.01 4371.13 73.64 4.00 259.62 2671.88
   06:46:20.679.27-Apr-2021 3278.01 4371.60 73.64 4.00 259.82 2671.88
   06:46:20.879.27-Apr-2021 3278.01 4371.97 73.64 4.00 260.02 2671.88
   06:46:21.079.27-Apr-2021 3278.01 4371.97 73.64 4.00 260.22 2671.88
   06:46:21.279.27-Apr-2021 3278.01 4372.11 73.64 4.00 260.42 2671.88
   06:46:21.479.27-Apr-2021 3278.01 4371.90 73.64 4.00 260.62 2671.88
   06:46:21.679.27-Apr-2021 3278.01 4372.32 73.64 4.00 260.82 2671.88
   06:46:21.879.27-Apr-2021 3278.01 4372.67 73.64 4.00 261.02 2671.88
   06:46:22.079.27-Apr-2021 3278.01 4372.67 73.64 4.00 261.22 2671.88
   06:46:22.279.27-Apr-2021 3278.01 4372.87 73.64 4.00 261.42 2671.88
   06:46:22.479.27-Apr-2021 3278.01 4372.89 73.64 4.00 261.62 2671.88
   06:46:22.679.27-Apr-2021 3278.01 4372.68 73.64 4.00 261.82 2671.88
   06:46:22.879.27-Apr-2021 3278.01 4373.18 73.64 4.00 262.02 2671.88
   06:46:23.079.27-Apr-2021 3278.01 4373.18 73.64 4.00 262.22 2671.88
   06:46:23.279.27-Apr-2021 3278.01 4373.51 73.64 4.00 262.42 2671.88
   06:46:23.479.27-Apr-2021 3278.01 4373.48 73.63 4.00 262.62 2671.88
   06:46:23.679.27-Apr-2021 3278.01 4373.57 73.63 4.00 262.82 2671.88
   06:46:23.879.27-Apr-2021 3278.01 4372.95 73.63 4.00 263.02 2671.88
   06:46:24.079.27-Apr-2021 3278.01 4372.95 73.63 4.00 263.22 2671.88
   06:46:24.279.27-Apr-2021 3278.01 4373.96 73.63 4.00 263.42 2671.88
   06:46:24.479.27-Apr-2021 3278.01 4374.11 73.63 4.00 263.62 2671.88
   06:46:24.679.27-Apr-2021 3278.01 4374.14 73.63 4.00 263.82 2671.88
   06:46:24.879.27-Apr-2021 3278.01 4374.21 73.63 4.00 264.02 2671.88
   06:46:25.079.27-Apr-2021 3278.01 4374.21 73.63 4.00 264.22 2671.88
   06:46:25.279.27-Apr-2021 3278.01 4374.27 73.63 4.00 264.42 2671.88
   06:46:25.479.27-Apr-2021 3278.01 4374.47 73.63 4.00 264.62 2671.88
   06:46:25.679.27-Apr-2021 3278.01 4374.45 73.63 4.00 264.82 2671.88
   06:46:25.880.27-Apr-2021 3278.01 4374.53 73.63 4.00 265.02 2671.88
   06:46:26.080.27-Apr-2021 3278.01 4374.53 73.63 4.00 265.22 2671.88
   06:46:26.280.27-Apr-2021 3278.01 4374.64 73.63 4.00 265.42 2671.88
   06:46:26.480.27-Apr-2021 3278.01 4374.04 73.63 4.00 265.62 2671.88
   06:46:26.680.27-Apr-2021 3278.01 4374.81 73.63 4.00 265.82 2671.88
   06:46:26.880.27-Apr-2021 3278.01 4374.78 73.63 4.00 266.02 2671.88
   06:46:27.080.27-Apr-2021 3278.01 4374.78 73.63 4.00 266.22 2671.88
   06:46:27.280.27-Apr-2021 3278.01 4375.13 73.63 4.00 266.42 2671.88
   06:46:27.480.27-Apr-2021 3278.01 4375.26 73.63 4.00 266.62 2671.88
   06:46:27.680.27-Apr-2021 3278.01 4375.22 73.63 4.00 266.82 2671.88
   06:46:27.880.27-Apr-2021 3278.01 4375.50 73.62 4.00 267.02 2671.88
   06:46:28.080.27-Apr-2021 3278.01 4375.50 73.62 4.00 267.22 2671.88
   06:46:28.280.27-Apr-2021 3278.01 4375.08 73.62 4.00 267.42 2671.88
   06:46:28.480.27-Apr-2021 3278.01 4375.56 73.62 4.00 267.62 2671.88
   06:46:28.680.27-Apr-2021 3278.01 4375.62 73.62 4.00 267.82 2671.88
   06:46:28.880.27-Apr-2021 3278.01 4375.90 73.62 4.00 268.02 2671.88
   06:46:29.080.27-Apr-2021 3278.01 4375.90 73.62 4.00 268.22 2671.88
   06:46:29.280.27-Apr-2021 3278.01 4376.12 73.62 4.00 268.42 2671.88
   06:46:29.480.27-Apr-2021 3278.01 4376.20 73.62 4.00 268.62 2671.88
   06:46:29.680.27-Apr-2021 3278.01 4376.17 73.62 4.00 268.82 2671.88
   06:46:29.880.27-Apr-2021 3278.01 4376.05 73.62 4.00 269.02 2671.88
   06:46:30.080.27-Apr-2021 3278.01 4376.05 73.62 4.00 269.22 2671.88
   06:46:30.280.27-Apr-2021 3278.01 4376.38 73.62 4.00 269.42 2671.88
   06:46:30.480.27-Apr-2021 3278.01 4376.40 73.62 4.00 269.62 2671.88
   06:46:30.680.27-Apr-2021 3278.01 4376.71 73.62 4.00 269.82 2671.88
   06:46:30.880.27-Apr-2021 3278.01 4376.49 73.62 4.00 270.02 2671.88
   06:46:31.080.27-Apr-2021 3278.01 4376.49 73.62 4.00 270.22 2671.88
   06:46:31.280.27-Apr-2021 3278.01 4375.80 73.61 4.00 270.42 2671.88
   06:46:31.480.27-Apr-2021 3278.01 4376.60 73.61 4.00 270.62 2671.88
   06:46:31.680.27-Apr-2021 3278.01 4376.64 73.61 4.00 270.82 2671.88
   06:46:31.880.27-Apr-2021 3278.01 4376.65 73.61 4.00 271.02 2671.88
   06:46:32.080.27-Apr-2021 3278.01 4376.65 73.61 4.00 271.22 2671.88
   06:46:32.280.27-Apr-2021 3278.01 4376.75 73.61 4.00 271.42 2671.88
   06:46:32.480.27-Apr-2021 3278.01 4376.69 73.61 4.00 271.62 2671.88
   06:46:32.680.27-Apr-2021 3278.01 4376.80 73.61 4.00 271.82 2671.88
   06:46:32.880.27-Apr-2021 3278.01 4376.89 73.61 4.00 272.02 2671.88
   06:46:33.080.27-Apr-2021 3278.01 4376.89 73.61 4.00 272.22 2671.88
   06:46:33.280.27-Apr-2021 3278.01 4376.82 73.61 4.00 272.42 2671.88
   06:46:33.480.27-Apr-2021 3278.01 4376.86 73.61 4.00 272.62 2671.88
   06:46:33.680.27-Apr-2021 3278.01 4376.81 73.61 4.00 272.82 2671.88
   06:46:33.880.27-Apr-2021 3278.01 4376.28 73.61 4.00 273.02 2671.88
   06:46:34.080.27-Apr-2021 3278.01 4376.28 73.61 4.00 273.22 2671.88
   06:46:34.280.27-Apr-2021 3278.01 4377.08 73.61 4.00 273.42 2671.88
   06:46:34.480.27-Apr-2021 3278.01 4377.05 73.61 4.00 273.62 2671.88
   06:46:34.680.27-Apr-2021 3278.01 4377.12 73.61 4.00 273.82 2671.88
   06:46:34.880.27-Apr-2021 3278.01 4377.16 73.61 4.00 274.02 2671.88
   06:46:35.080.27-Apr-2021 3278.01 4377.16 73.61 4.00 274.22 2671.88
   06:46:35.280.27-Apr-2021 3278.01 4377.27 73.61 4.00 274.42 2671.88
   06:46:35.480.27-Apr-2021 3278.01 4377.36 73.60 4.00 274.62 2671.88
   06:46:35.680.27-Apr-2021 3278.01 4377.40 73.60 4.00 274.82 2671.88
   06:46:35.880.27-Apr-2021 3278.01 4377.32 73.60 4.00 275.02 2671.88
   06:46:36.080.27-Apr-2021 3278.01 4377.32 73.60 4.00 275.22 2671.88
   06:46:36.280.27-Apr-2021 3278.01 4377.34 73.60 4.00 275.42 2671.88
   06:46:36.480.27-Apr-2021 3278.01 4377.36 73.60 4.00 275.62 2671.88
   06:46:36.680.27-Apr-2021 3278.01 4376.68 73.60 4.00 275.82 2671.88
