~Version Information
 VERS.                  2.0:   CWLS log ASCII Standard -VERSION 2.0
 WRAP.                   NO:   One line per depth step
~Well Information Block
#MNEM.UNIT     VALUE/NAME     DESCRIPTION
#---------     -----------    ---------------------------
 STRT.S             00:41:47 27-Apr-21: START TIME 00:41:47 27-Apr-21
 STOP.S             00:48:15 27-Apr-21: STOP TIME  00:48:15 27-Apr-21
 STEP.S                   0.00: STEP TIME
 NULL.                 -999.25: NULL VALUE
 DFWT.                        :  DIST FWL TEXT
 DFST.                        :  DIST FSL TEXT
 DMF .             Drill Floor:  DRILL MEAS FROM
 STIM.      02.00.00 12-Apr-21:  START TIME
 DATE.      02.00.00 02-May-21:  END TIME
 SPUD.               09-Apr-21:  SPUD DATE
 NREF.                    Grid:  NORTH REFERENCE
 HPTY.       Minimum Curvature:  HOLE POS TYPE
 DMOD.             Drill Model:  DRILL MOD DESC
 SVYD.                  Survey:  SURVEY DESC
 ILTD.               Lithology:  INTERP LTH DESC
 FTOP.          Formation Tops:  FORM TOPS DESC
 PDAT.          Mean Sea Level:  PERMANENT DATUM
 FLD .                     ACG:  FIELD NAME
 SON .        AZ-XX-0907021034:  JOB NUMBER
 CTRY.              Azerbaijan:  COUNTRY NAME
 WELL.                    E01x:  WELL NAME
 COMP.     BP Exploration (Caspian Sea) LTD.:  COMPANY
 UWI .            /AZE00001403:  UNIQUE WELL IDENTIFIER
 API .            /AZE00001403:  API NUMBER
 WTYP.                Deviated:  WELL TYPE
 MDS .        Operator Entered:  MAG DATA SOURCE
 BASE.              Azerbaijan:  LOGGING EQUIPMENT BASE LOCATION
 REGN.                   EESSA:  REGION
 PROV.                    Baku:  PROVINCE
 STAT.                    Baku:  STATE NAME
 SRVC.          Turan Drilling:  CONTRACTOR
 MWDS.                    Baku:  MWD SHOP
 JOBN.        AZ-XX-0907021034:  JOB TICKET NUMB
 RIG .                     DWG:  RIG NAME
 DOE .                     N/A:  DOE NUMBER
 DCON.         Sperry Drilling:  DIRECTNL CONTR
 UNIT.                     N/A:  LOGGING EQUIPMENT ID
 CNTY.                        :  COUNTY
 LOC .                        :  LOCATION
 LMF .             Drill Floor:  LOG MEASURED FROM
 TVDS.m                  43.16:  TVDSS CORRECTN
 LATI.deg                40.17:  LATITUDE
 LONG.deg                51.17:  LONGITUDE
 WHNS.m                  -5.90:  WELL HEAD N/S
 WHEW.m                  -6.61:  WELL HEAD E/W
 UTMX.m              514337.95:  UTM X
 UTMY.m             4448627.46:  UTM Y
 DFWL.m                   0.00:  DISTANCE FWL
 DFSL.m                   0.00:  DISTANCE FSL
 SDEP.m                2606.87:  START DEPTH
 TDD .m                3618.01:  TOTAL DEPTH (DRILLER)
 VSDR.deg               177.42:  VERT SEC DIRECT
 GVFD.g                   1.00:  GRAVITY FIELD
 MFLD.nT              50399.00:  MAGNETIC FIELD
 MDIP.deg                59.67:  MAGNETIC DIP
 MDEC.deg                 6.56:  MAGNETIC DECL
 GRDC.deg                 0.11:  GRID CORRECTION
 AZTC.deg                 6.45:  AZM TOTAL CORR
 EPD .m                   0.00:  ELEVATION
 EGL .m                   0.00:  GROUND ELEVATION
 WDMS.m                 176.20:  WD ELEV
 APD .m                  43.16:  DEPTH ABOVE PD
 DEP .m                2606.87:  DEPTH
 AGAP.m                  43.16:  AIR GAP
 VSEW.m                  -6.61:  VERT SEC E/W
 VSNS.m                  -5.90:  VERT SEC N/S
 EKB .m                  43.16:  KB ELEVATION
 EDF .m                  43.16:  DF ELEVATION
 TDL .m                 438.00:  TOTAL DEPTH (LOGGER)
 VSC .                       0:  VS TO CLOSURE
 MAGU.                 1855490:  MAGUTM CHECKSUM
~Parameter Information Block
#MNEM.UNIT       Value        Description
#---------     -----------    ---------------------------
 AV  .mps                 2.20:  Ann Velocity 
 AVMX.mps                 2.50:  Max Ann Veloc 
 AZIF.deg               150.21:  Azm, Final 
 BHAT.        Rotary Steerable:  BHA Type 
 BROT.°/30m               0.08:  Build Rotating 
 BS  .in                  6.50:  Bit Size 
 BSZ .in                  6.50:  Bit Size 
 BTPL.psig              108.00:  Bit Press Loss 
 CABU.                     Yes:  Customer Abuse 
 CGEO.           Emin Aliyarli:  Customer Geo 
 COMM.                     lJm:  Run Comments 1 
 TCS .hr                 74.20:  Time Ciculation Ended 
 CV  .mps                 3.63:  Crit Velocity 
 CVMX.mps                 3.66:  Max Crit Veloc 
 DD1 .         Intigam Rahimov:  Direct Drillr 1 
 DD2 .          Teymur Aghayev:  Direct Drillr 2 
 DDSV.               Geo-Pilot:  DD Service 
 DEFF.%                  97.00:  % Det Eff 
 DLRX.°/30m               1.63:  Dogleg Rot Max 
 DLSO.°/30m               0.00:  Dogleg Oriented 
 DLSX.°/30m               0.00:  Dogleg Str Max 
 DRET.      20.20.00 28-Apr-21:  Drill End Time 
 DRST.      04.45.00 26-Apr-21:  Drill Start Tim 
 DTIM.hr                 34.30:  Time Drilling 
 EDEP.m                3618.01:  End Depth 
 ENG1.           Amrah Tahirov:  Engineer 1 
 ENG2.         Bahruz Mehdiyev:  Engineer 2 
 ENG3.         Farhad Orujzade:  Engineer 3 
 ETIM.      19.00.00 29-Apr-21:  End Time 
 FLOI.gpm               370.00:  Flow In 
 FLON.gpm               300.00:  Flow In Min 
 FLOS.cptm                0.00:  Fluid Loss 
 FLOX.gpm               410.00:  Flow In Max 
 HFLO.                      No:  High Flow 
 HPRE.                      No:  High Pressure 
 HTEM.                      No:  High Temp 
 HYDO.m                   1.80:  Hydro Offset 
 IFIN.deg                67.19:  Inc, Final 
 IMAX.deg                68.42:  Inc Max 
 IMIN.deg                66.33:  Inc Min 
 IMND.m                3532.79:  Inc Min Depth 
 IMXD.m                3192.15:  Inc Max Depth 
 JARR.                      No:  Jarring 
 LETM.      20.20.00 28-Apr-21:  Log End Time 
 LOST.hr                     0:  Lost Rig Time 
 LSTM.      04.45.00 26-Apr-21:  Log Start Time 
 MDCL.ppm             36500.00:  Mud Chlorides 
 MDES.     Inversion Oil/Synthetic:  Mud Desc 
 DFD .sg                  1.42:  Mud Density 
 MDMN.sg                  1.42:  Dens Mud Min 
 MDMX.sg                  1.42:  Dens Mud Max 
 MOIL.                    55.7:  Run Mud Oil % 
 MOWR.                   71:29:  Run Mud OWR 
 MSND.                     0.1:  Run Mud Sand % 
 MSOL.                    19.9:  Run Mud Solids% 
 DFV .spqt               83.00:  Mud Viscosity 
 MWOD.in                  5.15:  MWD Tool OD 
 MWSI.                      No:  Serv Intrp, MWD 
 OTIM.hr                120.59:  Time Operating 
 PCON.           Look Like New:  Pad Condition 
 PMAX.psia            11292.93:  Press Op, Max 
 PV  .cP                 27.00:  Mud PV 
 RUN .                     400:  Run Number 
 ROPA.m/hr               14.00:  ROP Avg 
 ROPN.m/hr                9.00:  ROP Min 
 ROPX.m/hr               18.00:  ROP Max 
 RPMA.rpm               130.00:  RPM Surface Avg 
 RPMN.rpm               100.00:  RPM Surface Min 
 RPMX.rpm               140.00:  RPM Surface Max 
 RRUN.                    0400:  Rig Run Number 
 RTIM.hr                 38.60:  Time Reaming 
 SAZI.deg               149.55:  Azm, Start 
 SDEP.m                3180.01:  Start Depth 
 SIDD.                      No:  Serv Intrp, DD 
 SINC.deg                68.42:  Inc, Start 
 SPPA.psig             4400.00:  SPP Avg 
 SPPN.psig             3580.00:  SPP Min 
 SPPX.psig             4850.00:  SPP Max 
 STIM.      12.30.00 24-Apr-21:  Start Time 
 SVCS.                 DD, MWD:  Services 
 SVER.                    9.20:  Sperry Version 
 TDAT.m                 438.00:  Tot Depth Attmp 
 TDDF.                      No:  Trip for DD 
 TDLG.m                 438.00:  Tot Depth Loggd 
 TFF .                      No:  Trip for Fail 
 TQAA.f-kp               11.00:  Torque Abs Avg 
 TQAN.f-kp                9.00:  Torque Abs Min 
 TQAX.f-kp               14.00:  Torque Abs Max 
 TRRT.°/30m               0.04:  Turn Rotating 
 MRT .                    HCIM:  Maximum Recorded Temperature 
 TTMX.degC               84.31:  Max Tool Temp 
 VS01.                90521954:  Virtual Str1 SN 
 VS02.                90519327:  Virtual Str2 SN 
 VS03.                90522273:  Virtual Str3 SN 
 VS04.                11108038:  Virtual Str4 SN 
 VS05.                12258760:  Virtual Str5 SN 
 WBMN.klb                 1.00:  WOB Min 
 WITN.           Adil Mammadov:  Customer Rep 
 WITN.         Alex Yadullayev:  Customer Rep 2 
 WOBA.klb                 6.00:  WOB Avg 
 WOBX.klb                 9.00:  WOB Max 
 YP  .lhf2               31.00:  Yield Point 
~Curve Information Block
#MNEM.UNIT                 API CODE     Curve Description
#---------               -----------    ---------------------------
 TIME.HHMMSS            00 000 000 000:  GT Time & Date
 GTDEPTH.m              00 000 000 000:  GT Depth
 GTPQH.psia             00 000 000 000:  GT HR Quartz Pressure
 GTTQ.degC              00 000 000 000:  GT Quartz Temperature
 GTTN.NONE              00 000 000 000:  GT Test Number
 GTET.sec               00 000 000 000:  GT Elapsed Test Time
 GTTVD.m                00 000 000 000:  GT True Vertical Depth
#Other Information
#
#WARRANTY: Halliburton will use its best efforts to furnish customers with 
#accurate information and interpretations that are part of, and incident to, the services 
#provided.  However, Halliburton cannot and does not warrant the accuracy 
#or correctness of such information and interpretations.  Under no circumstances should any 
#such information or interpretation be relied upon as the sole basis for any drilling, 
#completion, production, or financial decision or any procedure involving any risk to the 
#safety of any drilling venture, drilling rig or its crew or any other third party.  The 
#Customer has full responsibility for all drilling, completion and production operation.  
#Halliburton makes no representations or warranties, either expressed or 
#implied, including, but not limited to, the implied warranties of merchantability or fitness 
#for a particular purpose, with respect to the services rendered.  In no event will 
#Halliburton be liable for failure to obtain any particular results or for 
#any damages, including, but not limited to, indirect, special or consequential damages, 
#resulting from the use of any information or interpretation provided by Halliburton.
#
~A           TIME           GTDEPTH  GTPQH  GTTQ  GTTN  GTET   GTTVD  
# ...
   00:42:56.739.27-Apr-2021 3226.01 4274.59 72.00 2.00  69.01 2651.33
   00:42:56.939.27-Apr-2021 3226.01 4274.59 72.00 2.00  69.21 2651.33
   00:42:57.139.27-Apr-2021 3226.01 4274.65 72.00 2.00  69.41 2651.33
   00:42:57.340.27-Apr-2021 3226.01 4274.60 72.00 2.00  69.61 2651.33
   00:42:57.540.27-Apr-2021 3226.01 4274.59 72.00 2.00  69.81 2651.33
   00:42:57.740.27-Apr-2021 3226.01 4274.55 71.99 2.00  70.01 2651.33
   00:42:57.940.27-Apr-2021 3226.01 4274.55 71.99 2.00  70.21 2651.33
   00:42:58.140.27-Apr-2021 3226.01 4274.60 71.99 2.00  70.41 2651.33
   00:42:58.340.27-Apr-2021 3226.01 4274.54 71.99 2.00  70.61 2651.33
   00:42:58.540.27-Apr-2021 3226.01 4274.35 71.99 2.00  70.81 2651.33
   00:42:58.740.27-Apr-2021 3226.01 4274.55 71.99 2.00  71.01 2651.33
   00:42:58.940.27-Apr-2021 3226.01 4274.55 71.99 2.00  71.21 2651.33
   00:42:59.140.27-Apr-2021 3226.01 4274.57 71.99 2.00  71.41 2651.33
   00:42:59.340.27-Apr-2021 3226.01 4274.60 71.99 2.00  71.61 2651.33
   00:42:59.540.27-Apr-2021 3226.01 4274.54 71.99 2.00  71.81 2651.33
   00:42:59.740.27-Apr-2021 3226.01 4274.36 71.99 2.00  72.01 2651.33
   00:42:59.940.27-Apr-2021 3226.01 4274.36 71.99 2.00  72.21 2651.33
   00:43:00.140.27-Apr-2021 3226.01 4274.61 71.99 2.00  72.41 2651.33
   00:43:00.340.27-Apr-2021 3226.01 4274.56 71.99 2.00  72.61 2651.33
   00:43:00.540.27-Apr-2021 3226.01 4274.38 71.99 2.00  72.81 2651.33
   00:43:00.740.27-Apr-2021 3226.01 4274.52 71.98 2.00  73.01 2651.33
   00:43:00.940.27-Apr-2021 3226.01 4274.52 71.98 2.00  73.21 2651.33
   00:43:01.140.27-Apr-2021 3226.01 4274.57 71.98 2.00  73.41 2651.33
   00:43:01.340.27-Apr-2021 3226.01 4274.51 71.98 2.00  73.61 2651.33
   00:43:01.540.27-Apr-2021 3226.01 4274.42 71.98 2.00  73.81 2651.33
   00:43:01.740.27-Apr-2021 3226.01 4274.60 71.98 2.00  74.01 2651.33
   00:43:01.940.27-Apr-2021 3226.01 4274.60 71.98 2.00  74.21 2651.33
   00:43:02.140.27-Apr-2021 3226.01 4274.65 71.98 2.00  74.41 2651.33
   00:43:02.341.27-Apr-2021 3226.01 4274.58 71.98 2.00  74.61 2651.33
   00:43:02.541.27-Apr-2021 3226.01 4274.58 71.98 2.00  74.81 2651.33
   00:43:02.741.27-Apr-2021 3226.01 4274.55 71.98 2.00  75.01 2651.33
   00:43:02.941.27-Apr-2021 3226.01 4274.55 71.98 2.00  75.21 2651.33
   00:43:03.141.27-Apr-2021 3226.01 4274.58 71.98 2.00  75.41 2651.33
   00:43:03.341.27-Apr-2021 3226.01 4274.56 71.98 2.00  75.61 2651.33
   00:43:03.541.27-Apr-2021 3226.01 4274.54 71.98 2.00  75.82 2651.33
   00:43:03.741.27-Apr-2021 3226.01 4274.53 71.97 2.00  76.02 2651.33
   00:43:03.941.27-Apr-2021 3226.01 4274.53 71.97 2.00  76.22 2651.33
   00:43:04.141.27-Apr-2021 3226.01 4274.47 71.97 2.00  76.42 2651.33
   00:43:04.341.27-Apr-2021 3226.01 4274.58 71.97 2.00  76.62 2651.33
   00:43:04.541.27-Apr-2021 3226.01 4274.56 71.97 2.00  76.82 2651.33
   00:43:04.741.27-Apr-2021 3226.01 4274.59 71.97 2.00  77.02 2651.33
   00:43:04.941.27-Apr-2021 3226.01 4274.59 71.97 2.00  77.22 2651.33
   00:43:05.141.27-Apr-2021 3226.01 4274.59 71.97 2.00  77.42 2651.33
   00:43:05.341.27-Apr-2021 3226.01 4274.54 71.97 2.00  77.62 2651.33
   00:43:05.541.27-Apr-2021 3226.01 4274.66 71.97 2.00  77.82 2651.33
   00:43:05.741.27-Apr-2021 3226.01 4274.57 71.97 2.00  78.02 2651.33
   00:43:05.941.27-Apr-2021 3226.01 4274.57 71.97 2.00  78.22 2651.33
   00:43:06.141.27-Apr-2021 3226.01 4274.53 71.97 2.00  78.42 2651.33
   00:43:06.341.27-Apr-2021 3226.01 4274.59 71.97 2.00  78.62 2651.33
   00:43:06.541.27-Apr-2021 3226.01 4274.56 71.97 2.00  78.82 2651.33
   00:43:06.741.27-Apr-2021 3226.01 4274.48 71.96 2.00  79.02 2651.33
   00:43:06.941.27-Apr-2021 3226.01 4274.48 71.96 2.00  79.22 2651.33
   00:43:07.141.27-Apr-2021 3226.01 4274.59 71.96 2.00  79.42 2651.33
   00:43:07.341.27-Apr-2021 3226.01 4274.59 71.96 2.00  79.62 2651.33
   00:43:07.542.27-Apr-2021 3226.01 4274.59 71.96 2.00  79.82 2651.33
   00:43:07.742.27-Apr-2021 3226.01 4274.58 71.96 2.00  80.02 2651.33
   00:43:07.942.27-Apr-2021 3226.01 4274.58 71.96 2.00  80.22 2651.33
   00:43:08.142.27-Apr-2021 3226.01 4274.47 71.96 2.00  80.42 2651.33
   00:43:08.342.27-Apr-2021 3226.01 4274.64 71.96 2.00  80.62 2651.33
   00:43:08.542.27-Apr-2021 3226.01 4274.63 71.96 2.00  80.82 2651.33
   00:43:08.742.27-Apr-2021 3226.01 4274.55 71.96 2.00  81.02 2651.33
   00:43:08.942.27-Apr-2021 3226.01 4274.55 71.96 2.00  81.22 2651.33
   00:43:09.142.27-Apr-2021 3226.01 4274.57 71.96 2.00  81.42 2651.33
   00:43:09.342.27-Apr-2021 3226.01 4274.62 71.96 2.00  81.62 2651.33
   00:43:09.542.27-Apr-2021 3226.01 4274.59 71.96 2.00  81.82 2651.33
   00:43:09.742.27-Apr-2021 3226.01 4274.39 71.95 2.00  82.02 2651.33
   00:43:09.942.27-Apr-2021 3226.01 4274.39 71.95 2.00  82.22 2651.33
   00:43:10.142.27-Apr-2021 3226.01 4274.59 71.95 2.00  82.42 2651.33
   00:43:10.342.27-Apr-2021 3226.01 4274.58 71.95 2.00  82.62 2651.33
   00:43:10.542.27-Apr-2021 3226.01 4274.64 71.95 2.00  82.82 2651.33
   00:43:10.742.27-Apr-2021 3226.01 4274.55 71.95 2.00  83.02 2651.33
   00:43:10.942.27-Apr-2021 3226.01 4274.55 71.95 2.00  83.22 2651.33
   00:43:11.142.27-Apr-2021 3226.01 4274.54 71.95 2.00  83.42 2651.33
   00:43:11.342.27-Apr-2021 3226.01 4274.63 71.95 2.00  83.62 2651.33
   00:43:11.542.27-Apr-2021 3226.01 4274.54 71.95 2.00  83.82 2651.33
   00:43:11.742.27-Apr-2021 3226.01 4274.57 71.95 2.00  84.02 2651.33
   00:43:11.942.27-Apr-2021 3226.01 4274.57 71.95 2.00  84.22 2651.33
   00:43:12.142.27-Apr-2021 3226.01 4274.50 71.95 2.00  84.42 2651.33
   00:43:12.342.27-Apr-2021 3226.01 4274.34 71.95 2.00  84.62 2651.33
   00:43:12.543.27-Apr-2021 3226.01 4274.51 71.95 2.00  84.82 2651.33
   00:43:12.743.27-Apr-2021 3226.01 4274.55 71.94 2.00  85.02 2651.33
   00:43:12.943.27-Apr-2021 3226.01 4274.55 71.94 2.00  85.22 2651.33
   00:43:13.143.27-Apr-2021 3226.01 4274.56 71.94 2.00  85.42 2651.33
   00:43:13.343.27-Apr-2021 3226.01 4274.55 71.94 2.00  85.62 2651.33
   00:43:13.543.27-Apr-2021 3226.01 4274.56 71.94 2.00  85.82 2651.33
   00:43:13.743.27-Apr-2021 3226.01 4274.56 71.94 2.00  86.02 2651.33
   00:43:13.943.27-Apr-2021 3226.01 4274.56 71.94 2.00  86.22 2651.33
   00:43:14.143.27-Apr-2021 3226.01 4274.55 71.94 2.00  86.42 2651.33
   00:43:14.343.27-Apr-2021 3226.01 4274.56 71.94 2.00  86.62 2651.33
   00:43:14.543.27-Apr-2021 3226.01 4274.50 71.94 2.00  86.82 2651.33
   00:43:14.743.27-Apr-2021 3226.01 4274.59 71.94 2.00  87.02 2651.33
   00:43:14.943.27-Apr-2021 3226.01 4274.59 71.94 2.00  87.22 2651.33
   00:43:15.143.27-Apr-2021 3226.01 4274.37 71.94 2.00  87.42 2651.33
   00:43:15.343.27-Apr-2021 3226.01 4274.49 71.94 2.00  87.62 2651.33
   00:43:15.543.27-Apr-2021 3226.01 4274.60 71.94 2.00  87.82 2651.33
   00:43:15.743.27-Apr-2021 3226.01 4274.55 71.94 2.00  88.02 2651.33
   00:43:15.943.27-Apr-2021 3226.01 4274.55 71.94 2.00  88.22 2651.33
   00:43:16.143.27-Apr-2021 3226.01 4274.59 71.93 2.00  88.42 2651.33
   00:43:16.343.27-Apr-2021 3226.01 4274.39 71.93 2.00  88.62 2651.33
   00:43:16.543.27-Apr-2021 3226.01 4274.54 71.93 2.00  88.82 2651.33
   00:43:16.743.27-Apr-2021 3226.01 4274.64 71.93 2.00  89.02 2651.33
   00:43:16.943.27-Apr-2021 3226.01 4274.64 71.93 2.00  89.22 2651.33
   00:43:17.143.27-Apr-2021 3226.01 4274.48 71.93 2.00  89.42 2651.33
   00:43:17.343.27-Apr-2021 3226.01 4274.39 71.93 2.00  89.62 2651.33
   00:43:17.544.27-Apr-2021 3226.01 4274.56 71.93 2.00  89.82 2651.33
   00:43:17.744.27-Apr-2021 3226.01 4274.59 71.93 2.00  90.02 2651.33
   00:43:17.944.27-Apr-2021 3226.01 4274.59 71.93 2.00  90.22 2651.33
   00:43:18.144.27-Apr-2021 3226.01 4274.33 71.93 2.00  90.42 2651.33
   00:43:18.344.27-Apr-2021 3226.01 4274.56 71.93 2.00  90.62 2651.33
   00:43:18.544.27-Apr-2021 3226.01 4274.57 71.93 2.00  90.82 2651.33
   00:43:18.744.27-Apr-2021 3226.01 4274.60 71.93 2.00  91.02 2651.33
   00:43:18.944.27-Apr-2021 3226.01 4274.60 71.93 2.00  91.22 2651.33
   00:43:19.144.27-Apr-2021 3226.01 4274.54 71.92 2.00  91.42 2651.33
   00:43:19.344.27-Apr-2021 3226.01 4274.56 71.92 2.00  91.62 2651.33
   00:43:19.544.27-Apr-2021 3226.01 4274.56 71.92 2.00  91.82 2651.33
