~Version Information
 VERS.                  2.0:   CWLS log ASCII Standard -VERSION 2.0
 WRAP.                   NO:   One line per depth step
~Well Information Block
#MNEM.UNIT     VALUE/NAME     DESCRIPTION
#---------     -----------    ---------------------------
 STRT.S             18:57:18 28-Apr-21: START TIME 18:57:18 28-Apr-21
 STOP.S             19:03:45 28-Apr-21: STOP TIME  19:03:45 28-Apr-21
 STEP.S                   0.00: STEP TIME
 NULL.                 -999.25: NULL VALUE
 DFWT.                        :  DIST FWL TEXT
 DFST.                        :  DIST FSL TEXT
 DMF .             Drill Floor:  DRILL MEAS FROM
 STIM.      02.00.00 12-Apr-21:  START TIME
 DATE.      02.00.00 02-May-21:  END TIME
 SPUD.               09-Apr-21:  SPUD DATE
 NREF.                    Grid:  NORTH REFERENCE
 HPTY.       Minimum Curvature:  HOLE POS TYPE
 DMOD.             Drill Model:  DRILL MOD DESC
 SVYD.                  Survey:  SURVEY DESC
 ILTD.               Lithology:  INTERP LTH DESC
 FTOP.          Formation Tops:  FORM TOPS DESC
 PDAT.          Mean Sea Level:  PERMANENT DATUM
 FLD .                     ACG:  FIELD NAME
 SON .        AZ-XX-0907021034:  JOB NUMBER
 CTRY.              Azerbaijan:  COUNTRY NAME
 WELL.                    E01x:  WELL NAME
 COMP.     BP Exploration (Caspian Sea) LTD.:  COMPANY
 UWI .            /AZE00001403:  UNIQUE WELL IDENTIFIER
 API .            /AZE00001403:  API NUMBER
 WTYP.                Deviated:  WELL TYPE
 MDS .        Operator Entered:  MAG DATA SOURCE
 BASE.              Azerbaijan:  LOGGING EQUIPMENT BASE LOCATION
 REGN.                   EESSA:  REGION
 PROV.                    Baku:  PROVINCE
 STAT.                    Baku:  STATE NAME
 SRVC.          Turan Drilling:  CONTRACTOR
 MWDS.                    Baku:  MWD SHOP
 JOBN.        AZ-XX-0907021034:  JOB TICKET NUMB
 RIG .                     DWG:  RIG NAME
 DOE .                     N/A:  DOE NUMBER
 DCON.         Sperry Drilling:  DIRECTNL CONTR
 UNIT.                     N/A:  LOGGING EQUIPMENT ID
 CNTY.                        :  COUNTY
 LOC .                        :  LOCATION
 LMF .             Drill Floor:  LOG MEASURED FROM
 TVDS.m                  43.16:  TVDSS CORRECTN
 LATI.deg                40.17:  LATITUDE
 LONG.deg                51.17:  LONGITUDE
 WHNS.m                  -5.90:  WELL HEAD N/S
 WHEW.m                  -6.61:  WELL HEAD E/W
 UTMX.m              514337.95:  UTM X
 UTMY.m             4448627.46:  UTM Y
 DFWL.m                   0.00:  DISTANCE FWL
 DFSL.m                   0.00:  DISTANCE FSL
 SDEP.m                2606.87:  START DEPTH
 TDD .m                3618.01:  TOTAL DEPTH (DRILLER)
 VSDR.deg               177.42:  VERT SEC DIRECT
 GVFD.g                   1.00:  GRAVITY FIELD
 MFLD.nT              50399.00:  MAGNETIC FIELD
 MDIP.deg                59.67:  MAGNETIC DIP
 MDEC.deg                 6.56:  MAGNETIC DECL
 GRDC.deg                 0.11:  GRID CORRECTION
 AZTC.deg                 6.45:  AZM TOTAL CORR
 EPD .m                   0.00:  ELEVATION
 EGL .m                   0.00:  GROUND ELEVATION
 WDMS.m                 176.20:  WD ELEV
 APD .m                  43.16:  DEPTH ABOVE PD
 DEP .m                2606.87:  DEPTH
 AGAP.m                  43.16:  AIR GAP
 VSEW.m                  -6.61:  VERT SEC E/W
 VSNS.m                  -5.90:  VERT SEC N/S
 EKB .m                  43.16:  KB ELEVATION
 EDF .m                  43.16:  DF ELEVATION
 TDL .m                 438.00:  TOTAL DEPTH (LOGGER)
 VSC .                       0:  VS TO CLOSURE
 MAGU.                 1855490:  MAGUTM CHECKSUM
~Parameter Information Block
#MNEM.UNIT       Value        Description
#---------     -----------    ---------------------------
 AV  .mps                 2.20:  Ann Velocity 
 AVMX.mps                 2.50:  Max Ann Veloc 
 AZIF.deg               150.21:  Azm, Final 
 BHAT.        Rotary Steerable:  BHA Type 
 BROT.°/30m               0.08:  Build Rotating 
 BS  .in                  6.50:  Bit Size 
 BSZ .in                  6.50:  Bit Size 
 BTPL.psig              108.00:  Bit Press Loss 
 CABU.                     Yes:  Customer Abuse 
 CGEO.           Emin Aliyarli:  Customer Geo 
 COMM.                     ´âi:  Run Comments 1 
 TCS .hr                 74.20:  Time Ciculation Ended 
 CV  .mps                 3.63:  Crit Velocity 
 CVMX.mps                 3.66:  Max Crit Veloc 
 DD1 .         Intigam Rahimov:  Direct Drillr 1 
 DD2 .          Teymur Aghayev:  Direct Drillr 2 
 DDSV.               Geo-Pilot:  DD Service 
 DEFF.%                  97.00:  % Det Eff 
 DLRX.°/30m               1.63:  Dogleg Rot Max 
 DLSO.°/30m               0.00:  Dogleg Oriented 
 DLSX.°/30m               0.00:  Dogleg Str Max 
 DRET.      20.20.00 28-Apr-21:  Drill End Time 
 DRST.      04.45.00 26-Apr-21:  Drill Start Tim 
 DTIM.hr                 34.30:  Time Drilling 
 EDEP.m                3618.01:  End Depth 
 ENG1.           Amrah Tahirov:  Engineer 1 
 ENG2.         Bahruz Mehdiyev:  Engineer 2 
 ENG3.         Farhad Orujzade:  Engineer 3 
 ETIM.      19.00.00 29-Apr-21:  End Time 
 FLOI.gpm               370.00:  Flow In 
 FLON.gpm               300.00:  Flow In Min 
 FLOS.cptm                0.00:  Fluid Loss 
 FLOX.gpm               410.00:  Flow In Max 
 HFLO.                      No:  High Flow 
 HPRE.                      No:  High Pressure 
 HTEM.                      No:  High Temp 
 HYDO.m                   1.80:  Hydro Offset 
 IFIN.deg                67.19:  Inc, Final 
 IMAX.deg                68.42:  Inc Max 
 IMIN.deg                66.33:  Inc Min 
 IMND.m                3532.79:  Inc Min Depth 
 IMXD.m                3192.15:  Inc Max Depth 
 JARR.                      No:  Jarring 
 LETM.      20.20.00 28-Apr-21:  Log End Time 
 LOST.hr                     0:  Lost Rig Time 
 LSTM.      04.45.00 26-Apr-21:  Log Start Time 
 MDCL.ppm             36500.00:  Mud Chlorides 
 MDES.     Inversion Oil/Synthetic:  Mud Desc 
 DFD .sg                  1.42:  Mud Density 
 MDMN.sg                  1.42:  Dens Mud Min 
 MDMX.sg                  1.42:  Dens Mud Max 
 MOIL.                    55.7:  Run Mud Oil % 
 MOWR.                   71:29:  Run Mud OWR 
 MSND.                     0.1:  Run Mud Sand % 
 MSOL.                    19.9:  Run Mud Solids% 
 DFV .spqt               83.00:  Mud Viscosity 
 MWOD.in                  5.15:  MWD Tool OD 
 MWSI.                      No:  Serv Intrp, MWD 
 OTIM.hr                120.59:  Time Operating 
 PCON.           Look Like New:  Pad Condition 
 PMAX.psia            11292.93:  Press Op, Max 
 PV  .cP                 27.00:  Mud PV 
 RUN .                     400:  Run Number 
 ROPA.m/hr               14.00:  ROP Avg 
 ROPN.m/hr                9.00:  ROP Min 
 ROPX.m/hr               18.00:  ROP Max 
 RPMA.rpm               130.00:  RPM Surface Avg 
 RPMN.rpm               100.00:  RPM Surface Min 
 RPMX.rpm               140.00:  RPM Surface Max 
 RRUN.                    0400:  Rig Run Number 
 RTIM.hr                 38.60:  Time Reaming 
 SAZI.deg               149.55:  Azm, Start 
 SDEP.m                3180.01:  Start Depth 
 SIDD.                      No:  Serv Intrp, DD 
 SINC.deg                68.42:  Inc, Start 
 SPPA.psig             4400.00:  SPP Avg 
 SPPN.psig             3580.00:  SPP Min 
 SPPX.psig             4850.00:  SPP Max 
 STIM.      12.30.00 24-Apr-21:  Start Time 
 SVCS.                 DD, MWD:  Services 
 SVER.                    9.20:  Sperry Version 
 TDAT.m                 438.00:  Tot Depth Attmp 
 TDDF.                      No:  Trip for DD 
 TDLG.m                 438.00:  Tot Depth Loggd 
 TFF .                      No:  Trip for Fail 
 TQAA.f-kp               11.00:  Torque Abs Avg 
 TQAN.f-kp                9.00:  Torque Abs Min 
 TQAX.f-kp               14.00:  Torque Abs Max 
 TRRT.°/30m               0.04:  Turn Rotating 
 MRT .                    HCIM:  Maximum Recorded Temperature 
 TTMX.degC               84.31:  Max Tool Temp 
 VS01.                90521954:  Virtual Str1 SN 
 VS02.                90519327:  Virtual Str2 SN 
 VS03.                90522273:  Virtual Str3 SN 
 VS04.                11108038:  Virtual Str4 SN 
 VS05.                12258760:  Virtual Str5 SN 
 WBMN.klb                 1.00:  WOB Min 
 WITN.           Adil Mammadov:  Customer Rep 
 WITN.         Alex Yadullayev:  Customer Rep 2 
 WOBA.klb                 6.00:  WOB Avg 
 WOBX.klb                 9.00:  WOB Max 
 YP  .lhf2               31.00:  Yield Point 
~Curve Information Block
#MNEM.UNIT                 API CODE     Curve Description
#---------               -----------    ---------------------------
 TIME.HHMMSS            00 000 000 000:  GT Time & Date
 GTDEPTH.m              00 000 000 000:  GT Depth
 GTPQH.psia             00 000 000 000:  GT HR Quartz Pressure
 GTTQ.degC              00 000 000 000:  GT Quartz Temperature
 GTTN.NONE              00 000 000 000:  GT Test Number
 GTET.sec               00 000 000 000:  GT Elapsed Test Time
 GTTVD.m                00 000 000 000:  GT True Vertical Depth
#Other Information
#
#WARRANTY: Halliburton will use its best efforts to furnish customers with 
#accurate information and interpretations that are part of, and incident to, the services 
#provided.  However, Halliburton cannot and does not warrant the accuracy 
#or correctness of such information and interpretations.  Under no circumstances should any 
#such information or interpretation be relied upon as the sole basis for any drilling, 
#completion, production, or financial decision or any procedure involving any risk to the 
#safety of any drilling venture, drilling rig or its crew or any other third party.  The 
#Customer has full responsibility for all drilling, completion and production operation.  
#Halliburton makes no representations or warranties, either expressed or 
#implied, including, but not limited to, the implied warranties of merchantability or fitness 
#for a particular purpose, with respect to the services rendered.  In no event will 
#Halliburton be liable for failure to obtain any particular results or for 
#any damages, including, but not limited to, indirect, special or consequential damages, 
#resulting from the use of any information or interpretation provided by Halliburton.
#
~A           TIME           GTDEPTH  GTPQH  GTTQ  GTTN   GTET   GTTVD  
# ...
   19:02:57.333.28-Apr-2021 3565.01 4083.82 74.69 11.00 339.10 2784.87
   19:02:57.533.28-Apr-2021 3565.01 4083.82 74.69 11.00 339.30 2784.87
   19:02:57.733.28-Apr-2021 3565.01 4083.81 74.69 11.00 339.50 2784.87
   19:02:57.933.28-Apr-2021 3565.01 4083.80 74.69 11.00 339.70 2784.87
   19:02:58.133.28-Apr-2021 3565.01 4083.81 74.69 11.00 339.90 2784.87
   19:02:58.333.28-Apr-2021 3565.01 4083.82 74.69 11.00 340.10 2784.87
   19:02:58.533.28-Apr-2021 3565.01 4083.82 74.69 11.00 340.30 2784.87
   19:02:58.734.28-Apr-2021 3565.01 4083.80 74.69 11.00 340.50 2784.87
   19:02:58.934.28-Apr-2021 3565.01 4083.78 74.69 11.00 340.70 2784.87
   19:02:59.134.28-Apr-2021 3565.01 4083.79 74.69 11.00 340.90 2784.87
   19:02:59.334.28-Apr-2021 3565.01 4083.79 74.69 11.00 341.10 2784.87
   19:02:59.534.28-Apr-2021 3565.01 4083.79 74.69 11.00 341.30 2784.87
   19:02:59.734.28-Apr-2021 3565.01 4083.57 74.69 11.00 341.50 2784.87
   19:02:59.934.28-Apr-2021 3565.01 4083.90 74.68 11.00 341.70 2784.87
   19:03:00.134.28-Apr-2021 3565.01 4083.82 74.68 11.00 341.90 2784.87
   19:03:00.334.28-Apr-2021 3565.01 4083.83 74.68 11.00 342.10 2784.87
   19:03:00.534.28-Apr-2021 3565.01 4083.83 74.68 11.00 342.30 2784.87
   19:03:00.734.28-Apr-2021 3565.01 4083.77 74.68 11.00 342.50 2784.87
   19:03:00.934.28-Apr-2021 3565.01 4083.80 74.68 11.00 342.70 2784.87
   19:03:01.134.28-Apr-2021 3565.01 4083.82 74.68 11.00 342.90 2784.87
   19:03:01.334.28-Apr-2021 3565.01 4083.79 74.68 11.00 343.10 2784.87
   19:03:01.534.28-Apr-2021 3565.01 4083.79 74.68 11.00 343.30 2784.87
   19:03:01.734.28-Apr-2021 3565.01 4083.72 74.68 11.00 343.50 2784.87
   19:03:01.934.28-Apr-2021 3565.01 4083.89 74.68 11.00 343.70 2784.87
   19:03:02.135.28-Apr-2021 3565.01 4088.75 74.68 11.00 343.90 2784.87
   19:03:02.335.28-Apr-2021 3565.01 5553.39 74.68 11.00 344.10 2784.87
   19:03:02.535.28-Apr-2021 3565.01 5553.39 74.68 11.00 344.30 2784.87
   19:03:02.735.28-Apr-2021 3565.01 6103.88 74.68 11.00 344.50 2784.87
   19:03:02.935.28-Apr-2021 3565.01 6103.11 74.68 11.00 344.70 2784.87
   19:03:03.135.28-Apr-2021 3565.01 6104.38 74.68 11.00 344.90 2784.87
   19:03:03.335.28-Apr-2021 3565.01 6105.08 74.68 11.00 345.10 2784.87
   19:03:03.535.28-Apr-2021 3565.01 6105.08 74.68 11.00 345.30 2784.87
   19:03:03.735.28-Apr-2021 3565.01 6095.04 74.68 11.00 345.50 2784.87
   19:03:03.935.28-Apr-2021 3565.01 6106.12 74.68 11.00 345.70 2784.87
   19:03:04.135.28-Apr-2021 3565.01 6107.10 74.68 11.00 345.90 2784.87
   19:03:04.335.28-Apr-2021 3565.01 6107.78 74.68 11.00 346.10 2784.87
   19:03:04.535.28-Apr-2021 3565.01 6107.78 74.68 11.00 346.30 2784.87
   19:03:04.735.28-Apr-2021 3565.01 6103.88 74.68 11.00 346.50 2784.87
   19:03:04.935.28-Apr-2021 3565.01 6102.08 74.68 11.00 346.70 2784.87
   19:03:05.135.28-Apr-2021 3565.01 6106.99 74.68 11.00 346.90 2784.87
   19:03:05.335.28-Apr-2021 3565.01 6107.91 74.68 11.00 347.10 2784.87
   19:03:05.536.28-Apr-2021 3565.01 6107.91 74.68 11.00 347.30 2784.87
   19:03:05.736.28-Apr-2021 3565.01 6107.52 74.68 11.00 347.50 2784.87
   19:03:05.936.28-Apr-2021 3565.01 6105.33 74.68 11.00 347.70 2784.87
   19:03:06.136.28-Apr-2021 3565.01 6108.07 74.68 11.00 347.90 2784.87
   19:03:06.336.28-Apr-2021 3565.01 6099.09 74.68 11.00 348.10 2784.87
   19:03:06.536.28-Apr-2021 3565.01 6099.09 74.68 11.00 348.30 2784.87
   19:03:06.736.28-Apr-2021 3565.01 6099.09 74.68 11.00 348.50 2784.87
   19:03:06.936.28-Apr-2021 3565.01 6107.44 74.68 11.00 348.70 2784.87
   19:03:07.136.28-Apr-2021 3565.01 6107.69 74.68 11.00 348.90 2784.87
   19:03:07.336.28-Apr-2021 3565.01 6106.63 74.68 11.00 349.10 2784.87
   19:03:07.536.28-Apr-2021 3565.01 6106.63 74.68 11.00 349.30 2784.87
   19:03:07.736.28-Apr-2021 3565.01 6109.10 74.68 11.00 349.50 2784.87
   19:03:07.936.28-Apr-2021 3565.01 6107.85 74.68 11.00 349.70 2784.87
   19:03:08.136.28-Apr-2021 3565.01 6108.24 74.68 11.00 349.90 2784.87
   19:03:08.336.28-Apr-2021 3565.01 6108.07 74.68 11.00 350.10 2784.87
   19:03:08.536.28-Apr-2021 3565.01 6108.07 74.68 11.00 350.30 2784.87
   19:03:08.737.28-Apr-2021 3565.01 6109.96 74.68 11.00 350.50 2784.87
   19:03:08.937.28-Apr-2021 3565.01 6106.51 74.68 11.00 350.70 2784.87
   19:03:09.137.28-Apr-2021 3565.01 6101.61 74.68 11.00 350.90 2784.87
   19:03:09.337.28-Apr-2021 3565.01 6106.11 74.68 11.00 351.10 2784.87
   19:03:09.537.28-Apr-2021 3565.01 6106.11 74.68 11.00 351.30 2784.87
   19:03:09.737.28-Apr-2021 3565.01 6109.01 74.68 11.00 351.50 2784.87
   19:03:09.937.28-Apr-2021 3565.01 6105.36 74.68 11.00 351.70 2784.87
   19:03:10.137.28-Apr-2021 3565.01 6106.40 74.68 11.00 351.90 2784.87
   19:03:10.337.28-Apr-2021 3565.01 6108.38 74.68 11.00 352.10 2784.87
   19:03:10.537.28-Apr-2021 3565.01 6108.38 74.68 11.00 352.30 2784.87
   19:03:10.737.28-Apr-2021 3565.01 6108.57 74.68 11.00 352.50 2784.87
   19:03:10.937.28-Apr-2021 3565.01 6107.46 74.68 11.00 352.70 2784.87
   19:03:11.137.28-Apr-2021 3565.01 6107.16 74.68 11.00 352.90 2784.87
   19:03:11.337.28-Apr-2021 3565.01 6109.74 74.68 11.00 353.10 2784.87
   19:03:11.537.28-Apr-2021 3565.01 6109.74 74.68 11.00 353.30 2784.87
   19:03:11.737.28-Apr-2021 3565.01 6100.68 74.68 11.00 353.50 2784.87
   19:03:11.937.28-Apr-2021 3565.01 6108.41 74.68 11.00 353.70 2784.87
   19:03:12.138.28-Apr-2021 3565.01 6107.99 74.68 11.00 353.90 2784.87
   19:03:12.338.28-Apr-2021 3565.01 6109.98 74.68 11.00 354.10 2784.87
   19:03:12.538.28-Apr-2021 3565.01 6109.98 74.68 11.00 354.30 2784.87
   19:03:12.738.28-Apr-2021 3565.01 6105.96 74.68 11.00 354.50 2784.87
   19:03:12.938.28-Apr-2021 3565.01 6101.68 74.67 11.00 354.70 2784.87
   19:03:13.138.28-Apr-2021 3565.01 6106.02 74.67 11.00 354.90 2784.87
   19:03:13.338.28-Apr-2021 3565.01 6108.97 74.67 11.00 355.10 2784.87
   19:03:13.538.28-Apr-2021 3565.01 6108.97 74.67 11.00 355.31 2784.87
   19:03:13.738.28-Apr-2021 3565.01 6108.42 74.67 11.00 355.51 2784.87
   19:03:13.938.28-Apr-2021 3565.01 6105.61 74.67 11.00 355.71 2784.87
   19:03:14.138.28-Apr-2021 3565.01 6104.49 74.67 11.00 355.91 2784.87
   19:03:14.338.28-Apr-2021 3565.01 6106.02 74.67 11.00 356.11 2784.87
   19:03:14.538.28-Apr-2021 3565.01 6106.02 74.67 11.00 356.31 2784.87
   19:03:14.738.28-Apr-2021 3565.01 6109.74 74.67 11.00 356.51 2784.87
   19:03:14.938.28-Apr-2021 3565.01 6107.44 74.67 11.00 356.71 2784.87
   19:03:15.138.28-Apr-2021 3565.01 6105.86 74.67 11.00 356.91 2784.87
   19:03:15.338.28-Apr-2021 3565.01 6108.09 74.67 11.00 357.11 2784.87
   19:03:15.539.28-Apr-2021 3565.01 6108.09 74.67 11.00 357.31 2784.87
   19:03:15.739.28-Apr-2021 3565.01 6109.23 74.67 11.00 357.51 2784.87
   19:03:15.939.28-Apr-2021 3565.01 6108.14 74.67 11.00 357.71 2784.87
   19:03:16.139.28-Apr-2021 3565.01 6107.60 74.67 11.00 357.91 2784.87
   19:03:16.339.28-Apr-2021 3565.01 6107.49 74.67 11.00 358.11 2784.87
   19:03:16.539.28-Apr-2021 3565.01 6107.49 74.67 11.00 358.31 2784.87
   19:03:16.739.28-Apr-2021 3565.01 6109.04 74.67 11.00 358.51 2784.87
   19:03:16.939.28-Apr-2021 3565.01 6108.66 74.67 11.00 358.71 2784.87
   19:03:17.139.28-Apr-2021 3565.01 6108.12 74.67 11.00 358.91 2784.87
   19:03:17.339.28-Apr-2021 3565.01 6107.36 74.67 11.00 359.11 2784.87
   19:03:17.539.28-Apr-2021 3565.01 6107.36 74.67 11.00 359.31 2784.87
   19:03:17.739.28-Apr-2021 3565.01 6108.58 74.67 11.00 359.51 2784.87
   19:03:17.939.28-Apr-2021 3565.01 6109.45 74.67 11.00 359.71 2784.87
   19:03:18.139.28-Apr-2021 3565.01 6099.23 74.66 11.00 359.91 2784.87
   19:03:18.339.28-Apr-2021 3565.01 6107.78 74.66 11.00 360.11 2784.87
   19:03:18.539.28-Apr-2021 3565.01 6107.78 74.66 11.00 360.31 2784.87
   19:03:18.739.28-Apr-2021 3565.01 6108.65 74.66 11.00 360.51 2784.87
   19:03:18.940.28-Apr-2021 3565.01 6109.26 74.66 11.00 360.71 2784.87
   19:03:19.140.28-Apr-2021 3565.01 6102.90 74.66 11.00 360.91 2784.87
   19:03:19.340.28-Apr-2021 3565.01 6106.84 74.66 11.00 361.11 2784.87
   19:03:19.540.28-Apr-2021 3565.01 6106.84 74.66 11.00 361.31 2784.87
   19:03:19.740.28-Apr-2021 3565.01 6108.76 74.66 11.00 361.51 2784.87
