~Version Information
 VERS.                  2.0:   CWLS log ASCII Standard -VERSION 2.0
 WRAP.                   NO:   One line per depth step
~Well Information Block
#MNEM.UNIT     VALUE/NAME     DESCRIPTION
#---------     -----------    ---------------------------
 STRT.S             15:37:44 28-Apr-21: START TIME 15:37:44 28-Apr-21
 STOP.S             15:44:12 28-Apr-21: STOP TIME  15:44:12 28-Apr-21
 STEP.S                   0.00: STEP TIME
 NULL.                 -999.25: NULL VALUE
 DFWT.                        :  DIST FWL TEXT
 DFST.                        :  DIST FSL TEXT
 DMF .             Drill Floor:  DRILL MEAS FROM
 STIM.      02.00.00 12-Apr-21:  START TIME
 DATE.      02.00.00 02-May-21:  END TIME
 SPUD.               09-Apr-21:  SPUD DATE
 NREF.                    Grid:  NORTH REFERENCE
 HPTY.       Minimum Curvature:  HOLE POS TYPE
 DMOD.             Drill Model:  DRILL MOD DESC
 SVYD.                  Survey:  SURVEY DESC
 ILTD.               Lithology:  INTERP LTH DESC
 FTOP.          Formation Tops:  FORM TOPS DESC
 PDAT.          Mean Sea Level:  PERMANENT DATUM
 FLD .                     ACG:  FIELD NAME
 SON .        AZ-XX-0907021034:  JOB NUMBER
 CTRY.              Azerbaijan:  COUNTRY NAME
 WELL.                    E01x:  WELL NAME
 COMP.     BP Exploration (Caspian Sea) LTD.:  COMPANY
 UWI .            /AZE00001403:  UNIQUE WELL IDENTIFIER
 API .            /AZE00001403:  API NUMBER
 WTYP.                Deviated:  WELL TYPE
 MDS .        Operator Entered:  MAG DATA SOURCE
 BASE.              Azerbaijan:  LOGGING EQUIPMENT BASE LOCATION
 REGN.                   EESSA:  REGION
 PROV.                    Baku:  PROVINCE
 STAT.                    Baku:  STATE NAME
 SRVC.          Turan Drilling:  CONTRACTOR
 MWDS.                    Baku:  MWD SHOP
 JOBN.        AZ-XX-0907021034:  JOB TICKET NUMB
 RIG .                     DWG:  RIG NAME
 DOE .                     N/A:  DOE NUMBER
 DCON.         Sperry Drilling:  DIRECTNL CONTR
 UNIT.                     N/A:  LOGGING EQUIPMENT ID
 CNTY.                        :  COUNTY
 LOC .                        :  LOCATION
 LMF .             Drill Floor:  LOG MEASURED FROM
 TVDS.m                  43.16:  TVDSS CORRECTN
 LATI.deg                40.17:  LATITUDE
 LONG.deg                51.17:  LONGITUDE
 WHNS.m                  -5.90:  WELL HEAD N/S
 WHEW.m                  -6.61:  WELL HEAD E/W
 UTMX.m              514337.95:  UTM X
 UTMY.m             4448627.46:  UTM Y
 DFWL.m                   0.00:  DISTANCE FWL
 DFSL.m                   0.00:  DISTANCE FSL
 SDEP.m                2606.87:  START DEPTH
 TDD .m                3618.01:  TOTAL DEPTH (DRILLER)
 VSDR.deg               177.42:  VERT SEC DIRECT
 GVFD.g                   1.00:  GRAVITY FIELD
 MFLD.nT              50399.00:  MAGNETIC FIELD
 MDIP.deg                59.67:  MAGNETIC DIP
 MDEC.deg                 6.56:  MAGNETIC DECL
 GRDC.deg                 0.11:  GRID CORRECTION
 AZTC.deg                 6.45:  AZM TOTAL CORR
 EPD .m                   0.00:  ELEVATION
 EGL .m                   0.00:  GROUND ELEVATION
 WDMS.m                 176.20:  WD ELEV
 APD .m                  43.16:  DEPTH ABOVE PD
 DEP .m                2606.87:  DEPTH
 AGAP.m                  43.16:  AIR GAP
 VSEW.m                  -6.61:  VERT SEC E/W
 VSNS.m                  -5.90:  VERT SEC N/S
 EKB .m                  43.16:  KB ELEVATION
 EDF .m                  43.16:  DF ELEVATION
 TDL .m                 438.00:  TOTAL DEPTH (LOGGER)
 VSC .                       0:  VS TO CLOSURE
 MAGU.                 1855490:  MAGUTM CHECKSUM
~Parameter Information Block
#MNEM.UNIT       Value        Description
#---------     -----------    ---------------------------
 AV  .mps                 2.20:  Ann Velocity 
 AVMX.mps                 2.50:  Max Ann Veloc 
 AZIF.deg               150.21:  Azm, Final 
 BHAT.        Rotary Steerable:  BHA Type 
 BROT.°/30m               0.08:  Build Rotating 
 BS  .in                  6.50:  Bit Size 
 BSZ .in                  6.50:  Bit Size 
 BTPL.psig              108.00:  Bit Press Loss 
 CABU.                     Yes:  Customer Abuse 
 CGEO.           Emin Aliyarli:  Customer Geo 
 COMM.                     ôŸZ:  Run Comments 1 
 TCS .hr                 74.20:  Time Ciculation Ended 
 CV  .mps                 3.63:  Crit Velocity 
 CVMX.mps                 3.66:  Max Crit Veloc 
 DD1 .         Intigam Rahimov:  Direct Drillr 1 
 DD2 .          Teymur Aghayev:  Direct Drillr 2 
 DDSV.               Geo-Pilot:  DD Service 
 DEFF.%                  97.00:  % Det Eff 
 DLRX.°/30m               1.63:  Dogleg Rot Max 
 DLSO.°/30m               0.00:  Dogleg Oriented 
 DLSX.°/30m               0.00:  Dogleg Str Max 
 DRET.      20.20.00 28-Apr-21:  Drill End Time 
 DRST.      04.45.00 26-Apr-21:  Drill Start Tim 
 DTIM.hr                 34.30:  Time Drilling 
 EDEP.m                3618.01:  End Depth 
 ENG1.           Amrah Tahirov:  Engineer 1 
 ENG2.         Bahruz Mehdiyev:  Engineer 2 
 ENG3.         Farhad Orujzade:  Engineer 3 
 ETIM.      19.00.00 29-Apr-21:  End Time 
 FLOI.gpm               370.00:  Flow In 
 FLON.gpm               300.00:  Flow In Min 
 FLOS.cptm                0.00:  Fluid Loss 
 FLOX.gpm               410.00:  Flow In Max 
 HFLO.                      No:  High Flow 
 HPRE.                      No:  High Pressure 
 HTEM.                      No:  High Temp 
 HYDO.m                   1.80:  Hydro Offset 
 IFIN.deg                67.19:  Inc, Final 
 IMAX.deg                68.42:  Inc Max 
 IMIN.deg                66.33:  Inc Min 
 IMND.m                3532.79:  Inc Min Depth 
 IMXD.m                3192.15:  Inc Max Depth 
 JARR.                      No:  Jarring 
 LETM.      20.20.00 28-Apr-21:  Log End Time 
 LOST.hr                     0:  Lost Rig Time 
 LSTM.      04.45.00 26-Apr-21:  Log Start Time 
 MDCL.ppm             36500.00:  Mud Chlorides 
 MDES.     Inversion Oil/Synthetic:  Mud Desc 
 DFD .sg                  1.42:  Mud Density 
 MDMN.sg                  1.42:  Dens Mud Min 
 MDMX.sg                  1.42:  Dens Mud Max 
 MOIL.                    55.7:  Run Mud Oil % 
 MOWR.                   71:29:  Run Mud OWR 
 MSND.                     0.1:  Run Mud Sand % 
 MSOL.                    19.9:  Run Mud Solids% 
 DFV .spqt               83.00:  Mud Viscosity 
 MWOD.in                  5.15:  MWD Tool OD 
 MWSI.                      No:  Serv Intrp, MWD 
 OTIM.hr                120.59:  Time Operating 
 PCON.           Look Like New:  Pad Condition 
 PMAX.psia            11292.93:  Press Op, Max 
 PV  .cP                 27.00:  Mud PV 
 RUN .                     400:  Run Number 
 ROPA.m/hr               14.00:  ROP Avg 
 ROPN.m/hr                9.00:  ROP Min 
 ROPX.m/hr               18.00:  ROP Max 
 RPMA.rpm               130.00:  RPM Surface Avg 
 RPMN.rpm               100.00:  RPM Surface Min 
 RPMX.rpm               140.00:  RPM Surface Max 
 RRUN.                    0400:  Rig Run Number 
 RTIM.hr                 38.60:  Time Reaming 
 SAZI.deg               149.55:  Azm, Start 
 SDEP.m                3180.01:  Start Depth 
 SIDD.                      No:  Serv Intrp, DD 
 SINC.deg                68.42:  Inc, Start 
 SPPA.psig             4400.00:  SPP Avg 
 SPPN.psig             3580.00:  SPP Min 
 SPPX.psig             4850.00:  SPP Max 
 STIM.      12.30.00 24-Apr-21:  Start Time 
 SVCS.                 DD, MWD:  Services 
 SVER.                    9.20:  Sperry Version 
 TDAT.m                 438.00:  Tot Depth Attmp 
 TDDF.                      No:  Trip for DD 
 TDLG.m                 438.00:  Tot Depth Loggd 
 TFF .                      No:  Trip for Fail 
 TQAA.f-kp               11.00:  Torque Abs Avg 
 TQAN.f-kp                9.00:  Torque Abs Min 
 TQAX.f-kp               14.00:  Torque Abs Max 
 TRRT.°/30m               0.04:  Turn Rotating 
 MRT .                    HCIM:  Maximum Recorded Temperature 
 TTMX.degC               84.31:  Max Tool Temp 
 VS01.                90521954:  Virtual Str1 SN 
 VS02.                90519327:  Virtual Str2 SN 
 VS03.                90522273:  Virtual Str3 SN 
 VS04.                11108038:  Virtual Str4 SN 
 VS05.                12258760:  Virtual Str5 SN 
 WBMN.klb                 1.00:  WOB Min 
 WITN.           Adil Mammadov:  Customer Rep 
 WITN.         Alex Yadullayev:  Customer Rep 2 
 WOBA.klb                 6.00:  WOB Avg 
 WOBX.klb                 9.00:  WOB Max 
 YP  .lhf2               31.00:  Yield Point 
~Curve Information Block
#MNEM.UNIT                 API CODE     Curve Description
#---------               -----------    ---------------------------
 TIME.HHMMSS            00 000 000 000:  GT Time & Date
 GTDEPTH.m              00 000 000 000:  GT Depth
 GTPQH.psia             00 000 000 000:  GT HR Quartz Pressure
 GTTQ.degC              00 000 000 000:  GT Quartz Temperature
 GTTN.NONE              00 000 000 000:  GT Test Number
 GTET.sec               00 000 000 000:  GT Elapsed Test Time
 GTTVD.m                00 000 000 000:  GT True Vertical Depth
#Other Information
#
#WARRANTY: Halliburton will use its best efforts to furnish customers with 
#accurate information and interpretations that are part of, and incident to, the services 
#provided.  However, Halliburton cannot and does not warrant the accuracy 
#or correctness of such information and interpretations.  Under no circumstances should any 
#such information or interpretation be relied upon as the sole basis for any drilling, 
#completion, production, or financial decision or any procedure involving any risk to the 
#safety of any drilling venture, drilling rig or its crew or any other third party.  The 
#Customer has full responsibility for all drilling, completion and production operation.  
#Halliburton makes no representations or warranties, either expressed or 
#implied, including, but not limited to, the implied warranties of merchantability or fitness 
#for a particular purpose, with respect to the services rendered.  In no event will 
#Halliburton be liable for failure to obtain any particular results or for 
#any damages, including, but not limited to, indirect, special or consequential damages, 
#resulting from the use of any information or interpretation provided by Halliburton.
#
~A           TIME           GTDEPTH  GTPQH  GTTQ  GTTN   GTET   GTTVD  
# ...
   15:38:29.531.28-Apr-2021 3537.51 4281.57 75.03 10.00  45.22 2773.98
   15:38:29.731.28-Apr-2021 3537.51 4281.78 75.03 10.00  45.42 2773.98
   15:38:29.932.28-Apr-2021 3537.51 4281.76 75.03 10.00  45.62 2773.98
   15:38:30.132.28-Apr-2021 3537.51 4281.77 75.03 10.00  45.82 2773.98
   15:38:30.332.28-Apr-2021 3537.51 4281.72 75.03 10.00  46.02 2773.98
   15:38:30.532.28-Apr-2021 3537.51 4281.72 75.03 10.00  46.22 2773.98
   15:38:30.732.28-Apr-2021 3537.51 4281.79 75.02 10.00  46.42 2773.98
   15:38:30.932.28-Apr-2021 3537.51 4281.79 75.02 10.00  46.62 2773.98
   15:38:31.132.28-Apr-2021 3537.51 4281.76 75.02 10.00  46.82 2773.98
   15:38:31.332.28-Apr-2021 3537.51 4281.79 75.02 10.00  47.02 2773.98
   15:38:31.532.28-Apr-2021 3537.51 4281.79 75.02 10.00  47.22 2773.98
   15:38:31.732.28-Apr-2021 3537.51 4281.81 75.02 10.00  47.42 2773.98
   15:38:31.932.28-Apr-2021 3537.51 4281.67 75.02 10.00  47.62 2773.98
   15:38:32.132.28-Apr-2021 3537.51 4281.85 75.02 10.00  47.82 2773.98
   15:38:32.332.28-Apr-2021 3537.51 4281.80 75.02 10.00  48.02 2773.98
   15:38:32.533.28-Apr-2021 3537.51 4281.80 75.02 10.00  48.22 2773.98
   15:38:32.733.28-Apr-2021 3537.51 4281.80 75.02 10.00  48.42 2773.98
   15:38:32.933.28-Apr-2021 3537.51 4281.75 75.02 10.00  48.62 2773.98
   15:38:33.133.28-Apr-2021 3537.51 4281.83 75.02 10.00  48.82 2773.98
   15:38:33.333.28-Apr-2021 3537.51 4281.84 75.02 10.00  49.02 2773.98
   15:38:33.533.28-Apr-2021 3537.51 4281.84 75.02 10.00  49.22 2773.98
   15:38:33.733.28-Apr-2021 3537.51 4281.82 75.01 10.00  49.42 2773.98
   15:38:33.933.28-Apr-2021 3537.51 4281.83 75.01 10.00  49.62 2773.98
   15:38:34.133.28-Apr-2021 3537.51 4281.85 75.01 10.00  49.82 2773.98
   15:38:34.333.28-Apr-2021 3537.51 4281.84 75.01 10.00  50.02 2773.98
   15:38:34.533.28-Apr-2021 3537.51 4281.84 75.01 10.00  50.22 2773.98
   15:38:34.733.28-Apr-2021 3537.51 4281.65 75.01 10.00  50.42 2773.98
   15:38:34.933.28-Apr-2021 3537.51 4281.94 75.01 10.00  50.62 2773.98
   15:38:35.134.28-Apr-2021 3537.51 4281.84 75.01 10.00  50.82 2773.98
   15:38:35.334.28-Apr-2021 3537.51 4281.83 75.01 10.00  51.02 2773.98
   15:38:35.534.28-Apr-2021 3537.51 4281.83 75.01 10.00  51.22 2773.98
   15:38:35.734.28-Apr-2021 3537.51 4281.80 75.01 10.00  51.42 2773.98
   15:38:35.934.28-Apr-2021 3537.51 4281.79 75.01 10.00  51.62 2773.98
   15:38:36.134.28-Apr-2021 3537.51 4281.83 75.01 10.00  51.82 2773.98
   15:38:36.334.28-Apr-2021 3537.51 4281.85 75.01 10.00  52.02 2773.98
   15:38:36.534.28-Apr-2021 3537.51 4281.85 75.01 10.00  52.22 2773.98
   15:38:36.734.28-Apr-2021 3537.51 4281.83 75.00 10.00  52.42 2773.98
   15:38:36.934.28-Apr-2021 3537.51 4281.59 75.00 10.00  52.62 2773.98
   15:38:37.134.28-Apr-2021 3537.51 4281.98 75.00 10.00  52.82 2773.98
   15:38:37.334.28-Apr-2021 3537.51 4281.88 75.00 10.00  53.02 2773.98
   15:38:37.534.28-Apr-2021 3537.51 4281.88 75.00 10.00  53.22 2773.98
   15:38:37.735.28-Apr-2021 3537.51 4281.81 75.00 10.00  53.42 2773.98
   15:38:37.935.28-Apr-2021 3537.51 4281.75 75.00 10.00  53.62 2773.98
   15:38:38.135.28-Apr-2021 3537.51 4281.85 75.00 10.00  53.82 2773.98
   15:38:38.335.28-Apr-2021 3537.51 4281.86 75.00 10.00  54.02 2773.98
   15:38:38.535.28-Apr-2021 3537.51 4281.86 75.00 10.00  54.22 2773.98
   15:38:38.735.28-Apr-2021 3537.51 4281.82 75.00 10.00  54.42 2773.98
   15:38:38.935.28-Apr-2021 3537.51 4281.81 75.00 10.00  54.62 2773.98
   15:38:39.135.28-Apr-2021 3537.51 4281.88 75.00 10.00  54.82 2773.98
   15:38:39.335.28-Apr-2021 3537.51 4281.86 75.00 10.00  55.02 2773.98
   15:38:39.535.28-Apr-2021 3537.51 4281.86 75.00 10.00  55.22 2773.98
   15:38:39.735.28-Apr-2021 3537.51 4281.84 74.99 10.00  55.42 2773.98
   15:38:39.935.28-Apr-2021 3537.51 4281.85 74.99 10.00  55.62 2773.98
   15:38:40.135.28-Apr-2021 3537.51 4281.88 74.99 10.00  55.82 2773.98
   15:38:40.336.28-Apr-2021 3537.51 4281.86 74.99 10.00  56.02 2773.98
   15:38:40.536.28-Apr-2021 3537.51 4281.86 74.99 10.00  56.22 2773.98
   15:38:40.736.28-Apr-2021 3537.51 4281.78 74.99 10.00  56.42 2773.98
   15:38:40.936.28-Apr-2021 3537.51 4281.85 74.99 10.00  56.62 2773.98
   15:38:41.136.28-Apr-2021 3537.51 4281.89 74.99 10.00  56.82 2773.98
   15:38:41.336.28-Apr-2021 3537.51 4281.86 74.99 10.00  57.02 2773.98
   15:38:41.536.28-Apr-2021 3537.51 4281.86 74.99 10.00  57.22 2773.98
   15:38:41.736.28-Apr-2021 3537.51 4281.87 74.99 10.00  57.42 2773.98
   15:38:41.936.28-Apr-2021 3537.51 4281.86 74.99 10.00  57.62 2773.98
   15:38:42.136.28-Apr-2021 3537.51 4281.86 74.99 10.00  57.82 2773.98
   15:38:42.336.28-Apr-2021 3537.51 4281.85 74.99 10.00  58.02 2773.98
   15:38:42.536.28-Apr-2021 3537.51 4281.85 74.99 10.00  58.22 2773.98
   15:38:42.736.28-Apr-2021 3537.51 4281.87 74.99 10.00  58.42 2773.98
   15:38:42.936.28-Apr-2021 3537.51 4281.86 74.99 10.00  58.62 2773.98
   15:38:43.137.28-Apr-2021 3537.51 4281.86 74.98 10.00  58.82 2773.98
   15:38:43.337.28-Apr-2021 3537.51 4281.76 74.98 10.00  59.02 2773.98
   15:38:43.537.28-Apr-2021 3537.51 4281.76 74.98 10.00  59.22 2773.98
   15:38:43.737.28-Apr-2021 3537.51 4281.87 74.98 10.00  59.42 2773.98
   15:38:43.937.28-Apr-2021 3537.51 4281.88 74.98 10.00  59.62 2773.98
   15:38:44.137.28-Apr-2021 3537.51 4281.85 74.98 10.00  59.82 2773.98
   15:38:44.337.28-Apr-2021 3537.51 4281.80 74.98 10.00  60.02 2773.98
   15:38:44.537.28-Apr-2021 3537.51 4281.80 74.98 10.00  60.22 2773.98
   15:38:44.737.28-Apr-2021 3537.51 4281.69 74.98 10.00  60.42 2773.98
   15:38:44.937.28-Apr-2021 3537.51 4281.93 74.98 10.00  60.62 2773.98
   15:38:45.137.28-Apr-2021 3537.51 4281.87 74.98 10.00  60.82 2773.98
   15:38:45.337.28-Apr-2021 3537.51 4281.83 74.98 10.00  61.02 2773.98
   15:38:45.537.28-Apr-2021 3537.51 4281.83 74.98 10.00  61.22 2773.98
   15:38:45.738.28-Apr-2021 3537.51 4281.94 74.98 10.00  61.42 2773.98
   15:38:45.938.28-Apr-2021 3537.51 4281.88 74.98 10.00  61.62 2773.98
   15:38:46.138.28-Apr-2021 3537.51 4281.83 74.98 10.00  61.82 2773.98
   15:38:46.338.28-Apr-2021 3537.51 4281.86 74.97 10.00  62.02 2773.98
   15:38:46.538.28-Apr-2021 3537.51 4281.86 74.97 10.00  62.22 2773.98
   15:38:46.738.28-Apr-2021 3537.51 4281.71 74.97 10.00  62.42 2773.98
   15:38:46.938.28-Apr-2021 3537.51 4281.93 74.97 10.00  62.62 2773.98
   15:38:47.138.28-Apr-2021 3537.51 4281.89 74.97 10.00  62.82 2773.98
   15:38:47.338.28-Apr-2021 3537.51 4281.83 74.97 10.00  63.02 2773.98
   15:38:47.538.28-Apr-2021 3537.51 4281.83 74.97 10.00  63.22 2773.98
   15:38:47.738.28-Apr-2021 3537.51 4281.87 74.97 10.00  63.42 2773.98
   15:38:47.938.28-Apr-2021 3537.51 4281.85 74.97 10.00  63.62 2773.98
   15:38:48.138.28-Apr-2021 3537.51 4281.86 74.97 10.00  63.82 2773.98
   15:38:48.339.28-Apr-2021 3537.51 4281.84 74.97 10.00  64.02 2773.98
   15:38:48.539.28-Apr-2021 3537.51 4281.84 74.97 10.00  64.22 2773.98
   15:38:48.739.28-Apr-2021 3537.51 4281.87 74.97 10.00  64.42 2773.98
   15:38:48.939.28-Apr-2021 3537.51 4281.85 74.97 10.00  64.62 2773.98
   15:38:49.139.28-Apr-2021 3537.51 4281.85 74.97 10.00  64.82 2773.98
   15:38:49.339.28-Apr-2021 3537.51 4281.60 74.97 10.00  65.02 2773.98
   15:38:49.539.28-Apr-2021 3537.51 4281.60 74.97 10.00  65.22 2773.98
   15:38:49.739.28-Apr-2021 3537.51 4281.89 74.96 10.00  65.42 2773.98
   15:38:49.939.28-Apr-2021 3537.51 4281.85 74.96 10.00  65.63 2773.98
   15:38:50.139.28-Apr-2021 3537.51 4281.80 74.96 10.00  65.83 2773.98
   15:38:50.339.28-Apr-2021 3537.51 4281.84 74.96 10.00  66.03 2773.98
   15:38:50.539.28-Apr-2021 3537.51 4281.84 74.96 10.00  66.23 2773.98
   15:38:50.739.28-Apr-2021 3537.51 4281.84 74.96 10.00  66.43 2773.98
   15:38:50.940.28-Apr-2021 3537.51 4281.83 74.96 10.00  66.63 2773.98
   15:38:51.140.28-Apr-2021 3537.51 4281.83 74.96 10.00  66.83 2773.98
   15:38:51.340.28-Apr-2021 3537.51 4281.85 74.96 10.00  67.03 2773.98
   15:38:51.540.28-Apr-2021 3537.51 4281.85 74.96 10.00  67.23 2773.98
   15:38:51.740.28-Apr-2021 3537.51 4281.84 74.96 10.00  67.43 2773.98
   15:38:51.940.28-Apr-2021 3537.51 4281.83 74.96 10.00  67.63 2773.98
