~Version Information
 VERS.                  2.0:   CWLS log ASCII Standard -VERSION 2.0
 WRAP.                   NO:   One line per depth step
~Well Information Block
#MNEM.UNIT     VALUE/NAME     DESCRIPTION
#---------     -----------    ---------------------------
 STRT.S             03:12:46 28-Apr-21: START TIME 03:12:46 28-Apr-21
 STOP.S             03:19:14 28-Apr-21: STOP TIME  03:19:14 28-Apr-21
 STEP.S                   0.00: STEP TIME
 NULL.                 -999.25: NULL VALUE
 DFWT.                        :  DIST FWL TEXT
 DFST.                        :  DIST FSL TEXT
 DMF .             Drill Floor:  DRILL MEAS FROM
 STIM.      02.00.00 12-Apr-21:  START TIME
 DATE.      02.00.00 02-May-21:  END TIME
 SPUD.               09-Apr-21:  SPUD DATE
 NREF.                    Grid:  NORTH REFERENCE
 HPTY.       Minimum Curvature:  HOLE POS TYPE
 DMOD.             Drill Model:  DRILL MOD DESC
 SVYD.                  Survey:  SURVEY DESC
 ILTD.               Lithology:  INTERP LTH DESC
 FTOP.          Formation Tops:  FORM TOPS DESC
 PDAT.          Mean Sea Level:  PERMANENT DATUM
 FLD .                     ACG:  FIELD NAME
 SON .        AZ-XX-0907021034:  JOB NUMBER
 CTRY.              Azerbaijan:  COUNTRY NAME
 WELL.                    E01x:  WELL NAME
 COMP.     BP Exploration (Caspian Sea) LTD.:  COMPANY
 UWI .            /AZE00001403:  UNIQUE WELL IDENTIFIER
 API .            /AZE00001403:  API NUMBER
 WTYP.                Deviated:  WELL TYPE
 MDS .        Operator Entered:  MAG DATA SOURCE
 BASE.              Azerbaijan:  LOGGING EQUIPMENT BASE LOCATION
 REGN.                   EESSA:  REGION
 PROV.                    Baku:  PROVINCE
 STAT.                    Baku:  STATE NAME
 SRVC.          Turan Drilling:  CONTRACTOR
 MWDS.                    Baku:  MWD SHOP
 JOBN.        AZ-XX-0907021034:  JOB TICKET NUMB
 RIG .                     DWG:  RIG NAME
 DOE .                     N/A:  DOE NUMBER
 DCON.         Sperry Drilling:  DIRECTNL CONTR
 UNIT.                     N/A:  LOGGING EQUIPMENT ID
 CNTY.                        :  COUNTY
 LOC .                        :  LOCATION
 LMF .             Drill Floor:  LOG MEASURED FROM
 TVDS.m                  43.16:  TVDSS CORRECTN
 LATI.deg                40.17:  LATITUDE
 LONG.deg                51.17:  LONGITUDE
 WHNS.m                  -5.90:  WELL HEAD N/S
 WHEW.m                  -6.61:  WELL HEAD E/W
 UTMX.m              514337.95:  UTM X
 UTMY.m             4448627.46:  UTM Y
 DFWL.m                   0.00:  DISTANCE FWL
 DFSL.m                   0.00:  DISTANCE FSL
 SDEP.m                2606.87:  START DEPTH
 TDD .m                3618.01:  TOTAL DEPTH (DRILLER)
 VSDR.deg               177.42:  VERT SEC DIRECT
 GVFD.g                   1.00:  GRAVITY FIELD
 MFLD.nT              50399.00:  MAGNETIC FIELD
 MDIP.deg                59.67:  MAGNETIC DIP
 MDEC.deg                 6.56:  MAGNETIC DECL
 GRDC.deg                 0.11:  GRID CORRECTION
 AZTC.deg                 6.45:  AZM TOTAL CORR
 EPD .m                   0.00:  ELEVATION
 EGL .m                   0.00:  GROUND ELEVATION
 WDMS.m                 176.20:  WD ELEV
 APD .m                  43.16:  DEPTH ABOVE PD
 DEP .m                2606.87:  DEPTH
 AGAP.m                  43.16:  AIR GAP
 VSEW.m                  -6.61:  VERT SEC E/W
 VSNS.m                  -5.90:  VERT SEC N/S
 EKB .m                  43.16:  KB ELEVATION
 EDF .m                  43.16:  DF ELEVATION
 TDL .m                 438.00:  TOTAL DEPTH (LOGGER)
 VSC .                       0:  VS TO CLOSURE
 MAGU.                 1855490:  MAGUTM CHECKSUM
~Parameter Information Block
#MNEM.UNIT       Value        Description
#---------     -----------    ---------------------------
 AV  .mps                 2.20:  Ann Velocity 
 AVMX.mps                 2.50:  Max Ann Veloc 
 AZIF.deg               150.21:  Azm, Final 
 BHAT.        Rotary Steerable:  BHA Type 
 BROT.°/30m               0.08:  Build Rotating 
 BS  .in                  6.50:  Bit Size 
 BSZ .in                  6.50:  Bit Size 
 BTPL.psig              108.00:  Bit Press Loss 
 CABU.                     Yes:  Customer Abuse 
 CGEO.           Emin Aliyarli:  Customer Geo 
 COMM.                     ¬¼r:  Run Comments 1 
 TCS .hr                 74.20:  Time Ciculation Ended 
 CV  .mps                 3.63:  Crit Velocity 
 CVMX.mps                 3.66:  Max Crit Veloc 
 DD1 .         Intigam Rahimov:  Direct Drillr 1 
 DD2 .          Teymur Aghayev:  Direct Drillr 2 
 DDSV.               Geo-Pilot:  DD Service 
 DEFF.%                  97.00:  % Det Eff 
 DLRX.°/30m               1.63:  Dogleg Rot Max 
 DLSO.°/30m               0.00:  Dogleg Oriented 
 DLSX.°/30m               0.00:  Dogleg Str Max 
 DRET.      20.20.00 28-Apr-21:  Drill End Time 
 DRST.      04.45.00 26-Apr-21:  Drill Start Tim 
 DTIM.hr                 34.30:  Time Drilling 
 EDEP.m                3618.01:  End Depth 
 ENG1.           Amrah Tahirov:  Engineer 1 
 ENG2.         Bahruz Mehdiyev:  Engineer 2 
 ENG3.         Farhad Orujzade:  Engineer 3 
 ETIM.      19.00.00 29-Apr-21:  End Time 
 FLOI.gpm               370.00:  Flow In 
 FLON.gpm               300.00:  Flow In Min 
 FLOS.cptm                0.00:  Fluid Loss 
 FLOX.gpm               410.00:  Flow In Max 
 HFLO.                      No:  High Flow 
 HPRE.                      No:  High Pressure 
 HTEM.                      No:  High Temp 
 HYDO.m                   1.80:  Hydro Offset 
 IFIN.deg                67.19:  Inc, Final 
 IMAX.deg                68.42:  Inc Max 
 IMIN.deg                66.33:  Inc Min 
 IMND.m                3532.79:  Inc Min Depth 
 IMXD.m                3192.15:  Inc Max Depth 
 JARR.                      No:  Jarring 
 LETM.      20.20.00 28-Apr-21:  Log End Time 
 LOST.hr                     0:  Lost Rig Time 
 LSTM.      04.45.00 26-Apr-21:  Log Start Time 
 MDCL.ppm             36500.00:  Mud Chlorides 
 MDES.     Inversion Oil/Synthetic:  Mud Desc 
 DFD .sg                  1.42:  Mud Density 
 MDMN.sg                  1.42:  Dens Mud Min 
 MDMX.sg                  1.42:  Dens Mud Max 
 MOIL.                    55.7:  Run Mud Oil % 
 MOWR.                   71:29:  Run Mud OWR 
 MSND.                     0.1:  Run Mud Sand % 
 MSOL.                    19.9:  Run Mud Solids% 
 DFV .spqt               83.00:  Mud Viscosity 
 MWOD.in                  5.15:  MWD Tool OD 
 MWSI.                      No:  Serv Intrp, MWD 
 OTIM.hr                120.59:  Time Operating 
 PCON.           Look Like New:  Pad Condition 
 PMAX.psia            11292.93:  Press Op, Max 
 PV  .cP                 27.00:  Mud PV 
 RUN .                     400:  Run Number 
 ROPA.m/hr               14.00:  ROP Avg 
 ROPN.m/hr                9.00:  ROP Min 
 ROPX.m/hr               18.00:  ROP Max 
 RPMA.rpm               130.00:  RPM Surface Avg 
 RPMN.rpm               100.00:  RPM Surface Min 
 RPMX.rpm               140.00:  RPM Surface Max 
 RRUN.                    0400:  Rig Run Number 
 RTIM.hr                 38.60:  Time Reaming 
 SAZI.deg               149.55:  Azm, Start 
 SDEP.m                3180.01:  Start Depth 
 SIDD.                      No:  Serv Intrp, DD 
 SINC.deg                68.42:  Inc, Start 
 SPPA.psig             4400.00:  SPP Avg 
 SPPN.psig             3580.00:  SPP Min 
 SPPX.psig             4850.00:  SPP Max 
 STIM.      12.30.00 24-Apr-21:  Start Time 
 SVCS.                 DD, MWD:  Services 
 SVER.                    9.20:  Sperry Version 
 TDAT.m                 438.00:  Tot Depth Attmp 
 TDDF.                      No:  Trip for DD 
 TDLG.m                 438.00:  Tot Depth Loggd 
 TFF .                      No:  Trip for Fail 
 TQAA.f-kp               11.00:  Torque Abs Avg 
 TQAN.f-kp                9.00:  Torque Abs Min 
 TQAX.f-kp               14.00:  Torque Abs Max 
 TRRT.°/30m               0.04:  Turn Rotating 
 MRT .                    HCIM:  Maximum Recorded Temperature 
 TTMX.degC               84.31:  Max Tool Temp 
 VS01.                90521954:  Virtual Str1 SN 
 VS02.                90519327:  Virtual Str2 SN 
 VS03.                90522273:  Virtual Str3 SN 
 VS04.                11108038:  Virtual Str4 SN 
 VS05.                12258760:  Virtual Str5 SN 
 WBMN.klb                 1.00:  WOB Min 
 WITN.           Adil Mammadov:  Customer Rep 
 WITN.         Alex Yadullayev:  Customer Rep 2 
 WOBA.klb                 6.00:  WOB Avg 
 WOBX.klb                 9.00:  WOB Max 
 YP  .lhf2               31.00:  Yield Point 
~Curve Information Block
#MNEM.UNIT                 API CODE     Curve Description
#---------               -----------    ---------------------------
 TIME.HHMMSS            00 000 000 000:  GT Time & Date
 GTDEPTH.m              00 000 000 000:  GT Depth
 GTPQH.psia             00 000 000 000:  GT HR Quartz Pressure
 GTTQ.degC              00 000 000 000:  GT Quartz Temperature
 GTTN.NONE              00 000 000 000:  GT Test Number
 GTET.sec               00 000 000 000:  GT Elapsed Test Time
 GTTVD.m                00 000 000 000:  GT True Vertical Depth
#Other Information
#
#WARRANTY: Halliburton will use its best efforts to furnish customers with 
#accurate information and interpretations that are part of, and incident to, the services 
#provided.  However, Halliburton cannot and does not warrant the accuracy 
#or correctness of such information and interpretations.  Under no circumstances should any 
#such information or interpretation be relied upon as the sole basis for any drilling, 
#completion, production, or financial decision or any procedure involving any risk to the 
#safety of any drilling venture, drilling rig or its crew or any other third party.  The 
#Customer has full responsibility for all drilling, completion and production operation.  
#Halliburton makes no representations or warranties, either expressed or 
#implied, including, but not limited to, the implied warranties of merchantability or fitness 
#for a particular purpose, with respect to the services rendered.  In no event will 
#Halliburton be liable for failure to obtain any particular results or for 
#any damages, including, but not limited to, indirect, special or consequential damages, 
#resulting from the use of any information or interpretation provided by Halliburton.
#
~A           TIME           GTDEPTH  GTPQH  GTTQ  GTTN  GTET   GTTVD  
# ...
   03:16:13.842.28-Apr-2021 3448.01 3696.22 72.01 7.00 207.03 2738.99
   03:16:14.042.28-Apr-2021 3448.01 3696.22 72.01 7.00 207.23 2738.99
   03:16:14.242.28-Apr-2021 3448.01 3696.56 72.01 7.00 207.43 2738.99
   03:16:14.442.28-Apr-2021 3448.01 3696.32 72.00 7.00 207.63 2738.99
   03:16:14.642.28-Apr-2021 3448.01 3696.31 72.00 7.00 207.83 2738.99
   03:16:14.842.28-Apr-2021 3448.01 3696.24 72.00 7.00 208.03 2738.99
   03:16:15.042.28-Apr-2021 3448.01 3696.24 72.00 7.00 208.23 2738.99
   03:16:15.242.28-Apr-2021 3448.01 3696.29 72.00 7.00 208.43 2738.99
   03:16:15.442.28-Apr-2021 3448.01 3696.25 72.00 7.00 208.63 2738.99
   03:16:15.642.28-Apr-2021 3448.01 3696.29 72.00 7.00 208.83 2738.99
   03:16:15.842.28-Apr-2021 3448.01 3696.24 72.00 7.00 209.03 2738.99
   03:16:16.042.28-Apr-2021 3448.01 3696.24 72.00 7.00 209.23 2738.99
   03:16:16.242.28-Apr-2021 3448.01 3696.16 72.00 7.00 209.43 2738.99
   03:16:16.442.28-Apr-2021 3448.01 3696.31 72.00 7.00 209.63 2738.99
   03:16:16.642.28-Apr-2021 3448.01 3696.15 72.00 7.00 209.83 2738.99
   03:16:16.842.28-Apr-2021 3448.01 3695.98 72.00 7.00 210.03 2738.99
   03:16:17.042.28-Apr-2021 3448.01 3695.98 72.00 7.00 210.23 2738.99
   03:16:17.242.28-Apr-2021 3448.01 3696.30 72.00 7.00 210.43 2738.99
   03:16:17.442.28-Apr-2021 3448.01 3696.25 72.00 7.00 210.63 2738.99
   03:16:17.642.28-Apr-2021 3448.01 3696.26 72.00 7.00 210.83 2738.99
   03:16:17.842.28-Apr-2021 3448.01 3696.30 72.00 7.00 211.03 2738.99
   03:16:18.042.28-Apr-2021 3448.01 3696.30 72.00 7.00 211.23 2738.99
   03:16:18.242.28-Apr-2021 3448.01 3696.26 72.00 7.00 211.43 2738.99
   03:16:18.442.28-Apr-2021 3448.01 3696.27 72.00 7.00 211.63 2738.99
   03:16:18.642.28-Apr-2021 3448.01 3696.22 72.00 7.00 211.83 2738.99
   03:16:18.842.28-Apr-2021 3448.01 3696.31 72.00 7.00 212.03 2738.99
   03:16:19.043.28-Apr-2021 3448.01 3696.31 72.00 7.00 212.23 2738.99
   03:16:19.243.28-Apr-2021 3448.01 3696.29 72.00 7.00 212.43 2738.99
   03:16:19.443.28-Apr-2021 3448.01 3695.88 72.00 7.00 212.63 2738.99
   03:16:19.643.28-Apr-2021 3448.01 3696.46 72.00 7.00 212.83 2738.99
   03:16:19.843.28-Apr-2021 3448.01 3696.26 72.00 7.00 213.03 2738.99
   03:16:20.043.28-Apr-2021 3448.01 3696.26 72.00 7.00 213.23 2738.99
   03:16:20.243.28-Apr-2021 3448.01 3696.11 71.99 7.00 213.43 2738.99
   03:16:20.443.28-Apr-2021 3448.01 3696.24 71.99 7.00 213.63 2738.99
   03:16:20.643.28-Apr-2021 3448.01 3696.37 71.99 7.00 213.83 2738.99
   03:16:20.843.28-Apr-2021 3448.01 3696.29 71.99 7.00 214.03 2738.99
   03:16:21.043.28-Apr-2021 3448.01 3696.29 71.99 7.00 214.23 2738.99
   03:16:21.243.28-Apr-2021 3448.01 3696.32 71.99 7.00 214.43 2738.99
   03:16:21.443.28-Apr-2021 3448.01 3696.07 71.99 7.00 214.63 2738.99
   03:16:21.643.28-Apr-2021 3448.01 3696.30 71.99 7.00 214.83 2738.99
   03:16:21.843.28-Apr-2021 3448.01 3696.26 71.99 7.00 215.03 2738.99
   03:16:22.043.28-Apr-2021 3448.01 3696.26 71.99 7.00 215.23 2738.99
   03:16:22.243.28-Apr-2021 3448.01 3696.03 71.99 7.00 215.43 2738.99
   03:16:22.443.28-Apr-2021 3448.01 3696.30 71.99 7.00 215.63 2738.99
   03:16:22.643.28-Apr-2021 3448.01 3696.30 71.99 7.00 215.83 2738.99
   03:16:22.843.28-Apr-2021 3448.01 3696.32 71.99 7.00 216.03 2738.99
   03:16:23.043.28-Apr-2021 3448.01 3696.32 71.99 7.00 216.23 2738.99
   03:16:23.243.28-Apr-2021 3448.01 3696.25 71.99 7.00 216.43 2738.99
   03:16:23.443.28-Apr-2021 3448.01 3696.34 71.99 7.00 216.63 2738.99
   03:16:23.643.28-Apr-2021 3448.01 3696.22 71.99 7.00 216.83 2738.99
   03:16:23.843.28-Apr-2021 3448.01 3696.25 71.99 7.00 217.03 2738.99
   03:16:24.043.28-Apr-2021 3448.01 3696.25 71.99 7.00 217.23 2738.99
   03:16:24.243.28-Apr-2021 3448.01 3696.25 71.99 7.00 217.43 2738.99
   03:16:24.443.28-Apr-2021 3448.01 3696.26 71.99 7.00 217.63 2738.99
   03:16:24.643.28-Apr-2021 3448.01 3696.17 71.99 7.00 217.83 2738.99
   03:16:24.843.28-Apr-2021 3448.01 3696.30 71.99 7.00 218.03 2738.99
   03:16:25.043.28-Apr-2021 3448.01 3696.30 71.99 7.00 218.23 2738.99
   03:16:25.243.28-Apr-2021 3448.01 3696.43 71.99 7.00 218.43 2738.99
   03:16:25.443.28-Apr-2021 3448.01 3696.25 71.99 7.00 218.63 2738.99
   03:16:25.643.28-Apr-2021 3448.01 3696.25 71.99 7.00 218.83 2738.99
   03:16:25.844.28-Apr-2021 3448.01 3696.27 71.99 7.00 219.03 2738.99
   03:16:26.044.28-Apr-2021 3448.01 3696.27 71.99 7.00 219.23 2738.99
   03:16:26.244.28-Apr-2021 3448.01 3696.30 71.98 7.00 219.43 2738.99
   03:16:26.444.28-Apr-2021 3448.01 3696.19 71.98 7.00 219.63 2738.99
   03:16:26.644.28-Apr-2021 3448.01 3696.29 71.98 7.00 219.83 2738.99
   03:16:26.844.28-Apr-2021 3448.01 3696.21 71.98 7.00 220.03 2738.99
   03:16:27.044.28-Apr-2021 3448.01 3696.21 71.98 7.00 220.23 2738.99
   03:16:27.244.28-Apr-2021 3448.01 3696.24 71.98 7.00 220.43 2738.99
   03:16:27.444.28-Apr-2021 3448.01 3696.16 71.98 7.00 220.63 2738.99
   03:16:27.644.28-Apr-2021 3448.01 3696.22 71.98 7.00 220.83 2738.99
   03:16:27.844.28-Apr-2021 3448.01 3695.95 71.98 7.00 221.03 2738.99
   03:16:28.044.28-Apr-2021 3448.01 3695.95 71.98 7.00 221.23 2738.99
   03:16:28.244.28-Apr-2021 3448.01 3696.29 71.98 7.00 221.43 2738.99
   03:16:28.444.28-Apr-2021 3448.01 3696.18 71.98 7.00 221.63 2738.99
   03:16:28.644.28-Apr-2021 3448.01 3695.90 71.98 7.00 221.83 2738.99
   03:16:28.844.28-Apr-2021 3448.01 3696.49 71.98 7.00 222.03 2738.99
   03:16:29.044.28-Apr-2021 3448.01 3696.49 71.98 7.00 222.23 2738.99
   03:16:29.244.28-Apr-2021 3448.01 3696.18 71.98 7.00 222.43 2738.99
   03:16:29.444.28-Apr-2021 3448.01 3696.28 71.98 7.00 222.63 2738.99
   03:16:29.644.28-Apr-2021 3448.01 3696.27 71.98 7.00 222.83 2738.99
   03:16:29.844.28-Apr-2021 3448.01 3695.80 71.98 7.00 223.03 2738.99
   03:16:30.044.28-Apr-2021 3448.01 3695.80 71.98 7.00 223.23 2738.99
   03:16:30.244.28-Apr-2021 3448.01 3696.30 71.98 7.00 223.43 2738.99
   03:16:30.444.28-Apr-2021 3448.01 3696.26 71.98 7.00 223.63 2738.99
   03:16:30.644.28-Apr-2021 3448.01 3695.86 71.98 7.00 223.83 2738.99
   03:16:30.844.28-Apr-2021 3448.01 3696.52 71.98 7.00 224.03 2738.99
   03:16:31.044.28-Apr-2021 3448.01 3696.52 71.98 7.00 224.23 2738.99
   03:16:31.244.28-Apr-2021 3448.01 3696.23 71.98 7.00 224.43 2738.99
   03:16:31.444.28-Apr-2021 3448.01 3696.28 71.98 7.00 224.63 2738.99
   03:16:31.644.28-Apr-2021 3448.01 3696.21 71.98 7.00 224.83 2738.99
   03:16:31.844.28-Apr-2021 3448.01 3696.34 71.98 7.00 225.03 2738.99
   03:16:32.044.28-Apr-2021 3448.01 3696.34 71.98 7.00 225.23 2738.99
   03:16:32.244.28-Apr-2021 3448.01 3696.28 71.97 7.00 225.43 2738.99
   03:16:32.444.28-Apr-2021 3448.01 3696.21 71.97 7.00 225.63 2738.99
   03:16:32.645.28-Apr-2021 3448.01 3696.23 71.97 7.00 225.83 2738.99
   03:16:32.845.28-Apr-2021 3448.01 3696.21 71.97 7.00 226.03 2738.99
   03:16:33.045.28-Apr-2021 3448.01 3696.21 71.97 7.00 226.23 2738.99
   03:16:33.245.28-Apr-2021 3448.01 3696.22 71.97 7.00 226.43 2738.99
   03:16:33.445.28-Apr-2021 3448.01 3695.84 71.97 7.00 226.63 2738.99
   03:16:33.645.28-Apr-2021 3448.01 3696.46 71.97 7.00 226.83 2738.99
   03:16:33.845.28-Apr-2021 3448.01 3696.28 71.97 7.00 227.03 2738.99
   03:16:34.045.28-Apr-2021 3448.01 3696.28 71.97 7.00 227.23 2738.99
   03:16:34.245.28-Apr-2021 3448.01 3696.30 71.97 7.00 227.43 2738.99
   03:16:34.445.28-Apr-2021 3448.01 3696.18 71.97 7.00 227.63 2738.99
   03:16:34.645.28-Apr-2021 3448.01 3696.29 71.97 7.00 227.83 2738.99
   03:16:34.845.28-Apr-2021 3448.01 3696.18 71.97 7.00 228.03 2738.99
   03:16:35.045.28-Apr-2021 3448.01 3696.18 71.97 7.00 228.23 2738.99
   03:16:35.245.28-Apr-2021 3448.01 3696.19 71.97 7.00 228.43 2738.99
   03:16:35.445.28-Apr-2021 3448.01 3696.24 71.97 7.00 228.63 2738.99
   03:16:35.645.28-Apr-2021 3448.01 3696.20 71.97 7.00 228.83 2738.99
   03:16:35.845.28-Apr-2021 3448.01 3696.16 71.97 7.00 229.03 2738.99
   03:16:36.045.28-Apr-2021 3448.01 3696.16 71.97 7.00 229.23 2738.99
   03:16:36.245.28-Apr-2021 3448.01 3696.31 71.97 7.00 229.43 2738.99
   03:16:36.445.28-Apr-2021 3448.01 3696.26 71.97 7.00 229.63 2738.99
   03:16:36.645.28-Apr-2021 3448.01 3696.24 71.97 7.00 229.83 2738.99
