~Version Information
 VERS.                  2.0:   CWLS log ASCII Standard -VERSION 2.0
 WRAP.                   NO:   One line per depth step
~Well Information Block
#MNEM.UNIT     VALUE/NAME     DESCRIPTION
#---------     -----------    ---------------------------
 STRT.S             00:41:47 27-Apr-21: START TIME 00:41:47 27-Apr-21
 STOP.S             00:48:15 27-Apr-21: STOP TIME  00:48:15 27-Apr-21
 STEP.S                   0.00: STEP TIME
 NULL.                 -999.25: NULL VALUE
 DFWT.                        :  DIST FWL TEXT
 DFST.                        :  DIST FSL TEXT
 DMF .             Drill Floor:  DRILL MEAS FROM
 STIM.      02.00.00 12-Apr-21:  START TIME
 DATE.      02.00.00 02-May-21:  END TIME
 SPUD.               09-Apr-21:  SPUD DATE
 NREF.                    Grid:  NORTH REFERENCE
 HPTY.       Minimum Curvature:  HOLE POS TYPE
 DMOD.             Drill Model:  DRILL MOD DESC
 SVYD.                  Survey:  SURVEY DESC
 ILTD.               Lithology:  INTERP LTH DESC
 FTOP.          Formation Tops:  FORM TOPS DESC
 PDAT.          Mean Sea Level:  PERMANENT DATUM
 FLD .                     ACG:  FIELD NAME
 SON .        AZ-XX-0907021034:  JOB NUMBER
 CTRY.              Azerbaijan:  COUNTRY NAME
 WELL.                    E01x:  WELL NAME
 COMP.     BP Exploration (Caspian Sea) LTD.:  COMPANY
 UWI .            /AZE00001403:  UNIQUE WELL IDENTIFIER
 API .            /AZE00001403:  API NUMBER
 WTYP.                Deviated:  WELL TYPE
 MDS .        Operator Entered:  MAG DATA SOURCE
 BASE.              Azerbaijan:  LOGGING EQUIPMENT BASE LOCATION
 REGN.                   EESSA:  REGION
 PROV.                    Baku:  PROVINCE
 STAT.                    Baku:  STATE NAME
 SRVC.          Turan Drilling:  CONTRACTOR
 MWDS.                    Baku:  MWD SHOP
 JOBN.        AZ-XX-0907021034:  JOB TICKET NUMB
 RIG .                     DWG:  RIG NAME
 DOE .                     N/A:  DOE NUMBER
 DCON.         Sperry Drilling:  DIRECTNL CONTR
 UNIT.                     N/A:  LOGGING EQUIPMENT ID
 CNTY.                        :  COUNTY
 LOC .                        :  LOCATION
 LMF .             Drill Floor:  LOG MEASURED FROM
 TVDS.m                  43.16:  TVDSS CORRECTN
 LATI.deg                40.17:  LATITUDE
 LONG.deg                51.17:  LONGITUDE
 WHNS.m                  -5.90:  WELL HEAD N/S
 WHEW.m                  -6.61:  WELL HEAD E/W
 UTMX.m              514337.95:  UTM X
 UTMY.m             4448627.46:  UTM Y
 DFWL.m                   0.00:  DISTANCE FWL
 DFSL.m                   0.00:  DISTANCE FSL
 SDEP.m                2606.87:  START DEPTH
 TDD .m                3618.01:  TOTAL DEPTH (DRILLER)
 VSDR.deg               177.42:  VERT SEC DIRECT
 GVFD.g                   1.00:  GRAVITY FIELD
 MFLD.nT              50399.00:  MAGNETIC FIELD
 MDIP.deg                59.67:  MAGNETIC DIP
 MDEC.deg                 6.56:  MAGNETIC DECL
 GRDC.deg                 0.11:  GRID CORRECTION
 AZTC.deg                 6.45:  AZM TOTAL CORR
 EPD .m                   0.00:  ELEVATION
 EGL .m                   0.00:  GROUND ELEVATION
 WDMS.m                 176.20:  WD ELEV
 APD .m                  43.16:  DEPTH ABOVE PD
 DEP .m                2606.87:  DEPTH
 AGAP.m                  43.16:  AIR GAP
 VSEW.m                  -6.61:  VERT SEC E/W
 VSNS.m                  -5.90:  VERT SEC N/S
 EKB .m                  43.16:  KB ELEVATION
 EDF .m                  43.16:  DF ELEVATION
 TDL .m                 438.00:  TOTAL DEPTH (LOGGER)
 VSC .                       0:  VS TO CLOSURE
 MAGU.                 1855490:  MAGUTM CHECKSUM
~Parameter Information Block
#MNEM.UNIT       Value        Description
#---------     -----------    ---------------------------
 AV  .mps                 2.20:  Ann Velocity 
 AVMX.mps                 2.50:  Max Ann Veloc 
 AZIF.deg               150.21:  Azm, Final 
 BHAT.        Rotary Steerable:  BHA Type 
 BROT.°/30m               0.08:  Build Rotating 
 BS  .in                  6.50:  Bit Size 
 BSZ .in                  6.50:  Bit Size 
 BTPL.psig              108.00:  Bit Press Loss 
 CABU.                     Yes:  Customer Abuse 
 CGEO.           Emin Aliyarli:  Customer Geo 
 COMM.                     lJm:  Run Comments 1 
 TCS .hr                 74.20:  Time Ciculation Ended 
 CV  .mps                 3.63:  Crit Velocity 
 CVMX.mps                 3.66:  Max Crit Veloc 
 DD1 .         Intigam Rahimov:  Direct Drillr 1 
 DD2 .          Teymur Aghayev:  Direct Drillr 2 
 DDSV.               Geo-Pilot:  DD Service 
 DEFF.%                  97.00:  % Det Eff 
 DLRX.°/30m               1.63:  Dogleg Rot Max 
 DLSO.°/30m               0.00:  Dogleg Oriented 
 DLSX.°/30m               0.00:  Dogleg Str Max 
 DRET.      20.20.00 28-Apr-21:  Drill End Time 
 DRST.      04.45.00 26-Apr-21:  Drill Start Tim 
 DTIM.hr                 34.30:  Time Drilling 
 EDEP.m                3618.01:  End Depth 
 ENG1.           Amrah Tahirov:  Engineer 1 
 ENG2.         Bahruz Mehdiyev:  Engineer 2 
 ENG3.         Farhad Orujzade:  Engineer 3 
 ETIM.      19.00.00 29-Apr-21:  End Time 
 FLOI.gpm               370.00:  Flow In 
 FLON.gpm               300.00:  Flow In Min 
 FLOS.cptm                0.00:  Fluid Loss 
 FLOX.gpm               410.00:  Flow In Max 
 HFLO.                      No:  High Flow 
 HPRE.                      No:  High Pressure 
 HTEM.                      No:  High Temp 
 HYDO.m                   1.80:  Hydro Offset 
 IFIN.deg                67.19:  Inc, Final 
 IMAX.deg                68.42:  Inc Max 
 IMIN.deg                66.33:  Inc Min 
 IMND.m                3532.79:  Inc Min Depth 
 IMXD.m                3192.15:  Inc Max Depth 
 JARR.                      No:  Jarring 
 LETM.      20.20.00 28-Apr-21:  Log End Time 
 LOST.hr                     0:  Lost Rig Time 
 LSTM.      04.45.00 26-Apr-21:  Log Start Time 
 MDCL.ppm             36500.00:  Mud Chlorides 
 MDES.     Inversion Oil/Synthetic:  Mud Desc 
 DFD .sg                  1.42:  Mud Density 
 MDMN.sg                  1.42:  Dens Mud Min 
 MDMX.sg                  1.42:  Dens Mud Max 
 MOIL.                    55.7:  Run Mud Oil % 
 MOWR.                   71:29:  Run Mud OWR 
 MSND.                     0.1:  Run Mud Sand % 
 MSOL.                    19.9:  Run Mud Solids% 
 DFV .spqt               83.00:  Mud Viscosity 
 MWOD.in                  5.15:  MWD Tool OD 
 MWSI.                      No:  Serv Intrp, MWD 
 OTIM.hr                120.59:  Time Operating 
 PCON.           Look Like New:  Pad Condition 
 PMAX.psia            11292.93:  Press Op, Max 
 PV  .cP                 27.00:  Mud PV 
 RUN .                     400:  Run Number 
 ROPA.m/hr               14.00:  ROP Avg 
 ROPN.m/hr                9.00:  ROP Min 
 ROPX.m/hr               18.00:  ROP Max 
 RPMA.rpm               130.00:  RPM Surface Avg 
 RPMN.rpm               100.00:  RPM Surface Min 
 RPMX.rpm               140.00:  RPM Surface Max 
 RRUN.                    0400:  Rig Run Number 
 RTIM.hr                 38.60:  Time Reaming 
 SAZI.deg               149.55:  Azm, Start 
 SDEP.m                3180.01:  Start Depth 
 SIDD.                      No:  Serv Intrp, DD 
 SINC.deg                68.42:  Inc, Start 
 SPPA.psig             4400.00:  SPP Avg 
 SPPN.psig             3580.00:  SPP Min 
 SPPX.psig             4850.00:  SPP Max 
 STIM.      12.30.00 24-Apr-21:  Start Time 
 SVCS.                 DD, MWD:  Services 
 SVER.                    9.20:  Sperry Version 
 TDAT.m                 438.00:  Tot Depth Attmp 
 TDDF.                      No:  Trip for DD 
 TDLG.m                 438.00:  Tot Depth Loggd 
 TFF .                      No:  Trip for Fail 
 TQAA.f-kp               11.00:  Torque Abs Avg 
 TQAN.f-kp                9.00:  Torque Abs Min 
 TQAX.f-kp               14.00:  Torque Abs Max 
 TRRT.°/30m               0.04:  Turn Rotating 
 MRT .                    HCIM:  Maximum Recorded Temperature 
 TTMX.degC               84.31:  Max Tool Temp 
 VS01.                90521954:  Virtual Str1 SN 
 VS02.                90519327:  Virtual Str2 SN 
 VS03.                90522273:  Virtual Str3 SN 
 VS04.                11108038:  Virtual Str4 SN 
 VS05.                12258760:  Virtual Str5 SN 
 WBMN.klb                 1.00:  WOB Min 
 WITN.           Adil Mammadov:  Customer Rep 
 WITN.         Alex Yadullayev:  Customer Rep 2 
 WOBA.klb                 6.00:  WOB Avg 
 WOBX.klb                 9.00:  WOB Max 
 YP  .lhf2               31.00:  Yield Point 
~Curve Information Block
#MNEM.UNIT                 API CODE     Curve Description
#---------               -----------    ---------------------------
 TIME.HHMMSS            00 000 000 000:  GT Time & Date
 GTDEPTH.m              00 000 000 000:  GT Depth
 GTPQH.psia             00 000 000 000:  GT HR Quartz Pressure
 GTTQ.degC              00 000 000 000:  GT Quartz Temperature
 GTTN.NONE              00 000 000 000:  GT Test Number
 GTET.sec               00 000 000 000:  GT Elapsed Test Time
 GTTVD.m                00 000 000 000:  GT True Vertical Depth
#Other Information
#
#WARRANTY: Halliburton will use its best efforts to furnish customers with 
#accurate information and interpretations that are part of, and incident to, the services 
#provided.  However, Halliburton cannot and does not warrant the accuracy 
#or correctness of such information and interpretations.  Under no circumstances should any 
#such information or interpretation be relied upon as the sole basis for any drilling, 
#completion, production, or financial decision or any procedure involving any risk to the 
#safety of any drilling venture, drilling rig or its crew or any other third party.  The 
#Customer has full responsibility for all drilling, completion and production operation.  
#Halliburton makes no representations or warranties, either expressed or 
#implied, including, but not limited to, the implied warranties of merchantability or fitness 
#for a particular purpose, with respect to the services rendered.  In no event will 
#Halliburton be liable for failure to obtain any particular results or for 
#any damages, including, but not limited to, indirect, special or consequential damages, 
#resulting from the use of any information or interpretation provided by Halliburton.
#
~A           TIME           GTDEPTH  GTPQH  GTTQ  GTTN  GTET   GTTVD  
# ...
   00:47:55.799.27-Apr-2021 3226.01 5809.70 71.20 2.00 368.07 2651.33
   00:47:55.999.27-Apr-2021 3226.01 5809.70 71.20 2.00 368.27 2651.33
   00:47:56.199.27-Apr-2021 3226.01 5801.55 71.20 2.00 368.47 2651.33
   00:47:56.399.27-Apr-2021 3226.01 5805.82 71.20 2.00 368.67 2651.33
   00:47:56.599.27-Apr-2021 3226.01 5807.03 71.19 2.00 368.87 2651.33
   00:47:56.799.27-Apr-2021 3226.01 5808.16 71.19 2.00 369.07 2651.33
   00:47:56.999.27-Apr-2021 3226.01 5808.16 71.19 2.00 369.27 2651.33
   00:47:57.199.27-Apr-2021 3226.01 5809.64 71.19 2.00 369.47 2651.33
   00:47:57.399.27-Apr-2021 3226.01 5811.82 71.19 2.00 369.67 2651.33
   00:47:57.599.27-Apr-2021 3226.01 5814.92 71.19 2.00 369.87 2651.33
   00:47:57.799.27-Apr-2021 3226.01 5813.60 71.19 2.00 370.07 2651.33
   00:47:57.999.27-Apr-2021 3226.01 5813.60 71.19 2.00 370.27 2651.33
   00:47:58.199.27-Apr-2021 3226.01 5811.56 71.19 2.00 370.47 2651.33
   00:47:58.399.27-Apr-2021 3226.01 5813.13 71.19 2.00 370.67 2651.33
   00:47:58.599.27-Apr-2021 3226.01 5813.27 71.19 2.00 370.87 2651.33
   00:47:58.799.27-Apr-2021 3226.01 5809.25 71.19 2.00 371.07 2651.33
   00:47:58.999.27-Apr-2021 3226.01 5809.25 71.19 2.00 371.27 2651.33
   00:47:59.199.27-Apr-2021 3226.01 5806.66 71.19 2.00 371.47 2651.33
   00:47:59.399.27-Apr-2021 3226.01 5811.29 71.19 2.00 371.67 2651.33
   00:47:59.599.27-Apr-2021 3226.01 5811.23 71.19 2.00 371.87 2651.33
   00:47:59.799.27-Apr-2021 3226.01 5811.86 71.19 2.00 372.07 2651.33
   00:47:59.999.27-Apr-2021 3226.01 5811.86 71.19 2.00 372.27 2651.33
   00:48:00.200.27-Apr-2021 3226.01 5801.93 71.19 2.00 372.47 2651.33
   00:48:00.400.27-Apr-2021 3226.01 5811.61 71.19 2.00 372.67 2651.33
   00:48:00.600.27-Apr-2021 3226.01 5814.47 71.19 2.00 372.87 2651.33
   00:48:00.800.27-Apr-2021 3226.01 5812.18 71.18 2.00 373.07 2651.33
   00:48:01.000.27-Apr-2021 3226.01 5812.18 71.18 2.00 373.27 2651.33
   00:48:01.200.27-Apr-2021 3226.01 5804.24 71.18 2.00 373.47 2651.33
   00:48:01.400.27-Apr-2021 3226.01 5809.43 71.18 2.00 373.67 2651.33
   00:48:01.600.27-Apr-2021 3226.01 5811.70 71.18 2.00 373.87 2651.33
   00:48:01.800.27-Apr-2021 3226.01 5798.76 71.18 2.00 374.07 2651.33
   00:48:02.000.27-Apr-2021 3226.01 5798.76 71.18 2.00 374.27 2651.33
   00:48:02.200.27-Apr-2021 3226.01 5807.27 71.18 2.00 374.47 2651.33
   00:48:02.400.27-Apr-2021 3226.01 5811.60 71.18 2.00 374.67 2651.33
   00:48:02.600.27-Apr-2021 3226.01 5813.62 71.18 2.00 374.87 2651.33
   00:48:02.800.27-Apr-2021 3226.01 5813.43 71.18 2.00 375.07 2651.33
   00:48:03.000.27-Apr-2021 3226.01 5813.43 71.18 2.00 375.27 2651.33
   00:48:03.200.27-Apr-2021 3226.01 5811.98 71.18 2.00 375.47 2651.33
   00:48:03.400.27-Apr-2021 3226.01 5815.48 71.18 2.00 375.67 2651.33
   00:48:03.600.27-Apr-2021 3226.01 5814.14 71.18 2.00 375.87 2651.33
   00:48:03.800.27-Apr-2021 3226.01 5811.74 71.18 2.00 376.07 2651.33
   00:48:04.000.27-Apr-2021 3226.01 5811.74 71.18 2.00 376.27 2651.33
   00:48:04.200.27-Apr-2021 3226.01 5809.85 71.18 2.00 376.47 2651.33
   00:48:04.400.27-Apr-2021 3226.01 5799.61 71.18 2.00 376.67 2651.33
   00:48:04.600.27-Apr-2021 3226.01 5801.38 71.18 2.00 376.87 2651.33
   00:48:04.800.27-Apr-2021 3226.01 5806.72 71.18 2.00 377.07 2651.33
   00:48:05.000.27-Apr-2021 3226.01 5806.72 71.18 2.00 377.27 2651.33
   00:48:05.201.27-Apr-2021 3226.01 5808.63 71.17 2.00 377.47 2651.33
   00:48:05.401.27-Apr-2021 3226.01 5808.21 71.17 2.00 377.67 2651.33
   00:48:05.601.27-Apr-2021 3226.01 5809.32 71.17 2.00 377.87 2651.33
   00:48:05.801.27-Apr-2021 3226.01 5811.74 71.17 2.00 378.07 2651.33
   00:48:06.001.27-Apr-2021 3226.01 5811.74 71.17 2.00 378.27 2651.33
   00:48:06.201.27-Apr-2021 3226.01 5813.59 71.17 2.00 378.47 2651.33
   00:48:06.401.27-Apr-2021 3226.01 5812.43 71.17 2.00 378.68 2651.33
   00:48:06.601.27-Apr-2021 3226.01 5810.46 71.17 2.00 378.88 2651.33
   00:48:06.801.27-Apr-2021 3226.01 5812.51 71.17 2.00 379.08 2651.33
   00:48:07.001.27-Apr-2021 3226.01 5812.51 71.17 2.00 379.28 2651.33
   00:48:07.201.27-Apr-2021 3226.01 5807.48 71.17 2.00 379.48 2651.33
   00:48:07.401.27-Apr-2021 3226.01 5799.59 71.17 2.00 379.68 2651.33
   00:48:07.601.27-Apr-2021 3226.01 5806.37 71.17 2.00 379.88 2651.33
   00:48:07.801.27-Apr-2021 3226.01 5810.48 71.17 2.00 380.08 2651.33
   00:48:08.001.27-Apr-2021 3226.01 5810.48 71.17 2.00 380.28 2651.33
   00:48:08.201.27-Apr-2021 3226.01 5811.18 71.17 2.00 380.48 2651.33
   00:48:08.401.27-Apr-2021 3226.01 5810.58 71.17 2.00 380.68 2651.33
   00:48:08.601.27-Apr-2021 3226.01 5801.00 71.17 2.00 380.88 2651.33
   00:48:08.801.27-Apr-2021 3226.01 5809.90 71.17 2.00 381.08 2651.33
   00:48:09.001.27-Apr-2021 3226.01 5809.90 71.17 2.00 381.28 2651.33
   00:48:09.201.27-Apr-2021 3226.01 5812.18 71.17 2.00 381.48 2651.33
   00:48:09.401.27-Apr-2021 3226.01 5800.67 71.16 2.00 381.68 2651.33
   00:48:09.601.27-Apr-2021 3226.01 5804.34 71.16 2.00 381.88 2651.33
   00:48:09.801.27-Apr-2021 3226.01 5808.39 71.16 2.00 382.08 2651.33
   00:48:10.001.27-Apr-2021 3226.01 5808.39 71.16 2.00 382.28 2651.33
   00:48:10.201.27-Apr-2021 3226.01 5800.24 71.16 2.00 382.48 2651.33
   00:48:10.402.27-Apr-2021 3226.01 5804.83 71.16 2.00 382.68 2651.33
   00:48:10.602.27-Apr-2021 3226.01 5807.95 71.16 2.00 382.88 2651.33
   00:48:10.802.27-Apr-2021 3226.01 5810.22 71.16 2.00 383.08 2651.33
   00:48:11.002.27-Apr-2021 3226.01 5810.22 71.16 2.00 383.28 2651.33
   00:48:11.202.27-Apr-2021 3226.01 5813.34 71.16 2.00 383.48 2651.33
   00:48:11.402.27-Apr-2021 3226.01 5812.31 71.16 2.00 383.68 2651.33
   00:48:11.602.27-Apr-2021 3226.01 5813.76 71.16 2.00 383.88 2651.33
   00:48:11.802.27-Apr-2021 3226.01 5815.61 71.16 2.00 384.08 2651.33
   00:48:12.002.27-Apr-2021 3226.01 5815.61 71.16 2.00 384.28 2651.33
   00:48:12.202.27-Apr-2021 3226.01 5812.10 71.16 2.00 384.48 2651.33
   00:48:12.402.27-Apr-2021 3226.01 5810.18 71.16 2.00 384.68 2651.33
   00:48:12.602.27-Apr-2021 3226.01 5810.05 71.16 2.00 384.88 2651.33
   00:48:12.802.27-Apr-2021 3226.01 5801.01 71.16 2.00 385.08 2651.33
   00:48:13.002.27-Apr-2021 3226.01 5801.01 71.16 2.00 385.28 2651.33
   00:48:13.202.27-Apr-2021 3226.01 5806.23 71.16 2.00 385.48 2651.33
   00:48:13.402.27-Apr-2021 3226.01 5807.21 71.16 2.00 385.68 2651.33
   00:48:13.602.27-Apr-2021 3226.01 5808.48 71.15 2.00 385.88 2651.33
   00:48:13.802.27-Apr-2021 3226.01 5808.34 71.15 2.00 386.08 2651.33
   00:48:14.002.27-Apr-2021 3226.01 5808.34 71.15 2.00 386.28 2651.33
   00:48:14.202.27-Apr-2021 3226.01 5810.98 71.15 2.00 386.48 2651.33
   00:48:14.402.27-Apr-2021 3226.01 5815.09 71.15 2.00 386.68 2651.33
   00:48:14.602.27-Apr-2021 3226.01 5813.64 71.15 2.00 386.88 2651.33
   00:48:14.802.27-Apr-2021 3226.01 5813.04 71.15 2.00 387.08 2651.33
   00:48:15.002.27-Apr-2021 3226.01 5813.04 71.15 2.00 387.28 2651.33
   00:48:15.202.27-Apr-2021 3226.01 5812.45 71.15 2.00 387.48 2651.33
   00:48:15.403.27-Apr-2021 3226.01 5812.50 71.15 2.00 387.68 2651.33
   00:48:15.603.27-Apr-2021 3226.01 5810.31 71.15 2.00 387.88 2651.33
