~Version Information
 VERS.                  2.0:   CWLS log ASCII Standard -VERSION 2.0
 WRAP.                   NO:   One line per depth step
~Well Information Block
#MNEM.UNIT     VALUE/NAME     DESCRIPTION
#---------     -----------    ---------------------------
 STRT.S             23:23:54 27-Apr-21: START TIME 23:23:54 27-Apr-21
 STOP.S             23:30:22 27-Apr-21: STOP TIME  23:30:22 27-Apr-21
 STEP.S                   0.00: STEP TIME
 NULL.                 -999.25: NULL VALUE
 DFWT.                        :  DIST FWL TEXT
 DFST.                        :  DIST FSL TEXT
 DMF .             Drill Floor:  DRILL MEAS FROM
 STIM.      02.00.00 12-Apr-21:  START TIME
 DATE.      02.00.00 02-May-21:  END TIME
 SPUD.               09-Apr-21:  SPUD DATE
 NREF.                    Grid:  NORTH REFERENCE
 HPTY.       Minimum Curvature:  HOLE POS TYPE
 DMOD.             Drill Model:  DRILL MOD DESC
 SVYD.                  Survey:  SURVEY DESC
 ILTD.               Lithology:  INTERP LTH DESC
 FTOP.          Formation Tops:  FORM TOPS DESC
 PDAT.          Mean Sea Level:  PERMANENT DATUM
 FLD .                     ACG:  FIELD NAME
 SON .        AZ-XX-0907021034:  JOB NUMBER
 CTRY.              Azerbaijan:  COUNTRY NAME
 WELL.                    E01x:  WELL NAME
 COMP.     BP Exploration (Caspian Sea) LTD.:  COMPANY
 UWI .            /AZE00001403:  UNIQUE WELL IDENTIFIER
 API .            /AZE00001403:  API NUMBER
 WTYP.                Deviated:  WELL TYPE
 MDS .        Operator Entered:  MAG DATA SOURCE
 BASE.              Azerbaijan:  LOGGING EQUIPMENT BASE LOCATION
 REGN.                   EESSA:  REGION
 PROV.                    Baku:  PROVINCE
 STAT.                    Baku:  STATE NAME
 SRVC.          Turan Drilling:  CONTRACTOR
 MWDS.                    Baku:  MWD SHOP
 JOBN.        AZ-XX-0907021034:  JOB TICKET NUMB
 RIG .                     DWG:  RIG NAME
 DOE .                     N/A:  DOE NUMBER
 DCON.         Sperry Drilling:  DIRECTNL CONTR
 UNIT.                     N/A:  LOGGING EQUIPMENT ID
 CNTY.                        :  COUNTY
 LOC .                        :  LOCATION
 LMF .             Drill Floor:  LOG MEASURED FROM
 TVDS.m                  43.16:  TVDSS CORRECTN
 LATI.deg                40.17:  LATITUDE
 LONG.deg                51.17:  LONGITUDE
 WHNS.m                  -5.90:  WELL HEAD N/S
 WHEW.m                  -6.61:  WELL HEAD E/W
 UTMX.m              514337.95:  UTM X
 UTMY.m             4448627.46:  UTM Y
 DFWL.m                   0.00:  DISTANCE FWL
 DFSL.m                   0.00:  DISTANCE FSL
 SDEP.m                2606.87:  START DEPTH
 TDD .m                3618.01:  TOTAL DEPTH (DRILLER)
 VSDR.deg               177.42:  VERT SEC DIRECT
 GVFD.g                   1.00:  GRAVITY FIELD
 MFLD.nT              50399.00:  MAGNETIC FIELD
 MDIP.deg                59.67:  MAGNETIC DIP
 MDEC.deg                 6.56:  MAGNETIC DECL
 GRDC.deg                 0.11:  GRID CORRECTION
 AZTC.deg                 6.45:  AZM TOTAL CORR
 EPD .m                   0.00:  ELEVATION
 EGL .m                   0.00:  GROUND ELEVATION
 WDMS.m                 176.20:  WD ELEV
 APD .m                  43.16:  DEPTH ABOVE PD
 DEP .m                2606.87:  DEPTH
 AGAP.m                  43.16:  AIR GAP
 VSEW.m                  -6.61:  VERT SEC E/W
 VSNS.m                  -5.90:  VERT SEC N/S
 EKB .m                  43.16:  KB ELEVATION
 EDF .m                  43.16:  DF ELEVATION
 TDL .m                 438.00:  TOTAL DEPTH (LOGGER)
 VSC .                       0:  VS TO CLOSURE
 MAGU.                 1855490:  MAGUTM CHECKSUM
~Parameter Information Block
#MNEM.UNIT       Value        Description
#---------     -----------    ---------------------------
 AV  .mps                 2.20:  Ann Velocity 
 AVMX.mps                 2.50:  Max Ann Veloc 
 AZIF.deg               150.21:  Azm, Final 
 BHAT.        Rotary Steerable:  BHA Type 
 BROT.°/30m               0.08:  Build Rotating 
 BS  .in                  6.50:  Bit Size 
 BSZ .in                  6.50:  Bit Size 
 BTPL.psig              108.00:  Bit Press Loss 
 CABU.                     Yes:  Customer Abuse 
 CGEO.           Emin Aliyarli:  Customer Geo 
 COMM.                     HO:  Run Comments 1 
 TCS .hr                 74.20:  Time Ciculation Ended 
 CV  .mps                 3.63:  Crit Velocity 
 CVMX.mps                 3.66:  Max Crit Veloc 
 DD1 .         Intigam Rahimov:  Direct Drillr 1 
 DD2 .          Teymur Aghayev:  Direct Drillr 2 
 DDSV.               Geo-Pilot:  DD Service 
 DEFF.%                  97.00:  % Det Eff 
 DLRX.°/30m               1.63:  Dogleg Rot Max 
 DLSO.°/30m               0.00:  Dogleg Oriented 
 DLSX.°/30m               0.00:  Dogleg Str Max 
 DRET.      20.20.00 28-Apr-21:  Drill End Time 
 DRST.      04.45.00 26-Apr-21:  Drill Start Tim 
 DTIM.hr                 34.30:  Time Drilling 
 EDEP.m                3618.01:  End Depth 
 ENG1.           Amrah Tahirov:  Engineer 1 
 ENG2.         Bahruz Mehdiyev:  Engineer 2 
 ENG3.         Farhad Orujzade:  Engineer 3 
 ETIM.      19.00.00 29-Apr-21:  End Time 
 FLOI.gpm               370.00:  Flow In 
 FLON.gpm               300.00:  Flow In Min 
 FLOS.cptm                0.00:  Fluid Loss 
 FLOX.gpm               410.00:  Flow In Max 
 HFLO.                      No:  High Flow 
 HPRE.                      No:  High Pressure 
 HTEM.                      No:  High Temp 
 HYDO.m                   1.80:  Hydro Offset 
 IFIN.deg                67.19:  Inc, Final 
 IMAX.deg                68.42:  Inc Max 
 IMIN.deg                66.33:  Inc Min 
 IMND.m                3532.79:  Inc Min Depth 
 IMXD.m                3192.15:  Inc Max Depth 
 JARR.                      No:  Jarring 
 LETM.      20.20.00 28-Apr-21:  Log End Time 
 LOST.hr                     0:  Lost Rig Time 
 LSTM.      04.45.00 26-Apr-21:  Log Start Time 
 MDCL.ppm             36500.00:  Mud Chlorides 
 MDES.     Inversion Oil/Synthetic:  Mud Desc 
 DFD .sg                  1.42:  Mud Density 
 MDMN.sg                  1.42:  Dens Mud Min 
 MDMX.sg                  1.42:  Dens Mud Max 
 MOIL.                    55.7:  Run Mud Oil % 
 MOWR.                   71:29:  Run Mud OWR 
 MSND.                     0.1:  Run Mud Sand % 
 MSOL.                    19.9:  Run Mud Solids% 
 DFV .spqt               83.00:  Mud Viscosity 
 MWOD.in                  5.15:  MWD Tool OD 
 MWSI.                      No:  Serv Intrp, MWD 
 OTIM.hr                120.59:  Time Operating 
 PCON.           Look Like New:  Pad Condition 
 PMAX.psia            11292.93:  Press Op, Max 
 PV  .cP                 27.00:  Mud PV 
 RUN .                     400:  Run Number 
 ROPA.m/hr               14.00:  ROP Avg 
 ROPN.m/hr                9.00:  ROP Min 
 ROPX.m/hr               18.00:  ROP Max 
 RPMA.rpm               130.00:  RPM Surface Avg 
 RPMN.rpm               100.00:  RPM Surface Min 
 RPMX.rpm               140.00:  RPM Surface Max 
 RRUN.                    0400:  Rig Run Number 
 RTIM.hr                 38.60:  Time Reaming 
 SAZI.deg               149.55:  Azm, Start 
 SDEP.m                3180.01:  Start Depth 
 SIDD.                      No:  Serv Intrp, DD 
 SINC.deg                68.42:  Inc, Start 
 SPPA.psig             4400.00:  SPP Avg 
 SPPN.psig             3580.00:  SPP Min 
 SPPX.psig             4850.00:  SPP Max 
 STIM.      12.30.00 24-Apr-21:  Start Time 
 SVCS.                 DD, MWD:  Services 
 SVER.                    9.20:  Sperry Version 
 TDAT.m                 438.00:  Tot Depth Attmp 
 TDDF.                      No:  Trip for DD 
 TDLG.m                 438.00:  Tot Depth Loggd 
 TFF .                      No:  Trip for Fail 
 TQAA.f-kp               11.00:  Torque Abs Avg 
 TQAN.f-kp                9.00:  Torque Abs Min 
 TQAX.f-kp               14.00:  Torque Abs Max 
 TRRT.°/30m               0.04:  Turn Rotating 
 MRT .                    HCIM:  Maximum Recorded Temperature 
 TTMX.degC               84.31:  Max Tool Temp 
 VS01.                90521954:  Virtual Str1 SN 
 VS02.                90519327:  Virtual Str2 SN 
 VS03.                90522273:  Virtual Str3 SN 
 VS04.                11108038:  Virtual Str4 SN 
 VS05.                12258760:  Virtual Str5 SN 
 WBMN.klb                 1.00:  WOB Min 
 WITN.           Adil Mammadov:  Customer Rep 
 WITN.         Alex Yadullayev:  Customer Rep 2 
 WOBA.klb                 6.00:  WOB Avg 
 WOBX.klb                 9.00:  WOB Max 
 YP  .lhf2               31.00:  Yield Point 
~Curve Information Block
#MNEM.UNIT                 API CODE     Curve Description
#---------               -----------    ---------------------------
 TIME.HHMMSS            00 000 000 000:  GT Time & Date
 GTDEPTH.m              00 000 000 000:  GT Depth
 GTPQH.psia             00 000 000 000:  GT HR Quartz Pressure
 GTTQ.degC              00 000 000 000:  GT Quartz Temperature
 GTTN.NONE              00 000 000 000:  GT Test Number
 GTET.sec               00 000 000 000:  GT Elapsed Test Time
 GTTVD.m                00 000 000 000:  GT True Vertical Depth
#Other Information
#
#WARRANTY: Halliburton will use its best efforts to furnish customers with 
#accurate information and interpretations that are part of, and incident to, the services 
#provided.  However, Halliburton cannot and does not warrant the accuracy 
#or correctness of such information and interpretations.  Under no circumstances should any 
#such information or interpretation be relied upon as the sole basis for any drilling, 
#completion, production, or financial decision or any procedure involving any risk to the 
#safety of any drilling venture, drilling rig or its crew or any other third party.  The 
#Customer has full responsibility for all drilling, completion and production operation.  
#Halliburton makes no representations or warranties, either expressed or 
#implied, including, but not limited to, the implied warranties of merchantability or fitness 
#for a particular purpose, with respect to the services rendered.  In no event will 
#Halliburton be liable for failure to obtain any particular results or for 
#any damages, including, but not limited to, indirect, special or consequential damages, 
#resulting from the use of any information or interpretation provided by Halliburton.
#
~A           TIME           GTDEPTH  GTPQH  GTTQ  GTTN  GTET   GTTVD  
# ...
   23:28:30.701.27-Apr-2021 3418.01 3572.77 73.51 6.00 276.07 2727.14
   23:28:30.901.27-Apr-2021 3418.01 3572.77 73.51 6.00 276.27 2727.14
   23:28:31.101.27-Apr-2021 3418.01 3572.78 73.51 6.00 276.47 2727.14
   23:28:31.301.27-Apr-2021 3418.01 3572.77 73.51 6.00 276.67 2727.14
   23:28:31.501.27-Apr-2021 3418.01 3572.77 73.51 6.00 276.87 2727.14
   23:28:31.701.27-Apr-2021 3418.01 3572.76 73.51 6.00 277.07 2727.14
   23:28:31.901.27-Apr-2021 3418.01 3572.76 73.51 6.00 277.27 2727.14
   23:28:32.101.27-Apr-2021 3418.01 3572.56 73.51 6.00 277.47 2727.14
   23:28:32.301.27-Apr-2021 3418.01 3572.81 73.50 6.00 277.67 2727.14
   23:28:32.501.27-Apr-2021 3418.01 3572.76 73.50 6.00 277.87 2727.14
   23:28:32.701.27-Apr-2021 3418.01 3572.80 73.50 6.00 278.07 2727.14
   23:28:32.901.27-Apr-2021 3418.01 3572.80 73.50 6.00 278.27 2727.14
   23:28:33.101.27-Apr-2021 3418.01 3572.61 73.50 6.00 278.47 2727.14
   23:28:33.301.27-Apr-2021 3418.01 3572.86 73.50 6.00 278.67 2727.14
   23:28:33.501.27-Apr-2021 3418.01 3572.81 73.50 6.00 278.87 2727.14
   23:28:33.701.27-Apr-2021 3418.01 3572.76 73.50 6.00 279.07 2727.14
   23:28:33.901.27-Apr-2021 3418.01 3572.76 73.50 6.00 279.27 2727.14
   23:28:34.101.27-Apr-2021 3418.01 3572.76 73.50 6.00 279.47 2727.14
   23:28:34.302.27-Apr-2021 3418.01 3572.60 73.50 6.00 279.67 2727.14
   23:28:34.502.27-Apr-2021 3418.01 3572.89 73.50 6.00 279.87 2727.14
   23:28:34.702.27-Apr-2021 3418.01 3572.79 73.50 6.00 280.07 2727.14
   23:28:34.902.27-Apr-2021 3418.01 3572.79 73.50 6.00 280.27 2727.14
   23:28:35.102.27-Apr-2021 3418.01 3572.80 73.50 6.00 280.47 2727.14
   23:28:35.302.27-Apr-2021 3418.01 3572.78 73.50 6.00 280.67 2727.14
   23:28:35.502.27-Apr-2021 3418.01 3572.60 73.50 6.00 280.87 2727.14
   23:28:35.702.27-Apr-2021 3418.01 3572.88 73.50 6.00 281.07 2727.14
   23:28:35.902.27-Apr-2021 3418.01 3572.88 73.50 6.00 281.27 2727.14
   23:28:36.102.27-Apr-2021 3418.01 3572.80 73.50 6.00 281.47 2727.14
   23:28:36.302.27-Apr-2021 3418.01 3572.81 73.50 6.00 281.67 2727.14
   23:28:36.502.27-Apr-2021 3418.01 3572.77 73.50 6.00 281.87 2727.14
   23:28:36.702.27-Apr-2021 3418.01 3572.78 73.50 6.00 282.07 2727.14
   23:28:36.902.27-Apr-2021 3418.01 3572.78 73.50 6.00 282.27 2727.14
   23:28:37.102.27-Apr-2021 3418.01 3572.76 73.49 6.00 282.47 2727.14
   23:28:37.302.27-Apr-2021 3418.01 3572.78 73.49 6.00 282.67 2727.14
   23:28:37.502.27-Apr-2021 3418.01 3572.76 73.49 6.00 282.87 2727.14
   23:28:37.702.27-Apr-2021 3418.01 3572.73 73.49 6.00 283.07 2727.14
   23:28:37.902.27-Apr-2021 3418.01 3572.73 73.49 6.00 283.27 2727.14
   23:28:38.102.27-Apr-2021 3418.01 3572.64 73.49 6.00 283.47 2727.14
   23:28:38.303.27-Apr-2021 3418.01 3572.77 73.49 6.00 283.67 2727.14
   23:28:38.503.27-Apr-2021 3418.01 3572.79 73.49 6.00 283.87 2727.14
   23:28:38.703.27-Apr-2021 3418.01 3572.78 73.49 6.00 284.07 2727.14
   23:28:38.903.27-Apr-2021 3418.01 3572.78 73.49 6.00 284.27 2727.14
   23:28:39.103.27-Apr-2021 3418.01 3572.78 73.49 6.00 284.47 2727.14
   23:28:39.303.27-Apr-2021 3418.01 3572.78 73.49 6.00 284.67 2727.14
   23:28:39.503.27-Apr-2021 3418.01 3572.75 73.49 6.00 284.87 2727.14
   23:28:39.703.27-Apr-2021 3418.01 3572.77 73.49 6.00 285.07 2727.14
   23:28:39.903.27-Apr-2021 3418.01 3572.77 73.49 6.00 285.27 2727.14
   23:28:40.103.27-Apr-2021 3418.01 3572.73 73.49 6.00 285.47 2727.14
   23:28:40.303.27-Apr-2021 3418.01 3572.75 73.49 6.00 285.67 2727.14
   23:28:40.503.27-Apr-2021 3418.01 3572.75 73.49 6.00 285.87 2727.14
   23:28:40.703.27-Apr-2021 3418.01 3572.74 73.49 6.00 286.07 2727.14
   23:28:40.903.27-Apr-2021 3418.01 3572.74 73.49 6.00 286.27 2727.14
   23:28:41.103.27-Apr-2021 3418.01 3572.86 73.49 6.00 286.47 2727.14
   23:28:41.303.27-Apr-2021 3418.01 3572.77 73.49 6.00 286.67 2727.14
   23:28:41.503.27-Apr-2021 3418.01 3572.76 73.49 6.00 286.87 2727.14
   23:28:41.703.27-Apr-2021 3418.01 3572.78 73.49 6.00 287.07 2727.14
   23:28:41.903.27-Apr-2021 3418.01 3572.78 73.49 6.00 287.27 2727.14
   23:28:42.104.27-Apr-2021 3418.01 3572.57 73.48 6.00 287.47 2727.14
   23:28:42.304.27-Apr-2021 3418.01 3572.87 73.48 6.00 287.67 2727.14
   23:28:42.504.27-Apr-2021 3418.01 3572.79 73.48 6.00 287.87 2727.14
   23:28:42.704.27-Apr-2021 3418.01 3572.76 73.48 6.00 288.07 2727.14
   23:28:42.904.27-Apr-2021 3418.01 3572.76 73.48 6.00 288.27 2727.14
   23:28:43.104.27-Apr-2021 3418.01 3572.76 73.48 6.00 288.47 2727.14
   23:28:43.304.27-Apr-2021 3418.01 3572.61 73.48 6.00 288.67 2727.14
   23:28:43.504.27-Apr-2021 3418.01 3572.82 73.48 6.00 288.87 2727.14
   23:28:43.704.27-Apr-2021 3418.01 3572.77 73.48 6.00 289.07 2727.14
   23:28:43.904.27-Apr-2021 3418.01 3572.77 73.48 6.00 289.27 2727.14
   23:28:44.104.27-Apr-2021 3418.01 3572.76 73.48 6.00 289.47 2727.14
   23:28:44.304.27-Apr-2021 3418.01 3572.76 73.48 6.00 289.67 2727.14
   23:28:44.504.27-Apr-2021 3418.01 3572.61 73.48 6.00 289.87 2727.14
   23:28:44.704.27-Apr-2021 3418.01 3572.84 73.48 6.00 290.07 2727.14
   23:28:44.904.27-Apr-2021 3418.01 3572.84 73.48 6.00 290.27 2727.14
   23:28:45.104.27-Apr-2021 3418.01 3572.76 73.48 6.00 290.47 2727.14
   23:28:45.304.27-Apr-2021 3418.01 3572.80 73.48 6.00 290.67 2727.14
   23:28:45.504.27-Apr-2021 3418.01 3572.76 73.48 6.00 290.87 2727.14
   23:28:45.704.27-Apr-2021 3418.01 3572.77 73.48 6.00 291.07 2727.14
   23:28:45.905.27-Apr-2021 3418.01 3572.77 73.48 6.00 291.28 2727.14
   23:28:46.105.27-Apr-2021 3418.01 3572.75 73.48 6.00 291.48 2727.14
   23:28:46.305.27-Apr-2021 3418.01 3572.75 73.48 6.00 291.68 2727.14
   23:28:46.505.27-Apr-2021 3418.01 3572.75 73.48 6.00 291.88 2727.14
   23:28:46.705.27-Apr-2021 3418.01 3572.73 73.48 6.00 292.08 2727.14
   23:28:46.905.27-Apr-2021 3418.01 3572.73 73.48 6.00 292.28 2727.14
   23:28:47.105.27-Apr-2021 3418.01 3572.73 73.47 6.00 292.48 2727.14
   23:28:47.305.27-Apr-2021 3418.01 3572.57 73.47 6.00 292.68 2727.14
   23:28:47.505.27-Apr-2021 3418.01 3572.84 73.47 6.00 292.88 2727.14
   23:28:47.705.27-Apr-2021 3418.01 3572.79 73.47 6.00 293.08 2727.14
   23:28:47.905.27-Apr-2021 3418.01 3572.79 73.47 6.00 293.28 2727.14
   23:28:48.105.27-Apr-2021 3418.01 3572.71 73.47 6.00 293.48 2727.14
   23:28:48.305.27-Apr-2021 3418.01 3572.77 73.47 6.00 293.68 2727.14
   23:28:48.505.27-Apr-2021 3418.01 3572.74 73.47 6.00 293.88 2727.14
   23:28:48.705.27-Apr-2021 3418.01 3572.74 73.47 6.00 294.08 2727.14
   23:28:48.905.27-Apr-2021 3418.01 3572.74 73.47 6.00 294.28 2727.14
   23:28:49.105.27-Apr-2021 3418.01 3572.74 73.47 6.00 294.48 2727.14
   23:28:49.305.27-Apr-2021 3418.01 3572.74 73.47 6.00 294.68 2727.14
   23:28:49.505.27-Apr-2021 3418.01 3572.72 73.47 6.00 294.88 2727.14
   23:28:49.705.27-Apr-2021 3418.01 3572.74 73.47 6.00 295.08 2727.14
   23:28:49.906.27-Apr-2021 3418.01 3572.74 73.47 6.00 295.28 2727.14
   23:28:50.106.27-Apr-2021 3418.01 3572.76 73.47 6.00 295.48 2727.14
   23:28:50.306.27-Apr-2021 3418.01 3572.76 73.47 6.00 295.68 2727.14
   23:28:50.506.27-Apr-2021 3418.01 3572.77 73.47 6.00 295.88 2727.14
   23:28:50.706.27-Apr-2021 3418.01 3572.75 73.47 6.00 296.08 2727.14
   23:28:50.906.27-Apr-2021 3418.01 3572.75 73.47 6.00 296.28 2727.14
   23:28:51.106.27-Apr-2021 3418.01 3572.61 73.47 6.00 296.48 2727.14
   23:28:51.306.27-Apr-2021 3418.01 3572.80 73.47 6.00 296.68 2727.14
   23:28:51.506.27-Apr-2021 3418.01 3572.77 73.47 6.00 296.88 2727.14
   23:28:51.706.27-Apr-2021 3418.01 3572.75 73.47 6.00 297.08 2727.14
   23:28:51.906.27-Apr-2021 3418.01 3572.75 73.47 6.00 297.28 2727.14
   23:28:52.106.27-Apr-2021 3418.01 3572.78 73.46 6.00 297.48 2727.14
   23:28:52.306.27-Apr-2021 3418.01 3572.71 73.46 6.00 297.68 2727.14
   23:28:52.506.27-Apr-2021 3418.01 3572.66 73.46 6.00 297.88 2727.14
   23:28:52.706.27-Apr-2021 3418.01 3572.79 73.46 6.00 298.08 2727.14
   23:28:52.906.27-Apr-2021 3418.01 3572.79 73.46 6.00 298.28 2727.14
   23:28:53.106.27-Apr-2021 3418.01 3572.74 73.46 6.00 298.48 2727.14
   23:28:53.306.27-Apr-2021 3418.01 3572.77 73.46 6.00 298.68 2727.14
   23:28:53.506.27-Apr-2021 3418.01 3572.68 73.46 6.00 298.88 2727.14
