~Version Information
 VERS.                  2.0:   CWLS log ASCII Standard -VERSION 2.0
 WRAP.                   NO:   One line per depth step
~Well Information Block
#MNEM.UNIT     VALUE/NAME     DESCRIPTION
#---------     -----------    ---------------------------
 STRT.S             06:42:00 27-Apr-21: START TIME 06:42:00 27-Apr-21
 STOP.S             06:48:27 27-Apr-21: STOP TIME  06:48:27 27-Apr-21
 STEP.S                   0.00: STEP TIME
 NULL.                 -999.25: NULL VALUE
 DFWT.                        :  DIST FWL TEXT
 DFST.                        :  DIST FSL TEXT
 DMF .             Drill Floor:  DRILL MEAS FROM
 STIM.      02.00.00 12-Apr-21:  START TIME
 DATE.      02.00.00 02-May-21:  END TIME
 SPUD.               09-Apr-21:  SPUD DATE
 NREF.                    Grid:  NORTH REFERENCE
 HPTY.       Minimum Curvature:  HOLE POS TYPE
 DMOD.             Drill Model:  DRILL MOD DESC
 SVYD.                  Survey:  SURVEY DESC
 ILTD.               Lithology:  INTERP LTH DESC
 FTOP.          Formation Tops:  FORM TOPS DESC
 PDAT.          Mean Sea Level:  PERMANENT DATUM
 FLD .                     ACG:  FIELD NAME
 SON .        AZ-XX-0907021034:  JOB NUMBER
 CTRY.              Azerbaijan:  COUNTRY NAME
 WELL.                    E01x:  WELL NAME
 COMP.     BP Exploration (Caspian Sea) LTD.:  COMPANY
 UWI .            /AZE00001403:  UNIQUE WELL IDENTIFIER
 API .            /AZE00001403:  API NUMBER
 WTYP.                Deviated:  WELL TYPE
 MDS .        Operator Entered:  MAG DATA SOURCE
 BASE.              Azerbaijan:  LOGGING EQUIPMENT BASE LOCATION
 REGN.                   EESSA:  REGION
 PROV.                    Baku:  PROVINCE
 STAT.                    Baku:  STATE NAME
 SRVC.          Turan Drilling:  CONTRACTOR
 MWDS.                    Baku:  MWD SHOP
 JOBN.        AZ-XX-0907021034:  JOB TICKET NUMB
 RIG .                     DWG:  RIG NAME
 DOE .                     N/A:  DOE NUMBER
 DCON.         Sperry Drilling:  DIRECTNL CONTR
 UNIT.                     N/A:  LOGGING EQUIPMENT ID
 CNTY.                        :  COUNTY
 LOC .                        :  LOCATION
 LMF .             Drill Floor:  LOG MEASURED FROM
 TVDS.m                  43.16:  TVDSS CORRECTN
 LATI.deg                40.17:  LATITUDE
 LONG.deg                51.17:  LONGITUDE
 WHNS.m                  -5.90:  WELL HEAD N/S
 WHEW.m                  -6.61:  WELL HEAD E/W
 UTMX.m              514337.95:  UTM X
 UTMY.m             4448627.46:  UTM Y
 DFWL.m                   0.00:  DISTANCE FWL
 DFSL.m                   0.00:  DISTANCE FSL
 SDEP.m                2606.87:  START DEPTH
 TDD .m                3618.01:  TOTAL DEPTH (DRILLER)
 VSDR.deg               177.42:  VERT SEC DIRECT
 GVFD.g                   1.00:  GRAVITY FIELD
 MFLD.nT              50399.00:  MAGNETIC FIELD
 MDIP.deg                59.67:  MAGNETIC DIP
 MDEC.deg                 6.56:  MAGNETIC DECL
 GRDC.deg                 0.11:  GRID CORRECTION
 AZTC.deg                 6.45:  AZM TOTAL CORR
 EPD .m                   0.00:  ELEVATION
 EGL .m                   0.00:  GROUND ELEVATION
 WDMS.m                 176.20:  WD ELEV
 APD .m                  43.16:  DEPTH ABOVE PD
 DEP .m                2606.87:  DEPTH
 AGAP.m                  43.16:  AIR GAP
 VSEW.m                  -6.61:  VERT SEC E/W
 VSNS.m                  -5.90:  VERT SEC N/S
 EKB .m                  43.16:  KB ELEVATION
 EDF .m                  43.16:  DF ELEVATION
 TDL .m                 438.00:  TOTAL DEPTH (LOGGER)
 VSC .                       0:  VS TO CLOSURE
 MAGU.                 1855490:  MAGUTM CHECKSUM
~Parameter Information Block
#MNEM.UNIT       Value        Description
#---------     -----------    ---------------------------
 AV  .mps                 2.20:  Ann Velocity 
 AVMX.mps                 2.50:  Max Ann Veloc 
 AZIF.deg               150.21:  Azm, Final 
 BHAT.        Rotary Steerable:  BHA Type 
 BROT.°/30m               0.08:  Build Rotating 
 BS  .in                  6.50:  Bit Size 
 BSZ .in                  6.50:  Bit Size 
 BTPL.psig              108.00:  Bit Press Loss 
 CABU.                     Yes:  Customer Abuse 
 CGEO.           Emin Aliyarli:  Customer Geo 
 COMM.                     )M:  Run Comments 1 
 TCS .hr                 74.20:  Time Ciculation Ended 
 CV  .mps                 3.63:  Crit Velocity 
 CVMX.mps                 3.66:  Max Crit Veloc 
 DD1 .         Intigam Rahimov:  Direct Drillr 1 
 DD2 .          Teymur Aghayev:  Direct Drillr 2 
 DDSV.               Geo-Pilot:  DD Service 
 DEFF.%                  97.00:  % Det Eff 
 DLRX.°/30m               1.63:  Dogleg Rot Max 
 DLSO.°/30m               0.00:  Dogleg Oriented 
 DLSX.°/30m               0.00:  Dogleg Str Max 
 DRET.      20.20.00 28-Apr-21:  Drill End Time 
 DRST.      04.45.00 26-Apr-21:  Drill Start Tim 
 DTIM.hr                 34.30:  Time Drilling 
 EDEP.m                3618.01:  End Depth 
 ENG1.           Amrah Tahirov:  Engineer 1 
 ENG2.         Bahruz Mehdiyev:  Engineer 2 
 ENG3.         Farhad Orujzade:  Engineer 3 
 ETIM.      19.00.00 29-Apr-21:  End Time 
 FLOI.gpm               370.00:  Flow In 
 FLON.gpm               300.00:  Flow In Min 
 FLOS.cptm                0.00:  Fluid Loss 
 FLOX.gpm               410.00:  Flow In Max 
 HFLO.                      No:  High Flow 
 HPRE.                      No:  High Pressure 
 HTEM.                      No:  High Temp 
 HYDO.m                   1.80:  Hydro Offset 
 IFIN.deg                67.19:  Inc, Final 
 IMAX.deg                68.42:  Inc Max 
 IMIN.deg                66.33:  Inc Min 
 IMND.m                3532.79:  Inc Min Depth 
 IMXD.m                3192.15:  Inc Max Depth 
 JARR.                      No:  Jarring 
 LETM.      20.20.00 28-Apr-21:  Log End Time 
 LOST.hr                     0:  Lost Rig Time 
 LSTM.      04.45.00 26-Apr-21:  Log Start Time 
 MDCL.ppm             36500.00:  Mud Chlorides 
 MDES.     Inversion Oil/Synthetic:  Mud Desc 
 DFD .sg                  1.42:  Mud Density 
 MDMN.sg                  1.42:  Dens Mud Min 
 MDMX.sg                  1.42:  Dens Mud Max 
 MOIL.                    55.7:  Run Mud Oil % 
 MOWR.                   71:29:  Run Mud OWR 
 MSND.                     0.1:  Run Mud Sand % 
 MSOL.                    19.9:  Run Mud Solids% 
 DFV .spqt               83.00:  Mud Viscosity 
 MWOD.in                  5.15:  MWD Tool OD 
 MWSI.                      No:  Serv Intrp, MWD 
 OTIM.hr                120.59:  Time Operating 
 PCON.           Look Like New:  Pad Condition 
 PMAX.psia            11292.93:  Press Op, Max 
 PV  .cP                 27.00:  Mud PV 
 RUN .                     400:  Run Number 
 ROPA.m/hr               14.00:  ROP Avg 
 ROPN.m/hr                9.00:  ROP Min 
 ROPX.m/hr               18.00:  ROP Max 
 RPMA.rpm               130.00:  RPM Surface Avg 
 RPMN.rpm               100.00:  RPM Surface Min 
 RPMX.rpm               140.00:  RPM Surface Max 
 RRUN.                    0400:  Rig Run Number 
 RTIM.hr                 38.60:  Time Reaming 
 SAZI.deg               149.55:  Azm, Start 
 SDEP.m                3180.01:  Start Depth 
 SIDD.                      No:  Serv Intrp, DD 
 SINC.deg                68.42:  Inc, Start 
 SPPA.psig             4400.00:  SPP Avg 
 SPPN.psig             3580.00:  SPP Min 
 SPPX.psig             4850.00:  SPP Max 
 STIM.      12.30.00 24-Apr-21:  Start Time 
 SVCS.                 DD, MWD:  Services 
 SVER.                    9.20:  Sperry Version 
 TDAT.m                 438.00:  Tot Depth Attmp 
 TDDF.                      No:  Trip for DD 
 TDLG.m                 438.00:  Tot Depth Loggd 
 TFF .                      No:  Trip for Fail 
 TQAA.f-kp               11.00:  Torque Abs Avg 
 TQAN.f-kp                9.00:  Torque Abs Min 
 TQAX.f-kp               14.00:  Torque Abs Max 
 TRRT.°/30m               0.04:  Turn Rotating 
 MRT .                    HCIM:  Maximum Recorded Temperature 
 TTMX.degC               84.31:  Max Tool Temp 
 VS01.                90521954:  Virtual Str1 SN 
 VS02.                90519327:  Virtual Str2 SN 
 VS03.                90522273:  Virtual Str3 SN 
 VS04.                11108038:  Virtual Str4 SN 
 VS05.                12258760:  Virtual Str5 SN 
 WBMN.klb                 1.00:  WOB Min 
 WITN.           Adil Mammadov:  Customer Rep 
 WITN.         Alex Yadullayev:  Customer Rep 2 
 WOBA.klb                 6.00:  WOB Avg 
 WOBX.klb                 9.00:  WOB Max 
 YP  .lhf2               31.00:  Yield Point 
~Curve Information Block
#MNEM.UNIT                 API CODE     Curve Description
#---------               -----------    ---------------------------
 TIME.HHMMSS            00 000 000 000:  GT Time & Date
 GTDEPTH.m              00 000 000 000:  GT Depth
 GTPQH.psia             00 000 000 000:  GT HR Quartz Pressure
 GTTQ.degC              00 000 000 000:  GT Quartz Temperature
 GTTN.NONE              00 000 000 000:  GT Test Number
 GTET.sec               00 000 000 000:  GT Elapsed Test Time
 GTTVD.m                00 000 000 000:  GT True Vertical Depth
#Other Information
#
#WARRANTY: Halliburton will use its best efforts to furnish customers with 
#accurate information and interpretations that are part of, and incident to, the services 
#provided.  However, Halliburton cannot and does not warrant the accuracy 
#or correctness of such information and interpretations.  Under no circumstances should any 
#such information or interpretation be relied upon as the sole basis for any drilling, 
#completion, production, or financial decision or any procedure involving any risk to the 
#safety of any drilling venture, drilling rig or its crew or any other third party.  The 
#Customer has full responsibility for all drilling, completion and production operation.  
#Halliburton makes no representations or warranties, either expressed or 
#implied, including, but not limited to, the implied warranties of merchantability or fitness 
#for a particular purpose, with respect to the services rendered.  In no event will 
#Halliburton be liable for failure to obtain any particular results or for 
#any damages, including, but not limited to, indirect, special or consequential damages, 
#resulting from the use of any information or interpretation provided by Halliburton.
#
~A           TIME           GTDEPTH  GTPQH  GTTQ  GTTN  GTET   GTTVD  
   06:42:00.857.27-Apr-2021 3278.01 5852.19 74.42 4.00   0.00 2671.88
   06:42:01.057.27-Apr-2021 3278.01 5852.19 74.42 4.00   0.20 2671.88
   06:42:01.257.27-Apr-2021 3278.01 5856.89 74.42 4.00   0.40 2671.88
   06:42:01.457.27-Apr-2021 3278.01 5852.33 74.41 4.00   0.60 2671.88
   06:42:01.657.27-Apr-2021 3278.01 5852.63 74.41 4.00   0.80 2671.88
   06:42:01.857.27-Apr-2021 3278.01 5850.79 74.41 4.00   1.00 2671.88
   06:42:02.057.27-Apr-2021 3278.01 5850.79 74.41 4.00   1.20 2671.88
   06:42:02.257.27-Apr-2021 3278.01 5856.44 74.41 4.00   1.40 2671.88
   06:42:02.457.27-Apr-2021 3278.01 5856.19 74.41 4.00   1.60 2671.88
   06:42:02.657.27-Apr-2021 3278.01 5855.33 74.41 4.00   1.80 2671.88
   06:42:02.857.27-Apr-2021 3278.01 5854.58 74.41 4.00   2.00 2671.88
   06:42:03.057.27-Apr-2021 3278.01 5854.58 74.41 4.00   2.20 2671.88
   06:42:03.257.27-Apr-2021 3278.01 5853.17 74.41 4.00   2.40 2671.88
   06:42:03.457.27-Apr-2021 3278.01 5849.68 74.41 4.00   2.60 2671.88
   06:42:03.657.27-Apr-2021 3278.01 5855.98 74.41 4.00   2.80 2671.88
   06:42:03.857.27-Apr-2021 3278.01 5854.96 74.41 4.00   3.00 2671.88
   06:42:04.057.27-Apr-2021 3278.01 5854.96 74.41 4.00   3.20 2671.88
   06:42:04.257.27-Apr-2021 3278.01 5856.23 74.40 4.00   3.40 2671.88
   06:42:04.457.27-Apr-2021 3278.01 5857.44 74.40 4.00   3.60 2671.88
   06:42:04.657.27-Apr-2021 3278.01 5845.81 74.40 4.00   3.80 2671.88
   06:42:04.857.27-Apr-2021 3278.01 5857.63 74.40 4.00   4.00 2671.88
   06:42:05.057.27-Apr-2021 3278.01 5857.63 74.40 4.00   4.20 2671.88
   06:42:05.257.27-Apr-2021 3278.01 5857.43 74.40 4.00   4.40 2671.88
   06:42:05.457.27-Apr-2021 3278.01 5857.76 74.40 4.00   4.60 2671.88
   06:42:05.657.27-Apr-2021 3278.01 5859.04 74.40 4.00   4.80 2671.88
   06:42:05.858.27-Apr-2021 3278.01 5856.68 74.40 4.00   5.00 2671.88
   06:42:06.058.27-Apr-2021 3278.01 5856.68 74.40 4.00   5.20 2671.88
   06:42:06.258.27-Apr-2021 3278.01 5860.01 74.40 4.00   5.40 2671.88
   06:42:06.458.27-Apr-2021 3278.01 5860.80 74.40 4.00   5.60 2671.88
   06:42:06.658.27-Apr-2021 3278.01 5859.66 74.40 4.00   5.80 2671.88
   06:42:06.858.27-Apr-2021 3278.01 5859.21 74.39 4.00   6.00 2671.88
   06:42:07.058.27-Apr-2021 3278.01 5859.21 74.39 4.00   6.20 2671.88
   06:42:07.258.27-Apr-2021 3278.01 5857.22 74.39 4.00   6.40 2671.88
   06:42:07.458.27-Apr-2021 3278.01 5856.83 74.39 4.00   6.60 2671.88
   06:42:07.658.27-Apr-2021 3278.01 5846.12 74.39 4.00   6.80 2671.88
   06:42:07.858.27-Apr-2021 3278.01 5853.86 74.39 4.00   7.00 2671.88
   06:42:08.058.27-Apr-2021 3278.01 5853.86 74.39 4.00   7.20 2671.88
   06:42:08.258.27-Apr-2021 3278.01 5853.86 74.39 4.00   7.40 2671.88
   06:42:08.458.27-Apr-2021 3278.01 5857.24 74.39 4.00   7.60 2671.88
   06:42:08.658.27-Apr-2021 3278.01 5858.42 74.39 4.00   7.80 2671.88
   06:42:08.858.27-Apr-2021 3278.01 5856.72 74.39 4.00   8.00 2671.88
   06:42:09.058.27-Apr-2021 3278.01 5856.72 74.39 4.00   8.20 2671.88
   06:42:09.258.27-Apr-2021 3278.01 5859.60 74.39 4.00   8.40 2671.88
   06:42:09.458.27-Apr-2021 3278.01 5860.72 74.38 4.00   8.60 2671.88
   06:42:09.658.27-Apr-2021 3278.01 5858.84 74.38 4.00   8.80 2671.88
   06:42:09.858.27-Apr-2021 3278.01 5859.74 74.38 4.00   9.00 2671.88
   06:42:10.058.27-Apr-2021 3278.01 5859.74 74.38 4.00   9.20 2671.88
   06:42:10.258.27-Apr-2021 3278.01 5859.45 74.38 4.00   9.40 2671.88
   06:42:10.458.27-Apr-2021 3278.01 5857.55 74.38 4.00   9.60 2671.88
   06:42:10.658.27-Apr-2021 3278.01 5858.81 74.38 4.00   9.80 2671.88
   06:42:10.858.27-Apr-2021 3278.01 5849.06 74.38 4.00  10.00 2671.88
   06:42:11.058.27-Apr-2021 3278.01 5849.06 74.38 4.00  10.20 2671.88
   06:42:11.258.27-Apr-2021 3278.01 5856.04 74.38 4.00  10.40 2671.88
   06:42:11.458.27-Apr-2021 3278.01 5856.32 74.38 4.00  10.60 2671.88
   06:42:11.658.27-Apr-2021 3278.01 5851.80 74.38 4.00  10.80 2671.88
   06:42:11.858.27-Apr-2021 3278.01 5824.54 74.38 4.00  11.00 2671.88
   06:42:12.058.27-Apr-2021 3278.01 5824.54 74.38 4.00  11.20 2671.88
   06:42:12.258.27-Apr-2021 3278.01 5802.18 74.37 4.00  11.40 2671.88
   06:42:12.458.27-Apr-2021 3278.01 5800.62 74.37 4.00  11.60 2671.88
   06:42:12.658.27-Apr-2021 3278.01 5780.04 74.37 4.00  11.80 2671.88
   06:42:12.858.27-Apr-2021 3278.01 5787.69 74.37 4.00  12.00 2671.88
   06:42:13.058.27-Apr-2021 3278.01 5787.69 74.37 4.00  12.20 2671.88
   06:42:13.258.27-Apr-2021 3278.01 5762.09 74.37 4.00  12.40 2671.88
   06:42:13.458.27-Apr-2021 3278.01 5772.52 74.37 4.00  12.60 2671.88
   06:42:13.658.27-Apr-2021 3278.01 5732.94 74.37 4.00  12.80 2671.88
   06:42:13.858.27-Apr-2021 3278.01 5654.84 74.37 4.00  13.00 2671.88
   06:42:14.058.27-Apr-2021 3278.01 5654.84 74.37 4.00  13.20 2671.88
   06:42:14.258.27-Apr-2021 3278.01 5512.99 74.37 4.00  13.40 2671.88
   06:42:14.458.27-Apr-2021 3278.01 5421.95 74.37 4.00  13.60 2671.88
   06:42:14.658.27-Apr-2021 3278.01 5329.70 74.37 4.00  13.80 2671.88
   06:42:14.858.27-Apr-2021 3278.01 5257.04 74.36 4.00  14.00 2671.88
   06:42:15.058.27-Apr-2021 3278.01 5257.04 74.36 4.00  14.20 2671.88
   06:42:15.258.27-Apr-2021 3278.01 5040.90 74.36 4.00  14.40 2671.88
   06:42:15.458.27-Apr-2021 3278.01 4925.30 74.36 4.00  14.60 2671.88
   06:42:15.658.27-Apr-2021 3278.01 4885.00 74.36 4.00  14.80 2671.88
   06:42:15.858.27-Apr-2021 3278.01 4799.25 74.36 4.00  15.00 2671.88
   06:42:16.058.27-Apr-2021 3278.01 4799.25 74.36 4.00  15.20 2671.88
   06:42:16.258.27-Apr-2021 3278.01 4631.57 74.36 4.00  15.40 2671.88
   06:42:16.458.27-Apr-2021 3278.01 4572.32 74.36 4.00  15.60 2671.88
   06:42:16.658.27-Apr-2021 3278.01 4491.76 74.36 4.00  15.80 2671.88
   06:42:16.858.27-Apr-2021 3278.01 4465.67 74.36 4.00  16.00 2671.88
   06:42:17.058.27-Apr-2021 3278.01 4465.67 74.36 4.00  16.20 2671.88
   06:42:17.258.27-Apr-2021 3278.01 4352.68 74.35 4.00  16.40 2671.88
   06:42:17.458.27-Apr-2021 3278.01 4337.15 74.35 4.00  16.60 2671.88
   06:42:17.659.27-Apr-2021 3278.01 4360.74 74.35 4.00  16.80 2671.88
   06:42:17.859.27-Apr-2021 3278.01 4413.68 74.35 4.00  17.00 2671.88
   06:42:18.059.27-Apr-2021 3278.01 4413.68 74.35 4.00  17.20 2671.88
   06:42:18.259.27-Apr-2021 3278.01 4419.78 74.35 4.00  17.40 2671.88
   06:42:18.459.27-Apr-2021 3278.01 4399.48 74.35 4.00  17.60 2671.88
   06:42:18.659.27-Apr-2021 3278.01 4383.51 74.35 4.00  17.80 2671.88
   06:42:18.859.27-Apr-2021 3278.01 4431.67 74.34 4.00  18.00 2671.88
   06:42:19.059.27-Apr-2021 3278.01 4431.67 74.34 4.00  18.20 2671.88
   06:42:19.259.27-Apr-2021 3278.01 5924.11 74.34 4.00  18.40 2671.88
   06:42:19.459.27-Apr-2021 3278.01 6595.10 74.34 4.00  18.60 2671.88
   06:42:19.659.27-Apr-2021 3278.01 6679.13 74.34 4.00  18.80 2671.88
   06:42:19.859.27-Apr-2021 3278.01 6603.41 74.34 4.00  19.00 2671.88
   06:42:20.059.27-Apr-2021 3278.01 6603.41 74.34 4.00  19.20 2671.88
   06:42:20.259.27-Apr-2021 3278.01 6556.43 74.34 4.00  19.40 2671.88
   06:42:20.459.27-Apr-2021 3278.01 6734.61 74.34 4.00  19.60 2671.88
   06:42:20.659.27-Apr-2021 3278.01 6603.40 74.34 4.00  19.80 2671.88
   06:42:20.859.27-Apr-2021 3278.01 6683.00 74.34 4.00  20.00 2671.88
   06:42:21.059.27-Apr-2021 3278.01 6683.00 74.34 4.00  20.20 2671.88
   06:42:21.259.27-Apr-2021 3278.01 6376.91 74.33 4.00  20.40 2671.88
   06:42:21.459.27-Apr-2021 3278.01 6360.04 74.33 4.00  20.60 2671.88
   06:42:21.659.27-Apr-2021 3278.01 6391.73 74.33 4.00  20.80 2671.88
   06:42:21.859.27-Apr-2021 3278.01 6404.95 74.33 4.00  21.00 2671.88
   06:42:22.059.27-Apr-2021 3278.01 6404.95 74.33 4.00  21.20 2671.88
   06:42:22.259.27-Apr-2021 3278.01 6428.28 74.33 4.00  21.40 2671.88
   06:42:22.459.27-Apr-2021 3278.01 6436.21 74.33 4.00  21.60 2671.88
   06:42:22.659.27-Apr-2021 3278.01 6442.93 74.33 4.00  21.80 2671.88
   06:42:22.859.27-Apr-2021 3278.01 6446.09 74.33 4.00  22.00 2671.88
   06:42:23.059.27-Apr-2021 3278.01 6446.09 74.33 4.00  22.20 2671.88
   06:42:23.259.27-Apr-2021 3278.01 6455.18 74.33 4.00  22.40 2671.88
   06:42:23.459.27-Apr-2021 3278.01 6458.80 74.33 4.00  22.60 2671.88
   06:42:23.659.27-Apr-2021 3278.01 6462.79 74.33 4.00  22.80 2671.88
