~Version Information
 VERS.                  2.0:   CWLS log ASCII Standard -VERSION 2.0
 WRAP.                   NO:   One line per depth step
~Well Information Block
#MNEM.UNIT     VALUE/NAME     DESCRIPTION
#---------     -----------    ---------------------------
 STRT.S             23:23:54 27-Apr-21: START TIME 23:23:54 27-Apr-21
 STOP.S             23:30:22 27-Apr-21: STOP TIME  23:30:22 27-Apr-21
 STEP.S                   0.00: STEP TIME
 NULL.                 -999.25: NULL VALUE
 DFWT.                        :  DIST FWL TEXT
 DFST.                        :  DIST FSL TEXT
 DMF .             Drill Floor:  DRILL MEAS FROM
 STIM.      02.00.00 12-Apr-21:  START TIME
 DATE.      02.00.00 02-May-21:  END TIME
 SPUD.               09-Apr-21:  SPUD DATE
 NREF.                    Grid:  NORTH REFERENCE
 HPTY.       Minimum Curvature:  HOLE POS TYPE
 DMOD.             Drill Model:  DRILL MOD DESC
 SVYD.                  Survey:  SURVEY DESC
 ILTD.               Lithology:  INTERP LTH DESC
 FTOP.          Formation Tops:  FORM TOPS DESC
 PDAT.          Mean Sea Level:  PERMANENT DATUM
 FLD .                     ACG:  FIELD NAME
 SON .        AZ-XX-0907021034:  JOB NUMBER
 CTRY.              Azerbaijan:  COUNTRY NAME
 WELL.                    E01x:  WELL NAME
 COMP.     BP Exploration (Caspian Sea) LTD.:  COMPANY
 UWI .            /AZE00001403:  UNIQUE WELL IDENTIFIER
 API .            /AZE00001403:  API NUMBER
 WTYP.                Deviated:  WELL TYPE
 MDS .        Operator Entered:  MAG DATA SOURCE
 BASE.              Azerbaijan:  LOGGING EQUIPMENT BASE LOCATION
 REGN.                   EESSA:  REGION
 PROV.                    Baku:  PROVINCE
 STAT.                    Baku:  STATE NAME
 SRVC.          Turan Drilling:  CONTRACTOR
 MWDS.                    Baku:  MWD SHOP
 JOBN.        AZ-XX-0907021034:  JOB TICKET NUMB
 RIG .                     DWG:  RIG NAME
 DOE .                     N/A:  DOE NUMBER
 DCON.         Sperry Drilling:  DIRECTNL CONTR
 UNIT.                     N/A:  LOGGING EQUIPMENT ID
 CNTY.                        :  COUNTY
 LOC .                        :  LOCATION
 LMF .             Drill Floor:  LOG MEASURED FROM
 TVDS.m                  43.16:  TVDSS CORRECTN
 LATI.deg                40.17:  LATITUDE
 LONG.deg                51.17:  LONGITUDE
 WHNS.m                  -5.90:  WELL HEAD N/S
 WHEW.m                  -6.61:  WELL HEAD E/W
 UTMX.m              514337.95:  UTM X
 UTMY.m             4448627.46:  UTM Y
 DFWL.m                   0.00:  DISTANCE FWL
 DFSL.m                   0.00:  DISTANCE FSL
 SDEP.m                2606.87:  START DEPTH
 TDD .m                3618.01:  TOTAL DEPTH (DRILLER)
 VSDR.deg               177.42:  VERT SEC DIRECT
 GVFD.g                   1.00:  GRAVITY FIELD
 MFLD.nT              50399.00:  MAGNETIC FIELD
 MDIP.deg                59.67:  MAGNETIC DIP
 MDEC.deg                 6.56:  MAGNETIC DECL
 GRDC.deg                 0.11:  GRID CORRECTION
 AZTC.deg                 6.45:  AZM TOTAL CORR
 EPD .m                   0.00:  ELEVATION
 EGL .m                   0.00:  GROUND ELEVATION
 WDMS.m                 176.20:  WD ELEV
 APD .m                  43.16:  DEPTH ABOVE PD
 DEP .m                2606.87:  DEPTH
 AGAP.m                  43.16:  AIR GAP
 VSEW.m                  -6.61:  VERT SEC E/W
 VSNS.m                  -5.90:  VERT SEC N/S
 EKB .m                  43.16:  KB ELEVATION
 EDF .m                  43.16:  DF ELEVATION
 TDL .m                 438.00:  TOTAL DEPTH (LOGGER)
 VSC .                       0:  VS TO CLOSURE
 MAGU.                 1855490:  MAGUTM CHECKSUM
~Parameter Information Block
#MNEM.UNIT       Value        Description
#---------     -----------    ---------------------------
 AV  .mps                 2.20:  Ann Velocity 
 AVMX.mps                 2.50:  Max Ann Veloc 
 AZIF.deg               150.21:  Azm, Final 
 BHAT.        Rotary Steerable:  BHA Type 
 BROT.°/30m               0.08:  Build Rotating 
 BS  .in                  6.50:  Bit Size 
 BSZ .in                  6.50:  Bit Size 
 BTPL.psig              108.00:  Bit Press Loss 
 CABU.                     Yes:  Customer Abuse 
 CGEO.           Emin Aliyarli:  Customer Geo 
 COMM.                     HO:  Run Comments 1 
 TCS .hr                 74.20:  Time Ciculation Ended 
 CV  .mps                 3.63:  Crit Velocity 
 CVMX.mps                 3.66:  Max Crit Veloc 
 DD1 .         Intigam Rahimov:  Direct Drillr 1 
 DD2 .          Teymur Aghayev:  Direct Drillr 2 
 DDSV.               Geo-Pilot:  DD Service 
 DEFF.%                  97.00:  % Det Eff 
 DLRX.°/30m               1.63:  Dogleg Rot Max 
 DLSO.°/30m               0.00:  Dogleg Oriented 
 DLSX.°/30m               0.00:  Dogleg Str Max 
 DRET.      20.20.00 28-Apr-21:  Drill End Time 
 DRST.      04.45.00 26-Apr-21:  Drill Start Tim 
 DTIM.hr                 34.30:  Time Drilling 
 EDEP.m                3618.01:  End Depth 
 ENG1.           Amrah Tahirov:  Engineer 1 
 ENG2.         Bahruz Mehdiyev:  Engineer 2 
 ENG3.         Farhad Orujzade:  Engineer 3 
 ETIM.      19.00.00 29-Apr-21:  End Time 
 FLOI.gpm               370.00:  Flow In 
 FLON.gpm               300.00:  Flow In Min 
 FLOS.cptm                0.00:  Fluid Loss 
 FLOX.gpm               410.00:  Flow In Max 
 HFLO.                      No:  High Flow 
 HPRE.                      No:  High Pressure 
 HTEM.                      No:  High Temp 
 HYDO.m                   1.80:  Hydro Offset 
 IFIN.deg                67.19:  Inc, Final 
 IMAX.deg                68.42:  Inc Max 
 IMIN.deg                66.33:  Inc Min 
 IMND.m                3532.79:  Inc Min Depth 
 IMXD.m                3192.15:  Inc Max Depth 
 JARR.                      No:  Jarring 
 LETM.      20.20.00 28-Apr-21:  Log End Time 
 LOST.hr                     0:  Lost Rig Time 
 LSTM.      04.45.00 26-Apr-21:  Log Start Time 
 MDCL.ppm             36500.00:  Mud Chlorides 
 MDES.     Inversion Oil/Synthetic:  Mud Desc 
 DFD .sg                  1.42:  Mud Density 
 MDMN.sg                  1.42:  Dens Mud Min 
 MDMX.sg                  1.42:  Dens Mud Max 
 MOIL.                    55.7:  Run Mud Oil % 
 MOWR.                   71:29:  Run Mud OWR 
 MSND.                     0.1:  Run Mud Sand % 
 MSOL.                    19.9:  Run Mud Solids% 
 DFV .spqt               83.00:  Mud Viscosity 
 MWOD.in                  5.15:  MWD Tool OD 
 MWSI.                      No:  Serv Intrp, MWD 
 OTIM.hr                120.59:  Time Operating 
 PCON.           Look Like New:  Pad Condition 
 PMAX.psia            11292.93:  Press Op, Max 
 PV  .cP                 27.00:  Mud PV 
 RUN .                     400:  Run Number 
 ROPA.m/hr               14.00:  ROP Avg 
 ROPN.m/hr                9.00:  ROP Min 
 ROPX.m/hr               18.00:  ROP Max 
 RPMA.rpm               130.00:  RPM Surface Avg 
 RPMN.rpm               100.00:  RPM Surface Min 
 RPMX.rpm               140.00:  RPM Surface Max 
 RRUN.                    0400:  Rig Run Number 
 RTIM.hr                 38.60:  Time Reaming 
 SAZI.deg               149.55:  Azm, Start 
 SDEP.m                3180.01:  Start Depth 
 SIDD.                      No:  Serv Intrp, DD 
 SINC.deg                68.42:  Inc, Start 
 SPPA.psig             4400.00:  SPP Avg 
 SPPN.psig             3580.00:  SPP Min 
 SPPX.psig             4850.00:  SPP Max 
 STIM.      12.30.00 24-Apr-21:  Start Time 
 SVCS.                 DD, MWD:  Services 
 SVER.                    9.20:  Sperry Version 
 TDAT.m                 438.00:  Tot Depth Attmp 
 TDDF.                      No:  Trip for DD 
 TDLG.m                 438.00:  Tot Depth Loggd 
 TFF .                      No:  Trip for Fail 
 TQAA.f-kp               11.00:  Torque Abs Avg 
 TQAN.f-kp                9.00:  Torque Abs Min 
 TQAX.f-kp               14.00:  Torque Abs Max 
 TRRT.°/30m               0.04:  Turn Rotating 
 MRT .                    HCIM:  Maximum Recorded Temperature 
 TTMX.degC               84.31:  Max Tool Temp 
 VS01.                90521954:  Virtual Str1 SN 
 VS02.                90519327:  Virtual Str2 SN 
 VS03.                90522273:  Virtual Str3 SN 
 VS04.                11108038:  Virtual Str4 SN 
 VS05.                12258760:  Virtual Str5 SN 
 WBMN.klb                 1.00:  WOB Min 
 WITN.           Adil Mammadov:  Customer Rep 
 WITN.         Alex Yadullayev:  Customer Rep 2 
 WOBA.klb                 6.00:  WOB Avg 
 WOBX.klb                 9.00:  WOB Max 
 YP  .lhf2               31.00:  Yield Point 
~Curve Information Block
#MNEM.UNIT                 API CODE     Curve Description
#---------               -----------    ---------------------------
 TIME.HHMMSS            00 000 000 000:  GT Time & Date
 GTDEPTH.m              00 000 000 000:  GT Depth
 GTPQH.psia             00 000 000 000:  GT HR Quartz Pressure
 GTTQ.degC              00 000 000 000:  GT Quartz Temperature
 GTTN.NONE              00 000 000 000:  GT Test Number
 GTET.sec               00 000 000 000:  GT Elapsed Test Time
 GTTVD.m                00 000 000 000:  GT True Vertical Depth
#Other Information
#
#WARRANTY: Halliburton will use its best efforts to furnish customers with 
#accurate information and interpretations that are part of, and incident to, the services 
#provided.  However, Halliburton cannot and does not warrant the accuracy 
#or correctness of such information and interpretations.  Under no circumstances should any 
#such information or interpretation be relied upon as the sole basis for any drilling, 
#completion, production, or financial decision or any procedure involving any risk to the 
#safety of any drilling venture, drilling rig or its crew or any other third party.  The 
#Customer has full responsibility for all drilling, completion and production operation.  
#Halliburton makes no representations or warranties, either expressed or 
#implied, including, but not limited to, the implied warranties of merchantability or fitness 
#for a particular purpose, with respect to the services rendered.  In no event will 
#Halliburton be liable for failure to obtain any particular results or for 
#any damages, including, but not limited to, indirect, special or consequential damages, 
#resulting from the use of any information or interpretation provided by Halliburton.
#
~A           TIME           GTDEPTH  GTPQH  GTTQ  GTTN  GTET   GTTVD  
# ...
   23:27:21.683.27-Apr-2021 3418.01 3572.94 73.65 6.00 207.05 2727.14
   23:27:21.883.27-Apr-2021 3418.01 3572.94 73.65 6.00 207.25 2727.14
   23:27:22.083.27-Apr-2021 3418.01 3572.90 73.65 6.00 207.45 2727.14
   23:27:22.283.27-Apr-2021 3418.01 3572.83 73.65 6.00 207.65 2727.14
   23:27:22.483.27-Apr-2021 3418.01 3572.95 73.65 6.00 207.85 2727.14
   23:27:22.683.27-Apr-2021 3418.01 3572.95 73.65 6.00 208.05 2727.14
   23:27:22.883.27-Apr-2021 3418.01 3572.95 73.65 6.00 208.25 2727.14
   23:27:23.083.27-Apr-2021 3418.01 3572.93 73.65 6.00 208.45 2727.14
   23:27:23.283.27-Apr-2021 3418.01 3572.86 73.65 6.00 208.65 2727.14
   23:27:23.483.27-Apr-2021 3418.01 3572.86 73.65 6.00 208.85 2727.14
   23:27:23.683.27-Apr-2021 3418.01 3572.93 73.65 6.00 209.05 2727.14
   23:27:23.883.27-Apr-2021 3418.01 3572.93 73.65 6.00 209.25 2727.14
   23:27:24.083.27-Apr-2021 3418.01 3572.94 73.64 6.00 209.45 2727.14
   23:27:24.283.27-Apr-2021 3418.01 3572.94 73.64 6.00 209.65 2727.14
   23:27:24.484.27-Apr-2021 3418.01 3572.91 73.64 6.00 209.85 2727.14
   23:27:24.684.27-Apr-2021 3418.01 3572.92 73.64 6.00 210.05 2727.14
   23:27:24.884.27-Apr-2021 3418.01 3572.92 73.64 6.00 210.25 2727.14
   23:27:25.084.27-Apr-2021 3418.01 3572.91 73.64 6.00 210.45 2727.14
   23:27:25.284.27-Apr-2021 3418.01 3572.90 73.64 6.00 210.65 2727.14
   23:27:25.484.27-Apr-2021 3418.01 3572.91 73.64 6.00 210.85 2727.14
   23:27:25.684.27-Apr-2021 3418.01 3572.87 73.64 6.00 211.05 2727.14
   23:27:25.884.27-Apr-2021 3418.01 3572.87 73.64 6.00 211.25 2727.14
   23:27:26.084.27-Apr-2021 3418.01 3572.70 73.64 6.00 211.45 2727.14
   23:27:26.284.27-Apr-2021 3418.01 3573.00 73.64 6.00 211.65 2727.14
   23:27:26.484.27-Apr-2021 3418.01 3572.92 73.64 6.00 211.85 2727.14
   23:27:26.684.27-Apr-2021 3418.01 3572.88 73.64 6.00 212.05 2727.14
   23:27:26.884.27-Apr-2021 3418.01 3572.88 73.64 6.00 212.25 2727.14
   23:27:27.084.27-Apr-2021 3418.01 3572.92 73.64 6.00 212.45 2727.14
   23:27:27.284.27-Apr-2021 3418.01 3572.89 73.64 6.00 212.65 2727.14
   23:27:27.484.27-Apr-2021 3418.01 3572.90 73.64 6.00 212.85 2727.14
   23:27:27.684.27-Apr-2021 3418.01 3572.90 73.64 6.00 213.05 2727.14
   23:27:27.884.27-Apr-2021 3418.01 3572.90 73.64 6.00 213.25 2727.14
   23:27:28.084.27-Apr-2021 3418.01 3572.89 73.64 6.00 213.45 2727.14
   23:27:28.285.27-Apr-2021 3418.01 3572.88 73.64 6.00 213.66 2727.14
   23:27:28.485.27-Apr-2021 3418.01 3572.90 73.64 6.00 213.86 2727.14
   23:27:28.685.27-Apr-2021 3418.01 3572.87 73.63 6.00 214.06 2727.14
   23:27:28.885.27-Apr-2021 3418.01 3572.87 73.63 6.00 214.26 2727.14
   23:27:29.085.27-Apr-2021 3418.01 3572.97 73.63 6.00 214.46 2727.14
   23:27:29.285.27-Apr-2021 3418.01 3572.93 73.63 6.00 214.66 2727.14
   23:27:29.485.27-Apr-2021 3418.01 3572.87 73.63 6.00 214.86 2727.14
   23:27:29.685.27-Apr-2021 3418.01 3572.92 73.63 6.00 215.06 2727.14
   23:27:29.885.27-Apr-2021 3418.01 3572.92 73.63 6.00 215.26 2727.14
   23:27:30.085.27-Apr-2021 3418.01 3572.79 73.63 6.00 215.46 2727.14
   23:27:30.285.27-Apr-2021 3418.01 3572.92 73.63 6.00 215.66 2727.14
   23:27:30.485.27-Apr-2021 3418.01 3572.94 73.63 6.00 215.86 2727.14
   23:27:30.685.27-Apr-2021 3418.01 3572.88 73.63 6.00 216.06 2727.14
   23:27:30.885.27-Apr-2021 3418.01 3572.88 73.63 6.00 216.26 2727.14
   23:27:31.085.27-Apr-2021 3418.01 3572.88 73.63 6.00 216.46 2727.14
   23:27:31.285.27-Apr-2021 3418.01 3572.72 73.63 6.00 216.66 2727.14
   23:27:31.485.27-Apr-2021 3418.01 3572.99 73.63 6.00 216.86 2727.14
   23:27:31.685.27-Apr-2021 3418.01 3572.92 73.63 6.00 217.06 2727.14
   23:27:31.885.27-Apr-2021 3418.01 3572.92 73.63 6.00 217.26 2727.14
   23:27:32.085.27-Apr-2021 3418.01 3572.88 73.63 6.00 217.46 2727.14
   23:27:32.286.27-Apr-2021 3418.01 3572.89 73.63 6.00 217.66 2727.14
   23:27:32.486.27-Apr-2021 3418.01 3572.71 73.63 6.00 217.86 2727.14
   23:27:32.686.27-Apr-2021 3418.01 3572.99 73.63 6.00 218.06 2727.14
   23:27:32.886.27-Apr-2021 3418.01 3572.99 73.63 6.00 218.26 2727.14
   23:27:33.086.27-Apr-2021 3418.01 3572.88 73.63 6.00 218.46 2727.14
   23:27:33.286.27-Apr-2021 3418.01 3572.93 73.63 6.00 218.66 2727.14
   23:27:33.486.27-Apr-2021 3418.01 3572.88 73.62 6.00 218.86 2727.14
   23:27:33.686.27-Apr-2021 3418.01 3572.90 73.62 6.00 219.06 2727.14
   23:27:33.886.27-Apr-2021 3418.01 3572.90 73.62 6.00 219.26 2727.14
   23:27:34.086.27-Apr-2021 3418.01 3572.87 73.62 6.00 219.46 2727.14
   23:27:34.286.27-Apr-2021 3418.01 3572.89 73.62 6.00 219.66 2727.14
   23:27:34.486.27-Apr-2021 3418.01 3572.88 73.62 6.00 219.86 2727.14
   23:27:34.686.27-Apr-2021 3418.01 3572.87 73.62 6.00 220.06 2727.14
   23:27:34.886.27-Apr-2021 3418.01 3572.87 73.62 6.00 220.26 2727.14
   23:27:35.086.27-Apr-2021 3418.01 3572.75 73.62 6.00 220.46 2727.14
   23:27:35.286.27-Apr-2021 3418.01 3572.90 73.62 6.00 220.66 2727.14
   23:27:35.486.27-Apr-2021 3418.01 3572.91 73.62 6.00 220.86 2727.14
   23:27:35.686.27-Apr-2021 3418.01 3572.88 73.62 6.00 221.06 2727.14
   23:27:35.886.27-Apr-2021 3418.01 3572.88 73.62 6.00 221.26 2727.14
   23:27:36.087.27-Apr-2021 3418.01 3572.89 73.62 6.00 221.46 2727.14
   23:27:36.287.27-Apr-2021 3418.01 3572.90 73.62 6.00 221.66 2727.14
   23:27:36.487.27-Apr-2021 3418.01 3572.87 73.62 6.00 221.86 2727.14
   23:27:36.687.27-Apr-2021 3418.01 3572.88 73.62 6.00 222.06 2727.14
   23:27:36.887.27-Apr-2021 3418.01 3572.88 73.62 6.00 222.26 2727.14
   23:27:37.087.27-Apr-2021 3418.01 3572.87 73.62 6.00 222.46 2727.14
   23:27:37.287.27-Apr-2021 3418.01 3572.87 73.62 6.00 222.66 2727.14
   23:27:37.487.27-Apr-2021 3418.01 3572.87 73.62 6.00 222.86 2727.14
   23:27:37.687.27-Apr-2021 3418.01 3572.87 73.62 6.00 223.06 2727.14
   23:27:37.887.27-Apr-2021 3418.01 3572.87 73.62 6.00 223.26 2727.14
   23:27:38.087.27-Apr-2021 3418.01 3572.97 73.62 6.00 223.46 2727.14
   23:27:38.287.27-Apr-2021 3418.01 3572.88 73.62 6.00 223.66 2727.14
   23:27:38.487.27-Apr-2021 3418.01 3572.87 73.61 6.00 223.86 2727.14
   23:27:38.687.27-Apr-2021 3418.01 3572.89 73.61 6.00 224.06 2727.14
   23:27:38.887.27-Apr-2021 3418.01 3572.89 73.61 6.00 224.26 2727.14
   23:27:39.087.27-Apr-2021 3418.01 3572.68 73.61 6.00 224.46 2727.14
   23:27:39.287.27-Apr-2021 3418.01 3572.98 73.61 6.00 224.66 2727.14
   23:27:39.487.27-Apr-2021 3418.01 3572.89 73.61 6.00 224.86 2727.14
   23:27:39.687.27-Apr-2021 3418.01 3572.86 73.61 6.00 225.06 2727.14
   23:27:39.887.27-Apr-2021 3418.01 3572.86 73.61 6.00 225.26 2727.14
   23:27:40.088.27-Apr-2021 3418.01 3572.91 73.61 6.00 225.46 2727.14
   23:27:40.288.27-Apr-2021 3418.01 3572.73 73.61 6.00 225.66 2727.14
   23:27:40.488.27-Apr-2021 3418.01 3572.95 73.61 6.00 225.86 2727.14
   23:27:40.688.27-Apr-2021 3418.01 3572.87 73.61 6.00 226.06 2727.14
   23:27:40.888.27-Apr-2021 3418.01 3572.87 73.61 6.00 226.26 2727.14
   23:27:41.088.27-Apr-2021 3418.01 3572.89 73.61 6.00 226.46 2727.14
   23:27:41.288.27-Apr-2021 3418.01 3572.88 73.61 6.00 226.66 2727.14
   23:27:41.488.27-Apr-2021 3418.01 3572.69 73.61 6.00 226.86 2727.14
   23:27:41.688.27-Apr-2021 3418.01 3572.97 73.61 6.00 227.06 2727.14
   23:27:41.888.27-Apr-2021 3418.01 3572.97 73.61 6.00 227.26 2727.14
   23:27:42.088.27-Apr-2021 3418.01 3572.86 73.61 6.00 227.46 2727.14
   23:27:42.288.27-Apr-2021 3418.01 3572.90 73.61 6.00 227.66 2727.14
   23:27:42.488.27-Apr-2021 3418.01 3572.88 73.61 6.00 227.86 2727.14
   23:27:42.688.27-Apr-2021 3418.01 3572.87 73.61 6.00 228.06 2727.14
   23:27:42.888.27-Apr-2021 3418.01 3572.87 73.61 6.00 228.26 2727.14
   23:27:43.088.27-Apr-2021 3418.01 3572.86 73.61 6.00 228.46 2727.14
   23:27:43.288.27-Apr-2021 3418.01 3572.86 73.60 6.00 228.66 2727.14
   23:27:43.488.27-Apr-2021 3418.01 3572.87 73.60 6.00 228.86 2727.14
   23:27:43.688.27-Apr-2021 3418.01 3572.84 73.60 6.00 229.06 2727.14
   23:27:43.889.27-Apr-2021 3418.01 3572.84 73.60 6.00 229.26 2727.14
   23:27:44.089.27-Apr-2021 3418.01 3572.86 73.60 6.00 229.46 2727.14
   23:27:44.289.27-Apr-2021 3418.01 3572.75 73.60 6.00 229.66 2727.14
   23:27:44.489.27-Apr-2021 3418.01 3572.89 73.60 6.00 229.86 2727.14
