~Version Information
 VERS.                  2.0:   CWLS log ASCII Standard -VERSION 2.0
 WRAP.                   NO:   One line per depth step
~Well Information Block
#MNEM.UNIT     VALUE/NAME     DESCRIPTION
#---------     -----------    ---------------------------
 STRT.S             23:13:46 26-Apr-21: START TIME 23:13:46 26-Apr-21
 STOP.S             23:20:13 26-Apr-21: STOP TIME  23:20:13 26-Apr-21
 STEP.S                   0.00: STEP TIME
 NULL.                 -999.25: NULL VALUE
 DFWT.                        :  DIST FWL TEXT
 DFST.                        :  DIST FSL TEXT
 DMF .             Drill Floor:  DRILL MEAS FROM
 STIM.      02.00.00 12-Apr-21:  START TIME
 DATE.      02.00.00 02-May-21:  END TIME
 SPUD.               09-Apr-21:  SPUD DATE
 NREF.                    Grid:  NORTH REFERENCE
 HPTY.       Minimum Curvature:  HOLE POS TYPE
 DMOD.             Drill Model:  DRILL MOD DESC
 SVYD.                  Survey:  SURVEY DESC
 ILTD.               Lithology:  INTERP LTH DESC
 FTOP.          Formation Tops:  FORM TOPS DESC
 PDAT.          Mean Sea Level:  PERMANENT DATUM
 FLD .                     ACG:  FIELD NAME
 SON .        AZ-XX-0907021034:  JOB NUMBER
 CTRY.              Azerbaijan:  COUNTRY NAME
 WELL.                    E01x:  WELL NAME
 COMP.     BP Exploration (Caspian Sea) LTD.:  COMPANY
 UWI .            /AZE00001403:  UNIQUE WELL IDENTIFIER
 API .            /AZE00001403:  API NUMBER
 WTYP.                Deviated:  WELL TYPE
 MDS .        Operator Entered:  MAG DATA SOURCE
 BASE.              Azerbaijan:  LOGGING EQUIPMENT BASE LOCATION
 REGN.                   EESSA:  REGION
 PROV.                    Baku:  PROVINCE
 STAT.                    Baku:  STATE NAME
 SRVC.          Turan Drilling:  CONTRACTOR
 MWDS.                    Baku:  MWD SHOP
 JOBN.        AZ-XX-0907021034:  JOB TICKET NUMB
 RIG .                     DWG:  RIG NAME
 DOE .                     N/A:  DOE NUMBER
 DCON.         Sperry Drilling:  DIRECTNL CONTR
 UNIT.                     N/A:  LOGGING EQUIPMENT ID
 CNTY.                        :  COUNTY
 LOC .                        :  LOCATION
 LMF .             Drill Floor:  LOG MEASURED FROM
 TVDS.m                  43.16:  TVDSS CORRECTN
 LATI.deg                40.17:  LATITUDE
 LONG.deg                51.17:  LONGITUDE
 WHNS.m                  -5.90:  WELL HEAD N/S
 WHEW.m                  -6.61:  WELL HEAD E/W
 UTMX.m              514337.95:  UTM X
 UTMY.m             4448627.46:  UTM Y
 DFWL.m                   0.00:  DISTANCE FWL
 DFSL.m                   0.00:  DISTANCE FSL
 SDEP.m                2606.87:  START DEPTH
 TDD .m                3618.01:  TOTAL DEPTH (DRILLER)
 VSDR.deg               177.42:  VERT SEC DIRECT
 GVFD.g                   1.00:  GRAVITY FIELD
 MFLD.nT              50399.00:  MAGNETIC FIELD
 MDIP.deg                59.67:  MAGNETIC DIP
 MDEC.deg                 6.56:  MAGNETIC DECL
 GRDC.deg                 0.11:  GRID CORRECTION
 AZTC.deg                 6.45:  AZM TOTAL CORR
 EPD .m                   0.00:  ELEVATION
 EGL .m                   0.00:  GROUND ELEVATION
 WDMS.m                 176.20:  WD ELEV
 APD .m                  43.16:  DEPTH ABOVE PD
 DEP .m                2606.87:  DEPTH
 AGAP.m                  43.16:  AIR GAP
 VSEW.m                  -6.61:  VERT SEC E/W
 VSNS.m                  -5.90:  VERT SEC N/S
 EKB .m                  43.16:  KB ELEVATION
 EDF .m                  43.16:  DF ELEVATION
 TDL .m                 438.00:  TOTAL DEPTH (LOGGER)
 VSC .                       0:  VS TO CLOSURE
 MAGU.                 1855490:  MAGUTM CHECKSUM
~Parameter Information Block
#MNEM.UNIT       Value        Description
#---------     -----------    ---------------------------
 AV  .mps                 2.20:  Ann Velocity 
 AVMX.mps                 2.50:  Max Ann Veloc 
 AZIF.deg               150.21:  Azm, Final 
 BHAT.        Rotary Steerable:  BHA Type 
 BROT.°/30m               0.08:  Build Rotating 
 BS  .in                  6.50:  Bit Size 
 BSZ .in                  6.50:  Bit Size 
 BTPL.psig              108.00:  Bit Press Loss 
 CABU.                     Yes:  Customer Abuse 
 CGEO.           Emin Aliyarli:  Customer Geo 
 COMM.                     <MW:  Run Comments 1 
 TCS .hr                 74.20:  Time Ciculation Ended 
 CV  .mps                 3.63:  Crit Velocity 
 CVMX.mps                 3.66:  Max Crit Veloc 
 DD1 .         Intigam Rahimov:  Direct Drillr 1 
 DD2 .          Teymur Aghayev:  Direct Drillr 2 
 DDSV.               Geo-Pilot:  DD Service 
 DEFF.%                  97.00:  % Det Eff 
 DLRX.°/30m               1.63:  Dogleg Rot Max 
 DLSO.°/30m               0.00:  Dogleg Oriented 
 DLSX.°/30m               0.00:  Dogleg Str Max 
 DRET.      20.20.00 28-Apr-21:  Drill End Time 
 DRST.      04.45.00 26-Apr-21:  Drill Start Tim 
 DTIM.hr                 34.30:  Time Drilling 
 EDEP.m                3618.01:  End Depth 
 ENG1.           Amrah Tahirov:  Engineer 1 
 ENG2.         Bahruz Mehdiyev:  Engineer 2 
 ENG3.         Farhad Orujzade:  Engineer 3 
 ETIM.      19.00.00 29-Apr-21:  End Time 
 FLOI.gpm               370.00:  Flow In 
 FLON.gpm               300.00:  Flow In Min 
 FLOS.cptm                0.00:  Fluid Loss 
 FLOX.gpm               410.00:  Flow In Max 
 HFLO.                      No:  High Flow 
 HPRE.                      No:  High Pressure 
 HTEM.                      No:  High Temp 
 HYDO.m                   1.80:  Hydro Offset 
 IFIN.deg                67.19:  Inc, Final 
 IMAX.deg                68.42:  Inc Max 
 IMIN.deg                66.33:  Inc Min 
 IMND.m                3532.79:  Inc Min Depth 
 IMXD.m                3192.15:  Inc Max Depth 
 JARR.                      No:  Jarring 
 LETM.      20.20.00 28-Apr-21:  Log End Time 
 LOST.hr                     0:  Lost Rig Time 
 LSTM.      04.45.00 26-Apr-21:  Log Start Time 
 MDCL.ppm             36500.00:  Mud Chlorides 
 MDES.     Inversion Oil/Synthetic:  Mud Desc 
 DFD .sg                  1.42:  Mud Density 
 MDMN.sg                  1.42:  Dens Mud Min 
 MDMX.sg                  1.42:  Dens Mud Max 
 MOIL.                    55.7:  Run Mud Oil % 
 MOWR.                   71:29:  Run Mud OWR 
 MSND.                     0.1:  Run Mud Sand % 
 MSOL.                    19.9:  Run Mud Solids% 
 DFV .spqt               83.00:  Mud Viscosity 
 MWOD.in                  5.15:  MWD Tool OD 
 MWSI.                      No:  Serv Intrp, MWD 
 OTIM.hr                120.59:  Time Operating 
 PCON.           Look Like New:  Pad Condition 
 PMAX.psia            11292.93:  Press Op, Max 
 PV  .cP                 27.00:  Mud PV 
 RUN .                     400:  Run Number 
 ROPA.m/hr               14.00:  ROP Avg 
 ROPN.m/hr                9.00:  ROP Min 
 ROPX.m/hr               18.00:  ROP Max 
 RPMA.rpm               130.00:  RPM Surface Avg 
 RPMN.rpm               100.00:  RPM Surface Min 
 RPMX.rpm               140.00:  RPM Surface Max 
 RRUN.                    0400:  Rig Run Number 
 RTIM.hr                 38.60:  Time Reaming 
 SAZI.deg               149.55:  Azm, Start 
 SDEP.m                3180.01:  Start Depth 
 SIDD.                      No:  Serv Intrp, DD 
 SINC.deg                68.42:  Inc, Start 
 SPPA.psig             4400.00:  SPP Avg 
 SPPN.psig             3580.00:  SPP Min 
 SPPX.psig             4850.00:  SPP Max 
 STIM.      12.30.00 24-Apr-21:  Start Time 
 SVCS.                 DD, MWD:  Services 
 SVER.                    9.20:  Sperry Version 
 TDAT.m                 438.00:  Tot Depth Attmp 
 TDDF.                      No:  Trip for DD 
 TDLG.m                 438.00:  Tot Depth Loggd 
 TFF .                      No:  Trip for Fail 
 TQAA.f-kp               11.00:  Torque Abs Avg 
 TQAN.f-kp                9.00:  Torque Abs Min 
 TQAX.f-kp               14.00:  Torque Abs Max 
 TRRT.°/30m               0.04:  Turn Rotating 
 MRT .                    HCIM:  Maximum Recorded Temperature 
 TTMX.degC               84.31:  Max Tool Temp 
 VS01.                90521954:  Virtual Str1 SN 
 VS02.                90519327:  Virtual Str2 SN 
 VS03.                90522273:  Virtual Str3 SN 
 VS04.                11108038:  Virtual Str4 SN 
 VS05.                12258760:  Virtual Str5 SN 
 WBMN.klb                 1.00:  WOB Min 
 WITN.           Adil Mammadov:  Customer Rep 
 WITN.         Alex Yadullayev:  Customer Rep 2 
 WOBA.klb                 6.00:  WOB Avg 
 WOBX.klb                 9.00:  WOB Max 
 YP  .lhf2               31.00:  Yield Point 
~Curve Information Block
#MNEM.UNIT                 API CODE     Curve Description
#---------               -----------    ---------------------------
 TIME.HHMMSS            00 000 000 000:  GT Time & Date
 GTDEPTH.m              00 000 000 000:  GT Depth
 GTPQH.psia             00 000 000 000:  GT HR Quartz Pressure
 GTTQ.degC              00 000 000 000:  GT Quartz Temperature
 GTTN.NONE              00 000 000 000:  GT Test Number
 GTET.sec               00 000 000 000:  GT Elapsed Test Time
 GTTVD.m                00 000 000 000:  GT True Vertical Depth
#Other Information
#
#WARRANTY: Halliburton will use its best efforts to furnish customers with 
#accurate information and interpretations that are part of, and incident to, the services 
#provided.  However, Halliburton cannot and does not warrant the accuracy 
#or correctness of such information and interpretations.  Under no circumstances should any 
#such information or interpretation be relied upon as the sole basis for any drilling, 
#completion, production, or financial decision or any procedure involving any risk to the 
#safety of any drilling venture, drilling rig or its crew or any other third party.  The 
#Customer has full responsibility for all drilling, completion and production operation.  
#Halliburton makes no representations or warranties, either expressed or 
#implied, including, but not limited to, the implied warranties of merchantability or fitness 
#for a particular purpose, with respect to the services rendered.  In no event will 
#Halliburton be liable for failure to obtain any particular results or for 
#any damages, including, but not limited to, indirect, special or consequential damages, 
#resulting from the use of any information or interpretation provided by Halliburton.
#
~A           TIME           GTDEPTH  GTPQH  GTTQ  GTTN  GTET   GTTVD  
# ...
   23:15:41.559.26-Apr-2021 3222.01 4278.81 69.55 1.00 115.03 2649.76
   23:15:41.759.26-Apr-2021 3222.01 4278.81 69.55 1.00 115.23 2649.76
   23:15:41.960.26-Apr-2021 3222.01 4279.84 69.55 1.00 115.43 2649.76
   23:15:42.160.26-Apr-2021 3222.01 4279.71 69.55 1.00 115.63 2649.76
   23:15:42.360.26-Apr-2021 3222.01 4278.98 69.55 1.00 115.83 2649.76
   23:15:42.560.26-Apr-2021 3222.01 4278.98 69.55 1.00 116.03 2649.76
   23:15:42.760.26-Apr-2021 3222.01 4279.54 69.55 1.00 116.23 2649.76
   23:15:42.960.26-Apr-2021 3222.01 4279.54 69.55 1.00 116.43 2649.76
   23:15:43.160.26-Apr-2021 3222.01 4279.86 69.55 1.00 116.63 2649.76
   23:15:43.360.26-Apr-2021 3222.01 4279.68 69.55 1.00 116.83 2649.76
   23:15:43.560.26-Apr-2021 3222.01 4279.68 69.55 1.00 117.03 2649.76
   23:15:43.760.26-Apr-2021 3222.01 4279.68 69.55 1.00 117.23 2649.76
   23:15:43.960.26-Apr-2021 3222.01 4279.84 69.55 1.00 117.43 2649.76
   23:15:44.160.26-Apr-2021 3222.01 4279.61 69.55 1.00 117.63 2649.76
   23:15:44.360.26-Apr-2021 3222.01 4279.63 69.55 1.00 117.83 2649.76
   23:15:44.560.26-Apr-2021 3222.01 4279.45 69.55 1.00 118.03 2649.76
   23:15:44.760.26-Apr-2021 3222.01 4279.45 69.55 1.00 118.23 2649.76
   23:15:44.960.26-Apr-2021 3222.01 4278.74 69.55 1.00 118.43 2649.76
   23:15:45.160.26-Apr-2021 3222.01 4279.60 69.55 1.00 118.63 2649.76
   23:15:45.361.26-Apr-2021 3222.01 4279.67 69.55 1.00 118.83 2649.76
   23:15:45.561.26-Apr-2021 3222.01 4279.69 69.55 1.00 119.03 2649.76
   23:15:45.761.26-Apr-2021 3222.01 4279.69 69.55 1.00 119.23 2649.76
   23:15:45.961.26-Apr-2021 3222.01 4279.66 69.54 1.00 119.44 2649.76
   23:15:46.161.26-Apr-2021 3222.01 4279.66 69.54 1.00 119.64 2649.76
   23:15:46.361.26-Apr-2021 3222.01 4279.88 69.54 1.00 119.84 2649.76
   23:15:46.561.26-Apr-2021 3222.01 4279.80 69.54 1.00 120.04 2649.76
   23:15:46.761.26-Apr-2021 3222.01 4279.80 69.54 1.00 120.24 2649.76
   23:15:46.961.26-Apr-2021 3222.01 4279.61 69.54 1.00 120.44 2649.76
   23:15:47.161.26-Apr-2021 3222.01 4279.59 69.54 1.00 120.64 2649.76
   23:15:47.361.26-Apr-2021 3222.01 4279.73 69.54 1.00 120.84 2649.76
   23:15:47.561.26-Apr-2021 3222.01 4279.60 69.54 1.00 121.04 2649.76
   23:15:47.761.26-Apr-2021 3222.01 4279.60 69.54 1.00 121.24 2649.76
   23:15:47.961.26-Apr-2021 3222.01 4279.49 69.54 1.00 121.44 2649.76
   23:15:48.161.26-Apr-2021 3222.01 4279.78 69.54 1.00 121.64 2649.76
   23:15:48.361.26-Apr-2021 3222.01 4279.71 69.54 1.00 121.84 2649.76
   23:15:48.561.26-Apr-2021 3222.01 4279.76 69.54 1.00 122.04 2649.76
   23:15:48.762.26-Apr-2021 3222.01 4279.76 69.54 1.00 122.24 2649.76
   23:15:48.962.26-Apr-2021 3222.01 4278.92 69.54 1.00 122.44 2649.76
   23:15:49.162.26-Apr-2021 3222.01 4279.84 69.54 1.00 122.64 2649.76
   23:15:49.362.26-Apr-2021 3222.01 4279.97 69.54 1.00 122.84 2649.76
   23:15:49.562.26-Apr-2021 3222.01 4279.70 69.54 1.00 123.04 2649.76
   23:15:49.762.26-Apr-2021 3222.01 4279.70 69.54 1.00 123.24 2649.76
   23:15:49.962.26-Apr-2021 3222.01 4278.83 69.54 1.00 123.44 2649.76
   23:15:50.162.26-Apr-2021 3222.01 4279.59 69.54 1.00 123.64 2649.76
   23:15:50.362.26-Apr-2021 3222.01 4279.79 69.54 1.00 123.84 2649.76
   23:15:50.562.26-Apr-2021 3222.01 4279.72 69.54 1.00 124.04 2649.76
   23:15:50.762.26-Apr-2021 3222.01 4279.72 69.54 1.00 124.24 2649.76
   23:15:50.962.26-Apr-2021 3222.01 4279.60 69.54 1.00 124.44 2649.76
   23:15:51.162.26-Apr-2021 3222.01 4279.62 69.54 1.00 124.64 2649.76
   23:15:51.362.26-Apr-2021 3222.01 4279.94 69.54 1.00 124.84 2649.76
   23:15:51.562.26-Apr-2021 3222.01 4279.82 69.54 1.00 125.04 2649.76
   23:15:51.762.26-Apr-2021 3222.01 4279.82 69.54 1.00 125.24 2649.76
   23:15:51.962.26-Apr-2021 3222.01 4279.66 69.54 1.00 125.44 2649.76
   23:15:52.163.26-Apr-2021 3222.01 4279.80 69.54 1.00 125.64 2649.76
   23:15:52.363.26-Apr-2021 3222.01 4279.80 69.54 1.00 125.84 2649.76
   23:15:52.563.26-Apr-2021 3222.01 4279.63 69.54 1.00 126.04 2649.76
   23:15:52.763.26-Apr-2021 3222.01 4279.63 69.54 1.00 126.24 2649.76
   23:15:52.963.26-Apr-2021 3222.01 4279.46 69.54 1.00 126.44 2649.76
   23:15:53.163.26-Apr-2021 3222.01 4279.58 69.53 1.00 126.64 2649.76
   23:15:53.363.26-Apr-2021 3222.01 4278.83 69.53 1.00 126.84 2649.76
   23:15:53.563.26-Apr-2021 3222.01 4279.55 69.53 1.00 127.04 2649.76
   23:15:53.763.26-Apr-2021 3222.01 4279.55 69.53 1.00 127.24 2649.76
   23:15:53.963.26-Apr-2021 3222.01 4279.68 69.53 1.00 127.44 2649.76
   23:15:54.163.26-Apr-2021 3222.01 4279.61 69.53 1.00 127.64 2649.76
   23:15:54.363.26-Apr-2021 3222.01 4279.68 69.53 1.00 127.84 2649.76
   23:15:54.563.26-Apr-2021 3222.01 4279.61 69.53 1.00 128.04 2649.76
   23:15:54.763.26-Apr-2021 3222.01 4279.61 69.53 1.00 128.24 2649.76
   23:15:54.963.26-Apr-2021 3222.01 4279.75 69.53 1.00 128.44 2649.76
   23:15:55.163.26-Apr-2021 3222.01 4279.71 69.53 1.00 128.64 2649.76
   23:15:55.363.26-Apr-2021 3222.01 4279.55 69.53 1.00 128.84 2649.76
   23:15:55.564.26-Apr-2021 3222.01 4279.61 69.53 1.00 129.04 2649.76
   23:15:55.764.26-Apr-2021 3222.01 4279.61 69.53 1.00 129.24 2649.76
   23:15:55.964.26-Apr-2021 3222.01 4279.62 69.53 1.00 129.44 2649.76
   23:15:56.164.26-Apr-2021 3222.01 4278.88 69.53 1.00 129.64 2649.76
   23:15:56.364.26-Apr-2021 3222.01 4279.53 69.53 1.00 129.84 2649.76
   23:15:56.564.26-Apr-2021 3222.01 4279.73 69.53 1.00 130.04 2649.76
   23:15:56.764.26-Apr-2021 3222.01 4279.73 69.53 1.00 130.24 2649.76
   23:15:56.964.26-Apr-2021 3222.01 4279.72 69.53 1.00 130.44 2649.76
   23:15:57.164.26-Apr-2021 3222.01 4224.37 69.53 1.00 130.64 2649.76
   23:15:57.364.26-Apr-2021 3222.01 4203.19 69.53 1.00 130.84 2649.76
   23:15:57.564.26-Apr-2021 3222.01 4203.36 69.53 1.00 131.04 2649.76
   23:15:57.764.26-Apr-2021 3222.01 4203.36 69.53 1.00 131.24 2649.76
   23:15:57.964.26-Apr-2021 3222.01 4200.65 69.53 1.00 131.44 2649.76
   23:15:58.164.26-Apr-2021 3222.01 4200.15 69.53 1.00 131.64 2649.76
   23:15:58.364.26-Apr-2021 3222.01 4198.73 69.53 1.00 131.84 2649.76
   23:15:58.564.26-Apr-2021 3222.01 4200.04 69.53 1.00 132.04 2649.76
   23:15:58.764.26-Apr-2021 3222.01 4200.04 69.53 1.00 132.24 2649.76
   23:15:58.965.26-Apr-2021 3222.01 4198.96 69.53 1.00 132.44 2649.76
   23:15:59.165.26-Apr-2021 3222.01 4198.40 69.53 1.00 132.64 2649.76
   23:15:59.365.26-Apr-2021 3222.01 4199.97 69.53 1.00 132.84 2649.76
   23:15:59.565.26-Apr-2021 3222.01 4199.24 69.53 1.00 133.04 2649.76
   23:15:59.765.26-Apr-2021 3222.01 4199.24 69.53 1.00 133.24 2649.76
   23:15:59.965.26-Apr-2021 3222.01 4199.63 69.53 1.00 133.44 2649.76
   23:16:00.165.26-Apr-2021 3222.01 4199.27 69.52 1.00 133.64 2649.76
   23:16:00.365.26-Apr-2021 3222.01 4199.93 69.52 1.00 133.84 2649.76
   23:16:00.565.26-Apr-2021 3222.01 4201.28 69.52 1.00 134.04 2649.76
   23:16:00.765.26-Apr-2021 3222.01 4201.28 69.52 1.00 134.24 2649.76
   23:16:00.965.26-Apr-2021 3222.01 4201.13 69.52 1.00 134.44 2649.76
   23:16:01.165.26-Apr-2021 3222.01 4200.84 69.52 1.00 134.64 2649.76
   23:16:01.365.26-Apr-2021 3222.01 4200.31 69.52 1.00 134.84 2649.76
   23:16:01.565.26-Apr-2021 3222.01 4199.45 69.52 1.00 135.04 2649.76
   23:16:01.765.26-Apr-2021 3222.01 4199.45 69.52 1.00 135.24 2649.76
   23:16:01.965.26-Apr-2021 3222.01 4199.63 69.52 1.00 135.44 2649.76
   23:16:02.165.26-Apr-2021 3222.01 4200.01 69.52 1.00 135.64 2649.76
   23:16:02.366.26-Apr-2021 3222.01 4199.98 69.52 1.00 135.84 2649.76
   23:16:02.566.26-Apr-2021 3222.01 4199.76 69.52 1.00 136.04 2649.76
   23:16:02.766.26-Apr-2021 3222.01 4199.76 69.52 1.00 136.24 2649.76
   23:16:02.966.26-Apr-2021 3222.01 4200.10 69.52 1.00 136.44 2649.76
   23:16:03.166.26-Apr-2021 3222.01 4200.14 69.52 1.00 136.64 2649.76
   23:16:03.366.26-Apr-2021 3222.01 4199.45 69.52 1.00 136.84 2649.76
   23:16:03.566.26-Apr-2021 3222.01 4199.07 69.52 1.00 137.04 2649.76
   23:16:03.766.26-Apr-2021 3222.01 4199.07 69.52 1.00 137.24 2649.76
   23:16:03.966.26-Apr-2021 3222.01 4199.29 69.52 1.00 137.44 2649.76
   23:16:04.166.26-Apr-2021 3222.01 4199.12 69.52 1.00 137.64 2649.76
   23:16:04.366.26-Apr-2021 3222.01 4198.29 69.52 1.00 137.84 2649.76
