~Version Information
 VERS.                  2.0:   CWLS log ASCII Standard -VERSION 2.0
 WRAP.                   NO:   One line per depth step
~Well Information Block
#MNEM.UNIT     VALUE/NAME     DESCRIPTION
#---------     -----------    ---------------------------
 STRT.S             02:50:28 27-Apr-21: START TIME 02:50:28 27-Apr-21
 STOP.S             02:56:55 27-Apr-21: STOP TIME  02:56:55 27-Apr-21
 STEP.S                   0.00: STEP TIME
 NULL.                 -999.25: NULL VALUE
 DFWT.                        :  DIST FWL TEXT
 DFST.                        :  DIST FSL TEXT
 DMF .             Drill Floor:  DRILL MEAS FROM
 STIM.      02.00.00 12-Apr-21:  START TIME
 DATE.      02.00.00 02-May-21:  END TIME
 SPUD.               09-Apr-21:  SPUD DATE
 NREF.                    Grid:  NORTH REFERENCE
 HPTY.       Minimum Curvature:  HOLE POS TYPE
 DMOD.             Drill Model:  DRILL MOD DESC
 SVYD.                  Survey:  SURVEY DESC
 ILTD.               Lithology:  INTERP LTH DESC
 FTOP.          Formation Tops:  FORM TOPS DESC
 PDAT.          Mean Sea Level:  PERMANENT DATUM
 FLD .                     ACG:  FIELD NAME
 SON .        AZ-XX-0907021034:  JOB NUMBER
 CTRY.              Azerbaijan:  COUNTRY NAME
 WELL.                    E01x:  WELL NAME
 COMP.     BP Exploration (Caspian Sea) LTD.:  COMPANY
 UWI .            /AZE00001403:  UNIQUE WELL IDENTIFIER
 API .            /AZE00001403:  API NUMBER
 WTYP.                Deviated:  WELL TYPE
 MDS .        Operator Entered:  MAG DATA SOURCE
 BASE.              Azerbaijan:  LOGGING EQUIPMENT BASE LOCATION
 REGN.                   EESSA:  REGION
 PROV.                    Baku:  PROVINCE
 STAT.                    Baku:  STATE NAME
 SRVC.          Turan Drilling:  CONTRACTOR
 MWDS.                    Baku:  MWD SHOP
 JOBN.        AZ-XX-0907021034:  JOB TICKET NUMB
 RIG .                     DWG:  RIG NAME
 DOE .                     N/A:  DOE NUMBER
 DCON.         Sperry Drilling:  DIRECTNL CONTR
 UNIT.                     N/A:  LOGGING EQUIPMENT ID
 CNTY.                        :  COUNTY
 LOC .                        :  LOCATION
 LMF .             Drill Floor:  LOG MEASURED FROM
 TVDS.m                  43.16:  TVDSS CORRECTN
 LATI.deg                40.17:  LATITUDE
 LONG.deg                51.17:  LONGITUDE
 WHNS.m                  -5.90:  WELL HEAD N/S
 WHEW.m                  -6.61:  WELL HEAD E/W
 UTMX.m              514337.95:  UTM X
 UTMY.m             4448627.46:  UTM Y
 DFWL.m                   0.00:  DISTANCE FWL
 DFSL.m                   0.00:  DISTANCE FSL
 SDEP.m                2606.87:  START DEPTH
 TDD .m                3618.01:  TOTAL DEPTH (DRILLER)
 VSDR.deg               177.42:  VERT SEC DIRECT
 GVFD.g                   1.00:  GRAVITY FIELD
 MFLD.nT              50399.00:  MAGNETIC FIELD
 MDIP.deg                59.67:  MAGNETIC DIP
 MDEC.deg                 6.56:  MAGNETIC DECL
 GRDC.deg                 0.11:  GRID CORRECTION
 AZTC.deg                 6.45:  AZM TOTAL CORR
 EPD .m                   0.00:  ELEVATION
 EGL .m                   0.00:  GROUND ELEVATION
 WDMS.m                 176.20:  WD ELEV
 APD .m                  43.16:  DEPTH ABOVE PD
 DEP .m                2606.87:  DEPTH
 AGAP.m                  43.16:  AIR GAP
 VSEW.m                  -6.61:  VERT SEC E/W
 VSNS.m                  -5.90:  VERT SEC N/S
 EKB .m                  43.16:  KB ELEVATION
 EDF .m                  43.16:  DF ELEVATION
 TDL .m                 438.00:  TOTAL DEPTH (LOGGER)
 VSC .                       0:  VS TO CLOSURE
 MAGU.                 1855490:  MAGUTM CHECKSUM
~Parameter Information Block
#MNEM.UNIT       Value        Description
#---------     -----------    ---------------------------
 AV  .mps                 2.20:  Ann Velocity 
 AVMX.mps                 2.50:  Max Ann Veloc 
 AZIF.deg               150.21:  Azm, Final 
 BHAT.        Rotary Steerable:  BHA Type 
 BROT.°/30m               0.08:  Build Rotating 
 BS  .in                  6.50:  Bit Size 
 BSZ .in                  6.50:  Bit Size 
 BTPL.psig              108.00:  Bit Press Loss 
 CABU.                     Yes:  Customer Abuse 
 CGEO.           Emin Aliyarli:  Customer Geo 
 COMM.                     äº~:  Run Comments 1 
 TCS .hr                 74.20:  Time Ciculation Ended 
 CV  .mps                 3.63:  Crit Velocity 
 CVMX.mps                 3.66:  Max Crit Veloc 
 DD1 .         Intigam Rahimov:  Direct Drillr 1 
 DD2 .          Teymur Aghayev:  Direct Drillr 2 
 DDSV.               Geo-Pilot:  DD Service 
 DEFF.%                  97.00:  % Det Eff 
 DLRX.°/30m               1.63:  Dogleg Rot Max 
 DLSO.°/30m               0.00:  Dogleg Oriented 
 DLSX.°/30m               0.00:  Dogleg Str Max 
 DRET.      20.20.00 28-Apr-21:  Drill End Time 
 DRST.      04.45.00 26-Apr-21:  Drill Start Tim 
 DTIM.hr                 34.30:  Time Drilling 
 EDEP.m                3618.01:  End Depth 
 ENG1.           Amrah Tahirov:  Engineer 1 
 ENG2.         Bahruz Mehdiyev:  Engineer 2 
 ENG3.         Farhad Orujzade:  Engineer 3 
 ETIM.      19.00.00 29-Apr-21:  End Time 
 FLOI.gpm               370.00:  Flow In 
 FLON.gpm               300.00:  Flow In Min 
 FLOS.cptm                0.00:  Fluid Loss 
 FLOX.gpm               410.00:  Flow In Max 
 HFLO.                      No:  High Flow 
 HPRE.                      No:  High Pressure 
 HTEM.                      No:  High Temp 
 HYDO.m                   1.80:  Hydro Offset 
 IFIN.deg                67.19:  Inc, Final 
 IMAX.deg                68.42:  Inc Max 
 IMIN.deg                66.33:  Inc Min 
 IMND.m                3532.79:  Inc Min Depth 
 IMXD.m                3192.15:  Inc Max Depth 
 JARR.                      No:  Jarring 
 LETM.      20.20.00 28-Apr-21:  Log End Time 
 LOST.hr                     0:  Lost Rig Time 
 LSTM.      04.45.00 26-Apr-21:  Log Start Time 
 MDCL.ppm             36500.00:  Mud Chlorides 
 MDES.     Inversion Oil/Synthetic:  Mud Desc 
 DFD .sg                  1.42:  Mud Density 
 MDMN.sg                  1.42:  Dens Mud Min 
 MDMX.sg                  1.42:  Dens Mud Max 
 MOIL.                    55.7:  Run Mud Oil % 
 MOWR.                   71:29:  Run Mud OWR 
 MSND.                     0.1:  Run Mud Sand % 
 MSOL.                    19.9:  Run Mud Solids% 
 DFV .spqt               83.00:  Mud Viscosity 
 MWOD.in                  5.15:  MWD Tool OD 
 MWSI.                      No:  Serv Intrp, MWD 
 OTIM.hr                120.59:  Time Operating 
 PCON.           Look Like New:  Pad Condition 
 PMAX.psia            11292.93:  Press Op, Max 
 PV  .cP                 27.00:  Mud PV 
 RUN .                     400:  Run Number 
 ROPA.m/hr               14.00:  ROP Avg 
 ROPN.m/hr                9.00:  ROP Min 
 ROPX.m/hr               18.00:  ROP Max 
 RPMA.rpm               130.00:  RPM Surface Avg 
 RPMN.rpm               100.00:  RPM Surface Min 
 RPMX.rpm               140.00:  RPM Surface Max 
 RRUN.                    0400:  Rig Run Number 
 RTIM.hr                 38.60:  Time Reaming 
 SAZI.deg               149.55:  Azm, Start 
 SDEP.m                3180.01:  Start Depth 
 SIDD.                      No:  Serv Intrp, DD 
 SINC.deg                68.42:  Inc, Start 
 SPPA.psig             4400.00:  SPP Avg 
 SPPN.psig             3580.00:  SPP Min 
 SPPX.psig             4850.00:  SPP Max 
 STIM.      12.30.00 24-Apr-21:  Start Time 
 SVCS.                 DD, MWD:  Services 
 SVER.                    9.20:  Sperry Version 
 TDAT.m                 438.00:  Tot Depth Attmp 
 TDDF.                      No:  Trip for DD 
 TDLG.m                 438.00:  Tot Depth Loggd 
 TFF .                      No:  Trip for Fail 
 TQAA.f-kp               11.00:  Torque Abs Avg 
 TQAN.f-kp                9.00:  Torque Abs Min 
 TQAX.f-kp               14.00:  Torque Abs Max 
 TRRT.°/30m               0.04:  Turn Rotating 
 MRT .                    HCIM:  Maximum Recorded Temperature 
 TTMX.degC               84.31:  Max Tool Temp 
 VS01.                90521954:  Virtual Str1 SN 
 VS02.                90519327:  Virtual Str2 SN 
 VS03.                90522273:  Virtual Str3 SN 
 VS04.                11108038:  Virtual Str4 SN 
 VS05.                12258760:  Virtual Str5 SN 
 WBMN.klb                 1.00:  WOB Min 
 WITN.           Adil Mammadov:  Customer Rep 
 WITN.         Alex Yadullayev:  Customer Rep 2 
 WOBA.klb                 6.00:  WOB Avg 
 WOBX.klb                 9.00:  WOB Max 
 YP  .lhf2               31.00:  Yield Point 
~Curve Information Block
#MNEM.UNIT                 API CODE     Curve Description
#---------               -----------    ---------------------------
 TIME.HHMMSS            00 000 000 000:  GT Time & Date
 GTDEPTH.m              00 000 000 000:  GT Depth
 GTPQH.psia             00 000 000 000:  GT HR Quartz Pressure
 GTTQ.degC              00 000 000 000:  GT Quartz Temperature
 GTTN.NONE              00 000 000 000:  GT Test Number
 GTET.sec               00 000 000 000:  GT Elapsed Test Time
 GTTVD.m                00 000 000 000:  GT True Vertical Depth
#Other Information
#
#WARRANTY: Halliburton will use its best efforts to furnish customers with 
#accurate information and interpretations that are part of, and incident to, the services 
#provided.  However, Halliburton cannot and does not warrant the accuracy 
#or correctness of such information and interpretations.  Under no circumstances should any 
#such information or interpretation be relied upon as the sole basis for any drilling, 
#completion, production, or financial decision or any procedure involving any risk to the 
#safety of any drilling venture, drilling rig or its crew or any other third party.  The 
#Customer has full responsibility for all drilling, completion and production operation.  
#Halliburton makes no representations or warranties, either expressed or 
#implied, including, but not limited to, the implied warranties of merchantability or fitness 
#for a particular purpose, with respect to the services rendered.  In no event will 
#Halliburton be liable for failure to obtain any particular results or for 
#any damages, including, but not limited to, indirect, special or consequential damages, 
#resulting from the use of any information or interpretation provided by Halliburton.
#
~A           TIME           GTDEPTH  GTPQH  GTTQ  GTTN  GTET   GTTVD  
# ...
   02:55:50.319.27-Apr-2021 3242.51 4318.83 72.09 3.00 322.06 2657.85
   02:55:50.519.27-Apr-2021 3242.51 4318.83 72.09 3.00 322.26 2657.85
   02:55:50.719.27-Apr-2021 3242.51 4319.11 72.09 3.00 322.46 2657.85
   02:55:50.919.27-Apr-2021 3242.51 4319.15 72.09 3.00 322.66 2657.85
   02:55:51.119.27-Apr-2021 3242.51 4319.06 72.09 3.00 322.86 2657.85
   02:55:51.319.27-Apr-2021 3242.51 4318.81 72.09 3.00 323.06 2657.85
   02:55:51.519.27-Apr-2021 3242.51 4318.81 72.09 3.00 323.26 2657.85
   02:55:51.719.27-Apr-2021 3242.51 4319.27 72.08 3.00 323.46 2657.85
   02:55:51.919.27-Apr-2021 3242.51 4319.14 72.08 3.00 323.66 2657.85
   02:55:52.119.27-Apr-2021 3242.51 4319.19 72.08 3.00 323.86 2657.85
   02:55:52.319.27-Apr-2021 3242.51 4319.04 72.08 3.00 324.06 2657.85
   02:55:52.519.27-Apr-2021 3242.51 4319.04 72.08 3.00 324.26 2657.85
   02:55:52.720.27-Apr-2021 3242.51 4318.70 72.08 3.00 324.46 2657.85
   02:55:52.920.27-Apr-2021 3242.51 4319.14 72.08 3.00 324.66 2657.85
   02:55:53.120.27-Apr-2021 3242.51 4319.13 72.08 3.00 324.86 2657.85
   02:55:53.320.27-Apr-2021 3242.51 4319.15 72.08 3.00 325.06 2657.85
   02:55:53.520.27-Apr-2021 3242.51 4319.15 72.08 3.00 325.26 2657.85
   02:55:53.720.27-Apr-2021 3242.51 4318.80 72.08 3.00 325.46 2657.85
   02:55:53.920.27-Apr-2021 3242.51 4319.02 72.08 3.00 325.66 2657.85
   02:55:54.120.27-Apr-2021 3242.51 4319.19 72.08 3.00 325.86 2657.85
   02:55:54.320.27-Apr-2021 3242.51 4319.17 72.08 3.00 326.06 2657.85
   02:55:54.520.27-Apr-2021 3242.51 4319.17 72.08 3.00 326.26 2657.85
   02:55:54.720.27-Apr-2021 3242.51 4319.13 72.08 3.00 326.46 2657.85
   02:55:54.920.27-Apr-2021 3242.51 4319.10 72.08 3.00 326.66 2657.85
   02:55:55.120.27-Apr-2021 3242.51 4319.12 72.08 3.00 326.86 2657.85
   02:55:55.320.27-Apr-2021 3242.51 4319.16 72.08 3.00 327.06 2657.85
   02:55:55.520.27-Apr-2021 3242.51 4319.16 72.08 3.00 327.26 2657.85
   02:55:55.720.27-Apr-2021 3242.51 4319.16 72.08 3.00 327.46 2657.85
   02:55:55.920.27-Apr-2021 3242.51 4319.05 72.08 3.00 327.66 2657.85
   02:55:56.120.27-Apr-2021 3242.51 4319.02 72.08 3.00 327.86 2657.85
   02:55:56.320.27-Apr-2021 3242.51 4318.89 72.08 3.00 328.06 2657.85
   02:55:56.520.27-Apr-2021 3242.51 4318.89 72.08 3.00 328.27 2657.85
   02:55:56.720.27-Apr-2021 3242.51 4319.10 72.08 3.00 328.47 2657.85
   02:55:56.920.27-Apr-2021 3242.51 4319.03 72.07 3.00 328.67 2657.85
   02:55:57.120.27-Apr-2021 3242.51 4319.16 72.07 3.00 328.87 2657.85
   02:55:57.320.27-Apr-2021 3242.51 4319.09 72.07 3.00 329.07 2657.85
   02:55:57.520.27-Apr-2021 3242.51 4319.09 72.07 3.00 329.27 2657.85
   02:55:57.721.27-Apr-2021 3242.51 4319.06 72.07 3.00 329.47 2657.85
   02:55:57.921.27-Apr-2021 3242.51 4319.22 72.07 3.00 329.67 2657.85
   02:55:58.121.27-Apr-2021 3242.51 4319.08 72.07 3.00 329.87 2657.85
   02:55:58.321.27-Apr-2021 3242.51 4319.15 72.07 3.00 330.07 2657.85
   02:55:58.521.27-Apr-2021 3242.51 4319.15 72.07 3.00 330.27 2657.85
   02:55:58.721.27-Apr-2021 3242.51 4319.12 72.07 3.00 330.47 2657.85
   02:55:58.921.27-Apr-2021 3242.51 4319.07 72.07 3.00 330.67 2657.85
   02:55:59.121.27-Apr-2021 3242.51 4318.76 72.07 3.00 330.87 2657.85
   02:55:59.321.27-Apr-2021 3242.51 4319.01 72.07 3.00 331.07 2657.85
   02:55:59.521.27-Apr-2021 3242.51 4319.01 72.07 3.00 331.27 2657.85
   02:55:59.721.27-Apr-2021 3242.51 4319.08 72.07 3.00 331.47 2657.85
   02:55:59.921.27-Apr-2021 3242.51 4319.11 72.07 3.00 331.67 2657.85
   02:56:00.121.27-Apr-2021 3242.51 4319.11 72.07 3.00 331.87 2657.85
   02:56:00.321.27-Apr-2021 3242.51 4318.59 72.07 3.00 332.07 2657.85
   02:56:00.521.27-Apr-2021 3242.51 4318.59 72.07 3.00 332.27 2657.85
   02:56:00.721.27-Apr-2021 3242.51 4319.33 72.07 3.00 332.47 2657.85
   02:56:00.921.27-Apr-2021 3242.51 4319.24 72.07 3.00 332.67 2657.85
   02:56:01.121.27-Apr-2021 3242.51 4319.13 72.07 3.00 332.87 2657.85
   02:56:01.321.27-Apr-2021 3242.51 4319.13 72.07 3.00 333.07 2657.85
   02:56:01.521.27-Apr-2021 3242.51 4319.13 72.07 3.00 333.27 2657.85
   02:56:01.721.27-Apr-2021 3242.51 4319.01 72.07 3.00 333.47 2657.85
   02:56:01.921.27-Apr-2021 3242.51 4319.06 72.07 3.00 333.67 2657.85
   02:56:02.121.27-Apr-2021 3242.51 4319.17 72.07 3.00 333.87 2657.85
   02:56:02.321.27-Apr-2021 3242.51 4319.08 72.06 3.00 334.07 2657.85
   02:56:02.521.27-Apr-2021 3242.51 4319.08 72.06 3.00 334.27 2657.85
   02:56:02.722.27-Apr-2021 3242.51 4318.59 72.06 3.00 334.47 2657.85
   02:56:02.922.27-Apr-2021 3242.51 4319.18 72.06 3.00 334.67 2657.85
   02:56:03.122.27-Apr-2021 3242.51 4319.29 72.06 3.00 334.87 2657.85
   02:56:03.322.27-Apr-2021 3242.51 4319.24 72.06 3.00 335.07 2657.85
   02:56:03.522.27-Apr-2021 3242.51 4319.24 72.06 3.00 335.27 2657.85
   02:56:03.722.27-Apr-2021 3242.51 4319.16 72.06 3.00 335.47 2657.85
   02:56:03.922.27-Apr-2021 3242.51 4319.10 72.06 3.00 335.67 2657.85
   02:56:04.122.27-Apr-2021 3242.51 4319.18 72.06 3.00 335.87 2657.85
   02:56:04.322.27-Apr-2021 3242.51 4319.14 72.06 3.00 336.07 2657.85
   02:56:04.522.27-Apr-2021 3242.51 4319.14 72.06 3.00 336.27 2657.85
   02:56:04.722.27-Apr-2021 3242.51 4319.08 72.06 3.00 336.47 2657.85
   02:56:04.922.27-Apr-2021 3242.51 4319.04 72.06 3.00 336.67 2657.85
   02:56:05.122.27-Apr-2021 3242.51 4319.08 72.06 3.00 336.87 2657.85
   02:56:05.322.27-Apr-2021 3242.51 4318.62 72.06 3.00 337.07 2657.85
   02:56:05.522.27-Apr-2021 3242.51 4318.62 72.06 3.00 337.27 2657.85
   02:56:05.722.27-Apr-2021 3242.51 4319.14 72.06 3.00 337.47 2657.85
   02:56:05.922.27-Apr-2021 3242.51 4319.16 72.06 3.00 337.67 2657.85
   02:56:06.122.27-Apr-2021 3242.51 4319.12 72.06 3.00 337.87 2657.85
   02:56:06.322.27-Apr-2021 3242.51 4319.24 72.06 3.00 338.07 2657.85
   02:56:06.522.27-Apr-2021 3242.51 4319.24 72.06 3.00 338.27 2657.85
   02:56:06.722.27-Apr-2021 3242.51 4319.21 72.06 3.00 338.47 2657.85
   02:56:06.922.27-Apr-2021 3242.51 4319.15 72.06 3.00 338.67 2657.85
   02:56:07.122.27-Apr-2021 3242.51 4319.20 72.06 3.00 338.87 2657.85
   02:56:07.322.27-Apr-2021 3242.51 4319.08 72.06 3.00 339.07 2657.85
   02:56:07.522.27-Apr-2021 3242.51 4319.08 72.06 3.00 339.27 2657.85
   02:56:07.722.27-Apr-2021 3242.51 4319.16 72.06 3.00 339.47 2657.85
   02:56:07.923.27-Apr-2021 3242.51 4319.12 72.05 3.00 339.67 2657.85
   02:56:08.123.27-Apr-2021 3242.51 4318.55 72.05 3.00 339.87 2657.85
   02:56:08.323.27-Apr-2021 3242.51 4319.17 72.05 3.00 340.07 2657.85
   02:56:08.523.27-Apr-2021 3242.51 4319.17 72.05 3.00 340.27 2657.85
   02:56:08.723.27-Apr-2021 3242.51 4319.18 72.05 3.00 340.47 2657.85
   02:56:08.923.27-Apr-2021 3242.51 4319.11 72.05 3.00 340.67 2657.85
   02:56:09.123.27-Apr-2021 3242.51 4319.07 72.05 3.00 340.87 2657.85
   02:56:09.323.27-Apr-2021 3242.51 4318.86 72.05 3.00 341.07 2657.85
   02:56:09.523.27-Apr-2021 3242.51 4318.86 72.05 3.00 341.27 2657.85
   02:56:09.723.27-Apr-2021 3242.51 4319.32 72.05 3.00 341.47 2657.85
   02:56:09.923.27-Apr-2021 3242.51 4319.25 72.05 3.00 341.67 2657.85
   02:56:10.123.27-Apr-2021 3242.51 4319.20 72.05 3.00 341.87 2657.85
   02:56:10.323.27-Apr-2021 3242.51 4319.11 72.05 3.00 342.07 2657.85
   02:56:10.523.27-Apr-2021 3242.51 4319.11 72.05 3.00 342.27 2657.85
   02:56:10.723.27-Apr-2021 3242.51 4319.20 72.05 3.00 342.47 2657.85
   02:56:10.923.27-Apr-2021 3242.51 4319.26 72.05 3.00 342.67 2657.85
   02:56:11.123.27-Apr-2021 3242.51 4319.11 72.05 3.00 342.87 2657.85
   02:56:11.323.27-Apr-2021 3242.51 4319.17 72.05 3.00 343.07 2657.85
   02:56:11.523.27-Apr-2021 3242.51 4319.17 72.05 3.00 343.27 2657.85
   02:56:11.723.27-Apr-2021 3242.51 4318.95 72.05 3.00 343.47 2657.85
   02:56:11.923.27-Apr-2021 3242.51 4319.01 72.05 3.00 343.67 2657.85
   02:56:12.123.27-Apr-2021 3242.51 4319.32 72.05 3.00 343.87 2657.85
   02:56:12.323.27-Apr-2021 3242.51 4319.21 72.05 3.00 344.07 2657.85
   02:56:12.523.27-Apr-2021 3242.51 4319.21 72.05 3.00 344.27 2657.85
   02:56:12.723.27-Apr-2021 3242.51 4320.47 72.05 3.00 344.47 2657.85
   02:56:12.924.27-Apr-2021 3242.51 4342.39 72.05 3.00 344.67 2657.85
   02:56:13.124.27-Apr-2021 3242.51 4767.17 72.04 3.00 344.87 2657.85
