~Version Information
 VERS.                  2.0:   CWLS log ASCII Standard -VERSION 2.0
 WRAP.                   NO:   One line per depth step
~Well Information Block
#MNEM.UNIT     VALUE/NAME     DESCRIPTION
#---------     -----------    ---------------------------
 STRT.S             06:42:00 27-Apr-21: START TIME 06:42:00 27-Apr-21
 STOP.S             06:48:27 27-Apr-21: STOP TIME  06:48:27 27-Apr-21
 STEP.S                   0.00: STEP TIME
 NULL.                 -999.25: NULL VALUE
 DFWT.                        :  DIST FWL TEXT
 DFST.                        :  DIST FSL TEXT
 DMF .             Drill Floor:  DRILL MEAS FROM
 STIM.      02.00.00 12-Apr-21:  START TIME
 DATE.      02.00.00 02-May-21:  END TIME
 SPUD.               09-Apr-21:  SPUD DATE
 NREF.                    Grid:  NORTH REFERENCE
 HPTY.       Minimum Curvature:  HOLE POS TYPE
 DMOD.             Drill Model:  DRILL MOD DESC
 SVYD.                  Survey:  SURVEY DESC
 ILTD.               Lithology:  INTERP LTH DESC
 FTOP.          Formation Tops:  FORM TOPS DESC
 PDAT.          Mean Sea Level:  PERMANENT DATUM
 FLD .                     ACG:  FIELD NAME
 SON .        AZ-XX-0907021034:  JOB NUMBER
 CTRY.              Azerbaijan:  COUNTRY NAME
 WELL.                    E01x:  WELL NAME
 COMP.     BP Exploration (Caspian Sea) LTD.:  COMPANY
 UWI .            /AZE00001403:  UNIQUE WELL IDENTIFIER
 API .            /AZE00001403:  API NUMBER
 WTYP.                Deviated:  WELL TYPE
 MDS .        Operator Entered:  MAG DATA SOURCE
 BASE.              Azerbaijan:  LOGGING EQUIPMENT BASE LOCATION
 REGN.                   EESSA:  REGION
 PROV.                    Baku:  PROVINCE
 STAT.                    Baku:  STATE NAME
 SRVC.          Turan Drilling:  CONTRACTOR
 MWDS.                    Baku:  MWD SHOP
 JOBN.        AZ-XX-0907021034:  JOB TICKET NUMB
 RIG .                     DWG:  RIG NAME
 DOE .                     N/A:  DOE NUMBER
 DCON.         Sperry Drilling:  DIRECTNL CONTR
 UNIT.                     N/A:  LOGGING EQUIPMENT ID
 CNTY.                        :  COUNTY
 LOC .                        :  LOCATION
 LMF .             Drill Floor:  LOG MEASURED FROM
 TVDS.m                  43.16:  TVDSS CORRECTN
 LATI.deg                40.17:  LATITUDE
 LONG.deg                51.17:  LONGITUDE
 WHNS.m                  -5.90:  WELL HEAD N/S
 WHEW.m                  -6.61:  WELL HEAD E/W
 UTMX.m              514337.95:  UTM X
 UTMY.m             4448627.46:  UTM Y
 DFWL.m                   0.00:  DISTANCE FWL
 DFSL.m                   0.00:  DISTANCE FSL
 SDEP.m                2606.87:  START DEPTH
 TDD .m                3618.01:  TOTAL DEPTH (DRILLER)
 VSDR.deg               177.42:  VERT SEC DIRECT
 GVFD.g                   1.00:  GRAVITY FIELD
 MFLD.nT              50399.00:  MAGNETIC FIELD
 MDIP.deg                59.67:  MAGNETIC DIP
 MDEC.deg                 6.56:  MAGNETIC DECL
 GRDC.deg                 0.11:  GRID CORRECTION
 AZTC.deg                 6.45:  AZM TOTAL CORR
 EPD .m                   0.00:  ELEVATION
 EGL .m                   0.00:  GROUND ELEVATION
 WDMS.m                 176.20:  WD ELEV
 APD .m                  43.16:  DEPTH ABOVE PD
 DEP .m                2606.87:  DEPTH
 AGAP.m                  43.16:  AIR GAP
 VSEW.m                  -6.61:  VERT SEC E/W
 VSNS.m                  -5.90:  VERT SEC N/S
 EKB .m                  43.16:  KB ELEVATION
 EDF .m                  43.16:  DF ELEVATION
 TDL .m                 438.00:  TOTAL DEPTH (LOGGER)
 VSC .                       0:  VS TO CLOSURE
 MAGU.                 1855490:  MAGUTM CHECKSUM
~Parameter Information Block
#MNEM.UNIT       Value        Description
#---------     -----------    ---------------------------
 AV  .mps                 2.20:  Ann Velocity 
 AVMX.mps                 2.50:  Max Ann Veloc 
 AZIF.deg               150.21:  Azm, Final 
 BHAT.        Rotary Steerable:  BHA Type 
 BROT.°/30m               0.08:  Build Rotating 
 BS  .in                  6.50:  Bit Size 
 BSZ .in                  6.50:  Bit Size 
 BTPL.psig              108.00:  Bit Press Loss 
 CABU.                     Yes:  Customer Abuse 
 CGEO.           Emin Aliyarli:  Customer Geo 
 COMM.                     )M:  Run Comments 1 
 TCS .hr                 74.20:  Time Ciculation Ended 
 CV  .mps                 3.63:  Crit Velocity 
 CVMX.mps                 3.66:  Max Crit Veloc 
 DD1 .         Intigam Rahimov:  Direct Drillr 1 
 DD2 .          Teymur Aghayev:  Direct Drillr 2 
 DDSV.               Geo-Pilot:  DD Service 
 DEFF.%                  97.00:  % Det Eff 
 DLRX.°/30m               1.63:  Dogleg Rot Max 
 DLSO.°/30m               0.00:  Dogleg Oriented 
 DLSX.°/30m               0.00:  Dogleg Str Max 
 DRET.      20.20.00 28-Apr-21:  Drill End Time 
 DRST.      04.45.00 26-Apr-21:  Drill Start Tim 
 DTIM.hr                 34.30:  Time Drilling 
 EDEP.m                3618.01:  End Depth 
 ENG1.           Amrah Tahirov:  Engineer 1 
 ENG2.         Bahruz Mehdiyev:  Engineer 2 
 ENG3.         Farhad Orujzade:  Engineer 3 
 ETIM.      19.00.00 29-Apr-21:  End Time 
 FLOI.gpm               370.00:  Flow In 
 FLON.gpm               300.00:  Flow In Min 
 FLOS.cptm                0.00:  Fluid Loss 
 FLOX.gpm               410.00:  Flow In Max 
 HFLO.                      No:  High Flow 
 HPRE.                      No:  High Pressure 
 HTEM.                      No:  High Temp 
 HYDO.m                   1.80:  Hydro Offset 
 IFIN.deg                67.19:  Inc, Final 
 IMAX.deg                68.42:  Inc Max 
 IMIN.deg                66.33:  Inc Min 
 IMND.m                3532.79:  Inc Min Depth 
 IMXD.m                3192.15:  Inc Max Depth 
 JARR.                      No:  Jarring 
 LETM.      20.20.00 28-Apr-21:  Log End Time 
 LOST.hr                     0:  Lost Rig Time 
 LSTM.      04.45.00 26-Apr-21:  Log Start Time 
 MDCL.ppm             36500.00:  Mud Chlorides 
 MDES.     Inversion Oil/Synthetic:  Mud Desc 
 DFD .sg                  1.42:  Mud Density 
 MDMN.sg                  1.42:  Dens Mud Min 
 MDMX.sg                  1.42:  Dens Mud Max 
 MOIL.                    55.7:  Run Mud Oil % 
 MOWR.                   71:29:  Run Mud OWR 
 MSND.                     0.1:  Run Mud Sand % 
 MSOL.                    19.9:  Run Mud Solids% 
 DFV .spqt               83.00:  Mud Viscosity 
 MWOD.in                  5.15:  MWD Tool OD 
 MWSI.                      No:  Serv Intrp, MWD 
 OTIM.hr                120.59:  Time Operating 
 PCON.           Look Like New:  Pad Condition 
 PMAX.psia            11292.93:  Press Op, Max 
 PV  .cP                 27.00:  Mud PV 
 RUN .                     400:  Run Number 
 ROPA.m/hr               14.00:  ROP Avg 
 ROPN.m/hr                9.00:  ROP Min 
 ROPX.m/hr               18.00:  ROP Max 
 RPMA.rpm               130.00:  RPM Surface Avg 
 RPMN.rpm               100.00:  RPM Surface Min 
 RPMX.rpm               140.00:  RPM Surface Max 
 RRUN.                    0400:  Rig Run Number 
 RTIM.hr                 38.60:  Time Reaming 
 SAZI.deg               149.55:  Azm, Start 
 SDEP.m                3180.01:  Start Depth 
 SIDD.                      No:  Serv Intrp, DD 
 SINC.deg                68.42:  Inc, Start 
 SPPA.psig             4400.00:  SPP Avg 
 SPPN.psig             3580.00:  SPP Min 
 SPPX.psig             4850.00:  SPP Max 
 STIM.      12.30.00 24-Apr-21:  Start Time 
 SVCS.                 DD, MWD:  Services 
 SVER.                    9.20:  Sperry Version 
 TDAT.m                 438.00:  Tot Depth Attmp 
 TDDF.                      No:  Trip for DD 
 TDLG.m                 438.00:  Tot Depth Loggd 
 TFF .                      No:  Trip for Fail 
 TQAA.f-kp               11.00:  Torque Abs Avg 
 TQAN.f-kp                9.00:  Torque Abs Min 
 TQAX.f-kp               14.00:  Torque Abs Max 
 TRRT.°/30m               0.04:  Turn Rotating 
 MRT .                    HCIM:  Maximum Recorded Temperature 
 TTMX.degC               84.31:  Max Tool Temp 
 VS01.                90521954:  Virtual Str1 SN 
 VS02.                90519327:  Virtual Str2 SN 
 VS03.                90522273:  Virtual Str3 SN 
 VS04.                11108038:  Virtual Str4 SN 
 VS05.                12258760:  Virtual Str5 SN 
 WBMN.klb                 1.00:  WOB Min 
 WITN.           Adil Mammadov:  Customer Rep 
 WITN.         Alex Yadullayev:  Customer Rep 2 
 WOBA.klb                 6.00:  WOB Avg 
 WOBX.klb                 9.00:  WOB Max 
 YP  .lhf2               31.00:  Yield Point 
~Curve Information Block
#MNEM.UNIT                 API CODE     Curve Description
#---------               -----------    ---------------------------
 TIME.HHMMSS            00 000 000 000:  GT Time & Date
 GTDEPTH.m              00 000 000 000:  GT Depth
 GTPQH.psia             00 000 000 000:  GT HR Quartz Pressure
 GTTQ.degC              00 000 000 000:  GT Quartz Temperature
 GTTN.NONE              00 000 000 000:  GT Test Number
 GTET.sec               00 000 000 000:  GT Elapsed Test Time
 GTTVD.m                00 000 000 000:  GT True Vertical Depth
#Other Information
#
#WARRANTY: Halliburton will use its best efforts to furnish customers with 
#accurate information and interpretations that are part of, and incident to, the services 
#provided.  However, Halliburton cannot and does not warrant the accuracy 
#or correctness of such information and interpretations.  Under no circumstances should any 
#such information or interpretation be relied upon as the sole basis for any drilling, 
#completion, production, or financial decision or any procedure involving any risk to the 
#safety of any drilling venture, drilling rig or its crew or any other third party.  The 
#Customer has full responsibility for all drilling, completion and production operation.  
#Halliburton makes no representations or warranties, either expressed or 
#implied, including, but not limited to, the implied warranties of merchantability or fitness 
#for a particular purpose, with respect to the services rendered.  In no event will 
#Halliburton be liable for failure to obtain any particular results or for 
#any damages, including, but not limited to, indirect, special or consequential damages, 
#resulting from the use of any information or interpretation provided by Halliburton.
#
~A           TIME           GTDEPTH  GTPQH  GTTQ  GTTN  GTET   GTTVD  
# ...
   06:43:55.867.27-Apr-2021 3278.01 4380.35 74.02 4.00 115.01 2671.88
   06:43:56.067.27-Apr-2021 3278.01 4380.35 74.02 4.00 115.21 2671.88
   06:43:56.267.27-Apr-2021 3278.01 4380.78 74.02 4.00 115.41 2671.88
   06:43:56.467.27-Apr-2021 3278.01 4380.73 74.02 4.00 115.61 2671.88
   06:43:56.667.27-Apr-2021 3278.01 4380.65 74.02 4.00 115.81 2671.88
   06:43:56.867.27-Apr-2021 3278.01 4380.61 74.02 4.00 116.01 2671.88
   06:43:57.067.27-Apr-2021 3278.01 4380.61 74.02 4.00 116.21 2671.88
   06:43:57.267.27-Apr-2021 3278.01 4380.72 74.02 4.00 116.41 2671.88
   06:43:57.467.27-Apr-2021 3278.01 4380.75 74.02 4.00 116.61 2671.88
   06:43:57.667.27-Apr-2021 3278.01 4380.65 74.02 4.00 116.81 2671.88
   06:43:57.867.27-Apr-2021 3278.01 4380.63 74.02 4.00 117.01 2671.88
   06:43:58.067.27-Apr-2021 3278.01 4380.63 74.02 4.00 117.21 2671.88
   06:43:58.267.27-Apr-2021 3278.01 4380.53 74.02 4.00 117.41 2671.88
   06:43:58.467.27-Apr-2021 3278.01 4380.15 74.02 4.00 117.61 2671.88
   06:43:58.667.27-Apr-2021 3278.01 4380.49 74.02 4.00 117.81 2671.88
   06:43:58.867.27-Apr-2021 3278.01 4380.63 74.01 4.00 118.01 2671.88
   06:43:59.067.27-Apr-2021 3278.01 4380.63 74.01 4.00 118.21 2671.88
   06:43:59.267.27-Apr-2021 3278.01 4380.56 74.01 4.00 118.41 2671.88
   06:43:59.467.27-Apr-2021 3278.01 4380.71 74.01 4.00 118.61 2671.88
   06:43:59.667.27-Apr-2021 3278.01 4380.52 74.01 4.00 118.81 2671.88
   06:43:59.867.27-Apr-2021 3278.01 4380.79 74.01 4.00 119.01 2671.88
   06:44:00.067.27-Apr-2021 3278.01 4380.79 74.01 4.00 119.21 2671.88
   06:44:00.267.27-Apr-2021 3278.01 4380.73 74.01 4.00 119.41 2671.88
   06:44:00.467.27-Apr-2021 3278.01 4380.54 74.01 4.00 119.61 2671.88
   06:44:00.667.27-Apr-2021 3278.01 4380.70 74.01 4.00 119.81 2671.88
   06:44:00.867.27-Apr-2021 3278.01 4380.67 74.01 4.00 120.01 2671.88
   06:44:01.067.27-Apr-2021 3278.01 4380.67 74.01 4.00 120.21 2671.88
   06:44:01.267.27-Apr-2021 3278.01 4380.24 74.01 4.00 120.41 2671.88
   06:44:01.467.27-Apr-2021 3278.01 4380.51 74.01 4.00 120.61 2671.88
   06:44:01.667.27-Apr-2021 3278.01 4380.85 74.01 4.00 120.81 2671.88
   06:44:01.867.27-Apr-2021 3278.01 4380.62 74.01 4.00 121.01 2671.88
   06:44:02.067.27-Apr-2021 3278.01 4380.62 74.01 4.00 121.21 2671.88
   06:44:02.267.27-Apr-2021 3278.01 4380.52 74.01 4.00 121.41 2671.88
   06:44:02.467.27-Apr-2021 3278.01 4380.83 74.00 4.00 121.61 2671.88
   06:44:02.667.27-Apr-2021 3278.01 4380.80 74.00 4.00 121.81 2671.88
   06:44:02.867.27-Apr-2021 3278.01 4380.44 74.00 4.00 122.01 2671.88
   06:44:03.067.27-Apr-2021 3278.01 4380.44 74.00 4.00 122.21 2671.88
   06:44:03.267.27-Apr-2021 3278.01 4380.65 74.00 4.00 122.41 2671.88
   06:44:03.467.27-Apr-2021 3278.01 4380.74 74.00 4.00 122.61 2671.88
   06:44:03.667.27-Apr-2021 3278.01 4380.96 74.00 4.00 122.81 2671.88
   06:44:03.867.27-Apr-2021 3278.01 4380.02 74.00 4.00 123.01 2671.88
   06:44:04.068.27-Apr-2021 3278.01 4380.02 74.00 4.00 123.21 2671.88
   06:44:04.268.27-Apr-2021 3278.01 4380.56 74.00 4.00 123.41 2671.88
   06:44:04.468.27-Apr-2021 3278.01 4380.96 74.00 4.00 123.61 2671.88
   06:44:04.668.27-Apr-2021 3278.01 4380.76 74.00 4.00 123.81 2671.88
   06:44:04.868.27-Apr-2021 3278.01 4380.86 74.00 4.00 124.01 2671.88
   06:44:05.068.27-Apr-2021 3278.01 4380.86 74.00 4.00 124.21 2671.88
   06:44:05.268.27-Apr-2021 3278.01 4380.78 74.00 4.00 124.41 2671.88
   06:44:05.468.27-Apr-2021 3278.01 4380.82 74.00 4.00 124.61 2671.88
   06:44:05.668.27-Apr-2021 3278.01 4380.87 74.00 4.00 124.81 2671.88
   06:44:05.868.27-Apr-2021 3278.01 4380.76 73.99 4.00 125.01 2671.88
   06:44:06.068.27-Apr-2021 3278.01 4380.76 73.99 4.00 125.21 2671.88
   06:44:06.268.27-Apr-2021 3278.01 4380.72 73.99 4.00 125.41 2671.88
   06:44:06.468.27-Apr-2021 3278.01 4380.20 73.99 4.00 125.61 2671.88
   06:44:06.668.27-Apr-2021 3278.01 4380.74 73.99 4.00 125.81 2671.88
   06:44:06.868.27-Apr-2021 3278.01 4380.61 73.99 4.00 126.01 2671.88
   06:44:07.068.27-Apr-2021 3278.01 4380.61 73.99 4.00 126.21 2671.88
   06:44:07.268.27-Apr-2021 3278.01 4380.79 73.99 4.00 126.41 2671.88
   06:44:07.468.27-Apr-2021 3278.01 4380.83 73.99 4.00 126.61 2671.88
   06:44:07.668.27-Apr-2021 3278.01 4380.74 73.99 4.00 126.81 2671.88
   06:44:07.868.27-Apr-2021 3278.01 4380.84 73.99 4.00 127.01 2671.88
   06:44:08.068.27-Apr-2021 3278.01 4380.84 73.99 4.00 127.21 2671.88
   06:44:08.268.27-Apr-2021 3278.01 4380.98 73.99 4.00 127.41 2671.88
   06:44:08.468.27-Apr-2021 3278.01 4380.76 73.99 4.00 127.61 2671.88
   06:44:08.668.27-Apr-2021 3278.01 4380.86 73.99 4.00 127.81 2671.88
   06:44:08.868.27-Apr-2021 3278.01 4380.81 73.99 4.00 128.01 2671.88
   06:44:09.068.27-Apr-2021 3278.01 4380.81 73.99 4.00 128.21 2671.88
   06:44:09.268.27-Apr-2021 3278.01 4380.81 73.99 4.00 128.41 2671.88
   06:44:09.468.27-Apr-2021 3278.01 4380.74 73.98 4.00 128.61 2671.88
   06:44:09.668.27-Apr-2021 3278.01 4380.51 73.98 4.00 128.81 2671.88
   06:44:09.868.27-Apr-2021 3278.01 4380.95 73.98 4.00 129.01 2671.88
   06:44:10.068.27-Apr-2021 3278.01 4380.95 73.98 4.00 129.21 2671.88
   06:44:10.268.27-Apr-2021 3278.01 4380.92 73.98 4.00 129.41 2671.88
   06:44:10.468.27-Apr-2021 3278.01 4380.66 73.98 4.00 129.61 2671.88
   06:44:10.668.27-Apr-2021 3278.01 4380.87 73.98 4.00 129.81 2671.88
   06:44:10.868.27-Apr-2021 3278.01 4381.00 73.98 4.00 130.01 2671.88
   06:44:11.068.27-Apr-2021 3278.01 4381.00 73.98 4.00 130.21 2671.88
   06:44:11.268.27-Apr-2021 3278.01 4381.02 73.98 4.00 130.41 2671.88
   06:44:11.468.27-Apr-2021 3278.01 4380.92 73.98 4.00 130.61 2671.88
   06:44:11.668.27-Apr-2021 3278.01 4381.01 73.98 4.00 130.81 2671.88
   06:44:11.868.27-Apr-2021 3278.01 4356.02 73.98 4.00 131.01 2671.88
   06:44:12.068.27-Apr-2021 3278.01 4356.02 73.98 4.00 131.21 2671.88
   06:44:12.268.27-Apr-2021 3278.01 3867.25 73.98 4.00 131.41 2671.88
   06:44:12.468.27-Apr-2021 3278.01 3813.31 73.98 4.00 131.61 2671.88
   06:44:12.668.27-Apr-2021 3278.01 3790.21 73.98 4.00 131.81 2671.88
   06:44:12.868.27-Apr-2021 3278.01 3779.79 73.97 4.00 132.01 2671.88
   06:44:13.068.27-Apr-2021 3278.01 3779.79 73.97 4.00 132.21 2671.88
   06:44:13.268.27-Apr-2021 3278.01 3769.40 73.97 4.00 132.41 2671.88
   06:44:13.468.27-Apr-2021 3278.01 3767.32 73.97 4.00 132.61 2671.88
   06:44:13.668.27-Apr-2021 3278.01 3765.38 73.97 4.00 132.81 2671.88
   06:44:13.868.27-Apr-2021 3278.01 3760.96 73.97 4.00 133.01 2671.88
   06:44:14.068.27-Apr-2021 3278.01 3760.96 73.97 4.00 133.21 2671.88
   06:44:14.268.27-Apr-2021 3278.01 3757.64 73.97 4.00 133.41 2671.88
   06:44:14.468.27-Apr-2021 3278.01 3757.51 73.97 4.00 133.61 2671.88
   06:44:14.668.27-Apr-2021 3278.01 3747.63 73.97 4.00 133.81 2671.88
   06:44:14.868.27-Apr-2021 3278.01 3749.90 73.97 4.00 134.01 2671.88
   06:44:15.068.27-Apr-2021 3278.01 3749.90 73.97 4.00 134.21 2671.88
   06:44:15.268.27-Apr-2021 3278.01 3748.37 73.97 4.00 134.41 2671.88
   06:44:15.468.27-Apr-2021 3278.01 3749.36 73.97 4.00 134.61 2671.88
   06:44:15.668.27-Apr-2021 3278.01 3748.56 73.96 4.00 134.81 2671.88
   06:44:15.869.27-Apr-2021 3278.01 3747.34 73.96 4.00 135.01 2671.88
   06:44:16.069.27-Apr-2021 3278.01 3747.34 73.96 4.00 135.21 2671.88
   06:44:16.269.27-Apr-2021 3278.01 3742.97 73.96 4.00 135.41 2671.88
   06:44:16.469.27-Apr-2021 3278.01 3743.74 73.96 4.00 135.61 2671.88
   06:44:16.669.27-Apr-2021 3278.01 3742.70 73.96 4.00 135.81 2671.88
   06:44:16.869.27-Apr-2021 3278.01 3741.25 73.96 4.00 136.01 2671.88
   06:44:17.069.27-Apr-2021 3278.01 3741.25 73.96 4.00 136.21 2671.88
   06:44:17.269.27-Apr-2021 3278.01 3738.06 73.96 4.00 136.41 2671.88
   06:44:17.469.27-Apr-2021 3278.01 3731.73 73.96 4.00 136.61 2671.88
   06:44:17.669.27-Apr-2021 3278.01 3735.90 73.96 4.00 136.81 2671.88
   06:44:17.869.27-Apr-2021 3278.01 3737.60 73.96 4.00 137.01 2671.88
   06:44:18.069.27-Apr-2021 3278.01 3737.60 73.96 4.00 137.21 2671.88
   06:44:18.269.27-Apr-2021 3278.01 3730.39 73.96 4.00 137.41 2671.88
   06:44:18.469.27-Apr-2021 3278.01 3734.19 73.95 4.00 137.61 2671.88
   06:44:18.669.27-Apr-2021 3278.01 3735.37 73.95 4.00 137.81 2671.88
