~Version Information
 VERS.                  2.0:   CWLS log ASCII Standard -VERSION 2.0
 WRAP.                   NO:   One line per depth step
~Well Information Block
#MNEM.UNIT     VALUE/NAME     DESCRIPTION
#---------     -----------    ---------------------------
 STRT.S             15:37:44 28-Apr-21: START TIME 15:37:44 28-Apr-21
 STOP.S             15:44:12 28-Apr-21: STOP TIME  15:44:12 28-Apr-21
 STEP.S                   0.00: STEP TIME
 NULL.                 -999.25: NULL VALUE
 DFWT.                        :  DIST FWL TEXT
 DFST.                        :  DIST FSL TEXT
 DMF .             Drill Floor:  DRILL MEAS FROM
 STIM.      02.00.00 12-Apr-21:  START TIME
 DATE.      02.00.00 02-May-21:  END TIME
 SPUD.               09-Apr-21:  SPUD DATE
 NREF.                    Grid:  NORTH REFERENCE
 HPTY.       Minimum Curvature:  HOLE POS TYPE
 DMOD.             Drill Model:  DRILL MOD DESC
 SVYD.                  Survey:  SURVEY DESC
 ILTD.               Lithology:  INTERP LTH DESC
 FTOP.          Formation Tops:  FORM TOPS DESC
 PDAT.          Mean Sea Level:  PERMANENT DATUM
 FLD .                     ACG:  FIELD NAME
 SON .        AZ-XX-0907021034:  JOB NUMBER
 CTRY.              Azerbaijan:  COUNTRY NAME
 WELL.                    E01x:  WELL NAME
 COMP.     BP Exploration (Caspian Sea) LTD.:  COMPANY
 UWI .            /AZE00001403:  UNIQUE WELL IDENTIFIER
 API .            /AZE00001403:  API NUMBER
 WTYP.                Deviated:  WELL TYPE
 MDS .        Operator Entered:  MAG DATA SOURCE
 BASE.              Azerbaijan:  LOGGING EQUIPMENT BASE LOCATION
 REGN.                   EESSA:  REGION
 PROV.                    Baku:  PROVINCE
 STAT.                    Baku:  STATE NAME
 SRVC.          Turan Drilling:  CONTRACTOR
 MWDS.                    Baku:  MWD SHOP
 JOBN.        AZ-XX-0907021034:  JOB TICKET NUMB
 RIG .                     DWG:  RIG NAME
 DOE .                     N/A:  DOE NUMBER
 DCON.         Sperry Drilling:  DIRECTNL CONTR
 UNIT.                     N/A:  LOGGING EQUIPMENT ID
 CNTY.                        :  COUNTY
 LOC .                        :  LOCATION
 LMF .             Drill Floor:  LOG MEASURED FROM
 TVDS.m                  43.16:  TVDSS CORRECTN
 LATI.deg                40.17:  LATITUDE
 LONG.deg                51.17:  LONGITUDE
 WHNS.m                  -5.90:  WELL HEAD N/S
 WHEW.m                  -6.61:  WELL HEAD E/W
 UTMX.m              514337.95:  UTM X
 UTMY.m             4448627.46:  UTM Y
 DFWL.m                   0.00:  DISTANCE FWL
 DFSL.m                   0.00:  DISTANCE FSL
 SDEP.m                2606.87:  START DEPTH
 TDD .m                3618.01:  TOTAL DEPTH (DRILLER)
 VSDR.deg               177.42:  VERT SEC DIRECT
 GVFD.g                   1.00:  GRAVITY FIELD
 MFLD.nT              50399.00:  MAGNETIC FIELD
 MDIP.deg                59.67:  MAGNETIC DIP
 MDEC.deg                 6.56:  MAGNETIC DECL
 GRDC.deg                 0.11:  GRID CORRECTION
 AZTC.deg                 6.45:  AZM TOTAL CORR
 EPD .m                   0.00:  ELEVATION
 EGL .m                   0.00:  GROUND ELEVATION
 WDMS.m                 176.20:  WD ELEV
 APD .m                  43.16:  DEPTH ABOVE PD
 DEP .m                2606.87:  DEPTH
 AGAP.m                  43.16:  AIR GAP
 VSEW.m                  -6.61:  VERT SEC E/W
 VSNS.m                  -5.90:  VERT SEC N/S
 EKB .m                  43.16:  KB ELEVATION
 EDF .m                  43.16:  DF ELEVATION
 TDL .m                 438.00:  TOTAL DEPTH (LOGGER)
 VSC .                       0:  VS TO CLOSURE
 MAGU.                 1855490:  MAGUTM CHECKSUM
~Parameter Information Block
#MNEM.UNIT       Value        Description
#---------     -----------    ---------------------------
 AV  .mps                 2.20:  Ann Velocity 
 AVMX.mps                 2.50:  Max Ann Veloc 
 AZIF.deg               150.21:  Azm, Final 
 BHAT.        Rotary Steerable:  BHA Type 
 BROT.°/30m               0.08:  Build Rotating 
 BS  .in                  6.50:  Bit Size 
 BSZ .in                  6.50:  Bit Size 
 BTPL.psig              108.00:  Bit Press Loss 
 CABU.                     Yes:  Customer Abuse 
 CGEO.           Emin Aliyarli:  Customer Geo 
 COMM.                     ôŸZ:  Run Comments 1 
 TCS .hr                 74.20:  Time Ciculation Ended 
 CV  .mps                 3.63:  Crit Velocity 
 CVMX.mps                 3.66:  Max Crit Veloc 
 DD1 .         Intigam Rahimov:  Direct Drillr 1 
 DD2 .          Teymur Aghayev:  Direct Drillr 2 
 DDSV.               Geo-Pilot:  DD Service 
 DEFF.%                  97.00:  % Det Eff 
 DLRX.°/30m               1.63:  Dogleg Rot Max 
 DLSO.°/30m               0.00:  Dogleg Oriented 
 DLSX.°/30m               0.00:  Dogleg Str Max 
 DRET.      20.20.00 28-Apr-21:  Drill End Time 
 DRST.      04.45.00 26-Apr-21:  Drill Start Tim 
 DTIM.hr                 34.30:  Time Drilling 
 EDEP.m                3618.01:  End Depth 
 ENG1.           Amrah Tahirov:  Engineer 1 
 ENG2.         Bahruz Mehdiyev:  Engineer 2 
 ENG3.         Farhad Orujzade:  Engineer 3 
 ETIM.      19.00.00 29-Apr-21:  End Time 
 FLOI.gpm               370.00:  Flow In 
 FLON.gpm               300.00:  Flow In Min 
 FLOS.cptm                0.00:  Fluid Loss 
 FLOX.gpm               410.00:  Flow In Max 
 HFLO.                      No:  High Flow 
 HPRE.                      No:  High Pressure 
 HTEM.                      No:  High Temp 
 HYDO.m                   1.80:  Hydro Offset 
 IFIN.deg                67.19:  Inc, Final 
 IMAX.deg                68.42:  Inc Max 
 IMIN.deg                66.33:  Inc Min 
 IMND.m                3532.79:  Inc Min Depth 
 IMXD.m                3192.15:  Inc Max Depth 
 JARR.                      No:  Jarring 
 LETM.      20.20.00 28-Apr-21:  Log End Time 
 LOST.hr                     0:  Lost Rig Time 
 LSTM.      04.45.00 26-Apr-21:  Log Start Time 
 MDCL.ppm             36500.00:  Mud Chlorides 
 MDES.     Inversion Oil/Synthetic:  Mud Desc 
 DFD .sg                  1.42:  Mud Density 
 MDMN.sg                  1.42:  Dens Mud Min 
 MDMX.sg                  1.42:  Dens Mud Max 
 MOIL.                    55.7:  Run Mud Oil % 
 MOWR.                   71:29:  Run Mud OWR 
 MSND.                     0.1:  Run Mud Sand % 
 MSOL.                    19.9:  Run Mud Solids% 
 DFV .spqt               83.00:  Mud Viscosity 
 MWOD.in                  5.15:  MWD Tool OD 
 MWSI.                      No:  Serv Intrp, MWD 
 OTIM.hr                120.59:  Time Operating 
 PCON.           Look Like New:  Pad Condition 
 PMAX.psia            11292.93:  Press Op, Max 
 PV  .cP                 27.00:  Mud PV 
 RUN .                     400:  Run Number 
 ROPA.m/hr               14.00:  ROP Avg 
 ROPN.m/hr                9.00:  ROP Min 
 ROPX.m/hr               18.00:  ROP Max 
 RPMA.rpm               130.00:  RPM Surface Avg 
 RPMN.rpm               100.00:  RPM Surface Min 
 RPMX.rpm               140.00:  RPM Surface Max 
 RRUN.                    0400:  Rig Run Number 
 RTIM.hr                 38.60:  Time Reaming 
 SAZI.deg               149.55:  Azm, Start 
 SDEP.m                3180.01:  Start Depth 
 SIDD.                      No:  Serv Intrp, DD 
 SINC.deg                68.42:  Inc, Start 
 SPPA.psig             4400.00:  SPP Avg 
 SPPN.psig             3580.00:  SPP Min 
 SPPX.psig             4850.00:  SPP Max 
 STIM.      12.30.00 24-Apr-21:  Start Time 
 SVCS.                 DD, MWD:  Services 
 SVER.                    9.20:  Sperry Version 
 TDAT.m                 438.00:  Tot Depth Attmp 
 TDDF.                      No:  Trip for DD 
 TDLG.m                 438.00:  Tot Depth Loggd 
 TFF .                      No:  Trip for Fail 
 TQAA.f-kp               11.00:  Torque Abs Avg 
 TQAN.f-kp                9.00:  Torque Abs Min 
 TQAX.f-kp               14.00:  Torque Abs Max 
 TRRT.°/30m               0.04:  Turn Rotating 
 MRT .                    HCIM:  Maximum Recorded Temperature 
 TTMX.degC               84.31:  Max Tool Temp 
 VS01.                90521954:  Virtual Str1 SN 
 VS02.                90519327:  Virtual Str2 SN 
 VS03.                90522273:  Virtual Str3 SN 
 VS04.                11108038:  Virtual Str4 SN 
 VS05.                12258760:  Virtual Str5 SN 
 WBMN.klb                 1.00:  WOB Min 
 WITN.           Adil Mammadov:  Customer Rep 
 WITN.         Alex Yadullayev:  Customer Rep 2 
 WOBA.klb                 6.00:  WOB Avg 
 WOBX.klb                 9.00:  WOB Max 
 YP  .lhf2               31.00:  Yield Point 
~Curve Information Block
#MNEM.UNIT                 API CODE     Curve Description
#---------               -----------    ---------------------------
 TIME.HHMMSS            00 000 000 000:  GT Time & Date
 GTDEPTH.m              00 000 000 000:  GT Depth
 GTPQH.psia             00 000 000 000:  GT HR Quartz Pressure
 GTTQ.degC              00 000 000 000:  GT Quartz Temperature
 GTTN.NONE              00 000 000 000:  GT Test Number
 GTET.sec               00 000 000 000:  GT Elapsed Test Time
 GTTVD.m                00 000 000 000:  GT True Vertical Depth
#Other Information
#
#WARRANTY: Halliburton will use its best efforts to furnish customers with 
#accurate information and interpretations that are part of, and incident to, the services 
#provided.  However, Halliburton cannot and does not warrant the accuracy 
#or correctness of such information and interpretations.  Under no circumstances should any 
#such information or interpretation be relied upon as the sole basis for any drilling, 
#completion, production, or financial decision or any procedure involving any risk to the 
#safety of any drilling venture, drilling rig or its crew or any other third party.  The 
#Customer has full responsibility for all drilling, completion and production operation.  
#Halliburton makes no representations or warranties, either expressed or 
#implied, including, but not limited to, the implied warranties of merchantability or fitness 
#for a particular purpose, with respect to the services rendered.  In no event will 
#Halliburton be liable for failure to obtain any particular results or for 
#any damages, including, but not limited to, indirect, special or consequential damages, 
#resulting from the use of any information or interpretation provided by Halliburton.
#
~A           TIME           GTDEPTH  GTPQH  GTTQ  GTTN   GTET   GTTVD  
# ...
   15:39:59.966.28-Apr-2021 3537.51 4250.66 74.76 10.00 135.65 2773.98
   15:40:00.166.28-Apr-2021 3537.51 4250.45 74.76 10.00 135.85 2773.98
   15:40:00.366.28-Apr-2021 3537.51 4250.68 74.76 10.00 136.05 2773.98
   15:40:00.566.28-Apr-2021 3537.51 4250.68 74.76 10.00 136.25 2773.98
   15:40:00.766.28-Apr-2021 3537.51 4250.50 74.76 10.00 136.45 2773.98
   15:40:00.966.28-Apr-2021 3537.51 4250.68 74.76 10.00 136.65 2773.98
   15:40:01.166.28-Apr-2021 3537.51 4250.37 74.76 10.00 136.85 2773.98
   15:40:01.366.28-Apr-2021 3537.51 4250.03 74.76 10.00 137.05 2773.98
   15:40:01.567.28-Apr-2021 3537.51 4250.03 74.76 10.00 137.25 2773.98
   15:40:01.767.28-Apr-2021 3537.51 4250.55 74.76 10.00 137.45 2773.98
   15:40:01.967.28-Apr-2021 3537.51 4250.24 74.76 10.00 137.65 2773.98
   15:40:02.167.28-Apr-2021 3537.51 4250.23 74.76 10.00 137.85 2773.98
   15:40:02.367.28-Apr-2021 3537.51 4250.25 74.75 10.00 138.05 2773.98
   15:40:02.567.28-Apr-2021 3537.51 4250.25 74.75 10.00 138.25 2773.98
   15:40:02.767.28-Apr-2021 3537.51 4250.32 74.75 10.00 138.45 2773.98
   15:40:02.967.28-Apr-2021 3537.51 4250.91 74.75 10.00 138.65 2773.98
   15:40:03.167.28-Apr-2021 3537.51 4250.73 74.75 10.00 138.85 2773.98
   15:40:03.367.28-Apr-2021 3537.51 4250.37 74.75 10.00 139.05 2773.98
   15:40:03.567.28-Apr-2021 3537.51 4250.37 74.75 10.00 139.25 2773.98
   15:40:03.767.28-Apr-2021 3537.51 4251.33 74.75 10.00 139.45 2773.98
   15:40:03.967.28-Apr-2021 3537.51 4250.51 74.75 10.00 139.65 2773.98
   15:40:04.168.28-Apr-2021 3537.51 4250.54 74.75 10.00 139.85 2773.98
   15:40:04.368.28-Apr-2021 3537.51 4250.54 74.75 10.00 140.05 2773.98
   15:40:04.568.28-Apr-2021 3537.51 4250.54 74.75 10.00 140.25 2773.98
   15:40:04.768.28-Apr-2021 3537.51 4250.42 74.75 10.00 140.45 2773.98
   15:40:04.968.28-Apr-2021 3537.51 4250.79 74.75 10.00 140.65 2773.98
   15:40:05.168.28-Apr-2021 3537.51 4250.70 74.75 10.00 140.85 2773.98
   15:40:05.368.28-Apr-2021 3537.51 4257.58 74.75 10.00 141.05 2773.98
   15:40:05.568.28-Apr-2021 3537.51 4257.58 74.75 10.00 141.25 2773.98
   15:40:05.768.28-Apr-2021 3537.51 4281.05 74.75 10.00 141.45 2773.98
   15:40:05.968.28-Apr-2021 3537.51 4281.11 74.74 10.00 141.65 2773.98
   15:40:06.168.28-Apr-2021 3537.51 4281.12 74.74 10.00 141.85 2773.98
   15:40:06.368.28-Apr-2021 3537.51 4250.54 74.75 10.00 142.05 2773.98
   15:40:06.568.28-Apr-2021 3537.51 4281.14 74.74 10.00 142.25 2773.98
   15:40:06.768.28-Apr-2021 3537.51 4281.14 74.74 10.00 142.45 2773.98
   15:40:06.969.28-Apr-2021 3537.51 4281.25 74.74 10.00 142.65 2773.98
   15:40:07.169.28-Apr-2021 3537.51 4281.13 74.74 10.00 142.85 2773.98
   15:40:07.369.28-Apr-2021 3537.51 4281.24 74.74 10.00 143.05 2773.98
   15:40:07.569.28-Apr-2021 3537.51 4281.24 74.74 10.00 143.25 2773.98
   15:40:07.769.28-Apr-2021 3537.51 4281.34 74.74 10.00 143.45 2773.98
   15:40:07.969.28-Apr-2021 3537.51 4281.33 74.74 10.00 143.65 2773.98
   15:40:08.169.28-Apr-2021 3537.51 4281.24 74.74 10.00 143.85 2773.98
   15:40:08.369.28-Apr-2021 3537.51 4281.35 74.74 10.00 144.05 2773.98
   15:40:08.569.28-Apr-2021 3537.51 4281.35 74.74 10.00 144.26 2773.98
   15:40:08.769.28-Apr-2021 3537.51 4281.32 74.74 10.00 144.46 2773.98
   15:40:08.969.28-Apr-2021 3537.51 4281.31 74.74 10.00 144.66 2773.98
   15:40:09.169.28-Apr-2021 3537.51 4281.31 74.74 10.00 144.86 2773.98
   15:40:09.369.28-Apr-2021 3537.51 4281.34 74.74 10.00 145.06 2773.98
   15:40:09.570.28-Apr-2021 3537.51 4281.34 74.74 10.00 145.26 2773.98
   15:40:09.770.28-Apr-2021 3537.51 4281.33 74.73 10.00 145.46 2773.98
   15:40:09.970.28-Apr-2021 3537.51 4281.18 74.73 10.00 145.66 2773.98
   15:40:10.170.28-Apr-2021 3537.51 4281.37 74.73 10.00 145.86 2773.98
   15:40:10.370.28-Apr-2021 3537.51 4281.36 74.73 10.00 146.06 2773.98
   15:40:10.570.28-Apr-2021 3537.51 4281.36 74.73 10.00 146.26 2773.98
   15:40:10.770.28-Apr-2021 3537.51 4281.35 74.73 10.00 146.46 2773.98
   15:40:10.970.28-Apr-2021 3537.51 4281.29 74.73 10.00 146.66 2773.98
   15:40:11.170.28-Apr-2021 3537.51 4281.17 74.73 10.00 146.86 2773.98
   15:40:11.370.28-Apr-2021 3537.51 4281.48 74.73 10.00 147.06 2773.98
   15:40:11.570.28-Apr-2021 3537.51 4281.48 74.73 10.00 147.26 2773.98
   15:40:11.770.28-Apr-2021 3537.51 4281.34 74.73 10.00 147.46 2773.98
   15:40:11.970.28-Apr-2021 3537.51 4281.24 74.73 10.00 147.66 2773.98
   15:40:12.171.28-Apr-2021 3537.51 4281.37 74.73 10.00 147.86 2773.98
   15:40:12.371.28-Apr-2021 3537.51 4281.39 74.73 10.00 148.06 2773.98
   15:40:12.571.28-Apr-2021 3537.51 4281.39 74.73 10.00 148.26 2773.98
   15:40:12.771.28-Apr-2021 3537.51 4281.39 74.73 10.00 148.46 2773.98
   15:40:12.971.28-Apr-2021 3537.51 4281.30 74.73 10.00 148.66 2773.98
   15:40:13.171.28-Apr-2021 3537.51 4281.30 74.72 10.00 148.86 2773.98
   15:40:13.371.28-Apr-2021 3537.51 4281.34 74.72 10.00 149.06 2773.98
   15:40:13.571.28-Apr-2021 3537.51 4281.34 74.72 10.00 149.26 2773.98
   15:40:13.771.28-Apr-2021 3537.51 4281.37 74.72 10.00 149.46 2773.98
   15:40:13.971.28-Apr-2021 3537.51 4281.35 74.72 10.00 149.66 2773.98
   15:40:14.171.28-Apr-2021 3537.51 4281.31 74.72 10.00 149.86 2773.98
   15:40:14.371.28-Apr-2021 3537.51 4281.39 74.72 10.00 150.06 2773.98
   15:40:14.571.28-Apr-2021 3537.51 4281.39 74.72 10.00 150.26 2773.98
   15:40:14.772.28-Apr-2021 3537.51 4281.34 74.72 10.00 150.46 2773.98
   15:40:14.972.28-Apr-2021 3537.51 4281.34 74.72 10.00 150.66 2773.98
   15:40:15.172.28-Apr-2021 3537.51 4281.34 74.72 10.00 150.86 2773.98
   15:40:15.372.28-Apr-2021 3537.51 4281.37 74.72 10.00 151.06 2773.98
   15:40:15.572.28-Apr-2021 3537.51 4281.37 74.72 10.00 151.26 2773.98
   15:40:15.772.28-Apr-2021 3537.51 4281.31 74.72 10.00 151.46 2773.98
   15:40:15.972.28-Apr-2021 3537.51 4281.26 74.72 10.00 151.66 2773.98
   15:40:16.172.28-Apr-2021 3537.51 4281.36 74.72 10.00 151.86 2773.98
   15:40:16.372.28-Apr-2021 3537.51 4281.39 74.72 10.00 152.06 2773.98
   15:40:16.572.28-Apr-2021 3537.51 4281.39 74.72 10.00 152.26 2773.98
   15:40:16.772.28-Apr-2021 3537.51 4281.32 74.72 10.00 152.46 2773.98
   15:40:16.972.28-Apr-2021 3537.51 4281.35 74.71 10.00 152.66 2773.98
   15:40:17.172.28-Apr-2021 3537.51 4281.37 74.71 10.00 152.86 2773.98
   15:40:17.373.28-Apr-2021 3537.51 4281.33 74.71 10.00 153.06 2773.98
   15:40:17.573.28-Apr-2021 3537.51 4281.33 74.71 10.00 153.26 2773.98
   15:40:17.773.28-Apr-2021 3537.51 4281.34 74.71 10.00 153.46 2773.98
   15:40:17.973.28-Apr-2021 3537.51 4281.33 74.71 10.00 153.66 2773.98
   15:40:18.173.28-Apr-2021 3537.51 4281.36 74.71 10.00 153.86 2773.98
   15:40:18.373.28-Apr-2021 3537.51 4281.32 74.71 10.00 154.06 2773.98
   15:40:18.573.28-Apr-2021 3537.51 4281.32 74.71 10.00 154.26 2773.98
   15:40:18.773.28-Apr-2021 3537.51 4281.28 74.71 10.00 154.46 2773.98
   15:40:18.973.28-Apr-2021 3537.51 4281.38 74.71 10.00 154.66 2773.98
   15:40:19.173.28-Apr-2021 3537.51 4281.38 74.71 10.00 154.86 2773.98
   15:40:19.373.28-Apr-2021 3537.51 4281.33 74.71 10.00 155.06 2773.98
   15:40:19.573.28-Apr-2021 3537.51 4281.33 74.71 10.00 155.26 2773.98
   15:40:19.773.28-Apr-2021 3537.51 4281.35 74.71 10.00 155.46 2773.98
   15:40:19.974.28-Apr-2021 3537.51 4281.11 74.71 10.00 155.66 2773.98
   15:40:20.174.28-Apr-2021 3537.51 4281.47 74.71 10.00 155.86 2773.98
   15:40:20.374.28-Apr-2021 3537.51 4281.39 74.71 10.00 156.06 2773.98
   15:40:20.574.28-Apr-2021 3537.51 4281.39 74.71 10.00 156.26 2773.98
   15:40:20.774.28-Apr-2021 3537.51 4281.19 74.70 10.00 156.46 2773.98
   15:40:20.974.28-Apr-2021 3537.51 4281.42 74.70 10.00 156.66 2773.98
   15:40:21.174.28-Apr-2021 3537.51 4281.36 74.70 10.00 156.86 2773.98
   15:40:21.374.28-Apr-2021 3537.51 4281.35 74.70 10.00 157.06 2773.98
   15:40:21.574.28-Apr-2021 3537.51 4281.35 74.70 10.00 157.26 2773.98
   15:40:21.774.28-Apr-2021 3537.51 4281.28 74.70 10.00 157.46 2773.98
   15:40:21.974.28-Apr-2021 3537.51 4281.13 74.70 10.00 157.66 2773.98
   15:40:22.174.28-Apr-2021 3537.51 4281.48 74.70 10.00 157.86 2773.98
   15:40:22.374.28-Apr-2021 3537.51 4281.42 74.70 10.00 158.06 2773.98
