~Version Information
 VERS.                  2.0:   CWLS log ASCII Standard -VERSION 2.0
 WRAP.                   NO:   One line per depth step
~Well Information Block
#MNEM.UNIT     VALUE/NAME     DESCRIPTION
#---------     -----------    ---------------------------
 STRT.S             15:37:44 28-Apr-21: START TIME 15:37:44 28-Apr-21
 STOP.S             15:44:12 28-Apr-21: STOP TIME  15:44:12 28-Apr-21
 STEP.S                   0.00: STEP TIME
 NULL.                 -999.25: NULL VALUE
 DFWT.                        :  DIST FWL TEXT
 DFST.                        :  DIST FSL TEXT
 DMF .             Drill Floor:  DRILL MEAS FROM
 STIM.      02.00.00 12-Apr-21:  START TIME
 DATE.      02.00.00 02-May-21:  END TIME
 SPUD.               09-Apr-21:  SPUD DATE
 NREF.                    Grid:  NORTH REFERENCE
 HPTY.       Minimum Curvature:  HOLE POS TYPE
 DMOD.             Drill Model:  DRILL MOD DESC
 SVYD.                  Survey:  SURVEY DESC
 ILTD.               Lithology:  INTERP LTH DESC
 FTOP.          Formation Tops:  FORM TOPS DESC
 PDAT.          Mean Sea Level:  PERMANENT DATUM
 FLD .                     ACG:  FIELD NAME
 SON .        AZ-XX-0907021034:  JOB NUMBER
 CTRY.              Azerbaijan:  COUNTRY NAME
 WELL.                    E01x:  WELL NAME
 COMP.     BP Exploration (Caspian Sea) LTD.:  COMPANY
 UWI .            /AZE00001403:  UNIQUE WELL IDENTIFIER
 API .            /AZE00001403:  API NUMBER
 WTYP.                Deviated:  WELL TYPE
 MDS .        Operator Entered:  MAG DATA SOURCE
 BASE.              Azerbaijan:  LOGGING EQUIPMENT BASE LOCATION
 REGN.                   EESSA:  REGION
 PROV.                    Baku:  PROVINCE
 STAT.                    Baku:  STATE NAME
 SRVC.          Turan Drilling:  CONTRACTOR
 MWDS.                    Baku:  MWD SHOP
 JOBN.        AZ-XX-0907021034:  JOB TICKET NUMB
 RIG .                     DWG:  RIG NAME
 DOE .                     N/A:  DOE NUMBER
 DCON.         Sperry Drilling:  DIRECTNL CONTR
 UNIT.                     N/A:  LOGGING EQUIPMENT ID
 CNTY.                        :  COUNTY
 LOC .                        :  LOCATION
 LMF .             Drill Floor:  LOG MEASURED FROM
 TVDS.m                  43.16:  TVDSS CORRECTN
 LATI.deg                40.17:  LATITUDE
 LONG.deg                51.17:  LONGITUDE
 WHNS.m                  -5.90:  WELL HEAD N/S
 WHEW.m                  -6.61:  WELL HEAD E/W
 UTMX.m              514337.95:  UTM X
 UTMY.m             4448627.46:  UTM Y
 DFWL.m                   0.00:  DISTANCE FWL
 DFSL.m                   0.00:  DISTANCE FSL
 SDEP.m                2606.87:  START DEPTH
 TDD .m                3618.01:  TOTAL DEPTH (DRILLER)
 VSDR.deg               177.42:  VERT SEC DIRECT
 GVFD.g                   1.00:  GRAVITY FIELD
 MFLD.nT              50399.00:  MAGNETIC FIELD
 MDIP.deg                59.67:  MAGNETIC DIP
 MDEC.deg                 6.56:  MAGNETIC DECL
 GRDC.deg                 0.11:  GRID CORRECTION
 AZTC.deg                 6.45:  AZM TOTAL CORR
 EPD .m                   0.00:  ELEVATION
 EGL .m                   0.00:  GROUND ELEVATION
 WDMS.m                 176.20:  WD ELEV
 APD .m                  43.16:  DEPTH ABOVE PD
 DEP .m                2606.87:  DEPTH
 AGAP.m                  43.16:  AIR GAP
 VSEW.m                  -6.61:  VERT SEC E/W
 VSNS.m                  -5.90:  VERT SEC N/S
 EKB .m                  43.16:  KB ELEVATION
 EDF .m                  43.16:  DF ELEVATION
 TDL .m                 438.00:  TOTAL DEPTH (LOGGER)
 VSC .                       0:  VS TO CLOSURE
 MAGU.                 1855490:  MAGUTM CHECKSUM
~Parameter Information Block
#MNEM.UNIT       Value        Description
#---------     -----------    ---------------------------
 AV  .mps                 2.20:  Ann Velocity 
 AVMX.mps                 2.50:  Max Ann Veloc 
 AZIF.deg               150.21:  Azm, Final 
 BHAT.        Rotary Steerable:  BHA Type 
 BROT.°/30m               0.08:  Build Rotating 
 BS  .in                  6.50:  Bit Size 
 BSZ .in                  6.50:  Bit Size 
 BTPL.psig              108.00:  Bit Press Loss 
 CABU.                     Yes:  Customer Abuse 
 CGEO.           Emin Aliyarli:  Customer Geo 
 COMM.                     ôŸZ:  Run Comments 1 
 TCS .hr                 74.20:  Time Ciculation Ended 
 CV  .mps                 3.63:  Crit Velocity 
 CVMX.mps                 3.66:  Max Crit Veloc 
 DD1 .         Intigam Rahimov:  Direct Drillr 1 
 DD2 .          Teymur Aghayev:  Direct Drillr 2 
 DDSV.               Geo-Pilot:  DD Service 
 DEFF.%                  97.00:  % Det Eff 
 DLRX.°/30m               1.63:  Dogleg Rot Max 
 DLSO.°/30m               0.00:  Dogleg Oriented 
 DLSX.°/30m               0.00:  Dogleg Str Max 
 DRET.      20.20.00 28-Apr-21:  Drill End Time 
 DRST.      04.45.00 26-Apr-21:  Drill Start Tim 
 DTIM.hr                 34.30:  Time Drilling 
 EDEP.m                3618.01:  End Depth 
 ENG1.           Amrah Tahirov:  Engineer 1 
 ENG2.         Bahruz Mehdiyev:  Engineer 2 
 ENG3.         Farhad Orujzade:  Engineer 3 
 ETIM.      19.00.00 29-Apr-21:  End Time 
 FLOI.gpm               370.00:  Flow In 
 FLON.gpm               300.00:  Flow In Min 
 FLOS.cptm                0.00:  Fluid Loss 
 FLOX.gpm               410.00:  Flow In Max 
 HFLO.                      No:  High Flow 
 HPRE.                      No:  High Pressure 
 HTEM.                      No:  High Temp 
 HYDO.m                   1.80:  Hydro Offset 
 IFIN.deg                67.19:  Inc, Final 
 IMAX.deg                68.42:  Inc Max 
 IMIN.deg                66.33:  Inc Min 
 IMND.m                3532.79:  Inc Min Depth 
 IMXD.m                3192.15:  Inc Max Depth 
 JARR.                      No:  Jarring 
 LETM.      20.20.00 28-Apr-21:  Log End Time 
 LOST.hr                     0:  Lost Rig Time 
 LSTM.      04.45.00 26-Apr-21:  Log Start Time 
 MDCL.ppm             36500.00:  Mud Chlorides 
 MDES.     Inversion Oil/Synthetic:  Mud Desc 
 DFD .sg                  1.42:  Mud Density 
 MDMN.sg                  1.42:  Dens Mud Min 
 MDMX.sg                  1.42:  Dens Mud Max 
 MOIL.                    55.7:  Run Mud Oil % 
 MOWR.                   71:29:  Run Mud OWR 
 MSND.                     0.1:  Run Mud Sand % 
 MSOL.                    19.9:  Run Mud Solids% 
 DFV .spqt               83.00:  Mud Viscosity 
 MWOD.in                  5.15:  MWD Tool OD 
 MWSI.                      No:  Serv Intrp, MWD 
 OTIM.hr                120.59:  Time Operating 
 PCON.           Look Like New:  Pad Condition 
 PMAX.psia            11292.93:  Press Op, Max 
 PV  .cP                 27.00:  Mud PV 
 RUN .                     400:  Run Number 
 ROPA.m/hr               14.00:  ROP Avg 
 ROPN.m/hr                9.00:  ROP Min 
 ROPX.m/hr               18.00:  ROP Max 
 RPMA.rpm               130.00:  RPM Surface Avg 
 RPMN.rpm               100.00:  RPM Surface Min 
 RPMX.rpm               140.00:  RPM Surface Max 
 RRUN.                    0400:  Rig Run Number 
 RTIM.hr                 38.60:  Time Reaming 
 SAZI.deg               149.55:  Azm, Start 
 SDEP.m                3180.01:  Start Depth 
 SIDD.                      No:  Serv Intrp, DD 
 SINC.deg                68.42:  Inc, Start 
 SPPA.psig             4400.00:  SPP Avg 
 SPPN.psig             3580.00:  SPP Min 
 SPPX.psig             4850.00:  SPP Max 
 STIM.      12.30.00 24-Apr-21:  Start Time 
 SVCS.                 DD, MWD:  Services 
 SVER.                    9.20:  Sperry Version 
 TDAT.m                 438.00:  Tot Depth Attmp 
 TDDF.                      No:  Trip for DD 
 TDLG.m                 438.00:  Tot Depth Loggd 
 TFF .                      No:  Trip for Fail 
 TQAA.f-kp               11.00:  Torque Abs Avg 
 TQAN.f-kp                9.00:  Torque Abs Min 
 TQAX.f-kp               14.00:  Torque Abs Max 
 TRRT.°/30m               0.04:  Turn Rotating 
 MRT .                    HCIM:  Maximum Recorded Temperature 
 TTMX.degC               84.31:  Max Tool Temp 
 VS01.                90521954:  Virtual Str1 SN 
 VS02.                90519327:  Virtual Str2 SN 
 VS03.                90522273:  Virtual Str3 SN 
 VS04.                11108038:  Virtual Str4 SN 
 VS05.                12258760:  Virtual Str5 SN 
 WBMN.klb                 1.00:  WOB Min 
 WITN.           Adil Mammadov:  Customer Rep 
 WITN.         Alex Yadullayev:  Customer Rep 2 
 WOBA.klb                 6.00:  WOB Avg 
 WOBX.klb                 9.00:  WOB Max 
 YP  .lhf2               31.00:  Yield Point 
~Curve Information Block
#MNEM.UNIT                 API CODE     Curve Description
#---------               -----------    ---------------------------
 TIME.HHMMSS            00 000 000 000:  GT Time & Date
 GTDEPTH.m              00 000 000 000:  GT Depth
 GTPQH.psia             00 000 000 000:  GT HR Quartz Pressure
 GTTQ.degC              00 000 000 000:  GT Quartz Temperature
 GTTN.NONE              00 000 000 000:  GT Test Number
 GTET.sec               00 000 000 000:  GT Elapsed Test Time
 GTTVD.m                00 000 000 000:  GT True Vertical Depth
#Other Information
#
#WARRANTY: Halliburton will use its best efforts to furnish customers with 
#accurate information and interpretations that are part of, and incident to, the services 
#provided.  However, Halliburton cannot and does not warrant the accuracy 
#or correctness of such information and interpretations.  Under no circumstances should any 
#such information or interpretation be relied upon as the sole basis for any drilling, 
#completion, production, or financial decision or any procedure involving any risk to the 
#safety of any drilling venture, drilling rig or its crew or any other third party.  The 
#Customer has full responsibility for all drilling, completion and production operation.  
#Halliburton makes no representations or warranties, either expressed or 
#implied, including, but not limited to, the implied warranties of merchantability or fitness 
#for a particular purpose, with respect to the services rendered.  In no event will 
#Halliburton be liable for failure to obtain any particular results or for 
#any damages, including, but not limited to, indirect, special or consequential damages, 
#resulting from the use of any information or interpretation provided by Halliburton.
#
~A           TIME           GTDEPTH  GTPQH  GTTQ  GTTN   GTET   GTTVD  
# ...
   15:42:15.618.28-Apr-2021 3537.51 4281.09 74.40 10.00 271.30 2773.98
   15:42:15.818.28-Apr-2021 3537.51 4281.12 74.40 10.00 271.50 2773.98
   15:42:16.018.28-Apr-2021 3537.51 4281.14 74.40 10.00 271.70 2773.98
   15:42:16.218.28-Apr-2021 3537.51 4281.08 74.40 10.00 271.90 2773.98
   15:42:16.418.28-Apr-2021 3537.51 4281.12 74.40 10.00 272.10 2773.98
   15:42:16.618.28-Apr-2021 3537.51 4281.12 74.40 10.00 272.30 2773.98
   15:42:16.818.28-Apr-2021 3537.51 4281.11 74.40 10.00 272.50 2773.98
   15:42:17.018.28-Apr-2021 3537.51 4281.00 74.39 10.00 272.70 2773.98
   15:42:17.218.28-Apr-2021 3537.51 4281.07 74.39 10.00 272.90 2773.98
   15:42:17.418.28-Apr-2021 3537.51 4281.16 74.39 10.00 273.10 2773.98
   15:42:17.618.28-Apr-2021 3537.51 4281.16 74.39 10.00 273.30 2773.98
   15:42:17.819.28-Apr-2021 3537.51 4281.15 74.39 10.00 273.50 2773.98
   15:42:18.019.28-Apr-2021 3537.51 4281.04 74.39 10.00 273.70 2773.98
   15:42:18.219.28-Apr-2021 3537.51 4281.13 74.39 10.00 273.90 2773.98
   15:42:18.419.28-Apr-2021 3537.51 4281.12 74.39 10.00 274.10 2773.98
   15:42:18.619.28-Apr-2021 3537.51 4281.12 74.39 10.00 274.30 2773.98
   15:42:18.819.28-Apr-2021 3537.51 4281.13 74.39 10.00 274.50 2773.98
   15:42:19.019.28-Apr-2021 3537.51 4281.07 74.39 10.00 274.70 2773.98
   15:42:19.219.28-Apr-2021 3537.51 4281.12 74.39 10.00 274.90 2773.98
   15:42:19.419.28-Apr-2021 3537.51 4281.07 74.39 10.00 275.11 2773.98
   15:42:19.619.28-Apr-2021 3537.51 4281.07 74.39 10.00 275.31 2773.98
   15:42:19.819.28-Apr-2021 3537.51 4280.95 74.39 10.00 275.51 2773.98
   15:42:20.019.28-Apr-2021 3537.51 4281.12 74.39 10.00 275.71 2773.98
   15:42:20.219.28-Apr-2021 3537.51 4281.17 74.39 10.00 275.91 2773.98
   15:42:20.420.28-Apr-2021 3537.51 4281.10 74.39 10.00 276.11 2773.98
   15:42:20.620.28-Apr-2021 3537.51 4281.10 74.39 10.00 276.31 2773.98
   15:42:20.820.28-Apr-2021 3537.51 4281.05 74.39 10.00 276.51 2773.98
   15:42:21.020.28-Apr-2021 3537.51 4281.11 74.38 10.00 276.71 2773.98
   15:42:21.220.28-Apr-2021 3537.51 4281.02 74.38 10.00 276.91 2773.98
   15:42:21.420.28-Apr-2021 3537.51 4281.14 74.38 10.00 277.11 2773.98
   15:42:21.620.28-Apr-2021 3537.51 4281.14 74.38 10.00 277.31 2773.98
   15:42:21.820.28-Apr-2021 3537.51 4281.08 74.38 10.00 277.51 2773.98
   15:42:22.020.28-Apr-2021 3537.51 4280.89 74.38 10.00 277.71 2773.98
   15:42:22.220.28-Apr-2021 3537.51 4281.27 74.38 10.00 277.91 2773.98
   15:42:22.420.28-Apr-2021 3537.51 4281.16 74.38 10.00 278.11 2773.98
   15:42:22.620.28-Apr-2021 3537.51 4281.16 74.38 10.00 278.31 2773.98
   15:42:22.820.28-Apr-2021 3537.51 4281.10 74.38 10.00 278.51 2773.98
   15:42:23.021.28-Apr-2021 3537.51 4281.07 74.38 10.00 278.71 2773.98
   15:42:23.221.28-Apr-2021 3537.51 4281.01 74.38 10.00 278.91 2773.98
   15:42:23.421.28-Apr-2021 3537.51 4281.20 74.38 10.00 279.11 2773.98
   15:42:23.621.28-Apr-2021 3537.51 4281.20 74.38 10.00 279.31 2773.98
   15:42:23.821.28-Apr-2021 3537.51 4281.10 74.38 10.00 279.51 2773.98
   15:42:24.021.28-Apr-2021 3537.51 4281.07 74.38 10.00 279.71 2773.98
   15:42:24.221.28-Apr-2021 3537.51 4281.13 74.38 10.00 279.91 2773.98
   15:42:24.421.28-Apr-2021 3537.51 4281.15 74.38 10.00 280.11 2773.98
   15:42:24.621.28-Apr-2021 3537.51 4281.15 74.38 10.00 280.31 2773.98
   15:42:24.821.28-Apr-2021 3537.51 4281.10 74.37 10.00 280.51 2773.98
   15:42:25.021.28-Apr-2021 3537.51 4281.08 74.37 10.00 280.71 2773.98
   15:42:25.221.28-Apr-2021 3537.51 4281.11 74.37 10.00 280.91 2773.98
   15:42:25.421.28-Apr-2021 3537.51 4281.10 74.37 10.00 281.11 2773.98
   15:42:25.621.28-Apr-2021 3537.51 4281.10 74.37 10.00 281.31 2773.98
   15:42:25.822.28-Apr-2021 3537.51 4280.91 74.37 10.00 281.51 2773.98
   15:42:26.022.28-Apr-2021 3537.51 4281.16 74.37 10.00 281.71 2773.98
   15:42:26.222.28-Apr-2021 3537.51 4281.17 74.37 10.00 281.91 2773.98
   15:42:26.422.28-Apr-2021 3537.51 4281.11 74.37 10.00 282.11 2773.98
   15:42:26.622.28-Apr-2021 3537.51 4281.11 74.37 10.00 282.31 2773.98
   15:42:26.822.28-Apr-2021 3537.51 4281.11 74.37 10.00 282.51 2773.98
   15:42:27.022.28-Apr-2021 3537.51 4281.09 74.37 10.00 282.71 2773.98
   15:42:27.222.28-Apr-2021 3537.51 4281.12 74.37 10.00 282.91 2773.98
   15:42:27.422.28-Apr-2021 3537.51 4281.07 74.37 10.00 283.11 2773.98
   15:42:27.622.28-Apr-2021 3537.51 4281.07 74.37 10.00 283.31 2773.98
   15:42:27.822.28-Apr-2021 3537.51 4281.07 74.37 10.00 283.51 2773.98
   15:42:28.022.28-Apr-2021 3537.51 4281.09 74.37 10.00 283.71 2773.98
   15:42:28.222.28-Apr-2021 3537.51 4281.09 74.37 10.00 283.91 2773.98
   15:42:28.423.28-Apr-2021 3537.51 4281.02 74.37 10.00 284.11 2773.98
   15:42:28.623.28-Apr-2021 3537.51 4281.02 74.37 10.00 284.31 2773.98
   15:42:28.823.28-Apr-2021 3537.51 4281.13 74.36 10.00 284.51 2773.98
   15:42:29.023.28-Apr-2021 3537.51 4281.16 74.36 10.00 284.71 2773.98
   15:42:29.223.28-Apr-2021 3537.51 4281.07 74.36 10.00 284.91 2773.98
   15:42:29.423.28-Apr-2021 3537.51 4281.06 74.36 10.00 285.11 2773.98
   15:42:29.623.28-Apr-2021 3537.51 4281.06 74.36 10.00 285.31 2773.98
   15:42:29.823.28-Apr-2021 3537.51 4280.84 74.36 10.00 285.51 2773.98
   15:42:30.023.28-Apr-2021 3537.51 4281.27 74.36 10.00 285.71 2773.98
   15:42:30.223.28-Apr-2021 3537.51 4281.12 74.36 10.00 285.91 2773.98
   15:42:30.423.28-Apr-2021 3537.51 4281.10 74.36 10.00 286.11 2773.98
   15:42:30.623.28-Apr-2021 3537.51 4281.10 74.36 10.00 286.31 2773.98
   15:42:30.823.28-Apr-2021 3537.51 4281.09 74.36 10.00 286.51 2773.98
   15:42:31.024.28-Apr-2021 3537.51 4281.13 74.36 10.00 286.71 2773.98
   15:42:31.224.28-Apr-2021 3537.51 4281.12 74.36 10.00 286.91 2773.98
   15:42:31.424.28-Apr-2021 3537.51 4281.12 74.36 10.00 287.11 2773.98
   15:42:31.624.28-Apr-2021 3537.51 4281.12 74.36 10.00 287.31 2773.98
   15:42:31.824.28-Apr-2021 3537.51 4280.88 74.36 10.00 287.51 2773.98
   15:42:32.024.28-Apr-2021 3537.51 4281.25 74.36 10.00 287.71 2773.98
   15:42:32.224.28-Apr-2021 3537.51 4281.17 74.36 10.00 287.91 2773.98
   15:42:32.424.28-Apr-2021 3537.51 4281.11 74.35 10.00 288.11 2773.98
   15:42:32.624.28-Apr-2021 3537.51 4281.11 74.35 10.00 288.31 2773.98
   15:42:32.824.28-Apr-2021 3537.51 4281.11 74.35 10.00 288.51 2773.98
   15:42:33.024.28-Apr-2021 3537.51 4281.09 74.35 10.00 288.71 2773.98
   15:42:33.224.28-Apr-2021 3537.51 4281.13 74.35 10.00 288.91 2773.98
   15:42:33.424.28-Apr-2021 3537.51 4281.06 74.35 10.00 289.11 2773.98
   15:42:33.625.28-Apr-2021 3537.51 4281.06 74.35 10.00 289.31 2773.98
   15:42:33.825.28-Apr-2021 3537.51 4281.10 74.35 10.00 289.51 2773.98
   15:42:34.025.28-Apr-2021 3537.51 4281.08 74.35 10.00 289.71 2773.98
   15:42:34.225.28-Apr-2021 3537.51 4281.09 74.35 10.00 289.91 2773.98
   15:42:34.425.28-Apr-2021 3537.51 4280.79 74.35 10.00 290.11 2773.98
   15:42:34.625.28-Apr-2021 3537.51 4280.79 74.35 10.00 290.31 2773.98
   15:42:34.825.28-Apr-2021 3537.51 4281.10 74.35 10.00 290.51 2773.98
   15:42:35.025.28-Apr-2021 3537.51 4281.12 74.35 10.00 290.71 2773.98
   15:42:35.225.28-Apr-2021 3537.51 4281.08 74.35 10.00 290.91 2773.98
   15:42:35.425.28-Apr-2021 3537.51 4281.04 74.35 10.00 291.11 2773.98
   15:42:35.625.28-Apr-2021 3537.51 4281.04 74.35 10.00 291.31 2773.98
   15:42:35.825.28-Apr-2021 3537.51 4281.05 74.35 10.00 291.51 2773.98
   15:42:36.025.28-Apr-2021 3537.51 4281.11 74.35 10.00 291.71 2773.98
   15:42:36.226.28-Apr-2021 3537.51 4281.04 74.34 10.00 291.91 2773.98
   15:42:36.426.28-Apr-2021 3537.51 4281.08 74.34 10.00 292.11 2773.98
   15:42:36.626.28-Apr-2021 3537.51 4281.08 74.34 10.00 292.31 2773.98
   15:42:36.826.28-Apr-2021 3537.51 4281.06 74.34 10.00 292.51 2773.98
   15:42:37.026.28-Apr-2021 3537.51 4281.07 74.34 10.00 292.71 2773.98
   15:42:37.226.28-Apr-2021 3537.51 4280.79 74.34 10.00 292.91 2773.98
   15:42:37.426.28-Apr-2021 3537.51 4281.26 74.34 10.00 293.11 2773.98
   15:42:37.626.28-Apr-2021 3537.51 4281.26 74.34 10.00 293.31 2773.98
   15:42:37.826.28-Apr-2021 3537.51 4281.10 74.34 10.00 293.51 2773.98
   15:42:38.026.28-Apr-2021 3537.51 4281.06 74.34 10.00 293.71 2773.98
