~Version Information
 VERS.                  2.0:   CWLS log ASCII Standard -VERSION 2.0
 WRAP.                   NO:   One line per depth step
~Well Information Block
#MNEM.UNIT     VALUE/NAME     DESCRIPTION
#---------     -----------    ---------------------------
 STRT.S             23:13:46 26-Apr-21: START TIME 23:13:46 26-Apr-21
 STOP.S             23:20:13 26-Apr-21: STOP TIME  23:20:13 26-Apr-21
 STEP.S                   0.00: STEP TIME
 NULL.                 -999.25: NULL VALUE
 DFWT.                        :  DIST FWL TEXT
 DFST.                        :  DIST FSL TEXT
 DMF .             Drill Floor:  DRILL MEAS FROM
 STIM.      02.00.00 12-Apr-21:  START TIME
 DATE.      02.00.00 02-May-21:  END TIME
 SPUD.               09-Apr-21:  SPUD DATE
 NREF.                    Grid:  NORTH REFERENCE
 HPTY.       Minimum Curvature:  HOLE POS TYPE
 DMOD.             Drill Model:  DRILL MOD DESC
 SVYD.                  Survey:  SURVEY DESC
 ILTD.               Lithology:  INTERP LTH DESC
 FTOP.          Formation Tops:  FORM TOPS DESC
 PDAT.          Mean Sea Level:  PERMANENT DATUM
 FLD .                     ACG:  FIELD NAME
 SON .        AZ-XX-0907021034:  JOB NUMBER
 CTRY.              Azerbaijan:  COUNTRY NAME
 WELL.                    E01x:  WELL NAME
 COMP.     BP Exploration (Caspian Sea) LTD.:  COMPANY
 UWI .            /AZE00001403:  UNIQUE WELL IDENTIFIER
 API .            /AZE00001403:  API NUMBER
 WTYP.                Deviated:  WELL TYPE
 MDS .        Operator Entered:  MAG DATA SOURCE
 BASE.              Azerbaijan:  LOGGING EQUIPMENT BASE LOCATION
 REGN.                   EESSA:  REGION
 PROV.                    Baku:  PROVINCE
 STAT.                    Baku:  STATE NAME
 SRVC.          Turan Drilling:  CONTRACTOR
 MWDS.                    Baku:  MWD SHOP
 JOBN.        AZ-XX-0907021034:  JOB TICKET NUMB
 RIG .                     DWG:  RIG NAME
 DOE .                     N/A:  DOE NUMBER
 DCON.         Sperry Drilling:  DIRECTNL CONTR
 UNIT.                     N/A:  LOGGING EQUIPMENT ID
 CNTY.                        :  COUNTY
 LOC .                        :  LOCATION
 LMF .             Drill Floor:  LOG MEASURED FROM
 TVDS.m                  43.16:  TVDSS CORRECTN
 LATI.deg                40.17:  LATITUDE
 LONG.deg                51.17:  LONGITUDE
 WHNS.m                  -5.90:  WELL HEAD N/S
 WHEW.m                  -6.61:  WELL HEAD E/W
 UTMX.m              514337.95:  UTM X
 UTMY.m             4448627.46:  UTM Y
 DFWL.m                   0.00:  DISTANCE FWL
 DFSL.m                   0.00:  DISTANCE FSL
 SDEP.m                2606.87:  START DEPTH
 TDD .m                3618.01:  TOTAL DEPTH (DRILLER)
 VSDR.deg               177.42:  VERT SEC DIRECT
 GVFD.g                   1.00:  GRAVITY FIELD
 MFLD.nT              50399.00:  MAGNETIC FIELD
 MDIP.deg                59.67:  MAGNETIC DIP
 MDEC.deg                 6.56:  MAGNETIC DECL
 GRDC.deg                 0.11:  GRID CORRECTION
 AZTC.deg                 6.45:  AZM TOTAL CORR
 EPD .m                   0.00:  ELEVATION
 EGL .m                   0.00:  GROUND ELEVATION
 WDMS.m                 176.20:  WD ELEV
 APD .m                  43.16:  DEPTH ABOVE PD
 DEP .m                2606.87:  DEPTH
 AGAP.m                  43.16:  AIR GAP
 VSEW.m                  -6.61:  VERT SEC E/W
 VSNS.m                  -5.90:  VERT SEC N/S
 EKB .m                  43.16:  KB ELEVATION
 EDF .m                  43.16:  DF ELEVATION
 TDL .m                 438.00:  TOTAL DEPTH (LOGGER)
 VSC .                       0:  VS TO CLOSURE
 MAGU.                 1855490:  MAGUTM CHECKSUM
~Parameter Information Block
#MNEM.UNIT       Value        Description
#---------     -----------    ---------------------------
 AV  .mps                 2.20:  Ann Velocity 
 AVMX.mps                 2.50:  Max Ann Veloc 
 AZIF.deg               150.21:  Azm, Final 
 BHAT.        Rotary Steerable:  BHA Type 
 BROT.°/30m               0.08:  Build Rotating 
 BS  .in                  6.50:  Bit Size 
 BSZ .in                  6.50:  Bit Size 
 BTPL.psig              108.00:  Bit Press Loss 
 CABU.                     Yes:  Customer Abuse 
 CGEO.           Emin Aliyarli:  Customer Geo 
 COMM.                     <MW:  Run Comments 1 
 TCS .hr                 74.20:  Time Ciculation Ended 
 CV  .mps                 3.63:  Crit Velocity 
 CVMX.mps                 3.66:  Max Crit Veloc 
 DD1 .         Intigam Rahimov:  Direct Drillr 1 
 DD2 .          Teymur Aghayev:  Direct Drillr 2 
 DDSV.               Geo-Pilot:  DD Service 
 DEFF.%                  97.00:  % Det Eff 
 DLRX.°/30m               1.63:  Dogleg Rot Max 
 DLSO.°/30m               0.00:  Dogleg Oriented 
 DLSX.°/30m               0.00:  Dogleg Str Max 
 DRET.      20.20.00 28-Apr-21:  Drill End Time 
 DRST.      04.45.00 26-Apr-21:  Drill Start Tim 
 DTIM.hr                 34.30:  Time Drilling 
 EDEP.m                3618.01:  End Depth 
 ENG1.           Amrah Tahirov:  Engineer 1 
 ENG2.         Bahruz Mehdiyev:  Engineer 2 
 ENG3.         Farhad Orujzade:  Engineer 3 
 ETIM.      19.00.00 29-Apr-21:  End Time 
 FLOI.gpm               370.00:  Flow In 
 FLON.gpm               300.00:  Flow In Min 
 FLOS.cptm                0.00:  Fluid Loss 
 FLOX.gpm               410.00:  Flow In Max 
 HFLO.                      No:  High Flow 
 HPRE.                      No:  High Pressure 
 HTEM.                      No:  High Temp 
 HYDO.m                   1.80:  Hydro Offset 
 IFIN.deg                67.19:  Inc, Final 
 IMAX.deg                68.42:  Inc Max 
 IMIN.deg                66.33:  Inc Min 
 IMND.m                3532.79:  Inc Min Depth 
 IMXD.m                3192.15:  Inc Max Depth 
 JARR.                      No:  Jarring 
 LETM.      20.20.00 28-Apr-21:  Log End Time 
 LOST.hr                     0:  Lost Rig Time 
 LSTM.      04.45.00 26-Apr-21:  Log Start Time 
 MDCL.ppm             36500.00:  Mud Chlorides 
 MDES.     Inversion Oil/Synthetic:  Mud Desc 
 DFD .sg                  1.42:  Mud Density 
 MDMN.sg                  1.42:  Dens Mud Min 
 MDMX.sg                  1.42:  Dens Mud Max 
 MOIL.                    55.7:  Run Mud Oil % 
 MOWR.                   71:29:  Run Mud OWR 
 MSND.                     0.1:  Run Mud Sand % 
 MSOL.                    19.9:  Run Mud Solids% 
 DFV .spqt               83.00:  Mud Viscosity 
 MWOD.in                  5.15:  MWD Tool OD 
 MWSI.                      No:  Serv Intrp, MWD 
 OTIM.hr                120.59:  Time Operating 
 PCON.           Look Like New:  Pad Condition 
 PMAX.psia            11292.93:  Press Op, Max 
 PV  .cP                 27.00:  Mud PV 
 RUN .                     400:  Run Number 
 ROPA.m/hr               14.00:  ROP Avg 
 ROPN.m/hr                9.00:  ROP Min 
 ROPX.m/hr               18.00:  ROP Max 
 RPMA.rpm               130.00:  RPM Surface Avg 
 RPMN.rpm               100.00:  RPM Surface Min 
 RPMX.rpm               140.00:  RPM Surface Max 
 RRUN.                    0400:  Rig Run Number 
 RTIM.hr                 38.60:  Time Reaming 
 SAZI.deg               149.55:  Azm, Start 
 SDEP.m                3180.01:  Start Depth 
 SIDD.                      No:  Serv Intrp, DD 
 SINC.deg                68.42:  Inc, Start 
 SPPA.psig             4400.00:  SPP Avg 
 SPPN.psig             3580.00:  SPP Min 
 SPPX.psig             4850.00:  SPP Max 
 STIM.      12.30.00 24-Apr-21:  Start Time 
 SVCS.                 DD, MWD:  Services 
 SVER.                    9.20:  Sperry Version 
 TDAT.m                 438.00:  Tot Depth Attmp 
 TDDF.                      No:  Trip for DD 
 TDLG.m                 438.00:  Tot Depth Loggd 
 TFF .                      No:  Trip for Fail 
 TQAA.f-kp               11.00:  Torque Abs Avg 
 TQAN.f-kp                9.00:  Torque Abs Min 
 TQAX.f-kp               14.00:  Torque Abs Max 
 TRRT.°/30m               0.04:  Turn Rotating 
 MRT .                    HCIM:  Maximum Recorded Temperature 
 TTMX.degC               84.31:  Max Tool Temp 
 VS01.                90521954:  Virtual Str1 SN 
 VS02.                90519327:  Virtual Str2 SN 
 VS03.                90522273:  Virtual Str3 SN 
 VS04.                11108038:  Virtual Str4 SN 
 VS05.                12258760:  Virtual Str5 SN 
 WBMN.klb                 1.00:  WOB Min 
 WITN.           Adil Mammadov:  Customer Rep 
 WITN.         Alex Yadullayev:  Customer Rep 2 
 WOBA.klb                 6.00:  WOB Avg 
 WOBX.klb                 9.00:  WOB Max 
 YP  .lhf2               31.00:  Yield Point 
~Curve Information Block
#MNEM.UNIT                 API CODE     Curve Description
#---------               -----------    ---------------------------
 TIME.HHMMSS            00 000 000 000:  GT Time & Date
 GTDEPTH.m              00 000 000 000:  GT Depth
 GTPQH.psia             00 000 000 000:  GT HR Quartz Pressure
 GTTQ.degC              00 000 000 000:  GT Quartz Temperature
 GTTN.NONE              00 000 000 000:  GT Test Number
 GTET.sec               00 000 000 000:  GT Elapsed Test Time
 GTTVD.m                00 000 000 000:  GT True Vertical Depth
#Other Information
#
#WARRANTY: Halliburton will use its best efforts to furnish customers with 
#accurate information and interpretations that are part of, and incident to, the services 
#provided.  However, Halliburton cannot and does not warrant the accuracy 
#or correctness of such information and interpretations.  Under no circumstances should any 
#such information or interpretation be relied upon as the sole basis for any drilling, 
#completion, production, or financial decision or any procedure involving any risk to the 
#safety of any drilling venture, drilling rig or its crew or any other third party.  The 
#Customer has full responsibility for all drilling, completion and production operation.  
#Halliburton makes no representations or warranties, either expressed or 
#implied, including, but not limited to, the implied warranties of merchantability or fitness 
#for a particular purpose, with respect to the services rendered.  In no event will 
#Halliburton be liable for failure to obtain any particular results or for 
#any damages, including, but not limited to, indirect, special or consequential damages, 
#resulting from the use of any information or interpretation provided by Halliburton.
#
~A           TIME           GTDEPTH  GTPQH  GTTQ  GTTN  GTET   GTTVD  
# ...
   23:18:45.613.26-Apr-2021 3222.01 4279.13 69.35 1.00 299.09 2649.76
   23:18:45.813.26-Apr-2021 3222.01 4279.13 69.35 1.00 299.29 2649.76
   23:18:46.014.26-Apr-2021 3222.01 4279.39 69.35 1.00 299.49 2649.76
   23:18:46.214.26-Apr-2021 3222.01 4279.36 69.35 1.00 299.69 2649.76
   23:18:46.414.26-Apr-2021 3222.01 4279.19 69.34 1.00 299.89 2649.76
   23:18:46.614.26-Apr-2021 3222.01 4279.31 69.34 1.00 300.09 2649.76
   23:18:46.814.26-Apr-2021 3222.01 4279.31 69.34 1.00 300.29 2649.76
   23:18:47.014.26-Apr-2021 3222.01 4279.31 69.34 1.00 300.49 2649.76
   23:18:47.214.26-Apr-2021 3222.01 4279.17 69.34 1.00 300.69 2649.76
   23:18:47.414.26-Apr-2021 3222.01 4279.11 69.34 1.00 300.89 2649.76
   23:18:47.614.26-Apr-2021 3222.01 4279.11 69.34 1.00 301.09 2649.76
   23:18:47.814.26-Apr-2021 3222.01 4279.11 69.34 1.00 301.29 2649.76
   23:18:48.014.26-Apr-2021 3222.01 4278.67 69.34 1.00 301.49 2649.76
   23:18:48.214.26-Apr-2021 3222.01 4279.16 69.34 1.00 301.69 2649.76
   23:18:48.414.26-Apr-2021 3222.01 4279.20 69.34 1.00 301.89 2649.76
   23:18:48.614.26-Apr-2021 3222.01 4279.18 69.34 1.00 302.09 2649.76
   23:18:48.814.26-Apr-2021 3222.01 4279.18 69.34 1.00 302.29 2649.76
   23:18:49.014.26-Apr-2021 3222.01 4279.17 69.34 1.00 302.49 2649.76
   23:18:49.214.26-Apr-2021 3222.01 4279.33 69.34 1.00 302.69 2649.76
   23:18:49.415.26-Apr-2021 3222.01 4279.39 69.34 1.00 302.89 2649.76
   23:18:49.615.26-Apr-2021 3222.01 4279.32 69.34 1.00 303.09 2649.76
   23:18:49.815.26-Apr-2021 3222.01 4279.32 69.34 1.00 303.29 2649.76
   23:18:50.015.26-Apr-2021 3222.01 4279.20 69.34 1.00 303.49 2649.76
   23:18:50.215.26-Apr-2021 3222.01 4279.19 69.34 1.00 303.69 2649.76
   23:18:50.415.26-Apr-2021 3222.01 4279.33 69.34 1.00 303.89 2649.76
   23:18:50.615.26-Apr-2021 3222.01 4278.66 69.34 1.00 304.09 2649.76
   23:18:50.815.26-Apr-2021 3222.01 4278.66 69.34 1.00 304.29 2649.76
   23:18:51.015.26-Apr-2021 3222.01 4279.15 69.34 1.00 304.49 2649.76
   23:18:51.215.26-Apr-2021 3222.01 4279.34 69.34 1.00 304.69 2649.76
   23:18:51.415.26-Apr-2021 3222.01 4279.24 69.34 1.00 304.89 2649.76
   23:18:51.615.26-Apr-2021 3222.01 4279.28 69.34 1.00 305.09 2649.76
   23:18:51.815.26-Apr-2021 3222.01 4279.28 69.34 1.00 305.29 2649.76
   23:18:52.015.26-Apr-2021 3222.01 4278.91 69.34 1.00 305.49 2649.76
   23:18:52.215.26-Apr-2021 3222.01 4279.44 69.34 1.00 305.69 2649.76
   23:18:52.415.26-Apr-2021 3222.01 4279.39 69.34 1.00 305.89 2649.76
   23:18:52.615.26-Apr-2021 3222.01 4279.26 69.34 1.00 306.09 2649.76
   23:18:52.816.26-Apr-2021 3222.01 4279.26 69.34 1.00 306.29 2649.76
   23:18:53.016.26-Apr-2021 3222.01 4278.88 69.34 1.00 306.49 2649.76
   23:18:53.216.26-Apr-2021 3222.01 4279.28 69.34 1.00 306.69 2649.76
   23:18:53.416.26-Apr-2021 3222.01 4279.39 69.34 1.00 306.89 2649.76
   23:18:53.616.26-Apr-2021 3222.01 4278.65 69.34 1.00 307.09 2649.76
   23:18:53.816.26-Apr-2021 3222.01 4278.65 69.34 1.00 307.29 2649.76
   23:18:54.016.26-Apr-2021 3222.01 4279.19 69.34 1.00 307.49 2649.76
   23:18:54.216.26-Apr-2021 3222.01 4279.45 69.34 1.00 307.69 2649.76
   23:18:54.416.26-Apr-2021 3222.01 4279.43 69.34 1.00 307.89 2649.76
   23:18:54.616.26-Apr-2021 3222.01 4279.38 69.34 1.00 308.09 2649.76
   23:18:54.816.26-Apr-2021 3222.01 4279.38 69.34 1.00 308.29 2649.76
   23:18:55.016.26-Apr-2021 3222.01 4279.36 69.34 1.00 308.49 2649.76
   23:18:55.216.26-Apr-2021 3222.01 4279.34 69.34 1.00 308.69 2649.76
   23:18:55.416.26-Apr-2021 3222.01 4279.33 69.34 1.00 308.89 2649.76
   23:18:55.616.26-Apr-2021 3222.01 4279.14 69.34 1.00 309.09 2649.76
   23:18:55.816.26-Apr-2021 3222.01 4279.14 69.34 1.00 309.29 2649.76
   23:18:56.016.26-Apr-2021 3222.01 4279.10 69.34 1.00 309.49 2649.76
   23:18:56.217.26-Apr-2021 3222.01 4278.71 69.34 1.00 309.69 2649.76
   23:18:56.417.26-Apr-2021 3222.01 4278.78 69.34 1.00 309.89 2649.76
   23:18:56.617.26-Apr-2021 3222.01 4279.27 69.34 1.00 310.09 2649.76
   23:18:56.817.26-Apr-2021 3222.01 4279.27 69.34 1.00 310.29 2649.76
   23:18:57.017.26-Apr-2021 3222.01 4279.28 69.34 1.00 310.49 2649.76
   23:18:57.217.26-Apr-2021 3222.01 4279.19 69.34 1.00 310.69 2649.76
   23:18:57.417.26-Apr-2021 3222.01 4279.25 69.34 1.00 310.89 2649.76
   23:18:57.617.26-Apr-2021 3222.01 4279.35 69.34 1.00 311.09 2649.76
   23:18:57.817.26-Apr-2021 3222.01 4279.35 69.34 1.00 311.29 2649.76
   23:18:58.017.26-Apr-2021 3222.01 4279.33 69.33 1.00 311.49 2649.76
   23:18:58.217.26-Apr-2021 3222.01 4279.19 69.33 1.00 311.69 2649.76
   23:18:58.417.26-Apr-2021 3222.01 4279.18 69.33 1.00 311.89 2649.76
   23:18:58.617.26-Apr-2021 3222.01 4279.22 69.33 1.00 312.09 2649.76
   23:18:58.817.26-Apr-2021 3222.01 4279.22 69.33 1.00 312.29 2649.76
   23:18:59.017.26-Apr-2021 3222.01 4278.55 69.33 1.00 312.49 2649.76
   23:18:59.217.26-Apr-2021 3222.01 4278.98 69.33 1.00 312.69 2649.76
   23:18:59.417.26-Apr-2021 3222.01 4279.22 69.33 1.00 312.89 2649.76
   23:18:59.618.26-Apr-2021 3222.01 4279.38 69.33 1.00 313.09 2649.76
   23:18:59.818.26-Apr-2021 3222.01 4279.38 69.33 1.00 313.29 2649.76
   23:19:00.018.26-Apr-2021 3222.01 4279.33 69.33 1.00 313.49 2649.76
   23:19:00.218.26-Apr-2021 3222.01 4278.68 69.33 1.00 313.69 2649.76
   23:19:00.418.26-Apr-2021 3222.01 4279.14 69.33 1.00 313.89 2649.76
   23:19:00.618.26-Apr-2021 3222.01 4279.46 69.33 1.00 314.09 2649.76
   23:19:00.818.26-Apr-2021 3222.01 4279.46 69.33 1.00 314.29 2649.76
   23:19:01.018.26-Apr-2021 3222.01 4279.22 69.33 1.00 314.49 2649.76
   23:19:01.218.26-Apr-2021 3222.01 4278.65 69.33 1.00 314.69 2649.76
   23:19:01.418.26-Apr-2021 3222.01 4278.96 69.33 1.00 314.89 2649.76
   23:19:01.618.26-Apr-2021 3222.01 4279.42 69.33 1.00 315.09 2649.76
   23:19:01.818.26-Apr-2021 3222.01 4279.42 69.33 1.00 315.29 2649.76
   23:19:02.018.26-Apr-2021 3222.01 4278.60 69.33 1.00 315.49 2649.76
   23:19:02.218.26-Apr-2021 3222.01 4279.13 69.33 1.00 315.69 2649.76
   23:19:02.418.26-Apr-2021 3222.01 4279.29 69.33 1.00 315.89 2649.76
   23:19:02.618.26-Apr-2021 3222.01 4279.43 69.33 1.00 316.09 2649.76
   23:19:02.818.26-Apr-2021 3222.01 4279.43 69.33 1.00 316.29 2649.76
   23:19:03.019.26-Apr-2021 3222.01 4279.40 69.33 1.00 316.49 2649.76
   23:19:03.219.26-Apr-2021 3222.01 4279.24 69.33 1.00 316.69 2649.76
   23:19:03.419.26-Apr-2021 3222.01 4279.38 69.33 1.00 316.89 2649.76
   23:19:03.619.26-Apr-2021 3222.01 4279.38 69.33 1.00 317.09 2649.76
   23:19:03.819.26-Apr-2021 3222.01 4279.38 69.33 1.00 317.29 2649.76
   23:19:04.019.26-Apr-2021 3222.01 4279.16 69.33 1.00 317.49 2649.76
   23:19:04.219.26-Apr-2021 3222.01 4279.16 69.33 1.00 317.69 2649.76
   23:19:04.419.26-Apr-2021 3222.01 4279.12 69.33 1.00 317.89 2649.76
   23:19:04.619.26-Apr-2021 3222.01 4278.65 69.33 1.00 318.09 2649.76
   23:19:04.819.26-Apr-2021 3222.01 4278.65 69.33 1.00 318.29 2649.76
   23:19:05.019.26-Apr-2021 3222.01 4279.35 69.33 1.00 318.49 2649.76
   23:19:05.219.26-Apr-2021 3222.01 4279.20 69.33 1.00 318.69 2649.76
   23:19:05.419.26-Apr-2021 3222.01 4279.35 69.33 1.00 318.89 2649.76
   23:19:05.619.26-Apr-2021 3222.01 4279.19 69.33 1.00 319.09 2649.76
   23:19:05.819.26-Apr-2021 3222.01 4279.19 69.33 1.00 319.29 2649.76
   23:19:06.019.26-Apr-2021 3222.01 4279.34 69.33 1.00 319.49 2649.76
   23:19:06.219.26-Apr-2021 3222.01 4279.50 69.33 1.00 319.69 2649.76
   23:19:06.420.26-Apr-2021 3222.01 4279.28 69.33 1.00 319.89 2649.76
   23:19:06.620.26-Apr-2021 3222.01 4279.26 69.33 1.00 320.09 2649.76
   23:19:06.820.26-Apr-2021 3222.01 4279.26 69.33 1.00 320.29 2649.76
   23:19:07.020.26-Apr-2021 3222.01 4279.31 69.33 1.00 320.49 2649.76
   23:19:07.220.26-Apr-2021 3222.01 4279.27 69.33 1.00 320.69 2649.76
   23:19:07.420.26-Apr-2021 3222.01 4278.48 69.33 1.00 320.89 2649.76
   23:19:07.620.26-Apr-2021 3222.01 4279.06 69.33 1.00 321.09 2649.76
   23:19:07.820.26-Apr-2021 3222.01 4279.06 69.33 1.00 321.29 2649.76
   23:19:08.020.26-Apr-2021 3222.01 4279.41 69.33 1.00 321.49 2649.76
   23:19:08.220.26-Apr-2021 3222.01 4279.32 69.33 1.00 321.69 2649.76
   23:19:08.420.26-Apr-2021 3222.01 4279.33 69.33 1.00 321.89 2649.76
