~Version Information
 VERS.                  2.0:   CWLS log ASCII Standard -VERSION 2.0
 WRAP.                   NO:   One line per depth step
~Well Information Block
#MNEM.UNIT     VALUE/NAME     DESCRIPTION
#---------     -----------    ---------------------------
 STRT.S             23:13:46 26-Apr-21: START TIME 23:13:46 26-Apr-21
 STOP.S             23:20:13 26-Apr-21: STOP TIME  23:20:13 26-Apr-21
 STEP.S                   0.00: STEP TIME
 NULL.                 -999.25: NULL VALUE
 DFWT.                        :  DIST FWL TEXT
 DFST.                        :  DIST FSL TEXT
 DMF .             Drill Floor:  DRILL MEAS FROM
 STIM.      02.00.00 12-Apr-21:  START TIME
 DATE.      02.00.00 02-May-21:  END TIME
 SPUD.               09-Apr-21:  SPUD DATE
 NREF.                    Grid:  NORTH REFERENCE
 HPTY.       Minimum Curvature:  HOLE POS TYPE
 DMOD.             Drill Model:  DRILL MOD DESC
 SVYD.                  Survey:  SURVEY DESC
 ILTD.               Lithology:  INTERP LTH DESC
 FTOP.          Formation Tops:  FORM TOPS DESC
 PDAT.          Mean Sea Level:  PERMANENT DATUM
 FLD .                     ACG:  FIELD NAME
 SON .        AZ-XX-0907021034:  JOB NUMBER
 CTRY.              Azerbaijan:  COUNTRY NAME
 WELL.                    E01x:  WELL NAME
 COMP.     BP Exploration (Caspian Sea) LTD.:  COMPANY
 UWI .            /AZE00001403:  UNIQUE WELL IDENTIFIER
 API .            /AZE00001403:  API NUMBER
 WTYP.                Deviated:  WELL TYPE
 MDS .        Operator Entered:  MAG DATA SOURCE
 BASE.              Azerbaijan:  LOGGING EQUIPMENT BASE LOCATION
 REGN.                   EESSA:  REGION
 PROV.                    Baku:  PROVINCE
 STAT.                    Baku:  STATE NAME
 SRVC.          Turan Drilling:  CONTRACTOR
 MWDS.                    Baku:  MWD SHOP
 JOBN.        AZ-XX-0907021034:  JOB TICKET NUMB
 RIG .                     DWG:  RIG NAME
 DOE .                     N/A:  DOE NUMBER
 DCON.         Sperry Drilling:  DIRECTNL CONTR
 UNIT.                     N/A:  LOGGING EQUIPMENT ID
 CNTY.                        :  COUNTY
 LOC .                        :  LOCATION
 LMF .             Drill Floor:  LOG MEASURED FROM
 TVDS.m                  43.16:  TVDSS CORRECTN
 LATI.deg                40.17:  LATITUDE
 LONG.deg                51.17:  LONGITUDE
 WHNS.m                  -5.90:  WELL HEAD N/S
 WHEW.m                  -6.61:  WELL HEAD E/W
 UTMX.m              514337.95:  UTM X
 UTMY.m             4448627.46:  UTM Y
 DFWL.m                   0.00:  DISTANCE FWL
 DFSL.m                   0.00:  DISTANCE FSL
 SDEP.m                2606.87:  START DEPTH
 TDD .m                3618.01:  TOTAL DEPTH (DRILLER)
 VSDR.deg               177.42:  VERT SEC DIRECT
 GVFD.g                   1.00:  GRAVITY FIELD
 MFLD.nT              50399.00:  MAGNETIC FIELD
 MDIP.deg                59.67:  MAGNETIC DIP
 MDEC.deg                 6.56:  MAGNETIC DECL
 GRDC.deg                 0.11:  GRID CORRECTION
 AZTC.deg                 6.45:  AZM TOTAL CORR
 EPD .m                   0.00:  ELEVATION
 EGL .m                   0.00:  GROUND ELEVATION
 WDMS.m                 176.20:  WD ELEV
 APD .m                  43.16:  DEPTH ABOVE PD
 DEP .m                2606.87:  DEPTH
 AGAP.m                  43.16:  AIR GAP
 VSEW.m                  -6.61:  VERT SEC E/W
 VSNS.m                  -5.90:  VERT SEC N/S
 EKB .m                  43.16:  KB ELEVATION
 EDF .m                  43.16:  DF ELEVATION
 TDL .m                 438.00:  TOTAL DEPTH (LOGGER)
 VSC .                       0:  VS TO CLOSURE
 MAGU.                 1855490:  MAGUTM CHECKSUM
~Parameter Information Block
#MNEM.UNIT       Value        Description
#---------     -----------    ---------------------------
 AV  .mps                 2.20:  Ann Velocity 
 AVMX.mps                 2.50:  Max Ann Veloc 
 AZIF.deg               150.21:  Azm, Final 
 BHAT.        Rotary Steerable:  BHA Type 
 BROT.°/30m               0.08:  Build Rotating 
 BS  .in                  6.50:  Bit Size 
 BSZ .in                  6.50:  Bit Size 
 BTPL.psig              108.00:  Bit Press Loss 
 CABU.                     Yes:  Customer Abuse 
 CGEO.           Emin Aliyarli:  Customer Geo 
 COMM.                     <MW:  Run Comments 1 
 TCS .hr                 74.20:  Time Ciculation Ended 
 CV  .mps                 3.63:  Crit Velocity 
 CVMX.mps                 3.66:  Max Crit Veloc 
 DD1 .         Intigam Rahimov:  Direct Drillr 1 
 DD2 .          Teymur Aghayev:  Direct Drillr 2 
 DDSV.               Geo-Pilot:  DD Service 
 DEFF.%                  97.00:  % Det Eff 
 DLRX.°/30m               1.63:  Dogleg Rot Max 
 DLSO.°/30m               0.00:  Dogleg Oriented 
 DLSX.°/30m               0.00:  Dogleg Str Max 
 DRET.      20.20.00 28-Apr-21:  Drill End Time 
 DRST.      04.45.00 26-Apr-21:  Drill Start Tim 
 DTIM.hr                 34.30:  Time Drilling 
 EDEP.m                3618.01:  End Depth 
 ENG1.           Amrah Tahirov:  Engineer 1 
 ENG2.         Bahruz Mehdiyev:  Engineer 2 
 ENG3.         Farhad Orujzade:  Engineer 3 
 ETIM.      19.00.00 29-Apr-21:  End Time 
 FLOI.gpm               370.00:  Flow In 
 FLON.gpm               300.00:  Flow In Min 
 FLOS.cptm                0.00:  Fluid Loss 
 FLOX.gpm               410.00:  Flow In Max 
 HFLO.                      No:  High Flow 
 HPRE.                      No:  High Pressure 
 HTEM.                      No:  High Temp 
 HYDO.m                   1.80:  Hydro Offset 
 IFIN.deg                67.19:  Inc, Final 
 IMAX.deg                68.42:  Inc Max 
 IMIN.deg                66.33:  Inc Min 
 IMND.m                3532.79:  Inc Min Depth 
 IMXD.m                3192.15:  Inc Max Depth 
 JARR.                      No:  Jarring 
 LETM.      20.20.00 28-Apr-21:  Log End Time 
 LOST.hr                     0:  Lost Rig Time 
 LSTM.      04.45.00 26-Apr-21:  Log Start Time 
 MDCL.ppm             36500.00:  Mud Chlorides 
 MDES.     Inversion Oil/Synthetic:  Mud Desc 
 DFD .sg                  1.42:  Mud Density 
 MDMN.sg                  1.42:  Dens Mud Min 
 MDMX.sg                  1.42:  Dens Mud Max 
 MOIL.                    55.7:  Run Mud Oil % 
 MOWR.                   71:29:  Run Mud OWR 
 MSND.                     0.1:  Run Mud Sand % 
 MSOL.                    19.9:  Run Mud Solids% 
 DFV .spqt               83.00:  Mud Viscosity 
 MWOD.in                  5.15:  MWD Tool OD 
 MWSI.                      No:  Serv Intrp, MWD 
 OTIM.hr                120.59:  Time Operating 
 PCON.           Look Like New:  Pad Condition 
 PMAX.psia            11292.93:  Press Op, Max 
 PV  .cP                 27.00:  Mud PV 
 RUN .                     400:  Run Number 
 ROPA.m/hr               14.00:  ROP Avg 
 ROPN.m/hr                9.00:  ROP Min 
 ROPX.m/hr               18.00:  ROP Max 
 RPMA.rpm               130.00:  RPM Surface Avg 
 RPMN.rpm               100.00:  RPM Surface Min 
 RPMX.rpm               140.00:  RPM Surface Max 
 RRUN.                    0400:  Rig Run Number 
 RTIM.hr                 38.60:  Time Reaming 
 SAZI.deg               149.55:  Azm, Start 
 SDEP.m                3180.01:  Start Depth 
 SIDD.                      No:  Serv Intrp, DD 
 SINC.deg                68.42:  Inc, Start 
 SPPA.psig             4400.00:  SPP Avg 
 SPPN.psig             3580.00:  SPP Min 
 SPPX.psig             4850.00:  SPP Max 
 STIM.      12.30.00 24-Apr-21:  Start Time 
 SVCS.                 DD, MWD:  Services 
 SVER.                    9.20:  Sperry Version 
 TDAT.m                 438.00:  Tot Depth Attmp 
 TDDF.                      No:  Trip for DD 
 TDLG.m                 438.00:  Tot Depth Loggd 
 TFF .                      No:  Trip for Fail 
 TQAA.f-kp               11.00:  Torque Abs Avg 
 TQAN.f-kp                9.00:  Torque Abs Min 
 TQAX.f-kp               14.00:  Torque Abs Max 
 TRRT.°/30m               0.04:  Turn Rotating 
 MRT .                    HCIM:  Maximum Recorded Temperature 
 TTMX.degC               84.31:  Max Tool Temp 
 VS01.                90521954:  Virtual Str1 SN 
 VS02.                90519327:  Virtual Str2 SN 
 VS03.                90522273:  Virtual Str3 SN 
 VS04.                11108038:  Virtual Str4 SN 
 VS05.                12258760:  Virtual Str5 SN 
 WBMN.klb                 1.00:  WOB Min 
 WITN.           Adil Mammadov:  Customer Rep 
 WITN.         Alex Yadullayev:  Customer Rep 2 
 WOBA.klb                 6.00:  WOB Avg 
 WOBX.klb                 9.00:  WOB Max 
 YP  .lhf2               31.00:  Yield Point 
~Curve Information Block
#MNEM.UNIT                 API CODE     Curve Description
#---------               -----------    ---------------------------
 TIME.HHMMSS            00 000 000 000:  GT Time & Date
 GTDEPTH.m              00 000 000 000:  GT Depth
 GTPQH.psia             00 000 000 000:  GT HR Quartz Pressure
 GTTQ.degC              00 000 000 000:  GT Quartz Temperature
 GTTN.NONE              00 000 000 000:  GT Test Number
 GTET.sec               00 000 000 000:  GT Elapsed Test Time
 GTTVD.m                00 000 000 000:  GT True Vertical Depth
#Other Information
#
#WARRANTY: Halliburton will use its best efforts to furnish customers with 
#accurate information and interpretations that are part of, and incident to, the services 
#provided.  However, Halliburton cannot and does not warrant the accuracy 
#or correctness of such information and interpretations.  Under no circumstances should any 
#such information or interpretation be relied upon as the sole basis for any drilling, 
#completion, production, or financial decision or any procedure involving any risk to the 
#safety of any drilling venture, drilling rig or its crew or any other third party.  The 
#Customer has full responsibility for all drilling, completion and production operation.  
#Halliburton makes no representations or warranties, either expressed or 
#implied, including, but not limited to, the implied warranties of merchantability or fitness 
#for a particular purpose, with respect to the services rendered.  In no event will 
#Halliburton be liable for failure to obtain any particular results or for 
#any damages, including, but not limited to, indirect, special or consequential damages, 
#resulting from the use of any information or interpretation provided by Halliburton.
#
~A           TIME           GTDEPTH  GTPQH  GTTQ  GTTN  GTET   GTTVD  
# ...
   23:14:09.532.26-Apr-2021 3222.01 6595.55 69.73 1.00  23.01 2649.76
   23:14:09.732.26-Apr-2021 3222.01 6595.55 69.73 1.00  23.21 2649.76
   23:14:09.933.26-Apr-2021 3222.01 6608.17 69.73 1.00  23.41 2649.76
   23:14:10.133.26-Apr-2021 3222.01 6252.70 69.73 1.00  23.61 2649.76
   23:14:10.333.26-Apr-2021 3222.01 5495.29 69.73 1.00  23.81 2649.76
   23:14:10.533.26-Apr-2021 3222.01 5115.20 69.73 1.00  24.01 2649.76
   23:14:10.733.26-Apr-2021 3222.01 5115.20 69.73 1.00  24.21 2649.76
   23:14:10.933.26-Apr-2021 3222.01 4217.97 69.73 1.00  24.41 2649.76
   23:14:11.133.26-Apr-2021 3222.01 4181.55 69.73 1.00  24.61 2649.76
   23:14:11.333.26-Apr-2021 3222.01 4180.06 69.73 1.00  24.81 2649.76
   23:14:11.533.26-Apr-2021 3222.01 4178.72 69.73 1.00  25.01 2649.76
   23:14:11.733.26-Apr-2021 3222.01 4178.72 69.73 1.00  25.21 2649.76
   23:14:11.933.26-Apr-2021 3222.01 4178.59 69.73 1.00  25.41 2649.76
   23:14:12.133.26-Apr-2021 3222.01 4178.58 69.73 1.00  25.61 2649.76
   23:14:12.333.26-Apr-2021 3222.01 4178.45 69.73 1.00  25.81 2649.76
   23:14:12.533.26-Apr-2021 3222.01 4179.69 69.72 1.00  26.01 2649.76
   23:14:12.733.26-Apr-2021 3222.01 4179.69 69.72 1.00  26.21 2649.76
   23:14:12.933.26-Apr-2021 3222.01 4180.23 69.72 1.00  26.41 2649.76
   23:14:13.133.26-Apr-2021 3222.01 4179.61 69.72 1.00  26.61 2649.76
   23:14:13.334.26-Apr-2021 3222.01 4180.47 69.72 1.00  26.81 2649.76
   23:14:13.534.26-Apr-2021 3222.01 4179.25 69.72 1.00  27.01 2649.76
   23:14:13.734.26-Apr-2021 3222.01 4179.25 69.72 1.00  27.21 2649.76
   23:14:13.934.26-Apr-2021 3222.01 4178.08 69.72 1.00  27.41 2649.76
   23:14:14.134.26-Apr-2021 3222.01 4180.57 69.72 1.00  27.61 2649.76
   23:14:14.334.26-Apr-2021 3222.01 4181.03 69.72 1.00  27.81 2649.76
   23:14:14.534.26-Apr-2021 3222.01 4180.77 69.72 1.00  28.01 2649.76
   23:14:14.734.26-Apr-2021 3222.01 4180.77 69.72 1.00  28.21 2649.76
   23:14:14.934.26-Apr-2021 3222.01 4181.66 69.71 1.00  28.41 2649.76
   23:14:15.134.26-Apr-2021 3222.01 4181.98 69.71 1.00  28.61 2649.76
   23:14:15.334.26-Apr-2021 3222.01 4181.75 69.71 1.00  28.81 2649.76
   23:14:15.534.26-Apr-2021 3222.01 4181.20 69.71 1.00  29.01 2649.76
   23:14:15.734.26-Apr-2021 3222.01 4181.20 69.71 1.00  29.21 2649.76
   23:14:15.934.26-Apr-2021 3222.01 4182.91 69.71 1.00  29.41 2649.76
   23:14:16.134.26-Apr-2021 3222.01 4182.88 69.71 1.00  29.61 2649.76
   23:14:16.334.26-Apr-2021 3222.01 4183.59 69.71 1.00  29.81 2649.76
   23:14:16.534.26-Apr-2021 3222.01 4183.25 69.71 1.00  30.01 2649.76
   23:14:16.735.26-Apr-2021 3222.01 4183.25 69.71 1.00  30.21 2649.76
   23:14:16.935.26-Apr-2021 3222.01 4184.73 69.70 1.00  30.41 2649.76
   23:14:17.135.26-Apr-2021 3222.01 4185.07 69.70 1.00  30.61 2649.76
   23:14:17.335.26-Apr-2021 3222.01 4185.64 69.70 1.00  30.81 2649.76
   23:14:17.535.26-Apr-2021 3222.01 4187.75 69.70 1.00  31.01 2649.76
   23:14:17.735.26-Apr-2021 3222.01 4187.75 69.70 1.00  31.21 2649.76
   23:14:17.935.26-Apr-2021 3222.01 4203.87 69.70 1.00  31.41 2649.76
   23:14:18.135.26-Apr-2021 3222.01 4201.48 69.70 1.00  31.61 2649.76
   23:14:18.335.26-Apr-2021 3222.01 4199.46 69.70 1.00  31.81 2649.76
   23:14:18.535.26-Apr-2021 3222.01 4198.85 69.70 1.00  32.01 2649.76
   23:14:18.735.26-Apr-2021 3222.01 4198.85 69.70 1.00  32.21 2649.76
   23:14:18.935.26-Apr-2021 3222.01 4196.00 69.70 1.00  32.41 2649.76
   23:14:19.135.26-Apr-2021 3222.01 4196.60 69.69 1.00  32.61 2649.76
   23:14:19.335.26-Apr-2021 3222.01 4194.50 69.69 1.00  32.81 2649.76
   23:14:19.535.26-Apr-2021 3222.01 4196.93 69.69 1.00  33.01 2649.76
   23:14:19.735.26-Apr-2021 3222.01 4196.93 69.69 1.00  33.21 2649.76
   23:14:19.935.26-Apr-2021 3222.01 4196.72 69.69 1.00  33.41 2649.76
   23:14:20.136.26-Apr-2021 3222.01 4235.41 69.69 1.00  33.61 2649.76
   23:14:20.336.26-Apr-2021 3222.01 4269.33 69.69 1.00  33.81 2649.76
   23:14:20.536.26-Apr-2021 3222.01 4272.06 69.69 1.00  34.01 2649.76
   23:14:20.736.26-Apr-2021 3222.01 4272.06 69.69 1.00  34.21 2649.76
   23:14:20.936.26-Apr-2021 3222.01 4274.00 69.69 1.00  34.41 2649.76
   23:14:21.136.26-Apr-2021 3222.01 4274.31 69.69 1.00  34.61 2649.76
   23:14:21.336.26-Apr-2021 3222.01 4274.86 69.69 1.00  34.81 2649.76
   23:14:21.536.26-Apr-2021 3222.01 4275.02 69.69 1.00  35.01 2649.76
   23:14:21.736.26-Apr-2021 3222.01 4275.02 69.69 1.00  35.21 2649.76
   23:14:21.936.26-Apr-2021 3222.01 4275.53 69.69 1.00  35.41 2649.76
   23:14:22.136.26-Apr-2021 3222.01 4275.23 69.68 1.00  35.61 2649.76
   23:14:22.336.26-Apr-2021 3222.01 4276.01 69.68 1.00  35.81 2649.76
   23:14:22.536.26-Apr-2021 3222.01 4276.45 69.68 1.00  36.01 2649.76
   23:14:22.736.26-Apr-2021 3222.01 4276.45 69.68 1.00  36.21 2649.76
   23:14:22.936.26-Apr-2021 3222.01 4276.06 69.68 1.00  36.41 2649.76
   23:14:23.136.26-Apr-2021 3222.01 4276.75 69.68 1.00  36.61 2649.76
   23:14:23.336.26-Apr-2021 3222.01 4276.96 69.68 1.00  36.81 2649.76
   23:14:23.537.26-Apr-2021 3222.01 4277.30 69.68 1.00  37.01 2649.76
   23:14:23.737.26-Apr-2021 3222.01 4277.30 69.68 1.00  37.21 2649.76
   23:14:23.937.26-Apr-2021 3222.01 4277.15 69.68 1.00  37.41 2649.76
   23:14:24.137.26-Apr-2021 3222.01 4276.70 69.68 1.00  37.61 2649.76
   23:14:24.337.26-Apr-2021 3222.01 4277.58 69.68 1.00  37.81 2649.76
   23:14:24.537.26-Apr-2021 3222.01 4277.57 69.68 1.00  38.01 2649.76
   23:14:24.737.26-Apr-2021 3222.01 4277.57 69.68 1.00  38.21 2649.76
   23:14:24.937.26-Apr-2021 3222.01 4276.92 69.68 1.00  38.41 2649.76
   23:14:25.137.26-Apr-2021 3222.01 4277.45 69.68 1.00  38.61 2649.76
   23:14:25.337.26-Apr-2021 3222.01 4277.77 69.68 1.00  38.81 2649.76
   23:14:25.537.26-Apr-2021 3222.01 4278.08 69.68 1.00  39.01 2649.76
   23:14:25.737.26-Apr-2021 3222.01 4278.08 69.68 1.00  39.21 2649.76
   23:14:25.937.26-Apr-2021 3222.01 4278.02 69.68 1.00  39.41 2649.76
   23:14:26.137.26-Apr-2021 3222.01 4277.87 69.67 1.00  39.61 2649.76
   23:14:26.337.26-Apr-2021 3222.01 4278.22 69.67 1.00  39.81 2649.76
   23:14:26.537.26-Apr-2021 3222.01 4278.19 69.67 1.00  40.01 2649.76
   23:14:26.737.26-Apr-2021 3222.01 4278.19 69.67 1.00  40.21 2649.76
   23:14:26.938.26-Apr-2021 3222.01 4278.01 69.67 1.00  40.41 2649.76
   23:14:27.138.26-Apr-2021 3222.01 4278.12 69.67 1.00  40.61 2649.76
   23:14:27.338.26-Apr-2021 3222.01 4278.13 69.67 1.00  40.81 2649.76
   23:14:27.538.26-Apr-2021 3222.01 4278.19 69.67 1.00  41.01 2649.76
   23:14:27.738.26-Apr-2021 3222.01 4278.19 69.67 1.00  41.21 2649.76
   23:14:27.938.26-Apr-2021 3222.01 4277.54 69.67 1.00  41.41 2649.76
   23:14:28.138.26-Apr-2021 3222.01 4278.14 69.67 1.00  41.61 2649.76
   23:14:28.338.26-Apr-2021 3222.01 4278.40 69.67 1.00  41.81 2649.76
   23:14:28.538.26-Apr-2021 3222.01 4278.42 69.67 1.00  42.01 2649.76
   23:14:28.738.26-Apr-2021 3222.01 4278.42 69.67 1.00  42.21 2649.76
   23:14:28.938.26-Apr-2021 3222.01 4278.55 69.67 1.00  42.41 2649.76
   23:14:29.138.26-Apr-2021 3222.01 4278.49 69.67 1.00  42.61 2649.76
   23:14:29.338.26-Apr-2021 3222.01 4278.72 69.67 1.00  42.81 2649.76
   23:14:29.538.26-Apr-2021 3222.01 4278.65 69.67 1.00  43.01 2649.76
   23:14:29.738.26-Apr-2021 3222.01 4278.65 69.67 1.00  43.21 2649.76
   23:14:29.938.26-Apr-2021 3222.01 4278.57 69.67 1.00  43.41 2649.76
   23:14:30.138.26-Apr-2021 3222.01 4278.64 69.67 1.00  43.61 2649.76
   23:14:30.339.26-Apr-2021 3222.01 4278.54 69.67 1.00  43.81 2649.76
   23:14:30.539.26-Apr-2021 3222.01 4278.66 69.67 1.00  44.01 2649.76
   23:14:30.739.26-Apr-2021 3222.01 4278.66 69.67 1.00  44.21 2649.76
   23:14:30.939.26-Apr-2021 3222.01 4278.71 69.66 1.00  44.41 2649.76
   23:14:31.139.26-Apr-2021 3222.01 4277.92 69.66 1.00  44.61 2649.76
   23:14:31.339.26-Apr-2021 3222.01 4278.69 69.66 1.00  44.81 2649.76
   23:14:31.539.26-Apr-2021 3222.01 4278.70 69.66 1.00  45.01 2649.76
   23:14:31.739.26-Apr-2021 3222.01 4278.70 69.66 1.00  45.21 2649.76
   23:14:31.939.26-Apr-2021 3222.01 4278.76 69.66 1.00  45.41 2649.76
   23:14:32.139.26-Apr-2021 3222.01 4278.17 69.66 1.00  45.61 2649.76
   23:14:32.339.26-Apr-2021 3222.01 4278.67 69.66 1.00  45.81 2649.76
