~Version Information
 VERS.                  2.0:   CWLS log ASCII Standard -VERSION 2.0
 WRAP.                   NO:   One line per depth step
~Well Information Block
#MNEM.UNIT     VALUE/NAME     DESCRIPTION
#---------     -----------    ---------------------------
 STRT.S             15:37:44 28-Apr-21: START TIME 15:37:44 28-Apr-21
 STOP.S             15:44:12 28-Apr-21: STOP TIME  15:44:12 28-Apr-21
 STEP.S                   0.00: STEP TIME
 NULL.                 -999.25: NULL VALUE
 DFWT.                        :  DIST FWL TEXT
 DFST.                        :  DIST FSL TEXT
 DMF .             Drill Floor:  DRILL MEAS FROM
 STIM.      02.00.00 12-Apr-21:  START TIME
 DATE.      02.00.00 02-May-21:  END TIME
 SPUD.               09-Apr-21:  SPUD DATE
 NREF.                    Grid:  NORTH REFERENCE
 HPTY.       Minimum Curvature:  HOLE POS TYPE
 DMOD.             Drill Model:  DRILL MOD DESC
 SVYD.                  Survey:  SURVEY DESC
 ILTD.               Lithology:  INTERP LTH DESC
 FTOP.          Formation Tops:  FORM TOPS DESC
 PDAT.          Mean Sea Level:  PERMANENT DATUM
 FLD .                     ACG:  FIELD NAME
 SON .        AZ-XX-0907021034:  JOB NUMBER
 CTRY.              Azerbaijan:  COUNTRY NAME
 WELL.                    E01x:  WELL NAME
 COMP.     BP Exploration (Caspian Sea) LTD.:  COMPANY
 UWI .            /AZE00001403:  UNIQUE WELL IDENTIFIER
 API .            /AZE00001403:  API NUMBER
 WTYP.                Deviated:  WELL TYPE
 MDS .        Operator Entered:  MAG DATA SOURCE
 BASE.              Azerbaijan:  LOGGING EQUIPMENT BASE LOCATION
 REGN.                   EESSA:  REGION
 PROV.                    Baku:  PROVINCE
 STAT.                    Baku:  STATE NAME
 SRVC.          Turan Drilling:  CONTRACTOR
 MWDS.                    Baku:  MWD SHOP
 JOBN.        AZ-XX-0907021034:  JOB TICKET NUMB
 RIG .                     DWG:  RIG NAME
 DOE .                     N/A:  DOE NUMBER
 DCON.         Sperry Drilling:  DIRECTNL CONTR
 UNIT.                     N/A:  LOGGING EQUIPMENT ID
 CNTY.                        :  COUNTY
 LOC .                        :  LOCATION
 LMF .             Drill Floor:  LOG MEASURED FROM
 TVDS.m                  43.16:  TVDSS CORRECTN
 LATI.deg                40.17:  LATITUDE
 LONG.deg                51.17:  LONGITUDE
 WHNS.m                  -5.90:  WELL HEAD N/S
 WHEW.m                  -6.61:  WELL HEAD E/W
 UTMX.m              514337.95:  UTM X
 UTMY.m             4448627.46:  UTM Y
 DFWL.m                   0.00:  DISTANCE FWL
 DFSL.m                   0.00:  DISTANCE FSL
 SDEP.m                2606.87:  START DEPTH
 TDD .m                3618.01:  TOTAL DEPTH (DRILLER)
 VSDR.deg               177.42:  VERT SEC DIRECT
 GVFD.g                   1.00:  GRAVITY FIELD
 MFLD.nT              50399.00:  MAGNETIC FIELD
 MDIP.deg                59.67:  MAGNETIC DIP
 MDEC.deg                 6.56:  MAGNETIC DECL
 GRDC.deg                 0.11:  GRID CORRECTION
 AZTC.deg                 6.45:  AZM TOTAL CORR
 EPD .m                   0.00:  ELEVATION
 EGL .m                   0.00:  GROUND ELEVATION
 WDMS.m                 176.20:  WD ELEV
 APD .m                  43.16:  DEPTH ABOVE PD
 DEP .m                2606.87:  DEPTH
 AGAP.m                  43.16:  AIR GAP
 VSEW.m                  -6.61:  VERT SEC E/W
 VSNS.m                  -5.90:  VERT SEC N/S
 EKB .m                  43.16:  KB ELEVATION
 EDF .m                  43.16:  DF ELEVATION
 TDL .m                 438.00:  TOTAL DEPTH (LOGGER)
 VSC .                       0:  VS TO CLOSURE
 MAGU.                 1855490:  MAGUTM CHECKSUM
~Parameter Information Block
#MNEM.UNIT       Value        Description
#---------     -----------    ---------------------------
 AV  .mps                 2.20:  Ann Velocity 
 AVMX.mps                 2.50:  Max Ann Veloc 
 AZIF.deg               150.21:  Azm, Final 
 BHAT.        Rotary Steerable:  BHA Type 
 BROT.°/30m               0.08:  Build Rotating 
 BS  .in                  6.50:  Bit Size 
 BSZ .in                  6.50:  Bit Size 
 BTPL.psig              108.00:  Bit Press Loss 
 CABU.                     Yes:  Customer Abuse 
 CGEO.           Emin Aliyarli:  Customer Geo 
 COMM.                     ôŸZ:  Run Comments 1 
 TCS .hr                 74.20:  Time Ciculation Ended 
 CV  .mps                 3.63:  Crit Velocity 
 CVMX.mps                 3.66:  Max Crit Veloc 
 DD1 .         Intigam Rahimov:  Direct Drillr 1 
 DD2 .          Teymur Aghayev:  Direct Drillr 2 
 DDSV.               Geo-Pilot:  DD Service 
 DEFF.%                  97.00:  % Det Eff 
 DLRX.°/30m               1.63:  Dogleg Rot Max 
 DLSO.°/30m               0.00:  Dogleg Oriented 
 DLSX.°/30m               0.00:  Dogleg Str Max 
 DRET.      20.20.00 28-Apr-21:  Drill End Time 
 DRST.      04.45.00 26-Apr-21:  Drill Start Tim 
 DTIM.hr                 34.30:  Time Drilling 
 EDEP.m                3618.01:  End Depth 
 ENG1.           Amrah Tahirov:  Engineer 1 
 ENG2.         Bahruz Mehdiyev:  Engineer 2 
 ENG3.         Farhad Orujzade:  Engineer 3 
 ETIM.      19.00.00 29-Apr-21:  End Time 
 FLOI.gpm               370.00:  Flow In 
 FLON.gpm               300.00:  Flow In Min 
 FLOS.cptm                0.00:  Fluid Loss 
 FLOX.gpm               410.00:  Flow In Max 
 HFLO.                      No:  High Flow 
 HPRE.                      No:  High Pressure 
 HTEM.                      No:  High Temp 
 HYDO.m                   1.80:  Hydro Offset 
 IFIN.deg                67.19:  Inc, Final 
 IMAX.deg                68.42:  Inc Max 
 IMIN.deg                66.33:  Inc Min 
 IMND.m                3532.79:  Inc Min Depth 
 IMXD.m                3192.15:  Inc Max Depth 
 JARR.                      No:  Jarring 
 LETM.      20.20.00 28-Apr-21:  Log End Time 
 LOST.hr                     0:  Lost Rig Time 
 LSTM.      04.45.00 26-Apr-21:  Log Start Time 
 MDCL.ppm             36500.00:  Mud Chlorides 
 MDES.     Inversion Oil/Synthetic:  Mud Desc 
 DFD .sg                  1.42:  Mud Density 
 MDMN.sg                  1.42:  Dens Mud Min 
 MDMX.sg                  1.42:  Dens Mud Max 
 MOIL.                    55.7:  Run Mud Oil % 
 MOWR.                   71:29:  Run Mud OWR 
 MSND.                     0.1:  Run Mud Sand % 
 MSOL.                    19.9:  Run Mud Solids% 
 DFV .spqt               83.00:  Mud Viscosity 
 MWOD.in                  5.15:  MWD Tool OD 
 MWSI.                      No:  Serv Intrp, MWD 
 OTIM.hr                120.59:  Time Operating 
 PCON.           Look Like New:  Pad Condition 
 PMAX.psia            11292.93:  Press Op, Max 
 PV  .cP                 27.00:  Mud PV 
 RUN .                     400:  Run Number 
 ROPA.m/hr               14.00:  ROP Avg 
 ROPN.m/hr                9.00:  ROP Min 
 ROPX.m/hr               18.00:  ROP Max 
 RPMA.rpm               130.00:  RPM Surface Avg 
 RPMN.rpm               100.00:  RPM Surface Min 
 RPMX.rpm               140.00:  RPM Surface Max 
 RRUN.                    0400:  Rig Run Number 
 RTIM.hr                 38.60:  Time Reaming 
 SAZI.deg               149.55:  Azm, Start 
 SDEP.m                3180.01:  Start Depth 
 SIDD.                      No:  Serv Intrp, DD 
 SINC.deg                68.42:  Inc, Start 
 SPPA.psig             4400.00:  SPP Avg 
 SPPN.psig             3580.00:  SPP Min 
 SPPX.psig             4850.00:  SPP Max 
 STIM.      12.30.00 24-Apr-21:  Start Time 
 SVCS.                 DD, MWD:  Services 
 SVER.                    9.20:  Sperry Version 
 TDAT.m                 438.00:  Tot Depth Attmp 
 TDDF.                      No:  Trip for DD 
 TDLG.m                 438.00:  Tot Depth Loggd 
 TFF .                      No:  Trip for Fail 
 TQAA.f-kp               11.00:  Torque Abs Avg 
 TQAN.f-kp                9.00:  Torque Abs Min 
 TQAX.f-kp               14.00:  Torque Abs Max 
 TRRT.°/30m               0.04:  Turn Rotating 
 MRT .                    HCIM:  Maximum Recorded Temperature 
 TTMX.degC               84.31:  Max Tool Temp 
 VS01.                90521954:  Virtual Str1 SN 
 VS02.                90519327:  Virtual Str2 SN 
 VS03.                90522273:  Virtual Str3 SN 
 VS04.                11108038:  Virtual Str4 SN 
 VS05.                12258760:  Virtual Str5 SN 
 WBMN.klb                 1.00:  WOB Min 
 WITN.           Adil Mammadov:  Customer Rep 
 WITN.         Alex Yadullayev:  Customer Rep 2 
 WOBA.klb                 6.00:  WOB Avg 
 WOBX.klb                 9.00:  WOB Max 
 YP  .lhf2               31.00:  Yield Point 
~Curve Information Block
#MNEM.UNIT                 API CODE     Curve Description
#---------               -----------    ---------------------------
 TIME.HHMMSS            00 000 000 000:  GT Time & Date
 GTDEPTH.m              00 000 000 000:  GT Depth
 GTPQH.psia             00 000 000 000:  GT HR Quartz Pressure
 GTTQ.degC              00 000 000 000:  GT Quartz Temperature
 GTTN.NONE              00 000 000 000:  GT Test Number
 GTET.sec               00 000 000 000:  GT Elapsed Test Time
 GTTVD.m                00 000 000 000:  GT True Vertical Depth
#Other Information
#
#WARRANTY: Halliburton will use its best efforts to furnish customers with 
#accurate information and interpretations that are part of, and incident to, the services 
#provided.  However, Halliburton cannot and does not warrant the accuracy 
#or correctness of such information and interpretations.  Under no circumstances should any 
#such information or interpretation be relied upon as the sole basis for any drilling, 
#completion, production, or financial decision or any procedure involving any risk to the 
#safety of any drilling venture, drilling rig or its crew or any other third party.  The 
#Customer has full responsibility for all drilling, completion and production operation.  
#Halliburton makes no representations or warranties, either expressed or 
#implied, including, but not limited to, the implied warranties of merchantability or fitness 
#for a particular purpose, with respect to the services rendered.  In no event will 
#Halliburton be liable for failure to obtain any particular results or for 
#any damages, including, but not limited to, indirect, special or consequential damages, 
#resulting from the use of any information or interpretation provided by Halliburton.
#
~A           TIME           GTDEPTH  GTPQH  GTTQ  GTTN   GTET   GTTVD  
# ...
   15:43:46.052.28-Apr-2021 3537.51 6084.55 74.19 10.00 361.74 2773.98
   15:43:46.252.28-Apr-2021 3537.51 6082.73 74.19 10.00 361.94 2773.98
   15:43:46.452.28-Apr-2021 3537.51 6084.24 74.19 10.00 362.14 2773.98
   15:43:46.652.28-Apr-2021 3537.51 6084.24 74.19 10.00 362.34 2773.98
   15:43:46.852.28-Apr-2021 3537.51 6078.40 74.19 10.00 362.54 2773.98
   15:43:47.053.28-Apr-2021 3537.51 6083.16 74.19 10.00 362.74 2773.98
   15:43:47.253.28-Apr-2021 3537.51 6083.52 74.18 10.00 362.94 2773.98
   15:43:47.453.28-Apr-2021 3537.51 6084.57 74.18 10.00 363.14 2773.98
   15:43:47.653.28-Apr-2021 3537.51 6084.57 74.18 10.00 363.34 2773.98
   15:43:47.853.28-Apr-2021 3537.51 6084.05 74.18 10.00 363.54 2773.98
   15:43:48.053.28-Apr-2021 3537.51 6072.17 74.18 10.00 363.74 2773.98
   15:43:48.253.28-Apr-2021 3537.51 6083.75 74.18 10.00 363.94 2773.98
   15:43:48.453.28-Apr-2021 3537.51 6083.63 74.18 10.00 364.14 2773.98
   15:43:48.653.28-Apr-2021 3537.51 6083.63 74.18 10.00 364.34 2773.98
   15:43:48.853.28-Apr-2021 3537.51 6081.60 74.18 10.00 364.54 2773.98
   15:43:49.053.28-Apr-2021 3537.51 6072.30 74.18 10.00 364.74 2773.98
   15:43:49.253.28-Apr-2021 3537.51 6084.93 74.18 10.00 364.94 2773.98
   15:43:49.453.28-Apr-2021 3537.51 6083.10 74.18 10.00 365.14 2773.98
   15:43:49.654.28-Apr-2021 3537.51 6083.10 74.18 10.00 365.34 2773.98
   15:43:49.854.28-Apr-2021 3537.51 6069.75 74.18 10.00 365.54 2773.98
   15:43:50.054.28-Apr-2021 3537.51 6078.93 74.18 10.00 365.74 2773.98
   15:43:50.254.28-Apr-2021 3537.51 6084.10 74.18 10.00 365.94 2773.98
   15:43:50.454.28-Apr-2021 3537.51 6083.58 74.18 10.00 366.14 2773.98
   15:43:50.654.28-Apr-2021 3537.51 6083.58 74.18 10.00 366.34 2773.98
   15:43:50.854.28-Apr-2021 3537.51 6075.90 74.18 10.00 366.54 2773.98
   15:43:51.054.28-Apr-2021 3537.51 6083.46 74.18 10.00 366.74 2773.98
   15:43:51.254.28-Apr-2021 3537.51 6084.44 74.18 10.00 366.94 2773.98
   15:43:51.454.28-Apr-2021 3537.51 6084.90 74.17 10.00 367.14 2773.98
   15:43:51.654.28-Apr-2021 3537.51 6084.90 74.17 10.00 367.34 2773.98
   15:43:51.854.28-Apr-2021 3537.51 6080.37 74.17 10.00 367.54 2773.98
   15:43:52.054.28-Apr-2021 3537.51 6085.71 74.17 10.00 367.74 2773.98
   15:43:52.255.28-Apr-2021 3537.51 6083.63 74.17 10.00 367.94 2773.98
   15:43:52.455.28-Apr-2021 3537.51 6084.53 74.17 10.00 368.14 2773.98
   15:43:52.655.28-Apr-2021 3537.51 6084.53 74.17 10.00 368.34 2773.98
   15:43:52.855.28-Apr-2021 3537.51 6084.53 74.17 10.00 368.54 2773.98
   15:43:53.055.28-Apr-2021 3537.51 6084.73 74.17 10.00 368.74 2773.98
   15:43:53.255.28-Apr-2021 3537.51 6083.02 74.17 10.00 368.94 2773.98
   15:43:53.455.28-Apr-2021 3537.51 6079.48 74.17 10.00 369.14 2773.98
   15:43:53.655.28-Apr-2021 3537.51 6079.48 74.17 10.00 369.34 2773.98
   15:43:53.855.28-Apr-2021 3537.51 6082.64 74.17 10.00 369.54 2773.98
   15:43:54.055.28-Apr-2021 3537.51 6081.49 74.17 10.00 369.74 2773.98
   15:43:54.255.28-Apr-2021 3537.51 6081.81 74.17 10.00 369.94 2773.98
   15:43:54.455.28-Apr-2021 3537.51 6081.66 74.17 10.00 370.14 2773.98
   15:43:54.655.28-Apr-2021 3537.51 6081.66 74.17 10.00 370.34 2773.98
   15:43:54.856.28-Apr-2021 3537.51 6084.58 74.17 10.00 370.54 2773.98
   15:43:55.056.28-Apr-2021 3537.51 6082.40 74.16 10.00 370.74 2773.98
   15:43:55.256.28-Apr-2021 3537.51 6082.89 74.16 10.00 370.94 2773.98
   15:43:55.456.28-Apr-2021 3537.51 6069.49 74.16 10.00 371.14 2773.98
   15:43:55.656.28-Apr-2021 3537.51 6069.49 74.16 10.00 371.34 2773.98
   15:43:55.856.28-Apr-2021 3537.51 6085.20 74.16 10.00 371.54 2773.98
   15:43:56.056.28-Apr-2021 3537.51 6082.52 74.16 10.00 371.74 2773.98
   15:43:56.256.28-Apr-2021 3537.51 6082.88 74.16 10.00 371.94 2773.98
   15:43:56.456.28-Apr-2021 3537.51 6073.92 74.16 10.00 372.14 2773.98
   15:43:56.656.28-Apr-2021 3537.51 6073.92 74.16 10.00 372.34 2773.98
   15:43:56.856.28-Apr-2021 3537.51 6082.81 74.16 10.00 372.54 2773.98
   15:43:57.056.28-Apr-2021 3537.51 6083.68 74.16 10.00 372.74 2773.98
   15:43:57.256.28-Apr-2021 3537.51 6082.92 74.16 10.00 372.94 2773.98
   15:43:57.457.28-Apr-2021 3537.51 6076.93 74.16 10.00 373.14 2773.98
   15:43:57.657.28-Apr-2021 3537.51 6076.93 74.16 10.00 373.34 2773.98
   15:43:57.857.28-Apr-2021 3537.51 6083.25 74.16 10.00 373.54 2773.98
   15:43:58.057.28-Apr-2021 3537.51 6086.39 74.16 10.00 373.74 2773.98
   15:43:58.257.28-Apr-2021 3537.51 6081.85 74.16 10.00 373.94 2773.98
   15:43:58.457.28-Apr-2021 3537.51 6072.68 74.16 10.00 374.14 2773.98
   15:43:58.657.28-Apr-2021 3537.51 6072.68 74.16 10.00 374.34 2773.98
   15:43:58.857.28-Apr-2021 3537.51 6081.94 74.16 10.00 374.54 2773.98
   15:43:59.057.28-Apr-2021 3537.51 6086.04 74.15 10.00 374.74 2773.98
   15:43:59.257.28-Apr-2021 3537.51 6080.98 74.15 10.00 374.94 2773.98
   15:43:59.457.28-Apr-2021 3537.51 6076.69 74.15 10.00 375.14 2773.98
   15:43:59.657.28-Apr-2021 3537.51 6076.69 74.15 10.00 375.34 2773.98
   15:43:59.857.28-Apr-2021 3537.51 6083.67 74.15 10.00 375.54 2773.98
   15:44:00.058.28-Apr-2021 3537.51 6084.37 74.15 10.00 375.74 2773.98
   15:44:00.258.28-Apr-2021 3537.51 6080.73 74.15 10.00 375.94 2773.98
   15:44:00.458.28-Apr-2021 3537.51 6081.86 74.15 10.00 376.14 2773.98
   15:44:00.658.28-Apr-2021 3537.51 6081.86 74.15 10.00 376.34 2773.98
   15:44:00.858.28-Apr-2021 3537.51 6085.12 74.15 10.00 376.54 2773.98
   15:44:01.058.28-Apr-2021 3537.51 6082.87 74.15 10.00 376.74 2773.98
   15:44:01.258.28-Apr-2021 3537.51 6070.43 74.15 10.00 376.94 2773.98
   15:44:01.458.28-Apr-2021 3537.51 6081.21 74.15 10.00 377.14 2773.98
   15:44:01.658.28-Apr-2021 3537.51 6081.21 74.15 10.00 377.34 2773.98
   15:44:01.858.28-Apr-2021 3537.51 6084.41 74.15 10.00 377.54 2773.98
   15:44:02.058.28-Apr-2021 3537.51 6077.65 74.15 10.00 377.74 2773.98
   15:44:02.258.28-Apr-2021 3537.51 6080.67 74.15 10.00 377.94 2773.98
   15:44:02.458.28-Apr-2021 3537.51 6080.95 74.15 10.00 378.14 2773.98
   15:44:02.659.28-Apr-2021 3537.51 6080.95 74.15 10.00 378.34 2773.98
   15:44:02.859.28-Apr-2021 3537.51 6081.91 74.14 10.00 378.54 2773.98
   15:44:03.059.28-Apr-2021 3537.51 6080.09 74.14 10.00 378.74 2773.98
   15:44:03.259.28-Apr-2021 3537.51 6083.71 74.14 10.00 378.94 2773.98
   15:44:03.459.28-Apr-2021 3537.51 6082.34 74.14 10.00 379.14 2773.98
   15:44:03.659.28-Apr-2021 3537.51 6082.34 74.14 10.00 379.34 2773.98
   15:44:03.859.28-Apr-2021 3537.51 6081.50 74.14 10.00 379.54 2773.98
   15:44:04.059.28-Apr-2021 3537.51 6072.05 74.14 10.00 379.74 2773.98
   15:44:04.259.28-Apr-2021 3537.51 6083.41 74.14 10.00 379.95 2773.98
   15:44:04.459.28-Apr-2021 3537.51 6083.18 74.14 10.00 380.15 2773.98
   15:44:04.659.28-Apr-2021 3537.51 6083.18 74.14 10.00 380.35 2773.98
   15:44:04.859.28-Apr-2021 3537.51 6080.86 74.14 10.00 380.55 2773.98
   15:44:05.059.28-Apr-2021 3537.51 6078.55 74.14 10.00 380.75 2773.98
   15:44:05.260.28-Apr-2021 3537.51 6074.46 74.14 10.00 380.95 2773.98
   15:44:05.460.28-Apr-2021 3537.51 6083.14 74.14 10.00 381.15 2773.98
   15:44:05.660.28-Apr-2021 3537.51 6083.14 74.14 10.00 381.35 2773.98
   15:44:05.860.28-Apr-2021 3537.51 6081.52 74.14 10.00 381.55 2773.98
   15:44:06.060.28-Apr-2021 3537.51 6079.21 74.14 10.00 381.75 2773.98
   15:44:06.260.28-Apr-2021 3537.51 6070.99 74.13 10.00 381.95 2773.98
   15:44:06.460.28-Apr-2021 3537.51 6085.59 74.13 10.00 382.15 2773.98
   15:44:06.660.28-Apr-2021 3537.51 6085.59 74.13 10.00 382.35 2773.98
   15:44:06.860.28-Apr-2021 3537.51 6082.47 74.13 10.00 382.55 2773.98
   15:44:07.060.28-Apr-2021 3537.51 6075.96 74.13 10.00 382.75 2773.98
   15:44:07.260.28-Apr-2021 3537.51 6072.38 74.13 10.00 382.95 2773.98
   15:44:07.460.28-Apr-2021 3537.51 6083.41 74.13 10.00 383.15 2773.98
   15:44:07.660.28-Apr-2021 3537.51 6083.41 74.13 10.00 383.35 2773.98
   15:44:07.861.28-Apr-2021 3537.51 6083.81 74.13 10.00 383.55 2773.98
   15:44:08.061.28-Apr-2021 3537.51 6074.64 74.13 10.00 383.75 2773.98
   15:44:08.261.28-Apr-2021 3537.51 6081.63 74.13 10.00 383.95 2773.98
   15:44:08.461.28-Apr-2021 3537.51 6083.54 74.13 10.00 384.15 2773.98
