~Version Information
 VERS.                  2.0:   CWLS log ASCII Standard -VERSION 2.0
 WRAP.                   NO:   One line per depth step
~Well Information Block
#MNEM.UNIT     VALUE/NAME     DESCRIPTION
#---------     -----------    ---------------------------
 STRT.S             02:50:28 27-Apr-21: START TIME 02:50:28 27-Apr-21
 STOP.S             02:56:55 27-Apr-21: STOP TIME  02:56:55 27-Apr-21
 STEP.S                   0.00: STEP TIME
 NULL.                 -999.25: NULL VALUE
 DFWT.                        :  DIST FWL TEXT
 DFST.                        :  DIST FSL TEXT
 DMF .             Drill Floor:  DRILL MEAS FROM
 STIM.      02.00.00 12-Apr-21:  START TIME
 DATE.      02.00.00 02-May-21:  END TIME
 SPUD.               09-Apr-21:  SPUD DATE
 NREF.                    Grid:  NORTH REFERENCE
 HPTY.       Minimum Curvature:  HOLE POS TYPE
 DMOD.             Drill Model:  DRILL MOD DESC
 SVYD.                  Survey:  SURVEY DESC
 ILTD.               Lithology:  INTERP LTH DESC
 FTOP.          Formation Tops:  FORM TOPS DESC
 PDAT.          Mean Sea Level:  PERMANENT DATUM
 FLD .                     ACG:  FIELD NAME
 SON .        AZ-XX-0907021034:  JOB NUMBER
 CTRY.              Azerbaijan:  COUNTRY NAME
 WELL.                    E01x:  WELL NAME
 COMP.     BP Exploration (Caspian Sea) LTD.:  COMPANY
 UWI .            /AZE00001403:  UNIQUE WELL IDENTIFIER
 API .            /AZE00001403:  API NUMBER
 WTYP.                Deviated:  WELL TYPE
 MDS .        Operator Entered:  MAG DATA SOURCE
 BASE.              Azerbaijan:  LOGGING EQUIPMENT BASE LOCATION
 REGN.                   EESSA:  REGION
 PROV.                    Baku:  PROVINCE
 STAT.                    Baku:  STATE NAME
 SRVC.          Turan Drilling:  CONTRACTOR
 MWDS.                    Baku:  MWD SHOP
 JOBN.        AZ-XX-0907021034:  JOB TICKET NUMB
 RIG .                     DWG:  RIG NAME
 DOE .                     N/A:  DOE NUMBER
 DCON.         Sperry Drilling:  DIRECTNL CONTR
 UNIT.                     N/A:  LOGGING EQUIPMENT ID
 CNTY.                        :  COUNTY
 LOC .                        :  LOCATION
 LMF .             Drill Floor:  LOG MEASURED FROM
 TVDS.m                  43.16:  TVDSS CORRECTN
 LATI.deg                40.17:  LATITUDE
 LONG.deg                51.17:  LONGITUDE
 WHNS.m                  -5.90:  WELL HEAD N/S
 WHEW.m                  -6.61:  WELL HEAD E/W
 UTMX.m              514337.95:  UTM X
 UTMY.m             4448627.46:  UTM Y
 DFWL.m                   0.00:  DISTANCE FWL
 DFSL.m                   0.00:  DISTANCE FSL
 SDEP.m                2606.87:  START DEPTH
 TDD .m                3618.01:  TOTAL DEPTH (DRILLER)
 VSDR.deg               177.42:  VERT SEC DIRECT
 GVFD.g                   1.00:  GRAVITY FIELD
 MFLD.nT              50399.00:  MAGNETIC FIELD
 MDIP.deg                59.67:  MAGNETIC DIP
 MDEC.deg                 6.56:  MAGNETIC DECL
 GRDC.deg                 0.11:  GRID CORRECTION
 AZTC.deg                 6.45:  AZM TOTAL CORR
 EPD .m                   0.00:  ELEVATION
 EGL .m                   0.00:  GROUND ELEVATION
 WDMS.m                 176.20:  WD ELEV
 APD .m                  43.16:  DEPTH ABOVE PD
 DEP .m                2606.87:  DEPTH
 AGAP.m                  43.16:  AIR GAP
 VSEW.m                  -6.61:  VERT SEC E/W
 VSNS.m                  -5.90:  VERT SEC N/S
 EKB .m                  43.16:  KB ELEVATION
 EDF .m                  43.16:  DF ELEVATION
 TDL .m                 438.00:  TOTAL DEPTH (LOGGER)
 VSC .                       0:  VS TO CLOSURE
 MAGU.                 1855490:  MAGUTM CHECKSUM
~Parameter Information Block
#MNEM.UNIT       Value        Description
#---------     -----------    ---------------------------
 AV  .mps                 2.20:  Ann Velocity 
 AVMX.mps                 2.50:  Max Ann Veloc 
 AZIF.deg               150.21:  Azm, Final 
 BHAT.        Rotary Steerable:  BHA Type 
 BROT.°/30m               0.08:  Build Rotating 
 BS  .in                  6.50:  Bit Size 
 BSZ .in                  6.50:  Bit Size 
 BTPL.psig              108.00:  Bit Press Loss 
 CABU.                     Yes:  Customer Abuse 
 CGEO.           Emin Aliyarli:  Customer Geo 
 COMM.                     äº~:  Run Comments 1 
 TCS .hr                 74.20:  Time Ciculation Ended 
 CV  .mps                 3.63:  Crit Velocity 
 CVMX.mps                 3.66:  Max Crit Veloc 
 DD1 .         Intigam Rahimov:  Direct Drillr 1 
 DD2 .          Teymur Aghayev:  Direct Drillr 2 
 DDSV.               Geo-Pilot:  DD Service 
 DEFF.%                  97.00:  % Det Eff 
 DLRX.°/30m               1.63:  Dogleg Rot Max 
 DLSO.°/30m               0.00:  Dogleg Oriented 
 DLSX.°/30m               0.00:  Dogleg Str Max 
 DRET.      20.20.00 28-Apr-21:  Drill End Time 
 DRST.      04.45.00 26-Apr-21:  Drill Start Tim 
 DTIM.hr                 34.30:  Time Drilling 
 EDEP.m                3618.01:  End Depth 
 ENG1.           Amrah Tahirov:  Engineer 1 
 ENG2.         Bahruz Mehdiyev:  Engineer 2 
 ENG3.         Farhad Orujzade:  Engineer 3 
 ETIM.      19.00.00 29-Apr-21:  End Time 
 FLOI.gpm               370.00:  Flow In 
 FLON.gpm               300.00:  Flow In Min 
 FLOS.cptm                0.00:  Fluid Loss 
 FLOX.gpm               410.00:  Flow In Max 
 HFLO.                      No:  High Flow 
 HPRE.                      No:  High Pressure 
 HTEM.                      No:  High Temp 
 HYDO.m                   1.80:  Hydro Offset 
 IFIN.deg                67.19:  Inc, Final 
 IMAX.deg                68.42:  Inc Max 
 IMIN.deg                66.33:  Inc Min 
 IMND.m                3532.79:  Inc Min Depth 
 IMXD.m                3192.15:  Inc Max Depth 
 JARR.                      No:  Jarring 
 LETM.      20.20.00 28-Apr-21:  Log End Time 
 LOST.hr                     0:  Lost Rig Time 
 LSTM.      04.45.00 26-Apr-21:  Log Start Time 
 MDCL.ppm             36500.00:  Mud Chlorides 
 MDES.     Inversion Oil/Synthetic:  Mud Desc 
 DFD .sg                  1.42:  Mud Density 
 MDMN.sg                  1.42:  Dens Mud Min 
 MDMX.sg                  1.42:  Dens Mud Max 
 MOIL.                    55.7:  Run Mud Oil % 
 MOWR.                   71:29:  Run Mud OWR 
 MSND.                     0.1:  Run Mud Sand % 
 MSOL.                    19.9:  Run Mud Solids% 
 DFV .spqt               83.00:  Mud Viscosity 
 MWOD.in                  5.15:  MWD Tool OD 
 MWSI.                      No:  Serv Intrp, MWD 
 OTIM.hr                120.59:  Time Operating 
 PCON.           Look Like New:  Pad Condition 
 PMAX.psia            11292.93:  Press Op, Max 
 PV  .cP                 27.00:  Mud PV 
 RUN .                     400:  Run Number 
 ROPA.m/hr               14.00:  ROP Avg 
 ROPN.m/hr                9.00:  ROP Min 
 ROPX.m/hr               18.00:  ROP Max 
 RPMA.rpm               130.00:  RPM Surface Avg 
 RPMN.rpm               100.00:  RPM Surface Min 
 RPMX.rpm               140.00:  RPM Surface Max 
 RRUN.                    0400:  Rig Run Number 
 RTIM.hr                 38.60:  Time Reaming 
 SAZI.deg               149.55:  Azm, Start 
 SDEP.m                3180.01:  Start Depth 
 SIDD.                      No:  Serv Intrp, DD 
 SINC.deg                68.42:  Inc, Start 
 SPPA.psig             4400.00:  SPP Avg 
 SPPN.psig             3580.00:  SPP Min 
 SPPX.psig             4850.00:  SPP Max 
 STIM.      12.30.00 24-Apr-21:  Start Time 
 SVCS.                 DD, MWD:  Services 
 SVER.                    9.20:  Sperry Version 
 TDAT.m                 438.00:  Tot Depth Attmp 
 TDDF.                      No:  Trip for DD 
 TDLG.m                 438.00:  Tot Depth Loggd 
 TFF .                      No:  Trip for Fail 
 TQAA.f-kp               11.00:  Torque Abs Avg 
 TQAN.f-kp                9.00:  Torque Abs Min 
 TQAX.f-kp               14.00:  Torque Abs Max 
 TRRT.°/30m               0.04:  Turn Rotating 
 MRT .                    HCIM:  Maximum Recorded Temperature 
 TTMX.degC               84.31:  Max Tool Temp 
 VS01.                90521954:  Virtual Str1 SN 
 VS02.                90519327:  Virtual Str2 SN 
 VS03.                90522273:  Virtual Str3 SN 
 VS04.                11108038:  Virtual Str4 SN 
 VS05.                12258760:  Virtual Str5 SN 
 WBMN.klb                 1.00:  WOB Min 
 WITN.           Adil Mammadov:  Customer Rep 
 WITN.         Alex Yadullayev:  Customer Rep 2 
 WOBA.klb                 6.00:  WOB Avg 
 WOBX.klb                 9.00:  WOB Max 
 YP  .lhf2               31.00:  Yield Point 
~Curve Information Block
#MNEM.UNIT                 API CODE     Curve Description
#---------               -----------    ---------------------------
 TIME.HHMMSS            00 000 000 000:  GT Time & Date
 GTDEPTH.m              00 000 000 000:  GT Depth
 GTPQH.psia             00 000 000 000:  GT HR Quartz Pressure
 GTTQ.degC              00 000 000 000:  GT Quartz Temperature
 GTTN.NONE              00 000 000 000:  GT Test Number
 GTET.sec               00 000 000 000:  GT Elapsed Test Time
 GTTVD.m                00 000 000 000:  GT True Vertical Depth
#Other Information
#
#WARRANTY: Halliburton will use its best efforts to furnish customers with 
#accurate information and interpretations that are part of, and incident to, the services 
#provided.  However, Halliburton cannot and does not warrant the accuracy 
#or correctness of such information and interpretations.  Under no circumstances should any 
#such information or interpretation be relied upon as the sole basis for any drilling, 
#completion, production, or financial decision or any procedure involving any risk to the 
#safety of any drilling venture, drilling rig or its crew or any other third party.  The 
#Customer has full responsibility for all drilling, completion and production operation.  
#Halliburton makes no representations or warranties, either expressed or 
#implied, including, but not limited to, the implied warranties of merchantability or fitness 
#for a particular purpose, with respect to the services rendered.  In no event will 
#Halliburton be liable for failure to obtain any particular results or for 
#any damages, including, but not limited to, indirect, special or consequential damages, 
#resulting from the use of any information or interpretation provided by Halliburton.
#
~A           TIME           GTDEPTH  GTPQH  GTTQ  GTTN  GTET   GTTVD  
# ...
   02:52:23.278.27-Apr-2021 3242.51 4319.47 72.52 3.00 115.02 2657.85
   02:52:23.478.27-Apr-2021 3242.51 4319.47 72.52 3.00 115.22 2657.85
   02:52:23.678.27-Apr-2021 3242.51 4319.47 72.52 3.00 115.42 2657.85
   02:52:23.878.27-Apr-2021 3242.51 4319.11 72.52 3.00 115.62 2657.85
   02:52:24.078.27-Apr-2021 3242.51 4319.49 72.52 3.00 115.82 2657.85
   02:52:24.278.27-Apr-2021 3242.51 4319.60 72.52 3.00 116.02 2657.85
   02:52:24.478.27-Apr-2021 3242.51 4319.60 72.52 3.00 116.22 2657.85
   02:52:24.678.27-Apr-2021 3242.51 4319.59 72.52 3.00 116.42 2657.85
   02:52:24.878.27-Apr-2021 3242.51 4319.52 72.52 3.00 116.62 2657.85
   02:52:25.078.27-Apr-2021 3242.51 4319.53 72.52 3.00 116.82 2657.85
   02:52:25.278.27-Apr-2021 3242.51 4319.56 72.52 3.00 117.02 2657.85
   02:52:25.478.27-Apr-2021 3242.51 4319.56 72.52 3.00 117.22 2657.85
   02:52:25.679.27-Apr-2021 3242.51 4319.50 72.52 3.00 117.42 2657.85
   02:52:25.879.27-Apr-2021 3242.51 4319.50 72.52 3.00 117.62 2657.85
   02:52:26.079.27-Apr-2021 3242.51 4319.45 72.52 3.00 117.82 2657.85
   02:52:26.279.27-Apr-2021 3242.51 4319.50 72.52 3.00 118.02 2657.85
   02:52:26.479.27-Apr-2021 3242.51 4319.50 72.52 3.00 118.22 2657.85
   02:52:26.679.27-Apr-2021 3242.51 4319.21 72.52 3.00 118.42 2657.85
   02:52:26.879.27-Apr-2021 3242.51 4319.40 72.51 3.00 118.62 2657.85
   02:52:27.079.27-Apr-2021 3242.51 4319.59 72.51 3.00 118.82 2657.85
   02:52:27.279.27-Apr-2021 3242.51 4319.56 72.51 3.00 119.02 2657.85
   02:52:27.479.27-Apr-2021 3242.51 4319.56 72.51 3.00 119.22 2657.85
   02:52:27.679.27-Apr-2021 3242.51 4319.44 72.51 3.00 119.42 2657.85
   02:52:27.879.27-Apr-2021 3242.51 4319.35 72.51 3.00 119.62 2657.85
   02:52:28.079.27-Apr-2021 3242.51 4319.61 72.51 3.00 119.82 2657.85
   02:52:28.279.27-Apr-2021 3242.51 4319.61 72.51 3.00 120.02 2657.85
   02:52:28.479.27-Apr-2021 3242.51 4319.61 72.51 3.00 120.22 2657.85
   02:52:28.679.27-Apr-2021 3242.51 4319.53 72.51 3.00 120.42 2657.85
   02:52:28.879.27-Apr-2021 3242.51 4319.49 72.51 3.00 120.62 2657.85
   02:52:29.079.27-Apr-2021 3242.51 4319.04 72.51 3.00 120.82 2657.85
   02:52:29.279.27-Apr-2021 3242.51 4319.62 72.51 3.00 121.02 2657.85
   02:52:29.479.27-Apr-2021 3242.51 4319.62 72.51 3.00 121.22 2657.85
   02:52:29.679.27-Apr-2021 3242.51 4319.53 72.51 3.00 121.42 2657.85
   02:52:29.879.27-Apr-2021 3242.51 4319.50 72.51 3.00 121.62 2657.85
   02:52:30.079.27-Apr-2021 3242.51 4319.40 72.51 3.00 121.82 2657.85
   02:52:30.279.27-Apr-2021 3242.51 4319.33 72.51 3.00 122.02 2657.85
   02:52:30.479.27-Apr-2021 3242.51 4319.33 72.51 3.00 122.22 2657.85
   02:52:30.680.27-Apr-2021 3242.51 4319.61 72.51 3.00 122.42 2657.85
   02:52:30.880.27-Apr-2021 3242.51 4319.62 72.51 3.00 122.62 2657.85
   02:52:31.080.27-Apr-2021 3242.51 4319.55 72.50 3.00 122.82 2657.85
   02:52:31.280.27-Apr-2021 3242.51 4319.49 72.50 3.00 123.02 2657.85
   02:52:31.480.27-Apr-2021 3242.51 4319.49 72.50 3.00 123.22 2657.85
   02:52:31.680.27-Apr-2021 3242.51 4319.56 72.50 3.00 123.42 2657.85
   02:52:31.880.27-Apr-2021 3242.51 4319.53 72.50 3.00 123.62 2657.85
   02:52:32.080.27-Apr-2021 3242.51 4319.49 72.50 3.00 123.82 2657.85
   02:52:32.280.27-Apr-2021 3242.51 4319.48 72.50 3.00 124.02 2657.85
   02:52:32.480.27-Apr-2021 3242.51 4319.48 72.50 3.00 124.22 2657.85
   02:52:32.680.27-Apr-2021 3242.51 4319.39 72.50 3.00 124.42 2657.85
   02:52:32.880.27-Apr-2021 3242.51 4319.30 72.50 3.00 124.62 2657.85
   02:52:33.080.27-Apr-2021 3242.51 4319.48 72.50 3.00 124.82 2657.85
   02:52:33.280.27-Apr-2021 3242.51 4319.55 72.50 3.00 125.02 2657.85
   02:52:33.480.27-Apr-2021 3242.51 4319.55 72.50 3.00 125.22 2657.85
   02:52:33.680.27-Apr-2021 3242.51 4319.59 72.50 3.00 125.42 2657.85
   02:52:33.880.27-Apr-2021 3242.51 4319.57 72.50 3.00 125.62 2657.85
   02:52:34.080.27-Apr-2021 3242.51 4319.51 72.50 3.00 125.82 2657.85
   02:52:34.280.27-Apr-2021 3242.51 4319.60 72.50 3.00 126.02 2657.85
   02:52:34.480.27-Apr-2021 3242.51 4319.60 72.50 3.00 126.23 2657.85
   02:52:34.680.27-Apr-2021 3242.51 4319.57 72.50 3.00 126.43 2657.85
   02:52:34.880.27-Apr-2021 3242.51 4319.53 72.50 3.00 126.63 2657.85
   02:52:35.080.27-Apr-2021 3242.51 4319.51 72.50 3.00 126.83 2657.85
   02:52:35.280.27-Apr-2021 3242.51 4319.52 72.49 3.00 127.03 2657.85
   02:52:35.480.27-Apr-2021 3242.51 4319.52 72.49 3.00 127.23 2657.85
   02:52:35.680.27-Apr-2021 3242.51 4319.29 72.49 3.00 127.43 2657.85
   02:52:35.881.27-Apr-2021 3242.51 4319.53 72.49 3.00 127.63 2657.85
   02:52:36.081.27-Apr-2021 3242.51 4319.55 72.49 3.00 127.83 2657.85
   02:52:36.281.27-Apr-2021 3242.51 4319.57 72.49 3.00 128.03 2657.85
   02:52:36.481.27-Apr-2021 3242.51 4319.57 72.49 3.00 128.23 2657.85
   02:52:36.681.27-Apr-2021 3242.51 4319.14 72.49 3.00 128.43 2657.85
   02:52:36.881.27-Apr-2021 3242.51 4319.55 72.49 3.00 128.63 2657.85
   02:52:37.081.27-Apr-2021 3242.51 4319.71 72.49 3.00 128.83 2657.85
   02:52:37.281.27-Apr-2021 3242.51 4319.63 72.49 3.00 129.03 2657.85
   02:52:37.481.27-Apr-2021 3242.51 4319.63 72.49 3.00 129.23 2657.85
   02:52:37.681.27-Apr-2021 3242.51 4319.55 72.49 3.00 129.43 2657.85
   02:52:37.881.27-Apr-2021 3242.51 4319.45 72.49 3.00 129.63 2657.85
   02:52:38.081.27-Apr-2021 3242.51 4319.33 72.49 3.00 129.83 2657.85
   02:52:38.281.27-Apr-2021 3242.51 4319.47 72.49 3.00 130.03 2657.85
   02:52:38.481.27-Apr-2021 3242.51 4319.47 72.49 3.00 130.23 2657.85
   02:52:38.681.27-Apr-2021 3242.51 4264.38 72.49 3.00 130.43 2657.85
   02:52:38.881.27-Apr-2021 3242.51 4260.64 72.49 3.00 130.63 2657.85
   02:52:39.081.27-Apr-2021 3242.51 4258.21 72.49 3.00 130.83 2657.85
   02:52:39.281.27-Apr-2021 3242.51 4258.52 72.49 3.00 131.03 2657.85
   02:52:39.481.27-Apr-2021 3242.51 4258.52 72.49 3.00 131.23 2657.85
   02:52:39.681.27-Apr-2021 3242.51 4257.69 72.48 3.00 131.43 2657.85
   02:52:39.881.27-Apr-2021 3242.51 4257.24 72.48 3.00 131.63 2657.85
   02:52:40.081.27-Apr-2021 3242.51 4257.16 72.48 3.00 131.83 2657.85
   02:52:40.281.27-Apr-2021 3242.51 4256.63 72.48 3.00 132.03 2657.85
   02:52:40.481.27-Apr-2021 3242.51 4256.63 72.48 3.00 132.23 2657.85
   02:52:40.681.27-Apr-2021 3242.51 4256.09 72.48 3.00 132.43 2657.85
   02:52:40.882.27-Apr-2021 3242.51 4255.90 72.48 3.00 132.63 2657.85
   02:52:41.082.27-Apr-2021 3242.51 4255.87 72.48 3.00 132.83 2657.85
   02:52:41.282.27-Apr-2021 3242.51 4255.80 72.48 3.00 133.03 2657.85
   02:52:41.482.27-Apr-2021 3242.51 4255.80 72.48 3.00 133.23 2657.85
   02:52:41.682.27-Apr-2021 3242.51 4254.55 72.48 3.00 133.43 2657.85
   02:52:41.882.27-Apr-2021 3242.51 4255.12 72.48 3.00 133.63 2657.85
   02:52:42.082.27-Apr-2021 3242.51 4255.25 72.48 3.00 133.83 2657.85
   02:52:42.282.27-Apr-2021 3242.51 4255.12 72.48 3.00 134.03 2657.85
   02:52:42.482.27-Apr-2021 3242.51 4255.12 72.48 3.00 134.23 2657.85
   02:52:42.682.27-Apr-2021 3242.51 4254.27 72.48 3.00 134.43 2657.85
   02:52:42.882.27-Apr-2021 3242.51 4254.10 72.48 3.00 134.63 2657.85
   02:52:43.082.27-Apr-2021 3242.51 4254.07 72.48 3.00 134.83 2657.85
   02:52:43.282.27-Apr-2021 3242.51 4254.50 72.48 3.00 135.03 2657.85
   02:52:43.482.27-Apr-2021 3242.51 4254.50 72.48 3.00 135.23 2657.85
   02:52:43.682.27-Apr-2021 3242.51 4254.46 72.48 3.00 135.43 2657.85
   02:52:43.882.27-Apr-2021 3242.51 4254.20 72.47 3.00 135.63 2657.85
   02:52:44.082.27-Apr-2021 3242.51 4254.00 72.47 3.00 135.83 2657.85
   02:52:44.282.27-Apr-2021 3242.51 4253.67 72.47 3.00 136.03 2657.85
   02:52:44.482.27-Apr-2021 3242.51 4253.67 72.47 3.00 136.23 2657.85
   02:52:44.682.27-Apr-2021 3242.51 4254.07 72.47 3.00 136.43 2657.85
   02:52:44.882.27-Apr-2021 3242.51 4254.10 72.47 3.00 136.63 2657.85
   02:52:45.082.27-Apr-2021 3242.51 4253.67 72.47 3.00 136.83 2657.85
   02:52:45.282.27-Apr-2021 3242.51 4253.50 72.47 3.00 137.03 2657.85
   02:52:45.482.27-Apr-2021 3242.51 4253.50 72.47 3.00 137.23 2657.85
   02:52:45.682.27-Apr-2021 3242.51 4252.03 72.47 3.00 137.43 2657.85
   02:52:45.883.27-Apr-2021 3242.51 4253.97 72.47 3.00 137.63 2657.85
   02:52:46.083.27-Apr-2021 3242.51 4253.90 72.47 3.00 137.83 2657.85
