~Version Information
 VERS.                  2.0:   CWLS log ASCII Standard -VERSION 2.0
 WRAP.                   NO:   One line per depth step
~Well Information Block
#MNEM.UNIT     VALUE/NAME     DESCRIPTION
#---------     -----------    ---------------------------
 STRT.S             15:37:44 28-Apr-21: START TIME 15:37:44 28-Apr-21
 STOP.S             15:44:12 28-Apr-21: STOP TIME  15:44:12 28-Apr-21
 STEP.S                   0.00: STEP TIME
 NULL.                 -999.25: NULL VALUE
 DFWT.                        :  DIST FWL TEXT
 DFST.                        :  DIST FSL TEXT
 DMF .             Drill Floor:  DRILL MEAS FROM
 STIM.      02.00.00 12-Apr-21:  START TIME
 DATE.      02.00.00 02-May-21:  END TIME
 SPUD.               09-Apr-21:  SPUD DATE
 NREF.                    Grid:  NORTH REFERENCE
 HPTY.       Minimum Curvature:  HOLE POS TYPE
 DMOD.             Drill Model:  DRILL MOD DESC
 SVYD.                  Survey:  SURVEY DESC
 ILTD.               Lithology:  INTERP LTH DESC
 FTOP.          Formation Tops:  FORM TOPS DESC
 PDAT.          Mean Sea Level:  PERMANENT DATUM
 FLD .                     ACG:  FIELD NAME
 SON .        AZ-XX-0907021034:  JOB NUMBER
 CTRY.              Azerbaijan:  COUNTRY NAME
 WELL.                    E01x:  WELL NAME
 COMP.     BP Exploration (Caspian Sea) LTD.:  COMPANY
 UWI .            /AZE00001403:  UNIQUE WELL IDENTIFIER
 API .            /AZE00001403:  API NUMBER
 WTYP.                Deviated:  WELL TYPE
 MDS .        Operator Entered:  MAG DATA SOURCE
 BASE.              Azerbaijan:  LOGGING EQUIPMENT BASE LOCATION
 REGN.                   EESSA:  REGION
 PROV.                    Baku:  PROVINCE
 STAT.                    Baku:  STATE NAME
 SRVC.          Turan Drilling:  CONTRACTOR
 MWDS.                    Baku:  MWD SHOP
 JOBN.        AZ-XX-0907021034:  JOB TICKET NUMB
 RIG .                     DWG:  RIG NAME
 DOE .                     N/A:  DOE NUMBER
 DCON.         Sperry Drilling:  DIRECTNL CONTR
 UNIT.                     N/A:  LOGGING EQUIPMENT ID
 CNTY.                        :  COUNTY
 LOC .                        :  LOCATION
 LMF .             Drill Floor:  LOG MEASURED FROM
 TVDS.m                  43.16:  TVDSS CORRECTN
 LATI.deg                40.17:  LATITUDE
 LONG.deg                51.17:  LONGITUDE
 WHNS.m                  -5.90:  WELL HEAD N/S
 WHEW.m                  -6.61:  WELL HEAD E/W
 UTMX.m              514337.95:  UTM X
 UTMY.m             4448627.46:  UTM Y
 DFWL.m                   0.00:  DISTANCE FWL
 DFSL.m                   0.00:  DISTANCE FSL
 SDEP.m                2606.87:  START DEPTH
 TDD .m                3618.01:  TOTAL DEPTH (DRILLER)
 VSDR.deg               177.42:  VERT SEC DIRECT
 GVFD.g                   1.00:  GRAVITY FIELD
 MFLD.nT              50399.00:  MAGNETIC FIELD
 MDIP.deg                59.67:  MAGNETIC DIP
 MDEC.deg                 6.56:  MAGNETIC DECL
 GRDC.deg                 0.11:  GRID CORRECTION
 AZTC.deg                 6.45:  AZM TOTAL CORR
 EPD .m                   0.00:  ELEVATION
 EGL .m                   0.00:  GROUND ELEVATION
 WDMS.m                 176.20:  WD ELEV
 APD .m                  43.16:  DEPTH ABOVE PD
 DEP .m                2606.87:  DEPTH
 AGAP.m                  43.16:  AIR GAP
 VSEW.m                  -6.61:  VERT SEC E/W
 VSNS.m                  -5.90:  VERT SEC N/S
 EKB .m                  43.16:  KB ELEVATION
 EDF .m                  43.16:  DF ELEVATION
 TDL .m                 438.00:  TOTAL DEPTH (LOGGER)
 VSC .                       0:  VS TO CLOSURE
 MAGU.                 1855490:  MAGUTM CHECKSUM
~Parameter Information Block
#MNEM.UNIT       Value        Description
#---------     -----------    ---------------------------
 AV  .mps                 2.20:  Ann Velocity 
 AVMX.mps                 2.50:  Max Ann Veloc 
 AZIF.deg               150.21:  Azm, Final 
 BHAT.        Rotary Steerable:  BHA Type 
 BROT.°/30m               0.08:  Build Rotating 
 BS  .in                  6.50:  Bit Size 
 BSZ .in                  6.50:  Bit Size 
 BTPL.psig              108.00:  Bit Press Loss 
 CABU.                     Yes:  Customer Abuse 
 CGEO.           Emin Aliyarli:  Customer Geo 
 COMM.                     ôŸZ:  Run Comments 1 
 TCS .hr                 74.20:  Time Ciculation Ended 
 CV  .mps                 3.63:  Crit Velocity 
 CVMX.mps                 3.66:  Max Crit Veloc 
 DD1 .         Intigam Rahimov:  Direct Drillr 1 
 DD2 .          Teymur Aghayev:  Direct Drillr 2 
 DDSV.               Geo-Pilot:  DD Service 
 DEFF.%                  97.00:  % Det Eff 
 DLRX.°/30m               1.63:  Dogleg Rot Max 
 DLSO.°/30m               0.00:  Dogleg Oriented 
 DLSX.°/30m               0.00:  Dogleg Str Max 
 DRET.      20.20.00 28-Apr-21:  Drill End Time 
 DRST.      04.45.00 26-Apr-21:  Drill Start Tim 
 DTIM.hr                 34.30:  Time Drilling 
 EDEP.m                3618.01:  End Depth 
 ENG1.           Amrah Tahirov:  Engineer 1 
 ENG2.         Bahruz Mehdiyev:  Engineer 2 
 ENG3.         Farhad Orujzade:  Engineer 3 
 ETIM.      19.00.00 29-Apr-21:  End Time 
 FLOI.gpm               370.00:  Flow In 
 FLON.gpm               300.00:  Flow In Min 
 FLOS.cptm                0.00:  Fluid Loss 
 FLOX.gpm               410.00:  Flow In Max 
 HFLO.                      No:  High Flow 
 HPRE.                      No:  High Pressure 
 HTEM.                      No:  High Temp 
 HYDO.m                   1.80:  Hydro Offset 
 IFIN.deg                67.19:  Inc, Final 
 IMAX.deg                68.42:  Inc Max 
 IMIN.deg                66.33:  Inc Min 
 IMND.m                3532.79:  Inc Min Depth 
 IMXD.m                3192.15:  Inc Max Depth 
 JARR.                      No:  Jarring 
 LETM.      20.20.00 28-Apr-21:  Log End Time 
 LOST.hr                     0:  Lost Rig Time 
 LSTM.      04.45.00 26-Apr-21:  Log Start Time 
 MDCL.ppm             36500.00:  Mud Chlorides 
 MDES.     Inversion Oil/Synthetic:  Mud Desc 
 DFD .sg                  1.42:  Mud Density 
 MDMN.sg                  1.42:  Dens Mud Min 
 MDMX.sg                  1.42:  Dens Mud Max 
 MOIL.                    55.7:  Run Mud Oil % 
 MOWR.                   71:29:  Run Mud OWR 
 MSND.                     0.1:  Run Mud Sand % 
 MSOL.                    19.9:  Run Mud Solids% 
 DFV .spqt               83.00:  Mud Viscosity 
 MWOD.in                  5.15:  MWD Tool OD 
 MWSI.                      No:  Serv Intrp, MWD 
 OTIM.hr                120.59:  Time Operating 
 PCON.           Look Like New:  Pad Condition 
 PMAX.psia            11292.93:  Press Op, Max 
 PV  .cP                 27.00:  Mud PV 
 RUN .                     400:  Run Number 
 ROPA.m/hr               14.00:  ROP Avg 
 ROPN.m/hr                9.00:  ROP Min 
 ROPX.m/hr               18.00:  ROP Max 
 RPMA.rpm               130.00:  RPM Surface Avg 
 RPMN.rpm               100.00:  RPM Surface Min 
 RPMX.rpm               140.00:  RPM Surface Max 
 RRUN.                    0400:  Rig Run Number 
 RTIM.hr                 38.60:  Time Reaming 
 SAZI.deg               149.55:  Azm, Start 
 SDEP.m                3180.01:  Start Depth 
 SIDD.                      No:  Serv Intrp, DD 
 SINC.deg                68.42:  Inc, Start 
 SPPA.psig             4400.00:  SPP Avg 
 SPPN.psig             3580.00:  SPP Min 
 SPPX.psig             4850.00:  SPP Max 
 STIM.      12.30.00 24-Apr-21:  Start Time 
 SVCS.                 DD, MWD:  Services 
 SVER.                    9.20:  Sperry Version 
 TDAT.m                 438.00:  Tot Depth Attmp 
 TDDF.                      No:  Trip for DD 
 TDLG.m                 438.00:  Tot Depth Loggd 
 TFF .                      No:  Trip for Fail 
 TQAA.f-kp               11.00:  Torque Abs Avg 
 TQAN.f-kp                9.00:  Torque Abs Min 
 TQAX.f-kp               14.00:  Torque Abs Max 
 TRRT.°/30m               0.04:  Turn Rotating 
 MRT .                    HCIM:  Maximum Recorded Temperature 
 TTMX.degC               84.31:  Max Tool Temp 
 VS01.                90521954:  Virtual Str1 SN 
 VS02.                90519327:  Virtual Str2 SN 
 VS03.                90522273:  Virtual Str3 SN 
 VS04.                11108038:  Virtual Str4 SN 
 VS05.                12258760:  Virtual Str5 SN 
 WBMN.klb                 1.00:  WOB Min 
 WITN.           Adil Mammadov:  Customer Rep 
 WITN.         Alex Yadullayev:  Customer Rep 2 
 WOBA.klb                 6.00:  WOB Avg 
 WOBX.klb                 9.00:  WOB Max 
 YP  .lhf2               31.00:  Yield Point 
~Curve Information Block
#MNEM.UNIT                 API CODE     Curve Description
#---------               -----------    ---------------------------
 TIME.HHMMSS            00 000 000 000:  GT Time & Date
 GTDEPTH.m              00 000 000 000:  GT Depth
 GTPQH.psia             00 000 000 000:  GT HR Quartz Pressure
 GTTQ.degC              00 000 000 000:  GT Quartz Temperature
 GTTN.NONE              00 000 000 000:  GT Test Number
 GTET.sec               00 000 000 000:  GT Elapsed Test Time
 GTTVD.m                00 000 000 000:  GT True Vertical Depth
#Other Information
#
#WARRANTY: Halliburton will use its best efforts to furnish customers with 
#accurate information and interpretations that are part of, and incident to, the services 
#provided.  However, Halliburton cannot and does not warrant the accuracy 
#or correctness of such information and interpretations.  Under no circumstances should any 
#such information or interpretation be relied upon as the sole basis for any drilling, 
#completion, production, or financial decision or any procedure involving any risk to the 
#safety of any drilling venture, drilling rig or its crew or any other third party.  The 
#Customer has full responsibility for all drilling, completion and production operation.  
#Halliburton makes no representations or warranties, either expressed or 
#implied, including, but not limited to, the implied warranties of merchantability or fitness 
#for a particular purpose, with respect to the services rendered.  In no event will 
#Halliburton be liable for failure to obtain any particular results or for 
#any damages, including, but not limited to, indirect, special or consequential damages, 
#resulting from the use of any information or interpretation provided by Halliburton.
#
~A           TIME           GTDEPTH  GTPQH  GTTQ  GTTN   GTET   GTTVD  
# ...
   15:43:00.835.28-Apr-2021 3537.51 4281.13 74.28 10.00 316.52 2773.98
   15:43:01.035.28-Apr-2021 3537.51 4281.07 74.28 10.00 316.72 2773.98
   15:43:01.235.28-Apr-2021 3537.51 4281.06 74.28 10.00 316.92 2773.98
   15:43:01.435.28-Apr-2021 3537.51 4281.01 74.28 10.00 317.12 2773.98
   15:43:01.635.28-Apr-2021 3537.51 4281.01 74.28 10.00 317.32 2773.98
   15:43:01.835.28-Apr-2021 3537.51 4281.04 74.28 10.00 317.52 2773.98
   15:43:02.035.28-Apr-2021 3537.51 4281.05 74.28 10.00 317.72 2773.98
   15:43:02.235.28-Apr-2021 3537.51 4281.04 74.28 10.00 317.92 2773.98
   15:43:02.436.28-Apr-2021 3537.51 4281.04 74.28 10.00 318.12 2773.98
   15:43:02.636.28-Apr-2021 3537.51 4281.04 74.28 10.00 318.32 2773.98
   15:43:02.836.28-Apr-2021 3537.51 4281.02 74.28 10.00 318.52 2773.98
   15:43:03.036.28-Apr-2021 3537.51 4281.05 74.27 10.00 318.72 2773.98
   15:43:03.236.28-Apr-2021 3537.51 4280.76 74.27 10.00 318.92 2773.98
   15:43:03.436.28-Apr-2021 3537.51 4281.22 74.27 10.00 319.12 2773.98
   15:43:03.636.28-Apr-2021 3537.51 4281.22 74.27 10.00 319.32 2773.98
   15:43:03.836.28-Apr-2021 3537.51 4281.04 74.27 10.00 319.52 2773.98
   15:43:04.036.28-Apr-2021 3537.51 4281.04 74.27 10.00 319.72 2773.98
   15:43:04.236.28-Apr-2021 3537.51 4281.04 74.27 10.00 319.92 2773.98
   15:43:04.436.28-Apr-2021 3537.51 4280.88 74.27 10.00 320.12 2773.98
   15:43:04.636.28-Apr-2021 3537.51 4280.88 74.27 10.00 320.32 2773.98
   15:43:04.836.28-Apr-2021 3537.51 4281.10 74.27 10.00 320.52 2773.98
   15:43:05.037.28-Apr-2021 3537.51 4281.04 74.27 10.00 320.72 2773.98
   15:43:05.237.28-Apr-2021 3537.51 4281.02 74.27 10.00 320.92 2773.98
   15:43:05.437.28-Apr-2021 3537.51 4280.96 74.27 10.00 321.12 2773.98
   15:43:05.637.28-Apr-2021 3537.51 4280.96 74.27 10.00 321.32 2773.98
   15:43:05.837.28-Apr-2021 3537.51 4281.13 74.27 10.00 321.52 2773.98
   15:43:06.037.28-Apr-2021 3537.51 4281.02 74.27 10.00 321.72 2773.98
   15:43:06.237.28-Apr-2021 3537.51 4281.03 74.27 10.00 321.92 2773.98
   15:43:06.437.28-Apr-2021 3537.51 4280.85 74.27 10.00 322.12 2773.98
   15:43:06.637.28-Apr-2021 3537.51 4280.85 74.27 10.00 322.32 2773.98
   15:43:06.837.28-Apr-2021 3537.51 4281.11 74.26 10.00 322.52 2773.98
   15:43:07.037.28-Apr-2021 3537.51 4281.04 74.26 10.00 322.72 2773.98
   15:43:07.237.28-Apr-2021 3537.51 4281.05 74.26 10.00 322.92 2773.98
   15:43:07.437.28-Apr-2021 3537.51 4281.03 74.26 10.00 323.12 2773.98
   15:43:07.638.28-Apr-2021 3537.51 4281.03 74.26 10.00 323.32 2773.98
   15:43:07.838.28-Apr-2021 3537.51 4281.07 74.26 10.00 323.52 2773.98
   15:43:08.038.28-Apr-2021 3537.51 4281.03 74.26 10.00 323.72 2773.98
   15:43:08.238.28-Apr-2021 3537.51 4281.05 74.26 10.00 323.92 2773.98
   15:43:08.438.28-Apr-2021 3537.51 4281.03 74.26 10.00 324.12 2773.98
   15:43:08.638.28-Apr-2021 3537.51 4281.03 74.26 10.00 324.32 2773.98
   15:43:08.838.28-Apr-2021 3537.51 4281.02 74.26 10.00 324.52 2773.98
   15:43:09.038.28-Apr-2021 3537.51 4280.86 74.26 10.00 324.72 2773.98
   15:43:09.238.28-Apr-2021 3537.51 4281.13 74.26 10.00 324.92 2773.98
   15:43:09.438.28-Apr-2021 3537.51 4281.06 74.26 10.00 325.12 2773.98
   15:43:09.638.28-Apr-2021 3537.51 4281.06 74.26 10.00 325.32 2773.98
   15:43:09.838.28-Apr-2021 3537.51 4281.05 74.26 10.00 325.52 2773.98
   15:43:10.038.28-Apr-2021 3537.51 4281.02 74.26 10.00 325.72 2773.98
   15:43:10.239.28-Apr-2021 3537.51 4281.04 74.26 10.00 325.92 2773.98
   15:43:10.439.28-Apr-2021 3537.51 4281.06 74.26 10.00 326.12 2773.98
   15:43:10.639.28-Apr-2021 3537.51 4281.06 74.26 10.00 326.32 2773.98
   15:43:10.839.28-Apr-2021 3537.51 4281.02 74.25 10.00 326.52 2773.98
   15:43:11.039.28-Apr-2021 3537.51 4281.05 74.25 10.00 326.72 2773.98
   15:43:11.239.28-Apr-2021 3537.51 4281.01 74.25 10.00 326.92 2773.98
   15:43:11.439.28-Apr-2021 3537.51 4281.06 74.25 10.00 327.12 2773.98
   15:43:11.639.28-Apr-2021 3537.51 4281.06 74.25 10.00 327.32 2773.98
   15:43:11.839.28-Apr-2021 3537.51 4280.81 74.25 10.00 327.53 2773.98
   15:43:12.039.28-Apr-2021 3537.51 4281.18 74.25 10.00 327.73 2773.98
   15:43:12.239.28-Apr-2021 3537.51 4281.08 74.25 10.00 327.93 2773.98
   15:43:12.439.28-Apr-2021 3537.51 4281.07 74.25 10.00 328.13 2773.98
   15:43:12.639.28-Apr-2021 3537.51 4281.07 74.25 10.00 328.33 2773.98
   15:43:12.840.28-Apr-2021 3537.51 4281.07 74.25 10.00 328.53 2773.98
   15:43:13.040.28-Apr-2021 3537.51 4280.94 74.25 10.00 328.73 2773.98
   15:43:13.240.28-Apr-2021 3537.51 4281.07 74.25 10.00 328.93 2773.98
   15:43:13.440.28-Apr-2021 3537.51 4281.06 74.25 10.00 329.13 2773.98
   15:43:13.640.28-Apr-2021 3537.51 4281.06 74.25 10.00 329.33 2773.98
   15:43:13.840.28-Apr-2021 3537.51 4281.06 74.25 10.00 329.53 2773.98
   15:43:14.040.28-Apr-2021 3537.51 4280.75 74.25 10.00 329.73 2773.98
   15:43:14.240.28-Apr-2021 3537.51 4281.25 74.25 10.00 329.93 2773.98
   15:43:14.440.28-Apr-2021 3537.51 4281.10 74.25 10.00 330.13 2773.98
   15:43:14.640.28-Apr-2021 3537.51 4281.10 74.25 10.00 330.33 2773.98
   15:43:14.840.28-Apr-2021 3537.51 4281.00 74.24 10.00 330.53 2773.98
   15:43:15.040.28-Apr-2021 3537.51 4280.93 74.24 10.00 330.73 2773.98
   15:43:15.240.28-Apr-2021 3537.51 4281.09 74.24 10.00 330.93 2773.98
   15:43:15.441.28-Apr-2021 3537.51 4281.06 74.24 10.00 331.13 2773.98
   15:43:15.641.28-Apr-2021 3537.51 4281.06 74.24 10.00 331.33 2773.98
   15:43:15.841.28-Apr-2021 3537.51 4281.01 74.24 10.00 331.53 2773.98
   15:43:16.041.28-Apr-2021 3537.51 4281.03 74.24 10.00 331.73 2773.98
   15:43:16.241.28-Apr-2021 3537.51 4281.07 74.24 10.00 331.93 2773.98
   15:43:16.441.28-Apr-2021 3537.51 4281.06 74.24 10.00 332.13 2773.98
   15:43:16.641.28-Apr-2021 3537.51 4281.06 74.24 10.00 332.33 2773.98
   15:43:16.841.28-Apr-2021 3537.51 4281.00 74.24 10.00 332.53 2773.98
   15:43:17.041.28-Apr-2021 3537.51 4281.06 74.24 10.00 332.73 2773.98
   15:43:17.241.28-Apr-2021 3537.51 4281.02 74.24 10.00 332.93 2773.98
   15:43:17.441.28-Apr-2021 3537.51 4281.05 74.24 10.00 333.13 2773.98
   15:43:17.641.28-Apr-2021 3537.51 4281.05 74.24 10.00 333.33 2773.98
   15:43:17.841.28-Apr-2021 3537.51 4280.96 74.24 10.00 333.53 2773.98
   15:43:18.042.28-Apr-2021 3537.51 4281.07 74.24 10.00 333.73 2773.98
   15:43:18.242.28-Apr-2021 3537.51 4281.07 74.24 10.00 333.93 2773.98
   15:43:18.442.28-Apr-2021 3537.51 4281.09 74.23 10.00 334.13 2773.98
   15:43:18.642.28-Apr-2021 3537.51 4281.09 74.23 10.00 334.33 2773.98
   15:43:18.842.28-Apr-2021 3537.51 4281.08 74.23 10.00 334.53 2773.98
   15:43:19.042.28-Apr-2021 3537.51 4281.03 74.23 10.00 334.73 2773.98
   15:43:19.242.28-Apr-2021 3537.51 4281.03 74.23 10.00 334.93 2773.98
   15:43:19.442.28-Apr-2021 3537.51 4281.04 74.23 10.00 335.13 2773.98
   15:43:19.642.28-Apr-2021 3537.51 4281.04 74.23 10.00 335.33 2773.98
   15:43:19.842.28-Apr-2021 3537.51 4281.06 74.23 10.00 335.53 2773.98
   15:43:20.042.28-Apr-2021 3537.51 4281.00 74.23 10.00 335.73 2773.98
   15:43:20.242.28-Apr-2021 3537.51 4281.04 74.23 10.00 335.93 2773.98
   15:43:20.442.28-Apr-2021 3537.51 4280.88 74.23 10.00 336.13 2773.98
   15:43:20.642.28-Apr-2021 3537.51 4280.88 74.23 10.00 336.33 2773.98
   15:43:20.843.28-Apr-2021 3537.51 4281.08 74.23 10.00 336.53 2773.98
   15:43:21.043.28-Apr-2021 3537.51 4281.06 74.23 10.00 336.73 2773.98
   15:43:21.243.28-Apr-2021 3537.51 4281.07 74.23 10.00 336.93 2773.98
   15:43:21.443.28-Apr-2021 3537.51 4280.96 74.23 10.00 337.13 2773.98
   15:43:21.643.28-Apr-2021 3537.51 4280.96 74.23 10.00 337.33 2773.98
   15:43:21.843.28-Apr-2021 3537.51 4280.87 74.23 10.00 337.53 2773.98
   15:43:22.043.28-Apr-2021 3537.51 4281.14 74.23 10.00 337.73 2773.98
   15:43:22.243.28-Apr-2021 3537.51 4281.09 74.23 10.00 337.93 2773.98
   15:43:22.443.28-Apr-2021 3537.51 4281.01 74.22 10.00 338.13 2773.98
   15:43:22.643.28-Apr-2021 3537.51 4281.01 74.22 10.00 338.33 2773.98
   15:43:22.843.28-Apr-2021 3537.51 4281.15 74.22 10.00 338.53 2773.98
   15:43:23.043.28-Apr-2021 3537.51 4281.11 74.22 10.00 338.73 2773.98
   15:43:23.243.28-Apr-2021 3537.51 4281.02 74.22 10.00 338.93 2773.98
