~Version Information
 VERS.                  2.0:   CWLS log ASCII Standard -VERSION 2.0
 WRAP.                   NO:   One line per depth step
~Well Information Block
#MNEM.UNIT     VALUE/NAME     DESCRIPTION
#---------     -----------    ---------------------------
 STRT.S             15:37:44 28-Apr-21: START TIME 15:37:44 28-Apr-21
 STOP.S             15:44:12 28-Apr-21: STOP TIME  15:44:12 28-Apr-21
 STEP.S                   0.00: STEP TIME
 NULL.                 -999.25: NULL VALUE
 DFWT.                        :  DIST FWL TEXT
 DFST.                        :  DIST FSL TEXT
 DMF .             Drill Floor:  DRILL MEAS FROM
 STIM.      02.00.00 12-Apr-21:  START TIME
 DATE.      02.00.00 02-May-21:  END TIME
 SPUD.               09-Apr-21:  SPUD DATE
 NREF.                    Grid:  NORTH REFERENCE
 HPTY.       Minimum Curvature:  HOLE POS TYPE
 DMOD.             Drill Model:  DRILL MOD DESC
 SVYD.                  Survey:  SURVEY DESC
 ILTD.               Lithology:  INTERP LTH DESC
 FTOP.          Formation Tops:  FORM TOPS DESC
 PDAT.          Mean Sea Level:  PERMANENT DATUM
 FLD .                     ACG:  FIELD NAME
 SON .        AZ-XX-0907021034:  JOB NUMBER
 CTRY.              Azerbaijan:  COUNTRY NAME
 WELL.                    E01x:  WELL NAME
 COMP.     BP Exploration (Caspian Sea) LTD.:  COMPANY
 UWI .            /AZE00001403:  UNIQUE WELL IDENTIFIER
 API .            /AZE00001403:  API NUMBER
 WTYP.                Deviated:  WELL TYPE
 MDS .        Operator Entered:  MAG DATA SOURCE
 BASE.              Azerbaijan:  LOGGING EQUIPMENT BASE LOCATION
 REGN.                   EESSA:  REGION
 PROV.                    Baku:  PROVINCE
 STAT.                    Baku:  STATE NAME
 SRVC.          Turan Drilling:  CONTRACTOR
 MWDS.                    Baku:  MWD SHOP
 JOBN.        AZ-XX-0907021034:  JOB TICKET NUMB
 RIG .                     DWG:  RIG NAME
 DOE .                     N/A:  DOE NUMBER
 DCON.         Sperry Drilling:  DIRECTNL CONTR
 UNIT.                     N/A:  LOGGING EQUIPMENT ID
 CNTY.                        :  COUNTY
 LOC .                        :  LOCATION
 LMF .             Drill Floor:  LOG MEASURED FROM
 TVDS.m                  43.16:  TVDSS CORRECTN
 LATI.deg                40.17:  LATITUDE
 LONG.deg                51.17:  LONGITUDE
 WHNS.m                  -5.90:  WELL HEAD N/S
 WHEW.m                  -6.61:  WELL HEAD E/W
 UTMX.m              514337.95:  UTM X
 UTMY.m             4448627.46:  UTM Y
 DFWL.m                   0.00:  DISTANCE FWL
 DFSL.m                   0.00:  DISTANCE FSL
 SDEP.m                2606.87:  START DEPTH
 TDD .m                3618.01:  TOTAL DEPTH (DRILLER)
 VSDR.deg               177.42:  VERT SEC DIRECT
 GVFD.g                   1.00:  GRAVITY FIELD
 MFLD.nT              50399.00:  MAGNETIC FIELD
 MDIP.deg                59.67:  MAGNETIC DIP
 MDEC.deg                 6.56:  MAGNETIC DECL
 GRDC.deg                 0.11:  GRID CORRECTION
 AZTC.deg                 6.45:  AZM TOTAL CORR
 EPD .m                   0.00:  ELEVATION
 EGL .m                   0.00:  GROUND ELEVATION
 WDMS.m                 176.20:  WD ELEV
 APD .m                  43.16:  DEPTH ABOVE PD
 DEP .m                2606.87:  DEPTH
 AGAP.m                  43.16:  AIR GAP
 VSEW.m                  -6.61:  VERT SEC E/W
 VSNS.m                  -5.90:  VERT SEC N/S
 EKB .m                  43.16:  KB ELEVATION
 EDF .m                  43.16:  DF ELEVATION
 TDL .m                 438.00:  TOTAL DEPTH (LOGGER)
 VSC .                       0:  VS TO CLOSURE
 MAGU.                 1855490:  MAGUTM CHECKSUM
~Parameter Information Block
#MNEM.UNIT       Value        Description
#---------     -----------    ---------------------------
 AV  .mps                 2.20:  Ann Velocity 
 AVMX.mps                 2.50:  Max Ann Veloc 
 AZIF.deg               150.21:  Azm, Final 
 BHAT.        Rotary Steerable:  BHA Type 
 BROT.°/30m               0.08:  Build Rotating 
 BS  .in                  6.50:  Bit Size 
 BSZ .in                  6.50:  Bit Size 
 BTPL.psig              108.00:  Bit Press Loss 
 CABU.                     Yes:  Customer Abuse 
 CGEO.           Emin Aliyarli:  Customer Geo 
 COMM.                     ôŸZ:  Run Comments 1 
 TCS .hr                 74.20:  Time Ciculation Ended 
 CV  .mps                 3.63:  Crit Velocity 
 CVMX.mps                 3.66:  Max Crit Veloc 
 DD1 .         Intigam Rahimov:  Direct Drillr 1 
 DD2 .          Teymur Aghayev:  Direct Drillr 2 
 DDSV.               Geo-Pilot:  DD Service 
 DEFF.%                  97.00:  % Det Eff 
 DLRX.°/30m               1.63:  Dogleg Rot Max 
 DLSO.°/30m               0.00:  Dogleg Oriented 
 DLSX.°/30m               0.00:  Dogleg Str Max 
 DRET.      20.20.00 28-Apr-21:  Drill End Time 
 DRST.      04.45.00 26-Apr-21:  Drill Start Tim 
 DTIM.hr                 34.30:  Time Drilling 
 EDEP.m                3618.01:  End Depth 
 ENG1.           Amrah Tahirov:  Engineer 1 
 ENG2.         Bahruz Mehdiyev:  Engineer 2 
 ENG3.         Farhad Orujzade:  Engineer 3 
 ETIM.      19.00.00 29-Apr-21:  End Time 
 FLOI.gpm               370.00:  Flow In 
 FLON.gpm               300.00:  Flow In Min 
 FLOS.cptm                0.00:  Fluid Loss 
 FLOX.gpm               410.00:  Flow In Max 
 HFLO.                      No:  High Flow 
 HPRE.                      No:  High Pressure 
 HTEM.                      No:  High Temp 
 HYDO.m                   1.80:  Hydro Offset 
 IFIN.deg                67.19:  Inc, Final 
 IMAX.deg                68.42:  Inc Max 
 IMIN.deg                66.33:  Inc Min 
 IMND.m                3532.79:  Inc Min Depth 
 IMXD.m                3192.15:  Inc Max Depth 
 JARR.                      No:  Jarring 
 LETM.      20.20.00 28-Apr-21:  Log End Time 
 LOST.hr                     0:  Lost Rig Time 
 LSTM.      04.45.00 26-Apr-21:  Log Start Time 
 MDCL.ppm             36500.00:  Mud Chlorides 
 MDES.     Inversion Oil/Synthetic:  Mud Desc 
 DFD .sg                  1.42:  Mud Density 
 MDMN.sg                  1.42:  Dens Mud Min 
 MDMX.sg                  1.42:  Dens Mud Max 
 MOIL.                    55.7:  Run Mud Oil % 
 MOWR.                   71:29:  Run Mud OWR 
 MSND.                     0.1:  Run Mud Sand % 
 MSOL.                    19.9:  Run Mud Solids% 
 DFV .spqt               83.00:  Mud Viscosity 
 MWOD.in                  5.15:  MWD Tool OD 
 MWSI.                      No:  Serv Intrp, MWD 
 OTIM.hr                120.59:  Time Operating 
 PCON.           Look Like New:  Pad Condition 
 PMAX.psia            11292.93:  Press Op, Max 
 PV  .cP                 27.00:  Mud PV 
 RUN .                     400:  Run Number 
 ROPA.m/hr               14.00:  ROP Avg 
 ROPN.m/hr                9.00:  ROP Min 
 ROPX.m/hr               18.00:  ROP Max 
 RPMA.rpm               130.00:  RPM Surface Avg 
 RPMN.rpm               100.00:  RPM Surface Min 
 RPMX.rpm               140.00:  RPM Surface Max 
 RRUN.                    0400:  Rig Run Number 
 RTIM.hr                 38.60:  Time Reaming 
 SAZI.deg               149.55:  Azm, Start 
 SDEP.m                3180.01:  Start Depth 
 SIDD.                      No:  Serv Intrp, DD 
 SINC.deg                68.42:  Inc, Start 
 SPPA.psig             4400.00:  SPP Avg 
 SPPN.psig             3580.00:  SPP Min 
 SPPX.psig             4850.00:  SPP Max 
 STIM.      12.30.00 24-Apr-21:  Start Time 
 SVCS.                 DD, MWD:  Services 
 SVER.                    9.20:  Sperry Version 
 TDAT.m                 438.00:  Tot Depth Attmp 
 TDDF.                      No:  Trip for DD 
 TDLG.m                 438.00:  Tot Depth Loggd 
 TFF .                      No:  Trip for Fail 
 TQAA.f-kp               11.00:  Torque Abs Avg 
 TQAN.f-kp                9.00:  Torque Abs Min 
 TQAX.f-kp               14.00:  Torque Abs Max 
 TRRT.°/30m               0.04:  Turn Rotating 
 MRT .                    HCIM:  Maximum Recorded Temperature 
 TTMX.degC               84.31:  Max Tool Temp 
 VS01.                90521954:  Virtual Str1 SN 
 VS02.                90519327:  Virtual Str2 SN 
 VS03.                90522273:  Virtual Str3 SN 
 VS04.                11108038:  Virtual Str4 SN 
 VS05.                12258760:  Virtual Str5 SN 
 WBMN.klb                 1.00:  WOB Min 
 WITN.           Adil Mammadov:  Customer Rep 
 WITN.         Alex Yadullayev:  Customer Rep 2 
 WOBA.klb                 6.00:  WOB Avg 
 WOBX.klb                 9.00:  WOB Max 
 YP  .lhf2               31.00:  Yield Point 
~Curve Information Block
#MNEM.UNIT                 API CODE     Curve Description
#---------               -----------    ---------------------------
 TIME.HHMMSS            00 000 000 000:  GT Time & Date
 GTDEPTH.m              00 000 000 000:  GT Depth
 GTPQH.psia             00 000 000 000:  GT HR Quartz Pressure
 GTTQ.degC              00 000 000 000:  GT Quartz Temperature
 GTTN.NONE              00 000 000 000:  GT Test Number
 GTET.sec               00 000 000 000:  GT Elapsed Test Time
 GTTVD.m                00 000 000 000:  GT True Vertical Depth
#Other Information
#
#WARRANTY: Halliburton will use its best efforts to furnish customers with 
#accurate information and interpretations that are part of, and incident to, the services 
#provided.  However, Halliburton cannot and does not warrant the accuracy 
#or correctness of such information and interpretations.  Under no circumstances should any 
#such information or interpretation be relied upon as the sole basis for any drilling, 
#completion, production, or financial decision or any procedure involving any risk to the 
#safety of any drilling venture, drilling rig or its crew or any other third party.  The 
#Customer has full responsibility for all drilling, completion and production operation.  
#Halliburton makes no representations or warranties, either expressed or 
#implied, including, but not limited to, the implied warranties of merchantability or fitness 
#for a particular purpose, with respect to the services rendered.  In no event will 
#Halliburton be liable for failure to obtain any particular results or for 
#any damages, including, but not limited to, indirect, special or consequential damages, 
#resulting from the use of any information or interpretation provided by Halliburton.
#
~A           TIME           GTDEPTH  GTPQH  GTTQ  GTTN   GTET   GTTVD  
# ...
   15:38:52.140.28-Apr-2021 3537.51 4281.66 74.96 10.00  67.83 2773.98
   15:38:52.340.28-Apr-2021 3537.51 4281.91 74.96 10.00  68.03 2773.98
   15:38:52.540.28-Apr-2021 3537.51 4281.91 74.96 10.00  68.23 2773.98
   15:38:52.740.28-Apr-2021 3537.51 4281.91 74.96 10.00  68.43 2773.98
   15:38:52.940.28-Apr-2021 3537.51 4281.79 74.95 10.00  68.63 2773.98
   15:38:53.140.28-Apr-2021 3537.51 4281.84 74.95 10.00  68.83 2773.98
   15:38:53.340.28-Apr-2021 3537.51 4281.64 74.95 10.00  69.03 2773.98
   15:38:53.541.28-Apr-2021 3537.51 4281.64 74.95 10.00  69.23 2773.98
   15:38:53.741.28-Apr-2021 3537.51 4281.85 74.95 10.00  69.43 2773.98
   15:38:53.941.28-Apr-2021 3537.51 4281.80 74.95 10.00  69.63 2773.98
   15:38:54.141.28-Apr-2021 3537.51 4281.77 74.95 10.00  69.83 2773.98
   15:38:54.341.28-Apr-2021 3537.51 4281.77 74.95 10.00  70.03 2773.98
   15:38:54.541.28-Apr-2021 3537.51 4281.77 74.95 10.00  70.23 2773.98
   15:38:54.741.28-Apr-2021 3537.51 4281.86 74.95 10.00  70.43 2773.98
   15:38:54.941.28-Apr-2021 3537.51 4281.80 74.95 10.00  70.63 2773.98
   15:38:55.141.28-Apr-2021 3537.51 4281.77 74.95 10.00  70.83 2773.98
   15:38:55.341.28-Apr-2021 3537.51 4281.62 74.95 10.00  71.03 2773.98
   15:38:55.541.28-Apr-2021 3537.51 4281.62 74.95 10.00  71.23 2773.98
   15:38:55.741.28-Apr-2021 3537.51 4281.84 74.95 10.00  71.43 2773.98
   15:38:55.941.28-Apr-2021 3537.51 4281.80 74.95 10.00  71.63 2773.98
   15:38:56.142.28-Apr-2021 3537.51 4281.78 74.95 10.00  71.83 2773.98
   15:38:56.342.28-Apr-2021 3537.51 4281.79 74.94 10.00  72.03 2773.98
   15:38:56.542.28-Apr-2021 3537.51 4281.79 74.94 10.00  72.23 2773.98
   15:38:56.742.28-Apr-2021 3537.51 4281.82 74.94 10.00  72.43 2773.98
   15:38:56.942.28-Apr-2021 3537.51 4281.80 74.94 10.00  72.63 2773.98
   15:38:57.142.28-Apr-2021 3537.51 4281.78 74.94 10.00  72.83 2773.98
   15:38:57.342.28-Apr-2021 3537.51 4281.81 74.94 10.00  73.03 2773.98
   15:38:57.542.28-Apr-2021 3537.51 4281.81 74.94 10.00  73.23 2773.98
   15:38:57.742.28-Apr-2021 3537.51 4281.80 74.94 10.00  73.43 2773.98
   15:38:57.942.28-Apr-2021 3537.51 4281.61 74.94 10.00  73.63 2773.98
   15:38:58.142.28-Apr-2021 3537.51 4281.90 74.94 10.00  73.83 2773.98
   15:38:58.342.28-Apr-2021 3537.51 4281.80 74.94 10.00  74.03 2773.98
   15:38:58.542.28-Apr-2021 3537.51 4281.80 74.94 10.00  74.23 2773.98
   15:38:58.743.28-Apr-2021 3537.51 4281.79 74.94 10.00  74.43 2773.98
   15:38:58.943.28-Apr-2021 3537.51 4281.75 74.94 10.00  74.63 2773.98
   15:38:59.143.28-Apr-2021 3537.51 4281.80 74.94 10.00  74.83 2773.98
   15:38:59.343.28-Apr-2021 3537.51 4281.80 74.94 10.00  75.03 2773.98
   15:38:59.543.28-Apr-2021 3537.51 4281.80 74.94 10.00  75.23 2773.98
   15:38:59.743.28-Apr-2021 3537.51 4281.79 74.93 10.00  75.43 2773.98
   15:38:59.943.28-Apr-2021 3537.51 4281.80 74.93 10.00  75.63 2773.98
   15:39:00.143.28-Apr-2021 3537.51 4281.79 74.93 10.00  75.83 2773.98
   15:39:00.343.28-Apr-2021 3537.51 4281.80 74.93 10.00  76.03 2773.98
   15:39:00.543.28-Apr-2021 3537.51 4281.80 74.93 10.00  76.23 2773.98
   15:39:00.743.28-Apr-2021 3537.51 4281.56 74.93 10.00  76.43 2773.98
   15:39:00.943.28-Apr-2021 3537.51 4281.92 74.93 10.00  76.63 2773.98
   15:39:01.143.28-Apr-2021 3537.51 4281.81 74.93 10.00  76.83 2773.98
   15:39:01.344.28-Apr-2021 3537.51 4281.79 74.93 10.00  77.03 2773.98
   15:39:01.544.28-Apr-2021 3537.51 4281.79 74.93 10.00  77.23 2773.98
   15:39:01.744.28-Apr-2021 3537.51 4281.76 74.93 10.00  77.43 2773.98
   15:39:01.944.28-Apr-2021 3537.51 4281.69 74.93 10.00  77.63 2773.98
   15:39:02.144.28-Apr-2021 3537.51 4281.81 74.93 10.00  77.83 2773.98
   15:39:02.344.28-Apr-2021 3537.51 4281.79 74.93 10.00  78.03 2773.98
   15:39:02.544.28-Apr-2021 3537.51 4281.79 74.93 10.00  78.23 2773.98
   15:39:02.744.28-Apr-2021 3537.51 4281.78 74.93 10.00  78.43 2773.98
   15:39:02.944.28-Apr-2021 3537.51 4281.51 74.92 10.00  78.63 2773.98
   15:39:03.144.28-Apr-2021 3537.51 4281.93 74.92 10.00  78.83 2773.98
   15:39:03.344.28-Apr-2021 3537.51 4281.82 74.92 10.00  79.03 2773.98
   15:39:03.544.28-Apr-2021 3537.51 4281.82 74.92 10.00  79.23 2773.98
   15:39:03.744.28-Apr-2021 3537.51 4281.73 74.92 10.00  79.43 2773.98
   15:39:03.945.28-Apr-2021 3537.51 4281.65 74.92 10.00  79.63 2773.98
   15:39:04.145.28-Apr-2021 3537.51 4281.82 74.92 10.00  79.83 2773.98
   15:39:04.345.28-Apr-2021 3537.51 4281.76 74.92 10.00  80.03 2773.98
   15:39:04.545.28-Apr-2021 3537.51 4281.76 74.92 10.00  80.23 2773.98
   15:39:04.745.28-Apr-2021 3537.51 4281.73 74.92 10.00  80.43 2773.98
   15:39:04.945.28-Apr-2021 3537.51 4281.72 74.92 10.00  80.63 2773.98
   15:39:05.145.28-Apr-2021 3537.51 4281.78 74.92 10.00  80.83 2773.98
   15:39:05.345.28-Apr-2021 3537.51 4281.77 74.92 10.00  81.03 2773.98
   15:39:05.545.28-Apr-2021 3537.51 4281.77 74.92 10.00  81.23 2773.98
   15:39:05.745.28-Apr-2021 3537.51 4281.73 74.92 10.00  81.43 2773.98
   15:39:05.945.28-Apr-2021 3537.51 4281.76 74.92 10.00  81.63 2773.98
   15:39:06.145.28-Apr-2021 3537.51 4281.76 74.92 10.00  81.83 2773.98
   15:39:06.345.28-Apr-2021 3537.51 4281.75 74.91 10.00  82.03 2773.98
   15:39:06.546.28-Apr-2021 3537.51 4281.75 74.91 10.00  82.23 2773.98
   15:39:06.746.28-Apr-2021 3537.51 4281.72 74.91 10.00  82.43 2773.98
   15:39:06.946.28-Apr-2021 3537.51 4281.76 74.91 10.00  82.63 2773.98
   15:39:07.146.28-Apr-2021 3537.51 4281.77 74.91 10.00  82.83 2773.98
   15:39:07.346.28-Apr-2021 3537.51 4281.77 74.91 10.00  83.03 2773.98
   15:39:07.546.28-Apr-2021 3537.51 4281.77 74.91 10.00  83.23 2773.98
   15:39:07.746.28-Apr-2021 3537.51 4281.76 74.91 10.00  83.43 2773.98
   15:39:07.946.28-Apr-2021 3537.51 4281.75 74.91 10.00  83.63 2773.98
   15:39:08.146.28-Apr-2021 3537.51 4281.74 74.91 10.00  83.83 2773.98
   15:39:08.346.28-Apr-2021 3537.51 4281.73 74.91 10.00  84.03 2773.98
   15:39:08.546.28-Apr-2021 3537.51 4281.73 74.91 10.00  84.23 2773.98
   15:39:08.746.28-Apr-2021 3537.51 4281.74 74.91 10.00  84.43 2773.98
   15:39:08.946.28-Apr-2021 3537.51 4281.73 74.91 10.00  84.63 2773.98
   15:39:09.147.28-Apr-2021 3537.51 4281.74 74.91 10.00  84.83 2773.98
   15:39:09.347.28-Apr-2021 3537.51 4281.60 74.91 10.00  85.03 2773.98
   15:39:09.547.28-Apr-2021 3537.51 4281.60 74.91 10.00  85.23 2773.98
   15:39:09.747.28-Apr-2021 3537.51 4281.75 74.90 10.00  85.43 2773.98
   15:39:09.947.28-Apr-2021 3537.51 4281.73 74.90 10.00  85.63 2773.98
   15:39:10.147.28-Apr-2021 3537.51 4281.73 74.90 10.00  85.83 2773.98
   15:39:10.347.28-Apr-2021 3537.51 4281.67 74.90 10.00  86.03 2773.98
   15:39:10.547.28-Apr-2021 3537.51 4281.67 74.90 10.00  86.23 2773.98
   15:39:10.747.28-Apr-2021 3537.51 4281.64 74.90 10.00  86.43 2773.98
   15:39:10.947.28-Apr-2021 3537.51 4281.75 74.90 10.00  86.63 2773.98
   15:39:11.147.28-Apr-2021 3537.51 4281.74 74.90 10.00  86.83 2773.98
   15:39:11.347.28-Apr-2021 3537.51 4281.69 74.90 10.00  87.03 2773.98
   15:39:11.547.28-Apr-2021 3537.51 4281.69 74.90 10.00  87.23 2773.98
   15:39:11.747.28-Apr-2021 3537.51 4281.85 74.90 10.00  87.43 2773.98
   15:39:11.948.28-Apr-2021 3537.51 4281.73 74.90 10.00  87.63 2773.98
   15:39:12.148.28-Apr-2021 3537.51 4281.70 74.90 10.00  87.83 2773.98
   15:39:12.348.28-Apr-2021 3537.51 4281.70 74.90 10.00  88.03 2773.98
   15:39:12.548.28-Apr-2021 3537.51 4281.70 74.90 10.00  88.23 2773.98
   15:39:12.748.28-Apr-2021 3537.51 4281.70 74.90 10.00  88.43 2773.98
   15:39:12.948.28-Apr-2021 3537.51 4281.75 74.90 10.00  88.63 2773.98
   15:39:13.148.28-Apr-2021 3537.51 4281.75 74.89 10.00  88.83 2773.98
   15:39:13.348.28-Apr-2021 3537.51 4281.68 74.89 10.00  89.03 2773.98
   15:39:13.548.28-Apr-2021 3537.51 4281.68 74.89 10.00  89.23 2773.98
   15:39:13.748.28-Apr-2021 3537.51 4281.74 74.89 10.00  89.43 2773.98
   15:39:13.948.28-Apr-2021 3537.51 4281.71 74.89 10.00  89.63 2773.98
   15:39:14.148.28-Apr-2021 3537.51 4281.69 74.89 10.00  89.83 2773.98
   15:39:14.348.28-Apr-2021 3537.51 4281.69 74.89 10.00  90.03 2773.98
   15:39:14.549.28-Apr-2021 3537.51 4281.69 74.89 10.00  90.23 2773.98
