~Version Information
 VERS.                  2.0:   CWLS log ASCII Standard -VERSION 2.0
 WRAP.                   NO:   One line per depth step
~Well Information Block
#MNEM.UNIT     VALUE/NAME     DESCRIPTION
#---------     -----------    ---------------------------
 STRT.S             18:57:18 28-Apr-21: START TIME 18:57:18 28-Apr-21
 STOP.S             19:03:45 28-Apr-21: STOP TIME  19:03:45 28-Apr-21
 STEP.S                   0.00: STEP TIME
 NULL.                 -999.25: NULL VALUE
 DFWT.                        :  DIST FWL TEXT
 DFST.                        :  DIST FSL TEXT
 DMF .             Drill Floor:  DRILL MEAS FROM
 STIM.      02.00.00 12-Apr-21:  START TIME
 DATE.      02.00.00 02-May-21:  END TIME
 SPUD.               09-Apr-21:  SPUD DATE
 NREF.                    Grid:  NORTH REFERENCE
 HPTY.       Minimum Curvature:  HOLE POS TYPE
 DMOD.             Drill Model:  DRILL MOD DESC
 SVYD.                  Survey:  SURVEY DESC
 ILTD.               Lithology:  INTERP LTH DESC
 FTOP.          Formation Tops:  FORM TOPS DESC
 PDAT.          Mean Sea Level:  PERMANENT DATUM
 FLD .                     ACG:  FIELD NAME
 SON .        AZ-XX-0907021034:  JOB NUMBER
 CTRY.              Azerbaijan:  COUNTRY NAME
 WELL.                    E01x:  WELL NAME
 COMP.     BP Exploration (Caspian Sea) LTD.:  COMPANY
 UWI .            /AZE00001403:  UNIQUE WELL IDENTIFIER
 API .            /AZE00001403:  API NUMBER
 WTYP.                Deviated:  WELL TYPE
 MDS .        Operator Entered:  MAG DATA SOURCE
 BASE.              Azerbaijan:  LOGGING EQUIPMENT BASE LOCATION
 REGN.                   EESSA:  REGION
 PROV.                    Baku:  PROVINCE
 STAT.                    Baku:  STATE NAME
 SRVC.          Turan Drilling:  CONTRACTOR
 MWDS.                    Baku:  MWD SHOP
 JOBN.        AZ-XX-0907021034:  JOB TICKET NUMB
 RIG .                     DWG:  RIG NAME
 DOE .                     N/A:  DOE NUMBER
 DCON.         Sperry Drilling:  DIRECTNL CONTR
 UNIT.                     N/A:  LOGGING EQUIPMENT ID
 CNTY.                        :  COUNTY
 LOC .                        :  LOCATION
 LMF .             Drill Floor:  LOG MEASURED FROM
 TVDS.m                  43.16:  TVDSS CORRECTN
 LATI.deg                40.17:  LATITUDE
 LONG.deg                51.17:  LONGITUDE
 WHNS.m                  -5.90:  WELL HEAD N/S
 WHEW.m                  -6.61:  WELL HEAD E/W
 UTMX.m              514337.95:  UTM X
 UTMY.m             4448627.46:  UTM Y
 DFWL.m                   0.00:  DISTANCE FWL
 DFSL.m                   0.00:  DISTANCE FSL
 SDEP.m                2606.87:  START DEPTH
 TDD .m                3618.01:  TOTAL DEPTH (DRILLER)
 VSDR.deg               177.42:  VERT SEC DIRECT
 GVFD.g                   1.00:  GRAVITY FIELD
 MFLD.nT              50399.00:  MAGNETIC FIELD
 MDIP.deg                59.67:  MAGNETIC DIP
 MDEC.deg                 6.56:  MAGNETIC DECL
 GRDC.deg                 0.11:  GRID CORRECTION
 AZTC.deg                 6.45:  AZM TOTAL CORR
 EPD .m                   0.00:  ELEVATION
 EGL .m                   0.00:  GROUND ELEVATION
 WDMS.m                 176.20:  WD ELEV
 APD .m                  43.16:  DEPTH ABOVE PD
 DEP .m                2606.87:  DEPTH
 AGAP.m                  43.16:  AIR GAP
 VSEW.m                  -6.61:  VERT SEC E/W
 VSNS.m                  -5.90:  VERT SEC N/S
 EKB .m                  43.16:  KB ELEVATION
 EDF .m                  43.16:  DF ELEVATION
 TDL .m                 438.00:  TOTAL DEPTH (LOGGER)
 VSC .                       0:  VS TO CLOSURE
 MAGU.                 1855490:  MAGUTM CHECKSUM
~Parameter Information Block
#MNEM.UNIT       Value        Description
#---------     -----------    ---------------------------
 AV  .mps                 2.20:  Ann Velocity 
 AVMX.mps                 2.50:  Max Ann Veloc 
 AZIF.deg               150.21:  Azm, Final 
 BHAT.        Rotary Steerable:  BHA Type 
 BROT.°/30m               0.08:  Build Rotating 
 BS  .in                  6.50:  Bit Size 
 BSZ .in                  6.50:  Bit Size 
 BTPL.psig              108.00:  Bit Press Loss 
 CABU.                     Yes:  Customer Abuse 
 CGEO.           Emin Aliyarli:  Customer Geo 
 COMM.                     ´âi:  Run Comments 1 
 TCS .hr                 74.20:  Time Ciculation Ended 
 CV  .mps                 3.63:  Crit Velocity 
 CVMX.mps                 3.66:  Max Crit Veloc 
 DD1 .         Intigam Rahimov:  Direct Drillr 1 
 DD2 .          Teymur Aghayev:  Direct Drillr 2 
 DDSV.               Geo-Pilot:  DD Service 
 DEFF.%                  97.00:  % Det Eff 
 DLRX.°/30m               1.63:  Dogleg Rot Max 
 DLSO.°/30m               0.00:  Dogleg Oriented 
 DLSX.°/30m               0.00:  Dogleg Str Max 
 DRET.      20.20.00 28-Apr-21:  Drill End Time 
 DRST.      04.45.00 26-Apr-21:  Drill Start Tim 
 DTIM.hr                 34.30:  Time Drilling 
 EDEP.m                3618.01:  End Depth 
 ENG1.           Amrah Tahirov:  Engineer 1 
 ENG2.         Bahruz Mehdiyev:  Engineer 2 
 ENG3.         Farhad Orujzade:  Engineer 3 
 ETIM.      19.00.00 29-Apr-21:  End Time 
 FLOI.gpm               370.00:  Flow In 
 FLON.gpm               300.00:  Flow In Min 
 FLOS.cptm                0.00:  Fluid Loss 
 FLOX.gpm               410.00:  Flow In Max 
 HFLO.                      No:  High Flow 
 HPRE.                      No:  High Pressure 
 HTEM.                      No:  High Temp 
 HYDO.m                   1.80:  Hydro Offset 
 IFIN.deg                67.19:  Inc, Final 
 IMAX.deg                68.42:  Inc Max 
 IMIN.deg                66.33:  Inc Min 
 IMND.m                3532.79:  Inc Min Depth 
 IMXD.m                3192.15:  Inc Max Depth 
 JARR.                      No:  Jarring 
 LETM.      20.20.00 28-Apr-21:  Log End Time 
 LOST.hr                     0:  Lost Rig Time 
 LSTM.      04.45.00 26-Apr-21:  Log Start Time 
 MDCL.ppm             36500.00:  Mud Chlorides 
 MDES.     Inversion Oil/Synthetic:  Mud Desc 
 DFD .sg                  1.42:  Mud Density 
 MDMN.sg                  1.42:  Dens Mud Min 
 MDMX.sg                  1.42:  Dens Mud Max 
 MOIL.                    55.7:  Run Mud Oil % 
 MOWR.                   71:29:  Run Mud OWR 
 MSND.                     0.1:  Run Mud Sand % 
 MSOL.                    19.9:  Run Mud Solids% 
 DFV .spqt               83.00:  Mud Viscosity 
 MWOD.in                  5.15:  MWD Tool OD 
 MWSI.                      No:  Serv Intrp, MWD 
 OTIM.hr                120.59:  Time Operating 
 PCON.           Look Like New:  Pad Condition 
 PMAX.psia            11292.93:  Press Op, Max 
 PV  .cP                 27.00:  Mud PV 
 RUN .                     400:  Run Number 
 ROPA.m/hr               14.00:  ROP Avg 
 ROPN.m/hr                9.00:  ROP Min 
 ROPX.m/hr               18.00:  ROP Max 
 RPMA.rpm               130.00:  RPM Surface Avg 
 RPMN.rpm               100.00:  RPM Surface Min 
 RPMX.rpm               140.00:  RPM Surface Max 
 RRUN.                    0400:  Rig Run Number 
 RTIM.hr                 38.60:  Time Reaming 
 SAZI.deg               149.55:  Azm, Start 
 SDEP.m                3180.01:  Start Depth 
 SIDD.                      No:  Serv Intrp, DD 
 SINC.deg                68.42:  Inc, Start 
 SPPA.psig             4400.00:  SPP Avg 
 SPPN.psig             3580.00:  SPP Min 
 SPPX.psig             4850.00:  SPP Max 
 STIM.      12.30.00 24-Apr-21:  Start Time 
 SVCS.                 DD, MWD:  Services 
 SVER.                    9.20:  Sperry Version 
 TDAT.m                 438.00:  Tot Depth Attmp 
 TDDF.                      No:  Trip for DD 
 TDLG.m                 438.00:  Tot Depth Loggd 
 TFF .                      No:  Trip for Fail 
 TQAA.f-kp               11.00:  Torque Abs Avg 
 TQAN.f-kp                9.00:  Torque Abs Min 
 TQAX.f-kp               14.00:  Torque Abs Max 
 TRRT.°/30m               0.04:  Turn Rotating 
 MRT .                    HCIM:  Maximum Recorded Temperature 
 TTMX.degC               84.31:  Max Tool Temp 
 VS01.                90521954:  Virtual Str1 SN 
 VS02.                90519327:  Virtual Str2 SN 
 VS03.                90522273:  Virtual Str3 SN 
 VS04.                11108038:  Virtual Str4 SN 
 VS05.                12258760:  Virtual Str5 SN 
 WBMN.klb                 1.00:  WOB Min 
 WITN.           Adil Mammadov:  Customer Rep 
 WITN.         Alex Yadullayev:  Customer Rep 2 
 WOBA.klb                 6.00:  WOB Avg 
 WOBX.klb                 9.00:  WOB Max 
 YP  .lhf2               31.00:  Yield Point 
~Curve Information Block
#MNEM.UNIT                 API CODE     Curve Description
#---------               -----------    ---------------------------
 TIME.HHMMSS            00 000 000 000:  GT Time & Date
 GTDEPTH.m              00 000 000 000:  GT Depth
 GTPQH.psia             00 000 000 000:  GT HR Quartz Pressure
 GTTQ.degC              00 000 000 000:  GT Quartz Temperature
 GTTN.NONE              00 000 000 000:  GT Test Number
 GTET.sec               00 000 000 000:  GT Elapsed Test Time
 GTTVD.m                00 000 000 000:  GT True Vertical Depth
#Other Information
#
#WARRANTY: Halliburton will use its best efforts to furnish customers with 
#accurate information and interpretations that are part of, and incident to, the services 
#provided.  However, Halliburton cannot and does not warrant the accuracy 
#or correctness of such information and interpretations.  Under no circumstances should any 
#such information or interpretation be relied upon as the sole basis for any drilling, 
#completion, production, or financial decision or any procedure involving any risk to the 
#safety of any drilling venture, drilling rig or its crew or any other third party.  The 
#Customer has full responsibility for all drilling, completion and production operation.  
#Halliburton makes no representations or warranties, either expressed or 
#implied, including, but not limited to, the implied warranties of merchantability or fitness 
#for a particular purpose, with respect to the services rendered.  In no event will 
#Halliburton be liable for failure to obtain any particular results or for 
#any damages, including, but not limited to, indirect, special or consequential damages, 
#resulting from the use of any information or interpretation provided by Halliburton.
#
~A           TIME           GTDEPTH  GTPQH  GTTQ  GTTN   GTET   GTTVD  
# ...
   18:59:11.266.28-Apr-2021 3565.01 4084.30 75.30 11.00 113.03 2784.87
   18:59:11.466.28-Apr-2021 3565.01 4084.30 75.30 11.00 113.23 2784.87
   18:59:11.666.28-Apr-2021 3565.01 4084.23 75.30 11.00 113.43 2784.87
   18:59:11.866.28-Apr-2021 3565.01 4084.34 75.30 11.00 113.63 2784.87
   18:59:12.067.28-Apr-2021 3565.01 4084.30 75.30 11.00 113.83 2784.87
   18:59:12.267.28-Apr-2021 3565.01 4084.29 75.30 11.00 114.03 2784.87
   18:59:12.467.28-Apr-2021 3565.01 4084.29 75.30 11.00 114.23 2784.87
   18:59:12.667.28-Apr-2021 3565.01 4084.26 75.30 11.00 114.43 2784.87
   18:59:12.867.28-Apr-2021 3565.01 4084.31 75.30 11.00 114.63 2784.87
   18:59:13.067.28-Apr-2021 3565.01 4084.29 75.30 11.00 114.83 2784.87
   18:59:13.267.28-Apr-2021 3565.01 4084.29 75.30 11.00 115.03 2784.87
   18:59:13.467.28-Apr-2021 3565.01 4084.29 75.30 11.00 115.23 2784.87
   18:59:13.667.28-Apr-2021 3565.01 4084.32 75.29 11.00 115.43 2784.87
   18:59:13.867.28-Apr-2021 3565.01 4084.33 75.29 11.00 115.63 2784.87
   18:59:14.067.28-Apr-2021 3565.01 4084.28 75.29 11.00 115.83 2784.87
   18:59:14.267.28-Apr-2021 3565.01 4084.30 75.29 11.00 116.03 2784.87
   18:59:14.467.28-Apr-2021 3565.01 4084.30 75.29 11.00 116.23 2784.87
   18:59:14.667.28-Apr-2021 3565.01 4084.25 75.29 11.00 116.43 2784.87
   18:59:14.867.28-Apr-2021 3565.01 4084.32 75.29 11.00 116.63 2784.87
   18:59:15.067.28-Apr-2021 3565.01 4084.32 75.29 11.00 116.83 2784.87
   18:59:15.267.28-Apr-2021 3565.01 4084.28 75.29 11.00 117.03 2784.87
   18:59:15.468.28-Apr-2021 3565.01 4084.28 75.29 11.00 117.23 2784.87
   18:59:15.668.28-Apr-2021 3565.01 4084.30 75.29 11.00 117.43 2784.87
   18:59:15.868.28-Apr-2021 3565.01 4084.10 75.29 11.00 117.63 2784.87
   18:59:16.068.28-Apr-2021 3565.01 4084.41 75.29 11.00 117.83 2784.87
   18:59:16.268.28-Apr-2021 3565.01 4084.29 75.29 11.00 118.03 2784.87
   18:59:16.468.28-Apr-2021 3565.01 4084.29 75.29 11.00 118.23 2784.87
   18:59:16.668.28-Apr-2021 3565.01 4084.28 75.29 11.00 118.44 2784.87
   18:59:16.868.28-Apr-2021 3565.01 4084.24 75.29 11.00 118.64 2784.87
   18:59:17.068.28-Apr-2021 3565.01 4084.14 75.28 11.00 118.84 2784.87
   18:59:17.268.28-Apr-2021 3565.01 4084.37 75.28 11.00 119.04 2784.87
   18:59:17.468.28-Apr-2021 3565.01 4084.37 75.28 11.00 119.24 2784.87
   18:59:17.668.28-Apr-2021 3565.01 4084.26 75.28 11.00 119.44 2784.87
   18:59:17.868.28-Apr-2021 3565.01 4084.28 75.28 11.00 119.64 2784.87
   18:59:18.068.28-Apr-2021 3565.01 4084.24 75.28 11.00 119.84 2784.87
   18:59:18.268.28-Apr-2021 3565.01 4084.28 75.28 11.00 120.04 2784.87
   18:59:18.468.28-Apr-2021 3565.01 4084.28 75.28 11.00 120.24 2784.87
   18:59:18.668.28-Apr-2021 3565.01 4084.24 75.28 11.00 120.44 2784.87
   18:59:18.869.28-Apr-2021 3565.01 4084.28 75.28 11.00 120.64 2784.87
   18:59:19.069.28-Apr-2021 3565.01 4084.25 75.28 11.00 120.84 2784.87
   18:59:19.269.28-Apr-2021 3565.01 4084.28 75.28 11.00 121.04 2784.87
   18:59:19.469.28-Apr-2021 3565.01 4084.28 75.28 11.00 121.24 2784.87
   18:59:19.669.28-Apr-2021 3565.01 4084.21 75.28 11.00 121.44 2784.87
   18:59:19.869.28-Apr-2021 3565.01 4084.16 75.28 11.00 121.64 2784.87
   18:59:20.069.28-Apr-2021 3565.01 4084.28 75.28 11.00 121.84 2784.87
   18:59:20.269.28-Apr-2021 3565.01 4084.32 75.28 11.00 122.04 2784.87
   18:59:20.469.28-Apr-2021 3565.01 4084.32 75.28 11.00 122.24 2784.87
   18:59:20.669.28-Apr-2021 3565.01 4084.25 75.27 11.00 122.44 2784.87
   18:59:20.869.28-Apr-2021 3565.01 4084.24 75.27 11.00 122.64 2784.87
   18:59:21.069.28-Apr-2021 3565.01 4084.26 75.27 11.00 122.84 2784.87
   18:59:21.269.28-Apr-2021 3565.01 4084.28 75.27 11.00 123.04 2784.87
   18:59:21.469.28-Apr-2021 3565.01 4084.28 75.27 11.00 123.24 2784.87
   18:59:21.669.28-Apr-2021 3565.01 4084.25 75.27 11.00 123.44 2784.87
   18:59:21.869.28-Apr-2021 3565.01 4084.23 75.27 11.00 123.64 2784.87
   18:59:22.069.28-Apr-2021 3565.01 4084.25 75.27 11.00 123.84 2784.87
   18:59:22.270.28-Apr-2021 3565.01 4084.27 75.27 11.00 124.04 2784.87
   18:59:22.470.28-Apr-2021 3565.01 4084.27 75.27 11.00 124.24 2784.87
   18:59:22.670.28-Apr-2021 3565.01 4084.27 75.27 11.00 124.44 2784.87
   18:59:22.870.28-Apr-2021 3565.01 4084.24 75.27 11.00 124.64 2784.87
   18:59:23.070.28-Apr-2021 3565.01 4084.29 75.27 11.00 124.84 2784.87
   18:59:23.270.28-Apr-2021 3565.01 4084.23 75.27 11.00 125.04 2784.87
   18:59:23.470.28-Apr-2021 3565.01 4084.23 75.27 11.00 125.24 2784.87
   18:59:23.670.28-Apr-2021 3565.01 4084.12 75.27 11.00 125.44 2784.87
   18:59:23.870.28-Apr-2021 3565.01 4084.30 75.27 11.00 125.64 2784.87
   18:59:24.070.28-Apr-2021 3565.01 4084.27 75.26 11.00 125.84 2784.87
   18:59:24.270.28-Apr-2021 3565.01 4084.24 75.26 11.00 126.04 2784.87
   18:59:24.470.28-Apr-2021 3565.01 4084.24 75.26 11.00 126.24 2784.87
   18:59:24.670.28-Apr-2021 3565.01 4084.20 75.26 11.00 126.44 2784.87
   18:59:24.870.28-Apr-2021 3565.01 4084.20 75.26 11.00 126.64 2784.87
   18:59:25.070.28-Apr-2021 3565.01 4084.21 75.26 11.00 126.84 2784.87
   18:59:25.270.28-Apr-2021 3565.01 4084.25 75.26 11.00 127.04 2784.87
   18:59:25.470.28-Apr-2021 3565.01 4084.25 75.26 11.00 127.24 2784.87
   18:59:25.671.28-Apr-2021 3565.01 4084.21 75.26 11.00 127.44 2784.87
   18:59:25.871.28-Apr-2021 3565.01 4084.24 75.26 11.00 127.64 2784.87
   18:59:26.071.28-Apr-2021 3565.01 4084.19 75.26 11.00 127.84 2784.87
   18:59:26.271.28-Apr-2021 3565.01 4084.16 75.26 11.00 128.04 2784.87
   18:59:26.471.28-Apr-2021 3565.01 4084.16 75.26 11.00 128.24 2784.87
   18:59:26.671.28-Apr-2021 3565.01 4084.16 75.26 11.00 128.44 2784.87
   18:59:26.871.28-Apr-2021 3565.01 4084.23 75.26 11.00 128.64 2784.87
   18:59:27.071.28-Apr-2021 3565.01 4084.20 75.26 11.00 128.84 2784.87
   18:59:27.271.28-Apr-2021 3565.01 4084.24 75.26 11.00 129.04 2784.87
   18:59:27.471.28-Apr-2021 3565.01 4084.24 75.26 11.00 129.24 2784.87
   18:59:27.671.28-Apr-2021 3565.01 4078.47 75.25 11.00 129.44 2784.87
   18:59:27.871.28-Apr-2021 3565.01 4050.37 75.25 11.00 129.64 2784.87
   18:59:28.071.28-Apr-2021 3565.01 4049.60 75.25 11.00 129.84 2784.87
   18:59:28.271.28-Apr-2021 3565.01 4049.58 75.25 11.00 130.04 2784.87
   18:59:28.471.28-Apr-2021 3565.01 4049.58 75.25 11.00 130.24 2784.87
   18:59:28.671.28-Apr-2021 3565.01 4049.36 75.25 11.00 130.44 2784.87
   18:59:28.871.28-Apr-2021 3565.01 4048.80 75.25 11.00 130.64 2784.87
   18:59:29.072.28-Apr-2021 3565.01 4048.94 75.25 11.00 130.84 2784.87
   18:59:29.272.28-Apr-2021 3565.01 4049.17 75.25 11.00 131.04 2784.87
   18:59:29.472.28-Apr-2021 3565.01 4049.17 75.25 11.00 131.24 2784.87
   18:59:29.672.28-Apr-2021 3565.01 4049.15 75.25 11.00 131.44 2784.87
   18:59:29.872.28-Apr-2021 3565.01 4048.59 75.25 11.00 131.64 2784.87
   18:59:30.072.28-Apr-2021 3565.01 4049.02 75.25 11.00 131.84 2784.87
   18:59:30.272.28-Apr-2021 3565.01 4049.18 75.25 11.00 132.04 2784.87
   18:59:30.472.28-Apr-2021 3565.01 4049.18 75.25 11.00 132.24 2784.87
   18:59:30.672.28-Apr-2021 3565.01 4049.17 75.25 11.00 132.44 2784.87
   18:59:30.872.28-Apr-2021 3565.01 4048.82 75.25 11.00 132.64 2784.87
   18:59:31.072.28-Apr-2021 3565.01 4049.36 75.24 11.00 132.84 2784.87
   18:59:31.272.28-Apr-2021 3565.01 4049.20 75.24 11.00 133.04 2784.87
   18:59:31.472.28-Apr-2021 3565.01 4049.20 75.24 11.00 133.24 2784.87
   18:59:31.672.28-Apr-2021 3565.01 4048.18 75.24 11.00 133.44 2784.87
   18:59:31.872.28-Apr-2021 3565.01 4049.65 75.24 11.00 133.64 2784.87
   18:59:32.072.28-Apr-2021 3565.01 4049.27 75.24 11.00 133.84 2784.87
   18:59:32.272.28-Apr-2021 3565.01 4049.06 75.24 11.00 134.04 2784.87
   18:59:32.473.28-Apr-2021 3565.01 4049.06 75.24 11.00 134.24 2784.87
   18:59:32.673.28-Apr-2021 3565.01 4048.70 75.24 11.00 134.44 2784.87
   18:59:32.873.28-Apr-2021 3565.01 4048.35 75.24 11.00 134.64 2784.87
   18:59:33.073.28-Apr-2021 3565.01 4049.54 75.24 11.00 134.84 2784.87
   18:59:33.273.28-Apr-2021 3565.01 4049.51 75.24 11.00 135.04 2784.87
   18:59:33.473.28-Apr-2021 3565.01 4049.51 75.24 11.00 135.24 2784.87
   18:59:33.673.28-Apr-2021 3565.01 4048.94 75.24 11.00 135.44 2784.87
