~Version Information
 VERS.                  2.0:   CWLS log ASCII Standard -VERSION 2.0
 WRAP.                   NO:   One line per depth step
~Well Information Block
#MNEM.UNIT     VALUE/NAME     DESCRIPTION
#---------     -----------    ---------------------------
 STRT.S             00:41:47 27-Apr-21: START TIME 00:41:47 27-Apr-21
 STOP.S             00:48:15 27-Apr-21: STOP TIME  00:48:15 27-Apr-21
 STEP.S                   0.00: STEP TIME
 NULL.                 -999.25: NULL VALUE
 DFWT.                        :  DIST FWL TEXT
 DFST.                        :  DIST FSL TEXT
 DMF .             Drill Floor:  DRILL MEAS FROM
 STIM.      02.00.00 12-Apr-21:  START TIME
 DATE.      02.00.00 02-May-21:  END TIME
 SPUD.               09-Apr-21:  SPUD DATE
 NREF.                    Grid:  NORTH REFERENCE
 HPTY.       Minimum Curvature:  HOLE POS TYPE
 DMOD.             Drill Model:  DRILL MOD DESC
 SVYD.                  Survey:  SURVEY DESC
 ILTD.               Lithology:  INTERP LTH DESC
 FTOP.          Formation Tops:  FORM TOPS DESC
 PDAT.          Mean Sea Level:  PERMANENT DATUM
 FLD .                     ACG:  FIELD NAME
 SON .        AZ-XX-0907021034:  JOB NUMBER
 CTRY.              Azerbaijan:  COUNTRY NAME
 WELL.                    E01x:  WELL NAME
 COMP.     BP Exploration (Caspian Sea) LTD.:  COMPANY
 UWI .            /AZE00001403:  UNIQUE WELL IDENTIFIER
 API .            /AZE00001403:  API NUMBER
 WTYP.                Deviated:  WELL TYPE
 MDS .        Operator Entered:  MAG DATA SOURCE
 BASE.              Azerbaijan:  LOGGING EQUIPMENT BASE LOCATION
 REGN.                   EESSA:  REGION
 PROV.                    Baku:  PROVINCE
 STAT.                    Baku:  STATE NAME
 SRVC.          Turan Drilling:  CONTRACTOR
 MWDS.                    Baku:  MWD SHOP
 JOBN.        AZ-XX-0907021034:  JOB TICKET NUMB
 RIG .                     DWG:  RIG NAME
 DOE .                     N/A:  DOE NUMBER
 DCON.         Sperry Drilling:  DIRECTNL CONTR
 UNIT.                     N/A:  LOGGING EQUIPMENT ID
 CNTY.                        :  COUNTY
 LOC .                        :  LOCATION
 LMF .             Drill Floor:  LOG MEASURED FROM
 TVDS.m                  43.16:  TVDSS CORRECTN
 LATI.deg                40.17:  LATITUDE
 LONG.deg                51.17:  LONGITUDE
 WHNS.m                  -5.90:  WELL HEAD N/S
 WHEW.m                  -6.61:  WELL HEAD E/W
 UTMX.m              514337.95:  UTM X
 UTMY.m             4448627.46:  UTM Y
 DFWL.m                   0.00:  DISTANCE FWL
 DFSL.m                   0.00:  DISTANCE FSL
 SDEP.m                2606.87:  START DEPTH
 TDD .m                3618.01:  TOTAL DEPTH (DRILLER)
 VSDR.deg               177.42:  VERT SEC DIRECT
 GVFD.g                   1.00:  GRAVITY FIELD
 MFLD.nT              50399.00:  MAGNETIC FIELD
 MDIP.deg                59.67:  MAGNETIC DIP
 MDEC.deg                 6.56:  MAGNETIC DECL
 GRDC.deg                 0.11:  GRID CORRECTION
 AZTC.deg                 6.45:  AZM TOTAL CORR
 EPD .m                   0.00:  ELEVATION
 EGL .m                   0.00:  GROUND ELEVATION
 WDMS.m                 176.20:  WD ELEV
 APD .m                  43.16:  DEPTH ABOVE PD
 DEP .m                2606.87:  DEPTH
 AGAP.m                  43.16:  AIR GAP
 VSEW.m                  -6.61:  VERT SEC E/W
 VSNS.m                  -5.90:  VERT SEC N/S
 EKB .m                  43.16:  KB ELEVATION
 EDF .m                  43.16:  DF ELEVATION
 TDL .m                 438.00:  TOTAL DEPTH (LOGGER)
 VSC .                       0:  VS TO CLOSURE
 MAGU.                 1855490:  MAGUTM CHECKSUM
~Parameter Information Block
#MNEM.UNIT       Value        Description
#---------     -----------    ---------------------------
 AV  .mps                 2.20:  Ann Velocity 
 AVMX.mps                 2.50:  Max Ann Veloc 
 AZIF.deg               150.21:  Azm, Final 
 BHAT.        Rotary Steerable:  BHA Type 
 BROT.°/30m               0.08:  Build Rotating 
 BS  .in                  6.50:  Bit Size 
 BSZ .in                  6.50:  Bit Size 
 BTPL.psig              108.00:  Bit Press Loss 
 CABU.                     Yes:  Customer Abuse 
 CGEO.           Emin Aliyarli:  Customer Geo 
 COMM.                     lJm:  Run Comments 1 
 TCS .hr                 74.20:  Time Ciculation Ended 
 CV  .mps                 3.63:  Crit Velocity 
 CVMX.mps                 3.66:  Max Crit Veloc 
 DD1 .         Intigam Rahimov:  Direct Drillr 1 
 DD2 .          Teymur Aghayev:  Direct Drillr 2 
 DDSV.               Geo-Pilot:  DD Service 
 DEFF.%                  97.00:  % Det Eff 
 DLRX.°/30m               1.63:  Dogleg Rot Max 
 DLSO.°/30m               0.00:  Dogleg Oriented 
 DLSX.°/30m               0.00:  Dogleg Str Max 
 DRET.      20.20.00 28-Apr-21:  Drill End Time 
 DRST.      04.45.00 26-Apr-21:  Drill Start Tim 
 DTIM.hr                 34.30:  Time Drilling 
 EDEP.m                3618.01:  End Depth 
 ENG1.           Amrah Tahirov:  Engineer 1 
 ENG2.         Bahruz Mehdiyev:  Engineer 2 
 ENG3.         Farhad Orujzade:  Engineer 3 
 ETIM.      19.00.00 29-Apr-21:  End Time 
 FLOI.gpm               370.00:  Flow In 
 FLON.gpm               300.00:  Flow In Min 
 FLOS.cptm                0.00:  Fluid Loss 
 FLOX.gpm               410.00:  Flow In Max 
 HFLO.                      No:  High Flow 
 HPRE.                      No:  High Pressure 
 HTEM.                      No:  High Temp 
 HYDO.m                   1.80:  Hydro Offset 
 IFIN.deg                67.19:  Inc, Final 
 IMAX.deg                68.42:  Inc Max 
 IMIN.deg                66.33:  Inc Min 
 IMND.m                3532.79:  Inc Min Depth 
 IMXD.m                3192.15:  Inc Max Depth 
 JARR.                      No:  Jarring 
 LETM.      20.20.00 28-Apr-21:  Log End Time 
 LOST.hr                     0:  Lost Rig Time 
 LSTM.      04.45.00 26-Apr-21:  Log Start Time 
 MDCL.ppm             36500.00:  Mud Chlorides 
 MDES.     Inversion Oil/Synthetic:  Mud Desc 
 DFD .sg                  1.42:  Mud Density 
 MDMN.sg                  1.42:  Dens Mud Min 
 MDMX.sg                  1.42:  Dens Mud Max 
 MOIL.                    55.7:  Run Mud Oil % 
 MOWR.                   71:29:  Run Mud OWR 
 MSND.                     0.1:  Run Mud Sand % 
 MSOL.                    19.9:  Run Mud Solids% 
 DFV .spqt               83.00:  Mud Viscosity 
 MWOD.in                  5.15:  MWD Tool OD 
 MWSI.                      No:  Serv Intrp, MWD 
 OTIM.hr                120.59:  Time Operating 
 PCON.           Look Like New:  Pad Condition 
 PMAX.psia            11292.93:  Press Op, Max 
 PV  .cP                 27.00:  Mud PV 
 RUN .                     400:  Run Number 
 ROPA.m/hr               14.00:  ROP Avg 
 ROPN.m/hr                9.00:  ROP Min 
 ROPX.m/hr               18.00:  ROP Max 
 RPMA.rpm               130.00:  RPM Surface Avg 
 RPMN.rpm               100.00:  RPM Surface Min 
 RPMX.rpm               140.00:  RPM Surface Max 
 RRUN.                    0400:  Rig Run Number 
 RTIM.hr                 38.60:  Time Reaming 
 SAZI.deg               149.55:  Azm, Start 
 SDEP.m                3180.01:  Start Depth 
 SIDD.                      No:  Serv Intrp, DD 
 SINC.deg                68.42:  Inc, Start 
 SPPA.psig             4400.00:  SPP Avg 
 SPPN.psig             3580.00:  SPP Min 
 SPPX.psig             4850.00:  SPP Max 
 STIM.      12.30.00 24-Apr-21:  Start Time 
 SVCS.                 DD, MWD:  Services 
 SVER.                    9.20:  Sperry Version 
 TDAT.m                 438.00:  Tot Depth Attmp 
 TDDF.                      No:  Trip for DD 
 TDLG.m                 438.00:  Tot Depth Loggd 
 TFF .                      No:  Trip for Fail 
 TQAA.f-kp               11.00:  Torque Abs Avg 
 TQAN.f-kp                9.00:  Torque Abs Min 
 TQAX.f-kp               14.00:  Torque Abs Max 
 TRRT.°/30m               0.04:  Turn Rotating 
 MRT .                    HCIM:  Maximum Recorded Temperature 
 TTMX.degC               84.31:  Max Tool Temp 
 VS01.                90521954:  Virtual Str1 SN 
 VS02.                90519327:  Virtual Str2 SN 
 VS03.                90522273:  Virtual Str3 SN 
 VS04.                11108038:  Virtual Str4 SN 
 VS05.                12258760:  Virtual Str5 SN 
 WBMN.klb                 1.00:  WOB Min 
 WITN.           Adil Mammadov:  Customer Rep 
 WITN.         Alex Yadullayev:  Customer Rep 2 
 WOBA.klb                 6.00:  WOB Avg 
 WOBX.klb                 9.00:  WOB Max 
 YP  .lhf2               31.00:  Yield Point 
~Curve Information Block
#MNEM.UNIT                 API CODE     Curve Description
#---------               -----------    ---------------------------
 TIME.HHMMSS            00 000 000 000:  GT Time & Date
 GTDEPTH.m              00 000 000 000:  GT Depth
 GTPQH.psia             00 000 000 000:  GT HR Quartz Pressure
 GTTQ.degC              00 000 000 000:  GT Quartz Temperature
 GTTN.NONE              00 000 000 000:  GT Test Number
 GTET.sec               00 000 000 000:  GT Elapsed Test Time
 GTTVD.m                00 000 000 000:  GT True Vertical Depth
#Other Information
#
#WARRANTY: Halliburton will use its best efforts to furnish customers with 
#accurate information and interpretations that are part of, and incident to, the services 
#provided.  However, Halliburton cannot and does not warrant the accuracy 
#or correctness of such information and interpretations.  Under no circumstances should any 
#such information or interpretation be relied upon as the sole basis for any drilling, 
#completion, production, or financial decision or any procedure involving any risk to the 
#safety of any drilling venture, drilling rig or its crew or any other third party.  The 
#Customer has full responsibility for all drilling, completion and production operation.  
#Halliburton makes no representations or warranties, either expressed or 
#implied, including, but not limited to, the implied warranties of merchantability or fitness 
#for a particular purpose, with respect to the services rendered.  In no event will 
#Halliburton be liable for failure to obtain any particular results or for 
#any damages, including, but not limited to, indirect, special or consequential damages, 
#resulting from the use of any information or interpretation provided by Halliburton.
#
~A           TIME           GTDEPTH  GTPQH  GTTQ  GTTN  GTET   GTTVD  
# ...
   00:44:05.753.27-Apr-2021 3226.01 4247.99 71.78 2.00 138.03 2651.33
   00:44:05.953.27-Apr-2021 3226.01 4247.99 71.78 2.00 138.23 2651.33
   00:44:06.153.27-Apr-2021 3226.01 4248.09 71.78 2.00 138.43 2651.33
   00:44:06.353.27-Apr-2021 3226.01 4247.68 71.78 2.00 138.63 2651.33
   00:44:06.553.27-Apr-2021 3226.01 4247.61 71.78 2.00 138.83 2651.33
   00:44:06.753.27-Apr-2021 3226.01 4248.23 71.78 2.00 139.03 2651.33
   00:44:06.953.27-Apr-2021 3226.01 4248.23 71.78 2.00 139.23 2651.33
   00:44:07.153.27-Apr-2021 3226.01 4247.76 71.77 2.00 139.43 2651.33
   00:44:07.353.27-Apr-2021 3226.01 4247.16 71.77 2.00 139.63 2651.33
   00:44:07.553.27-Apr-2021 3226.01 4247.93 71.77 2.00 139.83 2651.33
   00:44:07.753.27-Apr-2021 3226.01 4247.91 71.77 2.00 140.03 2651.33
   00:44:07.954.27-Apr-2021 3226.01 4247.91 71.77 2.00 140.23 2651.33
   00:44:08.154.27-Apr-2021 3226.01 4247.80 71.77 2.00 140.43 2651.33
   00:44:08.354.27-Apr-2021 3226.01 4248.17 71.77 2.00 140.63 2651.33
   00:44:08.554.27-Apr-2021 3226.01 4248.05 71.77 2.00 140.83 2651.33
   00:44:08.754.27-Apr-2021 3226.01 4248.06 71.77 2.00 141.03 2651.33
   00:44:08.954.27-Apr-2021 3226.01 4248.06 71.77 2.00 141.23 2651.33
   00:44:09.154.27-Apr-2021 3226.01 4271.91 71.77 2.00 141.43 2651.33
   00:44:09.354.27-Apr-2021 3226.01 4272.27 71.77 2.00 141.63 2651.33
   00:44:09.554.27-Apr-2021 3226.01 4272.45 71.77 2.00 141.83 2651.33
   00:44:09.754.27-Apr-2021 3226.01 4272.67 71.77 2.00 142.03 2651.33
   00:44:09.954.27-Apr-2021 3226.01 4272.67 71.77 2.00 142.23 2651.33
   00:44:10.154.27-Apr-2021 3226.01 4272.85 71.77 2.00 142.43 2651.33
   00:44:10.354.27-Apr-2021 3226.01 4272.85 71.76 2.00 142.63 2651.33
   00:44:10.554.27-Apr-2021 3226.01 4273.00 71.76 2.00 142.83 2651.33
   00:44:10.754.27-Apr-2021 3226.01 4272.85 71.76 2.00 143.03 2651.33
   00:44:10.954.27-Apr-2021 3226.01 4272.85 71.76 2.00 143.23 2651.33
   00:44:11.154.27-Apr-2021 3226.01 4273.26 71.76 2.00 143.43 2651.33
   00:44:11.354.27-Apr-2021 3226.01 4273.32 71.76 2.00 143.63 2651.33
   00:44:11.554.27-Apr-2021 3226.01 4273.32 71.76 2.00 143.83 2651.33
   00:44:11.754.27-Apr-2021 3226.01 4273.37 71.76 2.00 144.03 2651.33
   00:44:11.954.27-Apr-2021 3226.01 4273.37 71.76 2.00 144.23 2651.33
   00:44:12.154.27-Apr-2021 3226.01 4273.36 71.76 2.00 144.43 2651.33
   00:44:12.354.27-Apr-2021 3226.01 4273.48 71.76 2.00 144.63 2651.33
   00:44:12.554.27-Apr-2021 3226.01 4273.46 71.76 2.00 144.83 2651.33
   00:44:12.754.27-Apr-2021 3226.01 4273.48 71.76 2.00 145.03 2651.33
   00:44:12.954.27-Apr-2021 3226.01 4273.48 71.76 2.00 145.23 2651.33
   00:44:13.155.27-Apr-2021 3226.01 4273.55 71.76 2.00 145.43 2651.33
   00:44:13.355.27-Apr-2021 3226.01 4273.52 71.76 2.00 145.63 2651.33
   00:44:13.555.27-Apr-2021 3226.01 4273.37 71.75 2.00 145.83 2651.33
   00:44:13.755.27-Apr-2021 3226.01 4273.61 71.75 2.00 146.03 2651.33
   00:44:13.955.27-Apr-2021 3226.01 4273.61 71.75 2.00 146.23 2651.33
   00:44:14.155.27-Apr-2021 3226.01 4273.67 71.75 2.00 146.43 2651.33
   00:44:14.355.27-Apr-2021 3226.01 4273.72 71.75 2.00 146.63 2651.33
   00:44:14.555.27-Apr-2021 3226.01 4273.57 71.75 2.00 146.83 2651.33
   00:44:14.755.27-Apr-2021 3226.01 4273.61 71.75 2.00 147.03 2651.33
   00:44:14.955.27-Apr-2021 3226.01 4273.61 71.75 2.00 147.23 2651.33
   00:44:15.155.27-Apr-2021 3226.01 4273.86 71.75 2.00 147.43 2651.33
   00:44:15.355.27-Apr-2021 3226.01 4273.73 71.75 2.00 147.63 2651.33
   00:44:15.555.27-Apr-2021 3226.01 4273.58 71.75 2.00 147.83 2651.33
   00:44:15.755.27-Apr-2021 3226.01 4273.77 71.75 2.00 148.03 2651.33
   00:44:15.955.27-Apr-2021 3226.01 4273.77 71.75 2.00 148.23 2651.33
   00:44:16.155.27-Apr-2021 3226.01 4273.86 71.75 2.00 148.43 2651.33
   00:44:16.355.27-Apr-2021 3226.01 4273.83 71.75 2.00 148.63 2651.33
   00:44:16.555.27-Apr-2021 3226.01 4273.59 71.75 2.00 148.83 2651.33
   00:44:16.755.27-Apr-2021 3226.01 4273.82 71.75 2.00 149.03 2651.33
   00:44:16.955.27-Apr-2021 3226.01 4273.82 71.75 2.00 149.23 2651.33
   00:44:17.155.27-Apr-2021 3226.01 4273.91 71.74 2.00 149.43 2651.33
   00:44:17.355.27-Apr-2021 3226.01 4273.87 71.74 2.00 149.63 2651.33
   00:44:17.555.27-Apr-2021 3226.01 4273.86 71.74 2.00 149.83 2651.33
   00:44:17.755.27-Apr-2021 3226.01 4273.86 71.74 2.00 150.03 2651.33
   00:44:17.955.27-Apr-2021 3226.01 4273.86 71.74 2.00 150.23 2651.33
   00:44:18.156.27-Apr-2021 3226.01 4273.92 71.74 2.00 150.43 2651.33
   00:44:18.356.27-Apr-2021 3226.01 4273.84 71.74 2.00 150.63 2651.33
   00:44:18.556.27-Apr-2021 3226.01 4273.88 71.74 2.00 150.83 2651.33
   00:44:18.756.27-Apr-2021 3226.01 4273.81 71.74 2.00 151.03 2651.33
   00:44:18.956.27-Apr-2021 3226.01 4273.81 71.74 2.00 151.23 2651.33
   00:44:19.156.27-Apr-2021 3226.01 4273.64 71.74 2.00 151.43 2651.33
   00:44:19.356.27-Apr-2021 3226.01 4273.89 71.74 2.00 151.63 2651.33
   00:44:19.556.27-Apr-2021 3226.01 4273.89 71.74 2.00 151.83 2651.33
   00:44:19.756.27-Apr-2021 3226.01 4273.95 71.74 2.00 152.03 2651.33
   00:44:19.956.27-Apr-2021 3226.01 4273.95 71.74 2.00 152.23 2651.33
   00:44:20.156.27-Apr-2021 3226.01 4273.89 71.74 2.00 152.43 2651.33
   00:44:20.356.27-Apr-2021 3226.01 4273.90 71.74 2.00 152.63 2651.33
   00:44:20.556.27-Apr-2021 3226.01 4273.99 71.73 2.00 152.83 2651.33
   00:44:20.756.27-Apr-2021 3226.01 4273.95 71.73 2.00 153.03 2651.33
   00:44:20.956.27-Apr-2021 3226.01 4273.95 71.73 2.00 153.23 2651.33
   00:44:21.156.27-Apr-2021 3226.01 4273.91 71.73 2.00 153.43 2651.33
   00:44:21.356.27-Apr-2021 3226.01 4273.96 71.73 2.00 153.63 2651.33
   00:44:21.556.27-Apr-2021 3226.01 4273.94 71.73 2.00 153.83 2651.33
   00:44:21.756.27-Apr-2021 3226.01 4273.95 71.73 2.00 154.03 2651.33
   00:44:21.956.27-Apr-2021 3226.01 4273.95 71.73 2.00 154.23 2651.33
   00:44:22.156.27-Apr-2021 3226.01 4273.97 71.73 2.00 154.43 2651.33
   00:44:22.356.27-Apr-2021 3226.01 4274.04 71.73 2.00 154.63 2651.33
   00:44:22.556.27-Apr-2021 3226.01 4274.01 71.73 2.00 154.83 2651.33
   00:44:22.756.27-Apr-2021 3226.01 4274.02 71.73 2.00 155.03 2651.33
   00:44:22.956.27-Apr-2021 3226.01 4274.02 71.73 2.00 155.23 2651.33
   00:44:23.157.27-Apr-2021 3226.01 4273.76 71.73 2.00 155.43 2651.33
   00:44:23.357.27-Apr-2021 3226.01 4274.04 71.73 2.00 155.63 2651.33
   00:44:23.557.27-Apr-2021 3226.01 4274.14 71.73 2.00 155.83 2651.33
   00:44:23.757.27-Apr-2021 3226.01 4274.03 71.73 2.00 156.03 2651.33
   00:44:23.957.27-Apr-2021 3226.01 4274.03 71.73 2.00 156.23 2651.33
   00:44:24.157.27-Apr-2021 3226.01 4273.87 71.72 2.00 156.43 2651.33
   00:44:24.357.27-Apr-2021 3226.01 4274.08 71.72 2.00 156.63 2651.33
   00:44:24.557.27-Apr-2021 3226.01 4274.06 71.72 2.00 156.83 2651.33
   00:44:24.757.27-Apr-2021 3226.01 4273.99 71.72 2.00 157.03 2651.33
   00:44:24.957.27-Apr-2021 3226.01 4273.99 71.72 2.00 157.23 2651.33
   00:44:25.157.27-Apr-2021 3226.01 4274.11 71.72 2.00 157.43 2651.33
   00:44:25.357.27-Apr-2021 3226.01 4274.04 71.72 2.00 157.63 2651.33
   00:44:25.557.27-Apr-2021 3226.01 4274.15 71.72 2.00 157.83 2651.33
   00:44:25.757.27-Apr-2021 3226.01 4274.07 71.72 2.00 158.03 2651.33
   00:44:25.957.27-Apr-2021 3226.01 4274.07 71.72 2.00 158.23 2651.33
   00:44:26.157.27-Apr-2021 3226.01 4274.04 71.72 2.00 158.43 2651.33
   00:44:26.357.27-Apr-2021 3226.01 4274.11 71.72 2.00 158.63 2651.33
   00:44:26.557.27-Apr-2021 3226.01 4274.07 71.72 2.00 158.83 2651.33
   00:44:26.757.27-Apr-2021 3226.01 4274.05 71.72 2.00 159.03 2651.33
   00:44:26.957.27-Apr-2021 3226.01 4274.05 71.72 2.00 159.23 2651.33
   00:44:27.157.27-Apr-2021 3226.01 4274.03 71.72 2.00 159.43 2651.33
   00:44:27.357.27-Apr-2021 3226.01 4273.95 71.71 2.00 159.63 2651.33
   00:44:27.557.27-Apr-2021 3226.01 4273.90 71.71 2.00 159.83 2651.33
   00:44:27.757.27-Apr-2021 3226.01 4274.09 71.71 2.00 160.03 2651.33
   00:44:27.957.27-Apr-2021 3226.01 4274.09 71.71 2.00 160.23 2651.33
   00:44:28.158.27-Apr-2021 3226.01 4274.08 71.71 2.00 160.43 2651.33
   00:44:28.358.27-Apr-2021 3226.01 4274.06 71.71 2.00 160.63 2651.33
   00:44:28.558.27-Apr-2021 3226.01 4274.08 71.71 2.00 160.83 2651.33
