~Version Information
 VERS.                  2.0:   CWLS log ASCII Standard -VERSION 2.0
 WRAP.                   NO:   One line per depth step
~Well Information Block
#MNEM.UNIT     VALUE/NAME     DESCRIPTION
#---------     -----------    ---------------------------
 STRT.S             15:37:44 28-Apr-21: START TIME 15:37:44 28-Apr-21
 STOP.S             15:44:12 28-Apr-21: STOP TIME  15:44:12 28-Apr-21
 STEP.S                   0.00: STEP TIME
 NULL.                 -999.25: NULL VALUE
 DFWT.                        :  DIST FWL TEXT
 DFST.                        :  DIST FSL TEXT
 DMF .             Drill Floor:  DRILL MEAS FROM
 STIM.      02.00.00 12-Apr-21:  START TIME
 DATE.      02.00.00 02-May-21:  END TIME
 SPUD.               09-Apr-21:  SPUD DATE
 NREF.                    Grid:  NORTH REFERENCE
 HPTY.       Minimum Curvature:  HOLE POS TYPE
 DMOD.             Drill Model:  DRILL MOD DESC
 SVYD.                  Survey:  SURVEY DESC
 ILTD.               Lithology:  INTERP LTH DESC
 FTOP.          Formation Tops:  FORM TOPS DESC
 PDAT.          Mean Sea Level:  PERMANENT DATUM
 FLD .                     ACG:  FIELD NAME
 SON .        AZ-XX-0907021034:  JOB NUMBER
 CTRY.              Azerbaijan:  COUNTRY NAME
 WELL.                    E01x:  WELL NAME
 COMP.     BP Exploration (Caspian Sea) LTD.:  COMPANY
 UWI .            /AZE00001403:  UNIQUE WELL IDENTIFIER
 API .            /AZE00001403:  API NUMBER
 WTYP.                Deviated:  WELL TYPE
 MDS .        Operator Entered:  MAG DATA SOURCE
 BASE.              Azerbaijan:  LOGGING EQUIPMENT BASE LOCATION
 REGN.                   EESSA:  REGION
 PROV.                    Baku:  PROVINCE
 STAT.                    Baku:  STATE NAME
 SRVC.          Turan Drilling:  CONTRACTOR
 MWDS.                    Baku:  MWD SHOP
 JOBN.        AZ-XX-0907021034:  JOB TICKET NUMB
 RIG .                     DWG:  RIG NAME
 DOE .                     N/A:  DOE NUMBER
 DCON.         Sperry Drilling:  DIRECTNL CONTR
 UNIT.                     N/A:  LOGGING EQUIPMENT ID
 CNTY.                        :  COUNTY
 LOC .                        :  LOCATION
 LMF .             Drill Floor:  LOG MEASURED FROM
 TVDS.m                  43.16:  TVDSS CORRECTN
 LATI.deg                40.17:  LATITUDE
 LONG.deg                51.17:  LONGITUDE
 WHNS.m                  -5.90:  WELL HEAD N/S
 WHEW.m                  -6.61:  WELL HEAD E/W
 UTMX.m              514337.95:  UTM X
 UTMY.m             4448627.46:  UTM Y
 DFWL.m                   0.00:  DISTANCE FWL
 DFSL.m                   0.00:  DISTANCE FSL
 SDEP.m                2606.87:  START DEPTH
 TDD .m                3618.01:  TOTAL DEPTH (DRILLER)
 VSDR.deg               177.42:  VERT SEC DIRECT
 GVFD.g                   1.00:  GRAVITY FIELD
 MFLD.nT              50399.00:  MAGNETIC FIELD
 MDIP.deg                59.67:  MAGNETIC DIP
 MDEC.deg                 6.56:  MAGNETIC DECL
 GRDC.deg                 0.11:  GRID CORRECTION
 AZTC.deg                 6.45:  AZM TOTAL CORR
 EPD .m                   0.00:  ELEVATION
 EGL .m                   0.00:  GROUND ELEVATION
 WDMS.m                 176.20:  WD ELEV
 APD .m                  43.16:  DEPTH ABOVE PD
 DEP .m                2606.87:  DEPTH
 AGAP.m                  43.16:  AIR GAP
 VSEW.m                  -6.61:  VERT SEC E/W
 VSNS.m                  -5.90:  VERT SEC N/S
 EKB .m                  43.16:  KB ELEVATION
 EDF .m                  43.16:  DF ELEVATION
 TDL .m                 438.00:  TOTAL DEPTH (LOGGER)
 VSC .                       0:  VS TO CLOSURE
 MAGU.                 1855490:  MAGUTM CHECKSUM
~Parameter Information Block
#MNEM.UNIT       Value        Description
#---------     -----------    ---------------------------
 AV  .mps                 2.20:  Ann Velocity 
 AVMX.mps                 2.50:  Max Ann Veloc 
 AZIF.deg               150.21:  Azm, Final 
 BHAT.        Rotary Steerable:  BHA Type 
 BROT.°/30m               0.08:  Build Rotating 
 BS  .in                  6.50:  Bit Size 
 BSZ .in                  6.50:  Bit Size 
 BTPL.psig              108.00:  Bit Press Loss 
 CABU.                     Yes:  Customer Abuse 
 CGEO.           Emin Aliyarli:  Customer Geo 
 COMM.                     ôŸZ:  Run Comments 1 
 TCS .hr                 74.20:  Time Ciculation Ended 
 CV  .mps                 3.63:  Crit Velocity 
 CVMX.mps                 3.66:  Max Crit Veloc 
 DD1 .         Intigam Rahimov:  Direct Drillr 1 
 DD2 .          Teymur Aghayev:  Direct Drillr 2 
 DDSV.               Geo-Pilot:  DD Service 
 DEFF.%                  97.00:  % Det Eff 
 DLRX.°/30m               1.63:  Dogleg Rot Max 
 DLSO.°/30m               0.00:  Dogleg Oriented 
 DLSX.°/30m               0.00:  Dogleg Str Max 
 DRET.      20.20.00 28-Apr-21:  Drill End Time 
 DRST.      04.45.00 26-Apr-21:  Drill Start Tim 
 DTIM.hr                 34.30:  Time Drilling 
 EDEP.m                3618.01:  End Depth 
 ENG1.           Amrah Tahirov:  Engineer 1 
 ENG2.         Bahruz Mehdiyev:  Engineer 2 
 ENG3.         Farhad Orujzade:  Engineer 3 
 ETIM.      19.00.00 29-Apr-21:  End Time 
 FLOI.gpm               370.00:  Flow In 
 FLON.gpm               300.00:  Flow In Min 
 FLOS.cptm                0.00:  Fluid Loss 
 FLOX.gpm               410.00:  Flow In Max 
 HFLO.                      No:  High Flow 
 HPRE.                      No:  High Pressure 
 HTEM.                      No:  High Temp 
 HYDO.m                   1.80:  Hydro Offset 
 IFIN.deg                67.19:  Inc, Final 
 IMAX.deg                68.42:  Inc Max 
 IMIN.deg                66.33:  Inc Min 
 IMND.m                3532.79:  Inc Min Depth 
 IMXD.m                3192.15:  Inc Max Depth 
 JARR.                      No:  Jarring 
 LETM.      20.20.00 28-Apr-21:  Log End Time 
 LOST.hr                     0:  Lost Rig Time 
 LSTM.      04.45.00 26-Apr-21:  Log Start Time 
 MDCL.ppm             36500.00:  Mud Chlorides 
 MDES.     Inversion Oil/Synthetic:  Mud Desc 
 DFD .sg                  1.42:  Mud Density 
 MDMN.sg                  1.42:  Dens Mud Min 
 MDMX.sg                  1.42:  Dens Mud Max 
 MOIL.                    55.7:  Run Mud Oil % 
 MOWR.                   71:29:  Run Mud OWR 
 MSND.                     0.1:  Run Mud Sand % 
 MSOL.                    19.9:  Run Mud Solids% 
 DFV .spqt               83.00:  Mud Viscosity 
 MWOD.in                  5.15:  MWD Tool OD 
 MWSI.                      No:  Serv Intrp, MWD 
 OTIM.hr                120.59:  Time Operating 
 PCON.           Look Like New:  Pad Condition 
 PMAX.psia            11292.93:  Press Op, Max 
 PV  .cP                 27.00:  Mud PV 
 RUN .                     400:  Run Number 
 ROPA.m/hr               14.00:  ROP Avg 
 ROPN.m/hr                9.00:  ROP Min 
 ROPX.m/hr               18.00:  ROP Max 
 RPMA.rpm               130.00:  RPM Surface Avg 
 RPMN.rpm               100.00:  RPM Surface Min 
 RPMX.rpm               140.00:  RPM Surface Max 
 RRUN.                    0400:  Rig Run Number 
 RTIM.hr                 38.60:  Time Reaming 
 SAZI.deg               149.55:  Azm, Start 
 SDEP.m                3180.01:  Start Depth 
 SIDD.                      No:  Serv Intrp, DD 
 SINC.deg                68.42:  Inc, Start 
 SPPA.psig             4400.00:  SPP Avg 
 SPPN.psig             3580.00:  SPP Min 
 SPPX.psig             4850.00:  SPP Max 
 STIM.      12.30.00 24-Apr-21:  Start Time 
 SVCS.                 DD, MWD:  Services 
 SVER.                    9.20:  Sperry Version 
 TDAT.m                 438.00:  Tot Depth Attmp 
 TDDF.                      No:  Trip for DD 
 TDLG.m                 438.00:  Tot Depth Loggd 
 TFF .                      No:  Trip for Fail 
 TQAA.f-kp               11.00:  Torque Abs Avg 
 TQAN.f-kp                9.00:  Torque Abs Min 
 TQAX.f-kp               14.00:  Torque Abs Max 
 TRRT.°/30m               0.04:  Turn Rotating 
 MRT .                    HCIM:  Maximum Recorded Temperature 
 TTMX.degC               84.31:  Max Tool Temp 
 VS01.                90521954:  Virtual Str1 SN 
 VS02.                90519327:  Virtual Str2 SN 
 VS03.                90522273:  Virtual Str3 SN 
 VS04.                11108038:  Virtual Str4 SN 
 VS05.                12258760:  Virtual Str5 SN 
 WBMN.klb                 1.00:  WOB Min 
 WITN.           Adil Mammadov:  Customer Rep 
 WITN.         Alex Yadullayev:  Customer Rep 2 
 WOBA.klb                 6.00:  WOB Avg 
 WOBX.klb                 9.00:  WOB Max 
 YP  .lhf2               31.00:  Yield Point 
~Curve Information Block
#MNEM.UNIT                 API CODE     Curve Description
#---------               -----------    ---------------------------
 TIME.HHMMSS            00 000 000 000:  GT Time & Date
 GTDEPTH.m              00 000 000 000:  GT Depth
 GTPQH.psia             00 000 000 000:  GT HR Quartz Pressure
 GTTQ.degC              00 000 000 000:  GT Quartz Temperature
 GTTN.NONE              00 000 000 000:  GT Test Number
 GTET.sec               00 000 000 000:  GT Elapsed Test Time
 GTTVD.m                00 000 000 000:  GT True Vertical Depth
#Other Information
#
#WARRANTY: Halliburton will use its best efforts to furnish customers with 
#accurate information and interpretations that are part of, and incident to, the services 
#provided.  However, Halliburton cannot and does not warrant the accuracy 
#or correctness of such information and interpretations.  Under no circumstances should any 
#such information or interpretation be relied upon as the sole basis for any drilling, 
#completion, production, or financial decision or any procedure involving any risk to the 
#safety of any drilling venture, drilling rig or its crew or any other third party.  The 
#Customer has full responsibility for all drilling, completion and production operation.  
#Halliburton makes no representations or warranties, either expressed or 
#implied, including, but not limited to, the implied warranties of merchantability or fitness 
#for a particular purpose, with respect to the services rendered.  In no event will 
#Halliburton be liable for failure to obtain any particular results or for 
#any damages, including, but not limited to, indirect, special or consequential damages, 
#resulting from the use of any information or interpretation provided by Halliburton.
#
~A           TIME           GTDEPTH  GTPQH  GTTQ  GTTN   GTET   GTTVD  
# ...
   15:41:30.400.28-Apr-2021 3537.51 4281.29 74.52 10.00 226.09 2773.98
   15:41:30.600.28-Apr-2021 3537.51 4281.29 74.52 10.00 226.29 2773.98
   15:41:30.801.28-Apr-2021 3537.51 4281.19 74.52 10.00 226.49 2773.98
   15:41:31.001.28-Apr-2021 3537.51 4281.13 74.52 10.00 226.69 2773.98
   15:41:31.201.28-Apr-2021 3537.51 4281.03 74.52 10.00 226.89 2773.98
   15:41:31.401.28-Apr-2021 3537.51 4281.31 74.51 10.00 227.09 2773.98
   15:41:31.601.28-Apr-2021 3537.51 4281.31 74.51 10.00 227.29 2773.98
   15:41:31.801.28-Apr-2021 3537.51 4281.20 74.51 10.00 227.49 2773.98
   15:41:32.001.28-Apr-2021 3537.51 4281.15 74.51 10.00 227.69 2773.98
   15:41:32.201.28-Apr-2021 3537.51 4281.18 74.51 10.00 227.89 2773.98
   15:41:32.401.28-Apr-2021 3537.51 4281.18 74.51 10.00 228.09 2773.98
   15:41:32.601.28-Apr-2021 3537.51 4281.18 74.51 10.00 228.29 2773.98
   15:41:32.801.28-Apr-2021 3537.51 4281.18 74.51 10.00 228.49 2773.98
   15:41:33.001.28-Apr-2021 3537.51 4281.15 74.51 10.00 228.69 2773.98
   15:41:33.201.28-Apr-2021 3537.51 4281.18 74.51 10.00 228.89 2773.98
   15:41:33.402.28-Apr-2021 3537.51 4281.16 74.51 10.00 229.09 2773.98
   15:41:33.602.28-Apr-2021 3537.51 4281.16 74.51 10.00 229.29 2773.98
   15:41:33.802.28-Apr-2021 3537.51 4281.01 74.51 10.00 229.49 2773.98
   15:41:34.002.28-Apr-2021 3537.51 4281.22 74.51 10.00 229.69 2773.98
   15:41:34.202.28-Apr-2021 3537.51 4281.18 74.51 10.00 229.89 2773.98
   15:41:34.402.28-Apr-2021 3537.51 4281.18 74.51 10.00 230.09 2773.98
   15:41:34.602.28-Apr-2021 3537.51 4281.18 74.51 10.00 230.29 2773.98
   15:41:34.802.28-Apr-2021 3537.51 4281.10 74.51 10.00 230.49 2773.98
   15:41:35.002.28-Apr-2021 3537.51 4281.20 74.51 10.00 230.69 2773.98
   15:41:35.202.28-Apr-2021 3537.51 4281.15 74.50 10.00 230.89 2773.98
   15:41:35.402.28-Apr-2021 3537.51 4281.17 74.50 10.00 231.09 2773.98
   15:41:35.602.28-Apr-2021 3537.51 4281.17 74.50 10.00 231.29 2773.98
   15:41:35.802.28-Apr-2021 3537.51 4281.14 74.50 10.00 231.49 2773.98
   15:41:36.003.28-Apr-2021 3537.51 4281.18 74.50 10.00 231.69 2773.98
   15:41:36.203.28-Apr-2021 3537.51 4281.13 74.50 10.00 231.89 2773.98
   15:41:36.403.28-Apr-2021 3537.51 4281.18 74.50 10.00 232.09 2773.98
   15:41:36.603.28-Apr-2021 3537.51 4281.18 74.50 10.00 232.29 2773.98
   15:41:36.803.28-Apr-2021 3537.51 4281.29 74.50 10.00 232.49 2773.98
   15:41:37.003.28-Apr-2021 3537.51 4281.18 74.50 10.00 232.69 2773.98
   15:41:37.203.28-Apr-2021 3537.51 4281.16 74.50 10.00 232.89 2773.98
   15:41:37.403.28-Apr-2021 3537.51 4281.18 74.50 10.00 233.09 2773.98
   15:41:37.603.28-Apr-2021 3537.51 4281.18 74.50 10.00 233.29 2773.98
   15:41:37.803.28-Apr-2021 3537.51 4281.14 74.50 10.00 233.49 2773.98
   15:41:38.003.28-Apr-2021 3537.51 4281.13 74.50 10.00 233.69 2773.98
   15:41:38.203.28-Apr-2021 3537.51 4281.20 74.50 10.00 233.89 2773.98
   15:41:38.403.28-Apr-2021 3537.51 4281.19 74.50 10.00 234.09 2773.98
   15:41:38.604.28-Apr-2021 3537.51 4281.19 74.50 10.00 234.29 2773.98
   15:41:38.804.28-Apr-2021 3537.51 4280.92 74.50 10.00 234.49 2773.98
   15:41:39.004.28-Apr-2021 3537.51 4281.33 74.49 10.00 234.69 2773.98
   15:41:39.204.28-Apr-2021 3537.51 4281.22 74.49 10.00 234.89 2773.98
   15:41:39.404.28-Apr-2021 3537.51 4281.13 74.49 10.00 235.09 2773.98
   15:41:39.604.28-Apr-2021 3537.51 4281.13 74.49 10.00 235.29 2773.98
   15:41:39.804.28-Apr-2021 3537.51 4281.07 74.49 10.00 235.49 2773.98
   15:41:40.004.28-Apr-2021 3537.51 4281.14 74.49 10.00 235.69 2773.98
   15:41:40.204.28-Apr-2021 3537.51 4281.22 74.49 10.00 235.89 2773.98
   15:41:40.404.28-Apr-2021 3537.51 4281.20 74.49 10.00 236.09 2773.98
   15:41:40.604.28-Apr-2021 3537.51 4281.20 74.49 10.00 236.29 2773.98
   15:41:40.804.28-Apr-2021 3537.51 4281.10 74.49 10.00 236.49 2773.98
   15:41:41.004.28-Apr-2021 3537.51 4281.20 74.49 10.00 236.69 2773.98
   15:41:41.205.28-Apr-2021 3537.51 4281.17 74.49 10.00 236.89 2773.98
   15:41:41.405.28-Apr-2021 3537.51 4281.16 74.49 10.00 237.09 2773.98
   15:41:41.605.28-Apr-2021 3537.51 4281.16 74.49 10.00 237.29 2773.98
   15:41:41.805.28-Apr-2021 3537.51 4281.13 74.49 10.00 237.49 2773.98
   15:41:42.005.28-Apr-2021 3537.51 4281.20 74.49 10.00 237.69 2773.98
   15:41:42.205.28-Apr-2021 3537.51 4271.61 74.49 10.00 237.89 2773.98
   15:41:42.405.28-Apr-2021 3537.51 4251.48 74.49 10.00 238.09 2773.98
   15:41:42.605.28-Apr-2021 3537.51 4251.48 74.49 10.00 238.29 2773.98
   15:41:42.805.28-Apr-2021 3537.51 4251.33 74.48 10.00 238.49 2773.98
   15:41:43.005.28-Apr-2021 3537.51 4251.06 74.48 10.00 238.69 2773.98
   15:41:43.205.28-Apr-2021 3537.51 4250.65 74.48 10.00 238.89 2773.98
   15:41:43.405.28-Apr-2021 3537.51 4250.54 74.48 10.00 239.09 2773.98
   15:41:43.605.28-Apr-2021 3537.51 4250.54 74.48 10.00 239.29 2773.98
   15:41:43.806.28-Apr-2021 3537.51 4250.76 74.48 10.00 239.49 2773.98
   15:41:44.006.28-Apr-2021 3537.51 4250.47 74.48 10.00 239.69 2773.98
   15:41:44.206.28-Apr-2021 3537.51 4250.41 74.48 10.00 239.89 2773.98
   15:41:44.406.28-Apr-2021 3537.51 4250.55 74.48 10.00 240.09 2773.98
   15:41:44.606.28-Apr-2021 3537.51 4250.55 74.48 10.00 240.29 2773.98
   15:41:44.806.28-Apr-2021 3537.51 4250.74 74.48 10.00 240.49 2773.98
   15:41:45.006.28-Apr-2021 3537.51 4250.52 74.48 10.00 240.69 2773.98
   15:41:45.206.28-Apr-2021 3537.51 4250.33 74.48 10.00 240.89 2773.98
   15:41:45.406.28-Apr-2021 3537.51 4250.13 74.48 10.00 241.09 2773.98
   15:41:45.606.28-Apr-2021 3537.51 4250.13 74.48 10.00 241.29 2773.98
   15:41:45.806.28-Apr-2021 3537.51 4250.96 74.48 10.00 241.49 2773.98
   15:41:46.006.28-Apr-2021 3537.51 4250.29 74.48 10.00 241.69 2773.98
   15:41:46.206.28-Apr-2021 3537.51 4250.41 74.48 10.00 241.89 2773.98
   15:41:46.407.28-Apr-2021 3537.51 4250.62 74.48 10.00 242.09 2773.98
   15:41:46.607.28-Apr-2021 3537.51 4250.62 74.48 10.00 242.29 2773.98
   15:41:46.807.28-Apr-2021 3537.51 4251.16 74.47 10.00 242.49 2773.98
   15:41:47.007.28-Apr-2021 3537.51 4250.64 74.47 10.00 242.69 2773.98
   15:41:47.207.28-Apr-2021 3537.51 4250.40 74.47 10.00 242.89 2773.98
   15:41:47.407.28-Apr-2021 3537.51 4250.02 74.47 10.00 243.09 2773.98
   15:41:47.607.28-Apr-2021 3537.51 4250.02 74.47 10.00 243.29 2773.98
   15:41:47.807.28-Apr-2021 3537.51 4250.65 74.47 10.00 243.49 2773.98
   15:41:48.007.28-Apr-2021 3537.51 4250.61 74.47 10.00 243.69 2773.98
   15:41:48.207.28-Apr-2021 3537.51 4250.32 74.47 10.00 243.89 2773.98
   15:41:48.407.28-Apr-2021 3537.51 4249.97 74.47 10.00 244.09 2773.98
   15:41:48.607.28-Apr-2021 3537.51 4249.97 74.47 10.00 244.29 2773.98
   15:41:48.807.28-Apr-2021 3537.51 4251.43 74.47 10.00 244.49 2773.98
   15:41:49.008.28-Apr-2021 3537.51 4251.05 74.47 10.00 244.69 2773.98
   15:41:49.208.28-Apr-2021 3537.51 4250.56 74.47 10.00 244.89 2773.98
   15:41:49.408.28-Apr-2021 3537.51 4250.29 74.47 10.00 245.09 2773.98
   15:41:49.608.28-Apr-2021 3537.51 4250.29 74.47 10.00 245.29 2773.98
   15:41:49.808.28-Apr-2021 3537.51 4250.42 74.47 10.00 245.49 2773.98
   15:41:50.008.28-Apr-2021 3537.51 4250.40 74.47 10.00 245.69 2773.98
   15:41:50.208.28-Apr-2021 3537.51 4250.07 74.46 10.00 245.89 2773.98
   15:41:50.408.28-Apr-2021 3537.51 4250.26 74.46 10.00 246.09 2773.98
   15:41:50.608.28-Apr-2021 3537.51 4250.26 74.46 10.00 246.29 2773.98
   15:41:50.808.28-Apr-2021 3537.51 4250.46 74.46 10.00 246.49 2773.98
   15:41:51.008.28-Apr-2021 3537.51 4250.57 74.46 10.00 246.69 2773.98
   15:41:51.208.28-Apr-2021 3537.51 4249.37 74.46 10.00 246.89 2773.98
   15:41:51.408.28-Apr-2021 3537.51 4251.21 74.46 10.00 247.09 2773.98
   15:41:51.609.28-Apr-2021 3537.51 4251.21 74.46 10.00 247.29 2773.98
   15:41:51.809.28-Apr-2021 3537.51 4250.83 74.46 10.00 247.49 2773.98
   15:41:52.009.28-Apr-2021 3537.51 4250.45 74.46 10.00 247.69 2773.98
   15:41:52.209.28-Apr-2021 3537.51 4250.48 74.46 10.00 247.89 2773.98
   15:41:52.409.28-Apr-2021 3537.51 4255.42 74.46 10.00 248.09 2773.98
   15:41:52.609.28-Apr-2021 3537.51 4255.42 74.46 10.00 248.29 2773.98
   15:41:52.809.28-Apr-2021 3537.51 4255.42 74.46 10.00 248.49 2773.98
