~Version Information
 VERS.                  2.0:   CWLS log ASCII Standard -VERSION 2.0
 WRAP.                   NO:   One line per depth step
~Well Information Block
#MNEM.UNIT     VALUE/NAME     DESCRIPTION
#---------     -----------    ---------------------------
 STRT.S             15:37:44 28-Apr-21: START TIME 15:37:44 28-Apr-21
 STOP.S             15:44:12 28-Apr-21: STOP TIME  15:44:12 28-Apr-21
 STEP.S                   0.00: STEP TIME
 NULL.                 -999.25: NULL VALUE
 DFWT.                        :  DIST FWL TEXT
 DFST.                        :  DIST FSL TEXT
 DMF .             Drill Floor:  DRILL MEAS FROM
 STIM.      02.00.00 12-Apr-21:  START TIME
 DATE.      02.00.00 02-May-21:  END TIME
 SPUD.               09-Apr-21:  SPUD DATE
 NREF.                    Grid:  NORTH REFERENCE
 HPTY.       Minimum Curvature:  HOLE POS TYPE
 DMOD.             Drill Model:  DRILL MOD DESC
 SVYD.                  Survey:  SURVEY DESC
 ILTD.               Lithology:  INTERP LTH DESC
 FTOP.          Formation Tops:  FORM TOPS DESC
 PDAT.          Mean Sea Level:  PERMANENT DATUM
 FLD .                     ACG:  FIELD NAME
 SON .        AZ-XX-0907021034:  JOB NUMBER
 CTRY.              Azerbaijan:  COUNTRY NAME
 WELL.                    E01x:  WELL NAME
 COMP.     BP Exploration (Caspian Sea) LTD.:  COMPANY
 UWI .            /AZE00001403:  UNIQUE WELL IDENTIFIER
 API .            /AZE00001403:  API NUMBER
 WTYP.                Deviated:  WELL TYPE
 MDS .        Operator Entered:  MAG DATA SOURCE
 BASE.              Azerbaijan:  LOGGING EQUIPMENT BASE LOCATION
 REGN.                   EESSA:  REGION
 PROV.                    Baku:  PROVINCE
 STAT.                    Baku:  STATE NAME
 SRVC.          Turan Drilling:  CONTRACTOR
 MWDS.                    Baku:  MWD SHOP
 JOBN.        AZ-XX-0907021034:  JOB TICKET NUMB
 RIG .                     DWG:  RIG NAME
 DOE .                     N/A:  DOE NUMBER
 DCON.         Sperry Drilling:  DIRECTNL CONTR
 UNIT.                     N/A:  LOGGING EQUIPMENT ID
 CNTY.                        :  COUNTY
 LOC .                        :  LOCATION
 LMF .             Drill Floor:  LOG MEASURED FROM
 TVDS.m                  43.16:  TVDSS CORRECTN
 LATI.deg                40.17:  LATITUDE
 LONG.deg                51.17:  LONGITUDE
 WHNS.m                  -5.90:  WELL HEAD N/S
 WHEW.m                  -6.61:  WELL HEAD E/W
 UTMX.m              514337.95:  UTM X
 UTMY.m             4448627.46:  UTM Y
 DFWL.m                   0.00:  DISTANCE FWL
 DFSL.m                   0.00:  DISTANCE FSL
 SDEP.m                2606.87:  START DEPTH
 TDD .m                3618.01:  TOTAL DEPTH (DRILLER)
 VSDR.deg               177.42:  VERT SEC DIRECT
 GVFD.g                   1.00:  GRAVITY FIELD
 MFLD.nT              50399.00:  MAGNETIC FIELD
 MDIP.deg                59.67:  MAGNETIC DIP
 MDEC.deg                 6.56:  MAGNETIC DECL
 GRDC.deg                 0.11:  GRID CORRECTION
 AZTC.deg                 6.45:  AZM TOTAL CORR
 EPD .m                   0.00:  ELEVATION
 EGL .m                   0.00:  GROUND ELEVATION
 WDMS.m                 176.20:  WD ELEV
 APD .m                  43.16:  DEPTH ABOVE PD
 DEP .m                2606.87:  DEPTH
 AGAP.m                  43.16:  AIR GAP
 VSEW.m                  -6.61:  VERT SEC E/W
 VSNS.m                  -5.90:  VERT SEC N/S
 EKB .m                  43.16:  KB ELEVATION
 EDF .m                  43.16:  DF ELEVATION
 TDL .m                 438.00:  TOTAL DEPTH (LOGGER)
 VSC .                       0:  VS TO CLOSURE
 MAGU.                 1855490:  MAGUTM CHECKSUM
~Parameter Information Block
#MNEM.UNIT       Value        Description
#---------     -----------    ---------------------------
 AV  .mps                 2.20:  Ann Velocity 
 AVMX.mps                 2.50:  Max Ann Veloc 
 AZIF.deg               150.21:  Azm, Final 
 BHAT.        Rotary Steerable:  BHA Type 
 BROT.°/30m               0.08:  Build Rotating 
 BS  .in                  6.50:  Bit Size 
 BSZ .in                  6.50:  Bit Size 
 BTPL.psig              108.00:  Bit Press Loss 
 CABU.                     Yes:  Customer Abuse 
 CGEO.           Emin Aliyarli:  Customer Geo 
 COMM.                     ôŸZ:  Run Comments 1 
 TCS .hr                 74.20:  Time Ciculation Ended 
 CV  .mps                 3.63:  Crit Velocity 
 CVMX.mps                 3.66:  Max Crit Veloc 
 DD1 .         Intigam Rahimov:  Direct Drillr 1 
 DD2 .          Teymur Aghayev:  Direct Drillr 2 
 DDSV.               Geo-Pilot:  DD Service 
 DEFF.%                  97.00:  % Det Eff 
 DLRX.°/30m               1.63:  Dogleg Rot Max 
 DLSO.°/30m               0.00:  Dogleg Oriented 
 DLSX.°/30m               0.00:  Dogleg Str Max 
 DRET.      20.20.00 28-Apr-21:  Drill End Time 
 DRST.      04.45.00 26-Apr-21:  Drill Start Tim 
 DTIM.hr                 34.30:  Time Drilling 
 EDEP.m                3618.01:  End Depth 
 ENG1.           Amrah Tahirov:  Engineer 1 
 ENG2.         Bahruz Mehdiyev:  Engineer 2 
 ENG3.         Farhad Orujzade:  Engineer 3 
 ETIM.      19.00.00 29-Apr-21:  End Time 
 FLOI.gpm               370.00:  Flow In 
 FLON.gpm               300.00:  Flow In Min 
 FLOS.cptm                0.00:  Fluid Loss 
 FLOX.gpm               410.00:  Flow In Max 
 HFLO.                      No:  High Flow 
 HPRE.                      No:  High Pressure 
 HTEM.                      No:  High Temp 
 HYDO.m                   1.80:  Hydro Offset 
 IFIN.deg                67.19:  Inc, Final 
 IMAX.deg                68.42:  Inc Max 
 IMIN.deg                66.33:  Inc Min 
 IMND.m                3532.79:  Inc Min Depth 
 IMXD.m                3192.15:  Inc Max Depth 
 JARR.                      No:  Jarring 
 LETM.      20.20.00 28-Apr-21:  Log End Time 
 LOST.hr                     0:  Lost Rig Time 
 LSTM.      04.45.00 26-Apr-21:  Log Start Time 
 MDCL.ppm             36500.00:  Mud Chlorides 
 MDES.     Inversion Oil/Synthetic:  Mud Desc 
 DFD .sg                  1.42:  Mud Density 
 MDMN.sg                  1.42:  Dens Mud Min 
 MDMX.sg                  1.42:  Dens Mud Max 
 MOIL.                    55.7:  Run Mud Oil % 
 MOWR.                   71:29:  Run Mud OWR 
 MSND.                     0.1:  Run Mud Sand % 
 MSOL.                    19.9:  Run Mud Solids% 
 DFV .spqt               83.00:  Mud Viscosity 
 MWOD.in                  5.15:  MWD Tool OD 
 MWSI.                      No:  Serv Intrp, MWD 
 OTIM.hr                120.59:  Time Operating 
 PCON.           Look Like New:  Pad Condition 
 PMAX.psia            11292.93:  Press Op, Max 
 PV  .cP                 27.00:  Mud PV 
 RUN .                     400:  Run Number 
 ROPA.m/hr               14.00:  ROP Avg 
 ROPN.m/hr                9.00:  ROP Min 
 ROPX.m/hr               18.00:  ROP Max 
 RPMA.rpm               130.00:  RPM Surface Avg 
 RPMN.rpm               100.00:  RPM Surface Min 
 RPMX.rpm               140.00:  RPM Surface Max 
 RRUN.                    0400:  Rig Run Number 
 RTIM.hr                 38.60:  Time Reaming 
 SAZI.deg               149.55:  Azm, Start 
 SDEP.m                3180.01:  Start Depth 
 SIDD.                      No:  Serv Intrp, DD 
 SINC.deg                68.42:  Inc, Start 
 SPPA.psig             4400.00:  SPP Avg 
 SPPN.psig             3580.00:  SPP Min 
 SPPX.psig             4850.00:  SPP Max 
 STIM.      12.30.00 24-Apr-21:  Start Time 
 SVCS.                 DD, MWD:  Services 
 SVER.                    9.20:  Sperry Version 
 TDAT.m                 438.00:  Tot Depth Attmp 
 TDDF.                      No:  Trip for DD 
 TDLG.m                 438.00:  Tot Depth Loggd 
 TFF .                      No:  Trip for Fail 
 TQAA.f-kp               11.00:  Torque Abs Avg 
 TQAN.f-kp                9.00:  Torque Abs Min 
 TQAX.f-kp               14.00:  Torque Abs Max 
 TRRT.°/30m               0.04:  Turn Rotating 
 MRT .                    HCIM:  Maximum Recorded Temperature 
 TTMX.degC               84.31:  Max Tool Temp 
 VS01.                90521954:  Virtual Str1 SN 
 VS02.                90519327:  Virtual Str2 SN 
 VS03.                90522273:  Virtual Str3 SN 
 VS04.                11108038:  Virtual Str4 SN 
 VS05.                12258760:  Virtual Str5 SN 
 WBMN.klb                 1.00:  WOB Min 
 WITN.           Adil Mammadov:  Customer Rep 
 WITN.         Alex Yadullayev:  Customer Rep 2 
 WOBA.klb                 6.00:  WOB Avg 
 WOBX.klb                 9.00:  WOB Max 
 YP  .lhf2               31.00:  Yield Point 
~Curve Information Block
#MNEM.UNIT                 API CODE     Curve Description
#---------               -----------    ---------------------------
 TIME.HHMMSS            00 000 000 000:  GT Time & Date
 GTDEPTH.m              00 000 000 000:  GT Depth
 GTPQH.psia             00 000 000 000:  GT HR Quartz Pressure
 GTTQ.degC              00 000 000 000:  GT Quartz Temperature
 GTTN.NONE              00 000 000 000:  GT Test Number
 GTET.sec               00 000 000 000:  GT Elapsed Test Time
 GTTVD.m                00 000 000 000:  GT True Vertical Depth
#Other Information
#
#WARRANTY: Halliburton will use its best efforts to furnish customers with 
#accurate information and interpretations that are part of, and incident to, the services 
#provided.  However, Halliburton cannot and does not warrant the accuracy 
#or correctness of such information and interpretations.  Under no circumstances should any 
#such information or interpretation be relied upon as the sole basis for any drilling, 
#completion, production, or financial decision or any procedure involving any risk to the 
#safety of any drilling venture, drilling rig or its crew or any other third party.  The 
#Customer has full responsibility for all drilling, completion and production operation.  
#Halliburton makes no representations or warranties, either expressed or 
#implied, including, but not limited to, the implied warranties of merchantability or fitness 
#for a particular purpose, with respect to the services rendered.  In no event will 
#Halliburton be liable for failure to obtain any particular results or for 
#any damages, including, but not limited to, indirect, special or consequential damages, 
#resulting from the use of any information or interpretation provided by Halliburton.
#
~A           TIME           GTDEPTH  GTPQH  GTTQ  GTTN   GTET   GTTVD  
# ...
   15:43:23.444.28-Apr-2021 3537.51 4281.05 74.22 10.00 339.13 2773.98
   15:43:23.644.28-Apr-2021 3537.51 4281.05 74.22 10.00 339.33 2773.98
   15:43:23.844.28-Apr-2021 3537.51 4280.89 74.22 10.00 339.53 2773.98
   15:43:24.044.28-Apr-2021 3537.51 4281.17 74.22 10.00 339.73 2773.98
   15:43:24.244.28-Apr-2021 3537.51 4281.08 74.22 10.00 339.93 2773.98
   15:43:24.444.28-Apr-2021 3537.51 4281.04 74.22 10.00 340.13 2773.98
   15:43:24.644.28-Apr-2021 3537.51 4281.04 74.22 10.00 340.33 2773.98
   15:43:24.844.28-Apr-2021 3537.51 4281.08 74.22 10.00 340.53 2773.98
   15:43:25.044.28-Apr-2021 3537.51 4281.06 74.22 10.00 340.73 2773.98
   15:43:25.244.28-Apr-2021 3537.51 4281.02 74.22 10.00 340.93 2773.98
   15:43:25.444.28-Apr-2021 3537.51 4281.04 74.22 10.00 341.13 2773.98
   15:43:25.644.28-Apr-2021 3537.51 4281.04 74.22 10.00 341.33 2773.98
   15:43:25.844.28-Apr-2021 3537.51 4281.06 74.22 10.00 341.53 2773.98
   15:43:26.045.28-Apr-2021 3537.51 4281.01 74.22 10.00 341.73 2773.98
   15:43:26.245.28-Apr-2021 3537.51 4281.02 74.21 10.00 341.93 2773.98
   15:43:26.445.28-Apr-2021 3537.51 4280.76 74.21 10.00 342.13 2773.98
   15:43:26.645.28-Apr-2021 3537.51 4280.76 74.21 10.00 342.33 2773.98
   15:43:26.845.28-Apr-2021 3537.51 4281.13 74.21 10.00 342.53 2773.98
   15:43:27.045.28-Apr-2021 3537.51 4281.03 74.21 10.00 342.73 2773.98
   15:43:27.245.28-Apr-2021 3537.51 4281.02 74.21 10.00 342.93 2773.98
   15:43:27.445.28-Apr-2021 3537.51 4281.01 74.21 10.00 343.13 2773.98
   15:43:27.645.28-Apr-2021 3537.51 4281.01 74.21 10.00 343.33 2773.98
   15:43:27.845.28-Apr-2021 3537.51 4281.03 74.21 10.00 343.53 2773.98
   15:43:28.045.28-Apr-2021 3537.51 4281.02 74.21 10.00 343.73 2773.98
   15:43:28.245.28-Apr-2021 3537.51 4281.04 74.21 10.00 343.93 2773.98
   15:43:28.445.28-Apr-2021 3537.51 4280.99 74.21 10.00 344.13 2773.98
   15:43:28.646.28-Apr-2021 3537.51 4280.99 74.21 10.00 344.33 2773.98
   15:43:28.846.28-Apr-2021 3537.51 4281.00 74.21 10.00 344.53 2773.98
   15:43:29.046.28-Apr-2021 3537.51 4280.99 74.21 10.00 344.73 2773.98
   15:43:29.246.28-Apr-2021 3537.51 4281.33 74.21 10.00 344.93 2773.98
   15:43:29.446.28-Apr-2021 3537.51 4282.79 74.21 10.00 345.13 2773.98
   15:43:29.646.28-Apr-2021 3537.51 4282.79 74.21 10.00 345.33 2773.98
   15:43:29.846.28-Apr-2021 3537.51 4482.29 74.21 10.00 345.53 2773.98
   15:43:30.046.28-Apr-2021 3537.51 5884.76 74.20 10.00 345.73 2773.98
   15:43:30.246.28-Apr-2021 3537.51 6075.51 74.20 10.00 345.93 2773.98
   15:43:30.446.28-Apr-2021 3537.51 6070.66 74.20 10.00 346.13 2773.98
   15:43:30.646.28-Apr-2021 3537.51 6070.66 74.20 10.00 346.33 2773.98
   15:43:30.846.28-Apr-2021 3537.51 6078.17 74.20 10.00 346.53 2773.98
   15:43:31.046.28-Apr-2021 3537.51 6079.81 74.20 10.00 346.73 2773.98
   15:43:31.247.28-Apr-2021 3537.51 6079.19 74.20 10.00 346.93 2773.98
   15:43:31.447.28-Apr-2021 3537.51 6067.22 74.20 10.00 347.13 2773.98
   15:43:31.647.28-Apr-2021 3537.51 6067.22 74.20 10.00 347.33 2773.98
   15:43:31.847.28-Apr-2021 3537.51 6083.14 74.20 10.00 347.53 2773.98
   15:43:32.047.28-Apr-2021 3537.51 6082.59 74.20 10.00 347.73 2773.98
   15:43:32.247.28-Apr-2021 3537.51 6077.19 74.20 10.00 347.93 2773.98
   15:43:32.447.28-Apr-2021 3537.51 6072.81 74.20 10.00 348.13 2773.98
   15:43:32.647.28-Apr-2021 3537.51 6072.81 74.20 10.00 348.33 2773.98
   15:43:32.847.28-Apr-2021 3537.51 6072.81 74.20 10.00 348.53 2773.98
   15:43:33.047.28-Apr-2021 3537.51 6084.05 74.20 10.00 348.73 2773.98
   15:43:33.247.28-Apr-2021 3537.51 6079.67 74.20 10.00 348.93 2773.98
   15:43:33.447.28-Apr-2021 3537.51 6078.89 74.20 10.00 349.13 2773.98
   15:43:33.647.28-Apr-2021 3537.51 6078.89 74.20 10.00 349.33 2773.98
   15:43:33.848.28-Apr-2021 3537.51 6085.38 74.20 10.00 349.53 2773.98
   15:43:34.048.28-Apr-2021 3537.51 6082.79 74.20 10.00 349.73 2773.98
   15:43:34.248.28-Apr-2021 3537.51 6082.03 74.20 10.00 349.93 2773.98
   15:43:34.448.28-Apr-2021 3537.51 6082.56 74.20 10.00 350.13 2773.98
   15:43:34.648.28-Apr-2021 3537.51 6082.56 74.20 10.00 350.33 2773.98
   15:43:34.848.28-Apr-2021 3537.51 6085.69 74.20 10.00 350.53 2773.98
   15:43:35.048.28-Apr-2021 3537.51 6078.04 74.20 10.00 350.73 2773.98
   15:43:35.248.28-Apr-2021 3537.51 6077.71 74.20 10.00 350.93 2773.98
   15:43:35.448.28-Apr-2021 3537.51 6080.52 74.20 10.00 351.13 2773.98
   15:43:35.648.28-Apr-2021 3537.51 6080.52 74.20 10.00 351.33 2773.98
   15:43:35.848.28-Apr-2021 3537.51 6084.65 74.20 10.00 351.53 2773.98
   15:43:36.048.28-Apr-2021 3537.51 6077.26 74.20 10.00 351.73 2773.98
   15:43:36.248.28-Apr-2021 3537.51 6082.54 74.20 10.00 351.93 2773.98
   15:43:36.449.28-Apr-2021 3537.51 6081.19 74.20 10.00 352.13 2773.98
   15:43:36.649.28-Apr-2021 3537.51 6081.19 74.20 10.00 352.33 2773.98
   15:43:36.849.28-Apr-2021 3537.51 6081.76 74.20 10.00 352.53 2773.98
   15:43:37.049.28-Apr-2021 3537.51 6082.34 74.20 10.00 352.73 2773.98
   15:43:37.249.28-Apr-2021 3537.51 6084.22 74.20 10.00 352.93 2773.98
   15:43:37.449.28-Apr-2021 3537.51 6083.16 74.20 10.00 353.13 2773.98
   15:43:37.649.28-Apr-2021 3537.51 6083.16 74.20 10.00 353.33 2773.98
   15:43:37.849.28-Apr-2021 3537.51 6074.18 74.20 10.00 353.53 2773.98
   15:43:38.049.28-Apr-2021 3537.51 6081.76 74.20 10.00 353.74 2773.98
   15:43:38.249.28-Apr-2021 3537.51 6083.03 74.20 10.00 353.94 2773.98
   15:43:38.449.28-Apr-2021 3537.51 6085.35 74.20 10.00 354.14 2773.98
   15:43:38.649.28-Apr-2021 3537.51 6085.35 74.20 10.00 354.34 2773.98
   15:43:38.849.28-Apr-2021 3537.51 6078.68 74.20 10.00 354.54 2773.98
   15:43:39.050.28-Apr-2021 3537.51 6084.30 74.20 10.00 354.74 2773.98
   15:43:39.250.28-Apr-2021 3537.51 6073.39 74.20 10.00 354.94 2773.98
   15:43:39.450.28-Apr-2021 3537.51 6084.79 74.20 10.00 355.14 2773.98
   15:43:39.650.28-Apr-2021 3537.51 6084.79 74.20 10.00 355.34 2773.98
   15:43:39.850.28-Apr-2021 3537.51 6083.38 74.20 10.00 355.54 2773.98
   15:43:40.050.28-Apr-2021 3537.51 6069.22 74.20 10.00 355.74 2773.98
   15:43:40.250.28-Apr-2021 3537.51 6084.40 74.20 10.00 355.94 2773.98
   15:43:40.450.28-Apr-2021 3537.51 6087.00 74.20 10.00 356.14 2773.98
   15:43:40.650.28-Apr-2021 3537.51 6087.00 74.20 10.00 356.34 2773.98
   15:43:40.850.28-Apr-2021 3537.51 6083.09 74.20 10.00 356.54 2773.98
   15:43:41.050.28-Apr-2021 3537.51 6077.16 74.20 10.00 356.74 2773.98
   15:43:41.250.28-Apr-2021 3537.51 6073.88 74.20 10.00 356.94 2773.98
   15:43:41.450.28-Apr-2021 3537.51 6083.70 74.20 10.00 357.14 2773.98
   15:43:41.651.28-Apr-2021 3537.51 6083.70 74.20 10.00 357.34 2773.98
   15:43:41.851.28-Apr-2021 3537.51 6083.43 74.20 10.00 357.54 2773.98
   15:43:42.051.28-Apr-2021 3537.51 6076.41 74.20 10.00 357.74 2773.98
   15:43:42.251.28-Apr-2021 3537.51 6083.81 74.20 10.00 357.94 2773.98
   15:43:42.451.28-Apr-2021 3537.51 6082.82 74.20 10.00 358.14 2773.98
   15:43:42.651.28-Apr-2021 3537.51 6082.82 74.20 10.00 358.34 2773.98
   15:43:42.851.28-Apr-2021 3537.51 6082.57 74.19 10.00 358.54 2773.98
   15:43:43.051.28-Apr-2021 3537.51 6081.05 74.19 10.00 358.74 2773.98
   15:43:43.251.28-Apr-2021 3537.51 6085.26 74.19 10.00 358.94 2773.98
   15:43:43.451.28-Apr-2021 3537.51 6083.47 74.19 10.00 359.14 2773.98
   15:43:43.651.28-Apr-2021 3537.51 6083.47 74.19 10.00 359.34 2773.98
   15:43:43.851.28-Apr-2021 3537.51 6069.90 74.19 10.00 359.54 2773.98
   15:43:44.051.28-Apr-2021 3537.51 6082.48 74.19 10.00 359.74 2773.98
   15:43:44.252.28-Apr-2021 3537.51 6084.27 74.19 10.00 359.94 2773.98
   15:43:44.452.28-Apr-2021 3537.51 6083.60 74.19 10.00 360.14 2773.98
   15:43:44.652.28-Apr-2021 3537.51 6083.60 74.19 10.00 360.34 2773.98
   15:43:44.852.28-Apr-2021 3537.51 6078.42 74.19 10.00 360.54 2773.98
   15:43:45.052.28-Apr-2021 3537.51 6083.18 74.19 10.00 360.74 2773.98
   15:43:45.252.28-Apr-2021 3537.51 6081.42 74.19 10.00 360.94 2773.98
   15:43:45.452.28-Apr-2021 3537.51 6083.24 74.19 10.00 361.14 2773.98
   15:43:45.652.28-Apr-2021 3537.51 6083.24 74.19 10.00 361.34 2773.98
   15:43:45.852.28-Apr-2021 3537.51 6081.75 74.19 10.00 361.54 2773.98
