~Version Information
 VERS.                  2.0:   CWLS log ASCII Standard -VERSION 2.0
 WRAP.                   NO:   One line per depth step
~Well Information Block
#MNEM.UNIT     VALUE/NAME     DESCRIPTION
#---------     -----------    ---------------------------
 STRT.S             13:09:03 28-Apr-21: START TIME 13:09:03 28-Apr-21
 STOP.S             13:15:31 28-Apr-21: STOP TIME  13:15:31 28-Apr-21
 STEP.S                   0.00: STEP TIME
 NULL.                 -999.25: NULL VALUE
 DFWT.                        :  DIST FWL TEXT
 DFST.                        :  DIST FSL TEXT
 DMF .             Drill Floor:  DRILL MEAS FROM
 STIM.      02.00.00 12-Apr-21:  START TIME
 DATE.      02.00.00 02-May-21:  END TIME
 SPUD.               09-Apr-21:  SPUD DATE
 NREF.                    Grid:  NORTH REFERENCE
 HPTY.       Minimum Curvature:  HOLE POS TYPE
 DMOD.             Drill Model:  DRILL MOD DESC
 SVYD.                  Survey:  SURVEY DESC
 ILTD.               Lithology:  INTERP LTH DESC
 FTOP.          Formation Tops:  FORM TOPS DESC
 PDAT.          Mean Sea Level:  PERMANENT DATUM
 FLD .                     ACG:  FIELD NAME
 SON .        AZ-XX-0907021034:  JOB NUMBER
 CTRY.              Azerbaijan:  COUNTRY NAME
 WELL.                    E01x:  WELL NAME
 COMP.     BP Exploration (Caspian Sea) LTD.:  COMPANY
 UWI .            /AZE00001403:  UNIQUE WELL IDENTIFIER
 API .            /AZE00001403:  API NUMBER
 WTYP.                Deviated:  WELL TYPE
 MDS .        Operator Entered:  MAG DATA SOURCE
 BASE.              Azerbaijan:  LOGGING EQUIPMENT BASE LOCATION
 REGN.                   EESSA:  REGION
 PROV.                    Baku:  PROVINCE
 STAT.                    Baku:  STATE NAME
 SRVC.          Turan Drilling:  CONTRACTOR
 MWDS.                    Baku:  MWD SHOP
 JOBN.        AZ-XX-0907021034:  JOB TICKET NUMB
 RIG .                     DWG:  RIG NAME
 DOE .                     N/A:  DOE NUMBER
 DCON.         Sperry Drilling:  DIRECTNL CONTR
 UNIT.                     N/A:  LOGGING EQUIPMENT ID
 CNTY.                        :  COUNTY
 LOC .                        :  LOCATION
 LMF .             Drill Floor:  LOG MEASURED FROM
 TVDS.m                  43.16:  TVDSS CORRECTN
 LATI.deg                40.17:  LATITUDE
 LONG.deg                51.17:  LONGITUDE
 WHNS.m                  -5.90:  WELL HEAD N/S
 WHEW.m                  -6.61:  WELL HEAD E/W
 UTMX.m              514337.95:  UTM X
 UTMY.m             4448627.46:  UTM Y
 DFWL.m                   0.00:  DISTANCE FWL
 DFSL.m                   0.00:  DISTANCE FSL
 SDEP.m                2606.87:  START DEPTH
 TDD .m                3618.01:  TOTAL DEPTH (DRILLER)
 VSDR.deg               177.42:  VERT SEC DIRECT
 GVFD.g                   1.00:  GRAVITY FIELD
 MFLD.nT              50399.00:  MAGNETIC FIELD
 MDIP.deg                59.67:  MAGNETIC DIP
 MDEC.deg                 6.56:  MAGNETIC DECL
 GRDC.deg                 0.11:  GRID CORRECTION
 AZTC.deg                 6.45:  AZM TOTAL CORR
 EPD .m                   0.00:  ELEVATION
 EGL .m                   0.00:  GROUND ELEVATION
 WDMS.m                 176.20:  WD ELEV
 APD .m                  43.16:  DEPTH ABOVE PD
 DEP .m                2606.87:  DEPTH
 AGAP.m                  43.16:  AIR GAP
 VSEW.m                  -6.61:  VERT SEC E/W
 VSNS.m                  -5.90:  VERT SEC N/S
 EKB .m                  43.16:  KB ELEVATION
 EDF .m                  43.16:  DF ELEVATION
 TDL .m                 438.00:  TOTAL DEPTH (LOGGER)
 VSC .                       0:  VS TO CLOSURE
 MAGU.                 1855490:  MAGUTM CHECKSUM
~Parameter Information Block
#MNEM.UNIT       Value        Description
#---------     -----------    ---------------------------
 AV  .mps                 2.20:  Ann Velocity 
 AVMX.mps                 2.50:  Max Ann Veloc 
 AZIF.deg               150.21:  Azm, Final 
 BHAT.        Rotary Steerable:  BHA Type 
 BROT.∞/30m               0.08:  Build Rotating 
 BS  .in                  6.50:  Bit Size 
 BSZ .in                  6.50:  Bit Size 
 BTPL.psig              108.00:  Bit Press Loss 
 CABU.                     Yes:  Customer Abuse 
 CGEO.           Emin Aliyarli:  Customer Geo 
 COMM.                     ‹Ïq:  Run Comments 1 
 TCS .hr                 74.20:  Time Ciculation Ended 
 CV  .mps                 3.63:  Crit Velocity 
 CVMX.mps                 3.66:  Max Crit Veloc 
 DD1 .         Intigam Rahimov:  Direct Drillr 1 
 DD2 .          Teymur Aghayev:  Direct Drillr 2 
 DDSV.               Geo-Pilot:  DD Service 
 DEFF.%                  97.00:  % Det Eff 
 DLRX.∞/30m               1.63:  Dogleg Rot Max 
 DLSO.∞/30m               0.00:  Dogleg Oriented 
 DLSX.∞/30m               0.00:  Dogleg Str Max 
 DRET.      20.20.00 28-Apr-21:  Drill End Time 
 DRST.      04.45.00 26-Apr-21:  Drill Start Tim 
 DTIM.hr                 34.30:  Time Drilling 
 EDEP.m                3618.01:  End Depth 
 ENG1.           Amrah Tahirov:  Engineer 1 
 ENG2.         Bahruz Mehdiyev:  Engineer 2 
 ENG3.         Farhad Orujzade:  Engineer 3 
 ETIM.      19.00.00 29-Apr-21:  End Time 
 FLOI.gpm               370.00:  Flow In 
 FLON.gpm               300.00:  Flow In Min 
 FLOS.cptm                0.00:  Fluid Loss 
 FLOX.gpm               410.00:  Flow In Max 
 HFLO.                      No:  High Flow 
 HPRE.                      No:  High Pressure 
 HTEM.                      No:  High Temp 
 HYDO.m                   1.80:  Hydro Offset 
 IFIN.deg                67.19:  Inc, Final 
 IMAX.deg                68.42:  Inc Max 
 IMIN.deg                66.33:  Inc Min 
 IMND.m                3532.79:  Inc Min Depth 
 IMXD.m                3192.15:  Inc Max Depth 
 JARR.                      No:  Jarring 
 LETM.      20.20.00 28-Apr-21:  Log End Time 
 LOST.hr                     0:  Lost Rig Time 
 LSTM.      04.45.00 26-Apr-21:  Log Start Time 
 MDCL.ppm             36500.00:  Mud Chlorides 
 MDES.     Inversion Oil/Synthetic:  Mud Desc 
 DFD .sg                  1.42:  Mud Density 
 MDMN.sg                  1.42:  Dens Mud Min 
 MDMX.sg                  1.42:  Dens Mud Max 
 MOIL.                    55.7:  Run Mud Oil % 
 MOWR.                   71:29:  Run Mud OWR 
 MSND.                     0.1:  Run Mud Sand % 
 MSOL.                    19.9:  Run Mud Solids% 
 DFV .spqt               83.00:  Mud Viscosity 
 MWOD.in                  5.15:  MWD Tool OD 
 MWSI.                      No:  Serv Intrp, MWD 
 OTIM.hr                120.59:  Time Operating 
 PCON.           Look Like New:  Pad Condition 
 PMAX.psia            11292.93:  Press Op, Max 
 PV  .cP                 27.00:  Mud PV 
 RUN .                     400:  Run Number 
 ROPA.m/hr               14.00:  ROP Avg 
 ROPN.m/hr                9.00:  ROP Min 
 ROPX.m/hr               18.00:  ROP Max 
 RPMA.rpm               130.00:  RPM Surface Avg 
 RPMN.rpm               100.00:  RPM Surface Min 
 RPMX.rpm               140.00:  RPM Surface Max 
 RRUN.                    0400:  Rig Run Number 
 RTIM.hr                 38.60:  Time Reaming 
 SAZI.deg               149.55:  Azm, Start 
 SDEP.m                3180.01:  Start Depth 
 SIDD.                      No:  Serv Intrp, DD 
 SINC.deg                68.42:  Inc, Start 
 SPPA.psig             4400.00:  SPP Avg 
 SPPN.psig             3580.00:  SPP Min 
 SPPX.psig             4850.00:  SPP Max 
 STIM.      12.30.00 24-Apr-21:  Start Time 
 SVCS.                 DD, MWD:  Services 
 SVER.                    9.20:  Sperry Version 
 TDAT.m                 438.00:  Tot Depth Attmp 
 TDDF.                      No:  Trip for DD 
 TDLG.m                 438.00:  Tot Depth Loggd 
 TFF .                      No:  Trip for Fail 
 TQAA.f-kp               11.00:  Torque Abs Avg 
 TQAN.f-kp                9.00:  Torque Abs Min 
 TQAX.f-kp               14.00:  Torque Abs Max 
 TRRT.∞/30m               0.04:  Turn Rotating 
 MRT .                    HCIM:  Maximum Recorded Temperature 
 TTMX.degC               84.31:  Max Tool Temp 
 VS01.                90521954:  Virtual Str1 SN 
 VS02.                90519327:  Virtual Str2 SN 
 VS03.                90522273:  Virtual Str3 SN 
 VS04.                11108038:  Virtual Str4 SN 
 VS05.                12258760:  Virtual Str5 SN 
 WBMN.klb                 1.00:  WOB Min 
 WITN.           Adil Mammadov:  Customer Rep 
 WITN.         Alex Yadullayev:  Customer Rep 2 
 WOBA.klb                 6.00:  WOB Avg 
 WOBX.klb                 9.00:  WOB Max 
 YP  .lhf2               31.00:  Yield Point 
~Curve Information Block
#MNEM.UNIT                 API CODE     Curve Description
#---------               -----------    ---------------------------
 TIME.HHMMSS            00 000 000 000:  GT Time & Date
 GTDEPTH.m              00 000 000 000:  GT Depth
 GTPQH.psia             00 000 000 000:  GT HR Quartz Pressure
 GTTQ.degC              00 000 000 000:  GT Quartz Temperature
 GTTN.NONE              00 000 000 000:  GT Test Number
 GTET.sec               00 000 000 000:  GT Elapsed Test Time
 GTTVD.m                00 000 000 000:  GT True Vertical Depth
#Other Information
#
#WARRANTY: Halliburton will use its best efforts to furnish customers with 
#accurate information and interpretations that are part of, and incident to, the services 
#provided.  However, Halliburton cannot and does not warrant the accuracy 
#or correctness of such information and interpretations.  Under no circumstances should any 
#such information or interpretation be relied upon as the sole basis for any drilling, 
#completion, production, or financial decision or any procedure involving any risk to the 
#safety of any drilling venture, drilling rig or its crew or any other third party.  The 
#Customer has full responsibility for all drilling, completion and production operation.  
#Halliburton makes no representations or warranties, either expressed or 
#implied, including, but not limited to, the implied warranties of merchantability or fitness 
#for a particular purpose, with respect to the services rendered.  In no event will 
#Halliburton be liable for failure to obtain any particular results or for 
#any damages, including, but not limited to, indirect, special or consequential damages, 
#resulting from the use of any information or interpretation provided by Halliburton.
#
~A           TIME           GTDEPTH  GTPQH  GTTQ  GTTN  GTET   GTTVD  
# ...
   13:14:48.483.28-Apr-2021 3524.51 5812.85 74.69 9.00 345.06 2768.78
   13:14:48.683.28-Apr-2021 3524.51 5812.85 74.69 9.00 345.26 2768.78
   13:14:48.883.28-Apr-2021 3524.51 6077.15 74.69 9.00 345.46 2768.78
   13:14:49.083.28-Apr-2021 3524.51 6080.02 74.69 9.00 345.66 2768.78
   13:14:49.283.28-Apr-2021 3524.51 6079.08 74.69 9.00 345.86 2768.78
   13:14:49.483.28-Apr-2021 3524.51 6073.76 74.69 9.00 346.06 2768.78
   13:14:49.683.28-Apr-2021 3524.51 6073.76 74.69 9.00 346.26 2768.78
   13:14:49.884.28-Apr-2021 3524.51 6080.52 74.69 9.00 346.46 2768.78
   13:14:50.084.28-Apr-2021 3524.51 6079.99 74.68 9.00 346.66 2768.78
   13:14:50.284.28-Apr-2021 3524.51 6078.92 74.69 9.00 346.86 2768.78
   13:14:50.484.28-Apr-2021 3524.51 6079.19 74.69 9.00 347.06 2768.78
   13:14:50.684.28-Apr-2021 3524.51 6079.19 74.69 9.00 347.26 2768.78
   13:14:50.884.28-Apr-2021 3524.51 6082.00 74.69 9.00 347.46 2768.78
   13:14:51.084.28-Apr-2021 3524.51 6082.73 74.69 9.00 347.66 2768.78
   13:14:51.284.28-Apr-2021 3524.51 6080.84 74.69 9.00 347.86 2768.78
   13:14:51.484.28-Apr-2021 3524.51 6071.64 74.69 9.00 348.06 2768.78
   13:14:51.684.28-Apr-2021 3524.51 6071.64 74.69 9.00 348.26 2768.78
   13:14:51.884.28-Apr-2021 3524.51 6084.66 74.69 9.00 348.46 2768.78
   13:14:52.084.28-Apr-2021 3524.51 6072.75 74.69 9.00 348.66 2768.78
   13:14:52.284.28-Apr-2021 3524.51 6077.29 74.69 9.00 348.86 2768.78
   13:14:52.484.28-Apr-2021 3524.51 6083.48 74.69 9.00 349.06 2768.78
   13:14:52.684.28-Apr-2021 3524.51 6083.48 74.69 9.00 349.26 2768.78
   13:14:52.884.28-Apr-2021 3524.51 6081.92 74.69 9.00 349.46 2768.78
   13:14:53.084.28-Apr-2021 3524.51 6068.38 74.69 9.00 349.66 2768.78
   13:14:53.284.28-Apr-2021 3524.51 6081.35 74.69 9.00 349.86 2768.78
   13:14:53.484.28-Apr-2021 3524.51 6085.75 74.69 9.00 350.06 2768.78
   13:14:53.684.28-Apr-2021 3524.51 6085.75 74.69 9.00 350.26 2768.78
   13:14:53.884.28-Apr-2021 3524.51 6079.08 74.69 9.00 350.46 2768.78
   13:14:54.084.28-Apr-2021 3524.51 6069.85 74.69 9.00 350.66 2768.78
   13:14:54.284.28-Apr-2021 3524.51 6085.25 74.69 9.00 350.86 2768.78
   13:14:54.484.28-Apr-2021 3524.51 6085.56 74.69 9.00 351.06 2768.78
   13:14:54.684.28-Apr-2021 3524.51 6085.56 74.69 9.00 351.26 2768.78
   13:14:54.884.28-Apr-2021 3524.51 6078.00 74.69 9.00 351.46 2768.78
   13:14:55.084.28-Apr-2021 3524.51 6081.87 74.69 9.00 351.66 2768.78
   13:14:55.284.28-Apr-2021 3524.51 6084.40 74.69 9.00 351.86 2768.78
   13:14:55.484.28-Apr-2021 3524.51 6084.71 74.69 9.00 352.06 2768.78
   13:14:55.684.28-Apr-2021 3524.51 6084.71 74.69 9.00 352.26 2768.78
   13:14:55.884.28-Apr-2021 3524.51 6080.23 74.69 9.00 352.46 2768.78
   13:14:56.085.28-Apr-2021 3524.51 6083.85 74.69 9.00 352.66 2768.78
   13:14:56.285.28-Apr-2021 3524.51 6085.11 74.69 9.00 352.86 2768.78
   13:14:56.485.28-Apr-2021 3524.51 6084.53 74.69 9.00 353.06 2768.78
   13:14:56.685.28-Apr-2021 3524.51 6084.53 74.69 9.00 353.26 2768.78
   13:14:56.885.28-Apr-2021 3524.51 6078.94 74.68 9.00 353.46 2768.78
   13:14:57.085.28-Apr-2021 3524.51 6083.70 74.68 9.00 353.66 2768.78
   13:14:57.285.28-Apr-2021 3524.51 6083.36 74.68 9.00 353.86 2768.78
   13:14:57.485.28-Apr-2021 3524.51 6081.58 74.68 9.00 354.06 2768.78
   13:14:57.685.28-Apr-2021 3524.51 6081.58 74.68 9.00 354.26 2768.78
   13:14:57.885.28-Apr-2021 3524.51 6082.09 74.68 9.00 354.46 2768.78
   13:14:58.085.28-Apr-2021 3524.51 6082.93 74.68 9.00 354.66 2768.78
   13:14:58.285.28-Apr-2021 3524.51 6081.41 74.68 9.00 354.86 2768.78
   13:14:58.485.28-Apr-2021 3524.51 6080.96 74.68 9.00 355.06 2768.78
   13:14:58.685.28-Apr-2021 3524.51 6080.96 74.68 9.00 355.26 2768.78
   13:14:58.885.28-Apr-2021 3524.51 6083.96 74.68 9.00 355.46 2768.78
   13:14:59.085.28-Apr-2021 3524.51 6083.06 74.68 9.00 355.66 2768.78
   13:14:59.285.28-Apr-2021 3524.51 6083.47 74.68 9.00 355.86 2768.78
   13:14:59.485.28-Apr-2021 3524.51 6082.25 74.68 9.00 356.06 2768.78
   13:14:59.685.28-Apr-2021 3524.51 6082.25 74.68 9.00 356.26 2768.78
   13:14:59.885.28-Apr-2021 3524.51 6084.39 74.68 9.00 356.46 2768.78
   13:15:00.085.28-Apr-2021 3524.51 6084.77 74.68 9.00 356.66 2768.78
   13:15:00.285.28-Apr-2021 3524.51 6083.82 74.68 9.00 356.86 2768.78
   13:15:00.485.28-Apr-2021 3524.51 6079.48 74.68 9.00 357.06 2768.78
   13:15:00.685.28-Apr-2021 3524.51 6079.48 74.68 9.00 357.26 2768.78
   13:15:00.885.28-Apr-2021 3524.51 6084.07 74.68 9.00 357.46 2768.78
   13:15:01.085.28-Apr-2021 3524.51 6085.12 74.68 9.00 357.66 2768.78
   13:15:01.285.28-Apr-2021 3524.51 6083.40 74.68 9.00 357.86 2768.78
   13:15:01.485.28-Apr-2021 3524.51 6078.46 74.68 9.00 358.06 2768.78
   13:15:01.685.28-Apr-2021 3524.51 6078.46 74.68 9.00 358.26 2768.78
   13:15:01.885.28-Apr-2021 3524.51 6085.05 74.68 9.00 358.46 2768.78
   13:15:02.085.28-Apr-2021 3524.51 6085.97 74.68 9.00 358.66 2768.78
   13:15:02.286.28-Apr-2021 3524.51 6080.97 74.68 9.00 358.86 2768.78
   13:15:02.486.28-Apr-2021 3524.51 6070.69 74.68 9.00 359.06 2768.78
   13:15:02.686.28-Apr-2021 3524.51 6070.69 74.68 9.00 359.26 2768.78
   13:15:02.886.28-Apr-2021 3524.51 6083.77 74.68 9.00 359.46 2768.78
   13:15:03.086.28-Apr-2021 3524.51 6084.20 74.68 9.00 359.66 2768.78
   13:15:03.286.28-Apr-2021 3524.51 6077.98 74.68 9.00 359.86 2768.78
   13:15:03.486.28-Apr-2021 3524.51 6080.13 74.68 9.00 360.06 2768.78
   13:15:03.686.28-Apr-2021 3524.51 6080.13 74.68 9.00 360.26 2768.78
   13:15:03.886.28-Apr-2021 3524.51 6083.97 74.68 9.00 360.46 2768.78
   13:15:04.086.28-Apr-2021 3524.51 6082.79 74.67 9.00 360.66 2768.78
   13:15:04.286.28-Apr-2021 3524.51 6081.59 74.67 9.00 360.86 2768.78
   13:15:04.486.28-Apr-2021 3524.51 6083.59 74.67 9.00 361.06 2768.78
   13:15:04.686.28-Apr-2021 3524.51 6083.59 74.67 9.00 361.26 2768.78
   13:15:04.886.28-Apr-2021 3524.51 6084.10 74.67 9.00 361.46 2768.78
   13:15:05.086.28-Apr-2021 3524.51 6071.27 74.67 9.00 361.66 2768.78
   13:15:05.286.28-Apr-2021 3524.51 6081.87 74.67 9.00 361.86 2768.78
   13:15:05.486.28-Apr-2021 3524.51 6084.18 74.67 9.00 362.06 2768.78
   13:15:05.686.28-Apr-2021 3524.51 6084.18 74.67 9.00 362.26 2768.78
   13:15:05.886.28-Apr-2021 3524.51 6078.67 74.67 9.00 362.46 2768.78
   13:15:06.086.28-Apr-2021 3524.51 6080.35 74.67 9.00 362.66 2768.78
   13:15:06.286.28-Apr-2021 3524.51 6082.67 74.67 9.00 362.86 2768.78
   13:15:06.486.28-Apr-2021 3524.51 6082.27 74.67 9.00 363.06 2768.78
   13:15:06.686.28-Apr-2021 3524.51 6082.27 74.67 9.00 363.26 2768.78
   13:15:06.886.28-Apr-2021 3524.51 6080.31 74.67 9.00 363.46 2768.78
   13:15:07.086.28-Apr-2021 3524.51 6082.21 74.67 9.00 363.66 2768.78
   13:15:07.286.28-Apr-2021 3524.51 6084.59 74.67 9.00 363.86 2768.78
   13:15:07.486.28-Apr-2021 3524.51 6083.33 74.67 9.00 364.06 2768.78
   13:15:07.686.28-Apr-2021 3524.51 6083.33 74.67 9.00 364.26 2768.78
   13:15:07.886.28-Apr-2021 3524.51 6073.94 74.67 9.00 364.46 2768.78
   13:15:08.086.28-Apr-2021 3524.51 6080.08 74.67 9.00 364.66 2768.78
   13:15:08.286.28-Apr-2021 3524.51 6084.11 74.67 9.00 364.86 2768.78
   13:15:08.487.28-Apr-2021 3524.51 6083.17 74.67 9.00 365.06 2768.78
   13:15:08.687.28-Apr-2021 3524.51 6083.17 74.67 9.00 365.26 2768.78
   13:15:08.887.28-Apr-2021 3524.51 6074.34 74.66 9.00 365.46 2768.78
   13:15:09.087.28-Apr-2021 3524.51 6078.08 74.66 9.00 365.66 2768.78
   13:15:09.287.28-Apr-2021 3524.51 6083.79 74.66 9.00 365.86 2768.78
   13:15:09.487.28-Apr-2021 3524.51 6084.91 74.66 9.00 366.06 2768.78
   13:15:09.687.28-Apr-2021 3524.51 6084.91 74.66 9.00 366.26 2768.78
   13:15:09.887.28-Apr-2021 3524.51 6079.26 74.66 9.00 366.46 2768.78
   13:15:10.087.28-Apr-2021 3524.51 6075.19 74.66 9.00 366.66 2768.78
   13:15:10.287.28-Apr-2021 3524.51 6084.82 74.66 9.00 366.86 2768.78
   13:15:10.487.28-Apr-2021 3524.51 6086.18 74.66 9.00 367.06 2768.78
   13:15:10.687.28-Apr-2021 3524.51 6086.18 74.66 9.00 367.26 2768.78
   13:15:10.887.28-Apr-2021 3524.51 6068.51 74.66 9.00 367.46 2768.78
   13:15:11.087.28-Apr-2021 3524.51 6083.41 74.66 9.00 367.66 2768.78
   13:15:11.287.28-Apr-2021 3524.51 6084.50 74.66 9.00 367.86 2768.78
