~Version Information
 VERS.                  2.0:   CWLS log ASCII Standard -VERSION 2.0
 WRAP.                   NO:   One line per depth step
~Well Information Block
#MNEM.UNIT     VALUE/NAME     DESCRIPTION
#---------     -----------    ---------------------------
 STRT.S             13:09:03 28-Apr-21: START TIME 13:09:03 28-Apr-21
 STOP.S             13:15:31 28-Apr-21: STOP TIME  13:15:31 28-Apr-21
 STEP.S                   0.00: STEP TIME
 NULL.                 -999.25: NULL VALUE
 DFWT.                        :  DIST FWL TEXT
 DFST.                        :  DIST FSL TEXT
 DMF .             Drill Floor:  DRILL MEAS FROM
 STIM.      02.00.00 12-Apr-21:  START TIME
 DATE.      02.00.00 02-May-21:  END TIME
 SPUD.               09-Apr-21:  SPUD DATE
 NREF.                    Grid:  NORTH REFERENCE
 HPTY.       Minimum Curvature:  HOLE POS TYPE
 DMOD.             Drill Model:  DRILL MOD DESC
 SVYD.                  Survey:  SURVEY DESC
 ILTD.               Lithology:  INTERP LTH DESC
 FTOP.          Formation Tops:  FORM TOPS DESC
 PDAT.          Mean Sea Level:  PERMANENT DATUM
 FLD .                     ACG:  FIELD NAME
 SON .        AZ-XX-0907021034:  JOB NUMBER
 CTRY.              Azerbaijan:  COUNTRY NAME
 WELL.                    E01x:  WELL NAME
 COMP.     BP Exploration (Caspian Sea) LTD.:  COMPANY
 UWI .            /AZE00001403:  UNIQUE WELL IDENTIFIER
 API .            /AZE00001403:  API NUMBER
 WTYP.                Deviated:  WELL TYPE
 MDS .        Operator Entered:  MAG DATA SOURCE
 BASE.              Azerbaijan:  LOGGING EQUIPMENT BASE LOCATION
 REGN.                   EESSA:  REGION
 PROV.                    Baku:  PROVINCE
 STAT.                    Baku:  STATE NAME
 SRVC.          Turan Drilling:  CONTRACTOR
 MWDS.                    Baku:  MWD SHOP
 JOBN.        AZ-XX-0907021034:  JOB TICKET NUMB
 RIG .                     DWG:  RIG NAME
 DOE .                     N/A:  DOE NUMBER
 DCON.         Sperry Drilling:  DIRECTNL CONTR
 UNIT.                     N/A:  LOGGING EQUIPMENT ID
 CNTY.                        :  COUNTY
 LOC .                        :  LOCATION
 LMF .             Drill Floor:  LOG MEASURED FROM
 TVDS.m                  43.16:  TVDSS CORRECTN
 LATI.deg                40.17:  LATITUDE
 LONG.deg                51.17:  LONGITUDE
 WHNS.m                  -5.90:  WELL HEAD N/S
 WHEW.m                  -6.61:  WELL HEAD E/W
 UTMX.m              514337.95:  UTM X
 UTMY.m             4448627.46:  UTM Y
 DFWL.m                   0.00:  DISTANCE FWL
 DFSL.m                   0.00:  DISTANCE FSL
 SDEP.m                2606.87:  START DEPTH
 TDD .m                3618.01:  TOTAL DEPTH (DRILLER)
 VSDR.deg               177.42:  VERT SEC DIRECT
 GVFD.g                   1.00:  GRAVITY FIELD
 MFLD.nT              50399.00:  MAGNETIC FIELD
 MDIP.deg                59.67:  MAGNETIC DIP
 MDEC.deg                 6.56:  MAGNETIC DECL
 GRDC.deg                 0.11:  GRID CORRECTION
 AZTC.deg                 6.45:  AZM TOTAL CORR
 EPD .m                   0.00:  ELEVATION
 EGL .m                   0.00:  GROUND ELEVATION
 WDMS.m                 176.20:  WD ELEV
 APD .m                  43.16:  DEPTH ABOVE PD
 DEP .m                2606.87:  DEPTH
 AGAP.m                  43.16:  AIR GAP
 VSEW.m                  -6.61:  VERT SEC E/W
 VSNS.m                  -5.90:  VERT SEC N/S
 EKB .m                  43.16:  KB ELEVATION
 EDF .m                  43.16:  DF ELEVATION
 TDL .m                 438.00:  TOTAL DEPTH (LOGGER)
 VSC .                       0:  VS TO CLOSURE
 MAGU.                 1855490:  MAGUTM CHECKSUM
~Parameter Information Block
#MNEM.UNIT       Value        Description
#---------     -----------    ---------------------------
 AV  .mps                 2.20:  Ann Velocity 
 AVMX.mps                 2.50:  Max Ann Veloc 
 AZIF.deg               150.21:  Azm, Final 
 BHAT.        Rotary Steerable:  BHA Type 
 BROT.∞/30m               0.08:  Build Rotating 
 BS  .in                  6.50:  Bit Size 
 BSZ .in                  6.50:  Bit Size 
 BTPL.psig              108.00:  Bit Press Loss 
 CABU.                     Yes:  Customer Abuse 
 CGEO.           Emin Aliyarli:  Customer Geo 
 COMM.                     ‹Ïq:  Run Comments 1 
 TCS .hr                 74.20:  Time Ciculation Ended 
 CV  .mps                 3.63:  Crit Velocity 
 CVMX.mps                 3.66:  Max Crit Veloc 
 DD1 .         Intigam Rahimov:  Direct Drillr 1 
 DD2 .          Teymur Aghayev:  Direct Drillr 2 
 DDSV.               Geo-Pilot:  DD Service 
 DEFF.%                  97.00:  % Det Eff 
 DLRX.∞/30m               1.63:  Dogleg Rot Max 
 DLSO.∞/30m               0.00:  Dogleg Oriented 
 DLSX.∞/30m               0.00:  Dogleg Str Max 
 DRET.      20.20.00 28-Apr-21:  Drill End Time 
 DRST.      04.45.00 26-Apr-21:  Drill Start Tim 
 DTIM.hr                 34.30:  Time Drilling 
 EDEP.m                3618.01:  End Depth 
 ENG1.           Amrah Tahirov:  Engineer 1 
 ENG2.         Bahruz Mehdiyev:  Engineer 2 
 ENG3.         Farhad Orujzade:  Engineer 3 
 ETIM.      19.00.00 29-Apr-21:  End Time 
 FLOI.gpm               370.00:  Flow In 
 FLON.gpm               300.00:  Flow In Min 
 FLOS.cptm                0.00:  Fluid Loss 
 FLOX.gpm               410.00:  Flow In Max 
 HFLO.                      No:  High Flow 
 HPRE.                      No:  High Pressure 
 HTEM.                      No:  High Temp 
 HYDO.m                   1.80:  Hydro Offset 
 IFIN.deg                67.19:  Inc, Final 
 IMAX.deg                68.42:  Inc Max 
 IMIN.deg                66.33:  Inc Min 
 IMND.m                3532.79:  Inc Min Depth 
 IMXD.m                3192.15:  Inc Max Depth 
 JARR.                      No:  Jarring 
 LETM.      20.20.00 28-Apr-21:  Log End Time 
 LOST.hr                     0:  Lost Rig Time 
 LSTM.      04.45.00 26-Apr-21:  Log Start Time 
 MDCL.ppm             36500.00:  Mud Chlorides 
 MDES.     Inversion Oil/Synthetic:  Mud Desc 
 DFD .sg                  1.42:  Mud Density 
 MDMN.sg                  1.42:  Dens Mud Min 
 MDMX.sg                  1.42:  Dens Mud Max 
 MOIL.                    55.7:  Run Mud Oil % 
 MOWR.                   71:29:  Run Mud OWR 
 MSND.                     0.1:  Run Mud Sand % 
 MSOL.                    19.9:  Run Mud Solids% 
 DFV .spqt               83.00:  Mud Viscosity 
 MWOD.in                  5.15:  MWD Tool OD 
 MWSI.                      No:  Serv Intrp, MWD 
 OTIM.hr                120.59:  Time Operating 
 PCON.           Look Like New:  Pad Condition 
 PMAX.psia            11292.93:  Press Op, Max 
 PV  .cP                 27.00:  Mud PV 
 RUN .                     400:  Run Number 
 ROPA.m/hr               14.00:  ROP Avg 
 ROPN.m/hr                9.00:  ROP Min 
 ROPX.m/hr               18.00:  ROP Max 
 RPMA.rpm               130.00:  RPM Surface Avg 
 RPMN.rpm               100.00:  RPM Surface Min 
 RPMX.rpm               140.00:  RPM Surface Max 
 RRUN.                    0400:  Rig Run Number 
 RTIM.hr                 38.60:  Time Reaming 
 SAZI.deg               149.55:  Azm, Start 
 SDEP.m                3180.01:  Start Depth 
 SIDD.                      No:  Serv Intrp, DD 
 SINC.deg                68.42:  Inc, Start 
 SPPA.psig             4400.00:  SPP Avg 
 SPPN.psig             3580.00:  SPP Min 
 SPPX.psig             4850.00:  SPP Max 
 STIM.      12.30.00 24-Apr-21:  Start Time 
 SVCS.                 DD, MWD:  Services 
 SVER.                    9.20:  Sperry Version 
 TDAT.m                 438.00:  Tot Depth Attmp 
 TDDF.                      No:  Trip for DD 
 TDLG.m                 438.00:  Tot Depth Loggd 
 TFF .                      No:  Trip for Fail 
 TQAA.f-kp               11.00:  Torque Abs Avg 
 TQAN.f-kp                9.00:  Torque Abs Min 
 TQAX.f-kp               14.00:  Torque Abs Max 
 TRRT.∞/30m               0.04:  Turn Rotating 
 MRT .                    HCIM:  Maximum Recorded Temperature 
 TTMX.degC               84.31:  Max Tool Temp 
 VS01.                90521954:  Virtual Str1 SN 
 VS02.                90519327:  Virtual Str2 SN 
 VS03.                90522273:  Virtual Str3 SN 
 VS04.                11108038:  Virtual Str4 SN 
 VS05.                12258760:  Virtual Str5 SN 
 WBMN.klb                 1.00:  WOB Min 
 WITN.           Adil Mammadov:  Customer Rep 
 WITN.         Alex Yadullayev:  Customer Rep 2 
 WOBA.klb                 6.00:  WOB Avg 
 WOBX.klb                 9.00:  WOB Max 
 YP  .lhf2               31.00:  Yield Point 
~Curve Information Block
#MNEM.UNIT                 API CODE     Curve Description
#---------               -----------    ---------------------------
 TIME.HHMMSS            00 000 000 000:  GT Time & Date
 GTDEPTH.m              00 000 000 000:  GT Depth
 GTPQH.psia             00 000 000 000:  GT HR Quartz Pressure
 GTTQ.degC              00 000 000 000:  GT Quartz Temperature
 GTTN.NONE              00 000 000 000:  GT Test Number
 GTET.sec               00 000 000 000:  GT Elapsed Test Time
 GTTVD.m                00 000 000 000:  GT True Vertical Depth
#Other Information
#
#WARRANTY: Halliburton will use its best efforts to furnish customers with 
#accurate information and interpretations that are part of, and incident to, the services 
#provided.  However, Halliburton cannot and does not warrant the accuracy 
#or correctness of such information and interpretations.  Under no circumstances should any 
#such information or interpretation be relied upon as the sole basis for any drilling, 
#completion, production, or financial decision or any procedure involving any risk to the 
#safety of any drilling venture, drilling rig or its crew or any other third party.  The 
#Customer has full responsibility for all drilling, completion and production operation.  
#Halliburton makes no representations or warranties, either expressed or 
#implied, including, but not limited to, the implied warranties of merchantability or fitness 
#for a particular purpose, with respect to the services rendered.  In no event will 
#Halliburton be liable for failure to obtain any particular results or for 
#any damages, including, but not limited to, indirect, special or consequential damages, 
#resulting from the use of any information or interpretation provided by Halliburton.
#
~A           TIME           GTDEPTH  GTPQH  GTTQ  GTTN  GTET   GTTVD  
# ...
   13:13:16.468.28-Apr-2021 3524.51 4369.27 74.89 9.00 253.04 2768.78
   13:13:16.668.28-Apr-2021 3524.51 4369.27 74.89 9.00 253.24 2768.78
   13:13:16.868.28-Apr-2021 3524.51 4369.04 74.89 9.00 253.44 2768.78
   13:13:17.068.28-Apr-2021 3524.51 4369.32 74.89 9.00 253.64 2768.78
   13:13:17.268.28-Apr-2021 3524.51 4369.27 74.89 9.00 253.84 2768.78
   13:13:17.469.28-Apr-2021 3524.51 4369.26 74.89 9.00 254.04 2768.78
   13:13:17.669.28-Apr-2021 3524.51 4369.26 74.89 9.00 254.24 2768.78
   13:13:17.869.28-Apr-2021 3524.51 4369.22 74.89 9.00 254.44 2768.78
   13:13:18.069.28-Apr-2021 3524.51 4369.24 74.89 9.00 254.64 2768.78
   13:13:18.269.28-Apr-2021 3524.51 4369.19 74.89 9.00 254.84 2768.78
   13:13:18.469.28-Apr-2021 3524.51 4369.21 74.89 9.00 255.04 2768.78
   13:13:18.669.28-Apr-2021 3524.51 4369.21 74.89 9.00 255.24 2768.78
   13:13:18.869.28-Apr-2021 3524.51 4369.19 74.89 9.00 255.44 2768.78
   13:13:19.069.28-Apr-2021 3524.51 4369.17 74.89 9.00 255.64 2768.78
   13:13:19.269.28-Apr-2021 3524.51 4369.13 74.89 9.00 255.84 2768.78
   13:13:19.469.28-Apr-2021 3524.51 4369.00 74.89 9.00 256.04 2768.78
   13:13:19.669.28-Apr-2021 3524.51 4369.00 74.89 9.00 256.24 2768.78
   13:13:19.869.28-Apr-2021 3524.51 4369.28 74.89 9.00 256.44 2768.78
   13:13:20.069.28-Apr-2021 3524.51 4369.22 74.89 9.00 256.64 2768.78
   13:13:20.269.28-Apr-2021 3524.51 4369.18 74.89 9.00 256.84 2768.78
   13:13:20.469.28-Apr-2021 3524.51 4369.21 74.89 9.00 257.04 2768.78
   13:13:20.669.28-Apr-2021 3524.51 4369.21 74.89 9.00 257.24 2768.78
   13:13:20.869.28-Apr-2021 3524.51 4369.20 74.88 9.00 257.44 2768.78
   13:13:21.069.28-Apr-2021 3524.51 4369.17 74.88 9.00 257.64 2768.78
   13:13:21.269.28-Apr-2021 3524.51 4369.17 74.88 9.00 257.84 2768.78
   13:13:21.469.28-Apr-2021 3524.51 4369.20 74.88 9.00 258.04 2768.78
   13:13:21.669.28-Apr-2021 3524.51 4369.20 74.88 9.00 258.24 2768.78
   13:13:21.869.28-Apr-2021 3524.51 4369.17 74.88 9.00 258.44 2768.78
   13:13:22.069.28-Apr-2021 3524.51 4369.11 74.88 9.00 258.64 2768.78
   13:13:22.269.28-Apr-2021 3524.51 4368.91 74.88 9.00 258.84 2768.78
   13:13:22.469.28-Apr-2021 3524.51 4369.38 74.88 9.00 259.04 2768.78
   13:13:22.669.28-Apr-2021 3524.51 4369.38 74.88 9.00 259.24 2768.78
   13:13:22.869.28-Apr-2021 3524.51 4369.00 74.88 9.00 259.44 2768.78
   13:13:23.069.28-Apr-2021 3524.51 4369.24 74.88 9.00 259.64 2768.78
   13:13:23.269.28-Apr-2021 3524.51 4369.27 74.88 9.00 259.84 2768.78
   13:13:23.469.28-Apr-2021 3524.51 4369.25 74.88 9.00 260.04 2768.78
   13:13:23.670.28-Apr-2021 3524.51 4369.25 74.88 9.00 260.24 2768.78
   13:13:23.870.28-Apr-2021 3524.51 4369.06 74.88 9.00 260.44 2768.78
   13:13:24.070.28-Apr-2021 3524.51 4369.29 74.88 9.00 260.64 2768.78
   13:13:24.270.28-Apr-2021 3524.51 4369.30 74.88 9.00 260.84 2768.78
   13:13:24.470.28-Apr-2021 3524.51 4369.26 74.88 9.00 261.04 2768.78
   13:13:24.670.28-Apr-2021 3524.51 4369.26 74.88 9.00 261.24 2768.78
   13:13:24.870.28-Apr-2021 3524.51 4369.06 74.88 9.00 261.44 2768.78
   13:13:25.070.28-Apr-2021 3524.51 4369.31 74.87 9.00 261.64 2768.78
   13:13:25.270.28-Apr-2021 3524.51 4369.25 74.87 9.00 261.84 2768.78
   13:13:25.470.28-Apr-2021 3524.51 4369.23 74.87 9.00 262.04 2768.78
   13:13:25.670.28-Apr-2021 3524.51 4369.23 74.87 9.00 262.24 2768.78
   13:13:25.870.28-Apr-2021 3524.51 4369.22 74.87 9.00 262.44 2768.78
   13:13:26.070.28-Apr-2021 3524.51 4369.23 74.87 9.00 262.64 2768.78
   13:13:26.270.28-Apr-2021 3524.51 4369.23 74.87 9.00 262.84 2768.78
   13:13:26.470.28-Apr-2021 3524.51 4369.18 74.87 9.00 263.04 2768.78
   13:13:26.670.28-Apr-2021 3524.51 4369.18 74.87 9.00 263.24 2768.78
   13:13:26.870.28-Apr-2021 3524.51 4369.19 74.87 9.00 263.44 2768.78
   13:13:27.070.28-Apr-2021 3524.51 4369.19 74.87 9.00 263.64 2768.78
   13:13:27.270.28-Apr-2021 3524.51 4369.19 74.87 9.00 263.84 2768.78
   13:13:27.470.28-Apr-2021 3524.51 4369.02 74.87 9.00 264.04 2768.78
   13:13:27.670.28-Apr-2021 3524.51 4369.02 74.87 9.00 264.24 2768.78
   13:13:27.870.28-Apr-2021 3524.51 4369.26 74.87 9.00 264.44 2768.78
   13:13:28.070.28-Apr-2021 3524.51 4369.23 74.87 9.00 264.64 2768.78
   13:13:28.270.28-Apr-2021 3524.51 4369.22 74.87 9.00 264.84 2768.78
   13:13:28.470.28-Apr-2021 3524.51 4369.14 74.87 9.00 265.04 2768.78
   13:13:28.670.28-Apr-2021 3524.51 4369.14 74.87 9.00 265.24 2768.78
   13:13:28.870.28-Apr-2021 3524.51 4369.21 74.87 9.00 265.44 2768.78
   13:13:29.070.28-Apr-2021 3524.51 4369.18 74.87 9.00 265.64 2768.78
   13:13:29.270.28-Apr-2021 3524.51 4369.18 74.87 9.00 265.84 2768.78
   13:13:29.470.28-Apr-2021 3524.51 4369.18 74.86 9.00 266.04 2768.78
   13:13:29.670.28-Apr-2021 3524.51 4369.18 74.86 9.00 266.24 2768.78
   13:13:29.871.28-Apr-2021 3524.51 4369.16 74.86 9.00 266.44 2768.78
   13:13:30.071.28-Apr-2021 3524.51 4369.17 74.86 9.00 266.64 2768.78
   13:13:30.271.28-Apr-2021 3524.51 4369.04 74.86 9.00 266.84 2768.78
   13:13:30.471.28-Apr-2021 3524.51 4369.17 74.86 9.00 267.04 2768.78
   13:13:30.671.28-Apr-2021 3524.51 4369.17 74.86 9.00 267.24 2768.78
   13:13:30.871.28-Apr-2021 3524.51 4369.23 74.86 9.00 267.44 2768.78
   13:13:31.071.28-Apr-2021 3524.51 4368.88 74.86 9.00 267.64 2768.78
   13:13:31.271.28-Apr-2021 3524.51 4369.34 74.86 9.00 267.84 2768.78
   13:13:31.471.28-Apr-2021 3524.51 4369.32 74.86 9.00 268.04 2768.78
   13:13:31.671.28-Apr-2021 3524.51 4369.32 74.86 9.00 268.24 2768.78
   13:13:31.871.28-Apr-2021 3524.51 4369.05 74.86 9.00 268.44 2768.78
   13:13:32.071.28-Apr-2021 3524.51 4369.18 74.86 9.00 268.64 2768.78
   13:13:32.271.28-Apr-2021 3524.51 4369.27 74.86 9.00 268.84 2768.78
   13:13:32.471.28-Apr-2021 3524.51 4369.29 74.86 9.00 269.04 2768.78
   13:13:32.671.28-Apr-2021 3524.51 4369.29 74.86 9.00 269.24 2768.78
   13:13:32.871.28-Apr-2021 3524.51 4369.13 74.86 9.00 269.44 2768.78
   13:13:33.071.28-Apr-2021 3524.51 4368.97 74.86 9.00 269.64 2768.78
   13:13:33.271.28-Apr-2021 3524.51 4369.39 74.86 9.00 269.84 2768.78
   13:13:33.471.28-Apr-2021 3524.51 4369.28 74.86 9.00 270.04 2768.78
   13:13:33.671.28-Apr-2021 3524.51 4369.28 74.86 9.00 270.24 2768.78
   13:13:33.871.28-Apr-2021 3524.51 4369.15 74.85 9.00 270.44 2768.78
   13:13:34.071.28-Apr-2021 3524.51 4369.27 74.85 9.00 270.64 2768.78
   13:13:34.271.28-Apr-2021 3524.51 4369.21 74.85 9.00 270.84 2768.78
   13:13:34.471.28-Apr-2021 3524.51 4369.21 74.85 9.00 271.04 2768.78
   13:13:34.671.28-Apr-2021 3524.51 4369.21 74.85 9.00 271.24 2768.78
   13:13:34.871.28-Apr-2021 3524.51 4369.18 74.85 9.00 271.44 2768.78
   13:13:35.071.28-Apr-2021 3524.51 4369.19 74.85 9.00 271.64 2768.78
   13:13:35.271.28-Apr-2021 3524.51 4369.20 74.85 9.00 271.84 2768.78
   13:13:35.471.28-Apr-2021 3524.51 4369.15 74.85 9.00 272.04 2768.78
   13:13:35.671.28-Apr-2021 3524.51 4369.15 74.85 9.00 272.24 2768.78
   13:13:35.871.28-Apr-2021 3524.51 4369.38 74.85 9.00 272.44 2768.78
   13:13:36.072.28-Apr-2021 3524.51 4369.28 74.85 9.00 272.64 2768.78
   13:13:36.272.28-Apr-2021 3524.51 4369.19 74.85 9.00 272.84 2768.78
   13:13:36.472.28-Apr-2021 3524.51 4369.14 74.85 9.00 273.04 2768.78
   13:13:36.672.28-Apr-2021 3524.51 4369.14 74.85 9.00 273.24 2768.78
   13:13:36.872.28-Apr-2021 3524.51 4369.20 74.85 9.00 273.44 2768.78
   13:13:37.072.28-Apr-2021 3524.51 4369.17 74.85 9.00 273.64 2768.78
   13:13:37.272.28-Apr-2021 3524.51 4369.16 74.85 9.00 273.84 2768.78
   13:13:37.472.28-Apr-2021 3524.51 4369.16 74.85 9.00 274.04 2768.78
   13:13:37.672.28-Apr-2021 3524.51 4369.16 74.85 9.00 274.24 2768.78
   13:13:37.872.28-Apr-2021 3524.51 4369.15 74.85 9.00 274.44 2768.78
   13:13:38.072.28-Apr-2021 3524.51 4369.16 74.85 9.00 274.64 2768.78
   13:13:38.272.28-Apr-2021 3524.51 4369.13 74.84 9.00 274.84 2768.78
   13:13:38.472.28-Apr-2021 3524.51 4368.84 74.84 9.00 275.04 2768.78
   13:13:38.672.28-Apr-2021 3524.51 4368.84 74.84 9.00 275.24 2768.78
   13:13:38.872.28-Apr-2021 3524.51 4369.26 74.84 9.00 275.44 2768.78
   13:13:39.072.28-Apr-2021 3524.51 4369.08 74.84 9.00 275.64 2768.78
   13:13:39.272.28-Apr-2021 3524.51 4369.12 74.84 9.00 275.84 2768.78
