~Version Information
 VERS.                  2.0:   CWLS log ASCII Standard -VERSION 2.0
 WRAP.                   NO:   One line per depth step
~Well Information Block
#MNEM.UNIT     VALUE/NAME     DESCRIPTION
#---------     -----------    ---------------------------
 STRT.S             06:42:00 27-Apr-21: START TIME 06:42:00 27-Apr-21
 STOP.S             06:48:27 27-Apr-21: STOP TIME  06:48:27 27-Apr-21
 STEP.S                   0.00: STEP TIME
 NULL.                 -999.25: NULL VALUE
 DFWT.                        :  DIST FWL TEXT
 DFST.                        :  DIST FSL TEXT
 DMF .             Drill Floor:  DRILL MEAS FROM
 STIM.      02.00.00 12-Apr-21:  START TIME
 DATE.      02.00.00 02-May-21:  END TIME
 SPUD.               09-Apr-21:  SPUD DATE
 NREF.                    Grid:  NORTH REFERENCE
 HPTY.       Minimum Curvature:  HOLE POS TYPE
 DMOD.             Drill Model:  DRILL MOD DESC
 SVYD.                  Survey:  SURVEY DESC
 ILTD.               Lithology:  INTERP LTH DESC
 FTOP.          Formation Tops:  FORM TOPS DESC
 PDAT.          Mean Sea Level:  PERMANENT DATUM
 FLD .                     ACG:  FIELD NAME
 SON .        AZ-XX-0907021034:  JOB NUMBER
 CTRY.              Azerbaijan:  COUNTRY NAME
 WELL.                    E01x:  WELL NAME
 COMP.     BP Exploration (Caspian Sea) LTD.:  COMPANY
 UWI .            /AZE00001403:  UNIQUE WELL IDENTIFIER
 API .            /AZE00001403:  API NUMBER
 WTYP.                Deviated:  WELL TYPE
 MDS .        Operator Entered:  MAG DATA SOURCE
 BASE.              Azerbaijan:  LOGGING EQUIPMENT BASE LOCATION
 REGN.                   EESSA:  REGION
 PROV.                    Baku:  PROVINCE
 STAT.                    Baku:  STATE NAME
 SRVC.          Turan Drilling:  CONTRACTOR
 MWDS.                    Baku:  MWD SHOP
 JOBN.        AZ-XX-0907021034:  JOB TICKET NUMB
 RIG .                     DWG:  RIG NAME
 DOE .                     N/A:  DOE NUMBER
 DCON.         Sperry Drilling:  DIRECTNL CONTR
 UNIT.                     N/A:  LOGGING EQUIPMENT ID
 CNTY.                        :  COUNTY
 LOC .                        :  LOCATION
 LMF .             Drill Floor:  LOG MEASURED FROM
 TVDS.m                  43.16:  TVDSS CORRECTN
 LATI.deg                40.17:  LATITUDE
 LONG.deg                51.17:  LONGITUDE
 WHNS.m                  -5.90:  WELL HEAD N/S
 WHEW.m                  -6.61:  WELL HEAD E/W
 UTMX.m              514337.95:  UTM X
 UTMY.m             4448627.46:  UTM Y
 DFWL.m                   0.00:  DISTANCE FWL
 DFSL.m                   0.00:  DISTANCE FSL
 SDEP.m                2606.87:  START DEPTH
 TDD .m                3618.01:  TOTAL DEPTH (DRILLER)
 VSDR.deg               177.42:  VERT SEC DIRECT
 GVFD.g                   1.00:  GRAVITY FIELD
 MFLD.nT              50399.00:  MAGNETIC FIELD
 MDIP.deg                59.67:  MAGNETIC DIP
 MDEC.deg                 6.56:  MAGNETIC DECL
 GRDC.deg                 0.11:  GRID CORRECTION
 AZTC.deg                 6.45:  AZM TOTAL CORR
 EPD .m                   0.00:  ELEVATION
 EGL .m                   0.00:  GROUND ELEVATION
 WDMS.m                 176.20:  WD ELEV
 APD .m                  43.16:  DEPTH ABOVE PD
 DEP .m                2606.87:  DEPTH
 AGAP.m                  43.16:  AIR GAP
 VSEW.m                  -6.61:  VERT SEC E/W
 VSNS.m                  -5.90:  VERT SEC N/S
 EKB .m                  43.16:  KB ELEVATION
 EDF .m                  43.16:  DF ELEVATION
 TDL .m                 438.00:  TOTAL DEPTH (LOGGER)
 VSC .                       0:  VS TO CLOSURE
 MAGU.                 1855490:  MAGUTM CHECKSUM
~Parameter Information Block
#MNEM.UNIT       Value        Description
#---------     -----------    ---------------------------
 AV  .mps                 2.20:  Ann Velocity 
 AVMX.mps                 2.50:  Max Ann Veloc 
 AZIF.deg               150.21:  Azm, Final 
 BHAT.        Rotary Steerable:  BHA Type 
 BROT.°/30m               0.08:  Build Rotating 
 BS  .in                  6.50:  Bit Size 
 BSZ .in                  6.50:  Bit Size 
 BTPL.psig              108.00:  Bit Press Loss 
 CABU.                     Yes:  Customer Abuse 
 CGEO.           Emin Aliyarli:  Customer Geo 
 COMM.                     )M:  Run Comments 1 
 TCS .hr                 74.20:  Time Ciculation Ended 
 CV  .mps                 3.63:  Crit Velocity 
 CVMX.mps                 3.66:  Max Crit Veloc 
 DD1 .         Intigam Rahimov:  Direct Drillr 1 
 DD2 .          Teymur Aghayev:  Direct Drillr 2 
 DDSV.               Geo-Pilot:  DD Service 
 DEFF.%                  97.00:  % Det Eff 
 DLRX.°/30m               1.63:  Dogleg Rot Max 
 DLSO.°/30m               0.00:  Dogleg Oriented 
 DLSX.°/30m               0.00:  Dogleg Str Max 
 DRET.      20.20.00 28-Apr-21:  Drill End Time 
 DRST.      04.45.00 26-Apr-21:  Drill Start Tim 
 DTIM.hr                 34.30:  Time Drilling 
 EDEP.m                3618.01:  End Depth 
 ENG1.           Amrah Tahirov:  Engineer 1 
 ENG2.         Bahruz Mehdiyev:  Engineer 2 
 ENG3.         Farhad Orujzade:  Engineer 3 
 ETIM.      19.00.00 29-Apr-21:  End Time 
 FLOI.gpm               370.00:  Flow In 
 FLON.gpm               300.00:  Flow In Min 
 FLOS.cptm                0.00:  Fluid Loss 
 FLOX.gpm               410.00:  Flow In Max 
 HFLO.                      No:  High Flow 
 HPRE.                      No:  High Pressure 
 HTEM.                      No:  High Temp 
 HYDO.m                   1.80:  Hydro Offset 
 IFIN.deg                67.19:  Inc, Final 
 IMAX.deg                68.42:  Inc Max 
 IMIN.deg                66.33:  Inc Min 
 IMND.m                3532.79:  Inc Min Depth 
 IMXD.m                3192.15:  Inc Max Depth 
 JARR.                      No:  Jarring 
 LETM.      20.20.00 28-Apr-21:  Log End Time 
 LOST.hr                     0:  Lost Rig Time 
 LSTM.      04.45.00 26-Apr-21:  Log Start Time 
 MDCL.ppm             36500.00:  Mud Chlorides 
 MDES.     Inversion Oil/Synthetic:  Mud Desc 
 DFD .sg                  1.42:  Mud Density 
 MDMN.sg                  1.42:  Dens Mud Min 
 MDMX.sg                  1.42:  Dens Mud Max 
 MOIL.                    55.7:  Run Mud Oil % 
 MOWR.                   71:29:  Run Mud OWR 
 MSND.                     0.1:  Run Mud Sand % 
 MSOL.                    19.9:  Run Mud Solids% 
 DFV .spqt               83.00:  Mud Viscosity 
 MWOD.in                  5.15:  MWD Tool OD 
 MWSI.                      No:  Serv Intrp, MWD 
 OTIM.hr                120.59:  Time Operating 
 PCON.           Look Like New:  Pad Condition 
 PMAX.psia            11292.93:  Press Op, Max 
 PV  .cP                 27.00:  Mud PV 
 RUN .                     400:  Run Number 
 ROPA.m/hr               14.00:  ROP Avg 
 ROPN.m/hr                9.00:  ROP Min 
 ROPX.m/hr               18.00:  ROP Max 
 RPMA.rpm               130.00:  RPM Surface Avg 
 RPMN.rpm               100.00:  RPM Surface Min 
 RPMX.rpm               140.00:  RPM Surface Max 
 RRUN.                    0400:  Rig Run Number 
 RTIM.hr                 38.60:  Time Reaming 
 SAZI.deg               149.55:  Azm, Start 
 SDEP.m                3180.01:  Start Depth 
 SIDD.                      No:  Serv Intrp, DD 
 SINC.deg                68.42:  Inc, Start 
 SPPA.psig             4400.00:  SPP Avg 
 SPPN.psig             3580.00:  SPP Min 
 SPPX.psig             4850.00:  SPP Max 
 STIM.      12.30.00 24-Apr-21:  Start Time 
 SVCS.                 DD, MWD:  Services 
 SVER.                    9.20:  Sperry Version 
 TDAT.m                 438.00:  Tot Depth Attmp 
 TDDF.                      No:  Trip for DD 
 TDLG.m                 438.00:  Tot Depth Loggd 
 TFF .                      No:  Trip for Fail 
 TQAA.f-kp               11.00:  Torque Abs Avg 
 TQAN.f-kp                9.00:  Torque Abs Min 
 TQAX.f-kp               14.00:  Torque Abs Max 
 TRRT.°/30m               0.04:  Turn Rotating 
 MRT .                    HCIM:  Maximum Recorded Temperature 
 TTMX.degC               84.31:  Max Tool Temp 
 VS01.                90521954:  Virtual Str1 SN 
 VS02.                90519327:  Virtual Str2 SN 
 VS03.                90522273:  Virtual Str3 SN 
 VS04.                11108038:  Virtual Str4 SN 
 VS05.                12258760:  Virtual Str5 SN 
 WBMN.klb                 1.00:  WOB Min 
 WITN.           Adil Mammadov:  Customer Rep 
 WITN.         Alex Yadullayev:  Customer Rep 2 
 WOBA.klb                 6.00:  WOB Avg 
 WOBX.klb                 9.00:  WOB Max 
 YP  .lhf2               31.00:  Yield Point 
~Curve Information Block
#MNEM.UNIT                 API CODE     Curve Description
#---------               -----------    ---------------------------
 TIME.HHMMSS            00 000 000 000:  GT Time & Date
 GTDEPTH.m              00 000 000 000:  GT Depth
 GTPQH.psia             00 000 000 000:  GT HR Quartz Pressure
 GTTQ.degC              00 000 000 000:  GT Quartz Temperature
 GTTN.NONE              00 000 000 000:  GT Test Number
 GTET.sec               00 000 000 000:  GT Elapsed Test Time
 GTTVD.m                00 000 000 000:  GT True Vertical Depth
#Other Information
#
#WARRANTY: Halliburton will use its best efforts to furnish customers with 
#accurate information and interpretations that are part of, and incident to, the services 
#provided.  However, Halliburton cannot and does not warrant the accuracy 
#or correctness of such information and interpretations.  Under no circumstances should any 
#such information or interpretation be relied upon as the sole basis for any drilling, 
#completion, production, or financial decision or any procedure involving any risk to the 
#safety of any drilling venture, drilling rig or its crew or any other third party.  The 
#Customer has full responsibility for all drilling, completion and production operation.  
#Halliburton makes no representations or warranties, either expressed or 
#implied, including, but not limited to, the implied warranties of merchantability or fitness 
#for a particular purpose, with respect to the services rendered.  In no event will 
#Halliburton be liable for failure to obtain any particular results or for 
#any damages, including, but not limited to, indirect, special or consequential damages, 
#resulting from the use of any information or interpretation provided by Halliburton.
#
~A           TIME           GTDEPTH  GTPQH  GTTQ  GTTN  GTET   GTTVD  
# ...
   06:44:41.871.27-Apr-2021 3278.01 4375.54 73.89 4.00 161.01 2671.88
   06:44:42.071.27-Apr-2021 3278.01 4375.54 73.89 4.00 161.21 2671.88
   06:44:42.271.27-Apr-2021 3278.01 4375.48 73.89 4.00 161.41 2671.88
   06:44:42.471.27-Apr-2021 3278.01 4375.71 73.89 4.00 161.61 2671.88
   06:44:42.671.27-Apr-2021 3278.01 4375.55 73.89 4.00 161.81 2671.88
   06:44:42.871.27-Apr-2021 3278.01 4375.27 73.89 4.00 162.01 2671.88
   06:44:43.071.27-Apr-2021 3278.01 4375.27 73.89 4.00 162.21 2671.88
   06:44:43.271.27-Apr-2021 3278.01 4376.10 73.89 4.00 162.41 2671.88
   06:44:43.471.27-Apr-2021 3278.01 4375.89 73.89 4.00 162.61 2671.88
   06:44:43.671.27-Apr-2021 3278.01 4375.91 73.89 4.00 162.81 2671.88
   06:44:43.871.27-Apr-2021 3278.01 4376.02 73.89 4.00 163.01 2671.88
   06:44:44.071.27-Apr-2021 3278.01 4376.02 73.89 4.00 163.21 2671.88
   06:44:44.271.27-Apr-2021 3278.01 4376.20 73.89 4.00 163.41 2671.88
   06:44:44.471.27-Apr-2021 3278.01 4376.03 73.89 4.00 163.61 2671.88
   06:44:44.671.27-Apr-2021 3278.01 4376.50 73.89 4.00 163.81 2671.88
   06:44:44.871.27-Apr-2021 3278.01 4376.60 73.89 4.00 164.01 2671.88
   06:44:45.071.27-Apr-2021 3278.01 4376.60 73.89 4.00 164.21 2671.88
   06:44:45.271.27-Apr-2021 3278.01 4376.70 73.89 4.00 164.41 2671.88
   06:44:45.471.27-Apr-2021 3278.01 4376.50 73.89 4.00 164.61 2671.88
   06:44:45.671.27-Apr-2021 3278.01 4376.22 73.88 4.00 164.81 2671.88
   06:44:45.871.27-Apr-2021 3278.01 4376.30 73.88 4.00 165.01 2671.88
   06:44:46.071.27-Apr-2021 3278.01 4376.30 73.88 4.00 165.21 2671.88
   06:44:46.271.27-Apr-2021 3278.01 4376.74 73.88 4.00 165.41 2671.88
   06:44:46.471.27-Apr-2021 3278.01 4376.73 73.88 4.00 165.61 2671.88
   06:44:46.671.27-Apr-2021 3278.01 4376.71 73.88 4.00 165.81 2671.88
   06:44:46.871.27-Apr-2021 3278.01 4376.76 73.88 4.00 166.01 2671.88
   06:44:47.071.27-Apr-2021 3278.01 4376.76 73.88 4.00 166.21 2671.88
   06:44:47.271.27-Apr-2021 3278.01 4376.84 73.88 4.00 166.41 2671.88
   06:44:47.471.27-Apr-2021 3278.01 4376.95 73.88 4.00 166.61 2671.88
   06:44:47.671.27-Apr-2021 3278.01 4376.85 73.88 4.00 166.81 2671.88
   06:44:47.871.27-Apr-2021 3278.01 4376.94 73.88 4.00 167.01 2671.88
   06:44:48.071.27-Apr-2021 3278.01 4376.94 73.88 4.00 167.21 2671.88
   06:44:48.271.27-Apr-2021 3278.01 4376.86 73.88 4.00 167.41 2671.88
   06:44:48.471.27-Apr-2021 3278.01 4376.40 73.88 4.00 167.61 2671.88
   06:44:48.671.27-Apr-2021 3278.01 4376.80 73.88 4.00 167.81 2671.88
   06:44:48.871.27-Apr-2021 3278.01 4377.08 73.88 4.00 168.01 2671.88
   06:44:49.071.27-Apr-2021 3278.01 4377.08 73.88 4.00 168.21 2671.88
   06:44:49.271.27-Apr-2021 3278.01 4377.08 73.88 4.00 168.41 2671.88
   06:44:49.471.27-Apr-2021 3278.01 4377.29 73.87 4.00 168.61 2671.88
   06:44:49.671.27-Apr-2021 3278.01 4377.18 73.87 4.00 168.81 2671.88
   06:44:49.871.27-Apr-2021 3278.01 4377.41 73.87 4.00 169.01 2671.88
   06:44:50.071.27-Apr-2021 3278.01 4377.41 73.87 4.00 169.21 2671.88
   06:44:50.271.27-Apr-2021 3278.01 4377.45 73.87 4.00 169.41 2671.88
   06:44:50.471.27-Apr-2021 3278.01 4377.35 73.87 4.00 169.61 2671.88
   06:44:50.671.27-Apr-2021 3278.01 4377.41 73.87 4.00 169.81 2671.88
   06:44:50.871.27-Apr-2021 3278.01 4377.38 73.87 4.00 170.01 2671.88
   06:44:51.071.27-Apr-2021 3278.01 4377.38 73.87 4.00 170.21 2671.88
   06:44:51.272.27-Apr-2021 3278.01 4377.12 73.87 4.00 170.41 2671.88
   06:44:51.472.27-Apr-2021 3278.01 4377.34 73.87 4.00 170.61 2671.88
   06:44:51.672.27-Apr-2021 3278.01 4377.69 73.87 4.00 170.81 2671.88
   06:44:51.872.27-Apr-2021 3278.01 4377.22 73.87 4.00 171.01 2671.88
   06:44:52.072.27-Apr-2021 3278.01 4377.22 73.87 4.00 171.21 2671.88
   06:44:52.272.27-Apr-2021 3278.01 4377.49 73.87 4.00 171.41 2671.88
   06:44:52.472.27-Apr-2021 3278.01 4377.85 73.87 4.00 171.61 2671.88
   06:44:52.672.27-Apr-2021 3278.01 4377.85 73.87 4.00 171.81 2671.88
   06:44:52.872.27-Apr-2021 3278.01 4377.56 73.87 4.00 172.01 2671.88
   06:44:53.072.27-Apr-2021 3278.01 4377.56 73.87 4.00 172.21 2671.88
   06:44:53.272.27-Apr-2021 3278.01 4377.84 73.86 4.00 172.41 2671.88
   06:44:53.472.27-Apr-2021 3278.01 4377.97 73.86 4.00 172.61 2671.88
   06:44:53.672.27-Apr-2021 3278.01 4378.13 73.86 4.00 172.81 2671.88
   06:44:53.872.27-Apr-2021 3278.01 4377.71 73.86 4.00 173.01 2671.88
   06:44:54.072.27-Apr-2021 3278.01 4377.71 73.86 4.00 173.21 2671.88
   06:44:54.272.27-Apr-2021 3278.01 4377.69 73.86 4.00 173.41 2671.88
   06:44:54.472.27-Apr-2021 3278.01 4378.25 73.86 4.00 173.61 2671.88
   06:44:54.672.27-Apr-2021 3278.01 4378.07 73.86 4.00 173.81 2671.88
   06:44:54.872.27-Apr-2021 3278.01 4378.16 73.86 4.00 174.01 2671.88
   06:44:55.072.27-Apr-2021 3278.01 4378.16 73.86 4.00 174.21 2671.88
   06:44:55.272.27-Apr-2021 3278.01 4378.09 73.86 4.00 174.41 2671.88
   06:44:55.472.27-Apr-2021 3278.01 4378.13 73.86 4.00 174.61 2671.88
   06:44:55.672.27-Apr-2021 3278.01 4378.19 73.86 4.00 174.81 2671.88
   06:44:55.872.27-Apr-2021 3278.01 4378.13 73.86 4.00 175.01 2671.88
   06:44:56.072.27-Apr-2021 3278.01 4378.13 73.86 4.00 175.21 2671.88
   06:44:56.272.27-Apr-2021 3278.01 4378.06 73.86 4.00 175.41 2671.88
   06:44:56.472.27-Apr-2021 3278.01 4377.93 73.86 4.00 175.61 2671.88
   06:44:56.672.27-Apr-2021 3278.01 4377.70 73.86 4.00 175.81 2671.88
   06:44:56.872.27-Apr-2021 3278.01 4377.83 73.86 4.00 176.01 2671.88
   06:44:57.072.27-Apr-2021 3278.01 4377.83 73.86 4.00 176.21 2671.88
   06:44:57.272.27-Apr-2021 3278.01 4378.17 73.85 4.00 176.41 2671.88
   06:44:57.472.27-Apr-2021 3278.01 4378.28 73.85 4.00 176.61 2671.88
   06:44:57.672.27-Apr-2021 3278.01 4378.26 73.85 4.00 176.81 2671.88
   06:44:57.872.27-Apr-2021 3278.01 4378.35 73.85 4.00 177.01 2671.88
   06:44:58.072.27-Apr-2021 3278.01 4378.35 73.85 4.00 177.21 2671.88
   06:44:58.272.27-Apr-2021 3278.01 4378.52 73.85 4.00 177.42 2671.88
   06:44:58.472.27-Apr-2021 3278.01 4378.33 73.85 4.00 177.62 2671.88
   06:44:58.672.27-Apr-2021 3278.01 4378.44 73.85 4.00 177.82 2671.88
   06:44:58.872.27-Apr-2021 3278.01 4378.36 73.85 4.00 178.02 2671.88
   06:44:59.072.27-Apr-2021 3278.01 4378.36 73.85 4.00 178.22 2671.88
   06:44:59.272.27-Apr-2021 3278.01 4378.24 73.85 4.00 178.42 2671.88
   06:44:59.472.27-Apr-2021 3278.01 4378.06 73.85 4.00 178.62 2671.88
   06:44:59.672.27-Apr-2021 3278.01 4378.32 73.85 4.00 178.82 2671.88
   06:44:59.872.27-Apr-2021 3278.01 4378.70 73.85 4.00 179.02 2671.88
   06:45:00.072.27-Apr-2021 3278.01 4378.70 73.85 4.00 179.22 2671.88
   06:45:00.272.27-Apr-2021 3278.01 4378.29 73.85 4.00 179.42 2671.88
   06:45:00.472.27-Apr-2021 3278.01 4378.42 73.85 4.00 179.62 2671.88
   06:45:00.672.27-Apr-2021 3278.01 4378.73 73.85 4.00 179.82 2671.88
   06:45:00.872.27-Apr-2021 3278.01 4378.74 73.84 4.00 180.02 2671.88
   06:45:01.072.27-Apr-2021 3278.01 4378.74 73.84 4.00 180.22 2671.88
   06:45:01.272.27-Apr-2021 3278.01 4378.89 73.84 4.00 180.42 2671.88
   06:45:01.472.27-Apr-2021 3278.01 4378.62 73.84 4.00 180.62 2671.88
   06:45:01.672.27-Apr-2021 3278.01 4378.73 73.84 4.00 180.82 2671.88
   06:45:01.872.27-Apr-2021 3278.01 4378.37 73.84 4.00 181.02 2671.88
   06:45:02.072.27-Apr-2021 3278.01 4378.37 73.84 4.00 181.22 2671.88
   06:45:02.272.27-Apr-2021 3278.01 4378.83 73.84 4.00 181.42 2671.88
   06:45:02.472.27-Apr-2021 3278.01 4378.80 73.84 4.00 181.62 2671.88
   06:45:02.672.27-Apr-2021 3278.01 4378.92 73.84 4.00 181.82 2671.88
   06:45:02.872.27-Apr-2021 3278.01 4378.92 73.84 4.00 182.02 2671.88
   06:45:03.073.27-Apr-2021 3278.01 4378.92 73.84 4.00 182.22 2671.88
   06:45:03.273.27-Apr-2021 3278.01 4378.88 73.84 4.00 182.42 2671.88
   06:45:03.473.27-Apr-2021 3278.01 4378.90 73.84 4.00 182.62 2671.88
   06:45:03.673.27-Apr-2021 3278.01 4378.96 73.84 4.00 182.82 2671.88
   06:45:03.873.27-Apr-2021 3278.01 4378.80 73.84 4.00 183.02 2671.88
   06:45:04.073.27-Apr-2021 3278.01 4378.80 73.84 4.00 183.22 2671.88
   06:45:04.273.27-Apr-2021 3278.01 4378.76 73.84 4.00 183.42 2671.88
   06:45:04.473.27-Apr-2021 3278.01 4378.33 73.84 4.00 183.62 2671.88
   06:45:04.673.27-Apr-2021 3278.01 4378.82 73.83 4.00 183.82 2671.88
