~Version Information
 VERS.                  2.0:   CWLS log ASCII Standard -VERSION 2.0
 WRAP.                   NO:   One line per depth step
~Well Information Block
#MNEM.UNIT     VALUE/NAME     DESCRIPTION
#---------     -----------    ---------------------------
 STRT.S             06:54:29 28-Apr-21: START TIME 06:54:29 28-Apr-21
 STOP.S             07:00:57 28-Apr-21: STOP TIME  07:00:57 28-Apr-21
 STEP.S                   0.00: STEP TIME
 NULL.                 -999.25: NULL VALUE
 DFWT.                        :  DIST FWL TEXT
 DFST.                        :  DIST FSL TEXT
 DMF .             Drill Floor:  DRILL MEAS FROM
 STIM.      02.00.00 12-Apr-21:  START TIME
 DATE.      02.00.00 02-May-21:  END TIME
 SPUD.               09-Apr-21:  SPUD DATE
 NREF.                    Grid:  NORTH REFERENCE
 HPTY.       Minimum Curvature:  HOLE POS TYPE
 DMOD.             Drill Model:  DRILL MOD DESC
 SVYD.                  Survey:  SURVEY DESC
 ILTD.               Lithology:  INTERP LTH DESC
 FTOP.          Formation Tops:  FORM TOPS DESC
 PDAT.          Mean Sea Level:  PERMANENT DATUM
 FLD .                     ACG:  FIELD NAME
 SON .        AZ-XX-0907021034:  JOB NUMBER
 CTRY.              Azerbaijan:  COUNTRY NAME
 WELL.                    E01x:  WELL NAME
 COMP.     BP Exploration (Caspian Sea) LTD.:  COMPANY
 UWI .            /AZE00001403:  UNIQUE WELL IDENTIFIER
 API .            /AZE00001403:  API NUMBER
 WTYP.                Deviated:  WELL TYPE
 MDS .        Operator Entered:  MAG DATA SOURCE
 BASE.              Azerbaijan:  LOGGING EQUIPMENT BASE LOCATION
 REGN.                   EESSA:  REGION
 PROV.                    Baku:  PROVINCE
 STAT.                    Baku:  STATE NAME
 SRVC.          Turan Drilling:  CONTRACTOR
 MWDS.                    Baku:  MWD SHOP
 JOBN.        AZ-XX-0907021034:  JOB TICKET NUMB
 RIG .                     DWG:  RIG NAME
 DOE .                     N/A:  DOE NUMBER
 DCON.         Sperry Drilling:  DIRECTNL CONTR
 UNIT.                     N/A:  LOGGING EQUIPMENT ID
 CNTY.                        :  COUNTY
 LOC .                        :  LOCATION
 LMF .             Drill Floor:  LOG MEASURED FROM
 TVDS.m                  43.16:  TVDSS CORRECTN
 LATI.deg                40.17:  LATITUDE
 LONG.deg                51.17:  LONGITUDE
 WHNS.m                  -5.90:  WELL HEAD N/S
 WHEW.m                  -6.61:  WELL HEAD E/W
 UTMX.m              514337.95:  UTM X
 UTMY.m             4448627.46:  UTM Y
 DFWL.m                   0.00:  DISTANCE FWL
 DFSL.m                   0.00:  DISTANCE FSL
 SDEP.m                2606.87:  START DEPTH
 TDD .m                3618.01:  TOTAL DEPTH (DRILLER)
 VSDR.deg               177.42:  VERT SEC DIRECT
 GVFD.g                   1.00:  GRAVITY FIELD
 MFLD.nT              50399.00:  MAGNETIC FIELD
 MDIP.deg                59.67:  MAGNETIC DIP
 MDEC.deg                 6.56:  MAGNETIC DECL
 GRDC.deg                 0.11:  GRID CORRECTION
 AZTC.deg                 6.45:  AZM TOTAL CORR
 EPD .m                   0.00:  ELEVATION
 EGL .m                   0.00:  GROUND ELEVATION
 WDMS.m                 176.20:  WD ELEV
 APD .m                  43.16:  DEPTH ABOVE PD
 DEP .m                2606.87:  DEPTH
 AGAP.m                  43.16:  AIR GAP
 VSEW.m                  -6.61:  VERT SEC E/W
 VSNS.m                  -5.90:  VERT SEC N/S
 EKB .m                  43.16:  KB ELEVATION
 EDF .m                  43.16:  DF ELEVATION
 TDL .m                 438.00:  TOTAL DEPTH (LOGGER)
 VSC .                       0:  VS TO CLOSURE
 MAGU.                 1855490:  MAGUTM CHECKSUM
~Parameter Information Block
#MNEM.UNIT       Value        Description
#---------     -----------    ---------------------------
 AV  .mps                 2.20:  Ann Velocity 
 AVMX.mps                 2.50:  Max Ann Veloc 
 AZIF.deg               150.21:  Azm, Final 
 BHAT.        Rotary Steerable:  BHA Type 
 BROT.°/30m               0.08:  Build Rotating 
 BS  .in                  6.50:  Bit Size 
 BSZ .in                  6.50:  Bit Size 
 BTPL.psig              108.00:  Bit Press Loss 
 CABU.                     Yes:  Customer Abuse 
 CGEO.           Emin Aliyarli:  Customer Geo 
 COMM.                     Ô8c:  Run Comments 1 
 TCS .hr                 74.20:  Time Ciculation Ended 
 CV  .mps                 3.63:  Crit Velocity 
 CVMX.mps                 3.66:  Max Crit Veloc 
 DD1 .         Intigam Rahimov:  Direct Drillr 1 
 DD2 .          Teymur Aghayev:  Direct Drillr 2 
 DDSV.               Geo-Pilot:  DD Service 
 DEFF.%                  97.00:  % Det Eff 
 DLRX.°/30m               1.63:  Dogleg Rot Max 
 DLSO.°/30m               0.00:  Dogleg Oriented 
 DLSX.°/30m               0.00:  Dogleg Str Max 
 DRET.      20.20.00 28-Apr-21:  Drill End Time 
 DRST.      04.45.00 26-Apr-21:  Drill Start Tim 
 DTIM.hr                 34.30:  Time Drilling 
 EDEP.m                3618.01:  End Depth 
 ENG1.           Amrah Tahirov:  Engineer 1 
 ENG2.         Bahruz Mehdiyev:  Engineer 2 
 ENG3.         Farhad Orujzade:  Engineer 3 
 ETIM.      19.00.00 29-Apr-21:  End Time 
 FLOI.gpm               370.00:  Flow In 
 FLON.gpm               300.00:  Flow In Min 
 FLOS.cptm                0.00:  Fluid Loss 
 FLOX.gpm               410.00:  Flow In Max 
 HFLO.                      No:  High Flow 
 HPRE.                      No:  High Pressure 
 HTEM.                      No:  High Temp 
 HYDO.m                   1.80:  Hydro Offset 
 IFIN.deg                67.19:  Inc, Final 
 IMAX.deg                68.42:  Inc Max 
 IMIN.deg                66.33:  Inc Min 
 IMND.m                3532.79:  Inc Min Depth 
 IMXD.m                3192.15:  Inc Max Depth 
 JARR.                      No:  Jarring 
 LETM.      20.20.00 28-Apr-21:  Log End Time 
 LOST.hr                     0:  Lost Rig Time 
 LSTM.      04.45.00 26-Apr-21:  Log Start Time 
 MDCL.ppm             36500.00:  Mud Chlorides 
 MDES.     Inversion Oil/Synthetic:  Mud Desc 
 DFD .sg                  1.42:  Mud Density 
 MDMN.sg                  1.42:  Dens Mud Min 
 MDMX.sg                  1.42:  Dens Mud Max 
 MOIL.                    55.7:  Run Mud Oil % 
 MOWR.                   71:29:  Run Mud OWR 
 MSND.                     0.1:  Run Mud Sand % 
 MSOL.                    19.9:  Run Mud Solids% 
 DFV .spqt               83.00:  Mud Viscosity 
 MWOD.in                  5.15:  MWD Tool OD 
 MWSI.                      No:  Serv Intrp, MWD 
 OTIM.hr                120.59:  Time Operating 
 PCON.           Look Like New:  Pad Condition 
 PMAX.psia            11292.93:  Press Op, Max 
 PV  .cP                 27.00:  Mud PV 
 RUN .                     400:  Run Number 
 ROPA.m/hr               14.00:  ROP Avg 
 ROPN.m/hr                9.00:  ROP Min 
 ROPX.m/hr               18.00:  ROP Max 
 RPMA.rpm               130.00:  RPM Surface Avg 
 RPMN.rpm               100.00:  RPM Surface Min 
 RPMX.rpm               140.00:  RPM Surface Max 
 RRUN.                    0400:  Rig Run Number 
 RTIM.hr                 38.60:  Time Reaming 
 SAZI.deg               149.55:  Azm, Start 
 SDEP.m                3180.01:  Start Depth 
 SIDD.                      No:  Serv Intrp, DD 
 SINC.deg                68.42:  Inc, Start 
 SPPA.psig             4400.00:  SPP Avg 
 SPPN.psig             3580.00:  SPP Min 
 SPPX.psig             4850.00:  SPP Max 
 STIM.      12.30.00 24-Apr-21:  Start Time 
 SVCS.                 DD, MWD:  Services 
 SVER.                    9.20:  Sperry Version 
 TDAT.m                 438.00:  Tot Depth Attmp 
 TDDF.                      No:  Trip for DD 
 TDLG.m                 438.00:  Tot Depth Loggd 
 TFF .                      No:  Trip for Fail 
 TQAA.f-kp               11.00:  Torque Abs Avg 
 TQAN.f-kp                9.00:  Torque Abs Min 
 TQAX.f-kp               14.00:  Torque Abs Max 
 TRRT.°/30m               0.04:  Turn Rotating 
 MRT .                    HCIM:  Maximum Recorded Temperature 
 TTMX.degC               84.31:  Max Tool Temp 
 VS01.                90521954:  Virtual Str1 SN 
 VS02.                90519327:  Virtual Str2 SN 
 VS03.                90522273:  Virtual Str3 SN 
 VS04.                11108038:  Virtual Str4 SN 
 VS05.                12258760:  Virtual Str5 SN 
 WBMN.klb                 1.00:  WOB Min 
 WITN.           Adil Mammadov:  Customer Rep 
 WITN.         Alex Yadullayev:  Customer Rep 2 
 WOBA.klb                 6.00:  WOB Avg 
 WOBX.klb                 9.00:  WOB Max 
 YP  .lhf2               31.00:  Yield Point 
~Curve Information Block
#MNEM.UNIT                 API CODE     Curve Description
#---------               -----------    ---------------------------
 TIME.HHMMSS            00 000 000 000:  GT Time & Date
 GTDEPTH.m              00 000 000 000:  GT Depth
 GTPQH.psia             00 000 000 000:  GT HR Quartz Pressure
 GTTQ.degC              00 000 000 000:  GT Quartz Temperature
 GTTN.NONE              00 000 000 000:  GT Test Number
 GTET.sec               00 000 000 000:  GT Elapsed Test Time
 GTTVD.m                00 000 000 000:  GT True Vertical Depth
#Other Information
#
#WARRANTY: Halliburton will use its best efforts to furnish customers with 
#accurate information and interpretations that are part of, and incident to, the services 
#provided.  However, Halliburton cannot and does not warrant the accuracy 
#or correctness of such information and interpretations.  Under no circumstances should any 
#such information or interpretation be relied upon as the sole basis for any drilling, 
#completion, production, or financial decision or any procedure involving any risk to the 
#safety of any drilling venture, drilling rig or its crew or any other third party.  The 
#Customer has full responsibility for all drilling, completion and production operation.  
#Halliburton makes no representations or warranties, either expressed or 
#implied, including, but not limited to, the implied warranties of merchantability or fitness 
#for a particular purpose, with respect to the services rendered.  In no event will 
#Halliburton be liable for failure to obtain any particular results or for 
#any damages, including, but not limited to, indirect, special or consequential damages, 
#resulting from the use of any information or interpretation provided by Halliburton.
#
~A           TIME           GTDEPTH  GTPQH  GTTQ  GTTN  GTET   GTTVD  
   06:54:29.771.28-Apr-2021 3473.01 6051.78 73.19 8.00   0.00 2748.71
   06:54:29.971.28-Apr-2021 3473.01 6051.78 73.19 8.00   0.20 2748.71
   06:54:30.171.28-Apr-2021 3473.01 6049.89 73.19 8.00   0.40 2748.71
   06:54:30.371.28-Apr-2021 3473.01 6048.60 73.19 8.00   0.60 2748.71
   06:54:30.571.28-Apr-2021 3473.01 6042.22 73.19 8.00   0.80 2748.71
   06:54:30.772.28-Apr-2021 3473.01 6053.78 73.19 8.00   1.00 2748.71
   06:54:30.972.28-Apr-2021 3473.01 6053.78 73.19 8.00   1.20 2748.71
   06:54:31.172.28-Apr-2021 3473.01 6051.22 73.19 8.00   1.40 2748.71
   06:54:31.372.28-Apr-2021 3473.01 6050.80 73.19 8.00   1.60 2748.71
   06:54:31.572.28-Apr-2021 3473.01 6055.19 73.19 8.00   1.80 2748.71
   06:54:31.772.28-Apr-2021 3473.01 6056.02 73.19 8.00   2.00 2748.71
   06:54:31.972.28-Apr-2021 3473.01 6056.02 73.19 8.00   2.20 2748.71
   06:54:32.172.28-Apr-2021 3473.01 6055.69 73.19 8.00   2.40 2748.71
   06:54:32.372.28-Apr-2021 3473.01 6055.57 73.19 8.00   2.60 2748.71
   06:54:32.572.28-Apr-2021 3473.01 6057.20 73.19 8.00   2.80 2748.71
   06:54:32.772.28-Apr-2021 3473.01 6056.40 73.18 8.00   3.00 2748.71
   06:54:32.972.28-Apr-2021 3473.01 6056.40 73.18 8.00   3.20 2748.71
   06:54:33.172.28-Apr-2021 3473.01 6056.19 73.18 8.00   3.40 2748.71
   06:54:33.372.28-Apr-2021 3473.01 6043.97 73.18 8.00   3.60 2748.71
   06:54:33.572.28-Apr-2021 3473.01 6055.97 73.18 8.00   3.80 2748.71
   06:54:33.772.28-Apr-2021 3473.01 6054.54 73.18 8.00   4.00 2748.71
   06:54:33.972.28-Apr-2021 3473.01 6054.54 73.18 8.00   4.20 2748.71
   06:54:34.172.28-Apr-2021 3473.01 6038.88 73.18 8.00   4.40 2748.71
   06:54:34.372.28-Apr-2021 3473.01 6052.81 73.18 8.00   4.60 2748.71
   06:54:34.572.28-Apr-2021 3473.01 6053.17 73.18 8.00   4.80 2748.71
   06:54:34.772.28-Apr-2021 3473.01 6049.85 73.18 8.00   5.00 2748.71
   06:54:34.972.28-Apr-2021 3473.01 6049.85 73.18 8.00   5.20 2748.71
   06:54:35.172.28-Apr-2021 3473.01 6051.27 73.18 8.00   5.40 2748.71
   06:54:35.372.28-Apr-2021 3473.01 6043.54 73.18 8.00   5.60 2748.71
   06:54:35.572.28-Apr-2021 3473.01 6052.63 73.17 8.00   5.80 2748.71
   06:54:35.772.28-Apr-2021 3473.01 6051.06 73.17 8.00   6.00 2748.71
   06:54:35.972.28-Apr-2021 3473.01 6051.06 73.17 8.00   6.20 2748.71
   06:54:36.172.28-Apr-2021 3473.01 6039.30 73.17 8.00   6.40 2748.71
   06:54:36.372.28-Apr-2021 3473.01 6054.28 73.17 8.00   6.60 2748.71
   06:54:36.572.28-Apr-2021 3473.01 6054.18 73.17 8.00   6.80 2748.71
   06:54:36.772.28-Apr-2021 3473.01 6053.56 73.17 8.00   7.00 2748.71
   06:54:36.972.28-Apr-2021 3473.01 6053.56 73.17 8.00   7.20 2748.71
   06:54:37.172.28-Apr-2021 3473.01 6053.56 73.17 8.00   7.40 2748.71
   06:54:37.372.28-Apr-2021 3473.01 6055.32 73.17 8.00   7.60 2748.71
   06:54:37.573.28-Apr-2021 3473.01 6047.55 73.17 8.00   7.80 2748.71
   06:54:37.773.28-Apr-2021 3473.01 6051.06 73.17 8.00   8.00 2748.71
   06:54:37.973.28-Apr-2021 3473.01 6054.97 73.17 8.00   8.20 2748.71
   06:54:38.173.28-Apr-2021 3473.01 6054.97 73.17 8.00   8.40 2748.71
   06:54:38.373.28-Apr-2021 3473.01 6055.40 73.17 8.00   8.60 2748.71
   06:54:38.573.28-Apr-2021 3473.01 6055.65 73.17 8.00   8.80 2748.71
   06:54:38.773.28-Apr-2021 3473.01 6056.64 73.16 8.00   9.00 2748.71
   06:54:38.973.28-Apr-2021 3473.01 6056.64 73.16 8.00   9.20 2748.71
   06:54:39.173.28-Apr-2021 3473.01 6053.66 73.16 8.00   9.40 2748.71
   06:54:39.373.28-Apr-2021 3473.01 6046.07 73.16 8.00   9.60 2748.71
   06:54:39.573.28-Apr-2021 3473.01 6056.68 73.16 8.00   9.80 2748.71
   06:54:39.773.28-Apr-2021 3473.01 6054.88 73.16 8.00  10.00 2748.71
   06:54:39.973.28-Apr-2021 3473.01 6054.88 73.16 8.00  10.20 2748.71
   06:54:40.173.28-Apr-2021 3473.01 6049.87 73.16 8.00  10.40 2748.71
   06:54:40.373.28-Apr-2021 3473.01 6051.58 73.16 8.00  10.60 2748.71
   06:54:40.573.28-Apr-2021 3473.01 6044.85 73.16 8.00  10.80 2748.71
   06:54:40.773.28-Apr-2021 3473.01 6040.84 73.16 8.00  11.00 2748.71
   06:54:40.973.28-Apr-2021 3473.01 6040.84 73.16 8.00  11.20 2748.71
   06:54:41.173.28-Apr-2021 3473.01 6008.00 73.16 8.00  11.40 2748.71
   06:54:41.373.28-Apr-2021 3473.01 5997.79 73.16 8.00  11.60 2748.71
   06:54:41.573.28-Apr-2021 3473.01 5988.83 73.16 8.00  11.80 2748.71
   06:54:41.773.28-Apr-2021 3473.01 5976.70 73.15 8.00  12.00 2748.71
   06:54:41.973.28-Apr-2021 3473.01 5976.70 73.15 8.00  12.20 2748.71
   06:54:42.173.28-Apr-2021 3473.01 5971.33 73.15 8.00  12.40 2748.71
   06:54:42.373.28-Apr-2021 3473.01 5970.80 73.15 8.00  12.60 2748.71
   06:54:42.573.28-Apr-2021 3473.01 5964.84 73.15 8.00  12.80 2748.71
   06:54:42.773.28-Apr-2021 3473.01 5900.02 73.15 8.00  13.00 2748.71
   06:54:42.973.28-Apr-2021 3473.01 5900.02 73.15 8.00  13.20 2748.71
   06:54:43.173.28-Apr-2021 3473.01 5747.88 73.15 8.00  13.40 2748.71
   06:54:43.373.28-Apr-2021 3473.01 5666.05 73.15 8.00  13.60 2748.71
   06:54:43.573.28-Apr-2021 3473.01 5578.03 73.15 8.00  13.80 2748.71
   06:54:43.773.28-Apr-2021 3473.01 5478.99 73.15 8.00  14.00 2748.71
   06:54:43.973.28-Apr-2021 3473.01 5478.99 73.15 8.00  14.20 2748.71
   06:54:44.173.28-Apr-2021 3473.01 5269.58 73.15 8.00  14.40 2748.71
   06:54:44.374.28-Apr-2021 3473.01 5192.77 73.15 8.00  14.60 2748.71
   06:54:44.574.28-Apr-2021 3473.01 5070.89 73.14 8.00  14.80 2748.71
   06:54:44.774.28-Apr-2021 3473.01 4997.92 73.14 8.00  15.00 2748.71
   06:54:44.974.28-Apr-2021 3473.01 4997.92 73.14 8.00  15.20 2748.71
   06:54:45.174.28-Apr-2021 3473.01 4786.07 73.14 8.00  15.40 2748.71
   06:54:45.374.28-Apr-2021 3473.01 4715.38 73.14 8.00  15.60 2748.71
   06:54:45.574.28-Apr-2021 3473.01 4654.37 73.14 8.00  15.80 2748.71
   06:54:45.774.28-Apr-2021 3473.01 4621.27 73.14 8.00  16.00 2748.71
   06:54:45.974.28-Apr-2021 3473.01 4621.27 73.14 8.00  16.20 2748.71
   06:54:46.174.28-Apr-2021 3473.01 4540.26 73.14 8.00  16.40 2748.71
   06:54:46.374.28-Apr-2021 3473.01 4497.83 73.14 8.00  16.60 2748.71
   06:54:46.574.28-Apr-2021 3473.01 4483.43 73.13 8.00  16.80 2748.71
   06:54:46.774.28-Apr-2021 3473.01 4447.89 73.13 8.00  17.00 2748.71
   06:54:46.974.28-Apr-2021 3473.01 4447.89 73.13 8.00  17.20 2748.71
   06:54:47.174.28-Apr-2021 3473.01 4453.24 73.13 8.00  17.40 2748.71
   06:54:47.374.28-Apr-2021 3473.01 4458.13 73.13 8.00  17.60 2748.71
   06:54:47.574.28-Apr-2021 3473.01 4463.43 73.13 8.00  17.80 2748.71
   06:54:47.774.28-Apr-2021 3473.01 5265.70 73.13 8.00  18.00 2748.71
   06:54:47.974.28-Apr-2021 3473.01 5265.70 73.13 8.00  18.20 2748.71
   06:54:48.174.28-Apr-2021 3473.01 6756.84 73.13 8.00  18.40 2748.71
   06:54:48.374.28-Apr-2021 3473.01 6969.10 73.13 8.00  18.60 2748.71
   06:54:48.574.28-Apr-2021 3473.01 6990.03 73.12 8.00  18.80 2748.71
   06:54:48.774.28-Apr-2021 3473.01 7000.09 73.12 8.00  19.00 2748.71
   06:54:48.974.28-Apr-2021 3473.01 7000.09 73.12 8.00  19.20 2748.71
   06:54:49.174.28-Apr-2021 3473.01 6919.02 73.12 8.00  19.40 2748.71
   06:54:49.374.28-Apr-2021 3473.01 6799.16 73.12 8.00  19.60 2748.71
   06:54:49.574.28-Apr-2021 3473.01 6909.97 73.12 8.00  19.80 2748.71
   06:54:49.774.28-Apr-2021 3473.01 6951.16 73.12 8.00  20.00 2748.71
   06:54:49.974.28-Apr-2021 3473.01 6951.16 73.12 8.00  20.20 2748.71
   06:54:50.174.28-Apr-2021 3473.01 7007.67 73.12 8.00  20.40 2748.71
   06:54:50.374.28-Apr-2021 3473.01 7021.17 73.12 8.00  20.60 2748.71
   06:54:50.574.28-Apr-2021 3473.01 7030.35 73.12 8.00  20.80 2748.71
   06:54:50.774.28-Apr-2021 3473.01 7028.11 73.12 8.00  21.00 2748.71
   06:54:50.974.28-Apr-2021 3473.01 7028.11 73.12 8.00  21.20 2748.71
   06:54:51.175.28-Apr-2021 3473.01 7039.00 73.12 8.00  21.40 2748.71
   06:54:51.375.28-Apr-2021 3473.01 7044.38 73.12 8.00  21.60 2748.71
   06:54:51.575.28-Apr-2021 3473.01 7048.97 73.12 8.00  21.80 2748.71
   06:54:51.775.28-Apr-2021 3473.01 7053.79 73.12 8.00  22.00 2748.71
   06:54:51.975.28-Apr-2021 3473.01 7053.79 73.12 8.00  22.20 2748.71
   06:54:52.175.28-Apr-2021 3473.01 7060.50 73.12 8.00  22.40 2748.71
   06:54:52.375.28-Apr-2021 3473.01 7061.14 73.12 8.00  22.60 2748.71
   06:54:52.575.28-Apr-2021 3473.01 7063.50 73.12 8.00  22.80 2748.71
