~Version Information
 VERS.                  2.0:   CWLS log ASCII Standard -VERSION 2.0
 WRAP.                   NO:   One line per depth step
~Well Information Block
#MNEM.UNIT     VALUE/NAME     DESCRIPTION
#---------     -----------    ---------------------------
 STRT.S             19:03:38 27-Apr-21: START TIME 19:03:38 27-Apr-21
 STOP.S             19:10:06 27-Apr-21: STOP TIME  19:10:06 27-Apr-21
 STEP.S                   0.00: STEP TIME
 NULL.                 -999.25: NULL VALUE
 DFWT.                        :  DIST FWL TEXT
 DFST.                        :  DIST FSL TEXT
 DMF .             Drill Floor:  DRILL MEAS FROM
 STIM.      02.00.00 12-Apr-21:  START TIME
 DATE.      02.00.00 02-May-21:  END TIME
 SPUD.               09-Apr-21:  SPUD DATE
 NREF.                    Grid:  NORTH REFERENCE
 HPTY.       Minimum Curvature:  HOLE POS TYPE
 DMOD.             Drill Model:  DRILL MOD DESC
 SVYD.                  Survey:  SURVEY DESC
 ILTD.               Lithology:  INTERP LTH DESC
 FTOP.          Formation Tops:  FORM TOPS DESC
 PDAT.          Mean Sea Level:  PERMANENT DATUM
 FLD .                     ACG:  FIELD NAME
 SON .        AZ-XX-0907021034:  JOB NUMBER
 CTRY.              Azerbaijan:  COUNTRY NAME
 WELL.                    E01x:  WELL NAME
 COMP.     BP Exploration (Caspian Sea) LTD.:  COMPANY
 UWI .            /AZE00001403:  UNIQUE WELL IDENTIFIER
 API .            /AZE00001403:  API NUMBER
 WTYP.                Deviated:  WELL TYPE
 MDS .        Operator Entered:  MAG DATA SOURCE
 BASE.              Azerbaijan:  LOGGING EQUIPMENT BASE LOCATION
 REGN.                   EESSA:  REGION
 PROV.                    Baku:  PROVINCE
 STAT.                    Baku:  STATE NAME
 SRVC.          Turan Drilling:  CONTRACTOR
 MWDS.                    Baku:  MWD SHOP
 JOBN.        AZ-XX-0907021034:  JOB TICKET NUMB
 RIG .                     DWG:  RIG NAME
 DOE .                     N/A:  DOE NUMBER
 DCON.         Sperry Drilling:  DIRECTNL CONTR
 UNIT.                     N/A:  LOGGING EQUIPMENT ID
 CNTY.                        :  COUNTY
 LOC .                        :  LOCATION
 LMF .             Drill Floor:  LOG MEASURED FROM
 TVDS.m                  43.16:  TVDSS CORRECTN
 LATI.deg                40.17:  LATITUDE
 LONG.deg                51.17:  LONGITUDE
 WHNS.m                  -5.90:  WELL HEAD N/S
 WHEW.m                  -6.61:  WELL HEAD E/W
 UTMX.m              514337.95:  UTM X
 UTMY.m             4448627.46:  UTM Y
 DFWL.m                   0.00:  DISTANCE FWL
 DFSL.m                   0.00:  DISTANCE FSL
 SDEP.m                2606.87:  START DEPTH
 TDD .m                3618.01:  TOTAL DEPTH (DRILLER)
 VSDR.deg               177.42:  VERT SEC DIRECT
 GVFD.g                   1.00:  GRAVITY FIELD
 MFLD.nT              50399.00:  MAGNETIC FIELD
 MDIP.deg                59.67:  MAGNETIC DIP
 MDEC.deg                 6.56:  MAGNETIC DECL
 GRDC.deg                 0.11:  GRID CORRECTION
 AZTC.deg                 6.45:  AZM TOTAL CORR
 EPD .m                   0.00:  ELEVATION
 EGL .m                   0.00:  GROUND ELEVATION
 WDMS.m                 176.20:  WD ELEV
 APD .m                  43.16:  DEPTH ABOVE PD
 DEP .m                2606.87:  DEPTH
 AGAP.m                  43.16:  AIR GAP
 VSEW.m                  -6.61:  VERT SEC E/W
 VSNS.m                  -5.90:  VERT SEC N/S
 EKB .m                  43.16:  KB ELEVATION
 EDF .m                  43.16:  DF ELEVATION
 TDL .m                 438.00:  TOTAL DEPTH (LOGGER)
 VSC .                       0:  VS TO CLOSURE
 MAGU.                 1855490:  MAGUTM CHECKSUM
~Parameter Information Block
#MNEM.UNIT       Value        Description
#---------     -----------    ---------------------------
 AV  .mps                 2.20:  Ann Velocity 
 AVMX.mps                 2.50:  Max Ann Veloc 
 AZIF.deg               150.21:  Azm, Final 
 BHAT.        Rotary Steerable:  BHA Type 
 BROT.°/30m               0.08:  Build Rotating 
 BS  .in                  6.50:  Bit Size 
 BSZ .in                  6.50:  Bit Size 
 BTPL.psig              108.00:  Bit Press Loss 
 CABU.                     Yes:  Customer Abuse 
 CGEO.           Emin Aliyarli:  Customer Geo 
 COMM.                     LÊS:  Run Comments 1 
 TCS .hr                 74.20:  Time Ciculation Ended 
 CV  .mps                 3.63:  Crit Velocity 
 CVMX.mps                 3.66:  Max Crit Veloc 
 DD1 .         Intigam Rahimov:  Direct Drillr 1 
 DD2 .          Teymur Aghayev:  Direct Drillr 2 
 DDSV.               Geo-Pilot:  DD Service 
 DEFF.%                  97.00:  % Det Eff 
 DLRX.°/30m               1.63:  Dogleg Rot Max 
 DLSO.°/30m               0.00:  Dogleg Oriented 
 DLSX.°/30m               0.00:  Dogleg Str Max 
 DRET.      20.20.00 28-Apr-21:  Drill End Time 
 DRST.      04.45.00 26-Apr-21:  Drill Start Tim 
 DTIM.hr                 34.30:  Time Drilling 
 EDEP.m                3618.01:  End Depth 
 ENG1.           Amrah Tahirov:  Engineer 1 
 ENG2.         Bahruz Mehdiyev:  Engineer 2 
 ENG3.         Farhad Orujzade:  Engineer 3 
 ETIM.      19.00.00 29-Apr-21:  End Time 
 FLOI.gpm               370.00:  Flow In 
 FLON.gpm               300.00:  Flow In Min 
 FLOS.cptm                0.00:  Fluid Loss 
 FLOX.gpm               410.00:  Flow In Max 
 HFLO.                      No:  High Flow 
 HPRE.                      No:  High Pressure 
 HTEM.                      No:  High Temp 
 HYDO.m                   1.80:  Hydro Offset 
 IFIN.deg                67.19:  Inc, Final 
 IMAX.deg                68.42:  Inc Max 
 IMIN.deg                66.33:  Inc Min 
 IMND.m                3532.79:  Inc Min Depth 
 IMXD.m                3192.15:  Inc Max Depth 
 JARR.                      No:  Jarring 
 LETM.      20.20.00 28-Apr-21:  Log End Time 
 LOST.hr                     0:  Lost Rig Time 
 LSTM.      04.45.00 26-Apr-21:  Log Start Time 
 MDCL.ppm             36500.00:  Mud Chlorides 
 MDES.     Inversion Oil/Synthetic:  Mud Desc 
 DFD .sg                  1.42:  Mud Density 
 MDMN.sg                  1.42:  Dens Mud Min 
 MDMX.sg                  1.42:  Dens Mud Max 
 MOIL.                    55.7:  Run Mud Oil % 
 MOWR.                   71:29:  Run Mud OWR 
 MSND.                     0.1:  Run Mud Sand % 
 MSOL.                    19.9:  Run Mud Solids% 
 DFV .spqt               83.00:  Mud Viscosity 
 MWOD.in                  5.15:  MWD Tool OD 
 MWSI.                      No:  Serv Intrp, MWD 
 OTIM.hr                120.59:  Time Operating 
 PCON.           Look Like New:  Pad Condition 
 PMAX.psia            11292.93:  Press Op, Max 
 PV  .cP                 27.00:  Mud PV 
 RUN .                     400:  Run Number 
 ROPA.m/hr               14.00:  ROP Avg 
 ROPN.m/hr                9.00:  ROP Min 
 ROPX.m/hr               18.00:  ROP Max 
 RPMA.rpm               130.00:  RPM Surface Avg 
 RPMN.rpm               100.00:  RPM Surface Min 
 RPMX.rpm               140.00:  RPM Surface Max 
 RRUN.                    0400:  Rig Run Number 
 RTIM.hr                 38.60:  Time Reaming 
 SAZI.deg               149.55:  Azm, Start 
 SDEP.m                3180.01:  Start Depth 
 SIDD.                      No:  Serv Intrp, DD 
 SINC.deg                68.42:  Inc, Start 
 SPPA.psig             4400.00:  SPP Avg 
 SPPN.psig             3580.00:  SPP Min 
 SPPX.psig             4850.00:  SPP Max 
 STIM.      12.30.00 24-Apr-21:  Start Time 
 SVCS.                 DD, MWD:  Services 
 SVER.                    9.20:  Sperry Version 
 TDAT.m                 438.00:  Tot Depth Attmp 
 TDDF.                      No:  Trip for DD 
 TDLG.m                 438.00:  Tot Depth Loggd 
 TFF .                      No:  Trip for Fail 
 TQAA.f-kp               11.00:  Torque Abs Avg 
 TQAN.f-kp                9.00:  Torque Abs Min 
 TQAX.f-kp               14.00:  Torque Abs Max 
 TRRT.°/30m               0.04:  Turn Rotating 
 MRT .                    HCIM:  Maximum Recorded Temperature 
 TTMX.degC               84.31:  Max Tool Temp 
 VS01.                90521954:  Virtual Str1 SN 
 VS02.                90519327:  Virtual Str2 SN 
 VS03.                90522273:  Virtual Str3 SN 
 VS04.                11108038:  Virtual Str4 SN 
 VS05.                12258760:  Virtual Str5 SN 
 WBMN.klb                 1.00:  WOB Min 
 WITN.           Adil Mammadov:  Customer Rep 
 WITN.         Alex Yadullayev:  Customer Rep 2 
 WOBA.klb                 6.00:  WOB Avg 
 WOBX.klb                 9.00:  WOB Max 
 YP  .lhf2               31.00:  Yield Point 
~Curve Information Block
#MNEM.UNIT                 API CODE     Curve Description
#---------               -----------    ---------------------------
 TIME.HHMMSS            00 000 000 000:  GT Time & Date
 GTDEPTH.m              00 000 000 000:  GT Depth
 GTPQH.psia             00 000 000 000:  GT HR Quartz Pressure
 GTTQ.degC              00 000 000 000:  GT Quartz Temperature
 GTTN.NONE              00 000 000 000:  GT Test Number
 GTET.sec               00 000 000 000:  GT Elapsed Test Time
 GTTVD.m                00 000 000 000:  GT True Vertical Depth
#Other Information
#
#WARRANTY: Halliburton will use its best efforts to furnish customers with 
#accurate information and interpretations that are part of, and incident to, the services 
#provided.  However, Halliburton cannot and does not warrant the accuracy 
#or correctness of such information and interpretations.  Under no circumstances should any 
#such information or interpretation be relied upon as the sole basis for any drilling, 
#completion, production, or financial decision or any procedure involving any risk to the 
#safety of any drilling venture, drilling rig or its crew or any other third party.  The 
#Customer has full responsibility for all drilling, completion and production operation.  
#Halliburton makes no representations or warranties, either expressed or 
#implied, including, but not limited to, the implied warranties of merchantability or fitness 
#for a particular purpose, with respect to the services rendered.  In no event will 
#Halliburton be liable for failure to obtain any particular results or for 
#any damages, including, but not limited to, indirect, special or consequential damages, 
#resulting from the use of any information or interpretation provided by Halliburton.
#
~A           TIME           GTDEPTH  GTPQH  GTTQ  GTTN  GTET   GTTVD  
   19:03:38.627.27-Apr-2021 3392.01 6024.87 73.52 5.00   0.00 2716.87
   19:03:38.827.27-Apr-2021 3392.01 6024.87 73.52 5.00   0.20 2716.87
   19:03:39.027.27-Apr-2021 3392.01 6018.09 73.51 5.00   0.40 2716.87
   19:03:39.227.27-Apr-2021 3392.01 6023.89 73.51 5.00   0.60 2716.87
   19:03:39.427.27-Apr-2021 3392.01 6025.49 73.51 5.00   0.80 2716.87
   19:03:39.627.27-Apr-2021 3392.01 6026.04 73.51 5.00   1.00 2716.87
   19:03:39.827.27-Apr-2021 3392.01 6026.04 73.51 5.00   1.20 2716.87
   19:03:40.027.27-Apr-2021 3392.01 6016.88 73.51 5.00   1.40 2716.87
   19:03:40.227.27-Apr-2021 3392.01 6025.95 73.51 5.00   1.60 2716.87
   19:03:40.427.27-Apr-2021 3392.01 6025.94 73.51 5.00   1.80 2716.87
   19:03:40.627.27-Apr-2021 3392.01 6022.75 73.51 5.00   2.00 2716.87
   19:03:40.827.27-Apr-2021 3392.01 6022.75 73.51 5.00   2.20 2716.87
   19:03:41.027.27-Apr-2021 3392.01 6014.49 73.51 5.00   2.40 2716.87
   19:03:41.227.27-Apr-2021 3392.01 6026.28 73.51 5.00   2.60 2716.87
   19:03:41.428.27-Apr-2021 3392.01 6025.71 73.51 5.00   2.80 2716.87
   19:03:41.628.27-Apr-2021 3392.01 6020.52 73.51 5.00   3.00 2716.87
   19:03:41.828.27-Apr-2021 3392.01 6020.52 73.51 5.00   3.20 2716.87
   19:03:42.028.27-Apr-2021 3392.01 6026.89 73.50 5.00   3.40 2716.87
   19:03:42.228.27-Apr-2021 3392.01 6013.06 73.50 5.00   3.60 2716.87
   19:03:42.428.27-Apr-2021 3392.01 6025.00 73.50 5.00   3.80 2716.87
   19:03:42.628.27-Apr-2021 3392.01 6023.85 73.50 5.00   4.00 2716.87
   19:03:42.828.27-Apr-2021 3392.01 6023.85 73.50 5.00   4.20 2716.87
   19:03:43.028.27-Apr-2021 3392.01 6011.39 73.50 5.00   4.40 2716.87
   19:03:43.228.27-Apr-2021 3392.01 6024.24 73.50 5.00   4.60 2716.87
   19:03:43.428.27-Apr-2021 3392.01 6024.28 73.50 5.00   4.80 2716.87
   19:03:43.628.27-Apr-2021 3392.01 6018.77 73.50 5.00   5.00 2716.87
   19:03:43.828.27-Apr-2021 3392.01 6018.77 73.50 5.00   5.20 2716.87
   19:03:44.028.27-Apr-2021 3392.01 6018.77 73.50 5.00   5.40 2716.87
   19:03:44.228.27-Apr-2021 3392.01 6024.48 73.50 5.00   5.60 2716.87
   19:03:44.428.27-Apr-2021 3392.01 6019.67 73.50 5.00   5.80 2716.87
   19:03:44.628.27-Apr-2021 3392.01 6024.11 73.50 5.00   6.00 2716.87
   19:03:44.828.27-Apr-2021 3392.01 6024.11 73.50 5.00   6.20 2716.87
   19:03:45.028.27-Apr-2021 3392.01 6024.11 73.50 5.00   6.40 2716.87
   19:03:45.228.27-Apr-2021 3392.01 6024.11 73.50 5.00   6.60 2716.87
   19:03:45.428.27-Apr-2021 3392.01 6021.05 73.49 5.00   6.80 2716.87
   19:03:45.629.27-Apr-2021 3392.01 6027.73 73.49 5.00   7.00 2716.87
   19:03:45.829.27-Apr-2021 3392.01 6026.91 73.49 5.00   7.20 2716.87
   19:03:46.029.27-Apr-2021 3392.01 6013.07 73.49 5.00   7.40 2716.87
   19:03:46.229.27-Apr-2021 3392.01 6028.83 73.49 5.00   7.60 2716.87
   19:03:46.429.27-Apr-2021 3392.01 6023.52 73.49 5.00   7.80 2716.87
   19:03:46.629.27-Apr-2021 3392.01 6024.10 73.49 5.00   8.00 2716.87
   19:03:46.829.27-Apr-2021 3392.01 6024.10 73.49 5.00   8.20 2716.87
   19:03:47.029.27-Apr-2021 3392.01 6026.26 73.49 5.00   8.40 2716.87
   19:03:47.229.27-Apr-2021 3392.01 6026.46 73.49 5.00   8.60 2716.87
   19:03:47.429.27-Apr-2021 3392.01 6027.41 73.49 5.00   8.80 2716.87
   19:03:47.629.27-Apr-2021 3392.01 6026.39 73.48 5.00   9.00 2716.87
   19:03:47.829.27-Apr-2021 3392.01 6026.39 73.48 5.00   9.20 2716.87
   19:03:48.029.27-Apr-2021 3392.01 6026.80 73.48 5.00   9.40 2716.87
   19:03:48.229.27-Apr-2021 3392.01 6017.59 73.48 5.00   9.60 2716.87
   19:03:48.429.27-Apr-2021 3392.01 6014.16 73.48 5.00   9.80 2716.87
   19:03:48.629.27-Apr-2021 3392.01 5984.12 73.48 5.00  10.00 2716.87
   19:03:48.829.27-Apr-2021 3392.01 5984.12 73.48 5.00  10.20 2716.87
   19:03:49.029.27-Apr-2021 3392.01 5969.86 73.48 5.00  10.40 2716.87
   19:03:49.229.27-Apr-2021 3392.01 5963.28 73.48 5.00  10.60 2716.87
   19:03:49.429.27-Apr-2021 3392.01 5941.03 73.48 5.00  10.80 2716.87
   19:03:49.630.27-Apr-2021 3392.01 5934.63 73.48 5.00  11.00 2716.87
   19:03:49.830.27-Apr-2021 3392.01 5934.63 73.48 5.00  11.20 2716.87
   19:03:50.030.27-Apr-2021 3392.01 5940.78 73.48 5.00  11.40 2716.87
   19:03:50.230.27-Apr-2021 3392.01 5928.01 73.48 5.00  11.60 2716.87
   19:03:50.430.27-Apr-2021 3392.01 5923.35 73.48 5.00  11.80 2716.87
   19:03:50.630.27-Apr-2021 3392.01 5902.28 73.47 5.00  12.00 2716.87
   19:03:50.830.27-Apr-2021 3392.01 5902.28 73.47 5.00  12.20 2716.87
   19:03:51.030.27-Apr-2021 3392.01 5779.15 73.47 5.00  12.40 2716.87
   19:03:51.230.27-Apr-2021 3392.01 5712.47 73.47 5.00  12.60 2716.87
   19:03:51.430.27-Apr-2021 3392.01 5615.62 73.47 5.00  12.80 2716.87
   19:03:51.630.27-Apr-2021 3392.01 5515.23 73.47 5.00  13.00 2716.87
   19:03:51.830.27-Apr-2021 3392.01 5515.23 73.47 5.00  13.20 2716.87
   19:03:52.030.27-Apr-2021 3392.01 5305.49 73.47 5.00  13.40 2716.87
   19:03:52.230.27-Apr-2021 3392.01 5187.95 73.47 5.00  13.60 2716.87
   19:03:52.430.27-Apr-2021 3392.01 5083.59 73.47 5.00  13.80 2716.87
   19:03:52.630.27-Apr-2021 3392.01 4996.59 73.47 5.00  14.00 2716.87
   19:03:52.830.27-Apr-2021 3392.01 4996.59 73.47 5.00  14.20 2716.87
   19:03:53.030.27-Apr-2021 3392.01 4776.32 73.47 5.00  14.40 2716.87
   19:03:53.230.27-Apr-2021 3392.01 4678.43 73.46 5.00  14.60 2716.87
   19:03:53.430.27-Apr-2021 3392.01 4604.61 73.46 5.00  14.80 2716.87
   19:03:53.630.27-Apr-2021 3392.01 4487.86 73.46 5.00  15.00 2716.87
   19:03:53.831.27-Apr-2021 3392.01 4487.86 73.46 5.00  15.20 2716.87
   19:03:54.031.27-Apr-2021 3392.01 4284.97 73.46 5.00  15.40 2716.87
   19:03:54.231.27-Apr-2021 3392.01 4240.79 73.46 5.00  15.60 2716.87
   19:03:54.431.27-Apr-2021 3392.01 4255.05 73.46 5.00  15.80 2716.87
   19:03:54.631.27-Apr-2021 3392.01 4248.52 73.46 5.00  16.00 2716.87
   19:03:54.831.27-Apr-2021 3392.01 4248.52 73.46 5.00  16.20 2716.87
   19:03:55.031.27-Apr-2021 3392.01 4247.71 73.46 5.00  16.40 2716.87
   19:03:55.231.27-Apr-2021 3392.01 4252.05 73.45 5.00  16.60 2716.87
   19:03:55.431.27-Apr-2021 3392.01 4267.44 73.45 5.00  16.80 2716.87
   19:03:55.631.27-Apr-2021 3392.01 4355.97 73.45 5.00  17.00 2716.87
   19:03:55.831.27-Apr-2021 3392.01 4355.97 73.45 5.00  17.20 2716.87
   19:03:56.031.27-Apr-2021 3392.01 4560.72 73.45 5.00  17.40 2716.87
   19:03:56.231.27-Apr-2021 3392.01 4920.51 73.45 5.00  17.60 2716.87
   19:03:56.431.27-Apr-2021 3392.01 6136.22 73.45 5.00  17.80 2716.87
   19:03:56.631.27-Apr-2021 3392.01 6709.24 73.45 5.00  18.00 2716.87
   19:03:56.831.27-Apr-2021 3392.01 6709.24 73.45 5.00  18.20 2716.87
   19:03:57.031.27-Apr-2021 3392.01 6726.79 73.44 5.00  18.40 2716.87
   19:03:57.231.27-Apr-2021 3392.01 6802.87 73.44 5.00  18.60 2716.87
   19:03:57.431.27-Apr-2021 3392.01 6820.11 73.44 5.00  18.80 2716.87
   19:03:57.631.27-Apr-2021 3392.01 6852.19 73.44 5.00  19.00 2716.87
   19:03:57.832.27-Apr-2021 3392.01 6852.19 73.44 5.00  19.20 2716.87
   19:03:58.032.27-Apr-2021 3392.01 6816.78 73.44 5.00  19.40 2716.87
   19:03:58.232.27-Apr-2021 3392.01 6862.62 73.44 5.00  19.60 2716.87
   19:03:58.432.27-Apr-2021 3392.01 6886.72 73.44 5.00  19.80 2716.87
   19:03:58.632.27-Apr-2021 3392.01 6908.40 73.44 5.00  20.00 2716.87
   19:03:58.832.27-Apr-2021 3392.01 6908.40 73.44 5.00  20.20 2716.87
   19:03:59.032.27-Apr-2021 3392.01 6821.35 73.44 5.00  20.40 2716.87
   19:03:59.232.27-Apr-2021 3392.01 6723.20 73.44 5.00  20.61 2716.87
   19:03:59.432.27-Apr-2021 3392.01 6745.75 73.44 5.00  20.81 2716.87
   19:03:59.632.27-Apr-2021 3392.01 6757.98 73.44 5.00  21.01 2716.87
   19:03:59.832.27-Apr-2021 3392.01 6757.98 73.44 5.00  21.21 2716.87
   19:04:00.032.27-Apr-2021 3392.01 6778.36 73.44 5.00  21.41 2716.87
   19:04:00.232.27-Apr-2021 3392.01 6785.07 73.44 5.00  21.61 2716.87
   19:04:00.432.27-Apr-2021 3392.01 6791.94 73.44 5.00  21.81 2716.87
   19:04:00.632.27-Apr-2021 3392.01 6797.06 73.44 5.00  22.01 2716.87
   19:04:00.832.27-Apr-2021 3392.01 6797.06 73.44 5.00  22.21 2716.87
   19:04:01.032.27-Apr-2021 3392.01 6807.21 73.44 5.00  22.41 2716.87
   19:04:01.232.27-Apr-2021 3392.01 6810.98 73.44 5.00  22.61 2716.87
   19:04:01.432.27-Apr-2021 3392.01 6815.16 73.44 5.00  22.81 2716.87
