~Version Information
 VERS.                  2.0:   CWLS log ASCII Standard -VERSION 2.0
 WRAP.                   NO:   One line per depth step
~Well Information Block
#MNEM.UNIT     VALUE/NAME     DESCRIPTION
#---------     -----------    ---------------------------
 STRT.S             02:50:28 27-Apr-21: START TIME 02:50:28 27-Apr-21
 STOP.S             02:56:55 27-Apr-21: STOP TIME  02:56:55 27-Apr-21
 STEP.S                   0.00: STEP TIME
 NULL.                 -999.25: NULL VALUE
 DFWT.                        :  DIST FWL TEXT
 DFST.                        :  DIST FSL TEXT
 DMF .             Drill Floor:  DRILL MEAS FROM
 STIM.      02.00.00 12-Apr-21:  START TIME
 DATE.      02.00.00 02-May-21:  END TIME
 SPUD.               09-Apr-21:  SPUD DATE
 NREF.                    Grid:  NORTH REFERENCE
 HPTY.       Minimum Curvature:  HOLE POS TYPE
 DMOD.             Drill Model:  DRILL MOD DESC
 SVYD.                  Survey:  SURVEY DESC
 ILTD.               Lithology:  INTERP LTH DESC
 FTOP.          Formation Tops:  FORM TOPS DESC
 PDAT.          Mean Sea Level:  PERMANENT DATUM
 FLD .                     ACG:  FIELD NAME
 SON .        AZ-XX-0907021034:  JOB NUMBER
 CTRY.              Azerbaijan:  COUNTRY NAME
 WELL.                    E01x:  WELL NAME
 COMP.     BP Exploration (Caspian Sea) LTD.:  COMPANY
 UWI .            /AZE00001403:  UNIQUE WELL IDENTIFIER
 API .            /AZE00001403:  API NUMBER
 WTYP.                Deviated:  WELL TYPE
 MDS .        Operator Entered:  MAG DATA SOURCE
 BASE.              Azerbaijan:  LOGGING EQUIPMENT BASE LOCATION
 REGN.                   EESSA:  REGION
 PROV.                    Baku:  PROVINCE
 STAT.                    Baku:  STATE NAME
 SRVC.          Turan Drilling:  CONTRACTOR
 MWDS.                    Baku:  MWD SHOP
 JOBN.        AZ-XX-0907021034:  JOB TICKET NUMB
 RIG .                     DWG:  RIG NAME
 DOE .                     N/A:  DOE NUMBER
 DCON.         Sperry Drilling:  DIRECTNL CONTR
 UNIT.                     N/A:  LOGGING EQUIPMENT ID
 CNTY.                        :  COUNTY
 LOC .                        :  LOCATION
 LMF .             Drill Floor:  LOG MEASURED FROM
 TVDS.m                  43.16:  TVDSS CORRECTN
 LATI.deg                40.17:  LATITUDE
 LONG.deg                51.17:  LONGITUDE
 WHNS.m                  -5.90:  WELL HEAD N/S
 WHEW.m                  -6.61:  WELL HEAD E/W
 UTMX.m              514337.95:  UTM X
 UTMY.m             4448627.46:  UTM Y
 DFWL.m                   0.00:  DISTANCE FWL
 DFSL.m                   0.00:  DISTANCE FSL
 SDEP.m                2606.87:  START DEPTH
 TDD .m                3618.01:  TOTAL DEPTH (DRILLER)
 VSDR.deg               177.42:  VERT SEC DIRECT
 GVFD.g                   1.00:  GRAVITY FIELD
 MFLD.nT              50399.00:  MAGNETIC FIELD
 MDIP.deg                59.67:  MAGNETIC DIP
 MDEC.deg                 6.56:  MAGNETIC DECL
 GRDC.deg                 0.11:  GRID CORRECTION
 AZTC.deg                 6.45:  AZM TOTAL CORR
 EPD .m                   0.00:  ELEVATION
 EGL .m                   0.00:  GROUND ELEVATION
 WDMS.m                 176.20:  WD ELEV
 APD .m                  43.16:  DEPTH ABOVE PD
 DEP .m                2606.87:  DEPTH
 AGAP.m                  43.16:  AIR GAP
 VSEW.m                  -6.61:  VERT SEC E/W
 VSNS.m                  -5.90:  VERT SEC N/S
 EKB .m                  43.16:  KB ELEVATION
 EDF .m                  43.16:  DF ELEVATION
 TDL .m                 438.00:  TOTAL DEPTH (LOGGER)
 VSC .                       0:  VS TO CLOSURE
 MAGU.                 1855490:  MAGUTM CHECKSUM
~Parameter Information Block
#MNEM.UNIT       Value        Description
#---------     -----------    ---------------------------
 AV  .mps                 2.20:  Ann Velocity 
 AVMX.mps                 2.50:  Max Ann Veloc 
 AZIF.deg               150.21:  Azm, Final 
 BHAT.        Rotary Steerable:  BHA Type 
 BROT.°/30m               0.08:  Build Rotating 
 BS  .in                  6.50:  Bit Size 
 BSZ .in                  6.50:  Bit Size 
 BTPL.psig              108.00:  Bit Press Loss 
 CABU.                     Yes:  Customer Abuse 
 CGEO.           Emin Aliyarli:  Customer Geo 
 COMM.                     äº~:  Run Comments 1 
 TCS .hr                 74.20:  Time Ciculation Ended 
 CV  .mps                 3.63:  Crit Velocity 
 CVMX.mps                 3.66:  Max Crit Veloc 
 DD1 .         Intigam Rahimov:  Direct Drillr 1 
 DD2 .          Teymur Aghayev:  Direct Drillr 2 
 DDSV.               Geo-Pilot:  DD Service 
 DEFF.%                  97.00:  % Det Eff 
 DLRX.°/30m               1.63:  Dogleg Rot Max 
 DLSO.°/30m               0.00:  Dogleg Oriented 
 DLSX.°/30m               0.00:  Dogleg Str Max 
 DRET.      20.20.00 28-Apr-21:  Drill End Time 
 DRST.      04.45.00 26-Apr-21:  Drill Start Tim 
 DTIM.hr                 34.30:  Time Drilling 
 EDEP.m                3618.01:  End Depth 
 ENG1.           Amrah Tahirov:  Engineer 1 
 ENG2.         Bahruz Mehdiyev:  Engineer 2 
 ENG3.         Farhad Orujzade:  Engineer 3 
 ETIM.      19.00.00 29-Apr-21:  End Time 
 FLOI.gpm               370.00:  Flow In 
 FLON.gpm               300.00:  Flow In Min 
 FLOS.cptm                0.00:  Fluid Loss 
 FLOX.gpm               410.00:  Flow In Max 
 HFLO.                      No:  High Flow 
 HPRE.                      No:  High Pressure 
 HTEM.                      No:  High Temp 
 HYDO.m                   1.80:  Hydro Offset 
 IFIN.deg                67.19:  Inc, Final 
 IMAX.deg                68.42:  Inc Max 
 IMIN.deg                66.33:  Inc Min 
 IMND.m                3532.79:  Inc Min Depth 
 IMXD.m                3192.15:  Inc Max Depth 
 JARR.                      No:  Jarring 
 LETM.      20.20.00 28-Apr-21:  Log End Time 
 LOST.hr                     0:  Lost Rig Time 
 LSTM.      04.45.00 26-Apr-21:  Log Start Time 
 MDCL.ppm             36500.00:  Mud Chlorides 
 MDES.     Inversion Oil/Synthetic:  Mud Desc 
 DFD .sg                  1.42:  Mud Density 
 MDMN.sg                  1.42:  Dens Mud Min 
 MDMX.sg                  1.42:  Dens Mud Max 
 MOIL.                    55.7:  Run Mud Oil % 
 MOWR.                   71:29:  Run Mud OWR 
 MSND.                     0.1:  Run Mud Sand % 
 MSOL.                    19.9:  Run Mud Solids% 
 DFV .spqt               83.00:  Mud Viscosity 
 MWOD.in                  5.15:  MWD Tool OD 
 MWSI.                      No:  Serv Intrp, MWD 
 OTIM.hr                120.59:  Time Operating 
 PCON.           Look Like New:  Pad Condition 
 PMAX.psia            11292.93:  Press Op, Max 
 PV  .cP                 27.00:  Mud PV 
 RUN .                     400:  Run Number 
 ROPA.m/hr               14.00:  ROP Avg 
 ROPN.m/hr                9.00:  ROP Min 
 ROPX.m/hr               18.00:  ROP Max 
 RPMA.rpm               130.00:  RPM Surface Avg 
 RPMN.rpm               100.00:  RPM Surface Min 
 RPMX.rpm               140.00:  RPM Surface Max 
 RRUN.                    0400:  Rig Run Number 
 RTIM.hr                 38.60:  Time Reaming 
 SAZI.deg               149.55:  Azm, Start 
 SDEP.m                3180.01:  Start Depth 
 SIDD.                      No:  Serv Intrp, DD 
 SINC.deg                68.42:  Inc, Start 
 SPPA.psig             4400.00:  SPP Avg 
 SPPN.psig             3580.00:  SPP Min 
 SPPX.psig             4850.00:  SPP Max 
 STIM.      12.30.00 24-Apr-21:  Start Time 
 SVCS.                 DD, MWD:  Services 
 SVER.                    9.20:  Sperry Version 
 TDAT.m                 438.00:  Tot Depth Attmp 
 TDDF.                      No:  Trip for DD 
 TDLG.m                 438.00:  Tot Depth Loggd 
 TFF .                      No:  Trip for Fail 
 TQAA.f-kp               11.00:  Torque Abs Avg 
 TQAN.f-kp                9.00:  Torque Abs Min 
 TQAX.f-kp               14.00:  Torque Abs Max 
 TRRT.°/30m               0.04:  Turn Rotating 
 MRT .                    HCIM:  Maximum Recorded Temperature 
 TTMX.degC               84.31:  Max Tool Temp 
 VS01.                90521954:  Virtual Str1 SN 
 VS02.                90519327:  Virtual Str2 SN 
 VS03.                90522273:  Virtual Str3 SN 
 VS04.                11108038:  Virtual Str4 SN 
 VS05.                12258760:  Virtual Str5 SN 
 WBMN.klb                 1.00:  WOB Min 
 WITN.           Adil Mammadov:  Customer Rep 
 WITN.         Alex Yadullayev:  Customer Rep 2 
 WOBA.klb                 6.00:  WOB Avg 
 WOBX.klb                 9.00:  WOB Max 
 YP  .lhf2               31.00:  Yield Point 
~Curve Information Block
#MNEM.UNIT                 API CODE     Curve Description
#---------               -----------    ---------------------------
 TIME.HHMMSS            00 000 000 000:  GT Time & Date
 GTDEPTH.m              00 000 000 000:  GT Depth
 GTPQH.psia             00 000 000 000:  GT HR Quartz Pressure
 GTTQ.degC              00 000 000 000:  GT Quartz Temperature
 GTTN.NONE              00 000 000 000:  GT Test Number
 GTET.sec               00 000 000 000:  GT Elapsed Test Time
 GTTVD.m                00 000 000 000:  GT True Vertical Depth
#Other Information
#
#WARRANTY: Halliburton will use its best efforts to furnish customers with 
#accurate information and interpretations that are part of, and incident to, the services 
#provided.  However, Halliburton cannot and does not warrant the accuracy 
#or correctness of such information and interpretations.  Under no circumstances should any 
#such information or interpretation be relied upon as the sole basis for any drilling, 
#completion, production, or financial decision or any procedure involving any risk to the 
#safety of any drilling venture, drilling rig or its crew or any other third party.  The 
#Customer has full responsibility for all drilling, completion and production operation.  
#Halliburton makes no representations or warranties, either expressed or 
#implied, including, but not limited to, the implied warranties of merchantability or fitness 
#for a particular purpose, with respect to the services rendered.  In no event will 
#Halliburton be liable for failure to obtain any particular results or for 
#any damages, including, but not limited to, indirect, special or consequential damages, 
#resulting from the use of any information or interpretation provided by Halliburton.
#
~A           TIME           GTDEPTH  GTPQH  GTTQ  GTTN  GTET   GTTVD  
# ...
   02:56:13.324.27-Apr-2021 3242.51 5810.32 72.04 3.00 345.07 2657.85
   02:56:13.524.27-Apr-2021 3242.51 5810.32 72.04 3.00 345.27 2657.85
   02:56:13.724.27-Apr-2021 3242.51 5836.72 72.04 3.00 345.47 2657.85
   02:56:13.924.27-Apr-2021 3242.51 5836.70 72.04 3.00 345.67 2657.85
   02:56:14.124.27-Apr-2021 3242.51 5838.17 72.04 3.00 345.87 2657.85
   02:56:14.324.27-Apr-2021 3242.51 5828.48 72.04 3.00 346.07 2657.85
   02:56:14.524.27-Apr-2021 3242.51 5828.48 72.04 3.00 346.27 2657.85
   02:56:14.724.27-Apr-2021 3242.51 5838.29 72.04 3.00 346.47 2657.85
   02:56:14.924.27-Apr-2021 3242.51 5838.61 72.04 3.00 346.67 2657.85
   02:56:15.124.27-Apr-2021 3242.51 5842.00 72.04 3.00 346.87 2657.85
   02:56:15.324.27-Apr-2021 3242.51 5841.14 72.04 3.00 347.07 2657.85
   02:56:15.524.27-Apr-2021 3242.51 5841.14 72.04 3.00 347.27 2657.85
   02:56:15.724.27-Apr-2021 3242.51 5843.00 72.04 3.00 347.47 2657.85
   02:56:15.924.27-Apr-2021 3242.51 5846.94 72.04 3.00 347.67 2657.85
   02:56:16.124.27-Apr-2021 3242.51 5844.47 72.04 3.00 347.87 2657.85
   02:56:16.324.27-Apr-2021 3242.51 5846.31 72.04 3.00 348.07 2657.85
   02:56:16.524.27-Apr-2021 3242.51 5846.31 72.04 3.00 348.27 2657.85
   02:56:16.724.27-Apr-2021 3242.51 5845.04 72.04 3.00 348.47 2657.85
   02:56:16.924.27-Apr-2021 3242.51 5841.82 72.04 3.00 348.67 2657.85
   02:56:17.124.27-Apr-2021 3242.51 5832.21 72.04 3.00 348.87 2657.85
   02:56:17.324.27-Apr-2021 3242.51 5835.02 72.04 3.00 349.07 2657.85
   02:56:17.524.27-Apr-2021 3242.51 5835.02 72.04 3.00 349.27 2657.85
   02:56:17.724.27-Apr-2021 3242.51 5842.80 72.04 3.00 349.47 2657.85
   02:56:17.925.27-Apr-2021 3242.51 5843.65 72.04 3.00 349.67 2657.85
   02:56:18.125.27-Apr-2021 3242.51 5841.95 72.04 3.00 349.87 2657.85
   02:56:18.325.27-Apr-2021 3242.51 5832.35 72.04 3.00 350.07 2657.85
   02:56:18.525.27-Apr-2021 3242.51 5832.35 72.04 3.00 350.27 2657.85
   02:56:18.725.27-Apr-2021 3242.51 5846.36 72.04 3.00 350.47 2657.85
   02:56:18.925.27-Apr-2021 3242.51 5847.14 72.04 3.00 350.67 2657.85
   02:56:19.125.27-Apr-2021 3242.51 5845.16 72.04 3.00 350.87 2657.85
   02:56:19.325.27-Apr-2021 3242.51 5844.14 72.04 3.00 351.07 2657.85
   02:56:19.525.27-Apr-2021 3242.51 5844.14 72.04 3.00 351.27 2657.85
   02:56:19.725.27-Apr-2021 3242.51 5843.31 72.04 3.00 351.47 2657.85
   02:56:19.925.27-Apr-2021 3242.51 5843.79 72.04 3.00 351.67 2657.85
   02:56:20.125.27-Apr-2021 3242.51 5843.88 72.04 3.00 351.87 2657.85
   02:56:20.325.27-Apr-2021 3242.51 5841.21 72.04 3.00 352.07 2657.85
   02:56:20.525.27-Apr-2021 3242.51 5841.21 72.04 3.00 352.27 2657.85
   02:56:20.725.27-Apr-2021 3242.51 5831.31 72.04 3.00 352.47 2657.85
   02:56:20.925.27-Apr-2021 3242.51 5839.99 72.04 3.00 352.67 2657.85
   02:56:21.125.27-Apr-2021 3242.51 5844.09 72.04 3.00 352.87 2657.85
   02:56:21.325.27-Apr-2021 3242.51 5846.96 72.04 3.00 353.07 2657.85
   02:56:21.525.27-Apr-2021 3242.51 5846.96 72.04 3.00 353.27 2657.85
   02:56:21.725.27-Apr-2021 3242.51 5844.83 72.04 3.00 353.47 2657.85
   02:56:21.925.27-Apr-2021 3242.51 5843.39 72.04 3.00 353.67 2657.85
   02:56:22.125.27-Apr-2021 3242.51 5847.60 72.04 3.00 353.87 2657.85
   02:56:22.325.27-Apr-2021 3242.51 5844.88 72.04 3.00 354.07 2657.85
   02:56:22.525.27-Apr-2021 3242.51 5844.88 72.04 3.00 354.27 2657.85
   02:56:22.725.27-Apr-2021 3242.51 5841.06 72.04 3.00 354.47 2657.85
   02:56:22.926.27-Apr-2021 3242.51 5841.69 72.04 3.00 354.67 2657.85
   02:56:23.126.27-Apr-2021 3242.51 5842.17 72.04 3.00 354.87 2657.85
   02:56:23.326.27-Apr-2021 3242.51 5831.42 72.04 3.00 355.07 2657.85
   02:56:23.526.27-Apr-2021 3242.51 5831.42 72.04 3.00 355.27 2657.85
   02:56:23.726.27-Apr-2021 3242.51 5840.35 72.04 3.00 355.47 2657.85
   02:56:23.926.27-Apr-2021 3242.51 5842.75 72.04 3.00 355.67 2657.85
   02:56:24.126.27-Apr-2021 3242.51 5843.11 72.04 3.00 355.87 2657.85
   02:56:24.326.27-Apr-2021 3242.51 5844.46 72.04 3.00 356.07 2657.85
   02:56:24.526.27-Apr-2021 3242.51 5844.46 72.04 3.00 356.27 2657.85
   02:56:24.726.27-Apr-2021 3242.51 5845.59 72.04 3.00 356.47 2657.85
   02:56:24.926.27-Apr-2021 3242.51 5845.06 72.04 3.00 356.67 2657.85
   02:56:25.126.27-Apr-2021 3242.51 5846.71 72.04 3.00 356.87 2657.85
   02:56:25.326.27-Apr-2021 3242.51 5843.31 72.04 3.00 357.07 2657.85
   02:56:25.526.27-Apr-2021 3242.51 5843.31 72.04 3.00 357.27 2657.85
   02:56:25.726.27-Apr-2021 3242.51 5842.14 72.04 3.00 357.47 2657.85
   02:56:25.926.27-Apr-2021 3242.51 5843.78 72.04 3.00 357.67 2657.85
   02:56:26.126.27-Apr-2021 3242.51 5830.34 72.04 3.00 357.87 2657.85
   02:56:26.326.27-Apr-2021 3242.51 5838.86 72.04 3.00 358.07 2657.85
   02:56:26.526.27-Apr-2021 3242.51 5838.86 72.04 3.00 358.27 2657.85
   02:56:26.726.27-Apr-2021 3242.51 5842.79 72.04 3.00 358.47 2657.85
   02:56:26.926.27-Apr-2021 3242.51 5842.83 72.04 3.00 358.67 2657.85
   02:56:27.126.27-Apr-2021 3242.51 5836.26 72.04 3.00 358.87 2657.85
   02:56:27.326.27-Apr-2021 3242.51 5837.83 72.04 3.00 359.07 2657.85
   02:56:27.526.27-Apr-2021 3242.51 5837.83 72.04 3.00 359.27 2657.85
   02:56:27.726.27-Apr-2021 3242.51 5846.37 72.04 3.00 359.47 2657.85
   02:56:27.927.27-Apr-2021 3242.51 5846.56 72.04 3.00 359.67 2657.85
   02:56:28.127.27-Apr-2021 3242.51 5844.98 72.04 3.00 359.87 2657.85
   02:56:28.327.27-Apr-2021 3242.51 5837.48 72.04 3.00 360.07 2657.85
   02:56:28.527.27-Apr-2021 3242.51 5837.48 72.04 3.00 360.27 2657.85
   02:56:28.727.27-Apr-2021 3242.51 5841.38 72.04 3.00 360.47 2657.85
   02:56:28.927.27-Apr-2021 3242.51 5842.83 72.04 3.00 360.67 2657.85
   02:56:29.127.27-Apr-2021 3242.51 5833.40 72.04 3.00 360.87 2657.85
   02:56:29.327.27-Apr-2021 3242.51 5836.61 72.04 3.00 361.07 2657.85
   02:56:29.527.27-Apr-2021 3242.51 5836.61 72.04 3.00 361.27 2657.85
   02:56:29.727.27-Apr-2021 3242.51 5841.39 72.04 3.00 361.47 2657.85
   02:56:29.927.27-Apr-2021 3242.51 5843.55 72.03 3.00 361.67 2657.85
   02:56:30.127.27-Apr-2021 3242.51 5846.19 72.03 3.00 361.87 2657.85
   02:56:30.327.27-Apr-2021 3242.51 5843.21 72.03 3.00 362.07 2657.85
   02:56:30.527.27-Apr-2021 3242.51 5843.21 72.03 3.00 362.27 2657.85
   02:56:30.727.27-Apr-2021 3242.51 5844.56 72.03 3.00 362.47 2657.85
   02:56:30.927.27-Apr-2021 3242.51 5846.78 72.03 3.00 362.67 2657.85
   02:56:31.127.27-Apr-2021 3242.51 5842.52 72.03 3.00 362.87 2657.85
   02:56:31.327.27-Apr-2021 3242.51 5843.59 72.03 3.00 363.07 2657.85
   02:56:31.527.27-Apr-2021 3242.51 5843.59 72.03 3.00 363.27 2657.85
   02:56:31.727.27-Apr-2021 3242.51 5841.83 72.03 3.00 363.47 2657.85
   02:56:31.927.27-Apr-2021 3242.51 5830.27 72.03 3.00 363.67 2657.85
   02:56:32.127.27-Apr-2021 3242.51 5837.73 72.03 3.00 363.87 2657.85
   02:56:32.327.27-Apr-2021 3242.51 5839.12 72.03 3.00 364.07 2657.85
   02:56:32.527.27-Apr-2021 3242.51 5839.12 72.03 3.00 364.27 2657.85
   02:56:32.727.27-Apr-2021 3242.51 5841.69 72.03 3.00 364.47 2657.85
   02:56:32.927.27-Apr-2021 3242.51 5843.58 72.03 3.00 364.67 2657.85
   02:56:33.128.27-Apr-2021 3242.51 5844.22 72.03 3.00 364.87 2657.85
   02:56:33.328.27-Apr-2021 3242.51 5847.05 72.03 3.00 365.07 2657.85
   02:56:33.528.27-Apr-2021 3242.51 5847.05 72.03 3.00 365.27 2657.85
   02:56:33.728.27-Apr-2021 3242.51 5846.12 72.03 3.00 365.47 2657.85
   02:56:33.928.27-Apr-2021 3242.51 5846.10 72.03 3.00 365.67 2657.85
   02:56:34.128.27-Apr-2021 3242.51 5844.96 72.03 3.00 365.87 2657.85
   02:56:34.328.27-Apr-2021 3242.51 5847.58 72.03 3.00 366.07 2657.85
   02:56:34.528.27-Apr-2021 3242.51 5847.58 72.03 3.00 366.27 2657.85
   02:56:34.728.27-Apr-2021 3242.51 5833.48 72.03 3.00 366.47 2657.85
   02:56:34.928.27-Apr-2021 3242.51 5835.12 72.03 3.00 366.67 2657.85
   02:56:35.128.27-Apr-2021 3242.51 5843.10 72.03 3.00 366.87 2657.85
   02:56:35.328.27-Apr-2021 3242.51 5842.12 72.03 3.00 367.07 2657.85
   02:56:35.528.27-Apr-2021 3242.51 5842.12 72.03 3.00 367.27 2657.85
   02:56:35.728.27-Apr-2021 3242.51 5830.12 72.02 3.00 367.47 2657.85
   02:56:35.928.27-Apr-2021 3242.51 5839.26 72.02 3.00 367.67 2657.85
   02:56:36.128.27-Apr-2021 3242.51 5844.69 72.02 3.00 367.87 2657.85
