~Version Information
 VERS.                  2.0:   CWLS log ASCII Standard -VERSION 2.0
 WRAP.                   NO:   One line per depth step
~Well Information Block
#MNEM.UNIT     VALUE/NAME     DESCRIPTION
#---------     -----------    ---------------------------
 STRT.S             23:13:46 26-Apr-21: START TIME 23:13:46 26-Apr-21
 STOP.S             23:20:13 26-Apr-21: STOP TIME  23:20:13 26-Apr-21
 STEP.S                   0.00: STEP TIME
 NULL.                 -999.25: NULL VALUE
 DFWT.                        :  DIST FWL TEXT
 DFST.                        :  DIST FSL TEXT
 DMF .             Drill Floor:  DRILL MEAS FROM
 STIM.      02.00.00 12-Apr-21:  START TIME
 DATE.      02.00.00 02-May-21:  END TIME
 SPUD.               09-Apr-21:  SPUD DATE
 NREF.                    Grid:  NORTH REFERENCE
 HPTY.       Minimum Curvature:  HOLE POS TYPE
 DMOD.             Drill Model:  DRILL MOD DESC
 SVYD.                  Survey:  SURVEY DESC
 ILTD.               Lithology:  INTERP LTH DESC
 FTOP.          Formation Tops:  FORM TOPS DESC
 PDAT.          Mean Sea Level:  PERMANENT DATUM
 FLD .                     ACG:  FIELD NAME
 SON .        AZ-XX-0907021034:  JOB NUMBER
 CTRY.              Azerbaijan:  COUNTRY NAME
 WELL.                    E01x:  WELL NAME
 COMP.     BP Exploration (Caspian Sea) LTD.:  COMPANY
 UWI .            /AZE00001403:  UNIQUE WELL IDENTIFIER
 API .            /AZE00001403:  API NUMBER
 WTYP.                Deviated:  WELL TYPE
 MDS .        Operator Entered:  MAG DATA SOURCE
 BASE.              Azerbaijan:  LOGGING EQUIPMENT BASE LOCATION
 REGN.                   EESSA:  REGION
 PROV.                    Baku:  PROVINCE
 STAT.                    Baku:  STATE NAME
 SRVC.          Turan Drilling:  CONTRACTOR
 MWDS.                    Baku:  MWD SHOP
 JOBN.        AZ-XX-0907021034:  JOB TICKET NUMB
 RIG .                     DWG:  RIG NAME
 DOE .                     N/A:  DOE NUMBER
 DCON.         Sperry Drilling:  DIRECTNL CONTR
 UNIT.                     N/A:  LOGGING EQUIPMENT ID
 CNTY.                        :  COUNTY
 LOC .                        :  LOCATION
 LMF .             Drill Floor:  LOG MEASURED FROM
 TVDS.m                  43.16:  TVDSS CORRECTN
 LATI.deg                40.17:  LATITUDE
 LONG.deg                51.17:  LONGITUDE
 WHNS.m                  -5.90:  WELL HEAD N/S
 WHEW.m                  -6.61:  WELL HEAD E/W
 UTMX.m              514337.95:  UTM X
 UTMY.m             4448627.46:  UTM Y
 DFWL.m                   0.00:  DISTANCE FWL
 DFSL.m                   0.00:  DISTANCE FSL
 SDEP.m                2606.87:  START DEPTH
 TDD .m                3618.01:  TOTAL DEPTH (DRILLER)
 VSDR.deg               177.42:  VERT SEC DIRECT
 GVFD.g                   1.00:  GRAVITY FIELD
 MFLD.nT              50399.00:  MAGNETIC FIELD
 MDIP.deg                59.67:  MAGNETIC DIP
 MDEC.deg                 6.56:  MAGNETIC DECL
 GRDC.deg                 0.11:  GRID CORRECTION
 AZTC.deg                 6.45:  AZM TOTAL CORR
 EPD .m                   0.00:  ELEVATION
 EGL .m                   0.00:  GROUND ELEVATION
 WDMS.m                 176.20:  WD ELEV
 APD .m                  43.16:  DEPTH ABOVE PD
 DEP .m                2606.87:  DEPTH
 AGAP.m                  43.16:  AIR GAP
 VSEW.m                  -6.61:  VERT SEC E/W
 VSNS.m                  -5.90:  VERT SEC N/S
 EKB .m                  43.16:  KB ELEVATION
 EDF .m                  43.16:  DF ELEVATION
 TDL .m                 438.00:  TOTAL DEPTH (LOGGER)
 VSC .                       0:  VS TO CLOSURE
 MAGU.                 1855490:  MAGUTM CHECKSUM
~Parameter Information Block
#MNEM.UNIT       Value        Description
#---------     -----------    ---------------------------
 AV  .mps                 2.20:  Ann Velocity 
 AVMX.mps                 2.50:  Max Ann Veloc 
 AZIF.deg               150.21:  Azm, Final 
 BHAT.        Rotary Steerable:  BHA Type 
 BROT.°/30m               0.08:  Build Rotating 
 BS  .in                  6.50:  Bit Size 
 BSZ .in                  6.50:  Bit Size 
 BTPL.psig              108.00:  Bit Press Loss 
 CABU.                     Yes:  Customer Abuse 
 CGEO.           Emin Aliyarli:  Customer Geo 
 COMM.                     <MW:  Run Comments 1 
 TCS .hr                 74.20:  Time Ciculation Ended 
 CV  .mps                 3.63:  Crit Velocity 
 CVMX.mps                 3.66:  Max Crit Veloc 
 DD1 .         Intigam Rahimov:  Direct Drillr 1 
 DD2 .          Teymur Aghayev:  Direct Drillr 2 
 DDSV.               Geo-Pilot:  DD Service 
 DEFF.%                  97.00:  % Det Eff 
 DLRX.°/30m               1.63:  Dogleg Rot Max 
 DLSO.°/30m               0.00:  Dogleg Oriented 
 DLSX.°/30m               0.00:  Dogleg Str Max 
 DRET.      20.20.00 28-Apr-21:  Drill End Time 
 DRST.      04.45.00 26-Apr-21:  Drill Start Tim 
 DTIM.hr                 34.30:  Time Drilling 
 EDEP.m                3618.01:  End Depth 
 ENG1.           Amrah Tahirov:  Engineer 1 
 ENG2.         Bahruz Mehdiyev:  Engineer 2 
 ENG3.         Farhad Orujzade:  Engineer 3 
 ETIM.      19.00.00 29-Apr-21:  End Time 
 FLOI.gpm               370.00:  Flow In 
 FLON.gpm               300.00:  Flow In Min 
 FLOS.cptm                0.00:  Fluid Loss 
 FLOX.gpm               410.00:  Flow In Max 
 HFLO.                      No:  High Flow 
 HPRE.                      No:  High Pressure 
 HTEM.                      No:  High Temp 
 HYDO.m                   1.80:  Hydro Offset 
 IFIN.deg                67.19:  Inc, Final 
 IMAX.deg                68.42:  Inc Max 
 IMIN.deg                66.33:  Inc Min 
 IMND.m                3532.79:  Inc Min Depth 
 IMXD.m                3192.15:  Inc Max Depth 
 JARR.                      No:  Jarring 
 LETM.      20.20.00 28-Apr-21:  Log End Time 
 LOST.hr                     0:  Lost Rig Time 
 LSTM.      04.45.00 26-Apr-21:  Log Start Time 
 MDCL.ppm             36500.00:  Mud Chlorides 
 MDES.     Inversion Oil/Synthetic:  Mud Desc 
 DFD .sg                  1.42:  Mud Density 
 MDMN.sg                  1.42:  Dens Mud Min 
 MDMX.sg                  1.42:  Dens Mud Max 
 MOIL.                    55.7:  Run Mud Oil % 
 MOWR.                   71:29:  Run Mud OWR 
 MSND.                     0.1:  Run Mud Sand % 
 MSOL.                    19.9:  Run Mud Solids% 
 DFV .spqt               83.00:  Mud Viscosity 
 MWOD.in                  5.15:  MWD Tool OD 
 MWSI.                      No:  Serv Intrp, MWD 
 OTIM.hr                120.59:  Time Operating 
 PCON.           Look Like New:  Pad Condition 
 PMAX.psia            11292.93:  Press Op, Max 
 PV  .cP                 27.00:  Mud PV 
 RUN .                     400:  Run Number 
 ROPA.m/hr               14.00:  ROP Avg 
 ROPN.m/hr                9.00:  ROP Min 
 ROPX.m/hr               18.00:  ROP Max 
 RPMA.rpm               130.00:  RPM Surface Avg 
 RPMN.rpm               100.00:  RPM Surface Min 
 RPMX.rpm               140.00:  RPM Surface Max 
 RRUN.                    0400:  Rig Run Number 
 RTIM.hr                 38.60:  Time Reaming 
 SAZI.deg               149.55:  Azm, Start 
 SDEP.m                3180.01:  Start Depth 
 SIDD.                      No:  Serv Intrp, DD 
 SINC.deg                68.42:  Inc, Start 
 SPPA.psig             4400.00:  SPP Avg 
 SPPN.psig             3580.00:  SPP Min 
 SPPX.psig             4850.00:  SPP Max 
 STIM.      12.30.00 24-Apr-21:  Start Time 
 SVCS.                 DD, MWD:  Services 
 SVER.                    9.20:  Sperry Version 
 TDAT.m                 438.00:  Tot Depth Attmp 
 TDDF.                      No:  Trip for DD 
 TDLG.m                 438.00:  Tot Depth Loggd 
 TFF .                      No:  Trip for Fail 
 TQAA.f-kp               11.00:  Torque Abs Avg 
 TQAN.f-kp                9.00:  Torque Abs Min 
 TQAX.f-kp               14.00:  Torque Abs Max 
 TRRT.°/30m               0.04:  Turn Rotating 
 MRT .                    HCIM:  Maximum Recorded Temperature 
 TTMX.degC               84.31:  Max Tool Temp 
 VS01.                90521954:  Virtual Str1 SN 
 VS02.                90519327:  Virtual Str2 SN 
 VS03.                90522273:  Virtual Str3 SN 
 VS04.                11108038:  Virtual Str4 SN 
 VS05.                12258760:  Virtual Str5 SN 
 WBMN.klb                 1.00:  WOB Min 
 WITN.           Adil Mammadov:  Customer Rep 
 WITN.         Alex Yadullayev:  Customer Rep 2 
 WOBA.klb                 6.00:  WOB Avg 
 WOBX.klb                 9.00:  WOB Max 
 YP  .lhf2               31.00:  Yield Point 
~Curve Information Block
#MNEM.UNIT                 API CODE     Curve Description
#---------               -----------    ---------------------------
 TIME.HHMMSS            00 000 000 000:  GT Time & Date
 GTDEPTH.m              00 000 000 000:  GT Depth
 GTPQH.psia             00 000 000 000:  GT HR Quartz Pressure
 GTTQ.degC              00 000 000 000:  GT Quartz Temperature
 GTTN.NONE              00 000 000 000:  GT Test Number
 GTET.sec               00 000 000 000:  GT Elapsed Test Time
 GTTVD.m                00 000 000 000:  GT True Vertical Depth
#Other Information
#
#WARRANTY: Halliburton will use its best efforts to furnish customers with 
#accurate information and interpretations that are part of, and incident to, the services 
#provided.  However, Halliburton cannot and does not warrant the accuracy 
#or correctness of such information and interpretations.  Under no circumstances should any 
#such information or interpretation be relied upon as the sole basis for any drilling, 
#completion, production, or financial decision or any procedure involving any risk to the 
#safety of any drilling venture, drilling rig or its crew or any other third party.  The 
#Customer has full responsibility for all drilling, completion and production operation.  
#Halliburton makes no representations or warranties, either expressed or 
#implied, including, but not limited to, the implied warranties of merchantability or fitness 
#for a particular purpose, with respect to the services rendered.  In no event will 
#Halliburton be liable for failure to obtain any particular results or for 
#any damages, including, but not limited to, indirect, special or consequential damages, 
#resulting from the use of any information or interpretation provided by Halliburton.
#
~A           TIME           GTDEPTH  GTPQH  GTTQ  GTTN  GTET   GTTVD  
# ...
   23:17:36.593.26-Apr-2021 3222.01 4279.21 69.41 1.00 230.07 2649.76
   23:17:36.793.26-Apr-2021 3222.01 4279.21 69.41 1.00 230.27 2649.76
   23:17:36.993.26-Apr-2021 3222.01 4279.42 69.41 1.00 230.47 2649.76
   23:17:37.193.26-Apr-2021 3222.01 4279.44 69.41 1.00 230.67 2649.76
   23:17:37.393.26-Apr-2021 3222.01 4279.31 69.41 1.00 230.87 2649.76
   23:17:37.593.26-Apr-2021 3222.01 4278.63 69.41 1.00 231.07 2649.76
   23:17:37.794.26-Apr-2021 3222.01 4278.63 69.41 1.00 231.27 2649.76
   23:17:37.994.26-Apr-2021 3222.01 4279.63 69.41 1.00 231.47 2649.76
   23:17:38.194.26-Apr-2021 3222.01 4279.43 69.41 1.00 231.67 2649.76
   23:17:38.394.26-Apr-2021 3222.01 4279.30 69.41 1.00 231.87 2649.76
   23:17:38.594.26-Apr-2021 3222.01 4278.56 69.41 1.00 232.07 2649.76
   23:17:38.794.26-Apr-2021 3222.01 4278.56 69.41 1.00 232.27 2649.76
   23:17:38.994.26-Apr-2021 3222.01 4279.50 69.41 1.00 232.47 2649.76
   23:17:39.194.26-Apr-2021 3222.01 4279.37 69.41 1.00 232.67 2649.76
   23:17:39.394.26-Apr-2021 3222.01 4278.68 69.41 1.00 232.87 2649.76
   23:17:39.594.26-Apr-2021 3222.01 4279.29 69.41 1.00 233.07 2649.76
   23:17:39.794.26-Apr-2021 3222.01 4279.29 69.41 1.00 233.27 2649.76
   23:17:39.994.26-Apr-2021 3222.01 4279.63 69.41 1.00 233.47 2649.76
   23:17:40.194.26-Apr-2021 3222.01 4279.52 69.41 1.00 233.67 2649.76
   23:17:40.394.26-Apr-2021 3222.01 4279.42 69.41 1.00 233.87 2649.76
   23:17:40.594.26-Apr-2021 3222.01 4279.37 69.41 1.00 234.07 2649.76
   23:17:40.794.26-Apr-2021 3222.01 4279.37 69.41 1.00 234.27 2649.76
   23:17:40.994.26-Apr-2021 3222.01 4279.45 69.41 1.00 234.47 2649.76
   23:17:41.195.26-Apr-2021 3222.01 4279.35 69.41 1.00 234.67 2649.76
   23:17:41.395.26-Apr-2021 3222.01 4279.29 69.41 1.00 234.87 2649.76
   23:17:41.595.26-Apr-2021 3222.01 4279.20 69.41 1.00 235.07 2649.76
   23:17:41.795.26-Apr-2021 3222.01 4279.20 69.41 1.00 235.27 2649.76
   23:17:41.995.26-Apr-2021 3222.01 4278.50 69.41 1.00 235.47 2649.76
   23:17:42.195.26-Apr-2021 3222.01 4279.25 69.41 1.00 235.67 2649.76
   23:17:42.395.26-Apr-2021 3222.01 4279.35 69.41 1.00 235.87 2649.76
   23:17:42.595.26-Apr-2021 3222.01 4279.38 69.41 1.00 236.07 2649.76
   23:17:42.795.26-Apr-2021 3222.01 4279.38 69.41 1.00 236.27 2649.76
   23:17:42.995.26-Apr-2021 3222.01 4279.37 69.41 1.00 236.47 2649.76
   23:17:43.195.26-Apr-2021 3222.01 4279.37 69.41 1.00 236.67 2649.76
   23:17:43.395.26-Apr-2021 3222.01 4279.58 69.40 1.00 236.87 2649.76
   23:17:43.595.26-Apr-2021 3222.01 4279.47 69.40 1.00 237.07 2649.76
   23:17:43.795.26-Apr-2021 3222.01 4279.47 69.40 1.00 237.27 2649.76
   23:17:43.995.26-Apr-2021 3222.01 4279.44 69.40 1.00 237.47 2649.76
   23:17:44.195.26-Apr-2021 3222.01 4230.23 69.40 1.00 237.67 2649.76
   23:17:44.395.26-Apr-2021 3222.01 4207.46 69.40 1.00 237.87 2649.76
   23:17:44.596.26-Apr-2021 3222.01 4204.57 69.40 1.00 238.07 2649.76
   23:17:44.796.26-Apr-2021 3222.01 4204.57 69.40 1.00 238.27 2649.76
   23:17:44.996.26-Apr-2021 3222.01 4203.21 69.40 1.00 238.47 2649.76
   23:17:45.196.26-Apr-2021 3222.01 4202.05 69.40 1.00 238.67 2649.76
   23:17:45.396.26-Apr-2021 3222.01 4201.59 69.40 1.00 238.87 2649.76
   23:17:45.596.26-Apr-2021 3222.01 4201.50 69.40 1.00 239.07 2649.76
   23:17:45.796.26-Apr-2021 3222.01 4201.50 69.40 1.00 239.27 2649.76
   23:17:45.996.26-Apr-2021 3222.01 4198.19 69.40 1.00 239.47 2649.76
   23:17:46.196.26-Apr-2021 3222.01 4201.60 69.40 1.00 239.67 2649.76
   23:17:46.396.26-Apr-2021 3222.01 4200.63 69.40 1.00 239.87 2649.76
   23:17:46.596.26-Apr-2021 3222.01 4200.42 69.40 1.00 240.07 2649.76
   23:17:46.796.26-Apr-2021 3222.01 4200.42 69.40 1.00 240.27 2649.76
   23:17:46.996.26-Apr-2021 3222.01 4198.49 69.40 1.00 240.47 2649.76
   23:17:47.196.26-Apr-2021 3222.01 4201.25 69.40 1.00 240.67 2649.76
   23:17:47.396.26-Apr-2021 3222.01 4200.55 69.40 1.00 240.87 2649.76
   23:17:47.596.26-Apr-2021 3222.01 4199.25 69.40 1.00 241.07 2649.76
   23:17:47.796.26-Apr-2021 3222.01 4199.25 69.40 1.00 241.27 2649.76
   23:17:47.997.26-Apr-2021 3222.01 4200.72 69.40 1.00 241.47 2649.76
   23:17:48.197.26-Apr-2021 3222.01 4200.07 69.40 1.00 241.67 2649.76
   23:17:48.397.26-Apr-2021 3222.01 4200.09 69.40 1.00 241.87 2649.76
   23:17:48.597.26-Apr-2021 3222.01 4199.81 69.40 1.00 242.07 2649.76
   23:17:48.797.26-Apr-2021 3222.01 4199.81 69.40 1.00 242.27 2649.76
   23:17:48.997.26-Apr-2021 3222.01 4199.71 69.40 1.00 242.47 2649.76
   23:17:49.197.26-Apr-2021 3222.01 4200.03 69.40 1.00 242.67 2649.76
   23:17:49.397.26-Apr-2021 3222.01 4199.67 69.40 1.00 242.87 2649.76
   23:17:49.597.26-Apr-2021 3222.01 4199.28 69.40 1.00 243.07 2649.76
   23:17:49.797.26-Apr-2021 3222.01 4199.28 69.40 1.00 243.27 2649.76
   23:17:49.997.26-Apr-2021 3222.01 4199.18 69.40 1.00 243.47 2649.76
   23:17:50.197.26-Apr-2021 3222.01 4198.94 69.40 1.00 243.67 2649.76
   23:17:50.397.26-Apr-2021 3222.01 4197.52 69.40 1.00 243.87 2649.76
   23:17:50.597.26-Apr-2021 3222.01 4199.83 69.40 1.00 244.07 2649.76
   23:17:50.797.26-Apr-2021 3222.01 4199.83 69.40 1.00 244.27 2649.76
   23:17:50.997.26-Apr-2021 3222.01 4199.43 69.40 1.00 244.47 2649.76
   23:17:51.197.26-Apr-2021 3222.01 4198.77 69.40 1.00 244.67 2649.76
   23:17:51.398.26-Apr-2021 3222.01 4198.81 69.40 1.00 244.87 2649.76
   23:17:51.598.26-Apr-2021 3222.01 4198.67 69.40 1.00 245.07 2649.76
   23:17:51.798.26-Apr-2021 3222.01 4198.67 69.40 1.00 245.27 2649.76
   23:17:51.998.26-Apr-2021 3222.01 4198.48 69.40 1.00 245.47 2649.76
   23:17:52.198.26-Apr-2021 3222.01 4198.43 69.40 1.00 245.67 2649.76
   23:17:52.398.26-Apr-2021 3222.01 4198.40 69.40 1.00 245.87 2649.76
   23:17:52.598.26-Apr-2021 3222.01 4199.06 69.39 1.00 246.07 2649.76
   23:17:52.798.26-Apr-2021 3222.01 4199.06 69.39 1.00 246.27 2649.76
   23:17:52.998.26-Apr-2021 3222.01 4197.62 69.39 1.00 246.47 2649.76
   23:17:53.198.26-Apr-2021 3222.01 4197.47 69.39 1.00 246.67 2649.76
   23:17:53.398.26-Apr-2021 3222.01 4200.15 69.39 1.00 246.87 2649.76
   23:17:53.598.26-Apr-2021 3222.01 4199.65 69.39 1.00 247.07 2649.76
   23:17:53.798.26-Apr-2021 3222.01 4199.65 69.39 1.00 247.27 2649.76
   23:17:53.998.26-Apr-2021 3222.01 4199.28 69.39 1.00 247.47 2649.76
   23:17:54.198.26-Apr-2021 3222.01 4199.22 69.39 1.00 247.67 2649.76
   23:17:54.398.26-Apr-2021 3222.01 4221.96 69.39 1.00 247.87 2649.76
   23:17:54.598.26-Apr-2021 3222.01 4268.08 69.39 1.00 248.07 2649.76
   23:17:54.799.26-Apr-2021 3222.01 4268.08 69.39 1.00 248.27 2649.76
   23:17:54.999.26-Apr-2021 3222.01 4272.41 69.39 1.00 248.47 2649.76
   23:17:55.199.26-Apr-2021 3222.01 4273.05 69.39 1.00 248.67 2649.76
   23:17:55.399.26-Apr-2021 3222.01 4273.25 69.39 1.00 248.87 2649.76
   23:17:55.599.26-Apr-2021 3222.01 4274.29 69.39 1.00 249.07 2649.76
   23:17:55.799.26-Apr-2021 3222.01 4274.29 69.39 1.00 249.27 2649.76
   23:17:55.999.26-Apr-2021 3222.01 4274.93 69.39 1.00 249.47 2649.76
   23:17:56.199.26-Apr-2021 3222.01 4274.82 69.39 1.00 249.67 2649.76
   23:17:56.399.26-Apr-2021 3222.01 4275.58 69.39 1.00 249.87 2649.76
   23:17:56.599.26-Apr-2021 3222.01 4275.78 69.39 1.00 250.07 2649.76
   23:17:56.799.26-Apr-2021 3222.01 4275.78 69.39 1.00 250.27 2649.76
   23:17:56.999.26-Apr-2021 3222.01 4276.23 69.39 1.00 250.47 2649.76
   23:17:57.199.26-Apr-2021 3222.01 4276.31 69.39 1.00 250.67 2649.76
   23:17:57.399.26-Apr-2021 3222.01 4276.33 69.39 1.00 250.87 2649.76
   23:17:57.599.26-Apr-2021 3222.01 4276.65 69.39 1.00 251.07 2649.76
   23:17:57.799.26-Apr-2021 3222.01 4276.65 69.39 1.00 251.27 2649.76
   23:17:57.999.26-Apr-2021 3222.01 4276.69 69.39 1.00 251.47 2649.76
   23:17:58.200.26-Apr-2021 3222.01 4276.65 69.39 1.00 251.67 2649.76
   23:17:58.400.26-Apr-2021 3222.01 4276.76 69.39 1.00 251.87 2649.76
   23:17:58.600.26-Apr-2021 3222.01 4276.69 69.39 1.00 252.07 2649.76
   23:17:58.800.26-Apr-2021 3222.01 4276.69 69.39 1.00 252.27 2649.76
   23:17:59.000.26-Apr-2021 3222.01 4277.13 69.39 1.00 252.47 2649.76
   23:17:59.200.26-Apr-2021 3222.01 4277.26 69.39 1.00 252.67 2649.76
   23:17:59.400.26-Apr-2021 3222.01 4277.27 69.39 1.00 252.87 2649.76
