~Version Information
 VERS.                  2.0:   CWLS log ASCII Standard -VERSION 2.0
 WRAP.                   NO:   One line per depth step
~Well Information Block
#MNEM.UNIT     VALUE/NAME     DESCRIPTION
#---------     -----------    ---------------------------
 STRT.S             23:23:54 27-Apr-21: START TIME 23:23:54 27-Apr-21
 STOP.S             23:30:22 27-Apr-21: STOP TIME  23:30:22 27-Apr-21
 STEP.S                   0.00: STEP TIME
 NULL.                 -999.25: NULL VALUE
 DFWT.                        :  DIST FWL TEXT
 DFST.                        :  DIST FSL TEXT
 DMF .             Drill Floor:  DRILL MEAS FROM
 STIM.      02.00.00 12-Apr-21:  START TIME
 DATE.      02.00.00 02-May-21:  END TIME
 SPUD.               09-Apr-21:  SPUD DATE
 NREF.                    Grid:  NORTH REFERENCE
 HPTY.       Minimum Curvature:  HOLE POS TYPE
 DMOD.             Drill Model:  DRILL MOD DESC
 SVYD.                  Survey:  SURVEY DESC
 ILTD.               Lithology:  INTERP LTH DESC
 FTOP.          Formation Tops:  FORM TOPS DESC
 PDAT.          Mean Sea Level:  PERMANENT DATUM
 FLD .                     ACG:  FIELD NAME
 SON .        AZ-XX-0907021034:  JOB NUMBER
 CTRY.              Azerbaijan:  COUNTRY NAME
 WELL.                    E01x:  WELL NAME
 COMP.     BP Exploration (Caspian Sea) LTD.:  COMPANY
 UWI .            /AZE00001403:  UNIQUE WELL IDENTIFIER
 API .            /AZE00001403:  API NUMBER
 WTYP.                Deviated:  WELL TYPE
 MDS .        Operator Entered:  MAG DATA SOURCE
 BASE.              Azerbaijan:  LOGGING EQUIPMENT BASE LOCATION
 REGN.                   EESSA:  REGION
 PROV.                    Baku:  PROVINCE
 STAT.                    Baku:  STATE NAME
 SRVC.          Turan Drilling:  CONTRACTOR
 MWDS.                    Baku:  MWD SHOP
 JOBN.        AZ-XX-0907021034:  JOB TICKET NUMB
 RIG .                     DWG:  RIG NAME
 DOE .                     N/A:  DOE NUMBER
 DCON.         Sperry Drilling:  DIRECTNL CONTR
 UNIT.                     N/A:  LOGGING EQUIPMENT ID
 CNTY.                        :  COUNTY
 LOC .                        :  LOCATION
 LMF .             Drill Floor:  LOG MEASURED FROM
 TVDS.m                  43.16:  TVDSS CORRECTN
 LATI.deg                40.17:  LATITUDE
 LONG.deg                51.17:  LONGITUDE
 WHNS.m                  -5.90:  WELL HEAD N/S
 WHEW.m                  -6.61:  WELL HEAD E/W
 UTMX.m              514337.95:  UTM X
 UTMY.m             4448627.46:  UTM Y
 DFWL.m                   0.00:  DISTANCE FWL
 DFSL.m                   0.00:  DISTANCE FSL
 SDEP.m                2606.87:  START DEPTH
 TDD .m                3618.01:  TOTAL DEPTH (DRILLER)
 VSDR.deg               177.42:  VERT SEC DIRECT
 GVFD.g                   1.00:  GRAVITY FIELD
 MFLD.nT              50399.00:  MAGNETIC FIELD
 MDIP.deg                59.67:  MAGNETIC DIP
 MDEC.deg                 6.56:  MAGNETIC DECL
 GRDC.deg                 0.11:  GRID CORRECTION
 AZTC.deg                 6.45:  AZM TOTAL CORR
 EPD .m                   0.00:  ELEVATION
 EGL .m                   0.00:  GROUND ELEVATION
 WDMS.m                 176.20:  WD ELEV
 APD .m                  43.16:  DEPTH ABOVE PD
 DEP .m                2606.87:  DEPTH
 AGAP.m                  43.16:  AIR GAP
 VSEW.m                  -6.61:  VERT SEC E/W
 VSNS.m                  -5.90:  VERT SEC N/S
 EKB .m                  43.16:  KB ELEVATION
 EDF .m                  43.16:  DF ELEVATION
 TDL .m                 438.00:  TOTAL DEPTH (LOGGER)
 VSC .                       0:  VS TO CLOSURE
 MAGU.                 1855490:  MAGUTM CHECKSUM
~Parameter Information Block
#MNEM.UNIT       Value        Description
#---------     -----------    ---------------------------
 AV  .mps                 2.20:  Ann Velocity 
 AVMX.mps                 2.50:  Max Ann Veloc 
 AZIF.deg               150.21:  Azm, Final 
 BHAT.        Rotary Steerable:  BHA Type 
 BROT.°/30m               0.08:  Build Rotating 
 BS  .in                  6.50:  Bit Size 
 BSZ .in                  6.50:  Bit Size 
 BTPL.psig              108.00:  Bit Press Loss 
 CABU.                     Yes:  Customer Abuse 
 CGEO.           Emin Aliyarli:  Customer Geo 
 COMM.                     HO:  Run Comments 1 
 TCS .hr                 74.20:  Time Ciculation Ended 
 CV  .mps                 3.63:  Crit Velocity 
 CVMX.mps                 3.66:  Max Crit Veloc 
 DD1 .         Intigam Rahimov:  Direct Drillr 1 
 DD2 .          Teymur Aghayev:  Direct Drillr 2 
 DDSV.               Geo-Pilot:  DD Service 
 DEFF.%                  97.00:  % Det Eff 
 DLRX.°/30m               1.63:  Dogleg Rot Max 
 DLSO.°/30m               0.00:  Dogleg Oriented 
 DLSX.°/30m               0.00:  Dogleg Str Max 
 DRET.      20.20.00 28-Apr-21:  Drill End Time 
 DRST.      04.45.00 26-Apr-21:  Drill Start Tim 
 DTIM.hr                 34.30:  Time Drilling 
 EDEP.m                3618.01:  End Depth 
 ENG1.           Amrah Tahirov:  Engineer 1 
 ENG2.         Bahruz Mehdiyev:  Engineer 2 
 ENG3.         Farhad Orujzade:  Engineer 3 
 ETIM.      19.00.00 29-Apr-21:  End Time 
 FLOI.gpm               370.00:  Flow In 
 FLON.gpm               300.00:  Flow In Min 
 FLOS.cptm                0.00:  Fluid Loss 
 FLOX.gpm               410.00:  Flow In Max 
 HFLO.                      No:  High Flow 
 HPRE.                      No:  High Pressure 
 HTEM.                      No:  High Temp 
 HYDO.m                   1.80:  Hydro Offset 
 IFIN.deg                67.19:  Inc, Final 
 IMAX.deg                68.42:  Inc Max 
 IMIN.deg                66.33:  Inc Min 
 IMND.m                3532.79:  Inc Min Depth 
 IMXD.m                3192.15:  Inc Max Depth 
 JARR.                      No:  Jarring 
 LETM.      20.20.00 28-Apr-21:  Log End Time 
 LOST.hr                     0:  Lost Rig Time 
 LSTM.      04.45.00 26-Apr-21:  Log Start Time 
 MDCL.ppm             36500.00:  Mud Chlorides 
 MDES.     Inversion Oil/Synthetic:  Mud Desc 
 DFD .sg                  1.42:  Mud Density 
 MDMN.sg                  1.42:  Dens Mud Min 
 MDMX.sg                  1.42:  Dens Mud Max 
 MOIL.                    55.7:  Run Mud Oil % 
 MOWR.                   71:29:  Run Mud OWR 
 MSND.                     0.1:  Run Mud Sand % 
 MSOL.                    19.9:  Run Mud Solids% 
 DFV .spqt               83.00:  Mud Viscosity 
 MWOD.in                  5.15:  MWD Tool OD 
 MWSI.                      No:  Serv Intrp, MWD 
 OTIM.hr                120.59:  Time Operating 
 PCON.           Look Like New:  Pad Condition 
 PMAX.psia            11292.93:  Press Op, Max 
 PV  .cP                 27.00:  Mud PV 
 RUN .                     400:  Run Number 
 ROPA.m/hr               14.00:  ROP Avg 
 ROPN.m/hr                9.00:  ROP Min 
 ROPX.m/hr               18.00:  ROP Max 
 RPMA.rpm               130.00:  RPM Surface Avg 
 RPMN.rpm               100.00:  RPM Surface Min 
 RPMX.rpm               140.00:  RPM Surface Max 
 RRUN.                    0400:  Rig Run Number 
 RTIM.hr                 38.60:  Time Reaming 
 SAZI.deg               149.55:  Azm, Start 
 SDEP.m                3180.01:  Start Depth 
 SIDD.                      No:  Serv Intrp, DD 
 SINC.deg                68.42:  Inc, Start 
 SPPA.psig             4400.00:  SPP Avg 
 SPPN.psig             3580.00:  SPP Min 
 SPPX.psig             4850.00:  SPP Max 
 STIM.      12.30.00 24-Apr-21:  Start Time 
 SVCS.                 DD, MWD:  Services 
 SVER.                    9.20:  Sperry Version 
 TDAT.m                 438.00:  Tot Depth Attmp 
 TDDF.                      No:  Trip for DD 
 TDLG.m                 438.00:  Tot Depth Loggd 
 TFF .                      No:  Trip for Fail 
 TQAA.f-kp               11.00:  Torque Abs Avg 
 TQAN.f-kp                9.00:  Torque Abs Min 
 TQAX.f-kp               14.00:  Torque Abs Max 
 TRRT.°/30m               0.04:  Turn Rotating 
 MRT .                    HCIM:  Maximum Recorded Temperature 
 TTMX.degC               84.31:  Max Tool Temp 
 VS01.                90521954:  Virtual Str1 SN 
 VS02.                90519327:  Virtual Str2 SN 
 VS03.                90522273:  Virtual Str3 SN 
 VS04.                11108038:  Virtual Str4 SN 
 VS05.                12258760:  Virtual Str5 SN 
 WBMN.klb                 1.00:  WOB Min 
 WITN.           Adil Mammadov:  Customer Rep 
 WITN.         Alex Yadullayev:  Customer Rep 2 
 WOBA.klb                 6.00:  WOB Avg 
 WOBX.klb                 9.00:  WOB Max 
 YP  .lhf2               31.00:  Yield Point 
~Curve Information Block
#MNEM.UNIT                 API CODE     Curve Description
#---------               -----------    ---------------------------
 TIME.HHMMSS            00 000 000 000:  GT Time & Date
 GTDEPTH.m              00 000 000 000:  GT Depth
 GTPQH.psia             00 000 000 000:  GT HR Quartz Pressure
 GTTQ.degC              00 000 000 000:  GT Quartz Temperature
 GTTN.NONE              00 000 000 000:  GT Test Number
 GTET.sec               00 000 000 000:  GT Elapsed Test Time
 GTTVD.m                00 000 000 000:  GT True Vertical Depth
#Other Information
#
#WARRANTY: Halliburton will use its best efforts to furnish customers with 
#accurate information and interpretations that are part of, and incident to, the services 
#provided.  However, Halliburton cannot and does not warrant the accuracy 
#or correctness of such information and interpretations.  Under no circumstances should any 
#such information or interpretation be relied upon as the sole basis for any drilling, 
#completion, production, or financial decision or any procedure involving any risk to the 
#safety of any drilling venture, drilling rig or its crew or any other third party.  The 
#Customer has full responsibility for all drilling, completion and production operation.  
#Halliburton makes no representations or warranties, either expressed or 
#implied, including, but not limited to, the implied warranties of merchantability or fitness 
#for a particular purpose, with respect to the services rendered.  In no event will 
#Halliburton be liable for failure to obtain any particular results or for 
#any damages, including, but not limited to, indirect, special or consequential damages, 
#resulting from the use of any information or interpretation provided by Halliburton.
#
~A           TIME           GTDEPTH  GTPQH  GTTQ  GTTN  GTET   GTTVD  
# ...
   23:25:49.659.27-Apr-2021 3418.01 3573.36 73.85 6.00 115.03 2727.14
   23:25:49.859.27-Apr-2021 3418.01 3573.36 73.85 6.00 115.23 2727.14
   23:25:50.059.27-Apr-2021 3418.01 3573.38 73.85 6.00 115.43 2727.14
   23:25:50.259.27-Apr-2021 3418.01 3573.18 73.85 6.00 115.63 2727.14
   23:25:50.459.27-Apr-2021 3418.01 3573.46 73.85 6.00 115.83 2727.14
   23:25:50.659.27-Apr-2021 3418.01 3573.35 73.85 6.00 116.03 2727.14
   23:25:50.859.27-Apr-2021 3418.01 3573.35 73.85 6.00 116.23 2727.14
   23:25:51.059.27-Apr-2021 3418.01 3573.37 73.84 6.00 116.43 2727.14
   23:25:51.260.27-Apr-2021 3418.01 3573.36 73.84 6.00 116.63 2727.14
   23:25:51.460.27-Apr-2021 3418.01 3573.31 73.84 6.00 116.83 2727.14
   23:25:51.660.27-Apr-2021 3418.01 3573.30 73.84 6.00 117.03 2727.14
   23:25:51.860.27-Apr-2021 3418.01 3573.30 73.84 6.00 117.23 2727.14
   23:25:52.060.27-Apr-2021 3418.01 3573.38 73.84 6.00 117.43 2727.14
   23:25:52.260.27-Apr-2021 3418.01 3573.32 73.84 6.00 117.63 2727.14
   23:25:52.460.27-Apr-2021 3418.01 3573.36 73.84 6.00 117.83 2727.14
   23:25:52.660.27-Apr-2021 3418.01 3573.36 73.84 6.00 118.03 2727.14
   23:25:52.860.27-Apr-2021 3418.01 3573.36 73.84 6.00 118.23 2727.14
   23:25:53.060.27-Apr-2021 3418.01 3573.41 73.84 6.00 118.43 2727.14
   23:25:53.260.27-Apr-2021 3418.01 3573.37 73.84 6.00 118.63 2727.14
   23:25:53.460.27-Apr-2021 3418.01 3573.32 73.84 6.00 118.83 2727.14
   23:25:53.660.27-Apr-2021 3418.01 3573.36 73.84 6.00 119.03 2727.14
   23:25:53.860.27-Apr-2021 3418.01 3573.36 73.84 6.00 119.23 2727.14
   23:25:54.060.27-Apr-2021 3418.01 3573.34 73.84 6.00 119.43 2727.14
   23:25:54.260.27-Apr-2021 3418.01 3573.34 73.84 6.00 119.63 2727.14
   23:25:54.460.27-Apr-2021 3418.01 3573.32 73.84 6.00 119.83 2727.14
   23:25:54.660.27-Apr-2021 3418.01 3573.35 73.84 6.00 120.03 2727.14
   23:25:54.860.27-Apr-2021 3418.01 3573.35 73.84 6.00 120.23 2727.14
   23:25:55.060.27-Apr-2021 3418.01 3573.32 73.84 6.00 120.43 2727.14
   23:25:55.261.27-Apr-2021 3418.01 3573.33 73.83 6.00 120.63 2727.14
   23:25:55.461.27-Apr-2021 3418.01 3573.21 73.83 6.00 120.83 2727.14
   23:25:55.661.27-Apr-2021 3418.01 3573.32 73.83 6.00 121.03 2727.14
   23:25:55.861.27-Apr-2021 3418.01 3573.32 73.83 6.00 121.23 2727.14
   23:25:56.061.27-Apr-2021 3418.01 3573.31 73.83 6.00 121.43 2727.14
   23:25:56.261.27-Apr-2021 3418.01 3573.32 73.83 6.00 121.63 2727.14
   23:25:56.461.27-Apr-2021 3418.01 3573.32 73.83 6.00 121.83 2727.14
   23:25:56.661.27-Apr-2021 3418.01 3573.32 73.83 6.00 122.03 2727.14
   23:25:56.861.27-Apr-2021 3418.01 3573.32 73.83 6.00 122.23 2727.14
   23:25:57.061.27-Apr-2021 3418.01 3573.33 73.83 6.00 122.43 2727.14
   23:25:57.261.27-Apr-2021 3418.01 3573.30 73.83 6.00 122.63 2727.14
   23:25:57.461.27-Apr-2021 3418.01 3573.33 73.83 6.00 122.83 2727.14
   23:25:57.661.27-Apr-2021 3418.01 3573.30 73.83 6.00 123.03 2727.14
   23:25:57.861.27-Apr-2021 3418.01 3573.30 73.83 6.00 123.23 2727.14
   23:25:58.061.27-Apr-2021 3418.01 3573.30 73.83 6.00 123.43 2727.14
   23:25:58.261.27-Apr-2021 3418.01 3573.13 73.83 6.00 123.63 2727.14
   23:25:58.461.27-Apr-2021 3418.01 3573.39 73.83 6.00 123.83 2727.14
   23:25:58.661.27-Apr-2021 3418.01 3573.31 73.83 6.00 124.03 2727.14
   23:25:58.861.27-Apr-2021 3418.01 3573.31 73.83 6.00 124.23 2727.14
   23:25:59.062.27-Apr-2021 3418.01 3573.32 73.83 6.00 124.43 2727.14
   23:25:59.262.27-Apr-2021 3418.01 3573.30 73.83 6.00 124.63 2727.14
   23:25:59.462.27-Apr-2021 3418.01 3573.12 73.83 6.00 124.83 2727.14
   23:25:59.662.27-Apr-2021 3418.01 3573.39 73.83 6.00 125.03 2727.14
   23:25:59.862.27-Apr-2021 3418.01 3573.39 73.83 6.00 125.23 2727.14
   23:26:00.062.27-Apr-2021 3418.01 3573.29 73.82 6.00 125.43 2727.14
   23:26:00.262.27-Apr-2021 3418.01 3573.31 73.82 6.00 125.63 2727.14
   23:26:00.462.27-Apr-2021 3418.01 3573.30 73.82 6.00 125.83 2727.14
   23:26:00.662.27-Apr-2021 3418.01 3573.21 73.82 6.00 126.03 2727.14
   23:26:00.862.27-Apr-2021 3418.01 3573.21 73.82 6.00 126.23 2727.14
   23:26:01.062.27-Apr-2021 3418.01 3573.27 73.82 6.00 126.43 2727.14
   23:26:01.262.27-Apr-2021 3418.01 3573.31 73.82 6.00 126.63 2727.14
   23:26:01.462.27-Apr-2021 3418.01 3573.27 73.82 6.00 126.83 2727.14
   23:26:01.662.27-Apr-2021 3418.01 3573.30 73.82 6.00 127.03 2727.14
   23:26:01.862.27-Apr-2021 3418.01 3573.30 73.82 6.00 127.23 2727.14
   23:26:02.062.27-Apr-2021 3418.01 3573.12 73.82 6.00 127.43 2727.14
   23:26:02.262.27-Apr-2021 3418.01 3573.34 73.82 6.00 127.63 2727.14
   23:26:02.462.27-Apr-2021 3418.01 3573.31 73.82 6.00 127.83 2727.14
   23:26:02.662.27-Apr-2021 3418.01 3573.26 73.82 6.00 128.03 2727.14
   23:26:02.863.27-Apr-2021 3418.01 3573.26 73.82 6.00 128.23 2727.14
   23:26:03.063.27-Apr-2021 3418.01 3573.27 73.82 6.00 128.43 2727.14
   23:26:03.263.27-Apr-2021 3418.01 3573.28 73.82 6.00 128.63 2727.14
   23:26:03.463.27-Apr-2021 3418.01 3573.26 73.82 6.00 128.83 2727.14
   23:26:03.663.27-Apr-2021 3418.01 3573.27 73.82 6.00 129.03 2727.14
   23:26:03.863.27-Apr-2021 3418.01 3573.27 73.82 6.00 129.23 2727.14
   23:26:04.063.27-Apr-2021 3418.01 3573.26 73.82 6.00 129.43 2727.14
   23:26:04.263.27-Apr-2021 3418.01 3573.25 73.81 6.00 129.63 2727.14
   23:26:04.463.27-Apr-2021 3418.01 3573.27 73.81 6.00 129.83 2727.14
   23:26:04.663.27-Apr-2021 3418.01 3573.12 73.81 6.00 130.03 2727.14
   23:26:04.863.27-Apr-2021 3418.01 3573.12 73.81 6.00 130.23 2727.14
   23:26:05.063.27-Apr-2021 3418.01 3573.28 73.81 6.00 130.43 2727.14
   23:26:05.263.27-Apr-2021 3418.01 3573.23 73.81 6.00 130.63 2727.14
   23:26:05.463.27-Apr-2021 3418.01 3573.14 73.81 6.00 130.83 2727.14
   23:26:05.663.27-Apr-2021 3418.01 3557.28 73.81 6.00 131.03 2727.14
   23:26:05.863.27-Apr-2021 3418.01 3557.28 73.81 6.00 131.23 2727.14
   23:26:06.063.27-Apr-2021 3418.01 3555.47 73.81 6.00 131.43 2727.14
   23:26:06.263.27-Apr-2021 3418.01 3555.47 73.81 6.00 131.63 2727.14
   23:26:06.463.27-Apr-2021 3418.01 3555.34 73.81 6.00 131.83 2727.14
   23:26:06.663.27-Apr-2021 3418.01 3555.51 73.81 6.00 132.03 2727.14
   23:26:06.864.27-Apr-2021 3418.01 3555.51 73.81 6.00 132.23 2727.14
   23:26:07.064.27-Apr-2021 3418.01 3555.30 73.81 6.00 132.43 2727.14
   23:26:07.264.27-Apr-2021 3418.01 3555.36 73.81 6.00 132.63 2727.14
   23:26:07.464.27-Apr-2021 3418.01 3554.94 73.81 6.00 132.83 2727.14
   23:26:07.664.27-Apr-2021 3418.01 3555.67 73.81 6.00 133.03 2727.14
   23:26:07.864.27-Apr-2021 3418.01 3555.67 73.81 6.00 133.23 2727.14
   23:26:08.064.27-Apr-2021 3418.01 3555.25 73.81 6.00 133.43 2727.14
   23:26:08.264.27-Apr-2021 3418.01 3555.42 73.81 6.00 133.63 2727.14
   23:26:08.464.27-Apr-2021 3418.01 3555.37 73.81 6.00 133.83 2727.14
   23:26:08.664.27-Apr-2021 3418.01 3554.80 73.80 6.00 134.03 2727.14
   23:26:08.864.27-Apr-2021 3418.01 3554.80 73.80 6.00 134.23 2727.14
   23:26:09.064.27-Apr-2021 3418.01 3555.25 73.80 6.00 134.43 2727.14
   23:26:09.264.27-Apr-2021 3418.01 3555.10 73.80 6.00 134.63 2727.14
   23:26:09.464.27-Apr-2021 3418.01 3555.26 73.80 6.00 134.83 2727.14
   23:26:09.664.27-Apr-2021 3418.01 3555.31 73.80 6.00 135.03 2727.14
   23:26:09.864.27-Apr-2021 3418.01 3555.31 73.80 6.00 135.23 2727.14
   23:26:10.064.27-Apr-2021 3418.01 3555.40 73.80 6.00 135.43 2727.14
   23:26:10.264.27-Apr-2021 3418.01 3555.33 73.80 6.00 135.63 2727.14
   23:26:10.464.27-Apr-2021 3418.01 3555.33 73.80 6.00 135.83 2727.14
   23:26:10.665.27-Apr-2021 3418.01 3555.29 73.80 6.00 136.04 2727.14
   23:26:10.865.27-Apr-2021 3418.01 3555.29 73.80 6.00 136.24 2727.14
   23:26:11.065.27-Apr-2021 3418.01 3555.29 73.80 6.00 136.44 2727.14
   23:26:11.265.27-Apr-2021 3418.01 3554.89 73.80 6.00 136.64 2727.14
   23:26:11.465.27-Apr-2021 3418.01 3555.65 73.80 6.00 136.84 2727.14
   23:26:11.665.27-Apr-2021 3418.01 3555.50 73.80 6.00 137.04 2727.14
   23:26:11.865.27-Apr-2021 3418.01 3555.50 73.80 6.00 137.24 2727.14
   23:26:12.065.27-Apr-2021 3418.01 3555.38 73.80 6.00 137.44 2727.14
   23:26:12.265.27-Apr-2021 3418.01 3555.40 73.80 6.00 137.64 2727.14
   23:26:12.465.27-Apr-2021 3418.01 3555.44 73.80 6.00 137.84 2727.14
