~Version Information
 VERS.                  2.0:   CWLS log ASCII Standard -VERSION 2.0
 WRAP.                   NO:   One line per depth step
~Well Information Block
#MNEM.UNIT     VALUE/NAME     DESCRIPTION
#---------     -----------    ---------------------------
 STRT.S             03:12:46 28-Apr-21: START TIME 03:12:46 28-Apr-21
 STOP.S             03:19:14 28-Apr-21: STOP TIME  03:19:14 28-Apr-21
 STEP.S                   0.00: STEP TIME
 NULL.                 -999.25: NULL VALUE
 DFWT.                        :  DIST FWL TEXT
 DFST.                        :  DIST FSL TEXT
 DMF .             Drill Floor:  DRILL MEAS FROM
 STIM.      02.00.00 12-Apr-21:  START TIME
 DATE.      02.00.00 02-May-21:  END TIME
 SPUD.               09-Apr-21:  SPUD DATE
 NREF.                    Grid:  NORTH REFERENCE
 HPTY.       Minimum Curvature:  HOLE POS TYPE
 DMOD.             Drill Model:  DRILL MOD DESC
 SVYD.                  Survey:  SURVEY DESC
 ILTD.               Lithology:  INTERP LTH DESC
 FTOP.          Formation Tops:  FORM TOPS DESC
 PDAT.          Mean Sea Level:  PERMANENT DATUM
 FLD .                     ACG:  FIELD NAME
 SON .        AZ-XX-0907021034:  JOB NUMBER
 CTRY.              Azerbaijan:  COUNTRY NAME
 WELL.                    E01x:  WELL NAME
 COMP.     BP Exploration (Caspian Sea) LTD.:  COMPANY
 UWI .            /AZE00001403:  UNIQUE WELL IDENTIFIER
 API .            /AZE00001403:  API NUMBER
 WTYP.                Deviated:  WELL TYPE
 MDS .        Operator Entered:  MAG DATA SOURCE
 BASE.              Azerbaijan:  LOGGING EQUIPMENT BASE LOCATION
 REGN.                   EESSA:  REGION
 PROV.                    Baku:  PROVINCE
 STAT.                    Baku:  STATE NAME
 SRVC.          Turan Drilling:  CONTRACTOR
 MWDS.                    Baku:  MWD SHOP
 JOBN.        AZ-XX-0907021034:  JOB TICKET NUMB
 RIG .                     DWG:  RIG NAME
 DOE .                     N/A:  DOE NUMBER
 DCON.         Sperry Drilling:  DIRECTNL CONTR
 UNIT.                     N/A:  LOGGING EQUIPMENT ID
 CNTY.                        :  COUNTY
 LOC .                        :  LOCATION
 LMF .             Drill Floor:  LOG MEASURED FROM
 TVDS.m                  43.16:  TVDSS CORRECTN
 LATI.deg                40.17:  LATITUDE
 LONG.deg                51.17:  LONGITUDE
 WHNS.m                  -5.90:  WELL HEAD N/S
 WHEW.m                  -6.61:  WELL HEAD E/W
 UTMX.m              514337.95:  UTM X
 UTMY.m             4448627.46:  UTM Y
 DFWL.m                   0.00:  DISTANCE FWL
 DFSL.m                   0.00:  DISTANCE FSL
 SDEP.m                2606.87:  START DEPTH
 TDD .m                3618.01:  TOTAL DEPTH (DRILLER)
 VSDR.deg               177.42:  VERT SEC DIRECT
 GVFD.g                   1.00:  GRAVITY FIELD
 MFLD.nT              50399.00:  MAGNETIC FIELD
 MDIP.deg                59.67:  MAGNETIC DIP
 MDEC.deg                 6.56:  MAGNETIC DECL
 GRDC.deg                 0.11:  GRID CORRECTION
 AZTC.deg                 6.45:  AZM TOTAL CORR
 EPD .m                   0.00:  ELEVATION
 EGL .m                   0.00:  GROUND ELEVATION
 WDMS.m                 176.20:  WD ELEV
 APD .m                  43.16:  DEPTH ABOVE PD
 DEP .m                2606.87:  DEPTH
 AGAP.m                  43.16:  AIR GAP
 VSEW.m                  -6.61:  VERT SEC E/W
 VSNS.m                  -5.90:  VERT SEC N/S
 EKB .m                  43.16:  KB ELEVATION
 EDF .m                  43.16:  DF ELEVATION
 TDL .m                 438.00:  TOTAL DEPTH (LOGGER)
 VSC .                       0:  VS TO CLOSURE
 MAGU.                 1855490:  MAGUTM CHECKSUM
~Parameter Information Block
#MNEM.UNIT       Value        Description
#---------     -----------    ---------------------------
 AV  .mps                 2.20:  Ann Velocity 
 AVMX.mps                 2.50:  Max Ann Veloc 
 AZIF.deg               150.21:  Azm, Final 
 BHAT.        Rotary Steerable:  BHA Type 
 BROT.°/30m               0.08:  Build Rotating 
 BS  .in                  6.50:  Bit Size 
 BSZ .in                  6.50:  Bit Size 
 BTPL.psig              108.00:  Bit Press Loss 
 CABU.                     Yes:  Customer Abuse 
 CGEO.           Emin Aliyarli:  Customer Geo 
 COMM.                     ¬¼r:  Run Comments 1 
 TCS .hr                 74.20:  Time Ciculation Ended 
 CV  .mps                 3.63:  Crit Velocity 
 CVMX.mps                 3.66:  Max Crit Veloc 
 DD1 .         Intigam Rahimov:  Direct Drillr 1 
 DD2 .          Teymur Aghayev:  Direct Drillr 2 
 DDSV.               Geo-Pilot:  DD Service 
 DEFF.%                  97.00:  % Det Eff 
 DLRX.°/30m               1.63:  Dogleg Rot Max 
 DLSO.°/30m               0.00:  Dogleg Oriented 
 DLSX.°/30m               0.00:  Dogleg Str Max 
 DRET.      20.20.00 28-Apr-21:  Drill End Time 
 DRST.      04.45.00 26-Apr-21:  Drill Start Tim 
 DTIM.hr                 34.30:  Time Drilling 
 EDEP.m                3618.01:  End Depth 
 ENG1.           Amrah Tahirov:  Engineer 1 
 ENG2.         Bahruz Mehdiyev:  Engineer 2 
 ENG3.         Farhad Orujzade:  Engineer 3 
 ETIM.      19.00.00 29-Apr-21:  End Time 
 FLOI.gpm               370.00:  Flow In 
 FLON.gpm               300.00:  Flow In Min 
 FLOS.cptm                0.00:  Fluid Loss 
 FLOX.gpm               410.00:  Flow In Max 
 HFLO.                      No:  High Flow 
 HPRE.                      No:  High Pressure 
 HTEM.                      No:  High Temp 
 HYDO.m                   1.80:  Hydro Offset 
 IFIN.deg                67.19:  Inc, Final 
 IMAX.deg                68.42:  Inc Max 
 IMIN.deg                66.33:  Inc Min 
 IMND.m                3532.79:  Inc Min Depth 
 IMXD.m                3192.15:  Inc Max Depth 
 JARR.                      No:  Jarring 
 LETM.      20.20.00 28-Apr-21:  Log End Time 
 LOST.hr                     0:  Lost Rig Time 
 LSTM.      04.45.00 26-Apr-21:  Log Start Time 
 MDCL.ppm             36500.00:  Mud Chlorides 
 MDES.     Inversion Oil/Synthetic:  Mud Desc 
 DFD .sg                  1.42:  Mud Density 
 MDMN.sg                  1.42:  Dens Mud Min 
 MDMX.sg                  1.42:  Dens Mud Max 
 MOIL.                    55.7:  Run Mud Oil % 
 MOWR.                   71:29:  Run Mud OWR 
 MSND.                     0.1:  Run Mud Sand % 
 MSOL.                    19.9:  Run Mud Solids% 
 DFV .spqt               83.00:  Mud Viscosity 
 MWOD.in                  5.15:  MWD Tool OD 
 MWSI.                      No:  Serv Intrp, MWD 
 OTIM.hr                120.59:  Time Operating 
 PCON.           Look Like New:  Pad Condition 
 PMAX.psia            11292.93:  Press Op, Max 
 PV  .cP                 27.00:  Mud PV 
 RUN .                     400:  Run Number 
 ROPA.m/hr               14.00:  ROP Avg 
 ROPN.m/hr                9.00:  ROP Min 
 ROPX.m/hr               18.00:  ROP Max 
 RPMA.rpm               130.00:  RPM Surface Avg 
 RPMN.rpm               100.00:  RPM Surface Min 
 RPMX.rpm               140.00:  RPM Surface Max 
 RRUN.                    0400:  Rig Run Number 
 RTIM.hr                 38.60:  Time Reaming 
 SAZI.deg               149.55:  Azm, Start 
 SDEP.m                3180.01:  Start Depth 
 SIDD.                      No:  Serv Intrp, DD 
 SINC.deg                68.42:  Inc, Start 
 SPPA.psig             4400.00:  SPP Avg 
 SPPN.psig             3580.00:  SPP Min 
 SPPX.psig             4850.00:  SPP Max 
 STIM.      12.30.00 24-Apr-21:  Start Time 
 SVCS.                 DD, MWD:  Services 
 SVER.                    9.20:  Sperry Version 
 TDAT.m                 438.00:  Tot Depth Attmp 
 TDDF.                      No:  Trip for DD 
 TDLG.m                 438.00:  Tot Depth Loggd 
 TFF .                      No:  Trip for Fail 
 TQAA.f-kp               11.00:  Torque Abs Avg 
 TQAN.f-kp                9.00:  Torque Abs Min 
 TQAX.f-kp               14.00:  Torque Abs Max 
 TRRT.°/30m               0.04:  Turn Rotating 
 MRT .                    HCIM:  Maximum Recorded Temperature 
 TTMX.degC               84.31:  Max Tool Temp 
 VS01.                90521954:  Virtual Str1 SN 
 VS02.                90519327:  Virtual Str2 SN 
 VS03.                90522273:  Virtual Str3 SN 
 VS04.                11108038:  Virtual Str4 SN 
 VS05.                12258760:  Virtual Str5 SN 
 WBMN.klb                 1.00:  WOB Min 
 WITN.           Adil Mammadov:  Customer Rep 
 WITN.         Alex Yadullayev:  Customer Rep 2 
 WOBA.klb                 6.00:  WOB Avg 
 WOBX.klb                 9.00:  WOB Max 
 YP  .lhf2               31.00:  Yield Point 
~Curve Information Block
#MNEM.UNIT                 API CODE     Curve Description
#---------               -----------    ---------------------------
 TIME.HHMMSS            00 000 000 000:  GT Time & Date
 GTDEPTH.m              00 000 000 000:  GT Depth
 GTPQH.psia             00 000 000 000:  GT HR Quartz Pressure
 GTTQ.degC              00 000 000 000:  GT Quartz Temperature
 GTTN.NONE              00 000 000 000:  GT Test Number
 GTET.sec               00 000 000 000:  GT Elapsed Test Time
 GTTVD.m                00 000 000 000:  GT True Vertical Depth
#Other Information
#
#WARRANTY: Halliburton will use its best efforts to furnish customers with 
#accurate information and interpretations that are part of, and incident to, the services 
#provided.  However, Halliburton cannot and does not warrant the accuracy 
#or correctness of such information and interpretations.  Under no circumstances should any 
#such information or interpretation be relied upon as the sole basis for any drilling, 
#completion, production, or financial decision or any procedure involving any risk to the 
#safety of any drilling venture, drilling rig or its crew or any other third party.  The 
#Customer has full responsibility for all drilling, completion and production operation.  
#Halliburton makes no representations or warranties, either expressed or 
#implied, including, but not limited to, the implied warranties of merchantability or fitness 
#for a particular purpose, with respect to the services rendered.  In no event will 
#Halliburton be liable for failure to obtain any particular results or for 
#any damages, including, but not limited to, indirect, special or consequential damages, 
#resulting from the use of any information or interpretation provided by Halliburton.
#
~A           TIME           GTDEPTH  GTPQH  GTTQ  GTTN  GTET   GTTVD  
# ...
   03:14:18.825.28-Apr-2021 3448.01 3696.85 72.22 7.00  92.01 2738.99
   03:14:19.025.28-Apr-2021 3448.01 3696.85 72.22 7.00  92.21 2738.99
   03:14:19.225.28-Apr-2021 3448.01 3696.85 72.22 7.00  92.41 2738.99
   03:14:19.425.28-Apr-2021 3448.01 3696.86 72.22 7.00  92.61 2738.99
   03:14:19.625.28-Apr-2021 3448.01 3696.86 72.22 7.00  92.81 2738.99
   03:14:19.825.28-Apr-2021 3448.01 3696.78 72.22 7.00  93.01 2738.99
   03:14:20.025.28-Apr-2021 3448.01 3696.78 72.22 7.00  93.21 2738.99
   03:14:20.225.28-Apr-2021 3448.01 3696.83 72.22 7.00  93.41 2738.99
   03:14:20.425.28-Apr-2021 3448.01 3696.84 72.21 7.00  93.61 2738.99
   03:14:20.625.28-Apr-2021 3448.01 3696.82 72.21 7.00  93.81 2738.99
   03:14:20.825.28-Apr-2021 3448.01 3696.84 72.21 7.00  94.01 2738.99
   03:14:21.025.28-Apr-2021 3448.01 3696.84 72.21 7.00  94.21 2738.99
   03:14:21.225.28-Apr-2021 3448.01 3696.99 72.21 7.00  94.41 2738.99
   03:14:21.425.28-Apr-2021 3448.01 3696.85 72.21 7.00  94.61 2738.99
   03:14:21.625.28-Apr-2021 3448.01 3696.79 72.21 7.00  94.81 2738.99
   03:14:21.825.28-Apr-2021 3448.01 3696.82 72.21 7.00  95.01 2738.99
   03:14:22.025.28-Apr-2021 3448.01 3696.82 72.21 7.00  95.21 2738.99
   03:14:22.225.28-Apr-2021 3448.01 3696.83 72.21 7.00  95.41 2738.99
   03:14:22.425.28-Apr-2021 3448.01 3696.84 72.21 7.00  95.61 2738.99
   03:14:22.625.28-Apr-2021 3448.01 3696.81 72.21 7.00  95.81 2738.99
   03:14:22.825.28-Apr-2021 3448.01 3696.86 72.21 7.00  96.01 2738.99
   03:14:23.025.28-Apr-2021 3448.01 3696.86 72.21 7.00  96.21 2738.99
   03:14:23.225.28-Apr-2021 3448.01 3696.83 72.21 7.00  96.41 2738.99
   03:14:23.425.28-Apr-2021 3448.01 3696.82 72.21 7.00  96.61 2738.99
   03:14:23.626.28-Apr-2021 3448.01 3696.75 72.21 7.00  96.81 2738.99
   03:14:23.826.28-Apr-2021 3448.01 3696.70 72.21 7.00  97.01 2738.99
   03:14:24.026.28-Apr-2021 3448.01 3696.70 72.21 7.00  97.21 2738.99
   03:14:24.226.28-Apr-2021 3448.01 3696.88 72.21 7.00  97.41 2738.99
   03:14:24.426.28-Apr-2021 3448.01 3696.71 72.21 7.00  97.61 2738.99
   03:14:24.626.28-Apr-2021 3448.01 3696.49 72.21 7.00  97.81 2738.99
   03:14:24.826.28-Apr-2021 3448.01 3697.06 72.21 7.00  98.01 2738.99
   03:14:25.026.28-Apr-2021 3448.01 3697.06 72.21 7.00  98.21 2738.99
   03:14:25.226.28-Apr-2021 3448.01 3696.78 72.20 7.00  98.41 2738.99
   03:14:25.426.28-Apr-2021 3448.01 3696.79 72.20 7.00  98.61 2738.99
   03:14:25.626.28-Apr-2021 3448.01 3696.85 72.20 7.00  98.81 2738.99
   03:14:25.826.28-Apr-2021 3448.01 3696.44 72.20 7.00  99.01 2738.99
   03:14:26.026.28-Apr-2021 3448.01 3696.44 72.20 7.00  99.21 2738.99
   03:14:26.226.28-Apr-2021 3448.01 3696.86 72.20 7.00  99.41 2738.99
   03:14:26.426.28-Apr-2021 3448.01 3696.73 72.20 7.00  99.61 2738.99
   03:14:26.626.28-Apr-2021 3448.01 3696.47 72.20 7.00  99.81 2738.99
   03:14:26.826.28-Apr-2021 3448.01 3696.99 72.20 7.00 100.01 2738.99
   03:14:27.026.28-Apr-2021 3448.01 3696.99 72.20 7.00 100.21 2738.99
   03:14:27.226.28-Apr-2021 3448.01 3696.70 72.20 7.00 100.41 2738.99
   03:14:27.426.28-Apr-2021 3448.01 3696.83 72.20 7.00 100.61 2738.99
   03:14:27.626.28-Apr-2021 3448.01 3696.78 72.20 7.00 100.81 2738.99
   03:14:27.826.28-Apr-2021 3448.01 3696.83 72.20 7.00 101.01 2738.99
   03:14:28.026.28-Apr-2021 3448.01 3696.83 72.20 7.00 101.21 2738.99
   03:14:28.226.28-Apr-2021 3448.01 3696.77 72.20 7.00 101.41 2738.99
   03:14:28.426.28-Apr-2021 3448.01 3696.84 72.20 7.00 101.61 2738.99
   03:14:28.626.28-Apr-2021 3448.01 3696.78 72.20 7.00 101.82 2738.99
   03:14:28.826.28-Apr-2021 3448.01 3696.78 72.20 7.00 102.02 2738.99
   03:14:29.026.28-Apr-2021 3448.01 3696.78 72.20 7.00 102.22 2738.99
   03:14:29.226.28-Apr-2021 3448.01 3696.71 72.20 7.00 102.42 2738.99
   03:14:29.426.28-Apr-2021 3448.01 3696.65 72.20 7.00 102.62 2738.99
   03:14:29.626.28-Apr-2021 3448.01 3696.81 72.20 7.00 102.82 2738.99
   03:14:29.826.28-Apr-2021 3448.01 3696.86 72.20 7.00 103.02 2738.99
   03:14:30.026.28-Apr-2021 3448.01 3696.86 72.20 7.00 103.22 2738.99
   03:14:30.226.28-Apr-2021 3448.01 3696.85 72.20 7.00 103.42 2738.99
   03:14:30.427.28-Apr-2021 3448.01 3696.75 72.19 7.00 103.62 2738.99
   03:14:30.627.28-Apr-2021 3448.01 3696.77 72.19 7.00 103.82 2738.99
   03:14:30.827.28-Apr-2021 3448.01 3696.80 72.19 7.00 104.02 2738.99
   03:14:31.027.28-Apr-2021 3448.01 3696.80 72.19 7.00 104.22 2738.99
   03:14:31.227.28-Apr-2021 3448.01 3696.82 72.19 7.00 104.42 2738.99
   03:14:31.427.28-Apr-2021 3448.01 3696.76 72.19 7.00 104.62 2738.99
   03:14:31.627.28-Apr-2021 3448.01 3696.77 72.19 7.00 104.82 2738.99
   03:14:31.827.28-Apr-2021 3448.01 3696.78 72.19 7.00 105.02 2738.99
   03:14:32.027.28-Apr-2021 3448.01 3696.78 72.19 7.00 105.22 2738.99
   03:14:32.227.28-Apr-2021 3448.01 3696.99 72.19 7.00 105.42 2738.99
   03:14:32.427.28-Apr-2021 3448.01 3696.72 72.19 7.00 105.62 2738.99
   03:14:32.627.28-Apr-2021 3448.01 3696.80 72.19 7.00 105.82 2738.99
   03:14:32.827.28-Apr-2021 3448.01 3696.57 72.19 7.00 106.02 2738.99
   03:14:33.027.28-Apr-2021 3448.01 3696.57 72.19 7.00 106.22 2738.99
   03:14:33.227.28-Apr-2021 3448.01 3696.76 72.19 7.00 106.42 2738.99
   03:14:33.427.28-Apr-2021 3448.01 3696.80 72.19 7.00 106.62 2738.99
   03:14:33.627.28-Apr-2021 3448.01 3696.70 72.19 7.00 106.82 2738.99
   03:14:33.827.28-Apr-2021 3448.01 3696.77 72.19 7.00 107.02 2738.99
   03:14:34.027.28-Apr-2021 3448.01 3696.77 72.19 7.00 107.22 2738.99
   03:14:34.227.28-Apr-2021 3448.01 3696.78 72.19 7.00 107.42 2738.99
   03:14:34.427.28-Apr-2021 3448.01 3696.79 72.19 7.00 107.62 2738.99
   03:14:34.627.28-Apr-2021 3448.01 3696.76 72.19 7.00 107.82 2738.99
   03:14:34.827.28-Apr-2021 3448.01 3696.56 72.19 7.00 108.02 2738.99
   03:14:35.027.28-Apr-2021 3448.01 3696.56 72.19 7.00 108.22 2738.99
   03:14:35.227.28-Apr-2021 3448.01 3696.73 72.19 7.00 108.42 2738.99
   03:14:35.427.28-Apr-2021 3448.01 3696.83 72.19 7.00 108.62 2738.99
   03:14:35.627.28-Apr-2021 3448.01 3696.63 72.18 7.00 108.82 2738.99
   03:14:35.827.28-Apr-2021 3448.01 3696.79 72.18 7.00 109.02 2738.99
   03:14:36.027.28-Apr-2021 3448.01 3696.79 72.18 7.00 109.22 2738.99
   03:14:36.227.28-Apr-2021 3448.01 3696.75 72.18 7.00 109.42 2738.99
   03:14:36.427.28-Apr-2021 3448.01 3696.74 72.18 7.00 109.62 2738.99
   03:14:36.627.28-Apr-2021 3448.01 3696.72 72.18 7.00 109.82 2738.99
   03:14:36.827.28-Apr-2021 3448.01 3696.81 72.18 7.00 110.02 2738.99
   03:14:37.027.28-Apr-2021 3448.01 3696.81 72.18 7.00 110.22 2738.99
   03:14:37.228.28-Apr-2021 3448.01 3696.76 72.18 7.00 110.42 2738.99
   03:14:37.428.28-Apr-2021 3448.01 3696.73 72.18 7.00 110.62 2738.99
   03:14:37.628.28-Apr-2021 3448.01 3696.39 72.18 7.00 110.82 2738.99
   03:14:37.828.28-Apr-2021 3448.01 3696.95 72.18 7.00 111.02 2738.99
   03:14:38.028.28-Apr-2021 3448.01 3696.95 72.18 7.00 111.22 2738.99
   03:14:38.228.28-Apr-2021 3448.01 3696.76 72.18 7.00 111.42 2738.99
   03:14:38.428.28-Apr-2021 3448.01 3696.68 72.18 7.00 111.62 2738.99
   03:14:38.628.28-Apr-2021 3448.01 3696.77 72.18 7.00 111.82 2738.99
   03:14:38.828.28-Apr-2021 3448.01 3696.70 72.18 7.00 112.02 2738.99
   03:14:39.028.28-Apr-2021 3448.01 3696.70 72.18 7.00 112.22 2738.99
   03:14:39.228.28-Apr-2021 3448.01 3696.76 72.18 7.00 112.42 2738.99
   03:14:39.428.28-Apr-2021 3448.01 3696.70 72.18 7.00 112.62 2738.99
   03:14:39.628.28-Apr-2021 3448.01 3696.79 72.18 7.00 112.82 2738.99
   03:14:39.828.28-Apr-2021 3448.01 3696.67 72.18 7.00 113.02 2738.99
   03:14:40.028.28-Apr-2021 3448.01 3696.67 72.18 7.00 113.22 2738.99
   03:14:40.228.28-Apr-2021 3448.01 3696.64 72.18 7.00 113.42 2738.99
   03:14:40.428.28-Apr-2021 3448.01 3696.61 72.18 7.00 113.62 2738.99
   03:14:40.628.28-Apr-2021 3448.01 3696.79 72.17 7.00 113.82 2738.99
   03:14:40.828.28-Apr-2021 3448.01 3696.73 72.17 7.00 114.02 2738.99
   03:14:41.028.28-Apr-2021 3448.01 3696.73 72.17 7.00 114.22 2738.99
   03:14:41.228.28-Apr-2021 3448.01 3696.33 72.17 7.00 114.42 2738.99
   03:14:41.428.28-Apr-2021 3448.01 3697.02 72.17 7.00 114.62 2738.99
   03:14:41.628.28-Apr-2021 3448.01 3696.76 72.17 7.00 114.82 2738.99
