~Version Information
 VERS.                  2.0:   CWLS log ASCII Standard -VERSION 2.0
 WRAP.                   NO:   One line per depth step
~Well Information Block
#MNEM.UNIT     VALUE/NAME     DESCRIPTION
#---------     -----------    ---------------------------
 STRT.S             18:57:18 28-Apr-21: START TIME 18:57:18 28-Apr-21
 STOP.S             19:03:45 28-Apr-21: STOP TIME  19:03:45 28-Apr-21
 STEP.S                   0.00: STEP TIME
 NULL.                 -999.25: NULL VALUE
 DFWT.                        :  DIST FWL TEXT
 DFST.                        :  DIST FSL TEXT
 DMF .             Drill Floor:  DRILL MEAS FROM
 STIM.      02.00.00 12-Apr-21:  START TIME
 DATE.      02.00.00 02-May-21:  END TIME
 SPUD.               09-Apr-21:  SPUD DATE
 NREF.                    Grid:  NORTH REFERENCE
 HPTY.       Minimum Curvature:  HOLE POS TYPE
 DMOD.             Drill Model:  DRILL MOD DESC
 SVYD.                  Survey:  SURVEY DESC
 ILTD.               Lithology:  INTERP LTH DESC
 FTOP.          Formation Tops:  FORM TOPS DESC
 PDAT.          Mean Sea Level:  PERMANENT DATUM
 FLD .                     ACG:  FIELD NAME
 SON .        AZ-XX-0907021034:  JOB NUMBER
 CTRY.              Azerbaijan:  COUNTRY NAME
 WELL.                    E01x:  WELL NAME
 COMP.     BP Exploration (Caspian Sea) LTD.:  COMPANY
 UWI .            /AZE00001403:  UNIQUE WELL IDENTIFIER
 API .            /AZE00001403:  API NUMBER
 WTYP.                Deviated:  WELL TYPE
 MDS .        Operator Entered:  MAG DATA SOURCE
 BASE.              Azerbaijan:  LOGGING EQUIPMENT BASE LOCATION
 REGN.                   EESSA:  REGION
 PROV.                    Baku:  PROVINCE
 STAT.                    Baku:  STATE NAME
 SRVC.          Turan Drilling:  CONTRACTOR
 MWDS.                    Baku:  MWD SHOP
 JOBN.        AZ-XX-0907021034:  JOB TICKET NUMB
 RIG .                     DWG:  RIG NAME
 DOE .                     N/A:  DOE NUMBER
 DCON.         Sperry Drilling:  DIRECTNL CONTR
 UNIT.                     N/A:  LOGGING EQUIPMENT ID
 CNTY.                        :  COUNTY
 LOC .                        :  LOCATION
 LMF .             Drill Floor:  LOG MEASURED FROM
 TVDS.m                  43.16:  TVDSS CORRECTN
 LATI.deg                40.17:  LATITUDE
 LONG.deg                51.17:  LONGITUDE
 WHNS.m                  -5.90:  WELL HEAD N/S
 WHEW.m                  -6.61:  WELL HEAD E/W
 UTMX.m              514337.95:  UTM X
 UTMY.m             4448627.46:  UTM Y
 DFWL.m                   0.00:  DISTANCE FWL
 DFSL.m                   0.00:  DISTANCE FSL
 SDEP.m                2606.87:  START DEPTH
 TDD .m                3618.01:  TOTAL DEPTH (DRILLER)
 VSDR.deg               177.42:  VERT SEC DIRECT
 GVFD.g                   1.00:  GRAVITY FIELD
 MFLD.nT              50399.00:  MAGNETIC FIELD
 MDIP.deg                59.67:  MAGNETIC DIP
 MDEC.deg                 6.56:  MAGNETIC DECL
 GRDC.deg                 0.11:  GRID CORRECTION
 AZTC.deg                 6.45:  AZM TOTAL CORR
 EPD .m                   0.00:  ELEVATION
 EGL .m                   0.00:  GROUND ELEVATION
 WDMS.m                 176.20:  WD ELEV
 APD .m                  43.16:  DEPTH ABOVE PD
 DEP .m                2606.87:  DEPTH
 AGAP.m                  43.16:  AIR GAP
 VSEW.m                  -6.61:  VERT SEC E/W
 VSNS.m                  -5.90:  VERT SEC N/S
 EKB .m                  43.16:  KB ELEVATION
 EDF .m                  43.16:  DF ELEVATION
 TDL .m                 438.00:  TOTAL DEPTH (LOGGER)
 VSC .                       0:  VS TO CLOSURE
 MAGU.                 1855490:  MAGUTM CHECKSUM
~Parameter Information Block
#MNEM.UNIT       Value        Description
#---------     -----------    ---------------------------
 AV  .mps                 2.20:  Ann Velocity 
 AVMX.mps                 2.50:  Max Ann Veloc 
 AZIF.deg               150.21:  Azm, Final 
 BHAT.        Rotary Steerable:  BHA Type 
 BROT.°/30m               0.08:  Build Rotating 
 BS  .in                  6.50:  Bit Size 
 BSZ .in                  6.50:  Bit Size 
 BTPL.psig              108.00:  Bit Press Loss 
 CABU.                     Yes:  Customer Abuse 
 CGEO.           Emin Aliyarli:  Customer Geo 
 COMM.                     ´âi:  Run Comments 1 
 TCS .hr                 74.20:  Time Ciculation Ended 
 CV  .mps                 3.63:  Crit Velocity 
 CVMX.mps                 3.66:  Max Crit Veloc 
 DD1 .         Intigam Rahimov:  Direct Drillr 1 
 DD2 .          Teymur Aghayev:  Direct Drillr 2 
 DDSV.               Geo-Pilot:  DD Service 
 DEFF.%                  97.00:  % Det Eff 
 DLRX.°/30m               1.63:  Dogleg Rot Max 
 DLSO.°/30m               0.00:  Dogleg Oriented 
 DLSX.°/30m               0.00:  Dogleg Str Max 
 DRET.      20.20.00 28-Apr-21:  Drill End Time 
 DRST.      04.45.00 26-Apr-21:  Drill Start Tim 
 DTIM.hr                 34.30:  Time Drilling 
 EDEP.m                3618.01:  End Depth 
 ENG1.           Amrah Tahirov:  Engineer 1 
 ENG2.         Bahruz Mehdiyev:  Engineer 2 
 ENG3.         Farhad Orujzade:  Engineer 3 
 ETIM.      19.00.00 29-Apr-21:  End Time 
 FLOI.gpm               370.00:  Flow In 
 FLON.gpm               300.00:  Flow In Min 
 FLOS.cptm                0.00:  Fluid Loss 
 FLOX.gpm               410.00:  Flow In Max 
 HFLO.                      No:  High Flow 
 HPRE.                      No:  High Pressure 
 HTEM.                      No:  High Temp 
 HYDO.m                   1.80:  Hydro Offset 
 IFIN.deg                67.19:  Inc, Final 
 IMAX.deg                68.42:  Inc Max 
 IMIN.deg                66.33:  Inc Min 
 IMND.m                3532.79:  Inc Min Depth 
 IMXD.m                3192.15:  Inc Max Depth 
 JARR.                      No:  Jarring 
 LETM.      20.20.00 28-Apr-21:  Log End Time 
 LOST.hr                     0:  Lost Rig Time 
 LSTM.      04.45.00 26-Apr-21:  Log Start Time 
 MDCL.ppm             36500.00:  Mud Chlorides 
 MDES.     Inversion Oil/Synthetic:  Mud Desc 
 DFD .sg                  1.42:  Mud Density 
 MDMN.sg                  1.42:  Dens Mud Min 
 MDMX.sg                  1.42:  Dens Mud Max 
 MOIL.                    55.7:  Run Mud Oil % 
 MOWR.                   71:29:  Run Mud OWR 
 MSND.                     0.1:  Run Mud Sand % 
 MSOL.                    19.9:  Run Mud Solids% 
 DFV .spqt               83.00:  Mud Viscosity 
 MWOD.in                  5.15:  MWD Tool OD 
 MWSI.                      No:  Serv Intrp, MWD 
 OTIM.hr                120.59:  Time Operating 
 PCON.           Look Like New:  Pad Condition 
 PMAX.psia            11292.93:  Press Op, Max 
 PV  .cP                 27.00:  Mud PV 
 RUN .                     400:  Run Number 
 ROPA.m/hr               14.00:  ROP Avg 
 ROPN.m/hr                9.00:  ROP Min 
 ROPX.m/hr               18.00:  ROP Max 
 RPMA.rpm               130.00:  RPM Surface Avg 
 RPMN.rpm               100.00:  RPM Surface Min 
 RPMX.rpm               140.00:  RPM Surface Max 
 RRUN.                    0400:  Rig Run Number 
 RTIM.hr                 38.60:  Time Reaming 
 SAZI.deg               149.55:  Azm, Start 
 SDEP.m                3180.01:  Start Depth 
 SIDD.                      No:  Serv Intrp, DD 
 SINC.deg                68.42:  Inc, Start 
 SPPA.psig             4400.00:  SPP Avg 
 SPPN.psig             3580.00:  SPP Min 
 SPPX.psig             4850.00:  SPP Max 
 STIM.      12.30.00 24-Apr-21:  Start Time 
 SVCS.                 DD, MWD:  Services 
 SVER.                    9.20:  Sperry Version 
 TDAT.m                 438.00:  Tot Depth Attmp 
 TDDF.                      No:  Trip for DD 
 TDLG.m                 438.00:  Tot Depth Loggd 
 TFF .                      No:  Trip for Fail 
 TQAA.f-kp               11.00:  Torque Abs Avg 
 TQAN.f-kp                9.00:  Torque Abs Min 
 TQAX.f-kp               14.00:  Torque Abs Max 
 TRRT.°/30m               0.04:  Turn Rotating 
 MRT .                    HCIM:  Maximum Recorded Temperature 
 TTMX.degC               84.31:  Max Tool Temp 
 VS01.                90521954:  Virtual Str1 SN 
 VS02.                90519327:  Virtual Str2 SN 
 VS03.                90522273:  Virtual Str3 SN 
 VS04.                11108038:  Virtual Str4 SN 
 VS05.                12258760:  Virtual Str5 SN 
 WBMN.klb                 1.00:  WOB Min 
 WITN.           Adil Mammadov:  Customer Rep 
 WITN.         Alex Yadullayev:  Customer Rep 2 
 WOBA.klb                 6.00:  WOB Avg 
 WOBX.klb                 9.00:  WOB Max 
 YP  .lhf2               31.00:  Yield Point 
~Curve Information Block
#MNEM.UNIT                 API CODE     Curve Description
#---------               -----------    ---------------------------
 TIME.HHMMSS            00 000 000 000:  GT Time & Date
 GTDEPTH.m              00 000 000 000:  GT Depth
 GTPQH.psia             00 000 000 000:  GT HR Quartz Pressure
 GTTQ.degC              00 000 000 000:  GT Quartz Temperature
 GTTN.NONE              00 000 000 000:  GT Test Number
 GTET.sec               00 000 000 000:  GT Elapsed Test Time
 GTTVD.m                00 000 000 000:  GT True Vertical Depth
#Other Information
#
#WARRANTY: Halliburton will use its best efforts to furnish customers with 
#accurate information and interpretations that are part of, and incident to, the services 
#provided.  However, Halliburton cannot and does not warrant the accuracy 
#or correctness of such information and interpretations.  Under no circumstances should any 
#such information or interpretation be relied upon as the sole basis for any drilling, 
#completion, production, or financial decision or any procedure involving any risk to the 
#safety of any drilling venture, drilling rig or its crew or any other third party.  The 
#Customer has full responsibility for all drilling, completion and production operation.  
#Halliburton makes no representations or warranties, either expressed or 
#implied, including, but not limited to, the implied warranties of merchantability or fitness 
#for a particular purpose, with respect to the services rendered.  In no event will 
#Halliburton be liable for failure to obtain any particular results or for 
#any damages, including, but not limited to, indirect, special or consequential damages, 
#resulting from the use of any information or interpretation provided by Halliburton.
#
~A           TIME           GTDEPTH  GTPQH  GTTQ  GTTN   GTET   GTTVD  
# ...
   19:01:04.300.28-Apr-2021 3565.01 4083.91 74.99 11.00 226.07 2784.87
   19:01:04.500.28-Apr-2021 3565.01 4083.91 74.99 11.00 226.27 2784.87
   19:01:04.700.28-Apr-2021 3565.01 4084.00 74.99 11.00 226.47 2784.87
   19:01:04.900.28-Apr-2021 3565.01 4083.92 74.99 11.00 226.67 2784.87
   19:01:05.100.28-Apr-2021 3565.01 4083.93 74.99 11.00 226.87 2784.87
   19:01:05.300.28-Apr-2021 3565.01 4083.88 74.99 11.00 227.07 2784.87
   19:01:05.500.28-Apr-2021 3565.01 4083.88 74.99 11.00 227.27 2784.87
   19:01:05.700.28-Apr-2021 3565.01 4083.99 74.99 11.00 227.47 2784.87
   19:01:05.900.28-Apr-2021 3565.01 4083.97 74.99 11.00 227.67 2784.87
   19:01:06.100.28-Apr-2021 3565.01 4083.94 74.99 11.00 227.87 2784.87
   19:01:06.300.28-Apr-2021 3565.01 4083.91 74.98 11.00 228.07 2784.87
   19:01:06.500.28-Apr-2021 3565.01 4083.91 74.98 11.00 228.27 2784.87
   19:01:06.700.28-Apr-2021 3565.01 4083.91 74.98 11.00 228.47 2784.87
   19:01:06.900.28-Apr-2021 3565.01 4084.03 74.98 11.00 228.67 2784.87
   19:01:07.101.28-Apr-2021 3565.01 4083.94 74.98 11.00 228.87 2784.87
   19:01:07.301.28-Apr-2021 3565.01 4083.95 74.98 11.00 229.07 2784.87
   19:01:07.501.28-Apr-2021 3565.01 4083.95 74.98 11.00 229.27 2784.87
   19:01:07.701.28-Apr-2021 3565.01 4083.90 74.98 11.00 229.47 2784.87
   19:01:07.901.28-Apr-2021 3565.01 4083.96 74.98 11.00 229.67 2784.87
   19:01:08.101.28-Apr-2021 3565.01 4083.91 74.98 11.00 229.87 2784.87
   19:01:08.301.28-Apr-2021 3565.01 4083.93 74.98 11.00 230.07 2784.87
   19:01:08.501.28-Apr-2021 3565.01 4083.93 74.98 11.00 230.27 2784.87
   19:01:08.701.28-Apr-2021 3565.01 4083.90 74.98 11.00 230.47 2784.87
   19:01:08.901.28-Apr-2021 3565.01 4083.93 74.98 11.00 230.67 2784.87
   19:01:09.101.28-Apr-2021 3565.01 4083.89 74.98 11.00 230.87 2784.87
   19:01:09.301.28-Apr-2021 3565.01 4083.92 74.98 11.00 231.07 2784.87
   19:01:09.501.28-Apr-2021 3565.01 4083.92 74.98 11.00 231.27 2784.87
   19:01:09.701.28-Apr-2021 3565.01 4084.04 74.98 11.00 231.47 2784.87
   19:01:09.901.28-Apr-2021 3565.01 4083.96 74.98 11.00 231.67 2784.87
   19:01:10.101.28-Apr-2021 3565.01 4083.93 74.97 11.00 231.87 2784.87
   19:01:10.301.28-Apr-2021 3565.01 4083.92 74.97 11.00 232.07 2784.87
   19:01:10.502.28-Apr-2021 3565.01 4083.92 74.97 11.00 232.27 2784.87
   19:01:10.702.28-Apr-2021 3565.01 4083.96 74.97 11.00 232.47 2784.87
   19:01:10.902.28-Apr-2021 3565.01 4083.91 74.97 11.00 232.67 2784.87
   19:01:11.102.28-Apr-2021 3565.01 4083.93 74.97 11.00 232.87 2784.87
   19:01:11.302.28-Apr-2021 3565.01 4083.90 74.97 11.00 233.07 2784.87
   19:01:11.502.28-Apr-2021 3565.01 4083.90 74.97 11.00 233.27 2784.87
   19:01:11.702.28-Apr-2021 3565.01 4083.91 74.97 11.00 233.47 2784.87
   19:01:11.902.28-Apr-2021 3565.01 4083.92 74.97 11.00 233.67 2784.87
   19:01:12.102.28-Apr-2021 3565.01 4083.84 74.97 11.00 233.87 2784.87
   19:01:12.302.28-Apr-2021 3565.01 4083.80 74.97 11.00 234.07 2784.87
   19:01:12.502.28-Apr-2021 3565.01 4083.80 74.97 11.00 234.27 2784.87
   19:01:12.702.28-Apr-2021 3565.01 4083.96 74.97 11.00 234.47 2784.87
   19:01:12.902.28-Apr-2021 3565.01 4083.92 74.97 11.00 234.67 2784.87
   19:01:13.102.28-Apr-2021 3565.01 4083.92 74.97 11.00 234.87 2784.87
   19:01:13.302.28-Apr-2021 3565.01 4083.86 74.97 11.00 235.07 2784.87
   19:01:13.502.28-Apr-2021 3565.01 4083.86 74.97 11.00 235.27 2784.87
   19:01:13.702.28-Apr-2021 3565.01 4083.99 74.97 11.00 235.47 2784.87
   19:01:13.903.28-Apr-2021 3565.01 4083.97 74.96 11.00 235.67 2784.87
   19:01:14.103.28-Apr-2021 3565.01 4083.92 74.96 11.00 235.87 2784.87
   19:01:14.303.28-Apr-2021 3565.01 4083.91 74.96 11.00 236.07 2784.87
   19:01:14.503.28-Apr-2021 3565.01 4083.91 74.96 11.00 236.27 2784.87
   19:01:14.703.28-Apr-2021 3565.01 4079.81 74.96 11.00 236.47 2784.87
   19:01:14.903.28-Apr-2021 3565.01 4052.26 74.96 11.00 236.67 2784.87
   19:01:15.103.28-Apr-2021 3565.01 4050.49 74.96 11.00 236.87 2784.87
   19:01:15.303.28-Apr-2021 3565.01 4050.33 74.96 11.00 237.07 2784.87
   19:01:15.503.28-Apr-2021 3565.01 4050.33 74.96 11.00 237.27 2784.87
   19:01:15.703.28-Apr-2021 3565.01 4049.88 74.96 11.00 237.47 2784.87
   19:01:15.903.28-Apr-2021 3565.01 4049.82 74.96 11.00 237.67 2784.87
   19:01:16.103.28-Apr-2021 3565.01 4049.94 74.96 11.00 237.87 2784.87
   19:01:16.303.28-Apr-2021 3565.01 4050.33 74.96 11.00 238.07 2784.87
   19:01:16.503.28-Apr-2021 3565.01 4050.33 74.96 11.00 238.27 2784.87
   19:01:16.703.28-Apr-2021 3565.01 4050.17 74.96 11.00 238.47 2784.87
   19:01:16.903.28-Apr-2021 3565.01 4050.06 74.96 11.00 238.67 2784.87
   19:01:17.103.28-Apr-2021 3565.01 4049.99 74.96 11.00 238.87 2784.87
   19:01:17.304.28-Apr-2021 3565.01 4050.24 74.96 11.00 239.07 2784.87
   19:01:17.504.28-Apr-2021 3565.01 4050.24 74.96 11.00 239.27 2784.87
   19:01:17.704.28-Apr-2021 3565.01 4049.90 74.95 11.00 239.47 2784.87
   19:01:17.904.28-Apr-2021 3565.01 4049.58 74.95 11.00 239.67 2784.87
   19:01:18.104.28-Apr-2021 3565.01 4049.97 74.95 11.00 239.87 2784.87
   19:01:18.304.28-Apr-2021 3565.01 4049.72 74.95 11.00 240.07 2784.87
   19:01:18.504.28-Apr-2021 3565.01 4049.72 74.95 11.00 240.27 2784.87
   19:01:18.704.28-Apr-2021 3565.01 4049.31 74.95 11.00 240.47 2784.87
   19:01:18.904.28-Apr-2021 3565.01 4050.41 74.95 11.00 240.67 2784.87
   19:01:19.104.28-Apr-2021 3565.01 4049.73 74.95 11.00 240.87 2784.87
   19:01:19.304.28-Apr-2021 3565.01 4050.20 74.95 11.00 241.07 2784.87
   19:01:19.504.28-Apr-2021 3565.01 4050.20 74.95 11.00 241.27 2784.87
   19:01:19.704.28-Apr-2021 3565.01 4049.98 74.95 11.00 241.47 2784.87
   19:01:19.904.28-Apr-2021 3565.01 4049.98 74.95 11.00 241.67 2784.87
   19:01:20.104.28-Apr-2021 3565.01 4049.91 74.95 11.00 241.87 2784.87
   19:01:20.304.28-Apr-2021 3565.01 4049.79 74.95 11.00 242.07 2784.87
   19:01:20.504.28-Apr-2021 3565.01 4049.79 74.95 11.00 242.27 2784.87
   19:01:20.705.28-Apr-2021 3565.01 4049.77 74.95 11.00 242.47 2784.87
   19:01:20.905.28-Apr-2021 3565.01 4050.28 74.95 11.00 242.67 2784.87
   19:01:21.105.28-Apr-2021 3565.01 4050.28 74.95 11.00 242.87 2784.87
   19:01:21.305.28-Apr-2021 3565.01 4050.06 74.94 11.00 243.07 2784.87
   19:01:21.505.28-Apr-2021 3565.01 4050.06 74.94 11.00 243.27 2784.87
   19:01:21.705.28-Apr-2021 3565.01 4050.59 74.94 11.00 243.47 2784.87
   19:01:21.905.28-Apr-2021 3565.01 4050.34 74.94 11.00 243.67 2784.87
   19:01:22.105.28-Apr-2021 3565.01 4050.09 74.94 11.00 243.87 2784.87
   19:01:22.305.28-Apr-2021 3565.01 4050.27 74.94 11.00 244.07 2784.87
   19:01:22.505.28-Apr-2021 3565.01 4050.27 74.94 11.00 244.27 2784.87
   19:01:22.705.28-Apr-2021 3565.01 4049.04 74.94 11.00 244.47 2784.87
   19:01:22.905.28-Apr-2021 3565.01 4051.16 74.94 11.00 244.67 2784.87
   19:01:23.105.28-Apr-2021 3565.01 4050.06 74.94 11.00 244.87 2784.87
   19:01:23.305.28-Apr-2021 3565.01 4049.58 74.94 11.00 245.07 2784.87
   19:01:23.505.28-Apr-2021 3565.01 4049.58 74.94 11.00 245.27 2784.87
   19:01:23.705.28-Apr-2021 3565.01 4050.02 74.94 11.00 245.47 2784.87
   19:01:23.906.28-Apr-2021 3565.01 4049.38 74.94 11.00 245.67 2784.87
   19:01:24.106.28-Apr-2021 3565.01 4050.84 74.94 11.00 245.87 2784.87
   19:01:24.306.28-Apr-2021 3565.01 4050.20 74.94 11.00 246.07 2784.87
   19:01:24.506.28-Apr-2021 3565.01 4050.20 74.94 11.00 246.27 2784.87
   19:01:24.706.28-Apr-2021 3565.01 4050.18 74.94 11.00 246.47 2784.87
   19:01:24.906.28-Apr-2021 3565.01 4049.69 74.93 11.00 246.67 2784.87
   19:01:25.106.28-Apr-2021 3565.01 4077.11 74.93 11.00 246.87 2784.87
   19:01:25.306.28-Apr-2021 3565.01 4083.25 74.93 11.00 247.07 2784.87
   19:01:25.506.28-Apr-2021 3565.01 4083.25 74.93 11.00 247.27 2784.87
   19:01:25.706.28-Apr-2021 3565.01 4083.64 74.93 11.00 247.47 2784.87
   19:01:25.906.28-Apr-2021 3565.01 4083.63 74.93 11.00 247.67 2784.87
   19:01:26.106.28-Apr-2021 3565.01 4083.66 74.93 11.00 247.87 2784.87
   19:01:26.306.28-Apr-2021 3565.01 4083.70 74.93 11.00 248.07 2784.87
   19:01:26.506.28-Apr-2021 3565.01 4083.70 74.93 11.00 248.27 2784.87
   19:01:26.706.28-Apr-2021 3565.01 4083.70 74.93 11.00 248.47 2784.87
