~Version Information
 VERS.                  2.0:   CWLS log ASCII Standard -VERSION 2.0
 WRAP.                   NO:   One line per depth step
~Well Information Block
#MNEM.UNIT     VALUE/NAME     DESCRIPTION
#---------     -----------    ---------------------------
 STRT.S             02:50:28 27-Apr-21: START TIME 02:50:28 27-Apr-21
 STOP.S             02:56:55 27-Apr-21: STOP TIME  02:56:55 27-Apr-21
 STEP.S                   0.00: STEP TIME
 NULL.                 -999.25: NULL VALUE
 DFWT.                        :  DIST FWL TEXT
 DFST.                        :  DIST FSL TEXT
 DMF .             Drill Floor:  DRILL MEAS FROM
 STIM.      02.00.00 12-Apr-21:  START TIME
 DATE.      02.00.00 02-May-21:  END TIME
 SPUD.               09-Apr-21:  SPUD DATE
 NREF.                    Grid:  NORTH REFERENCE
 HPTY.       Minimum Curvature:  HOLE POS TYPE
 DMOD.             Drill Model:  DRILL MOD DESC
 SVYD.                  Survey:  SURVEY DESC
 ILTD.               Lithology:  INTERP LTH DESC
 FTOP.          Formation Tops:  FORM TOPS DESC
 PDAT.          Mean Sea Level:  PERMANENT DATUM
 FLD .                     ACG:  FIELD NAME
 SON .        AZ-XX-0907021034:  JOB NUMBER
 CTRY.              Azerbaijan:  COUNTRY NAME
 WELL.                    E01x:  WELL NAME
 COMP.     BP Exploration (Caspian Sea) LTD.:  COMPANY
 UWI .            /AZE00001403:  UNIQUE WELL IDENTIFIER
 API .            /AZE00001403:  API NUMBER
 WTYP.                Deviated:  WELL TYPE
 MDS .        Operator Entered:  MAG DATA SOURCE
 BASE.              Azerbaijan:  LOGGING EQUIPMENT BASE LOCATION
 REGN.                   EESSA:  REGION
 PROV.                    Baku:  PROVINCE
 STAT.                    Baku:  STATE NAME
 SRVC.          Turan Drilling:  CONTRACTOR
 MWDS.                    Baku:  MWD SHOP
 JOBN.        AZ-XX-0907021034:  JOB TICKET NUMB
 RIG .                     DWG:  RIG NAME
 DOE .                     N/A:  DOE NUMBER
 DCON.         Sperry Drilling:  DIRECTNL CONTR
 UNIT.                     N/A:  LOGGING EQUIPMENT ID
 CNTY.                        :  COUNTY
 LOC .                        :  LOCATION
 LMF .             Drill Floor:  LOG MEASURED FROM
 TVDS.m                  43.16:  TVDSS CORRECTN
 LATI.deg                40.17:  LATITUDE
 LONG.deg                51.17:  LONGITUDE
 WHNS.m                  -5.90:  WELL HEAD N/S
 WHEW.m                  -6.61:  WELL HEAD E/W
 UTMX.m              514337.95:  UTM X
 UTMY.m             4448627.46:  UTM Y
 DFWL.m                   0.00:  DISTANCE FWL
 DFSL.m                   0.00:  DISTANCE FSL
 SDEP.m                2606.87:  START DEPTH
 TDD .m                3618.01:  TOTAL DEPTH (DRILLER)
 VSDR.deg               177.42:  VERT SEC DIRECT
 GVFD.g                   1.00:  GRAVITY FIELD
 MFLD.nT              50399.00:  MAGNETIC FIELD
 MDIP.deg                59.67:  MAGNETIC DIP
 MDEC.deg                 6.56:  MAGNETIC DECL
 GRDC.deg                 0.11:  GRID CORRECTION
 AZTC.deg                 6.45:  AZM TOTAL CORR
 EPD .m                   0.00:  ELEVATION
 EGL .m                   0.00:  GROUND ELEVATION
 WDMS.m                 176.20:  WD ELEV
 APD .m                  43.16:  DEPTH ABOVE PD
 DEP .m                2606.87:  DEPTH
 AGAP.m                  43.16:  AIR GAP
 VSEW.m                  -6.61:  VERT SEC E/W
 VSNS.m                  -5.90:  VERT SEC N/S
 EKB .m                  43.16:  KB ELEVATION
 EDF .m                  43.16:  DF ELEVATION
 TDL .m                 438.00:  TOTAL DEPTH (LOGGER)
 VSC .                       0:  VS TO CLOSURE
 MAGU.                 1855490:  MAGUTM CHECKSUM
~Parameter Information Block
#MNEM.UNIT       Value        Description
#---------     -----------    ---------------------------
 AV  .mps                 2.20:  Ann Velocity 
 AVMX.mps                 2.50:  Max Ann Veloc 
 AZIF.deg               150.21:  Azm, Final 
 BHAT.        Rotary Steerable:  BHA Type 
 BROT.°/30m               0.08:  Build Rotating 
 BS  .in                  6.50:  Bit Size 
 BSZ .in                  6.50:  Bit Size 
 BTPL.psig              108.00:  Bit Press Loss 
 CABU.                     Yes:  Customer Abuse 
 CGEO.           Emin Aliyarli:  Customer Geo 
 COMM.                     äº~:  Run Comments 1 
 TCS .hr                 74.20:  Time Ciculation Ended 
 CV  .mps                 3.63:  Crit Velocity 
 CVMX.mps                 3.66:  Max Crit Veloc 
 DD1 .         Intigam Rahimov:  Direct Drillr 1 
 DD2 .          Teymur Aghayev:  Direct Drillr 2 
 DDSV.               Geo-Pilot:  DD Service 
 DEFF.%                  97.00:  % Det Eff 
 DLRX.°/30m               1.63:  Dogleg Rot Max 
 DLSO.°/30m               0.00:  Dogleg Oriented 
 DLSX.°/30m               0.00:  Dogleg Str Max 
 DRET.      20.20.00 28-Apr-21:  Drill End Time 
 DRST.      04.45.00 26-Apr-21:  Drill Start Tim 
 DTIM.hr                 34.30:  Time Drilling 
 EDEP.m                3618.01:  End Depth 
 ENG1.           Amrah Tahirov:  Engineer 1 
 ENG2.         Bahruz Mehdiyev:  Engineer 2 
 ENG3.         Farhad Orujzade:  Engineer 3 
 ETIM.      19.00.00 29-Apr-21:  End Time 
 FLOI.gpm               370.00:  Flow In 
 FLON.gpm               300.00:  Flow In Min 
 FLOS.cptm                0.00:  Fluid Loss 
 FLOX.gpm               410.00:  Flow In Max 
 HFLO.                      No:  High Flow 
 HPRE.                      No:  High Pressure 
 HTEM.                      No:  High Temp 
 HYDO.m                   1.80:  Hydro Offset 
 IFIN.deg                67.19:  Inc, Final 
 IMAX.deg                68.42:  Inc Max 
 IMIN.deg                66.33:  Inc Min 
 IMND.m                3532.79:  Inc Min Depth 
 IMXD.m                3192.15:  Inc Max Depth 
 JARR.                      No:  Jarring 
 LETM.      20.20.00 28-Apr-21:  Log End Time 
 LOST.hr                     0:  Lost Rig Time 
 LSTM.      04.45.00 26-Apr-21:  Log Start Time 
 MDCL.ppm             36500.00:  Mud Chlorides 
 MDES.     Inversion Oil/Synthetic:  Mud Desc 
 DFD .sg                  1.42:  Mud Density 
 MDMN.sg                  1.42:  Dens Mud Min 
 MDMX.sg                  1.42:  Dens Mud Max 
 MOIL.                    55.7:  Run Mud Oil % 
 MOWR.                   71:29:  Run Mud OWR 
 MSND.                     0.1:  Run Mud Sand % 
 MSOL.                    19.9:  Run Mud Solids% 
 DFV .spqt               83.00:  Mud Viscosity 
 MWOD.in                  5.15:  MWD Tool OD 
 MWSI.                      No:  Serv Intrp, MWD 
 OTIM.hr                120.59:  Time Operating 
 PCON.           Look Like New:  Pad Condition 
 PMAX.psia            11292.93:  Press Op, Max 
 PV  .cP                 27.00:  Mud PV 
 RUN .                     400:  Run Number 
 ROPA.m/hr               14.00:  ROP Avg 
 ROPN.m/hr                9.00:  ROP Min 
 ROPX.m/hr               18.00:  ROP Max 
 RPMA.rpm               130.00:  RPM Surface Avg 
 RPMN.rpm               100.00:  RPM Surface Min 
 RPMX.rpm               140.00:  RPM Surface Max 
 RRUN.                    0400:  Rig Run Number 
 RTIM.hr                 38.60:  Time Reaming 
 SAZI.deg               149.55:  Azm, Start 
 SDEP.m                3180.01:  Start Depth 
 SIDD.                      No:  Serv Intrp, DD 
 SINC.deg                68.42:  Inc, Start 
 SPPA.psig             4400.00:  SPP Avg 
 SPPN.psig             3580.00:  SPP Min 
 SPPX.psig             4850.00:  SPP Max 
 STIM.      12.30.00 24-Apr-21:  Start Time 
 SVCS.                 DD, MWD:  Services 
 SVER.                    9.20:  Sperry Version 
 TDAT.m                 438.00:  Tot Depth Attmp 
 TDDF.                      No:  Trip for DD 
 TDLG.m                 438.00:  Tot Depth Loggd 
 TFF .                      No:  Trip for Fail 
 TQAA.f-kp               11.00:  Torque Abs Avg 
 TQAN.f-kp                9.00:  Torque Abs Min 
 TQAX.f-kp               14.00:  Torque Abs Max 
 TRRT.°/30m               0.04:  Turn Rotating 
 MRT .                    HCIM:  Maximum Recorded Temperature 
 TTMX.degC               84.31:  Max Tool Temp 
 VS01.                90521954:  Virtual Str1 SN 
 VS02.                90519327:  Virtual Str2 SN 
 VS03.                90522273:  Virtual Str3 SN 
 VS04.                11108038:  Virtual Str4 SN 
 VS05.                12258760:  Virtual Str5 SN 
 WBMN.klb                 1.00:  WOB Min 
 WITN.           Adil Mammadov:  Customer Rep 
 WITN.         Alex Yadullayev:  Customer Rep 2 
 WOBA.klb                 6.00:  WOB Avg 
 WOBX.klb                 9.00:  WOB Max 
 YP  .lhf2               31.00:  Yield Point 
~Curve Information Block
#MNEM.UNIT                 API CODE     Curve Description
#---------               -----------    ---------------------------
 TIME.HHMMSS            00 000 000 000:  GT Time & Date
 GTDEPTH.m              00 000 000 000:  GT Depth
 GTPQH.psia             00 000 000 000:  GT HR Quartz Pressure
 GTTQ.degC              00 000 000 000:  GT Quartz Temperature
 GTTN.NONE              00 000 000 000:  GT Test Number
 GTET.sec               00 000 000 000:  GT Elapsed Test Time
 GTTVD.m                00 000 000 000:  GT True Vertical Depth
#Other Information
#
#WARRANTY: Halliburton will use its best efforts to furnish customers with 
#accurate information and interpretations that are part of, and incident to, the services 
#provided.  However, Halliburton cannot and does not warrant the accuracy 
#or correctness of such information and interpretations.  Under no circumstances should any 
#such information or interpretation be relied upon as the sole basis for any drilling, 
#completion, production, or financial decision or any procedure involving any risk to the 
#safety of any drilling venture, drilling rig or its crew or any other third party.  The 
#Customer has full responsibility for all drilling, completion and production operation.  
#Halliburton makes no representations or warranties, either expressed or 
#implied, including, but not limited to, the implied warranties of merchantability or fitness 
#for a particular purpose, with respect to the services rendered.  In no event will 
#Halliburton be liable for failure to obtain any particular results or for 
#any damages, including, but not limited to, indirect, special or consequential damages, 
#resulting from the use of any information or interpretation provided by Halliburton.
#
~A           TIME           GTDEPTH  GTPQH  GTTQ  GTTN  GTET   GTTVD  
# ...
   02:54:41.305.27-Apr-2021 3242.51 4316.30 72.22 3.00 253.05 2657.85
   02:54:41.505.27-Apr-2021 3242.51 4316.30 72.22 3.00 253.25 2657.85
   02:54:41.705.27-Apr-2021 3242.51 4316.33 72.22 3.00 253.45 2657.85
   02:54:41.905.27-Apr-2021 3242.51 4316.23 72.22 3.00 253.65 2657.85
   02:54:42.106.27-Apr-2021 3242.51 4316.42 72.22 3.00 253.85 2657.85
   02:54:42.306.27-Apr-2021 3242.51 4316.57 72.22 3.00 254.05 2657.85
   02:54:42.506.27-Apr-2021 3242.51 4316.57 72.22 3.00 254.25 2657.85
   02:54:42.706.27-Apr-2021 3242.51 4316.61 72.22 3.00 254.45 2657.85
   02:54:42.906.27-Apr-2021 3242.51 4316.49 72.22 3.00 254.65 2657.85
   02:54:43.106.27-Apr-2021 3242.51 4316.62 72.22 3.00 254.85 2657.85
   02:54:43.306.27-Apr-2021 3242.51 4316.92 72.22 3.00 255.05 2657.85
   02:54:43.506.27-Apr-2021 3242.51 4316.92 72.22 3.00 255.25 2657.85
   02:54:43.706.27-Apr-2021 3242.51 4316.94 72.22 3.00 255.45 2657.85
   02:54:43.906.27-Apr-2021 3242.51 4316.89 72.22 3.00 255.65 2657.85
   02:54:44.106.27-Apr-2021 3242.51 4316.96 72.22 3.00 255.85 2657.85
   02:54:44.306.27-Apr-2021 3242.51 4317.02 72.21 3.00 256.05 2657.85
   02:54:44.506.27-Apr-2021 3242.51 4317.02 72.21 3.00 256.25 2657.85
   02:54:44.706.27-Apr-2021 3242.51 4317.02 72.21 3.00 256.45 2657.85
   02:54:44.906.27-Apr-2021 3242.51 4317.10 72.21 3.00 256.65 2657.85
   02:54:45.106.27-Apr-2021 3242.51 4317.05 72.21 3.00 256.85 2657.85
   02:54:45.306.27-Apr-2021 3242.51 4317.09 72.21 3.00 257.05 2657.85
   02:54:45.506.27-Apr-2021 3242.51 4317.09 72.21 3.00 257.25 2657.85
   02:54:45.706.27-Apr-2021 3242.51 4317.19 72.21 3.00 257.45 2657.85
   02:54:45.906.27-Apr-2021 3242.51 4317.33 72.21 3.00 257.65 2657.85
   02:54:46.106.27-Apr-2021 3242.51 4317.34 72.21 3.00 257.85 2657.85
   02:54:46.306.27-Apr-2021 3242.51 4317.33 72.21 3.00 258.05 2657.85
   02:54:46.506.27-Apr-2021 3242.51 4317.33 72.21 3.00 258.25 2657.85
   02:54:46.706.27-Apr-2021 3242.51 4317.31 72.21 3.00 258.45 2657.85
   02:54:46.906.27-Apr-2021 3242.51 4317.45 72.21 3.00 258.65 2657.85
   02:54:47.107.27-Apr-2021 3242.51 4317.53 72.21 3.00 258.85 2657.85
   02:54:47.307.27-Apr-2021 3242.51 4317.40 72.21 3.00 259.05 2657.85
   02:54:47.507.27-Apr-2021 3242.51 4317.40 72.21 3.00 259.25 2657.85
   02:54:47.707.27-Apr-2021 3242.51 4317.50 72.21 3.00 259.45 2657.85
   02:54:47.907.27-Apr-2021 3242.51 4317.53 72.21 3.00 259.65 2657.85
   02:54:48.107.27-Apr-2021 3242.51 4317.41 72.21 3.00 259.85 2657.85
   02:54:48.307.27-Apr-2021 3242.51 4317.34 72.21 3.00 260.05 2657.85
   02:54:48.507.27-Apr-2021 3242.51 4317.34 72.21 3.00 260.25 2657.85
   02:54:48.707.27-Apr-2021 3242.51 4317.77 72.21 3.00 260.45 2657.85
   02:54:48.907.27-Apr-2021 3242.51 4317.68 72.21 3.00 260.65 2657.85
   02:54:49.107.27-Apr-2021 3242.51 4317.69 72.21 3.00 260.85 2657.85
   02:54:49.307.27-Apr-2021 3242.51 4317.27 72.21 3.00 261.05 2657.85
   02:54:49.507.27-Apr-2021 3242.51 4317.27 72.21 3.00 261.25 2657.85
   02:54:49.707.27-Apr-2021 3242.51 4317.87 72.20 3.00 261.45 2657.85
   02:54:49.907.27-Apr-2021 3242.51 4317.88 72.20 3.00 261.65 2657.85
   02:54:50.107.27-Apr-2021 3242.51 4317.82 72.20 3.00 261.85 2657.85
   02:54:50.307.27-Apr-2021 3242.51 4317.81 72.20 3.00 262.05 2657.85
   02:54:50.507.27-Apr-2021 3242.51 4317.81 72.20 3.00 262.25 2657.85
   02:54:50.707.27-Apr-2021 3242.51 4317.80 72.20 3.00 262.45 2657.85
   02:54:50.907.27-Apr-2021 3242.51 4317.93 72.20 3.00 262.65 2657.85
   02:54:51.107.27-Apr-2021 3242.51 4317.88 72.20 3.00 262.85 2657.85
   02:54:51.307.27-Apr-2021 3242.51 4317.90 72.20 3.00 263.05 2657.85
   02:54:51.507.27-Apr-2021 3242.51 4317.90 72.20 3.00 263.25 2657.85
   02:54:51.707.27-Apr-2021 3242.51 4317.84 72.20 3.00 263.45 2657.85
   02:54:51.907.27-Apr-2021 3242.51 4317.91 72.20 3.00 263.65 2657.85
   02:54:52.108.27-Apr-2021 3242.51 4318.13 72.20 3.00 263.85 2657.85
   02:54:52.308.27-Apr-2021 3242.51 4318.03 72.20 3.00 264.05 2657.85
   02:54:52.508.27-Apr-2021 3242.51 4318.03 72.20 3.00 264.25 2657.85
   02:54:52.708.27-Apr-2021 3242.51 4317.96 72.20 3.00 264.45 2657.85
   02:54:52.908.27-Apr-2021 3242.51 4318.02 72.20 3.00 264.65 2657.85
   02:54:53.108.27-Apr-2021 3242.51 4318.04 72.20 3.00 264.85 2657.85
   02:54:53.308.27-Apr-2021 3242.51 4318.07 72.20 3.00 265.05 2657.85
   02:54:53.508.27-Apr-2021 3242.51 4318.07 72.20 3.00 265.25 2657.85
   02:54:53.708.27-Apr-2021 3242.51 4318.03 72.20 3.00 265.45 2657.85
   02:54:53.908.27-Apr-2021 3242.51 4317.93 72.20 3.00 265.65 2657.85
   02:54:54.108.27-Apr-2021 3242.51 4318.07 72.20 3.00 265.85 2657.85
   02:54:54.308.27-Apr-2021 3242.51 4317.56 72.20 3.00 266.05 2657.85
   02:54:54.508.27-Apr-2021 3242.51 4317.56 72.20 3.00 266.25 2657.85
   02:54:54.708.27-Apr-2021 3242.51 4318.17 72.19 3.00 266.45 2657.85
   02:54:54.908.27-Apr-2021 3242.51 4318.16 72.19 3.00 266.65 2657.85
   02:54:55.108.27-Apr-2021 3242.51 4318.14 72.19 3.00 266.85 2657.85
   02:54:55.308.27-Apr-2021 3242.51 4318.17 72.19 3.00 267.05 2657.85
   02:54:55.508.27-Apr-2021 3242.51 4318.17 72.19 3.00 267.25 2657.85
   02:54:55.708.27-Apr-2021 3242.51 4318.17 72.19 3.00 267.45 2657.85
   02:54:55.908.27-Apr-2021 3242.51 4318.20 72.19 3.00 267.65 2657.85
   02:54:56.108.27-Apr-2021 3242.51 4318.18 72.19 3.00 267.85 2657.85
   02:54:56.308.27-Apr-2021 3242.51 4318.21 72.19 3.00 268.05 2657.85
   02:54:56.508.27-Apr-2021 3242.51 4318.21 72.19 3.00 268.25 2657.85
   02:54:56.708.27-Apr-2021 3242.51 4318.17 72.19 3.00 268.45 2657.85
   02:54:56.908.27-Apr-2021 3242.51 4318.10 72.19 3.00 268.65 2657.85
   02:54:57.109.27-Apr-2021 3242.51 4317.86 72.19 3.00 268.85 2657.85
   02:54:57.309.27-Apr-2021 3242.51 4318.19 72.19 3.00 269.05 2657.85
   02:54:57.509.27-Apr-2021 3242.51 4318.19 72.19 3.00 269.25 2657.85
   02:54:57.709.27-Apr-2021 3242.51 4318.28 72.19 3.00 269.45 2657.85
   02:54:57.909.27-Apr-2021 3242.51 4318.31 72.19 3.00 269.65 2657.85
   02:54:58.109.27-Apr-2021 3242.51 4317.99 72.19 3.00 269.85 2657.85
   02:54:58.309.27-Apr-2021 3242.51 4318.28 72.19 3.00 270.05 2657.85
   02:54:58.509.27-Apr-2021 3242.51 4318.28 72.19 3.00 270.25 2657.85
   02:54:58.709.27-Apr-2021 3242.51 4318.45 72.19 3.00 270.45 2657.85
   02:54:58.909.27-Apr-2021 3242.51 4318.37 72.19 3.00 270.65 2657.85
   02:54:59.109.27-Apr-2021 3242.51 4318.40 72.19 3.00 270.85 2657.85
   02:54:59.309.27-Apr-2021 3242.51 4318.27 72.19 3.00 271.05 2657.85
   02:54:59.509.27-Apr-2021 3242.51 4318.27 72.19 3.00 271.25 2657.85
   02:54:59.709.27-Apr-2021 3242.51 4318.36 72.18 3.00 271.45 2657.85
   02:54:59.909.27-Apr-2021 3242.51 4318.48 72.18 3.00 271.65 2657.85
   02:55:00.109.27-Apr-2021 3242.51 4318.38 72.18 3.00 271.85 2657.85
   02:55:00.309.27-Apr-2021 3242.51 4318.36 72.18 3.00 272.05 2657.85
   02:55:00.509.27-Apr-2021 3242.51 4318.36 72.18 3.00 272.25 2657.85
   02:55:00.709.27-Apr-2021 3242.51 4317.93 72.18 3.00 272.45 2657.85
   02:55:00.909.27-Apr-2021 3242.51 4318.48 72.18 3.00 272.65 2657.85
   02:55:01.109.27-Apr-2021 3242.51 4318.56 72.18 3.00 272.85 2657.85
   02:55:01.309.27-Apr-2021 3242.51 4318.48 72.18 3.00 273.05 2657.85
   02:55:01.509.27-Apr-2021 3242.51 4318.48 72.18 3.00 273.25 2657.85
   02:55:01.709.27-Apr-2021 3242.51 4318.42 72.18 3.00 273.45 2657.85
   02:55:01.909.27-Apr-2021 3242.51 4318.38 72.18 3.00 273.65 2657.85
   02:55:02.110.27-Apr-2021 3242.51 4318.47 72.18 3.00 273.85 2657.85
   02:55:02.310.27-Apr-2021 3242.51 4318.47 72.18 3.00 274.05 2657.85
   02:55:02.510.27-Apr-2021 3242.51 4318.47 72.18 3.00 274.25 2657.85
   02:55:02.710.27-Apr-2021 3242.51 4318.36 72.18 3.00 274.45 2657.85
   02:55:02.910.27-Apr-2021 3242.51 4318.42 72.18 3.00 274.65 2657.85
   02:55:03.110.27-Apr-2021 3242.51 4318.38 72.18 3.00 274.85 2657.85
   02:55:03.310.27-Apr-2021 3242.51 4318.10 72.18 3.00 275.05 2657.85
   02:55:03.510.27-Apr-2021 3242.51 4318.10 72.18 3.00 275.25 2657.85
   02:55:03.710.27-Apr-2021 3242.51 4318.42 72.18 3.00 275.45 2657.85
   02:55:03.910.27-Apr-2021 3242.51 4318.49 72.18 3.00 275.65 2657.85
   02:55:04.110.27-Apr-2021 3242.51 4318.55 72.18 3.00 275.85 2657.85
