~Version Information
 VERS.                  2.0:   CWLS log ASCII Standard -VERSION 2.0
 WRAP.                   NO:   One line per depth step
~Well Information Block
#MNEM.UNIT     VALUE/NAME     DESCRIPTION
#---------     -----------    ---------------------------
 STRT.S             06:54:29 28-Apr-21: START TIME 06:54:29 28-Apr-21
 STOP.S             07:00:57 28-Apr-21: STOP TIME  07:00:57 28-Apr-21
 STEP.S                   0.00: STEP TIME
 NULL.                 -999.25: NULL VALUE
 DFWT.                        :  DIST FWL TEXT
 DFST.                        :  DIST FSL TEXT
 DMF .             Drill Floor:  DRILL MEAS FROM
 STIM.      02.00.00 12-Apr-21:  START TIME
 DATE.      02.00.00 02-May-21:  END TIME
 SPUD.               09-Apr-21:  SPUD DATE
 NREF.                    Grid:  NORTH REFERENCE
 HPTY.       Minimum Curvature:  HOLE POS TYPE
 DMOD.             Drill Model:  DRILL MOD DESC
 SVYD.                  Survey:  SURVEY DESC
 ILTD.               Lithology:  INTERP LTH DESC
 FTOP.          Formation Tops:  FORM TOPS DESC
 PDAT.          Mean Sea Level:  PERMANENT DATUM
 FLD .                     ACG:  FIELD NAME
 SON .        AZ-XX-0907021034:  JOB NUMBER
 CTRY.              Azerbaijan:  COUNTRY NAME
 WELL.                    E01x:  WELL NAME
 COMP.     BP Exploration (Caspian Sea) LTD.:  COMPANY
 UWI .            /AZE00001403:  UNIQUE WELL IDENTIFIER
 API .            /AZE00001403:  API NUMBER
 WTYP.                Deviated:  WELL TYPE
 MDS .        Operator Entered:  MAG DATA SOURCE
 BASE.              Azerbaijan:  LOGGING EQUIPMENT BASE LOCATION
 REGN.                   EESSA:  REGION
 PROV.                    Baku:  PROVINCE
 STAT.                    Baku:  STATE NAME
 SRVC.          Turan Drilling:  CONTRACTOR
 MWDS.                    Baku:  MWD SHOP
 JOBN.        AZ-XX-0907021034:  JOB TICKET NUMB
 RIG .                     DWG:  RIG NAME
 DOE .                     N/A:  DOE NUMBER
 DCON.         Sperry Drilling:  DIRECTNL CONTR
 UNIT.                     N/A:  LOGGING EQUIPMENT ID
 CNTY.                        :  COUNTY
 LOC .                        :  LOCATION
 LMF .             Drill Floor:  LOG MEASURED FROM
 TVDS.m                  43.16:  TVDSS CORRECTN
 LATI.deg                40.17:  LATITUDE
 LONG.deg                51.17:  LONGITUDE
 WHNS.m                  -5.90:  WELL HEAD N/S
 WHEW.m                  -6.61:  WELL HEAD E/W
 UTMX.m              514337.95:  UTM X
 UTMY.m             4448627.46:  UTM Y
 DFWL.m                   0.00:  DISTANCE FWL
 DFSL.m                   0.00:  DISTANCE FSL
 SDEP.m                2606.87:  START DEPTH
 TDD .m                3618.01:  TOTAL DEPTH (DRILLER)
 VSDR.deg               177.42:  VERT SEC DIRECT
 GVFD.g                   1.00:  GRAVITY FIELD
 MFLD.nT              50399.00:  MAGNETIC FIELD
 MDIP.deg                59.67:  MAGNETIC DIP
 MDEC.deg                 6.56:  MAGNETIC DECL
 GRDC.deg                 0.11:  GRID CORRECTION
 AZTC.deg                 6.45:  AZM TOTAL CORR
 EPD .m                   0.00:  ELEVATION
 EGL .m                   0.00:  GROUND ELEVATION
 WDMS.m                 176.20:  WD ELEV
 APD .m                  43.16:  DEPTH ABOVE PD
 DEP .m                2606.87:  DEPTH
 AGAP.m                  43.16:  AIR GAP
 VSEW.m                  -6.61:  VERT SEC E/W
 VSNS.m                  -5.90:  VERT SEC N/S
 EKB .m                  43.16:  KB ELEVATION
 EDF .m                  43.16:  DF ELEVATION
 TDL .m                 438.00:  TOTAL DEPTH (LOGGER)
 VSC .                       0:  VS TO CLOSURE
 MAGU.                 1855490:  MAGUTM CHECKSUM
~Parameter Information Block
#MNEM.UNIT       Value        Description
#---------     -----------    ---------------------------
 AV  .mps                 2.20:  Ann Velocity 
 AVMX.mps                 2.50:  Max Ann Veloc 
 AZIF.deg               150.21:  Azm, Final 
 BHAT.        Rotary Steerable:  BHA Type 
 BROT.°/30m               0.08:  Build Rotating 
 BS  .in                  6.50:  Bit Size 
 BSZ .in                  6.50:  Bit Size 
 BTPL.psig              108.00:  Bit Press Loss 
 CABU.                     Yes:  Customer Abuse 
 CGEO.           Emin Aliyarli:  Customer Geo 
 COMM.                     Ô8c:  Run Comments 1 
 TCS .hr                 74.20:  Time Ciculation Ended 
 CV  .mps                 3.63:  Crit Velocity 
 CVMX.mps                 3.66:  Max Crit Veloc 
 DD1 .         Intigam Rahimov:  Direct Drillr 1 
 DD2 .          Teymur Aghayev:  Direct Drillr 2 
 DDSV.               Geo-Pilot:  DD Service 
 DEFF.%                  97.00:  % Det Eff 
 DLRX.°/30m               1.63:  Dogleg Rot Max 
 DLSO.°/30m               0.00:  Dogleg Oriented 
 DLSX.°/30m               0.00:  Dogleg Str Max 
 DRET.      20.20.00 28-Apr-21:  Drill End Time 
 DRST.      04.45.00 26-Apr-21:  Drill Start Tim 
 DTIM.hr                 34.30:  Time Drilling 
 EDEP.m                3618.01:  End Depth 
 ENG1.           Amrah Tahirov:  Engineer 1 
 ENG2.         Bahruz Mehdiyev:  Engineer 2 
 ENG3.         Farhad Orujzade:  Engineer 3 
 ETIM.      19.00.00 29-Apr-21:  End Time 
 FLOI.gpm               370.00:  Flow In 
 FLON.gpm               300.00:  Flow In Min 
 FLOS.cptm                0.00:  Fluid Loss 
 FLOX.gpm               410.00:  Flow In Max 
 HFLO.                      No:  High Flow 
 HPRE.                      No:  High Pressure 
 HTEM.                      No:  High Temp 
 HYDO.m                   1.80:  Hydro Offset 
 IFIN.deg                67.19:  Inc, Final 
 IMAX.deg                68.42:  Inc Max 
 IMIN.deg                66.33:  Inc Min 
 IMND.m                3532.79:  Inc Min Depth 
 IMXD.m                3192.15:  Inc Max Depth 
 JARR.                      No:  Jarring 
 LETM.      20.20.00 28-Apr-21:  Log End Time 
 LOST.hr                     0:  Lost Rig Time 
 LSTM.      04.45.00 26-Apr-21:  Log Start Time 
 MDCL.ppm             36500.00:  Mud Chlorides 
 MDES.     Inversion Oil/Synthetic:  Mud Desc 
 DFD .sg                  1.42:  Mud Density 
 MDMN.sg                  1.42:  Dens Mud Min 
 MDMX.sg                  1.42:  Dens Mud Max 
 MOIL.                    55.7:  Run Mud Oil % 
 MOWR.                   71:29:  Run Mud OWR 
 MSND.                     0.1:  Run Mud Sand % 
 MSOL.                    19.9:  Run Mud Solids% 
 DFV .spqt               83.00:  Mud Viscosity 
 MWOD.in                  5.15:  MWD Tool OD 
 MWSI.                      No:  Serv Intrp, MWD 
 OTIM.hr                120.59:  Time Operating 
 PCON.           Look Like New:  Pad Condition 
 PMAX.psia            11292.93:  Press Op, Max 
 PV  .cP                 27.00:  Mud PV 
 RUN .                     400:  Run Number 
 ROPA.m/hr               14.00:  ROP Avg 
 ROPN.m/hr                9.00:  ROP Min 
 ROPX.m/hr               18.00:  ROP Max 
 RPMA.rpm               130.00:  RPM Surface Avg 
 RPMN.rpm               100.00:  RPM Surface Min 
 RPMX.rpm               140.00:  RPM Surface Max 
 RRUN.                    0400:  Rig Run Number 
 RTIM.hr                 38.60:  Time Reaming 
 SAZI.deg               149.55:  Azm, Start 
 SDEP.m                3180.01:  Start Depth 
 SIDD.                      No:  Serv Intrp, DD 
 SINC.deg                68.42:  Inc, Start 
 SPPA.psig             4400.00:  SPP Avg 
 SPPN.psig             3580.00:  SPP Min 
 SPPX.psig             4850.00:  SPP Max 
 STIM.      12.30.00 24-Apr-21:  Start Time 
 SVCS.                 DD, MWD:  Services 
 SVER.                    9.20:  Sperry Version 
 TDAT.m                 438.00:  Tot Depth Attmp 
 TDDF.                      No:  Trip for DD 
 TDLG.m                 438.00:  Tot Depth Loggd 
 TFF .                      No:  Trip for Fail 
 TQAA.f-kp               11.00:  Torque Abs Avg 
 TQAN.f-kp                9.00:  Torque Abs Min 
 TQAX.f-kp               14.00:  Torque Abs Max 
 TRRT.°/30m               0.04:  Turn Rotating 
 MRT .                    HCIM:  Maximum Recorded Temperature 
 TTMX.degC               84.31:  Max Tool Temp 
 VS01.                90521954:  Virtual Str1 SN 
 VS02.                90519327:  Virtual Str2 SN 
 VS03.                90522273:  Virtual Str3 SN 
 VS04.                11108038:  Virtual Str4 SN 
 VS05.                12258760:  Virtual Str5 SN 
 WBMN.klb                 1.00:  WOB Min 
 WITN.           Adil Mammadov:  Customer Rep 
 WITN.         Alex Yadullayev:  Customer Rep 2 
 WOBA.klb                 6.00:  WOB Avg 
 WOBX.klb                 9.00:  WOB Max 
 YP  .lhf2               31.00:  Yield Point 
~Curve Information Block
#MNEM.UNIT                 API CODE     Curve Description
#---------               -----------    ---------------------------
 TIME.HHMMSS            00 000 000 000:  GT Time & Date
 GTDEPTH.m              00 000 000 000:  GT Depth
 GTPQH.psia             00 000 000 000:  GT HR Quartz Pressure
 GTTQ.degC              00 000 000 000:  GT Quartz Temperature
 GTTN.NONE              00 000 000 000:  GT Test Number
 GTET.sec               00 000 000 000:  GT Elapsed Test Time
 GTTVD.m                00 000 000 000:  GT True Vertical Depth
#Other Information
#
#WARRANTY: Halliburton will use its best efforts to furnish customers with 
#accurate information and interpretations that are part of, and incident to, the services 
#provided.  However, Halliburton cannot and does not warrant the accuracy 
#or correctness of such information and interpretations.  Under no circumstances should any 
#such information or interpretation be relied upon as the sole basis for any drilling, 
#completion, production, or financial decision or any procedure involving any risk to the 
#safety of any drilling venture, drilling rig or its crew or any other third party.  The 
#Customer has full responsibility for all drilling, completion and production operation.  
#Halliburton makes no representations or warranties, either expressed or 
#implied, including, but not limited to, the implied warranties of merchantability or fitness 
#for a particular purpose, with respect to the services rendered.  In no event will 
#Halliburton be liable for failure to obtain any particular results or for 
#any damages, including, but not limited to, indirect, special or consequential damages, 
#resulting from the use of any information or interpretation provided by Halliburton.
#
~A           TIME           GTDEPTH  GTPQH  GTTQ  GTTN  GTET   GTTVD  
# ...
   06:54:52.775.28-Apr-2021 3473.01 7066.25 73.12 8.00  23.00 2748.71
   06:54:52.975.28-Apr-2021 3473.01 7066.25 73.12 8.00  23.20 2748.71
   06:54:53.175.28-Apr-2021 3473.01 7070.04 73.12 8.00  23.40 2748.71
   06:54:53.375.28-Apr-2021 3473.01 7056.90 73.12 8.00  23.60 2748.71
   06:54:53.575.28-Apr-2021 3473.01 6282.19 73.12 8.00  23.80 2748.71
   06:54:53.775.28-Apr-2021 3473.01 5718.52 73.12 8.00  24.00 2748.71
   06:54:53.975.28-Apr-2021 3473.01 5718.52 73.12 8.00  24.20 2748.71
   06:54:54.175.28-Apr-2021 3473.01 4428.79 73.12 8.00  24.40 2748.71
   06:54:54.375.28-Apr-2021 3473.01 3704.33 73.12 8.00  24.60 2748.71
   06:54:54.575.28-Apr-2021 3473.01 3594.40 73.12 8.00  24.80 2748.71
   06:54:54.775.28-Apr-2021 3473.01 3606.09 73.11 8.00  25.00 2748.71
   06:54:54.975.28-Apr-2021 3473.01 3606.09 73.11 8.00  25.20 2748.71
   06:54:55.175.28-Apr-2021 3473.01 3609.13 73.11 8.00  25.40 2748.71
   06:54:55.375.28-Apr-2021 3473.01 3615.10 73.11 8.00  25.60 2748.71
   06:54:55.575.28-Apr-2021 3473.01 3621.94 73.11 8.00  25.80 2748.71
   06:54:55.775.28-Apr-2021 3473.01 3621.67 73.11 8.00  26.00 2748.71
   06:54:55.975.28-Apr-2021 3473.01 3621.67 73.11 8.00  26.20 2748.71
   06:54:56.175.28-Apr-2021 3473.01 3619.91 73.11 8.00  26.40 2748.71
   06:54:56.375.28-Apr-2021 3473.01 3618.58 73.11 8.00  26.60 2748.71
   06:54:56.575.28-Apr-2021 3473.01 3619.96 73.10 8.00  26.80 2748.71
   06:54:56.775.28-Apr-2021 3473.01 3619.99 73.10 8.00  27.00 2748.71
   06:54:56.975.28-Apr-2021 3473.01 3619.99 73.10 8.00  27.20 2748.71
   06:54:57.175.28-Apr-2021 3473.01 3621.12 73.10 8.00  27.40 2748.71
   06:54:57.375.28-Apr-2021 3473.01 3621.09 73.10 8.00  27.60 2748.71
   06:54:57.575.28-Apr-2021 3473.01 3619.96 73.10 8.00  27.80 2748.71
   06:54:57.776.28-Apr-2021 3473.01 3619.15 73.10 8.00  28.00 2748.71
   06:54:57.976.28-Apr-2021 3473.01 3619.15 73.10 8.00  28.20 2748.71
   06:54:58.176.28-Apr-2021 3473.01 3618.54 73.09 8.00  28.40 2748.71
   06:54:58.376.28-Apr-2021 3473.01 3618.47 73.09 8.00  28.60 2748.71
   06:54:58.576.28-Apr-2021 3473.01 3618.77 73.09 8.00  28.80 2748.71
   06:54:58.776.28-Apr-2021 3473.01 3618.78 73.09 8.00  29.00 2748.71
   06:54:58.976.28-Apr-2021 3473.01 3618.78 73.09 8.00  29.20 2748.71
   06:54:59.176.28-Apr-2021 3473.01 3618.61 73.09 8.00  29.40 2748.71
   06:54:59.376.28-Apr-2021 3473.01 3619.04 73.09 8.00  29.60 2748.71
   06:54:59.576.28-Apr-2021 3473.01 3618.50 73.08 8.00  29.80 2748.71
   06:54:59.776.28-Apr-2021 3473.01 3618.54 73.08 8.00  30.00 2748.71
   06:54:59.976.28-Apr-2021 3473.01 3618.54 73.08 8.00  30.20 2748.71
   06:55:00.176.28-Apr-2021 3473.01 3618.65 73.08 8.00  30.40 2748.71
   06:55:00.376.28-Apr-2021 3473.01 3618.62 73.08 8.00  30.60 2748.71
   06:55:00.576.28-Apr-2021 3473.01 3618.56 73.08 8.00  30.80 2748.71
   06:55:00.776.28-Apr-2021 3473.01 3618.69 73.08 8.00  31.00 2748.71
   06:55:00.976.28-Apr-2021 3473.01 3618.69 73.08 8.00  31.20 2748.71
   06:55:01.176.28-Apr-2021 3473.01 3618.59 73.07 8.00  31.40 2748.71
   06:55:01.376.28-Apr-2021 3473.01 3618.84 73.07 8.00  31.60 2748.71
   06:55:01.576.28-Apr-2021 3473.01 3618.89 73.07 8.00  31.80 2748.71
   06:55:01.776.28-Apr-2021 3473.01 3618.91 73.07 8.00  32.00 2748.71
   06:55:01.976.28-Apr-2021 3473.01 3618.91 73.07 8.00  32.20 2748.71
   06:55:02.176.28-Apr-2021 3473.01 3619.16 73.07 8.00  32.40 2748.71
   06:55:02.376.28-Apr-2021 3473.01 3618.95 73.07 8.00  32.60 2748.71
   06:55:02.576.28-Apr-2021 3473.01 3619.01 73.07 8.00  32.80 2748.71
   06:55:02.776.28-Apr-2021 3473.01 3619.08 73.06 8.00  33.00 2748.71
   06:55:02.976.28-Apr-2021 3473.01 3619.08 73.06 8.00  33.20 2748.71
   06:55:03.176.28-Apr-2021 3473.01 3619.40 73.06 8.00  33.40 2748.71
   06:55:03.376.28-Apr-2021 3473.01 3619.17 73.06 8.00  33.60 2748.71
   06:55:03.576.28-Apr-2021 3473.01 3637.85 73.06 8.00  33.80 2748.71
   06:55:03.776.28-Apr-2021 3473.01 3650.60 73.06 8.00  34.01 2748.71
   06:55:03.976.28-Apr-2021 3473.01 3650.60 73.06 8.00  34.21 2748.71
   06:55:04.176.28-Apr-2021 3473.01 3651.08 73.06 8.00  34.41 2748.71
   06:55:04.376.28-Apr-2021 3473.01 3651.06 73.06 8.00  34.61 2748.71
   06:55:04.577.28-Apr-2021 3473.01 3651.20 73.05 8.00  34.81 2748.71
   06:55:04.777.28-Apr-2021 3473.01 3651.17 73.05 8.00  35.01 2748.71
   06:55:04.977.28-Apr-2021 3473.01 3651.17 73.05 8.00  35.21 2748.71
   06:55:05.177.28-Apr-2021 3473.01 3651.02 73.05 8.00  35.41 2748.71
   06:55:05.377.28-Apr-2021 3473.01 3651.39 73.05 8.00  35.61 2748.71
   06:55:05.577.28-Apr-2021 3473.01 3651.33 73.05 8.00  35.81 2748.71
   06:55:05.777.28-Apr-2021 3473.01 3651.36 73.05 8.00  36.01 2748.71
   06:55:05.977.28-Apr-2021 3473.01 3651.36 73.05 8.00  36.21 2748.71
   06:55:06.177.28-Apr-2021 3473.01 3651.30 73.05 8.00  36.41 2748.71
   06:55:06.377.28-Apr-2021 3473.01 3651.41 73.05 8.00  36.61 2748.71
   06:55:06.577.28-Apr-2021 3473.01 3651.44 73.05 8.00  36.81 2748.71
   06:55:06.777.28-Apr-2021 3473.01 3651.32 73.05 8.00  37.01 2748.71
   06:55:06.977.28-Apr-2021 3473.01 3651.32 73.05 8.00  37.21 2748.71
   06:55:07.177.28-Apr-2021 3473.01 3651.43 73.04 8.00  37.41 2748.71
   06:55:07.377.28-Apr-2021 3473.01 3651.49 73.04 8.00  37.61 2748.71
   06:55:07.577.28-Apr-2021 3473.01 3651.46 73.04 8.00  37.81 2748.71
   06:55:07.777.28-Apr-2021 3473.01 3651.54 73.04 8.00  38.01 2748.71
   06:55:07.977.28-Apr-2021 3473.01 3651.54 73.04 8.00  38.21 2748.71
   06:55:08.177.28-Apr-2021 3473.01 3651.58 73.04 8.00  38.41 2748.71
   06:55:08.377.28-Apr-2021 3473.01 3651.59 73.04 8.00  38.61 2748.71
   06:55:08.577.28-Apr-2021 3473.01 3651.61 73.04 8.00  38.81 2748.71
   06:55:08.777.28-Apr-2021 3473.01 3651.65 73.04 8.00  39.01 2748.71
   06:55:08.977.28-Apr-2021 3473.01 3651.65 73.04 8.00  39.21 2748.71
   06:55:09.177.28-Apr-2021 3473.01 3651.63 73.04 8.00  39.41 2748.71
   06:55:09.377.28-Apr-2021 3473.01 3651.69 73.04 8.00  39.61 2748.71
   06:55:09.577.28-Apr-2021 3473.01 3651.64 73.03 8.00  39.81 2748.71
   06:55:09.777.28-Apr-2021 3473.01 3651.54 73.03 8.00  40.01 2748.71
   06:55:09.977.28-Apr-2021 3473.01 3651.54 73.03 8.00  40.21 2748.71
   06:55:10.177.28-Apr-2021 3473.01 3651.58 73.03 8.00  40.41 2748.71
   06:55:10.377.28-Apr-2021 3473.01 3651.63 73.03 8.00  40.61 2748.71
   06:55:10.577.28-Apr-2021 3473.01 3651.58 73.03 8.00  40.81 2748.71
   06:55:10.777.28-Apr-2021 3473.01 3651.68 73.03 8.00  41.01 2748.71
   06:55:10.977.28-Apr-2021 3473.01 3651.68 73.03 8.00  41.21 2748.71
   06:55:11.177.28-Apr-2021 3473.01 3651.71 73.03 8.00  41.41 2748.71
   06:55:11.378.28-Apr-2021 3473.01 3651.68 73.03 8.00  41.61 2748.71
   06:55:11.578.28-Apr-2021 3473.01 3651.74 73.03 8.00  41.81 2748.71
   06:55:11.778.28-Apr-2021 3473.01 3651.75 73.03 8.00  42.01 2748.71
   06:55:11.978.28-Apr-2021 3473.01 3651.75 73.03 8.00  42.21 2748.71
   06:55:12.178.28-Apr-2021 3473.01 3651.76 73.03 8.00  42.41 2748.71
   06:55:12.378.28-Apr-2021 3473.01 3651.75 73.03 8.00  42.61 2748.71
   06:55:12.578.28-Apr-2021 3473.01 3651.79 73.02 8.00  42.81 2748.71
   06:55:12.778.28-Apr-2021 3473.01 3651.76 73.02 8.00  43.01 2748.71
   06:55:12.978.28-Apr-2021 3473.01 3651.76 73.02 8.00  43.21 2748.71
   06:55:13.178.28-Apr-2021 3473.01 3651.74 73.02 8.00  43.41 2748.71
   06:55:13.378.28-Apr-2021 3473.01 3651.64 73.02 8.00  43.61 2748.71
   06:55:13.578.28-Apr-2021 3473.01 3651.70 73.02 8.00  43.81 2748.71
   06:55:13.778.28-Apr-2021 3473.01 3651.65 73.02 8.00  44.01 2748.71
   06:55:13.978.28-Apr-2021 3473.01 3651.65 73.02 8.00  44.21 2748.71
   06:55:14.178.28-Apr-2021 3473.01 3651.74 73.02 8.00  44.41 2748.71
   06:55:14.378.28-Apr-2021 3473.01 3651.65 73.02 8.00  44.61 2748.71
   06:55:14.578.28-Apr-2021 3473.01 3651.72 73.02 8.00  44.81 2748.71
   06:55:14.778.28-Apr-2021 3473.01 3651.50 73.02 8.00  45.01 2748.71
   06:55:14.978.28-Apr-2021 3473.01 3651.50 73.02 8.00  45.21 2748.71
   06:55:15.178.28-Apr-2021 3473.01 3651.67 73.02 8.00  45.41 2748.71
   06:55:15.378.28-Apr-2021 3473.01 3651.68 73.02 8.00  45.61 2748.71
   06:55:15.578.28-Apr-2021 3473.01 3651.45 73.01 8.00  45.81 2748.71
