~Version Information
 VERS.                  2.0:   CWLS log ASCII Standard -VERSION 2.0
 WRAP.                   NO:   One line per depth step
~Well Information Block
#MNEM.UNIT     VALUE/NAME     DESCRIPTION
#---------     -----------    ---------------------------
 STRT.S             23:13:46 26-Apr-21: START TIME 23:13:46 26-Apr-21
 STOP.S             23:20:13 26-Apr-21: STOP TIME  23:20:13 26-Apr-21
 STEP.S                   0.00: STEP TIME
 NULL.                 -999.25: NULL VALUE
 DFWT.                        :  DIST FWL TEXT
 DFST.                        :  DIST FSL TEXT
 DMF .             Drill Floor:  DRILL MEAS FROM
 STIM.      02.00.00 12-Apr-21:  START TIME
 DATE.      02.00.00 02-May-21:  END TIME
 SPUD.               09-Apr-21:  SPUD DATE
 NREF.                    Grid:  NORTH REFERENCE
 HPTY.       Minimum Curvature:  HOLE POS TYPE
 DMOD.             Drill Model:  DRILL MOD DESC
 SVYD.                  Survey:  SURVEY DESC
 ILTD.               Lithology:  INTERP LTH DESC
 FTOP.          Formation Tops:  FORM TOPS DESC
 PDAT.          Mean Sea Level:  PERMANENT DATUM
 FLD .                     ACG:  FIELD NAME
 SON .        AZ-XX-0907021034:  JOB NUMBER
 CTRY.              Azerbaijan:  COUNTRY NAME
 WELL.                    E01x:  WELL NAME
 COMP.     BP Exploration (Caspian Sea) LTD.:  COMPANY
 UWI .            /AZE00001403:  UNIQUE WELL IDENTIFIER
 API .            /AZE00001403:  API NUMBER
 WTYP.                Deviated:  WELL TYPE
 MDS .        Operator Entered:  MAG DATA SOURCE
 BASE.              Azerbaijan:  LOGGING EQUIPMENT BASE LOCATION
 REGN.                   EESSA:  REGION
 PROV.                    Baku:  PROVINCE
 STAT.                    Baku:  STATE NAME
 SRVC.          Turan Drilling:  CONTRACTOR
 MWDS.                    Baku:  MWD SHOP
 JOBN.        AZ-XX-0907021034:  JOB TICKET NUMB
 RIG .                     DWG:  RIG NAME
 DOE .                     N/A:  DOE NUMBER
 DCON.         Sperry Drilling:  DIRECTNL CONTR
 UNIT.                     N/A:  LOGGING EQUIPMENT ID
 CNTY.                        :  COUNTY
 LOC .                        :  LOCATION
 LMF .             Drill Floor:  LOG MEASURED FROM
 TVDS.m                  43.16:  TVDSS CORRECTN
 LATI.deg                40.17:  LATITUDE
 LONG.deg                51.17:  LONGITUDE
 WHNS.m                  -5.90:  WELL HEAD N/S
 WHEW.m                  -6.61:  WELL HEAD E/W
 UTMX.m              514337.95:  UTM X
 UTMY.m             4448627.46:  UTM Y
 DFWL.m                   0.00:  DISTANCE FWL
 DFSL.m                   0.00:  DISTANCE FSL
 SDEP.m                2606.87:  START DEPTH
 TDD .m                3618.01:  TOTAL DEPTH (DRILLER)
 VSDR.deg               177.42:  VERT SEC DIRECT
 GVFD.g                   1.00:  GRAVITY FIELD
 MFLD.nT              50399.00:  MAGNETIC FIELD
 MDIP.deg                59.67:  MAGNETIC DIP
 MDEC.deg                 6.56:  MAGNETIC DECL
 GRDC.deg                 0.11:  GRID CORRECTION
 AZTC.deg                 6.45:  AZM TOTAL CORR
 EPD .m                   0.00:  ELEVATION
 EGL .m                   0.00:  GROUND ELEVATION
 WDMS.m                 176.20:  WD ELEV
 APD .m                  43.16:  DEPTH ABOVE PD
 DEP .m                2606.87:  DEPTH
 AGAP.m                  43.16:  AIR GAP
 VSEW.m                  -6.61:  VERT SEC E/W
 VSNS.m                  -5.90:  VERT SEC N/S
 EKB .m                  43.16:  KB ELEVATION
 EDF .m                  43.16:  DF ELEVATION
 TDL .m                 438.00:  TOTAL DEPTH (LOGGER)
 VSC .                       0:  VS TO CLOSURE
 MAGU.                 1855490:  MAGUTM CHECKSUM
~Parameter Information Block
#MNEM.UNIT       Value        Description
#---------     -----------    ---------------------------
 AV  .mps                 2.20:  Ann Velocity 
 AVMX.mps                 2.50:  Max Ann Veloc 
 AZIF.deg               150.21:  Azm, Final 
 BHAT.        Rotary Steerable:  BHA Type 
 BROT.°/30m               0.08:  Build Rotating 
 BS  .in                  6.50:  Bit Size 
 BSZ .in                  6.50:  Bit Size 
 BTPL.psig              108.00:  Bit Press Loss 
 CABU.                     Yes:  Customer Abuse 
 CGEO.           Emin Aliyarli:  Customer Geo 
 COMM.                     <MW:  Run Comments 1 
 TCS .hr                 74.20:  Time Ciculation Ended 
 CV  .mps                 3.63:  Crit Velocity 
 CVMX.mps                 3.66:  Max Crit Veloc 
 DD1 .         Intigam Rahimov:  Direct Drillr 1 
 DD2 .          Teymur Aghayev:  Direct Drillr 2 
 DDSV.               Geo-Pilot:  DD Service 
 DEFF.%                  97.00:  % Det Eff 
 DLRX.°/30m               1.63:  Dogleg Rot Max 
 DLSO.°/30m               0.00:  Dogleg Oriented 
 DLSX.°/30m               0.00:  Dogleg Str Max 
 DRET.      20.20.00 28-Apr-21:  Drill End Time 
 DRST.      04.45.00 26-Apr-21:  Drill Start Tim 
 DTIM.hr                 34.30:  Time Drilling 
 EDEP.m                3618.01:  End Depth 
 ENG1.           Amrah Tahirov:  Engineer 1 
 ENG2.         Bahruz Mehdiyev:  Engineer 2 
 ENG3.         Farhad Orujzade:  Engineer 3 
 ETIM.      19.00.00 29-Apr-21:  End Time 
 FLOI.gpm               370.00:  Flow In 
 FLON.gpm               300.00:  Flow In Min 
 FLOS.cptm                0.00:  Fluid Loss 
 FLOX.gpm               410.00:  Flow In Max 
 HFLO.                      No:  High Flow 
 HPRE.                      No:  High Pressure 
 HTEM.                      No:  High Temp 
 HYDO.m                   1.80:  Hydro Offset 
 IFIN.deg                67.19:  Inc, Final 
 IMAX.deg                68.42:  Inc Max 
 IMIN.deg                66.33:  Inc Min 
 IMND.m                3532.79:  Inc Min Depth 
 IMXD.m                3192.15:  Inc Max Depth 
 JARR.                      No:  Jarring 
 LETM.      20.20.00 28-Apr-21:  Log End Time 
 LOST.hr                     0:  Lost Rig Time 
 LSTM.      04.45.00 26-Apr-21:  Log Start Time 
 MDCL.ppm             36500.00:  Mud Chlorides 
 MDES.     Inversion Oil/Synthetic:  Mud Desc 
 DFD .sg                  1.42:  Mud Density 
 MDMN.sg                  1.42:  Dens Mud Min 
 MDMX.sg                  1.42:  Dens Mud Max 
 MOIL.                    55.7:  Run Mud Oil % 
 MOWR.                   71:29:  Run Mud OWR 
 MSND.                     0.1:  Run Mud Sand % 
 MSOL.                    19.9:  Run Mud Solids% 
 DFV .spqt               83.00:  Mud Viscosity 
 MWOD.in                  5.15:  MWD Tool OD 
 MWSI.                      No:  Serv Intrp, MWD 
 OTIM.hr                120.59:  Time Operating 
 PCON.           Look Like New:  Pad Condition 
 PMAX.psia            11292.93:  Press Op, Max 
 PV  .cP                 27.00:  Mud PV 
 RUN .                     400:  Run Number 
 ROPA.m/hr               14.00:  ROP Avg 
 ROPN.m/hr                9.00:  ROP Min 
 ROPX.m/hr               18.00:  ROP Max 
 RPMA.rpm               130.00:  RPM Surface Avg 
 RPMN.rpm               100.00:  RPM Surface Min 
 RPMX.rpm               140.00:  RPM Surface Max 
 RRUN.                    0400:  Rig Run Number 
 RTIM.hr                 38.60:  Time Reaming 
 SAZI.deg               149.55:  Azm, Start 
 SDEP.m                3180.01:  Start Depth 
 SIDD.                      No:  Serv Intrp, DD 
 SINC.deg                68.42:  Inc, Start 
 SPPA.psig             4400.00:  SPP Avg 
 SPPN.psig             3580.00:  SPP Min 
 SPPX.psig             4850.00:  SPP Max 
 STIM.      12.30.00 24-Apr-21:  Start Time 
 SVCS.                 DD, MWD:  Services 
 SVER.                    9.20:  Sperry Version 
 TDAT.m                 438.00:  Tot Depth Attmp 
 TDDF.                      No:  Trip for DD 
 TDLG.m                 438.00:  Tot Depth Loggd 
 TFF .                      No:  Trip for Fail 
 TQAA.f-kp               11.00:  Torque Abs Avg 
 TQAN.f-kp                9.00:  Torque Abs Min 
 TQAX.f-kp               14.00:  Torque Abs Max 
 TRRT.°/30m               0.04:  Turn Rotating 
 MRT .                    HCIM:  Maximum Recorded Temperature 
 TTMX.degC               84.31:  Max Tool Temp 
 VS01.                90521954:  Virtual Str1 SN 
 VS02.                90519327:  Virtual Str2 SN 
 VS03.                90522273:  Virtual Str3 SN 
 VS04.                11108038:  Virtual Str4 SN 
 VS05.                12258760:  Virtual Str5 SN 
 WBMN.klb                 1.00:  WOB Min 
 WITN.           Adil Mammadov:  Customer Rep 
 WITN.         Alex Yadullayev:  Customer Rep 2 
 WOBA.klb                 6.00:  WOB Avg 
 WOBX.klb                 9.00:  WOB Max 
 YP  .lhf2               31.00:  Yield Point 
~Curve Information Block
#MNEM.UNIT                 API CODE     Curve Description
#---------               -----------    ---------------------------
 TIME.HHMMSS            00 000 000 000:  GT Time & Date
 GTDEPTH.m              00 000 000 000:  GT Depth
 GTPQH.psia             00 000 000 000:  GT HR Quartz Pressure
 GTTQ.degC              00 000 000 000:  GT Quartz Temperature
 GTTN.NONE              00 000 000 000:  GT Test Number
 GTET.sec               00 000 000 000:  GT Elapsed Test Time
 GTTVD.m                00 000 000 000:  GT True Vertical Depth
#Other Information
#
#WARRANTY: Halliburton will use its best efforts to furnish customers with 
#accurate information and interpretations that are part of, and incident to, the services 
#provided.  However, Halliburton cannot and does not warrant the accuracy 
#or correctness of such information and interpretations.  Under no circumstances should any 
#such information or interpretation be relied upon as the sole basis for any drilling, 
#completion, production, or financial decision or any procedure involving any risk to the 
#safety of any drilling venture, drilling rig or its crew or any other third party.  The 
#Customer has full responsibility for all drilling, completion and production operation.  
#Halliburton makes no representations or warranties, either expressed or 
#implied, including, but not limited to, the implied warranties of merchantability or fitness 
#for a particular purpose, with respect to the services rendered.  In no event will 
#Halliburton be liable for failure to obtain any particular results or for 
#any damages, including, but not limited to, indirect, special or consequential damages, 
#resulting from the use of any information or interpretation provided by Halliburton.
#
~A           TIME           GTDEPTH  GTPQH  GTTQ  GTTN  GTET   GTTVD  
# ...
   23:16:04.566.26-Apr-2021 3222.01 4197.35 69.52 1.00 138.04 2649.76
   23:16:04.766.26-Apr-2021 3222.01 4197.35 69.52 1.00 138.24 2649.76
   23:16:04.966.26-Apr-2021 3222.01 4198.64 69.52 1.00 138.44 2649.76
   23:16:05.166.26-Apr-2021 3222.01 4198.44 69.52 1.00 138.64 2649.76
   23:16:05.366.26-Apr-2021 3222.01 4198.00 69.52 1.00 138.84 2649.76
   23:16:05.566.26-Apr-2021 3222.01 4198.04 69.52 1.00 139.04 2649.76
   23:16:05.767.26-Apr-2021 3222.01 4198.04 69.52 1.00 139.24 2649.76
   23:16:05.967.26-Apr-2021 3222.01 4199.25 69.52 1.00 139.44 2649.76
   23:16:06.167.26-Apr-2021 3222.01 4198.46 69.52 1.00 139.64 2649.76
   23:16:06.367.26-Apr-2021 3222.01 4198.29 69.52 1.00 139.84 2649.76
   23:16:06.567.26-Apr-2021 3222.01 4197.31 69.52 1.00 140.04 2649.76
   23:16:06.767.26-Apr-2021 3222.01 4197.31 69.52 1.00 140.24 2649.76
   23:16:06.967.26-Apr-2021 3222.01 4198.26 69.52 1.00 140.44 2649.76
   23:16:07.167.26-Apr-2021 3222.01 4198.42 69.51 1.00 140.64 2649.76
   23:16:07.367.26-Apr-2021 3222.01 4232.41 69.51 1.00 140.84 2649.76
   23:16:07.567.26-Apr-2021 3222.01 4266.92 69.51 1.00 141.04 2649.76
   23:16:07.767.26-Apr-2021 3222.01 4266.92 69.51 1.00 141.24 2649.76
   23:16:07.967.26-Apr-2021 3222.01 4272.57 69.51 1.00 141.44 2649.76
   23:16:08.167.26-Apr-2021 3222.01 4273.69 69.51 1.00 141.64 2649.76
   23:16:08.367.26-Apr-2021 3222.01 4274.08 69.51 1.00 141.84 2649.76
   23:16:08.567.26-Apr-2021 3222.01 4274.51 69.51 1.00 142.04 2649.76
   23:16:08.767.26-Apr-2021 3222.01 4274.51 69.51 1.00 142.24 2649.76
   23:16:08.967.26-Apr-2021 3222.01 4275.33 69.51 1.00 142.44 2649.76
   23:16:09.168.26-Apr-2021 3222.01 4275.50 69.51 1.00 142.64 2649.76
   23:16:09.368.26-Apr-2021 3222.01 4275.67 69.51 1.00 142.84 2649.76
   23:16:09.568.26-Apr-2021 3222.01 4275.76 69.51 1.00 143.04 2649.76
   23:16:09.768.26-Apr-2021 3222.01 4275.76 69.51 1.00 143.24 2649.76
   23:16:09.968.26-Apr-2021 3222.01 4276.01 69.51 1.00 143.44 2649.76
   23:16:10.168.26-Apr-2021 3222.01 4275.79 69.51 1.00 143.64 2649.76
   23:16:10.368.26-Apr-2021 3222.01 4276.50 69.51 1.00 143.84 2649.76
   23:16:10.568.26-Apr-2021 3222.01 4276.75 69.51 1.00 144.04 2649.76
   23:16:10.768.26-Apr-2021 3222.01 4276.75 69.51 1.00 144.24 2649.76
   23:16:10.968.26-Apr-2021 3222.01 4276.90 69.51 1.00 144.44 2649.76
   23:16:11.168.26-Apr-2021 3222.01 4276.98 69.51 1.00 144.64 2649.76
   23:16:11.368.26-Apr-2021 3222.01 4277.12 69.51 1.00 144.84 2649.76
   23:16:11.568.26-Apr-2021 3222.01 4277.39 69.51 1.00 145.04 2649.76
   23:16:11.768.26-Apr-2021 3222.01 4277.39 69.51 1.00 145.24 2649.76
   23:16:11.968.26-Apr-2021 3222.01 4277.34 69.51 1.00 145.44 2649.76
   23:16:12.168.26-Apr-2021 3222.01 4277.31 69.51 1.00 145.64 2649.76
   23:16:12.368.26-Apr-2021 3222.01 4277.42 69.51 1.00 145.84 2649.76
   23:16:12.569.26-Apr-2021 3222.01 4277.54 69.51 1.00 146.04 2649.76
   23:16:12.769.26-Apr-2021 3222.01 4277.54 69.51 1.00 146.24 2649.76
   23:16:12.969.26-Apr-2021 3222.01 4276.93 69.51 1.00 146.44 2649.76
   23:16:13.169.26-Apr-2021 3222.01 4277.64 69.51 1.00 146.64 2649.76
   23:16:13.369.26-Apr-2021 3222.01 4277.83 69.51 1.00 146.84 2649.76
   23:16:13.569.26-Apr-2021 3222.01 4277.91 69.51 1.00 147.04 2649.76
   23:16:13.769.26-Apr-2021 3222.01 4277.91 69.51 1.00 147.24 2649.76
   23:16:13.969.26-Apr-2021 3222.01 4277.61 69.51 1.00 147.44 2649.76
   23:16:14.169.26-Apr-2021 3222.01 4277.99 69.51 1.00 147.64 2649.76
   23:16:14.369.26-Apr-2021 3222.01 4278.30 69.51 1.00 147.84 2649.76
   23:16:14.569.26-Apr-2021 3222.01 4278.16 69.51 1.00 148.04 2649.76
   23:16:14.769.26-Apr-2021 3222.01 4278.16 69.51 1.00 148.24 2649.76
   23:16:14.969.26-Apr-2021 3222.01 4277.52 69.51 1.00 148.44 2649.76
   23:16:15.169.26-Apr-2021 3222.01 4278.18 69.50 1.00 148.64 2649.76
   23:16:15.369.26-Apr-2021 3222.01 4278.33 69.50 1.00 148.84 2649.76
   23:16:15.569.26-Apr-2021 3222.01 4278.07 69.50 1.00 149.04 2649.76
   23:16:15.769.26-Apr-2021 3222.01 4278.07 69.50 1.00 149.24 2649.76
   23:16:15.970.26-Apr-2021 3222.01 4278.17 69.50 1.00 149.44 2649.76
   23:16:16.170.26-Apr-2021 3222.01 4278.32 69.50 1.00 149.64 2649.76
   23:16:16.370.26-Apr-2021 3222.01 4278.48 69.50 1.00 149.84 2649.76
   23:16:16.570.26-Apr-2021 3222.01 4278.38 69.50 1.00 150.04 2649.76
   23:16:16.770.26-Apr-2021 3222.01 4278.38 69.50 1.00 150.24 2649.76
   23:16:16.970.26-Apr-2021 3222.01 4278.32 69.50 1.00 150.44 2649.76
   23:16:17.170.26-Apr-2021 3222.01 4278.52 69.50 1.00 150.64 2649.76
   23:16:17.370.26-Apr-2021 3222.01 4278.50 69.50 1.00 150.84 2649.76
   23:16:17.570.26-Apr-2021 3222.01 4278.35 69.50 1.00 151.04 2649.76
   23:16:17.770.26-Apr-2021 3222.01 4278.35 69.50 1.00 151.24 2649.76
   23:16:17.970.26-Apr-2021 3222.01 4278.30 69.50 1.00 151.44 2649.76
   23:16:18.170.26-Apr-2021 3222.01 4278.31 69.50 1.00 151.64 2649.76
   23:16:18.370.26-Apr-2021 3222.01 4277.70 69.50 1.00 151.84 2649.76
   23:16:18.570.26-Apr-2021 3222.01 4278.41 69.50 1.00 152.04 2649.76
   23:16:18.770.26-Apr-2021 3222.01 4278.41 69.50 1.00 152.24 2649.76
   23:16:18.970.26-Apr-2021 3222.01 4278.52 69.50 1.00 152.44 2649.76
   23:16:19.170.26-Apr-2021 3222.01 4278.48 69.50 1.00 152.64 2649.76
   23:16:19.371.26-Apr-2021 3222.01 4278.54 69.50 1.00 152.84 2649.76
   23:16:19.571.26-Apr-2021 3222.01 4278.54 69.50 1.00 153.04 2649.76
   23:16:19.771.26-Apr-2021 3222.01 4278.54 69.50 1.00 153.24 2649.76
   23:16:19.971.26-Apr-2021 3222.01 4278.66 69.50 1.00 153.45 2649.76
   23:16:20.171.26-Apr-2021 3222.01 4278.65 69.50 1.00 153.65 2649.76
   23:16:20.371.26-Apr-2021 3222.01 4278.56 69.50 1.00 153.85 2649.76
   23:16:20.571.26-Apr-2021 3222.01 4278.62 69.50 1.00 154.05 2649.76
   23:16:20.771.26-Apr-2021 3222.01 4278.62 69.50 1.00 154.25 2649.76
   23:16:20.971.26-Apr-2021 3222.01 4278.45 69.50 1.00 154.45 2649.76
   23:16:21.171.26-Apr-2021 3222.01 4277.96 69.50 1.00 154.65 2649.76
   23:16:21.371.26-Apr-2021 3222.01 4278.59 69.50 1.00 154.85 2649.76
   23:16:21.571.26-Apr-2021 3222.01 4278.76 69.50 1.00 155.05 2649.76
   23:16:21.771.26-Apr-2021 3222.01 4278.76 69.50 1.00 155.25 2649.76
   23:16:21.971.26-Apr-2021 3222.01 4278.72 69.50 1.00 155.45 2649.76
   23:16:22.171.26-Apr-2021 3222.01 4278.56 69.50 1.00 155.65 2649.76
   23:16:22.371.26-Apr-2021 3222.01 4278.16 69.50 1.00 155.85 2649.76
   23:16:22.571.26-Apr-2021 3222.01 4278.95 69.50 1.00 156.05 2649.76
   23:16:22.772.26-Apr-2021 3222.01 4278.95 69.50 1.00 156.25 2649.76
   23:16:22.972.26-Apr-2021 3222.01 4278.82 69.50 1.00 156.45 2649.76
   23:16:23.172.26-Apr-2021 3222.01 4278.14 69.50 1.00 156.65 2649.76
   23:16:23.372.26-Apr-2021 3222.01 4278.56 69.49 1.00 156.85 2649.76
   23:16:23.572.26-Apr-2021 3222.01 4278.93 69.49 1.00 157.05 2649.76
   23:16:23.772.26-Apr-2021 3222.01 4278.93 69.49 1.00 157.25 2649.76
   23:16:23.972.26-Apr-2021 3222.01 4278.84 69.49 1.00 157.45 2649.76
   23:16:24.172.26-Apr-2021 3222.01 4278.09 69.49 1.00 157.65 2649.76
   23:16:24.372.26-Apr-2021 3222.01 4278.72 69.49 1.00 157.85 2649.76
   23:16:24.572.26-Apr-2021 3222.01 4278.98 69.49 1.00 158.05 2649.76
   23:16:24.772.26-Apr-2021 3222.01 4278.98 69.49 1.00 158.25 2649.76
   23:16:24.972.26-Apr-2021 3222.01 4278.94 69.49 1.00 158.45 2649.76
   23:16:25.172.26-Apr-2021 3222.01 4278.91 69.49 1.00 158.65 2649.76
   23:16:25.372.26-Apr-2021 3222.01 4278.77 69.49 1.00 158.85 2649.76
   23:16:25.572.26-Apr-2021 3222.01 4279.06 69.49 1.00 159.05 2649.76
   23:16:25.772.26-Apr-2021 3222.01 4279.06 69.49 1.00 159.25 2649.76
   23:16:25.972.26-Apr-2021 3222.01 4278.84 69.49 1.00 159.45 2649.76
   23:16:26.173.26-Apr-2021 3222.01 4278.80 69.49 1.00 159.65 2649.76
   23:16:26.373.26-Apr-2021 3222.01 4278.73 69.49 1.00 159.85 2649.76
   23:16:26.573.26-Apr-2021 3222.01 4278.80 69.49 1.00 160.05 2649.76
   23:16:26.773.26-Apr-2021 3222.01 4278.80 69.49 1.00 160.25 2649.76
   23:16:26.973.26-Apr-2021 3222.01 4278.83 69.49 1.00 160.45 2649.76
   23:16:27.173.26-Apr-2021 3222.01 4278.92 69.49 1.00 160.65 2649.76
   23:16:27.373.26-Apr-2021 3222.01 4278.93 69.49 1.00 160.85 2649.76
