~Version Information
 VERS.                  2.0:   CWLS log ASCII Standard -VERSION 2.0
 WRAP.                   NO:   One line per depth step
~Well Information Block
#MNEM.UNIT     VALUE/NAME     DESCRIPTION
#---------     -----------    ---------------------------
 STRT.S             13:09:03 28-Apr-21: START TIME 13:09:03 28-Apr-21
 STOP.S             13:15:31 28-Apr-21: STOP TIME  13:15:31 28-Apr-21
 STEP.S                   0.00: STEP TIME
 NULL.                 -999.25: NULL VALUE
 DFWT.                        :  DIST FWL TEXT
 DFST.                        :  DIST FSL TEXT
 DMF .             Drill Floor:  DRILL MEAS FROM
 STIM.      02.00.00 12-Apr-21:  START TIME
 DATE.      02.00.00 02-May-21:  END TIME
 SPUD.               09-Apr-21:  SPUD DATE
 NREF.                    Grid:  NORTH REFERENCE
 HPTY.       Minimum Curvature:  HOLE POS TYPE
 DMOD.             Drill Model:  DRILL MOD DESC
 SVYD.                  Survey:  SURVEY DESC
 ILTD.               Lithology:  INTERP LTH DESC
 FTOP.          Formation Tops:  FORM TOPS DESC
 PDAT.          Mean Sea Level:  PERMANENT DATUM
 FLD .                     ACG:  FIELD NAME
 SON .        AZ-XX-0907021034:  JOB NUMBER
 CTRY.              Azerbaijan:  COUNTRY NAME
 WELL.                    E01x:  WELL NAME
 COMP.     BP Exploration (Caspian Sea) LTD.:  COMPANY
 UWI .            /AZE00001403:  UNIQUE WELL IDENTIFIER
 API .            /AZE00001403:  API NUMBER
 WTYP.                Deviated:  WELL TYPE
 MDS .        Operator Entered:  MAG DATA SOURCE
 BASE.              Azerbaijan:  LOGGING EQUIPMENT BASE LOCATION
 REGN.                   EESSA:  REGION
 PROV.                    Baku:  PROVINCE
 STAT.                    Baku:  STATE NAME
 SRVC.          Turan Drilling:  CONTRACTOR
 MWDS.                    Baku:  MWD SHOP
 JOBN.        AZ-XX-0907021034:  JOB TICKET NUMB
 RIG .                     DWG:  RIG NAME
 DOE .                     N/A:  DOE NUMBER
 DCON.         Sperry Drilling:  DIRECTNL CONTR
 UNIT.                     N/A:  LOGGING EQUIPMENT ID
 CNTY.                        :  COUNTY
 LOC .                        :  LOCATION
 LMF .             Drill Floor:  LOG MEASURED FROM
 TVDS.m                  43.16:  TVDSS CORRECTN
 LATI.deg                40.17:  LATITUDE
 LONG.deg                51.17:  LONGITUDE
 WHNS.m                  -5.90:  WELL HEAD N/S
 WHEW.m                  -6.61:  WELL HEAD E/W
 UTMX.m              514337.95:  UTM X
 UTMY.m             4448627.46:  UTM Y
 DFWL.m                   0.00:  DISTANCE FWL
 DFSL.m                   0.00:  DISTANCE FSL
 SDEP.m                2606.87:  START DEPTH
 TDD .m                3618.01:  TOTAL DEPTH (DRILLER)
 VSDR.deg               177.42:  VERT SEC DIRECT
 GVFD.g                   1.00:  GRAVITY FIELD
 MFLD.nT              50399.00:  MAGNETIC FIELD
 MDIP.deg                59.67:  MAGNETIC DIP
 MDEC.deg                 6.56:  MAGNETIC DECL
 GRDC.deg                 0.11:  GRID CORRECTION
 AZTC.deg                 6.45:  AZM TOTAL CORR
 EPD .m                   0.00:  ELEVATION
 EGL .m                   0.00:  GROUND ELEVATION
 WDMS.m                 176.20:  WD ELEV
 APD .m                  43.16:  DEPTH ABOVE PD
 DEP .m                2606.87:  DEPTH
 AGAP.m                  43.16:  AIR GAP
 VSEW.m                  -6.61:  VERT SEC E/W
 VSNS.m                  -5.90:  VERT SEC N/S
 EKB .m                  43.16:  KB ELEVATION
 EDF .m                  43.16:  DF ELEVATION
 TDL .m                 438.00:  TOTAL DEPTH (LOGGER)
 VSC .                       0:  VS TO CLOSURE
 MAGU.                 1855490:  MAGUTM CHECKSUM
~Parameter Information Block
#MNEM.UNIT       Value        Description
#---------     -----------    ---------------------------
 AV  .mps                 2.20:  Ann Velocity 
 AVMX.mps                 2.50:  Max Ann Veloc 
 AZIF.deg               150.21:  Azm, Final 
 BHAT.        Rotary Steerable:  BHA Type 
 BROT.∞/30m               0.08:  Build Rotating 
 BS  .in                  6.50:  Bit Size 
 BSZ .in                  6.50:  Bit Size 
 BTPL.psig              108.00:  Bit Press Loss 
 CABU.                     Yes:  Customer Abuse 
 CGEO.           Emin Aliyarli:  Customer Geo 
 COMM.                     ‹Ïq:  Run Comments 1 
 TCS .hr                 74.20:  Time Ciculation Ended 
 CV  .mps                 3.63:  Crit Velocity 
 CVMX.mps                 3.66:  Max Crit Veloc 
 DD1 .         Intigam Rahimov:  Direct Drillr 1 
 DD2 .          Teymur Aghayev:  Direct Drillr 2 
 DDSV.               Geo-Pilot:  DD Service 
 DEFF.%                  97.00:  % Det Eff 
 DLRX.∞/30m               1.63:  Dogleg Rot Max 
 DLSO.∞/30m               0.00:  Dogleg Oriented 
 DLSX.∞/30m               0.00:  Dogleg Str Max 
 DRET.      20.20.00 28-Apr-21:  Drill End Time 
 DRST.      04.45.00 26-Apr-21:  Drill Start Tim 
 DTIM.hr                 34.30:  Time Drilling 
 EDEP.m                3618.01:  End Depth 
 ENG1.           Amrah Tahirov:  Engineer 1 
 ENG2.         Bahruz Mehdiyev:  Engineer 2 
 ENG3.         Farhad Orujzade:  Engineer 3 
 ETIM.      19.00.00 29-Apr-21:  End Time 
 FLOI.gpm               370.00:  Flow In 
 FLON.gpm               300.00:  Flow In Min 
 FLOS.cptm                0.00:  Fluid Loss 
 FLOX.gpm               410.00:  Flow In Max 
 HFLO.                      No:  High Flow 
 HPRE.                      No:  High Pressure 
 HTEM.                      No:  High Temp 
 HYDO.m                   1.80:  Hydro Offset 
 IFIN.deg                67.19:  Inc, Final 
 IMAX.deg                68.42:  Inc Max 
 IMIN.deg                66.33:  Inc Min 
 IMND.m                3532.79:  Inc Min Depth 
 IMXD.m                3192.15:  Inc Max Depth 
 JARR.                      No:  Jarring 
 LETM.      20.20.00 28-Apr-21:  Log End Time 
 LOST.hr                     0:  Lost Rig Time 
 LSTM.      04.45.00 26-Apr-21:  Log Start Time 
 MDCL.ppm             36500.00:  Mud Chlorides 
 MDES.     Inversion Oil/Synthetic:  Mud Desc 
 DFD .sg                  1.42:  Mud Density 
 MDMN.sg                  1.42:  Dens Mud Min 
 MDMX.sg                  1.42:  Dens Mud Max 
 MOIL.                    55.7:  Run Mud Oil % 
 MOWR.                   71:29:  Run Mud OWR 
 MSND.                     0.1:  Run Mud Sand % 
 MSOL.                    19.9:  Run Mud Solids% 
 DFV .spqt               83.00:  Mud Viscosity 
 MWOD.in                  5.15:  MWD Tool OD 
 MWSI.                      No:  Serv Intrp, MWD 
 OTIM.hr                120.59:  Time Operating 
 PCON.           Look Like New:  Pad Condition 
 PMAX.psia            11292.93:  Press Op, Max 
 PV  .cP                 27.00:  Mud PV 
 RUN .                     400:  Run Number 
 ROPA.m/hr               14.00:  ROP Avg 
 ROPN.m/hr                9.00:  ROP Min 
 ROPX.m/hr               18.00:  ROP Max 
 RPMA.rpm               130.00:  RPM Surface Avg 
 RPMN.rpm               100.00:  RPM Surface Min 
 RPMX.rpm               140.00:  RPM Surface Max 
 RRUN.                    0400:  Rig Run Number 
 RTIM.hr                 38.60:  Time Reaming 
 SAZI.deg               149.55:  Azm, Start 
 SDEP.m                3180.01:  Start Depth 
 SIDD.                      No:  Serv Intrp, DD 
 SINC.deg                68.42:  Inc, Start 
 SPPA.psig             4400.00:  SPP Avg 
 SPPN.psig             3580.00:  SPP Min 
 SPPX.psig             4850.00:  SPP Max 
 STIM.      12.30.00 24-Apr-21:  Start Time 
 SVCS.                 DD, MWD:  Services 
 SVER.                    9.20:  Sperry Version 
 TDAT.m                 438.00:  Tot Depth Attmp 
 TDDF.                      No:  Trip for DD 
 TDLG.m                 438.00:  Tot Depth Loggd 
 TFF .                      No:  Trip for Fail 
 TQAA.f-kp               11.00:  Torque Abs Avg 
 TQAN.f-kp                9.00:  Torque Abs Min 
 TQAX.f-kp               14.00:  Torque Abs Max 
 TRRT.∞/30m               0.04:  Turn Rotating 
 MRT .                    HCIM:  Maximum Recorded Temperature 
 TTMX.degC               84.31:  Max Tool Temp 
 VS01.                90521954:  Virtual Str1 SN 
 VS02.                90519327:  Virtual Str2 SN 
 VS03.                90522273:  Virtual Str3 SN 
 VS04.                11108038:  Virtual Str4 SN 
 VS05.                12258760:  Virtual Str5 SN 
 WBMN.klb                 1.00:  WOB Min 
 WITN.           Adil Mammadov:  Customer Rep 
 WITN.         Alex Yadullayev:  Customer Rep 2 
 WOBA.klb                 6.00:  WOB Avg 
 WOBX.klb                 9.00:  WOB Max 
 YP  .lhf2               31.00:  Yield Point 
~Curve Information Block
#MNEM.UNIT                 API CODE     Curve Description
#---------               -----------    ---------------------------
 TIME.HHMMSS            00 000 000 000:  GT Time & Date
 GTDEPTH.m              00 000 000 000:  GT Depth
 GTPQH.psia             00 000 000 000:  GT HR Quartz Pressure
 GTTQ.degC              00 000 000 000:  GT Quartz Temperature
 GTTN.NONE              00 000 000 000:  GT Test Number
 GTET.sec               00 000 000 000:  GT Elapsed Test Time
 GTTVD.m                00 000 000 000:  GT True Vertical Depth
#Other Information
#
#WARRANTY: Halliburton will use its best efforts to furnish customers with 
#accurate information and interpretations that are part of, and incident to, the services 
#provided.  However, Halliburton cannot and does not warrant the accuracy 
#or correctness of such information and interpretations.  Under no circumstances should any 
#such information or interpretation be relied upon as the sole basis for any drilling, 
#completion, production, or financial decision or any procedure involving any risk to the 
#safety of any drilling venture, drilling rig or its crew or any other third party.  The 
#Customer has full responsibility for all drilling, completion and production operation.  
#Halliburton makes no representations or warranties, either expressed or 
#implied, including, but not limited to, the implied warranties of merchantability or fitness 
#for a particular purpose, with respect to the services rendered.  In no event will 
#Halliburton be liable for failure to obtain any particular results or for 
#any damages, including, but not limited to, indirect, special or consequential damages, 
#resulting from the use of any information or interpretation provided by Halliburton.
#
~A           TIME           GTDEPTH  GTPQH  GTTQ  GTTN  GTET   GTTVD  
# ...
   13:10:58.446.28-Apr-2021 3524.51 4369.60 75.21 9.00 115.02 2768.78
   13:10:58.646.28-Apr-2021 3524.51 4369.60 75.21 9.00 115.22 2768.78
   13:10:58.846.28-Apr-2021 3524.51 4369.52 75.21 9.00 115.42 2768.78
   13:10:59.046.28-Apr-2021 3524.51 4369.63 75.21 9.00 115.62 2768.78
   13:10:59.246.28-Apr-2021 3524.51 4369.61 75.21 9.00 115.82 2768.78
   13:10:59.446.28-Apr-2021 3524.51 4369.56 75.21 9.00 116.02 2768.78
   13:10:59.646.28-Apr-2021 3524.51 4369.56 75.21 9.00 116.22 2768.78
   13:10:59.846.28-Apr-2021 3524.51 4369.56 75.21 9.00 116.42 2768.78
   13:11:00.046.28-Apr-2021 3524.51 4369.62 75.21 9.00 116.62 2768.78
   13:11:00.246.28-Apr-2021 3524.51 4369.57 75.21 9.00 116.82 2768.78
   13:11:00.446.28-Apr-2021 3524.51 4369.50 75.21 9.00 117.02 2768.78
   13:11:00.646.28-Apr-2021 3524.51 4369.50 75.21 9.00 117.22 2768.78
   13:11:00.846.28-Apr-2021 3524.51 4369.59 75.21 9.00 117.42 2768.78
   13:11:01.046.28-Apr-2021 3524.51 4369.62 75.21 9.00 117.62 2768.78
   13:11:01.246.28-Apr-2021 3524.51 4369.56 75.21 9.00 117.82 2768.78
   13:11:01.446.28-Apr-2021 3524.51 4369.53 75.21 9.00 118.02 2768.78
   13:11:01.646.28-Apr-2021 3524.51 4369.53 75.21 9.00 118.22 2768.78
   13:11:01.847.28-Apr-2021 3524.51 4369.59 75.21 9.00 118.42 2768.78
   13:11:02.047.28-Apr-2021 3524.51 4369.55 75.21 9.00 118.62 2768.78
   13:11:02.247.28-Apr-2021 3524.51 4369.53 75.20 9.00 118.82 2768.78
   13:11:02.447.28-Apr-2021 3524.51 4369.58 75.20 9.00 119.02 2768.78
   13:11:02.647.28-Apr-2021 3524.51 4369.58 75.20 9.00 119.22 2768.78
   13:11:02.847.28-Apr-2021 3524.51 4369.57 75.20 9.00 119.42 2768.78
   13:11:03.047.28-Apr-2021 3524.51 4369.56 75.20 9.00 119.62 2768.78
   13:11:03.247.28-Apr-2021 3524.51 4369.50 75.20 9.00 119.82 2768.78
   13:11:03.447.28-Apr-2021 3524.51 4369.45 75.20 9.00 120.02 2768.78
   13:11:03.647.28-Apr-2021 3524.51 4369.45 75.20 9.00 120.22 2768.78
   13:11:03.847.28-Apr-2021 3524.51 4369.61 75.20 9.00 120.42 2768.78
   13:11:04.047.28-Apr-2021 3524.51 4369.33 75.20 9.00 120.62 2768.78
   13:11:04.247.28-Apr-2021 3524.51 4369.64 75.20 9.00 120.82 2768.78
   13:11:04.447.28-Apr-2021 3524.51 4369.62 75.20 9.00 121.02 2768.78
   13:11:04.647.28-Apr-2021 3524.51 4369.62 75.20 9.00 121.22 2768.78
   13:11:04.847.28-Apr-2021 3524.51 4369.51 75.20 9.00 121.42 2768.78
   13:11:05.047.28-Apr-2021 3524.51 4369.38 75.20 9.00 121.62 2768.78
   13:11:05.247.28-Apr-2021 3524.51 4369.65 75.20 9.00 121.82 2768.78
   13:11:05.447.28-Apr-2021 3524.51 4369.62 75.20 9.00 122.02 2768.78
   13:11:05.647.28-Apr-2021 3524.51 4369.62 75.20 9.00 122.22 2768.78
   13:11:05.847.28-Apr-2021 3524.51 4369.48 75.20 9.00 122.42 2768.78
   13:11:06.047.28-Apr-2021 3524.51 4369.28 75.20 9.00 122.62 2768.78
   13:11:06.247.28-Apr-2021 3524.51 4369.76 75.19 9.00 122.82 2768.78
   13:11:06.447.28-Apr-2021 3524.51 4369.60 75.19 9.00 123.02 2768.78
   13:11:06.647.28-Apr-2021 3524.51 4369.60 75.19 9.00 123.22 2768.78
   13:11:06.847.28-Apr-2021 3524.51 4369.46 75.19 9.00 123.42 2768.78
   13:11:07.047.28-Apr-2021 3524.51 4369.61 75.19 9.00 123.62 2768.78
   13:11:07.247.28-Apr-2021 3524.51 4369.56 75.19 9.00 123.82 2768.78
   13:11:07.447.28-Apr-2021 3524.51 4369.56 75.19 9.00 124.02 2768.78
   13:11:07.647.28-Apr-2021 3524.51 4369.56 75.19 9.00 124.22 2768.78
   13:11:07.847.28-Apr-2021 3524.51 4369.49 75.19 9.00 124.42 2768.78
   13:11:08.048.28-Apr-2021 3524.51 4369.60 75.19 9.00 124.62 2768.78
   13:11:08.248.28-Apr-2021 3524.51 4369.52 75.19 9.00 124.82 2768.78
   13:11:08.448.28-Apr-2021 3524.51 4369.55 75.19 9.00 125.02 2768.78
   13:11:08.648.28-Apr-2021 3524.51 4369.55 75.19 9.00 125.22 2768.78
   13:11:08.848.28-Apr-2021 3524.51 4369.69 75.19 9.00 125.42 2768.78
   13:11:09.048.28-Apr-2021 3524.51 4369.59 75.19 9.00 125.62 2768.78
   13:11:09.248.28-Apr-2021 3524.51 4369.52 75.19 9.00 125.82 2768.78
   13:11:09.448.28-Apr-2021 3524.51 4369.51 75.19 9.00 126.02 2768.78
   13:11:09.648.28-Apr-2021 3524.51 4369.51 75.19 9.00 126.22 2768.78
   13:11:09.848.28-Apr-2021 3524.51 4369.59 75.19 9.00 126.42 2768.78
   13:11:10.048.28-Apr-2021 3524.51 4369.51 75.19 9.00 126.62 2768.78
   13:11:10.248.28-Apr-2021 3524.51 4369.53 75.19 9.00 126.82 2768.78
   13:11:10.448.28-Apr-2021 3524.51 4369.51 75.18 9.00 127.02 2768.78
   13:11:10.648.28-Apr-2021 3524.51 4369.51 75.18 9.00 127.22 2768.78
   13:11:10.848.28-Apr-2021 3524.51 4369.56 75.18 9.00 127.42 2768.78
   13:11:11.048.28-Apr-2021 3524.51 4369.49 75.18 9.00 127.62 2768.78
   13:11:11.248.28-Apr-2021 3524.51 4369.53 75.18 9.00 127.82 2768.78
   13:11:11.448.28-Apr-2021 3524.51 4369.27 75.18 9.00 128.02 2768.78
   13:11:11.648.28-Apr-2021 3524.51 4369.27 75.18 9.00 128.22 2768.78
   13:11:11.848.28-Apr-2021 3524.51 4369.56 75.18 9.00 128.42 2768.78
   13:11:12.048.28-Apr-2021 3524.51 4369.47 75.18 9.00 128.62 2768.78
   13:11:12.248.28-Apr-2021 3524.51 4369.38 75.18 9.00 128.82 2768.78
   13:11:12.448.28-Apr-2021 3524.51 4369.56 75.18 9.00 129.02 2768.78
   13:11:12.648.28-Apr-2021 3524.51 4369.56 75.18 9.00 129.22 2768.78
   13:11:12.848.28-Apr-2021 3524.51 4369.54 75.18 9.00 129.42 2768.78
   13:11:13.048.28-Apr-2021 3524.51 4369.24 75.18 9.00 129.62 2768.78
   13:11:13.248.28-Apr-2021 3524.51 4369.66 75.18 9.00 129.82 2768.78
   13:11:13.448.28-Apr-2021 3524.51 4369.56 75.18 9.00 130.02 2768.78
   13:11:13.648.28-Apr-2021 3524.51 4369.56 75.18 9.00 130.22 2768.78
   13:11:13.848.28-Apr-2021 3524.51 4360.51 75.18 9.00 130.42 2768.78
   13:11:14.048.28-Apr-2021 3524.51 4326.72 75.18 9.00 130.62 2768.78
   13:11:14.249.28-Apr-2021 3524.51 4327.12 75.18 9.00 130.82 2768.78
   13:11:14.449.28-Apr-2021 3524.51 4327.38 75.18 9.00 131.02 2768.78
   13:11:14.649.28-Apr-2021 3524.51 4327.38 75.18 9.00 131.22 2768.78
   13:11:14.849.28-Apr-2021 3524.51 4327.06 75.17 9.00 131.42 2768.78
   13:11:15.049.28-Apr-2021 3524.51 4326.67 75.17 9.00 131.62 2768.78
   13:11:15.249.28-Apr-2021 3524.51 4327.54 75.17 9.00 131.82 2768.78
   13:11:15.449.28-Apr-2021 3524.51 4327.38 75.17 9.00 132.02 2768.78
   13:11:15.649.28-Apr-2021 3524.51 4327.38 75.17 9.00 132.22 2768.78
   13:11:15.849.28-Apr-2021 3524.51 4326.48 75.17 9.00 132.42 2768.78
   13:11:16.049.28-Apr-2021 3524.51 4326.94 75.17 9.00 132.62 2768.78
   13:11:16.249.28-Apr-2021 3524.51 4327.24 75.17 9.00 132.82 2768.78
   13:11:16.449.28-Apr-2021 3524.51 4327.42 75.17 9.00 133.02 2768.78
   13:11:16.649.28-Apr-2021 3524.51 4327.42 75.17 9.00 133.22 2768.78
   13:11:16.849.28-Apr-2021 3524.51 4326.48 75.17 9.00 133.42 2768.78
   13:11:17.049.28-Apr-2021 3524.51 4327.15 75.17 9.00 133.62 2768.78
   13:11:17.249.28-Apr-2021 3524.51 4327.03 75.17 9.00 133.82 2768.78
   13:11:17.449.28-Apr-2021 3524.51 4327.30 75.17 9.00 134.02 2768.78
   13:11:17.649.28-Apr-2021 3524.51 4327.30 75.17 9.00 134.22 2768.78
   13:11:17.849.28-Apr-2021 3524.51 4327.22 75.17 9.00 134.42 2768.78
   13:11:18.049.28-Apr-2021 3524.51 4326.95 75.17 9.00 134.62 2768.78
   13:11:18.249.28-Apr-2021 3524.51 4326.99 75.17 9.00 134.82 2768.78
   13:11:18.449.28-Apr-2021 3524.51 4327.06 75.17 9.00 135.02 2768.78
   13:11:18.649.28-Apr-2021 3524.51 4327.06 75.17 9.00 135.22 2768.78
   13:11:18.849.28-Apr-2021 3524.51 4327.21 75.16 9.00 135.42 2768.78
   13:11:19.049.28-Apr-2021 3524.51 4327.06 75.16 9.00 135.62 2768.78
   13:11:19.249.28-Apr-2021 3524.51 4327.47 75.16 9.00 135.82 2768.78
   13:11:19.449.28-Apr-2021 3524.51 4326.95 75.16 9.00 136.02 2768.78
   13:11:19.649.28-Apr-2021 3524.51 4326.95 75.16 9.00 136.22 2768.78
   13:11:19.849.28-Apr-2021 3524.51 4327.80 75.16 9.00 136.42 2768.78
   13:11:20.049.28-Apr-2021 3524.51 4327.43 75.16 9.00 136.62 2768.78
   13:11:20.250.28-Apr-2021 3524.51 4326.87 75.16 9.00 136.82 2768.78
   13:11:20.450.28-Apr-2021 3524.51 4326.89 75.16 9.00 137.02 2768.78
   13:11:20.650.28-Apr-2021 3524.51 4326.89 75.16 9.00 137.22 2768.78
   13:11:20.850.28-Apr-2021 3524.51 4327.49 75.16 9.00 137.42 2768.78
   13:11:21.050.28-Apr-2021 3524.51 4327.63 75.16 9.00 137.62 2768.78
   13:11:21.250.28-Apr-2021 3524.51 4327.13 75.16 9.00 137.82 2768.78
