~Version Information
 VERS.                  2.0:   CWLS log ASCII Standard -VERSION 2.0
 WRAP.                   NO:   One line per depth step
~Well Information Block
#MNEM.UNIT     VALUE/NAME     DESCRIPTION
#---------     -----------    ---------------------------
 STRT.S             13:09:03 28-Apr-21: START TIME 13:09:03 28-Apr-21
 STOP.S             13:15:31 28-Apr-21: STOP TIME  13:15:31 28-Apr-21
 STEP.S                   0.00: STEP TIME
 NULL.                 -999.25: NULL VALUE
 DFWT.                        :  DIST FWL TEXT
 DFST.                        :  DIST FSL TEXT
 DMF .             Drill Floor:  DRILL MEAS FROM
 STIM.      02.00.00 12-Apr-21:  START TIME
 DATE.      02.00.00 02-May-21:  END TIME
 SPUD.               09-Apr-21:  SPUD DATE
 NREF.                    Grid:  NORTH REFERENCE
 HPTY.       Minimum Curvature:  HOLE POS TYPE
 DMOD.             Drill Model:  DRILL MOD DESC
 SVYD.                  Survey:  SURVEY DESC
 ILTD.               Lithology:  INTERP LTH DESC
 FTOP.          Formation Tops:  FORM TOPS DESC
 PDAT.          Mean Sea Level:  PERMANENT DATUM
 FLD .                     ACG:  FIELD NAME
 SON .        AZ-XX-0907021034:  JOB NUMBER
 CTRY.              Azerbaijan:  COUNTRY NAME
 WELL.                    E01x:  WELL NAME
 COMP.     BP Exploration (Caspian Sea) LTD.:  COMPANY
 UWI .            /AZE00001403:  UNIQUE WELL IDENTIFIER
 API .            /AZE00001403:  API NUMBER
 WTYP.                Deviated:  WELL TYPE
 MDS .        Operator Entered:  MAG DATA SOURCE
 BASE.              Azerbaijan:  LOGGING EQUIPMENT BASE LOCATION
 REGN.                   EESSA:  REGION
 PROV.                    Baku:  PROVINCE
 STAT.                    Baku:  STATE NAME
 SRVC.          Turan Drilling:  CONTRACTOR
 MWDS.                    Baku:  MWD SHOP
 JOBN.        AZ-XX-0907021034:  JOB TICKET NUMB
 RIG .                     DWG:  RIG NAME
 DOE .                     N/A:  DOE NUMBER
 DCON.         Sperry Drilling:  DIRECTNL CONTR
 UNIT.                     N/A:  LOGGING EQUIPMENT ID
 CNTY.                        :  COUNTY
 LOC .                        :  LOCATION
 LMF .             Drill Floor:  LOG MEASURED FROM
 TVDS.m                  43.16:  TVDSS CORRECTN
 LATI.deg                40.17:  LATITUDE
 LONG.deg                51.17:  LONGITUDE
 WHNS.m                  -5.90:  WELL HEAD N/S
 WHEW.m                  -6.61:  WELL HEAD E/W
 UTMX.m              514337.95:  UTM X
 UTMY.m             4448627.46:  UTM Y
 DFWL.m                   0.00:  DISTANCE FWL
 DFSL.m                   0.00:  DISTANCE FSL
 SDEP.m                2606.87:  START DEPTH
 TDD .m                3618.01:  TOTAL DEPTH (DRILLER)
 VSDR.deg               177.42:  VERT SEC DIRECT
 GVFD.g                   1.00:  GRAVITY FIELD
 MFLD.nT              50399.00:  MAGNETIC FIELD
 MDIP.deg                59.67:  MAGNETIC DIP
 MDEC.deg                 6.56:  MAGNETIC DECL
 GRDC.deg                 0.11:  GRID CORRECTION
 AZTC.deg                 6.45:  AZM TOTAL CORR
 EPD .m                   0.00:  ELEVATION
 EGL .m                   0.00:  GROUND ELEVATION
 WDMS.m                 176.20:  WD ELEV
 APD .m                  43.16:  DEPTH ABOVE PD
 DEP .m                2606.87:  DEPTH
 AGAP.m                  43.16:  AIR GAP
 VSEW.m                  -6.61:  VERT SEC E/W
 VSNS.m                  -5.90:  VERT SEC N/S
 EKB .m                  43.16:  KB ELEVATION
 EDF .m                  43.16:  DF ELEVATION
 TDL .m                 438.00:  TOTAL DEPTH (LOGGER)
 VSC .                       0:  VS TO CLOSURE
 MAGU.                 1855490:  MAGUTM CHECKSUM
~Parameter Information Block
#MNEM.UNIT       Value        Description
#---------     -----------    ---------------------------
 AV  .mps                 2.20:  Ann Velocity 
 AVMX.mps                 2.50:  Max Ann Veloc 
 AZIF.deg               150.21:  Azm, Final 
 BHAT.        Rotary Steerable:  BHA Type 
 BROT.∞/30m               0.08:  Build Rotating 
 BS  .in                  6.50:  Bit Size 
 BSZ .in                  6.50:  Bit Size 
 BTPL.psig              108.00:  Bit Press Loss 
 CABU.                     Yes:  Customer Abuse 
 CGEO.           Emin Aliyarli:  Customer Geo 
 COMM.                     ‹Ïq:  Run Comments 1 
 TCS .hr                 74.20:  Time Ciculation Ended 
 CV  .mps                 3.63:  Crit Velocity 
 CVMX.mps                 3.66:  Max Crit Veloc 
 DD1 .         Intigam Rahimov:  Direct Drillr 1 
 DD2 .          Teymur Aghayev:  Direct Drillr 2 
 DDSV.               Geo-Pilot:  DD Service 
 DEFF.%                  97.00:  % Det Eff 
 DLRX.∞/30m               1.63:  Dogleg Rot Max 
 DLSO.∞/30m               0.00:  Dogleg Oriented 
 DLSX.∞/30m               0.00:  Dogleg Str Max 
 DRET.      20.20.00 28-Apr-21:  Drill End Time 
 DRST.      04.45.00 26-Apr-21:  Drill Start Tim 
 DTIM.hr                 34.30:  Time Drilling 
 EDEP.m                3618.01:  End Depth 
 ENG1.           Amrah Tahirov:  Engineer 1 
 ENG2.         Bahruz Mehdiyev:  Engineer 2 
 ENG3.         Farhad Orujzade:  Engineer 3 
 ETIM.      19.00.00 29-Apr-21:  End Time 
 FLOI.gpm               370.00:  Flow In 
 FLON.gpm               300.00:  Flow In Min 
 FLOS.cptm                0.00:  Fluid Loss 
 FLOX.gpm               410.00:  Flow In Max 
 HFLO.                      No:  High Flow 
 HPRE.                      No:  High Pressure 
 HTEM.                      No:  High Temp 
 HYDO.m                   1.80:  Hydro Offset 
 IFIN.deg                67.19:  Inc, Final 
 IMAX.deg                68.42:  Inc Max 
 IMIN.deg                66.33:  Inc Min 
 IMND.m                3532.79:  Inc Min Depth 
 IMXD.m                3192.15:  Inc Max Depth 
 JARR.                      No:  Jarring 
 LETM.      20.20.00 28-Apr-21:  Log End Time 
 LOST.hr                     0:  Lost Rig Time 
 LSTM.      04.45.00 26-Apr-21:  Log Start Time 
 MDCL.ppm             36500.00:  Mud Chlorides 
 MDES.     Inversion Oil/Synthetic:  Mud Desc 
 DFD .sg                  1.42:  Mud Density 
 MDMN.sg                  1.42:  Dens Mud Min 
 MDMX.sg                  1.42:  Dens Mud Max 
 MOIL.                    55.7:  Run Mud Oil % 
 MOWR.                   71:29:  Run Mud OWR 
 MSND.                     0.1:  Run Mud Sand % 
 MSOL.                    19.9:  Run Mud Solids% 
 DFV .spqt               83.00:  Mud Viscosity 
 MWOD.in                  5.15:  MWD Tool OD 
 MWSI.                      No:  Serv Intrp, MWD 
 OTIM.hr                120.59:  Time Operating 
 PCON.           Look Like New:  Pad Condition 
 PMAX.psia            11292.93:  Press Op, Max 
 PV  .cP                 27.00:  Mud PV 
 RUN .                     400:  Run Number 
 ROPA.m/hr               14.00:  ROP Avg 
 ROPN.m/hr                9.00:  ROP Min 
 ROPX.m/hr               18.00:  ROP Max 
 RPMA.rpm               130.00:  RPM Surface Avg 
 RPMN.rpm               100.00:  RPM Surface Min 
 RPMX.rpm               140.00:  RPM Surface Max 
 RRUN.                    0400:  Rig Run Number 
 RTIM.hr                 38.60:  Time Reaming 
 SAZI.deg               149.55:  Azm, Start 
 SDEP.m                3180.01:  Start Depth 
 SIDD.                      No:  Serv Intrp, DD 
 SINC.deg                68.42:  Inc, Start 
 SPPA.psig             4400.00:  SPP Avg 
 SPPN.psig             3580.00:  SPP Min 
 SPPX.psig             4850.00:  SPP Max 
 STIM.      12.30.00 24-Apr-21:  Start Time 
 SVCS.                 DD, MWD:  Services 
 SVER.                    9.20:  Sperry Version 
 TDAT.m                 438.00:  Tot Depth Attmp 
 TDDF.                      No:  Trip for DD 
 TDLG.m                 438.00:  Tot Depth Loggd 
 TFF .                      No:  Trip for Fail 
 TQAA.f-kp               11.00:  Torque Abs Avg 
 TQAN.f-kp                9.00:  Torque Abs Min 
 TQAX.f-kp               14.00:  Torque Abs Max 
 TRRT.∞/30m               0.04:  Turn Rotating 
 MRT .                    HCIM:  Maximum Recorded Temperature 
 TTMX.degC               84.31:  Max Tool Temp 
 VS01.                90521954:  Virtual Str1 SN 
 VS02.                90519327:  Virtual Str2 SN 
 VS03.                90522273:  Virtual Str3 SN 
 VS04.                11108038:  Virtual Str4 SN 
 VS05.                12258760:  Virtual Str5 SN 
 WBMN.klb                 1.00:  WOB Min 
 WITN.           Adil Mammadov:  Customer Rep 
 WITN.         Alex Yadullayev:  Customer Rep 2 
 WOBA.klb                 6.00:  WOB Avg 
 WOBX.klb                 9.00:  WOB Max 
 YP  .lhf2               31.00:  Yield Point 
~Curve Information Block
#MNEM.UNIT                 API CODE     Curve Description
#---------               -----------    ---------------------------
 TIME.HHMMSS            00 000 000 000:  GT Time & Date
 GTDEPTH.m              00 000 000 000:  GT Depth
 GTPQH.psia             00 000 000 000:  GT HR Quartz Pressure
 GTTQ.degC              00 000 000 000:  GT Quartz Temperature
 GTTN.NONE              00 000 000 000:  GT Test Number
 GTET.sec               00 000 000 000:  GT Elapsed Test Time
 GTTVD.m                00 000 000 000:  GT True Vertical Depth
#Other Information
#
#WARRANTY: Halliburton will use its best efforts to furnish customers with 
#accurate information and interpretations that are part of, and incident to, the services 
#provided.  However, Halliburton cannot and does not warrant the accuracy 
#or correctness of such information and interpretations.  Under no circumstances should any 
#such information or interpretation be relied upon as the sole basis for any drilling, 
#completion, production, or financial decision or any procedure involving any risk to the 
#safety of any drilling venture, drilling rig or its crew or any other third party.  The 
#Customer has full responsibility for all drilling, completion and production operation.  
#Halliburton makes no representations or warranties, either expressed or 
#implied, including, but not limited to, the implied warranties of merchantability or fitness 
#for a particular purpose, with respect to the services rendered.  In no event will 
#Halliburton be liable for failure to obtain any particular results or for 
#any damages, including, but not limited to, indirect, special or consequential damages, 
#resulting from the use of any information or interpretation provided by Halliburton.
#
~A           TIME           GTDEPTH  GTPQH  GTTQ  GTTN  GTET   GTTVD  
# ...
   13:14:25.480.28-Apr-2021 3524.51 4369.16 74.74 9.00 322.05 2768.78
   13:14:25.680.28-Apr-2021 3524.51 4369.16 74.74 9.00 322.25 2768.78
   13:14:25.880.28-Apr-2021 3524.51 4369.13 74.74 9.00 322.45 2768.78
   13:14:26.080.28-Apr-2021 3524.51 4369.10 74.74 9.00 322.65 2768.78
   13:14:26.280.28-Apr-2021 3524.51 4369.14 74.74 9.00 322.85 2768.78
   13:14:26.480.28-Apr-2021 3524.51 4369.13 74.74 9.00 323.05 2768.78
   13:14:26.680.28-Apr-2021 3524.51 4369.13 74.74 9.00 323.25 2768.78
   13:14:26.880.28-Apr-2021 3524.51 4369.10 74.74 9.00 323.45 2768.78
   13:14:27.080.28-Apr-2021 3524.51 4368.78 74.73 9.00 323.65 2768.78
   13:14:27.280.28-Apr-2021 3524.51 4369.33 74.73 9.00 323.85 2768.78
   13:14:27.480.28-Apr-2021 3524.51 4369.22 74.73 9.00 324.05 2768.78
   13:14:27.680.28-Apr-2021 3524.51 4369.22 74.73 9.00 324.25 2768.78
   13:14:27.880.28-Apr-2021 3524.51 4369.04 74.73 9.00 324.45 2768.78
   13:14:28.080.28-Apr-2021 3524.51 4369.21 74.73 9.00 324.65 2768.78
   13:14:28.280.28-Apr-2021 3524.51 4369.22 74.73 9.00 324.85 2768.78
   13:14:28.480.28-Apr-2021 3524.51 4369.17 74.73 9.00 325.05 2768.78
   13:14:28.680.28-Apr-2021 3524.51 4369.17 74.73 9.00 325.25 2768.78
   13:14:28.880.28-Apr-2021 3524.51 4369.35 74.73 9.00 325.45 2768.78
   13:14:29.080.28-Apr-2021 3524.51 4369.25 74.73 9.00 325.65 2768.78
   13:14:29.280.28-Apr-2021 3524.51 4369.17 74.73 9.00 325.85 2768.78
   13:14:29.480.28-Apr-2021 3524.51 4369.13 74.73 9.00 326.05 2768.78
   13:14:29.680.28-Apr-2021 3524.51 4369.13 74.73 9.00 326.25 2768.78
   13:14:29.880.28-Apr-2021 3524.51 4369.26 74.73 9.00 326.45 2768.78
   13:14:30.080.28-Apr-2021 3524.51 4369.21 74.73 9.00 326.65 2768.78
   13:14:30.280.28-Apr-2021 3524.51 4369.16 74.73 9.00 326.85 2768.78
   13:14:30.480.28-Apr-2021 3524.51 4369.13 74.73 9.00 327.05 2768.78
   13:14:30.680.28-Apr-2021 3524.51 4369.13 74.73 9.00 327.25 2768.78
   13:14:30.880.28-Apr-2021 3524.51 4369.19 74.73 9.00 327.45 2768.78
   13:14:31.080.28-Apr-2021 3524.51 4369.16 74.73 9.00 327.65 2768.78
   13:14:31.280.28-Apr-2021 3524.51 4369.14 74.73 9.00 327.85 2768.78
   13:14:31.481.28-Apr-2021 3524.51 4369.10 74.72 9.00 328.05 2768.78
   13:14:31.681.28-Apr-2021 3524.51 4369.10 74.72 9.00 328.25 2768.78
   13:14:31.881.28-Apr-2021 3524.51 4369.14 74.72 9.00 328.45 2768.78
   13:14:32.081.28-Apr-2021 3524.51 4369.12 74.72 9.00 328.65 2768.78
   13:14:32.281.28-Apr-2021 3524.51 4368.95 74.72 9.00 328.85 2768.78
   13:14:32.481.28-Apr-2021 3524.51 4369.15 74.72 9.00 329.05 2768.78
   13:14:32.681.28-Apr-2021 3524.51 4369.15 74.72 9.00 329.25 2768.78
   13:14:32.881.28-Apr-2021 3524.51 4369.15 74.72 9.00 329.45 2768.78
   13:14:33.081.28-Apr-2021 3524.51 4369.14 74.72 9.00 329.65 2768.78
   13:14:33.281.28-Apr-2021 3524.51 4369.09 74.72 9.00 329.85 2768.78
   13:14:33.481.28-Apr-2021 3524.51 4369.14 74.72 9.00 330.05 2768.78
   13:14:33.681.28-Apr-2021 3524.51 4369.14 74.72 9.00 330.25 2768.78
   13:14:33.881.28-Apr-2021 3524.51 4369.10 74.72 9.00 330.45 2768.78
   13:14:34.081.28-Apr-2021 3524.51 4369.11 74.72 9.00 330.65 2768.78
   13:14:34.281.28-Apr-2021 3524.51 4369.11 74.72 9.00 330.85 2768.78
   13:14:34.481.28-Apr-2021 3524.51 4369.12 74.72 9.00 331.05 2768.78
   13:14:34.681.28-Apr-2021 3524.51 4369.12 74.72 9.00 331.25 2768.78
   13:14:34.881.28-Apr-2021 3524.51 4369.09 74.72 9.00 331.45 2768.78
   13:14:35.081.28-Apr-2021 3524.51 4368.98 74.72 9.00 331.65 2768.78
   13:14:35.281.28-Apr-2021 3524.51 4369.10 74.72 9.00 331.85 2768.78
   13:14:35.481.28-Apr-2021 3524.51 4369.19 74.72 9.00 332.05 2768.78
   13:14:35.681.28-Apr-2021 3524.51 4369.19 74.72 9.00 332.25 2768.78
   13:14:35.881.28-Apr-2021 3524.51 4368.83 74.72 9.00 332.45 2768.78
   13:14:36.081.28-Apr-2021 3524.51 4369.28 74.71 9.00 332.65 2768.78
   13:14:36.281.28-Apr-2021 3524.51 4369.24 74.71 9.00 332.85 2768.78
   13:14:36.481.28-Apr-2021 3524.51 4369.16 74.71 9.00 333.05 2768.78
   13:14:36.681.28-Apr-2021 3524.51 4369.16 74.71 9.00 333.25 2768.78
   13:14:36.881.28-Apr-2021 3524.51 4369.12 74.71 9.00 333.45 2768.78
   13:14:37.081.28-Apr-2021 3524.51 4369.19 74.71 9.00 333.65 2768.78
   13:14:37.281.28-Apr-2021 3524.51 4369.21 74.71 9.00 333.85 2768.78
   13:14:37.481.28-Apr-2021 3524.51 4369.18 74.71 9.00 334.05 2768.78
   13:14:37.682.28-Apr-2021 3524.51 4369.18 74.71 9.00 334.25 2768.78
   13:14:37.882.28-Apr-2021 3524.51 4368.93 74.71 9.00 334.45 2768.78
   13:14:38.082.28-Apr-2021 3524.51 4369.30 74.71 9.00 334.65 2768.78
   13:14:38.282.28-Apr-2021 3524.51 4369.22 74.71 9.00 334.85 2768.78
   13:14:38.482.28-Apr-2021 3524.51 4369.14 74.71 9.00 335.05 2768.78
   13:14:38.682.28-Apr-2021 3524.51 4369.14 74.71 9.00 335.25 2768.78
   13:14:38.882.28-Apr-2021 3524.51 4369.20 74.71 9.00 335.45 2768.78
   13:14:39.082.28-Apr-2021 3524.51 4369.15 74.71 9.00 335.65 2768.78
   13:14:39.282.28-Apr-2021 3524.51 4369.15 74.71 9.00 335.85 2768.78
   13:14:39.482.28-Apr-2021 3524.51 4369.10 74.71 9.00 336.05 2768.78
   13:14:39.682.28-Apr-2021 3524.51 4369.10 74.71 9.00 336.25 2768.78
   13:14:39.882.28-Apr-2021 3524.51 4369.15 74.71 9.00 336.45 2768.78
   13:14:40.082.28-Apr-2021 3524.51 4369.13 74.71 9.00 336.65 2768.78
   13:14:40.282.28-Apr-2021 3524.51 4369.11 74.70 9.00 336.85 2768.78
   13:14:40.482.28-Apr-2021 3524.51 4368.77 74.70 9.00 337.05 2768.78
   13:14:40.682.28-Apr-2021 3524.51 4368.77 74.70 9.00 337.25 2768.78
   13:14:40.882.28-Apr-2021 3524.51 4369.22 74.70 9.00 337.45 2768.78
   13:14:41.082.28-Apr-2021 3524.51 4369.14 74.70 9.00 337.65 2768.78
   13:14:41.282.28-Apr-2021 3524.51 4369.08 74.70 9.00 337.85 2768.78
   13:14:41.482.28-Apr-2021 3524.51 4369.14 74.70 9.00 338.05 2768.78
   13:14:41.682.28-Apr-2021 3524.51 4369.14 74.70 9.00 338.25 2768.78
   13:14:41.882.28-Apr-2021 3524.51 4369.11 74.70 9.00 338.45 2768.78
   13:14:42.082.28-Apr-2021 3524.51 4369.11 74.70 9.00 338.65 2768.78
   13:14:42.282.28-Apr-2021 3524.51 4369.09 74.70 9.00 338.85 2768.78
   13:14:42.482.28-Apr-2021 3524.51 4369.13 74.70 9.00 339.05 2768.78
   13:14:42.682.28-Apr-2021 3524.51 4369.13 74.70 9.00 339.26 2768.78
   13:14:42.882.28-Apr-2021 3524.51 4369.10 74.70 9.00 339.46 2768.78
   13:14:43.082.28-Apr-2021 3524.51 4369.07 74.70 9.00 339.66 2768.78
   13:14:43.282.28-Apr-2021 3524.51 4368.78 74.70 9.00 339.86 2768.78
   13:14:43.482.28-Apr-2021 3524.51 4369.33 74.70 9.00 340.06 2768.78
   13:14:43.682.28-Apr-2021 3524.51 4369.33 74.70 9.00 340.26 2768.78
   13:14:43.883.28-Apr-2021 3524.51 4369.01 74.70 9.00 340.46 2768.78
   13:14:44.083.28-Apr-2021 3524.51 4369.06 74.70 9.00 340.66 2768.78
   13:14:44.283.28-Apr-2021 3524.51 4369.21 74.70 9.00 340.86 2768.78
   13:14:44.483.28-Apr-2021 3524.51 4369.20 74.70 9.00 341.06 2768.78
   13:14:44.683.28-Apr-2021 3524.51 4369.20 74.70 9.00 341.26 2768.78
   13:14:44.883.28-Apr-2021 3524.51 4368.76 74.69 9.00 341.46 2768.78
   13:14:45.083.28-Apr-2021 3524.51 4369.33 74.69 9.00 341.66 2768.78
   13:14:45.283.28-Apr-2021 3524.51 4369.25 74.69 9.00 341.86 2768.78
   13:14:45.483.28-Apr-2021 3524.51 4369.16 74.69 9.00 342.06 2768.78
   13:14:45.683.28-Apr-2021 3524.51 4369.16 74.69 9.00 342.26 2768.78
   13:14:45.883.28-Apr-2021 3524.51 4368.96 74.69 9.00 342.46 2768.78
   13:14:46.083.28-Apr-2021 3524.51 4369.25 74.69 9.00 342.66 2768.78
   13:14:46.283.28-Apr-2021 3524.51 4369.19 74.69 9.00 342.86 2768.78
   13:14:46.483.28-Apr-2021 3524.51 4369.15 74.69 9.00 343.06 2768.78
   13:14:46.683.28-Apr-2021 3524.51 4369.15 74.69 9.00 343.26 2768.78
   13:14:46.883.28-Apr-2021 3524.51 4369.11 74.69 9.00 343.46 2768.78
   13:14:47.083.28-Apr-2021 3524.51 4369.17 74.69 9.00 343.66 2768.78
   13:14:47.283.28-Apr-2021 3524.51 4369.15 74.69 9.00 343.86 2768.78
   13:14:47.483.28-Apr-2021 3524.51 4369.12 74.69 9.00 344.06 2768.78
   13:14:47.683.28-Apr-2021 3524.51 4369.12 74.69 9.00 344.26 2768.78
   13:14:47.883.28-Apr-2021 3524.51 4370.43 74.69 9.00 344.46 2768.78
   13:14:48.083.28-Apr-2021 3524.51 4392.75 74.69 9.00 344.66 2768.78
   13:14:48.283.28-Apr-2021 3524.51 4687.14 74.69 9.00 344.86 2768.78
