~Version Information
 VERS.                  2.0:   CWLS log ASCII Standard -VERSION 2.0
 WRAP.                   NO:   One line per depth step
~Well Information Block
#MNEM.UNIT     VALUE/NAME     DESCRIPTION
#---------     -----------    ---------------------------
 STRT.S             06:42:00 27-Apr-21: START TIME 06:42:00 27-Apr-21
 STOP.S             06:48:27 27-Apr-21: STOP TIME  06:48:27 27-Apr-21
 STEP.S                   0.00: STEP TIME
 NULL.                 -999.25: NULL VALUE
 DFWT.                        :  DIST FWL TEXT
 DFST.                        :  DIST FSL TEXT
 DMF .             Drill Floor:  DRILL MEAS FROM
 STIM.      02.00.00 12-Apr-21:  START TIME
 DATE.      02.00.00 02-May-21:  END TIME
 SPUD.               09-Apr-21:  SPUD DATE
 NREF.                    Grid:  NORTH REFERENCE
 HPTY.       Minimum Curvature:  HOLE POS TYPE
 DMOD.             Drill Model:  DRILL MOD DESC
 SVYD.                  Survey:  SURVEY DESC
 ILTD.               Lithology:  INTERP LTH DESC
 FTOP.          Formation Tops:  FORM TOPS DESC
 PDAT.          Mean Sea Level:  PERMANENT DATUM
 FLD .                     ACG:  FIELD NAME
 SON .        AZ-XX-0907021034:  JOB NUMBER
 CTRY.              Azerbaijan:  COUNTRY NAME
 WELL.                    E01x:  WELL NAME
 COMP.     BP Exploration (Caspian Sea) LTD.:  COMPANY
 UWI .            /AZE00001403:  UNIQUE WELL IDENTIFIER
 API .            /AZE00001403:  API NUMBER
 WTYP.                Deviated:  WELL TYPE
 MDS .        Operator Entered:  MAG DATA SOURCE
 BASE.              Azerbaijan:  LOGGING EQUIPMENT BASE LOCATION
 REGN.                   EESSA:  REGION
 PROV.                    Baku:  PROVINCE
 STAT.                    Baku:  STATE NAME
 SRVC.          Turan Drilling:  CONTRACTOR
 MWDS.                    Baku:  MWD SHOP
 JOBN.        AZ-XX-0907021034:  JOB TICKET NUMB
 RIG .                     DWG:  RIG NAME
 DOE .                     N/A:  DOE NUMBER
 DCON.         Sperry Drilling:  DIRECTNL CONTR
 UNIT.                     N/A:  LOGGING EQUIPMENT ID
 CNTY.                        :  COUNTY
 LOC .                        :  LOCATION
 LMF .             Drill Floor:  LOG MEASURED FROM
 TVDS.m                  43.16:  TVDSS CORRECTN
 LATI.deg                40.17:  LATITUDE
 LONG.deg                51.17:  LONGITUDE
 WHNS.m                  -5.90:  WELL HEAD N/S
 WHEW.m                  -6.61:  WELL HEAD E/W
 UTMX.m              514337.95:  UTM X
 UTMY.m             4448627.46:  UTM Y
 DFWL.m                   0.00:  DISTANCE FWL
 DFSL.m                   0.00:  DISTANCE FSL
 SDEP.m                2606.87:  START DEPTH
 TDD .m                3618.01:  TOTAL DEPTH (DRILLER)
 VSDR.deg               177.42:  VERT SEC DIRECT
 GVFD.g                   1.00:  GRAVITY FIELD
 MFLD.nT              50399.00:  MAGNETIC FIELD
 MDIP.deg                59.67:  MAGNETIC DIP
 MDEC.deg                 6.56:  MAGNETIC DECL
 GRDC.deg                 0.11:  GRID CORRECTION
 AZTC.deg                 6.45:  AZM TOTAL CORR
 EPD .m                   0.00:  ELEVATION
 EGL .m                   0.00:  GROUND ELEVATION
 WDMS.m                 176.20:  WD ELEV
 APD .m                  43.16:  DEPTH ABOVE PD
 DEP .m                2606.87:  DEPTH
 AGAP.m                  43.16:  AIR GAP
 VSEW.m                  -6.61:  VERT SEC E/W
 VSNS.m                  -5.90:  VERT SEC N/S
 EKB .m                  43.16:  KB ELEVATION
 EDF .m                  43.16:  DF ELEVATION
 TDL .m                 438.00:  TOTAL DEPTH (LOGGER)
 VSC .                       0:  VS TO CLOSURE
 MAGU.                 1855490:  MAGUTM CHECKSUM
~Parameter Information Block
#MNEM.UNIT       Value        Description
#---------     -----------    ---------------------------
 AV  .mps                 2.20:  Ann Velocity 
 AVMX.mps                 2.50:  Max Ann Veloc 
 AZIF.deg               150.21:  Azm, Final 
 BHAT.        Rotary Steerable:  BHA Type 
 BROT.°/30m               0.08:  Build Rotating 
 BS  .in                  6.50:  Bit Size 
 BSZ .in                  6.50:  Bit Size 
 BTPL.psig              108.00:  Bit Press Loss 
 CABU.                     Yes:  Customer Abuse 
 CGEO.           Emin Aliyarli:  Customer Geo 
 COMM.                     )M:  Run Comments 1 
 TCS .hr                 74.20:  Time Ciculation Ended 
 CV  .mps                 3.63:  Crit Velocity 
 CVMX.mps                 3.66:  Max Crit Veloc 
 DD1 .         Intigam Rahimov:  Direct Drillr 1 
 DD2 .          Teymur Aghayev:  Direct Drillr 2 
 DDSV.               Geo-Pilot:  DD Service 
 DEFF.%                  97.00:  % Det Eff 
 DLRX.°/30m               1.63:  Dogleg Rot Max 
 DLSO.°/30m               0.00:  Dogleg Oriented 
 DLSX.°/30m               0.00:  Dogleg Str Max 
 DRET.      20.20.00 28-Apr-21:  Drill End Time 
 DRST.      04.45.00 26-Apr-21:  Drill Start Tim 
 DTIM.hr                 34.30:  Time Drilling 
 EDEP.m                3618.01:  End Depth 
 ENG1.           Amrah Tahirov:  Engineer 1 
 ENG2.         Bahruz Mehdiyev:  Engineer 2 
 ENG3.         Farhad Orujzade:  Engineer 3 
 ETIM.      19.00.00 29-Apr-21:  End Time 
 FLOI.gpm               370.00:  Flow In 
 FLON.gpm               300.00:  Flow In Min 
 FLOS.cptm                0.00:  Fluid Loss 
 FLOX.gpm               410.00:  Flow In Max 
 HFLO.                      No:  High Flow 
 HPRE.                      No:  High Pressure 
 HTEM.                      No:  High Temp 
 HYDO.m                   1.80:  Hydro Offset 
 IFIN.deg                67.19:  Inc, Final 
 IMAX.deg                68.42:  Inc Max 
 IMIN.deg                66.33:  Inc Min 
 IMND.m                3532.79:  Inc Min Depth 
 IMXD.m                3192.15:  Inc Max Depth 
 JARR.                      No:  Jarring 
 LETM.      20.20.00 28-Apr-21:  Log End Time 
 LOST.hr                     0:  Lost Rig Time 
 LSTM.      04.45.00 26-Apr-21:  Log Start Time 
 MDCL.ppm             36500.00:  Mud Chlorides 
 MDES.     Inversion Oil/Synthetic:  Mud Desc 
 DFD .sg                  1.42:  Mud Density 
 MDMN.sg                  1.42:  Dens Mud Min 
 MDMX.sg                  1.42:  Dens Mud Max 
 MOIL.                    55.7:  Run Mud Oil % 
 MOWR.                   71:29:  Run Mud OWR 
 MSND.                     0.1:  Run Mud Sand % 
 MSOL.                    19.9:  Run Mud Solids% 
 DFV .spqt               83.00:  Mud Viscosity 
 MWOD.in                  5.15:  MWD Tool OD 
 MWSI.                      No:  Serv Intrp, MWD 
 OTIM.hr                120.59:  Time Operating 
 PCON.           Look Like New:  Pad Condition 
 PMAX.psia            11292.93:  Press Op, Max 
 PV  .cP                 27.00:  Mud PV 
 RUN .                     400:  Run Number 
 ROPA.m/hr               14.00:  ROP Avg 
 ROPN.m/hr                9.00:  ROP Min 
 ROPX.m/hr               18.00:  ROP Max 
 RPMA.rpm               130.00:  RPM Surface Avg 
 RPMN.rpm               100.00:  RPM Surface Min 
 RPMX.rpm               140.00:  RPM Surface Max 
 RRUN.                    0400:  Rig Run Number 
 RTIM.hr                 38.60:  Time Reaming 
 SAZI.deg               149.55:  Azm, Start 
 SDEP.m                3180.01:  Start Depth 
 SIDD.                      No:  Serv Intrp, DD 
 SINC.deg                68.42:  Inc, Start 
 SPPA.psig             4400.00:  SPP Avg 
 SPPN.psig             3580.00:  SPP Min 
 SPPX.psig             4850.00:  SPP Max 
 STIM.      12.30.00 24-Apr-21:  Start Time 
 SVCS.                 DD, MWD:  Services 
 SVER.                    9.20:  Sperry Version 
 TDAT.m                 438.00:  Tot Depth Attmp 
 TDDF.                      No:  Trip for DD 
 TDLG.m                 438.00:  Tot Depth Loggd 
 TFF .                      No:  Trip for Fail 
 TQAA.f-kp               11.00:  Torque Abs Avg 
 TQAN.f-kp                9.00:  Torque Abs Min 
 TQAX.f-kp               14.00:  Torque Abs Max 
 TRRT.°/30m               0.04:  Turn Rotating 
 MRT .                    HCIM:  Maximum Recorded Temperature 
 TTMX.degC               84.31:  Max Tool Temp 
 VS01.                90521954:  Virtual Str1 SN 
 VS02.                90519327:  Virtual Str2 SN 
 VS03.                90522273:  Virtual Str3 SN 
 VS04.                11108038:  Virtual Str4 SN 
 VS05.                12258760:  Virtual Str5 SN 
 WBMN.klb                 1.00:  WOB Min 
 WITN.           Adil Mammadov:  Customer Rep 
 WITN.         Alex Yadullayev:  Customer Rep 2 
 WOBA.klb                 6.00:  WOB Avg 
 WOBX.klb                 9.00:  WOB Max 
 YP  .lhf2               31.00:  Yield Point 
~Curve Information Block
#MNEM.UNIT                 API CODE     Curve Description
#---------               -----------    ---------------------------
 TIME.HHMMSS            00 000 000 000:  GT Time & Date
 GTDEPTH.m              00 000 000 000:  GT Depth
 GTPQH.psia             00 000 000 000:  GT HR Quartz Pressure
 GTTQ.degC              00 000 000 000:  GT Quartz Temperature
 GTTN.NONE              00 000 000 000:  GT Test Number
 GTET.sec               00 000 000 000:  GT Elapsed Test Time
 GTTVD.m                00 000 000 000:  GT True Vertical Depth
#Other Information
#
#WARRANTY: Halliburton will use its best efforts to furnish customers with 
#accurate information and interpretations that are part of, and incident to, the services 
#provided.  However, Halliburton cannot and does not warrant the accuracy 
#or correctness of such information and interpretations.  Under no circumstances should any 
#such information or interpretation be relied upon as the sole basis for any drilling, 
#completion, production, or financial decision or any procedure involving any risk to the 
#safety of any drilling venture, drilling rig or its crew or any other third party.  The 
#Customer has full responsibility for all drilling, completion and production operation.  
#Halliburton makes no representations or warranties, either expressed or 
#implied, including, but not limited to, the implied warranties of merchantability or fitness 
#for a particular purpose, with respect to the services rendered.  In no event will 
#Halliburton be liable for failure to obtain any particular results or for 
#any damages, including, but not limited to, indirect, special or consequential damages, 
#resulting from the use of any information or interpretation provided by Halliburton.
#
~A           TIME           GTDEPTH  GTPQH  GTTQ  GTTN  GTET   GTTVD  
# ...
   06:47:45.886.27-Apr-2021 3278.01 5857.76 73.44 4.00 345.03 2671.88
   06:47:46.086.27-Apr-2021 3278.01 5857.76 73.44 4.00 345.23 2671.88
   06:47:46.286.27-Apr-2021 3278.01 5847.35 73.44 4.00 345.43 2671.88
   06:47:46.486.27-Apr-2021 3278.01 5856.66 73.44 4.00 345.63 2671.88
   06:47:46.686.27-Apr-2021 3278.01 5857.35 73.44 4.00 345.83 2671.88
   06:47:46.886.27-Apr-2021 3278.01 5857.17 73.44 4.00 346.03 2671.88
   06:47:47.086.27-Apr-2021 3278.01 5857.17 73.44 4.00 346.23 2671.88
   06:47:47.286.27-Apr-2021 3278.01 5857.91 73.44 4.00 346.43 2671.88
   06:47:47.486.27-Apr-2021 3278.01 5858.10 73.44 4.00 346.63 2671.88
   06:47:47.686.27-Apr-2021 3278.01 5860.02 73.44 4.00 346.83 2671.88
   06:47:47.886.27-Apr-2021 3278.01 5863.86 73.44 4.00 347.03 2671.88
   06:47:48.086.27-Apr-2021 3278.01 5863.86 73.44 4.00 347.23 2671.88
   06:47:48.286.27-Apr-2021 3278.01 5863.86 73.44 4.00 347.43 2671.88
   06:47:48.487.27-Apr-2021 3278.01 5862.55 73.44 4.00 347.63 2671.88
   06:47:48.687.27-Apr-2021 3278.01 5865.73 73.44 4.00 347.83 2671.88
   06:47:48.887.27-Apr-2021 3278.01 5863.97 73.44 4.00 348.03 2671.88
   06:47:49.087.27-Apr-2021 3278.01 5863.97 73.44 4.00 348.23 2671.88
   06:47:49.287.27-Apr-2021 3278.01 5861.15 73.44 4.00 348.43 2671.88
   06:47:49.487.27-Apr-2021 3278.01 5860.51 73.44 4.00 348.63 2671.88
   06:47:49.687.27-Apr-2021 3278.01 5860.03 73.44 4.00 348.83 2671.88
   06:47:49.887.27-Apr-2021 3278.01 5851.44 73.44 4.00 349.03 2671.88
   06:47:50.087.27-Apr-2021 3278.01 5851.44 73.44 4.00 349.23 2671.88
   06:47:50.287.27-Apr-2021 3278.01 5860.64 73.44 4.00 349.43 2671.88
   06:47:50.487.27-Apr-2021 3278.01 5859.42 73.44 4.00 349.63 2671.88
   06:47:50.687.27-Apr-2021 3278.01 5864.84 73.44 4.00 349.83 2671.88
   06:47:50.887.27-Apr-2021 3278.01 5854.97 73.44 4.00 350.03 2671.88
   06:47:51.087.27-Apr-2021 3278.01 5854.97 73.44 4.00 350.23 2671.88
   06:47:51.287.27-Apr-2021 3278.01 5861.98 73.44 4.00 350.43 2671.88
   06:47:51.487.27-Apr-2021 3278.01 5865.04 73.44 4.00 350.63 2671.88
   06:47:51.687.27-Apr-2021 3278.01 5861.45 73.44 4.00 350.83 2671.88
   06:47:51.887.27-Apr-2021 3278.01 5856.22 73.44 4.00 351.03 2671.88
   06:47:52.087.27-Apr-2021 3278.01 5856.22 73.44 4.00 351.23 2671.88
   06:47:52.287.27-Apr-2021 3278.01 5862.89 73.44 4.00 351.43 2671.88
   06:47:52.487.27-Apr-2021 3278.01 5862.24 73.44 4.00 351.63 2671.88
   06:47:52.687.27-Apr-2021 3278.01 5862.33 73.44 4.00 351.83 2671.88
   06:47:52.887.27-Apr-2021 3278.01 5862.18 73.44 4.00 352.03 2671.88
   06:47:53.087.27-Apr-2021 3278.01 5862.18 73.44 4.00 352.23 2671.88
   06:47:53.287.27-Apr-2021 3278.01 5864.78 73.44 4.00 352.43 2671.88
   06:47:53.487.27-Apr-2021 3278.01 5864.84 73.44 4.00 352.63 2671.88
   06:47:53.687.27-Apr-2021 3278.01 5865.62 73.44 4.00 352.83 2671.88
   06:47:53.887.27-Apr-2021 3278.01 5863.50 73.44 4.00 353.03 2671.88
   06:47:54.087.27-Apr-2021 3278.01 5863.50 73.44 4.00 353.23 2671.88
   06:47:54.287.27-Apr-2021 3278.01 5862.89 73.44 4.00 353.43 2671.88
   06:47:54.487.27-Apr-2021 3278.01 5852.33 73.44 4.00 353.63 2671.88
   06:47:54.687.27-Apr-2021 3278.01 5857.19 73.44 4.00 353.83 2671.88
   06:47:54.887.27-Apr-2021 3278.01 5861.10 73.44 4.00 354.03 2671.88
   06:47:55.087.27-Apr-2021 3278.01 5861.10 73.44 4.00 354.23 2671.88
   06:47:55.287.27-Apr-2021 3278.01 5860.40 73.44 4.00 354.43 2671.88
   06:47:55.487.27-Apr-2021 3278.01 5859.81 73.44 4.00 354.63 2671.88
   06:47:55.687.27-Apr-2021 3278.01 5860.29 73.44 4.00 354.83 2671.88
   06:47:55.887.27-Apr-2021 3278.01 5861.25 73.44 4.00 355.03 2671.88
   06:47:56.087.27-Apr-2021 3278.01 5861.25 73.44 4.00 355.23 2671.88
   06:47:56.287.27-Apr-2021 3278.01 5864.03 73.43 4.00 355.43 2671.88
   06:47:56.487.27-Apr-2021 3278.01 5864.07 73.43 4.00 355.63 2671.88
   06:47:56.687.27-Apr-2021 3278.01 5862.97 73.43 4.00 355.83 2671.88
   06:47:56.887.27-Apr-2021 3278.01 5864.93 73.43 4.00 356.03 2671.88
   06:47:57.087.27-Apr-2021 3278.01 5864.93 73.43 4.00 356.23 2671.88
   06:47:57.287.27-Apr-2021 3278.01 5851.46 73.43 4.00 356.43 2671.88
   06:47:57.487.27-Apr-2021 3278.01 5862.34 73.43 4.00 356.63 2671.88
   06:47:57.687.27-Apr-2021 3278.01 5859.35 73.43 4.00 356.83 2671.88
   06:47:57.887.27-Apr-2021 3278.01 5861.05 73.43 4.00 357.03 2671.88
   06:47:58.087.27-Apr-2021 3278.01 5861.05 73.43 4.00 357.23 2671.88
   06:47:58.287.27-Apr-2021 3278.01 5862.63 73.43 4.00 357.43 2671.88
   06:47:58.487.27-Apr-2021 3278.01 5849.21 73.43 4.00 357.63 2671.88
   06:47:58.687.27-Apr-2021 3278.01 5860.82 73.43 4.00 357.83 2671.88
   06:47:58.887.27-Apr-2021 3278.01 5862.20 73.43 4.00 358.03 2671.88
   06:47:59.087.27-Apr-2021 3278.01 5862.20 73.43 4.00 358.23 2671.88
   06:47:59.287.27-Apr-2021 3278.01 5863.47 73.43 4.00 358.43 2671.88
   06:47:59.487.27-Apr-2021 3278.01 5850.63 73.43 4.00 358.63 2671.88
   06:47:59.687.27-Apr-2021 3278.01 5860.93 73.43 4.00 358.83 2671.88
   06:47:59.887.27-Apr-2021 3278.01 5858.07 73.43 4.00 359.03 2671.88
   06:48:00.087.27-Apr-2021 3278.01 5858.07 73.43 4.00 359.23 2671.88
   06:48:00.288.27-Apr-2021 3278.01 5862.87 73.43 4.00 359.43 2671.88
   06:48:00.488.27-Apr-2021 3278.01 5856.90 73.43 4.00 359.63 2671.88
   06:48:00.688.27-Apr-2021 3278.01 5856.73 73.43 4.00 359.83 2671.88
   06:48:00.888.27-Apr-2021 3278.01 5852.95 73.43 4.00 360.03 2671.88
   06:48:01.088.27-Apr-2021 3278.01 5852.95 73.43 4.00 360.23 2671.88
   06:48:01.288.27-Apr-2021 3278.01 5862.83 73.43 4.00 360.43 2671.88
   06:48:01.488.27-Apr-2021 3278.01 5864.07 73.43 4.00 360.63 2671.88
   06:48:01.688.27-Apr-2021 3278.01 5862.84 73.43 4.00 360.83 2671.88
   06:48:01.888.27-Apr-2021 3278.01 5863.14 73.43 4.00 361.03 2671.88
   06:48:02.088.27-Apr-2021 3278.01 5863.14 73.43 4.00 361.23 2671.88
   06:48:02.288.27-Apr-2021 3278.01 5864.68 73.42 4.00 361.43 2671.88
   06:48:02.488.27-Apr-2021 3278.01 5864.35 73.42 4.00 361.63 2671.88
   06:48:02.688.27-Apr-2021 3278.01 5862.65 73.42 4.00 361.83 2671.88
   06:48:02.888.27-Apr-2021 3278.01 5861.84 73.42 4.00 362.03 2671.88
   06:48:03.088.27-Apr-2021 3278.01 5861.84 73.42 4.00 362.23 2671.88
   06:48:03.288.27-Apr-2021 3278.01 5851.22 73.42 4.00 362.43 2671.88
   06:48:03.488.27-Apr-2021 3278.01 5854.27 73.42 4.00 362.63 2671.88
   06:48:03.688.27-Apr-2021 3278.01 5860.08 73.42 4.00 362.83 2671.88
   06:48:03.888.27-Apr-2021 3278.01 5857.50 73.42 4.00 363.03 2671.88
   06:48:04.088.27-Apr-2021 3278.01 5857.50 73.42 4.00 363.23 2671.88
   06:48:04.288.27-Apr-2021 3278.01 5859.71 73.42 4.00 363.43 2671.88
   06:48:04.488.27-Apr-2021 3278.01 5860.84 73.42 4.00 363.63 2671.88
   06:48:04.688.27-Apr-2021 3278.01 5861.07 73.42 4.00 363.83 2671.88
   06:48:04.888.27-Apr-2021 3278.01 5864.52 73.42 4.00 364.03 2671.88
   06:48:05.088.27-Apr-2021 3278.01 5864.52 73.42 4.00 364.23 2671.88
   06:48:05.288.27-Apr-2021 3278.01 5863.90 73.42 4.00 364.43 2671.88
   06:48:05.488.27-Apr-2021 3278.01 5863.51 73.42 4.00 364.63 2671.88
   06:48:05.688.27-Apr-2021 3278.01 5864.85 73.42 4.00 364.83 2671.88
   06:48:05.888.27-Apr-2021 3278.01 5863.23 73.42 4.00 365.03 2671.88
   06:48:06.088.27-Apr-2021 3278.01 5863.23 73.42 4.00 365.23 2671.88
   06:48:06.288.27-Apr-2021 3278.01 5860.95 73.42 4.00 365.43 2671.88
   06:48:06.488.27-Apr-2021 3278.01 5861.57 73.42 4.00 365.63 2671.88
   06:48:06.688.27-Apr-2021 3278.01 5862.22 73.41 4.00 365.83 2671.88
   06:48:06.888.27-Apr-2021 3278.01 5864.82 73.41 4.00 366.03 2671.88
   06:48:07.088.27-Apr-2021 3278.01 5864.82 73.41 4.00 366.23 2671.88
   06:48:07.288.27-Apr-2021 3278.01 5851.54 73.41 4.00 366.43 2671.88
   06:48:07.488.27-Apr-2021 3278.01 5860.47 73.41 4.00 366.63 2671.88
   06:48:07.688.27-Apr-2021 3278.01 5865.76 73.41 4.00 366.83 2671.88
   06:48:07.888.27-Apr-2021 3278.01 5864.44 73.41 4.00 367.03 2671.88
   06:48:08.088.27-Apr-2021 3278.01 5864.44 73.41 4.00 367.23 2671.88
   06:48:08.288.27-Apr-2021 3278.01 5858.87 73.41 4.00 367.43 2671.88
   06:48:08.488.27-Apr-2021 3278.01 5858.87 73.41 4.00 367.63 2671.88
   06:48:08.688.27-Apr-2021 3278.01 5854.74 73.41 4.00 367.83 2671.88
