~Version Information
 VERS.                  2.0:   CWLS log ASCII Standard -VERSION 2.0
 WRAP.                   NO:   One line per depth step
~Well Information Block
#MNEM.UNIT     VALUE/NAME     DESCRIPTION
#---------     -----------    ---------------------------
 STRT.S             19:03:38 27-Apr-21: START TIME 19:03:38 27-Apr-21
 STOP.S             19:10:06 27-Apr-21: STOP TIME  19:10:06 27-Apr-21
 STEP.S                   0.00: STEP TIME
 NULL.                 -999.25: NULL VALUE
 DFWT.                        :  DIST FWL TEXT
 DFST.                        :  DIST FSL TEXT
 DMF .             Drill Floor:  DRILL MEAS FROM
 STIM.      02.00.00 12-Apr-21:  START TIME
 DATE.      02.00.00 02-May-21:  END TIME
 SPUD.               09-Apr-21:  SPUD DATE
 NREF.                    Grid:  NORTH REFERENCE
 HPTY.       Minimum Curvature:  HOLE POS TYPE
 DMOD.             Drill Model:  DRILL MOD DESC
 SVYD.                  Survey:  SURVEY DESC
 ILTD.               Lithology:  INTERP LTH DESC
 FTOP.          Formation Tops:  FORM TOPS DESC
 PDAT.          Mean Sea Level:  PERMANENT DATUM
 FLD .                     ACG:  FIELD NAME
 SON .        AZ-XX-0907021034:  JOB NUMBER
 CTRY.              Azerbaijan:  COUNTRY NAME
 WELL.                    E01x:  WELL NAME
 COMP.     BP Exploration (Caspian Sea) LTD.:  COMPANY
 UWI .            /AZE00001403:  UNIQUE WELL IDENTIFIER
 API .            /AZE00001403:  API NUMBER
 WTYP.                Deviated:  WELL TYPE
 MDS .        Operator Entered:  MAG DATA SOURCE
 BASE.              Azerbaijan:  LOGGING EQUIPMENT BASE LOCATION
 REGN.                   EESSA:  REGION
 PROV.                    Baku:  PROVINCE
 STAT.                    Baku:  STATE NAME
 SRVC.          Turan Drilling:  CONTRACTOR
 MWDS.                    Baku:  MWD SHOP
 JOBN.        AZ-XX-0907021034:  JOB TICKET NUMB
 RIG .                     DWG:  RIG NAME
 DOE .                     N/A:  DOE NUMBER
 DCON.         Sperry Drilling:  DIRECTNL CONTR
 UNIT.                     N/A:  LOGGING EQUIPMENT ID
 CNTY.                        :  COUNTY
 LOC .                        :  LOCATION
 LMF .             Drill Floor:  LOG MEASURED FROM
 TVDS.m                  43.16:  TVDSS CORRECTN
 LATI.deg                40.17:  LATITUDE
 LONG.deg                51.17:  LONGITUDE
 WHNS.m                  -5.90:  WELL HEAD N/S
 WHEW.m                  -6.61:  WELL HEAD E/W
 UTMX.m              514337.95:  UTM X
 UTMY.m             4448627.46:  UTM Y
 DFWL.m                   0.00:  DISTANCE FWL
 DFSL.m                   0.00:  DISTANCE FSL
 SDEP.m                2606.87:  START DEPTH
 TDD .m                3618.01:  TOTAL DEPTH (DRILLER)
 VSDR.deg               177.42:  VERT SEC DIRECT
 GVFD.g                   1.00:  GRAVITY FIELD
 MFLD.nT              50399.00:  MAGNETIC FIELD
 MDIP.deg                59.67:  MAGNETIC DIP
 MDEC.deg                 6.56:  MAGNETIC DECL
 GRDC.deg                 0.11:  GRID CORRECTION
 AZTC.deg                 6.45:  AZM TOTAL CORR
 EPD .m                   0.00:  ELEVATION
 EGL .m                   0.00:  GROUND ELEVATION
 WDMS.m                 176.20:  WD ELEV
 APD .m                  43.16:  DEPTH ABOVE PD
 DEP .m                2606.87:  DEPTH
 AGAP.m                  43.16:  AIR GAP
 VSEW.m                  -6.61:  VERT SEC E/W
 VSNS.m                  -5.90:  VERT SEC N/S
 EKB .m                  43.16:  KB ELEVATION
 EDF .m                  43.16:  DF ELEVATION
 TDL .m                 438.00:  TOTAL DEPTH (LOGGER)
 VSC .                       0:  VS TO CLOSURE
 MAGU.                 1855490:  MAGUTM CHECKSUM
~Parameter Information Block
#MNEM.UNIT       Value        Description
#---------     -----------    ---------------------------
 AV  .mps                 2.20:  Ann Velocity 
 AVMX.mps                 2.50:  Max Ann Veloc 
 AZIF.deg               150.21:  Azm, Final 
 BHAT.        Rotary Steerable:  BHA Type 
 BROT.°/30m               0.08:  Build Rotating 
 BS  .in                  6.50:  Bit Size 
 BSZ .in                  6.50:  Bit Size 
 BTPL.psig              108.00:  Bit Press Loss 
 CABU.                     Yes:  Customer Abuse 
 CGEO.           Emin Aliyarli:  Customer Geo 
 COMM.                     LÊS:  Run Comments 1 
 TCS .hr                 74.20:  Time Ciculation Ended 
 CV  .mps                 3.63:  Crit Velocity 
 CVMX.mps                 3.66:  Max Crit Veloc 
 DD1 .         Intigam Rahimov:  Direct Drillr 1 
 DD2 .          Teymur Aghayev:  Direct Drillr 2 
 DDSV.               Geo-Pilot:  DD Service 
 DEFF.%                  97.00:  % Det Eff 
 DLRX.°/30m               1.63:  Dogleg Rot Max 
 DLSO.°/30m               0.00:  Dogleg Oriented 
 DLSX.°/30m               0.00:  Dogleg Str Max 
 DRET.      20.20.00 28-Apr-21:  Drill End Time 
 DRST.      04.45.00 26-Apr-21:  Drill Start Tim 
 DTIM.hr                 34.30:  Time Drilling 
 EDEP.m                3618.01:  End Depth 
 ENG1.           Amrah Tahirov:  Engineer 1 
 ENG2.         Bahruz Mehdiyev:  Engineer 2 
 ENG3.         Farhad Orujzade:  Engineer 3 
 ETIM.      19.00.00 29-Apr-21:  End Time 
 FLOI.gpm               370.00:  Flow In 
 FLON.gpm               300.00:  Flow In Min 
 FLOS.cptm                0.00:  Fluid Loss 
 FLOX.gpm               410.00:  Flow In Max 
 HFLO.                      No:  High Flow 
 HPRE.                      No:  High Pressure 
 HTEM.                      No:  High Temp 
 HYDO.m                   1.80:  Hydro Offset 
 IFIN.deg                67.19:  Inc, Final 
 IMAX.deg                68.42:  Inc Max 
 IMIN.deg                66.33:  Inc Min 
 IMND.m                3532.79:  Inc Min Depth 
 IMXD.m                3192.15:  Inc Max Depth 
 JARR.                      No:  Jarring 
 LETM.      20.20.00 28-Apr-21:  Log End Time 
 LOST.hr                     0:  Lost Rig Time 
 LSTM.      04.45.00 26-Apr-21:  Log Start Time 
 MDCL.ppm             36500.00:  Mud Chlorides 
 MDES.     Inversion Oil/Synthetic:  Mud Desc 
 DFD .sg                  1.42:  Mud Density 
 MDMN.sg                  1.42:  Dens Mud Min 
 MDMX.sg                  1.42:  Dens Mud Max 
 MOIL.                    55.7:  Run Mud Oil % 
 MOWR.                   71:29:  Run Mud OWR 
 MSND.                     0.1:  Run Mud Sand % 
 MSOL.                    19.9:  Run Mud Solids% 
 DFV .spqt               83.00:  Mud Viscosity 
 MWOD.in                  5.15:  MWD Tool OD 
 MWSI.                      No:  Serv Intrp, MWD 
 OTIM.hr                120.59:  Time Operating 
 PCON.           Look Like New:  Pad Condition 
 PMAX.psia            11292.93:  Press Op, Max 
 PV  .cP                 27.00:  Mud PV 
 RUN .                     400:  Run Number 
 ROPA.m/hr               14.00:  ROP Avg 
 ROPN.m/hr                9.00:  ROP Min 
 ROPX.m/hr               18.00:  ROP Max 
 RPMA.rpm               130.00:  RPM Surface Avg 
 RPMN.rpm               100.00:  RPM Surface Min 
 RPMX.rpm               140.00:  RPM Surface Max 
 RRUN.                    0400:  Rig Run Number 
 RTIM.hr                 38.60:  Time Reaming 
 SAZI.deg               149.55:  Azm, Start 
 SDEP.m                3180.01:  Start Depth 
 SIDD.                      No:  Serv Intrp, DD 
 SINC.deg                68.42:  Inc, Start 
 SPPA.psig             4400.00:  SPP Avg 
 SPPN.psig             3580.00:  SPP Min 
 SPPX.psig             4850.00:  SPP Max 
 STIM.      12.30.00 24-Apr-21:  Start Time 
 SVCS.                 DD, MWD:  Services 
 SVER.                    9.20:  Sperry Version 
 TDAT.m                 438.00:  Tot Depth Attmp 
 TDDF.                      No:  Trip for DD 
 TDLG.m                 438.00:  Tot Depth Loggd 
 TFF .                      No:  Trip for Fail 
 TQAA.f-kp               11.00:  Torque Abs Avg 
 TQAN.f-kp                9.00:  Torque Abs Min 
 TQAX.f-kp               14.00:  Torque Abs Max 
 TRRT.°/30m               0.04:  Turn Rotating 
 MRT .                    HCIM:  Maximum Recorded Temperature 
 TTMX.degC               84.31:  Max Tool Temp 
 VS01.                90521954:  Virtual Str1 SN 
 VS02.                90519327:  Virtual Str2 SN 
 VS03.                90522273:  Virtual Str3 SN 
 VS04.                11108038:  Virtual Str4 SN 
 VS05.                12258760:  Virtual Str5 SN 
 WBMN.klb                 1.00:  WOB Min 
 WITN.           Adil Mammadov:  Customer Rep 
 WITN.         Alex Yadullayev:  Customer Rep 2 
 WOBA.klb                 6.00:  WOB Avg 
 WOBX.klb                 9.00:  WOB Max 
 YP  .lhf2               31.00:  Yield Point 
~Curve Information Block
#MNEM.UNIT                 API CODE     Curve Description
#---------               -----------    ---------------------------
 TIME.HHMMSS            00 000 000 000:  GT Time & Date
 GTDEPTH.m              00 000 000 000:  GT Depth
 GTPQH.psia             00 000 000 000:  GT HR Quartz Pressure
 GTTQ.degC              00 000 000 000:  GT Quartz Temperature
 GTTN.NONE              00 000 000 000:  GT Test Number
 GTET.sec               00 000 000 000:  GT Elapsed Test Time
 GTTVD.m                00 000 000 000:  GT True Vertical Depth
#Other Information
#
#WARRANTY: Halliburton will use its best efforts to furnish customers with 
#accurate information and interpretations that are part of, and incident to, the services 
#provided.  However, Halliburton cannot and does not warrant the accuracy 
#or correctness of such information and interpretations.  Under no circumstances should any 
#such information or interpretation be relied upon as the sole basis for any drilling, 
#completion, production, or financial decision or any procedure involving any risk to the 
#safety of any drilling venture, drilling rig or its crew or any other third party.  The 
#Customer has full responsibility for all drilling, completion and production operation.  
#Halliburton makes no representations or warranties, either expressed or 
#implied, including, but not limited to, the implied warranties of merchantability or fitness 
#for a particular purpose, with respect to the services rendered.  In no event will 
#Halliburton be liable for failure to obtain any particular results or for 
#any damages, including, but not limited to, indirect, special or consequential damages, 
#resulting from the use of any information or interpretation provided by Halliburton.
#
~A           TIME           GTDEPTH  GTPQH  GTTQ  GTTN  GTET   GTTVD  
# ...
   19:09:00.706.27-Apr-2021 3392.01 3473.43 72.68 5.00 322.08 2716.87
   19:09:00.906.27-Apr-2021 3392.01 3473.43 72.68 5.00 322.28 2716.87
   19:09:01.106.27-Apr-2021 3392.01 3473.44 72.67 5.00 322.48 2716.87
   19:09:01.306.27-Apr-2021 3392.01 3473.24 72.67 5.00 322.68 2716.87
   19:09:01.506.27-Apr-2021 3392.01 3473.45 72.67 5.00 322.88 2716.87
   19:09:01.706.27-Apr-2021 3392.01 3473.40 72.67 5.00 323.08 2716.87
   19:09:01.906.27-Apr-2021 3392.01 3473.40 72.67 5.00 323.28 2716.87
   19:09:02.106.27-Apr-2021 3392.01 3473.44 72.67 5.00 323.48 2716.87
   19:09:02.306.27-Apr-2021 3392.01 3473.20 72.67 5.00 323.68 2716.87
   19:09:02.506.27-Apr-2021 3392.01 3473.48 72.67 5.00 323.88 2716.87
   19:09:02.706.27-Apr-2021 3392.01 3473.43 72.67 5.00 324.08 2716.87
   19:09:02.906.27-Apr-2021 3392.01 3473.43 72.67 5.00 324.28 2716.87
   19:09:03.106.27-Apr-2021 3392.01 3473.38 72.67 5.00 324.48 2716.87
   19:09:03.306.27-Apr-2021 3392.01 3473.27 72.67 5.00 324.68 2716.87
   19:09:03.506.27-Apr-2021 3392.01 3473.44 72.67 5.00 324.88 2716.87
   19:09:03.706.27-Apr-2021 3392.01 3473.41 72.67 5.00 325.08 2716.87
   19:09:03.906.27-Apr-2021 3392.01 3473.41 72.67 5.00 325.28 2716.87
   19:09:04.106.27-Apr-2021 3392.01 3473.41 72.67 5.00 325.48 2716.87
   19:09:04.306.27-Apr-2021 3392.01 3473.41 72.67 5.00 325.68 2716.87
   19:09:04.506.27-Apr-2021 3392.01 3473.35 72.67 5.00 325.88 2716.87
   19:09:04.706.27-Apr-2021 3392.01 3473.42 72.67 5.00 326.08 2716.87
   19:09:04.907.27-Apr-2021 3392.01 3473.42 72.67 5.00 326.28 2716.87
   19:09:05.107.27-Apr-2021 3392.01 3473.39 72.67 5.00 326.48 2716.87
   19:09:05.307.27-Apr-2021 3392.01 3473.39 72.67 5.00 326.68 2716.87
   19:09:05.507.27-Apr-2021 3392.01 3473.37 72.67 5.00 326.88 2716.87
   19:09:05.707.27-Apr-2021 3392.01 3473.37 72.66 5.00 327.08 2716.87
   19:09:05.907.27-Apr-2021 3392.01 3473.37 72.66 5.00 327.28 2716.87
   19:09:06.107.27-Apr-2021 3392.01 3473.17 72.66 5.00 327.48 2716.87
   19:09:06.307.27-Apr-2021 3392.01 3473.47 72.66 5.00 327.68 2716.87
   19:09:06.507.27-Apr-2021 3392.01 3473.45 72.66 5.00 327.88 2716.87
   19:09:06.707.27-Apr-2021 3392.01 3473.34 72.66 5.00 328.08 2716.87
   19:09:06.907.27-Apr-2021 3392.01 3473.34 72.66 5.00 328.28 2716.87
   19:09:07.107.27-Apr-2021 3392.01 3473.38 72.66 5.00 328.48 2716.87
   19:09:07.307.27-Apr-2021 3392.01 3473.38 72.66 5.00 328.68 2716.87
   19:09:07.507.27-Apr-2021 3392.01 3473.38 72.66 5.00 328.88 2716.87
   19:09:07.707.27-Apr-2021 3392.01 3473.37 72.66 5.00 329.08 2716.87
   19:09:07.907.27-Apr-2021 3392.01 3473.37 72.66 5.00 329.28 2716.87
   19:09:08.107.27-Apr-2021 3392.01 3473.35 72.66 5.00 329.48 2716.87
   19:09:08.307.27-Apr-2021 3392.01 3473.37 72.66 5.00 329.68 2716.87
   19:09:08.507.27-Apr-2021 3392.01 3473.37 72.66 5.00 329.88 2716.87
   19:09:08.707.27-Apr-2021 3392.01 3473.30 72.66 5.00 330.08 2716.87
   19:09:08.908.27-Apr-2021 3392.01 3473.30 72.66 5.00 330.28 2716.87
   19:09:09.108.27-Apr-2021 3392.01 3473.33 72.66 5.00 330.48 2716.87
   19:09:09.308.27-Apr-2021 3392.01 3473.36 72.66 5.00 330.68 2716.87
   19:09:09.508.27-Apr-2021 3392.01 3473.42 72.66 5.00 330.88 2716.87
   19:09:09.708.27-Apr-2021 3392.01 3473.34 72.66 5.00 331.08 2716.87
   19:09:09.908.27-Apr-2021 3392.01 3473.34 72.66 5.00 331.28 2716.87
   19:09:10.108.27-Apr-2021 3392.01 3473.41 72.66 5.00 331.48 2716.87
   19:09:10.308.27-Apr-2021 3392.01 3473.36 72.65 5.00 331.68 2716.87
   19:09:10.508.27-Apr-2021 3392.01 3473.42 72.65 5.00 331.88 2716.87
   19:09:10.708.27-Apr-2021 3392.01 3473.19 72.65 5.00 332.08 2716.87
   19:09:10.908.27-Apr-2021 3392.01 3473.19 72.65 5.00 332.28 2716.87
   19:09:11.108.27-Apr-2021 3392.01 3473.39 72.65 5.00 332.48 2716.87
   19:09:11.308.27-Apr-2021 3392.01 3473.37 72.65 5.00 332.68 2716.87
   19:09:11.508.27-Apr-2021 3392.01 3473.38 72.65 5.00 332.88 2716.87
   19:09:11.708.27-Apr-2021 3392.01 3473.38 72.65 5.00 333.08 2716.87
   19:09:11.908.27-Apr-2021 3392.01 3473.38 72.65 5.00 333.28 2716.87
   19:09:12.108.27-Apr-2021 3392.01 3473.38 72.65 5.00 333.48 2716.87
   19:09:12.308.27-Apr-2021 3392.01 3473.42 72.65 5.00 333.68 2716.87
   19:09:12.508.27-Apr-2021 3392.01 3473.38 72.65 5.00 333.88 2716.87
   19:09:12.708.27-Apr-2021 3392.01 3473.41 72.65 5.00 334.08 2716.87
   19:09:12.908.27-Apr-2021 3392.01 3473.41 72.65 5.00 334.28 2716.87
   19:09:13.109.27-Apr-2021 3392.01 3473.41 72.65 5.00 334.48 2716.87
   19:09:13.309.27-Apr-2021 3392.01 3473.36 72.65 5.00 334.68 2716.87
   19:09:13.509.27-Apr-2021 3392.01 3473.37 72.65 5.00 334.88 2716.87
   19:09:13.709.27-Apr-2021 3392.01 3473.39 72.65 5.00 335.08 2716.87
   19:09:13.909.27-Apr-2021 3392.01 3473.39 72.65 5.00 335.28 2716.87
   19:09:14.109.27-Apr-2021 3392.01 3473.36 72.65 5.00 335.48 2716.87
   19:09:14.309.27-Apr-2021 3392.01 3473.35 72.65 5.00 335.68 2716.87
   19:09:14.509.27-Apr-2021 3392.01 3473.17 72.65 5.00 335.88 2716.87
   19:09:14.709.27-Apr-2021 3392.01 3473.46 72.65 5.00 336.08 2716.87
   19:09:14.909.27-Apr-2021 3392.01 3473.46 72.65 5.00 336.28 2716.87
   19:09:15.109.27-Apr-2021 3392.01 3473.33 72.64 5.00 336.48 2716.87
   19:09:15.309.27-Apr-2021 3392.01 3473.41 72.64 5.00 336.68 2716.87
   19:09:15.509.27-Apr-2021 3392.01 3473.37 72.64 5.00 336.88 2716.87
   19:09:15.709.27-Apr-2021 3392.01 3473.36 72.64 5.00 337.08 2716.87
   19:09:15.909.27-Apr-2021 3392.01 3473.36 72.64 5.00 337.28 2716.87
   19:09:16.109.27-Apr-2021 3392.01 3473.36 72.64 5.00 337.48 2716.87
   19:09:16.309.27-Apr-2021 3392.01 3473.37 72.64 5.00 337.68 2716.87
   19:09:16.509.27-Apr-2021 3392.01 3473.35 72.64 5.00 337.88 2716.87
   19:09:16.709.27-Apr-2021 3392.01 3473.37 72.64 5.00 338.08 2716.87
   19:09:16.909.27-Apr-2021 3392.01 3473.37 72.64 5.00 338.28 2716.87
   19:09:17.110.27-Apr-2021 3392.01 3473.36 72.64 5.00 338.48 2716.87
   19:09:17.310.27-Apr-2021 3392.01 3473.13 72.64 5.00 338.68 2716.87
   19:09:17.510.27-Apr-2021 3392.01 3473.46 72.64 5.00 338.88 2716.87
   19:09:17.710.27-Apr-2021 3392.01 3473.40 72.64 5.00 339.08 2716.87
   19:09:17.910.27-Apr-2021 3392.01 3473.40 72.64 5.00 339.28 2716.87
   19:09:18.110.27-Apr-2021 3392.01 3473.40 72.64 5.00 339.48 2716.87
   19:09:18.310.27-Apr-2021 3392.01 3473.16 72.64 5.00 339.68 2716.87
   19:09:18.510.27-Apr-2021 3392.01 3473.48 72.64 5.00 339.88 2716.87
   19:09:18.710.27-Apr-2021 3392.01 3473.39 72.64 5.00 340.08 2716.87
   19:09:18.910.27-Apr-2021 3392.01 3473.39 72.64 5.00 340.28 2716.87
   19:09:19.110.27-Apr-2021 3392.01 3473.29 72.64 5.00 340.48 2716.87
   19:09:19.310.27-Apr-2021 3392.01 3473.40 72.64 5.00 340.68 2716.87
   19:09:19.510.27-Apr-2021 3392.01 3473.36 72.64 5.00 340.88 2716.87
   19:09:19.710.27-Apr-2021 3392.01 3473.37 72.63 5.00 341.08 2716.87
   19:09:19.910.27-Apr-2021 3392.01 3473.37 72.63 5.00 341.28 2716.87
   19:09:20.110.27-Apr-2021 3392.01 3473.35 72.63 5.00 341.48 2716.87
   19:09:20.310.27-Apr-2021 3392.01 3473.19 72.63 5.00 341.68 2716.87
   19:09:20.510.27-Apr-2021 3392.01 3473.44 72.63 5.00 341.88 2716.87
   19:09:20.710.27-Apr-2021 3392.01 3473.46 72.63 5.00 342.08 2716.87
   19:09:20.910.27-Apr-2021 3392.01 3473.46 72.63 5.00 342.28 2716.87
   19:09:21.110.27-Apr-2021 3392.01 3473.41 72.63 5.00 342.48 2716.87
   19:09:21.311.27-Apr-2021 3392.01 3473.37 72.63 5.00 342.68 2716.87
   19:09:21.511.27-Apr-2021 3392.01 3473.37 72.63 5.00 342.88 2716.87
   19:09:21.711.27-Apr-2021 3392.01 3473.38 72.63 5.00 343.08 2716.87
   19:09:21.911.27-Apr-2021 3392.01 3473.38 72.63 5.00 343.28 2716.87
   19:09:22.111.27-Apr-2021 3392.01 3473.39 72.63 5.00 343.48 2716.87
   19:09:22.311.27-Apr-2021 3392.01 3473.34 72.63 5.00 343.68 2716.87
   19:09:22.511.27-Apr-2021 3392.01 3473.36 72.63 5.00 343.88 2716.87
   19:09:22.711.27-Apr-2021 3392.01 3473.34 72.63 5.00 344.08 2716.87
   19:09:22.911.27-Apr-2021 3392.01 3473.34 72.63 5.00 344.28 2716.87
   19:09:23.111.27-Apr-2021 3392.01 3473.48 72.63 5.00 344.48 2716.87
   19:09:23.311.27-Apr-2021 3392.01 3474.00 72.63 5.00 344.68 2716.87
   19:09:23.511.27-Apr-2021 3392.01 3484.89 72.63 5.00 344.88 2716.87
