~Version Information
 VERS.                  2.0:   CWLS log ASCII Standard -VERSION 2.0
 WRAP.                   NO:   One line per depth step
~Well Information Block
#MNEM.UNIT     VALUE/NAME     DESCRIPTION
#---------     -----------    ---------------------------
 STRT.S             13:09:03 28-Apr-21: START TIME 13:09:03 28-Apr-21
 STOP.S             13:15:31 28-Apr-21: STOP TIME  13:15:31 28-Apr-21
 STEP.S                   0.00: STEP TIME
 NULL.                 -999.25: NULL VALUE
 DFWT.                        :  DIST FWL TEXT
 DFST.                        :  DIST FSL TEXT
 DMF .             Drill Floor:  DRILL MEAS FROM
 STIM.      02.00.00 12-Apr-21:  START TIME
 DATE.      02.00.00 02-May-21:  END TIME
 SPUD.               09-Apr-21:  SPUD DATE
 NREF.                    Grid:  NORTH REFERENCE
 HPTY.       Minimum Curvature:  HOLE POS TYPE
 DMOD.             Drill Model:  DRILL MOD DESC
 SVYD.                  Survey:  SURVEY DESC
 ILTD.               Lithology:  INTERP LTH DESC
 FTOP.          Formation Tops:  FORM TOPS DESC
 PDAT.          Mean Sea Level:  PERMANENT DATUM
 FLD .                     ACG:  FIELD NAME
 SON .        AZ-XX-0907021034:  JOB NUMBER
 CTRY.              Azerbaijan:  COUNTRY NAME
 WELL.                    E01x:  WELL NAME
 COMP.     BP Exploration (Caspian Sea) LTD.:  COMPANY
 UWI .            /AZE00001403:  UNIQUE WELL IDENTIFIER
 API .            /AZE00001403:  API NUMBER
 WTYP.                Deviated:  WELL TYPE
 MDS .        Operator Entered:  MAG DATA SOURCE
 BASE.              Azerbaijan:  LOGGING EQUIPMENT BASE LOCATION
 REGN.                   EESSA:  REGION
 PROV.                    Baku:  PROVINCE
 STAT.                    Baku:  STATE NAME
 SRVC.          Turan Drilling:  CONTRACTOR
 MWDS.                    Baku:  MWD SHOP
 JOBN.        AZ-XX-0907021034:  JOB TICKET NUMB
 RIG .                     DWG:  RIG NAME
 DOE .                     N/A:  DOE NUMBER
 DCON.         Sperry Drilling:  DIRECTNL CONTR
 UNIT.                     N/A:  LOGGING EQUIPMENT ID
 CNTY.                        :  COUNTY
 LOC .                        :  LOCATION
 LMF .             Drill Floor:  LOG MEASURED FROM
 TVDS.m                  43.16:  TVDSS CORRECTN
 LATI.deg                40.17:  LATITUDE
 LONG.deg                51.17:  LONGITUDE
 WHNS.m                  -5.90:  WELL HEAD N/S
 WHEW.m                  -6.61:  WELL HEAD E/W
 UTMX.m              514337.95:  UTM X
 UTMY.m             4448627.46:  UTM Y
 DFWL.m                   0.00:  DISTANCE FWL
 DFSL.m                   0.00:  DISTANCE FSL
 SDEP.m                2606.87:  START DEPTH
 TDD .m                3618.01:  TOTAL DEPTH (DRILLER)
 VSDR.deg               177.42:  VERT SEC DIRECT
 GVFD.g                   1.00:  GRAVITY FIELD
 MFLD.nT              50399.00:  MAGNETIC FIELD
 MDIP.deg                59.67:  MAGNETIC DIP
 MDEC.deg                 6.56:  MAGNETIC DECL
 GRDC.deg                 0.11:  GRID CORRECTION
 AZTC.deg                 6.45:  AZM TOTAL CORR
 EPD .m                   0.00:  ELEVATION
 EGL .m                   0.00:  GROUND ELEVATION
 WDMS.m                 176.20:  WD ELEV
 APD .m                  43.16:  DEPTH ABOVE PD
 DEP .m                2606.87:  DEPTH
 AGAP.m                  43.16:  AIR GAP
 VSEW.m                  -6.61:  VERT SEC E/W
 VSNS.m                  -5.90:  VERT SEC N/S
 EKB .m                  43.16:  KB ELEVATION
 EDF .m                  43.16:  DF ELEVATION
 TDL .m                 438.00:  TOTAL DEPTH (LOGGER)
 VSC .                       0:  VS TO CLOSURE
 MAGU.                 1855490:  MAGUTM CHECKSUM
~Parameter Information Block
#MNEM.UNIT       Value        Description
#---------     -----------    ---------------------------
 AV  .mps                 2.20:  Ann Velocity 
 AVMX.mps                 2.50:  Max Ann Veloc 
 AZIF.deg               150.21:  Azm, Final 
 BHAT.        Rotary Steerable:  BHA Type 
 BROT.∞/30m               0.08:  Build Rotating 
 BS  .in                  6.50:  Bit Size 
 BSZ .in                  6.50:  Bit Size 
 BTPL.psig              108.00:  Bit Press Loss 
 CABU.                     Yes:  Customer Abuse 
 CGEO.           Emin Aliyarli:  Customer Geo 
 COMM.                     ‹Ïq:  Run Comments 1 
 TCS .hr                 74.20:  Time Ciculation Ended 
 CV  .mps                 3.63:  Crit Velocity 
 CVMX.mps                 3.66:  Max Crit Veloc 
 DD1 .         Intigam Rahimov:  Direct Drillr 1 
 DD2 .          Teymur Aghayev:  Direct Drillr 2 
 DDSV.               Geo-Pilot:  DD Service 
 DEFF.%                  97.00:  % Det Eff 
 DLRX.∞/30m               1.63:  Dogleg Rot Max 
 DLSO.∞/30m               0.00:  Dogleg Oriented 
 DLSX.∞/30m               0.00:  Dogleg Str Max 
 DRET.      20.20.00 28-Apr-21:  Drill End Time 
 DRST.      04.45.00 26-Apr-21:  Drill Start Tim 
 DTIM.hr                 34.30:  Time Drilling 
 EDEP.m                3618.01:  End Depth 
 ENG1.           Amrah Tahirov:  Engineer 1 
 ENG2.         Bahruz Mehdiyev:  Engineer 2 
 ENG3.         Farhad Orujzade:  Engineer 3 
 ETIM.      19.00.00 29-Apr-21:  End Time 
 FLOI.gpm               370.00:  Flow In 
 FLON.gpm               300.00:  Flow In Min 
 FLOS.cptm                0.00:  Fluid Loss 
 FLOX.gpm               410.00:  Flow In Max 
 HFLO.                      No:  High Flow 
 HPRE.                      No:  High Pressure 
 HTEM.                      No:  High Temp 
 HYDO.m                   1.80:  Hydro Offset 
 IFIN.deg                67.19:  Inc, Final 
 IMAX.deg                68.42:  Inc Max 
 IMIN.deg                66.33:  Inc Min 
 IMND.m                3532.79:  Inc Min Depth 
 IMXD.m                3192.15:  Inc Max Depth 
 JARR.                      No:  Jarring 
 LETM.      20.20.00 28-Apr-21:  Log End Time 
 LOST.hr                     0:  Lost Rig Time 
 LSTM.      04.45.00 26-Apr-21:  Log Start Time 
 MDCL.ppm             36500.00:  Mud Chlorides 
 MDES.     Inversion Oil/Synthetic:  Mud Desc 
 DFD .sg                  1.42:  Mud Density 
 MDMN.sg                  1.42:  Dens Mud Min 
 MDMX.sg                  1.42:  Dens Mud Max 
 MOIL.                    55.7:  Run Mud Oil % 
 MOWR.                   71:29:  Run Mud OWR 
 MSND.                     0.1:  Run Mud Sand % 
 MSOL.                    19.9:  Run Mud Solids% 
 DFV .spqt               83.00:  Mud Viscosity 
 MWOD.in                  5.15:  MWD Tool OD 
 MWSI.                      No:  Serv Intrp, MWD 
 OTIM.hr                120.59:  Time Operating 
 PCON.           Look Like New:  Pad Condition 
 PMAX.psia            11292.93:  Press Op, Max 
 PV  .cP                 27.00:  Mud PV 
 RUN .                     400:  Run Number 
 ROPA.m/hr               14.00:  ROP Avg 
 ROPN.m/hr                9.00:  ROP Min 
 ROPX.m/hr               18.00:  ROP Max 
 RPMA.rpm               130.00:  RPM Surface Avg 
 RPMN.rpm               100.00:  RPM Surface Min 
 RPMX.rpm               140.00:  RPM Surface Max 
 RRUN.                    0400:  Rig Run Number 
 RTIM.hr                 38.60:  Time Reaming 
 SAZI.deg               149.55:  Azm, Start 
 SDEP.m                3180.01:  Start Depth 
 SIDD.                      No:  Serv Intrp, DD 
 SINC.deg                68.42:  Inc, Start 
 SPPA.psig             4400.00:  SPP Avg 
 SPPN.psig             3580.00:  SPP Min 
 SPPX.psig             4850.00:  SPP Max 
 STIM.      12.30.00 24-Apr-21:  Start Time 
 SVCS.                 DD, MWD:  Services 
 SVER.                    9.20:  Sperry Version 
 TDAT.m                 438.00:  Tot Depth Attmp 
 TDDF.                      No:  Trip for DD 
 TDLG.m                 438.00:  Tot Depth Loggd 
 TFF .                      No:  Trip for Fail 
 TQAA.f-kp               11.00:  Torque Abs Avg 
 TQAN.f-kp                9.00:  Torque Abs Min 
 TQAX.f-kp               14.00:  Torque Abs Max 
 TRRT.∞/30m               0.04:  Turn Rotating 
 MRT .                    HCIM:  Maximum Recorded Temperature 
 TTMX.degC               84.31:  Max Tool Temp 
 VS01.                90521954:  Virtual Str1 SN 
 VS02.                90519327:  Virtual Str2 SN 
 VS03.                90522273:  Virtual Str3 SN 
 VS04.                11108038:  Virtual Str4 SN 
 VS05.                12258760:  Virtual Str5 SN 
 WBMN.klb                 1.00:  WOB Min 
 WITN.           Adil Mammadov:  Customer Rep 
 WITN.         Alex Yadullayev:  Customer Rep 2 
 WOBA.klb                 6.00:  WOB Avg 
 WOBX.klb                 9.00:  WOB Max 
 YP  .lhf2               31.00:  Yield Point 
~Curve Information Block
#MNEM.UNIT                 API CODE     Curve Description
#---------               -----------    ---------------------------
 TIME.HHMMSS            00 000 000 000:  GT Time & Date
 GTDEPTH.m              00 000 000 000:  GT Depth
 GTPQH.psia             00 000 000 000:  GT HR Quartz Pressure
 GTTQ.degC              00 000 000 000:  GT Quartz Temperature
 GTTN.NONE              00 000 000 000:  GT Test Number
 GTET.sec               00 000 000 000:  GT Elapsed Test Time
 GTTVD.m                00 000 000 000:  GT True Vertical Depth
#Other Information
#
#WARRANTY: Halliburton will use its best efforts to furnish customers with 
#accurate information and interpretations that are part of, and incident to, the services 
#provided.  However, Halliburton cannot and does not warrant the accuracy 
#or correctness of such information and interpretations.  Under no circumstances should any 
#such information or interpretation be relied upon as the sole basis for any drilling, 
#completion, production, or financial decision or any procedure involving any risk to the 
#safety of any drilling venture, drilling rig or its crew or any other third party.  The 
#Customer has full responsibility for all drilling, completion and production operation.  
#Halliburton makes no representations or warranties, either expressed or 
#implied, including, but not limited to, the implied warranties of merchantability or fitness 
#for a particular purpose, with respect to the services rendered.  In no event will 
#Halliburton be liable for failure to obtain any particular results or for 
#any damages, including, but not limited to, indirect, special or consequential damages, 
#resulting from the use of any information or interpretation provided by Halliburton.
#
~A           TIME           GTDEPTH  GTPQH  GTTQ  GTTN  GTET   GTTVD  
# ...
   13:14:02.476.28-Apr-2021 3524.51 4369.13 74.79 9.00 299.05 2768.78
   13:14:02.676.28-Apr-2021 3524.51 4369.13 74.79 9.00 299.25 2768.78
   13:14:02.876.28-Apr-2021 3524.51 4369.14 74.79 9.00 299.45 2768.78
   13:14:03.076.28-Apr-2021 3524.51 4369.20 74.79 9.00 299.65 2768.78
   13:14:03.276.28-Apr-2021 3524.51 4369.19 74.79 9.00 299.85 2768.78
   13:14:03.476.28-Apr-2021 3524.51 4368.86 74.79 9.00 300.05 2768.78
   13:14:03.676.28-Apr-2021 3524.51 4368.86 74.79 9.00 300.25 2768.78
   13:14:03.876.28-Apr-2021 3524.51 4369.29 74.79 9.00 300.45 2768.78
   13:14:04.076.28-Apr-2021 3524.51 4369.20 74.79 9.00 300.65 2768.78
   13:14:04.276.28-Apr-2021 3524.51 4369.02 74.79 9.00 300.85 2768.78
   13:14:04.476.28-Apr-2021 3524.51 4369.14 74.79 9.00 301.05 2768.78
   13:14:04.676.28-Apr-2021 3524.51 4369.14 74.79 9.00 301.25 2768.78
   13:14:04.876.28-Apr-2021 3524.51 4369.25 74.79 9.00 301.45 2768.78
   13:14:05.076.28-Apr-2021 3524.51 4369.19 74.78 9.00 301.65 2768.78
   13:14:05.276.28-Apr-2021 3524.51 4369.09 74.78 9.00 301.85 2768.78
   13:14:05.476.28-Apr-2021 3524.51 4368.94 74.78 9.00 302.05 2768.78
   13:14:05.676.28-Apr-2021 3524.51 4368.94 74.78 9.00 302.25 2768.78
   13:14:05.876.28-Apr-2021 3524.51 4369.26 74.78 9.00 302.45 2768.78
   13:14:06.076.28-Apr-2021 3524.51 4369.15 74.78 9.00 302.65 2768.78
   13:14:06.276.28-Apr-2021 3524.51 4369.10 74.78 9.00 302.85 2768.78
   13:14:06.476.28-Apr-2021 3524.51 4369.23 74.78 9.00 303.05 2768.78
   13:14:06.676.28-Apr-2021 3524.51 4369.23 74.78 9.00 303.25 2768.78
   13:14:06.877.28-Apr-2021 3524.51 4369.17 74.78 9.00 303.45 2768.78
   13:14:07.077.28-Apr-2021 3524.51 4369.15 74.78 9.00 303.65 2768.78
   13:14:07.277.28-Apr-2021 3524.51 4369.12 74.78 9.00 303.85 2768.78
   13:14:07.477.28-Apr-2021 3524.51 4369.17 74.78 9.00 304.05 2768.78
   13:14:07.677.28-Apr-2021 3524.51 4369.17 74.78 9.00 304.25 2768.78
   13:14:07.877.28-Apr-2021 3524.51 4369.13 74.78 9.00 304.45 2768.78
   13:14:08.077.28-Apr-2021 3524.51 4368.80 74.78 9.00 304.65 2768.78
   13:14:08.277.28-Apr-2021 3524.51 4369.36 74.78 9.00 304.85 2768.78
   13:14:08.477.28-Apr-2021 3524.51 4369.25 74.78 9.00 305.05 2768.78
   13:14:08.677.28-Apr-2021 3524.51 4369.25 74.78 9.00 305.25 2768.78
   13:14:08.877.28-Apr-2021 3524.51 4369.11 74.78 9.00 305.45 2768.78
   13:14:09.077.28-Apr-2021 3524.51 4369.16 74.78 9.00 305.65 2768.78
   13:14:09.277.28-Apr-2021 3524.51 4369.18 74.78 9.00 305.85 2768.78
   13:14:09.477.28-Apr-2021 3524.51 4369.14 74.77 9.00 306.05 2768.78
   13:14:09.677.28-Apr-2021 3524.51 4369.14 74.77 9.00 306.25 2768.78
   13:14:09.877.28-Apr-2021 3524.51 4369.12 74.77 9.00 306.45 2768.78
   13:14:10.077.28-Apr-2021 3524.51 4369.14 74.77 9.00 306.65 2768.78
   13:14:10.277.28-Apr-2021 3524.51 4369.13 74.77 9.00 306.85 2768.78
   13:14:10.477.28-Apr-2021 3524.51 4369.13 74.77 9.00 307.05 2768.78
   13:14:10.677.28-Apr-2021 3524.51 4369.13 74.77 9.00 307.25 2768.78
   13:14:10.877.28-Apr-2021 3524.51 4368.83 74.77 9.00 307.45 2768.78
   13:14:11.077.28-Apr-2021 3524.51 4369.33 74.77 9.00 307.65 2768.78
   13:14:11.277.28-Apr-2021 3524.51 4369.22 74.77 9.00 307.85 2768.78
   13:14:11.477.28-Apr-2021 3524.51 4369.05 74.77 9.00 308.05 2768.78
   13:14:11.677.28-Apr-2021 3524.51 4369.05 74.77 9.00 308.25 2768.78
   13:14:11.877.28-Apr-2021 3524.51 4369.23 74.77 9.00 308.45 2768.78
   13:14:12.077.28-Apr-2021 3524.51 4369.22 74.77 9.00 308.65 2768.78
   13:14:12.277.28-Apr-2021 3524.51 4369.18 74.77 9.00 308.85 2768.78
   13:14:12.477.28-Apr-2021 3524.51 4368.78 74.77 9.00 309.05 2768.78
   13:14:12.677.28-Apr-2021 3524.51 4368.78 74.77 9.00 309.25 2768.78
   13:14:12.878.28-Apr-2021 3524.51 4369.25 74.77 9.00 309.45 2768.78
   13:14:13.078.28-Apr-2021 3524.51 4369.19 74.77 9.00 309.65 2768.78
   13:14:13.278.28-Apr-2021 3524.51 4369.12 74.77 9.00 309.85 2768.78
   13:14:13.478.28-Apr-2021 3524.51 4368.98 74.77 9.00 310.05 2768.78
   13:14:13.678.28-Apr-2021 3524.51 4368.98 74.77 9.00 310.25 2768.78
   13:14:13.878.28-Apr-2021 3524.51 4369.21 74.76 9.00 310.45 2768.78
   13:14:14.078.28-Apr-2021 3524.51 4369.18 74.76 9.00 310.65 2768.78
   13:14:14.278.28-Apr-2021 3524.51 4369.14 74.76 9.00 310.85 2768.78
   13:14:14.478.28-Apr-2021 3524.51 4369.15 74.76 9.00 311.05 2768.78
   13:14:14.678.28-Apr-2021 3524.51 4369.15 74.76 9.00 311.25 2768.78
   13:14:14.878.28-Apr-2021 3524.51 4369.18 74.76 9.00 311.45 2768.78
   13:14:15.078.28-Apr-2021 3524.51 4369.14 74.76 9.00 311.65 2768.78
   13:14:15.278.28-Apr-2021 3524.51 4369.11 74.76 9.00 311.85 2768.78
   13:14:15.478.28-Apr-2021 3524.51 4369.16 74.76 9.00 312.05 2768.78
   13:14:15.678.28-Apr-2021 3524.51 4369.16 74.76 9.00 312.25 2768.78
   13:14:15.878.28-Apr-2021 3524.51 4369.14 74.76 9.00 312.45 2768.78
   13:14:16.078.28-Apr-2021 3524.51 4368.97 74.76 9.00 312.65 2768.78
   13:14:16.278.28-Apr-2021 3524.51 4369.15 74.76 9.00 312.85 2768.78
   13:14:16.478.28-Apr-2021 3524.51 4369.21 74.76 9.00 313.05 2768.78
   13:14:16.678.28-Apr-2021 3524.51 4369.21 74.76 9.00 313.25 2768.78
   13:14:16.878.28-Apr-2021 3524.51 4369.15 74.76 9.00 313.45 2768.78
   13:14:17.078.28-Apr-2021 3524.51 4369.10 74.76 9.00 313.65 2768.78
   13:14:17.278.28-Apr-2021 3524.51 4369.17 74.76 9.00 313.85 2768.78
   13:14:17.478.28-Apr-2021 3524.51 4369.17 74.76 9.00 314.05 2768.78
   13:14:17.678.28-Apr-2021 3524.51 4369.17 74.76 9.00 314.25 2768.78
   13:14:17.878.28-Apr-2021 3524.51 4369.12 74.76 9.00 314.45 2768.78
   13:14:18.078.28-Apr-2021 3524.51 4369.12 74.76 9.00 314.65 2768.78
   13:14:18.278.28-Apr-2021 3524.51 4369.13 74.75 9.00 314.85 2768.78
   13:14:18.478.28-Apr-2021 3524.51 4369.12 74.75 9.00 315.05 2768.78
   13:14:18.678.28-Apr-2021 3524.51 4369.12 74.75 9.00 315.25 2768.78
   13:14:18.878.28-Apr-2021 3524.51 4368.99 74.75 9.00 315.45 2768.78
   13:14:19.079.28-Apr-2021 3524.51 4369.11 74.75 9.00 315.65 2768.78
   13:14:19.279.28-Apr-2021 3524.51 4369.21 74.75 9.00 315.85 2768.78
   13:14:19.479.28-Apr-2021 3524.51 4369.19 74.75 9.00 316.05 2768.78
   13:14:19.679.28-Apr-2021 3524.51 4369.19 74.75 9.00 316.25 2768.78
   13:14:19.879.28-Apr-2021 3524.51 4369.30 74.75 9.00 316.45 2768.78
   13:14:20.079.28-Apr-2021 3524.51 4369.27 74.75 9.00 316.65 2768.78
   13:14:20.279.28-Apr-2021 3524.51 4369.18 74.75 9.00 316.85 2768.78
   13:14:20.479.28-Apr-2021 3524.51 4369.01 74.75 9.00 317.05 2768.78
   13:14:20.679.28-Apr-2021 3524.51 4369.01 74.75 9.00 317.25 2768.78
   13:14:20.879.28-Apr-2021 3524.51 4369.22 74.75 9.00 317.45 2768.78
   13:14:21.079.28-Apr-2021 3524.51 4369.23 74.75 9.00 317.65 2768.78
   13:14:21.279.28-Apr-2021 3524.51 4369.18 74.75 9.00 317.85 2768.78
   13:14:21.479.28-Apr-2021 3524.51 4369.08 74.75 9.00 318.05 2768.78
   13:14:21.679.28-Apr-2021 3524.51 4369.08 74.75 9.00 318.25 2768.78
   13:14:21.879.28-Apr-2021 3524.51 4369.33 74.75 9.00 318.45 2768.78
   13:14:22.079.28-Apr-2021 3524.51 4369.24 74.75 9.00 318.65 2768.78
   13:14:22.279.28-Apr-2021 3524.51 4369.14 74.75 9.00 318.85 2768.78
   13:14:22.479.28-Apr-2021 3524.51 4369.09 74.75 9.00 319.05 2768.78
   13:14:22.679.28-Apr-2021 3524.51 4369.09 74.75 9.00 319.25 2768.78
   13:14:22.879.28-Apr-2021 3524.51 4369.17 74.74 9.00 319.45 2768.78
   13:14:23.079.28-Apr-2021 3524.51 4369.16 74.74 9.00 319.65 2768.78
   13:14:23.279.28-Apr-2021 3524.51 4369.11 74.74 9.00 319.85 2768.78
   13:14:23.479.28-Apr-2021 3524.51 4369.12 74.74 9.00 320.05 2768.78
   13:14:23.679.28-Apr-2021 3524.51 4369.12 74.74 9.00 320.25 2768.78
   13:14:23.879.28-Apr-2021 3524.51 4369.13 74.74 9.00 320.45 2768.78
   13:14:24.079.28-Apr-2021 3524.51 4369.12 74.74 9.00 320.65 2768.78
   13:14:24.279.28-Apr-2021 3524.51 4368.79 74.74 9.00 320.85 2768.78
   13:14:24.479.28-Apr-2021 3524.51 4369.32 74.74 9.00 321.05 2768.78
   13:14:24.679.28-Apr-2021 3524.51 4369.32 74.74 9.00 321.25 2768.78
   13:14:24.879.28-Apr-2021 3524.51 4369.15 74.74 9.00 321.45 2768.78
   13:14:25.079.28-Apr-2021 3524.51 4369.08 74.74 9.00 321.65 2768.78
   13:14:25.280.28-Apr-2021 3524.51 4369.15 74.74 9.00 321.85 2768.78
