~Version Information
 VERS.                  2.0:   CWLS log ASCII Standard -VERSION 2.0
 WRAP.                   NO:   One line per depth step
~Well Information Block
#MNEM.UNIT     VALUE/NAME     DESCRIPTION
#---------     -----------    ---------------------------
 STRT.S             19:03:38 27-Apr-21: START TIME 19:03:38 27-Apr-21
 STOP.S             19:10:06 27-Apr-21: STOP TIME  19:10:06 27-Apr-21
 STEP.S                   0.00: STEP TIME
 NULL.                 -999.25: NULL VALUE
 DFWT.                        :  DIST FWL TEXT
 DFST.                        :  DIST FSL TEXT
 DMF .             Drill Floor:  DRILL MEAS FROM
 STIM.      02.00.00 12-Apr-21:  START TIME
 DATE.      02.00.00 02-May-21:  END TIME
 SPUD.               09-Apr-21:  SPUD DATE
 NREF.                    Grid:  NORTH REFERENCE
 HPTY.       Minimum Curvature:  HOLE POS TYPE
 DMOD.             Drill Model:  DRILL MOD DESC
 SVYD.                  Survey:  SURVEY DESC
 ILTD.               Lithology:  INTERP LTH DESC
 FTOP.          Formation Tops:  FORM TOPS DESC
 PDAT.          Mean Sea Level:  PERMANENT DATUM
 FLD .                     ACG:  FIELD NAME
 SON .        AZ-XX-0907021034:  JOB NUMBER
 CTRY.              Azerbaijan:  COUNTRY NAME
 WELL.                    E01x:  WELL NAME
 COMP.     BP Exploration (Caspian Sea) LTD.:  COMPANY
 UWI .            /AZE00001403:  UNIQUE WELL IDENTIFIER
 API .            /AZE00001403:  API NUMBER
 WTYP.                Deviated:  WELL TYPE
 MDS .        Operator Entered:  MAG DATA SOURCE
 BASE.              Azerbaijan:  LOGGING EQUIPMENT BASE LOCATION
 REGN.                   EESSA:  REGION
 PROV.                    Baku:  PROVINCE
 STAT.                    Baku:  STATE NAME
 SRVC.          Turan Drilling:  CONTRACTOR
 MWDS.                    Baku:  MWD SHOP
 JOBN.        AZ-XX-0907021034:  JOB TICKET NUMB
 RIG .                     DWG:  RIG NAME
 DOE .                     N/A:  DOE NUMBER
 DCON.         Sperry Drilling:  DIRECTNL CONTR
 UNIT.                     N/A:  LOGGING EQUIPMENT ID
 CNTY.                        :  COUNTY
 LOC .                        :  LOCATION
 LMF .             Drill Floor:  LOG MEASURED FROM
 TVDS.m                  43.16:  TVDSS CORRECTN
 LATI.deg                40.17:  LATITUDE
 LONG.deg                51.17:  LONGITUDE
 WHNS.m                  -5.90:  WELL HEAD N/S
 WHEW.m                  -6.61:  WELL HEAD E/W
 UTMX.m              514337.95:  UTM X
 UTMY.m             4448627.46:  UTM Y
 DFWL.m                   0.00:  DISTANCE FWL
 DFSL.m                   0.00:  DISTANCE FSL
 SDEP.m                2606.87:  START DEPTH
 TDD .m                3618.01:  TOTAL DEPTH (DRILLER)
 VSDR.deg               177.42:  VERT SEC DIRECT
 GVFD.g                   1.00:  GRAVITY FIELD
 MFLD.nT              50399.00:  MAGNETIC FIELD
 MDIP.deg                59.67:  MAGNETIC DIP
 MDEC.deg                 6.56:  MAGNETIC DECL
 GRDC.deg                 0.11:  GRID CORRECTION
 AZTC.deg                 6.45:  AZM TOTAL CORR
 EPD .m                   0.00:  ELEVATION
 EGL .m                   0.00:  GROUND ELEVATION
 WDMS.m                 176.20:  WD ELEV
 APD .m                  43.16:  DEPTH ABOVE PD
 DEP .m                2606.87:  DEPTH
 AGAP.m                  43.16:  AIR GAP
 VSEW.m                  -6.61:  VERT SEC E/W
 VSNS.m                  -5.90:  VERT SEC N/S
 EKB .m                  43.16:  KB ELEVATION
 EDF .m                  43.16:  DF ELEVATION
 TDL .m                 438.00:  TOTAL DEPTH (LOGGER)
 VSC .                       0:  VS TO CLOSURE
 MAGU.                 1855490:  MAGUTM CHECKSUM
~Parameter Information Block
#MNEM.UNIT       Value        Description
#---------     -----------    ---------------------------
 AV  .mps                 2.20:  Ann Velocity 
 AVMX.mps                 2.50:  Max Ann Veloc 
 AZIF.deg               150.21:  Azm, Final 
 BHAT.        Rotary Steerable:  BHA Type 
 BROT.°/30m               0.08:  Build Rotating 
 BS  .in                  6.50:  Bit Size 
 BSZ .in                  6.50:  Bit Size 
 BTPL.psig              108.00:  Bit Press Loss 
 CABU.                     Yes:  Customer Abuse 
 CGEO.           Emin Aliyarli:  Customer Geo 
 COMM.                     LÊS:  Run Comments 1 
 TCS .hr                 74.20:  Time Ciculation Ended 
 CV  .mps                 3.63:  Crit Velocity 
 CVMX.mps                 3.66:  Max Crit Veloc 
 DD1 .         Intigam Rahimov:  Direct Drillr 1 
 DD2 .          Teymur Aghayev:  Direct Drillr 2 
 DDSV.               Geo-Pilot:  DD Service 
 DEFF.%                  97.00:  % Det Eff 
 DLRX.°/30m               1.63:  Dogleg Rot Max 
 DLSO.°/30m               0.00:  Dogleg Oriented 
 DLSX.°/30m               0.00:  Dogleg Str Max 
 DRET.      20.20.00 28-Apr-21:  Drill End Time 
 DRST.      04.45.00 26-Apr-21:  Drill Start Tim 
 DTIM.hr                 34.30:  Time Drilling 
 EDEP.m                3618.01:  End Depth 
 ENG1.           Amrah Tahirov:  Engineer 1 
 ENG2.         Bahruz Mehdiyev:  Engineer 2 
 ENG3.         Farhad Orujzade:  Engineer 3 
 ETIM.      19.00.00 29-Apr-21:  End Time 
 FLOI.gpm               370.00:  Flow In 
 FLON.gpm               300.00:  Flow In Min 
 FLOS.cptm                0.00:  Fluid Loss 
 FLOX.gpm               410.00:  Flow In Max 
 HFLO.                      No:  High Flow 
 HPRE.                      No:  High Pressure 
 HTEM.                      No:  High Temp 
 HYDO.m                   1.80:  Hydro Offset 
 IFIN.deg                67.19:  Inc, Final 
 IMAX.deg                68.42:  Inc Max 
 IMIN.deg                66.33:  Inc Min 
 IMND.m                3532.79:  Inc Min Depth 
 IMXD.m                3192.15:  Inc Max Depth 
 JARR.                      No:  Jarring 
 LETM.      20.20.00 28-Apr-21:  Log End Time 
 LOST.hr                     0:  Lost Rig Time 
 LSTM.      04.45.00 26-Apr-21:  Log Start Time 
 MDCL.ppm             36500.00:  Mud Chlorides 
 MDES.     Inversion Oil/Synthetic:  Mud Desc 
 DFD .sg                  1.42:  Mud Density 
 MDMN.sg                  1.42:  Dens Mud Min 
 MDMX.sg                  1.42:  Dens Mud Max 
 MOIL.                    55.7:  Run Mud Oil % 
 MOWR.                   71:29:  Run Mud OWR 
 MSND.                     0.1:  Run Mud Sand % 
 MSOL.                    19.9:  Run Mud Solids% 
 DFV .spqt               83.00:  Mud Viscosity 
 MWOD.in                  5.15:  MWD Tool OD 
 MWSI.                      No:  Serv Intrp, MWD 
 OTIM.hr                120.59:  Time Operating 
 PCON.           Look Like New:  Pad Condition 
 PMAX.psia            11292.93:  Press Op, Max 
 PV  .cP                 27.00:  Mud PV 
 RUN .                     400:  Run Number 
 ROPA.m/hr               14.00:  ROP Avg 
 ROPN.m/hr                9.00:  ROP Min 
 ROPX.m/hr               18.00:  ROP Max 
 RPMA.rpm               130.00:  RPM Surface Avg 
 RPMN.rpm               100.00:  RPM Surface Min 
 RPMX.rpm               140.00:  RPM Surface Max 
 RRUN.                    0400:  Rig Run Number 
 RTIM.hr                 38.60:  Time Reaming 
 SAZI.deg               149.55:  Azm, Start 
 SDEP.m                3180.01:  Start Depth 
 SIDD.                      No:  Serv Intrp, DD 
 SINC.deg                68.42:  Inc, Start 
 SPPA.psig             4400.00:  SPP Avg 
 SPPN.psig             3580.00:  SPP Min 
 SPPX.psig             4850.00:  SPP Max 
 STIM.      12.30.00 24-Apr-21:  Start Time 
 SVCS.                 DD, MWD:  Services 
 SVER.                    9.20:  Sperry Version 
 TDAT.m                 438.00:  Tot Depth Attmp 
 TDDF.                      No:  Trip for DD 
 TDLG.m                 438.00:  Tot Depth Loggd 
 TFF .                      No:  Trip for Fail 
 TQAA.f-kp               11.00:  Torque Abs Avg 
 TQAN.f-kp                9.00:  Torque Abs Min 
 TQAX.f-kp               14.00:  Torque Abs Max 
 TRRT.°/30m               0.04:  Turn Rotating 
 MRT .                    HCIM:  Maximum Recorded Temperature 
 TTMX.degC               84.31:  Max Tool Temp 
 VS01.                90521954:  Virtual Str1 SN 
 VS02.                90519327:  Virtual Str2 SN 
 VS03.                90522273:  Virtual Str3 SN 
 VS04.                11108038:  Virtual Str4 SN 
 VS05.                12258760:  Virtual Str5 SN 
 WBMN.klb                 1.00:  WOB Min 
 WITN.           Adil Mammadov:  Customer Rep 
 WITN.         Alex Yadullayev:  Customer Rep 2 
 WOBA.klb                 6.00:  WOB Avg 
 WOBX.klb                 9.00:  WOB Max 
 YP  .lhf2               31.00:  Yield Point 
~Curve Information Block
#MNEM.UNIT                 API CODE     Curve Description
#---------               -----------    ---------------------------
 TIME.HHMMSS            00 000 000 000:  GT Time & Date
 GTDEPTH.m              00 000 000 000:  GT Depth
 GTPQH.psia             00 000 000 000:  GT HR Quartz Pressure
 GTTQ.degC              00 000 000 000:  GT Quartz Temperature
 GTTN.NONE              00 000 000 000:  GT Test Number
 GTET.sec               00 000 000 000:  GT Elapsed Test Time
 GTTVD.m                00 000 000 000:  GT True Vertical Depth
#Other Information
#
#WARRANTY: Halliburton will use its best efforts to furnish customers with 
#accurate information and interpretations that are part of, and incident to, the services 
#provided.  However, Halliburton cannot and does not warrant the accuracy 
#or correctness of such information and interpretations.  Under no circumstances should any 
#such information or interpretation be relied upon as the sole basis for any drilling, 
#completion, production, or financial decision or any procedure involving any risk to the 
#safety of any drilling venture, drilling rig or its crew or any other third party.  The 
#Customer has full responsibility for all drilling, completion and production operation.  
#Halliburton makes no representations or warranties, either expressed or 
#implied, including, but not limited to, the implied warranties of merchantability or fitness 
#for a particular purpose, with respect to the services rendered.  In no event will 
#Halliburton be liable for failure to obtain any particular results or for 
#any damages, including, but not limited to, indirect, special or consequential damages, 
#resulting from the use of any information or interpretation provided by Halliburton.
#
~A           TIME           GTDEPTH  GTPQH  GTTQ  GTTN  GTET   GTTVD  
# ...
   19:07:05.677.27-Apr-2021 3392.01 3473.60 72.93 5.00 207.05 2716.87
   19:07:05.877.27-Apr-2021 3392.01 3473.60 72.93 5.00 207.25 2716.87
   19:07:06.078.27-Apr-2021 3392.01 3473.62 72.93 5.00 207.45 2716.87
   19:07:06.278.27-Apr-2021 3392.01 3473.64 72.93 5.00 207.65 2716.87
   19:07:06.478.27-Apr-2021 3392.01 3473.59 72.93 5.00 207.85 2716.87
   19:07:06.678.27-Apr-2021 3392.01 3473.63 72.93 5.00 208.05 2716.87
   19:07:06.878.27-Apr-2021 3392.01 3473.63 72.93 5.00 208.25 2716.87
   19:07:07.078.27-Apr-2021 3392.01 3473.59 72.93 5.00 208.45 2716.87
   19:07:07.278.27-Apr-2021 3392.01 3473.64 72.92 5.00 208.65 2716.87
   19:07:07.478.27-Apr-2021 3392.01 3473.58 72.92 5.00 208.85 2716.87
   19:07:07.678.27-Apr-2021 3392.01 3473.61 72.92 5.00 209.05 2716.87
   19:07:07.878.27-Apr-2021 3392.01 3473.61 72.92 5.00 209.25 2716.87
   19:07:08.078.27-Apr-2021 3392.01 3473.42 72.92 5.00 209.45 2716.87
   19:07:08.278.27-Apr-2021 3392.01 3473.69 72.92 5.00 209.65 2716.87
   19:07:08.478.27-Apr-2021 3392.01 3473.64 72.92 5.00 209.85 2716.87
   19:07:08.678.27-Apr-2021 3392.01 3473.57 72.92 5.00 210.05 2716.87
   19:07:08.878.27-Apr-2021 3392.01 3473.57 72.92 5.00 210.25 2716.87
   19:07:09.078.27-Apr-2021 3392.01 3473.62 72.92 5.00 210.45 2716.87
   19:07:09.278.27-Apr-2021 3392.01 3473.58 72.92 5.00 210.65 2716.87
   19:07:09.478.27-Apr-2021 3392.01 3473.62 72.92 5.00 210.85 2716.87
   19:07:09.678.27-Apr-2021 3392.01 3473.58 72.92 5.00 211.05 2716.87
   19:07:09.878.27-Apr-2021 3392.01 3473.58 72.92 5.00 211.25 2716.87
   19:07:10.078.27-Apr-2021 3392.01 3473.58 72.92 5.00 211.45 2716.87
   19:07:10.279.27-Apr-2021 3392.01 3473.59 72.92 5.00 211.65 2716.87
   19:07:10.479.27-Apr-2021 3392.01 3473.60 72.92 5.00 211.85 2716.87
   19:07:10.679.27-Apr-2021 3392.01 3473.57 72.92 5.00 212.05 2716.87
   19:07:10.879.27-Apr-2021 3392.01 3473.57 72.92 5.00 212.25 2716.87
   19:07:11.079.27-Apr-2021 3392.01 3473.64 72.92 5.00 212.45 2716.87
   19:07:11.279.27-Apr-2021 3392.01 3473.64 72.92 5.00 212.65 2716.87
   19:07:11.479.27-Apr-2021 3392.01 3473.57 72.92 5.00 212.85 2716.87
   19:07:11.679.27-Apr-2021 3392.01 3473.63 72.91 5.00 213.05 2716.87
   19:07:11.879.27-Apr-2021 3392.01 3473.63 72.91 5.00 213.25 2716.87
   19:07:12.079.27-Apr-2021 3392.01 3473.70 72.91 5.00 213.45 2716.87
   19:07:12.279.27-Apr-2021 3392.01 3473.62 72.91 5.00 213.65 2716.87
   19:07:12.479.27-Apr-2021 3392.01 3473.58 72.91 5.00 213.85 2716.87
   19:07:12.679.27-Apr-2021 3392.01 3473.52 72.91 5.00 214.05 2716.87
   19:07:12.879.27-Apr-2021 3392.01 3473.52 72.91 5.00 214.25 2716.87
   19:07:13.079.27-Apr-2021 3392.01 3473.60 72.91 5.00 214.45 2716.87
   19:07:13.279.27-Apr-2021 3392.01 3473.58 72.91 5.00 214.65 2716.87
   19:07:13.479.27-Apr-2021 3392.01 3473.63 72.91 5.00 214.85 2716.87
   19:07:13.679.27-Apr-2021 3392.01 3473.58 72.91 5.00 215.05 2716.87
   19:07:13.879.27-Apr-2021 3392.01 3473.58 72.91 5.00 215.25 2716.87
   19:07:14.079.27-Apr-2021 3392.01 3473.65 72.91 5.00 215.45 2716.87
   19:07:14.280.27-Apr-2021 3392.01 3473.67 72.91 5.00 215.65 2716.87
   19:07:14.480.27-Apr-2021 3392.01 3473.56 72.91 5.00 215.85 2716.87
   19:07:14.680.27-Apr-2021 3392.01 3473.62 72.91 5.00 216.05 2716.87
   19:07:14.880.27-Apr-2021 3392.01 3473.62 72.91 5.00 216.25 2716.87
   19:07:15.080.27-Apr-2021 3392.01 3473.57 72.91 5.00 216.45 2716.87
   19:07:15.280.27-Apr-2021 3392.01 3473.63 72.91 5.00 216.65 2716.87
   19:07:15.480.27-Apr-2021 3392.01 3473.55 72.91 5.00 216.85 2716.87
   19:07:15.680.27-Apr-2021 3392.01 3473.62 72.91 5.00 217.05 2716.87
   19:07:15.880.27-Apr-2021 3392.01 3473.62 72.91 5.00 217.25 2716.87
   19:07:16.080.27-Apr-2021 3392.01 3473.58 72.91 5.00 217.45 2716.87
   19:07:16.280.27-Apr-2021 3392.01 3473.57 72.90 5.00 217.65 2716.87
   19:07:16.480.27-Apr-2021 3392.01 3473.45 72.90 5.00 217.85 2716.87
   19:07:16.680.27-Apr-2021 3392.01 3473.61 72.90 5.00 218.05 2716.87
   19:07:16.880.27-Apr-2021 3392.01 3473.61 72.90 5.00 218.25 2716.87
   19:07:17.080.27-Apr-2021 3392.01 3473.59 72.90 5.00 218.45 2716.87
   19:07:17.280.27-Apr-2021 3392.01 3473.58 72.90 5.00 218.65 2716.87
   19:07:17.480.27-Apr-2021 3392.01 3473.61 72.90 5.00 218.85 2716.87
   19:07:17.680.27-Apr-2021 3392.01 3473.54 72.90 5.00 219.05 2716.87
   19:07:17.880.27-Apr-2021 3392.01 3473.54 72.90 5.00 219.25 2716.87
   19:07:18.080.27-Apr-2021 3392.01 3473.57 72.90 5.00 219.45 2716.87
   19:07:18.280.27-Apr-2021 3392.01 3473.58 72.90 5.00 219.65 2716.87
   19:07:18.481.27-Apr-2021 3392.01 3473.58 72.90 5.00 219.85 2716.87
   19:07:18.681.27-Apr-2021 3392.01 3473.56 72.90 5.00 220.05 2716.87
   19:07:18.881.27-Apr-2021 3392.01 3473.56 72.90 5.00 220.25 2716.87
   19:07:19.081.27-Apr-2021 3392.01 3473.56 72.90 5.00 220.45 2716.87
   19:07:19.281.27-Apr-2021 3392.01 3473.40 72.90 5.00 220.65 2716.87
   19:07:19.481.27-Apr-2021 3392.01 3473.65 72.90 5.00 220.85 2716.87
   19:07:19.681.27-Apr-2021 3392.01 3473.63 72.90 5.00 221.05 2716.87
   19:07:19.881.27-Apr-2021 3392.01 3473.63 72.90 5.00 221.25 2716.87
   19:07:20.081.27-Apr-2021 3392.01 3473.63 72.90 5.00 221.45 2716.87
   19:07:20.281.27-Apr-2021 3392.01 3473.39 72.90 5.00 221.65 2716.87
   19:07:20.481.27-Apr-2021 3392.01 3473.69 72.90 5.00 221.85 2716.87
   19:07:20.681.27-Apr-2021 3392.01 3473.59 72.89 5.00 222.05 2716.87
   19:07:20.881.27-Apr-2021 3392.01 3473.59 72.89 5.00 222.25 2716.87
   19:07:21.081.27-Apr-2021 3392.01 3473.60 72.89 5.00 222.45 2716.87
   19:07:21.281.27-Apr-2021 3392.01 3473.50 72.89 5.00 222.65 2716.87
   19:07:21.481.27-Apr-2021 3392.01 3473.59 72.89 5.00 222.85 2716.87
   19:07:21.681.27-Apr-2021 3392.01 3473.57 72.89 5.00 223.05 2716.87
   19:07:21.881.27-Apr-2021 3392.01 3473.57 72.89 5.00 223.25 2716.87
   19:07:22.081.27-Apr-2021 3392.01 3473.57 72.89 5.00 223.45 2716.87
   19:07:22.281.27-Apr-2021 3392.01 3473.41 72.89 5.00 223.65 2716.87
   19:07:22.482.27-Apr-2021 3392.01 3473.66 72.89 5.00 223.85 2716.87
   19:07:22.682.27-Apr-2021 3392.01 3473.59 72.89 5.00 224.05 2716.87
   19:07:22.882.27-Apr-2021 3392.01 3473.59 72.89 5.00 224.25 2716.87
   19:07:23.082.27-Apr-2021 3392.01 3473.58 72.89 5.00 224.45 2716.87
   19:07:23.282.27-Apr-2021 3392.01 3473.61 72.89 5.00 224.65 2716.87
   19:07:23.482.27-Apr-2021 3392.01 3473.52 72.89 5.00 224.85 2716.87
   19:07:23.682.27-Apr-2021 3392.01 3473.62 72.89 5.00 225.05 2716.87
   19:07:23.882.27-Apr-2021 3392.01 3473.62 72.89 5.00 225.26 2716.87
   19:07:24.082.27-Apr-2021 3392.01 3473.59 72.89 5.00 225.46 2716.87
   19:07:24.282.27-Apr-2021 3392.01 3473.55 72.89 5.00 225.66 2716.87
   19:07:24.482.27-Apr-2021 3392.01 3473.55 72.89 5.00 225.86 2716.87
   19:07:24.682.27-Apr-2021 3392.01 3473.56 72.89 5.00 226.06 2716.87
   19:07:24.882.27-Apr-2021 3392.01 3473.56 72.89 5.00 226.26 2716.87
   19:07:25.082.27-Apr-2021 3392.01 3473.49 72.88 5.00 226.46 2716.87
   19:07:25.282.27-Apr-2021 3392.01 3473.56 72.88 5.00 226.66 2716.87
   19:07:25.482.27-Apr-2021 3392.01 3473.60 72.88 5.00 226.86 2716.87
   19:07:25.682.27-Apr-2021 3392.01 3473.53 72.88 5.00 227.06 2716.87
   19:07:25.882.27-Apr-2021 3392.01 3473.53 72.88 5.00 227.26 2716.87
   19:07:26.082.27-Apr-2021 3392.01 3473.55 72.88 5.00 227.46 2716.87
   19:07:26.282.27-Apr-2021 3392.01 3473.57 72.88 5.00 227.66 2716.87
   19:07:26.482.27-Apr-2021 3392.01 3473.57 72.88 5.00 227.86 2716.87
   19:07:26.683.27-Apr-2021 3392.01 3473.54 72.88 5.00 228.06 2716.87
   19:07:26.883.27-Apr-2021 3392.01 3473.54 72.88 5.00 228.26 2716.87
   19:07:27.083.27-Apr-2021 3392.01 3473.53 72.88 5.00 228.46 2716.87
   19:07:27.283.27-Apr-2021 3392.01 3473.56 72.88 5.00 228.66 2716.87
   19:07:27.483.27-Apr-2021 3392.01 3473.54 72.88 5.00 228.86 2716.87
   19:07:27.683.27-Apr-2021 3392.01 3473.43 72.88 5.00 229.06 2716.87
   19:07:27.883.27-Apr-2021 3392.01 3473.43 72.88 5.00 229.26 2716.87
   19:07:28.083.27-Apr-2021 3392.01 3473.57 72.88 5.00 229.46 2716.87
   19:07:28.283.27-Apr-2021 3392.01 3473.53 72.88 5.00 229.66 2716.87
   19:07:28.483.27-Apr-2021 3392.01 3473.58 72.88 5.00 229.86 2716.87
