~Version Information
 VERS.                  2.0:   CWLS log ASCII Standard -VERSION 2.0
 WRAP.                   NO:   One line per depth step
~Well Information Block
#MNEM.UNIT     VALUE/NAME     DESCRIPTION
#---------     -----------    ---------------------------
 STRT.S             06:42:00 27-Apr-21: START TIME 06:42:00 27-Apr-21
 STOP.S             06:48:27 27-Apr-21: STOP TIME  06:48:27 27-Apr-21
 STEP.S                   0.00: STEP TIME
 NULL.                 -999.25: NULL VALUE
 DFWT.                        :  DIST FWL TEXT
 DFST.                        :  DIST FSL TEXT
 DMF .             Drill Floor:  DRILL MEAS FROM
 STIM.      02.00.00 12-Apr-21:  START TIME
 DATE.      02.00.00 02-May-21:  END TIME
 SPUD.               09-Apr-21:  SPUD DATE
 NREF.                    Grid:  NORTH REFERENCE
 HPTY.       Minimum Curvature:  HOLE POS TYPE
 DMOD.             Drill Model:  DRILL MOD DESC
 SVYD.                  Survey:  SURVEY DESC
 ILTD.               Lithology:  INTERP LTH DESC
 FTOP.          Formation Tops:  FORM TOPS DESC
 PDAT.          Mean Sea Level:  PERMANENT DATUM
 FLD .                     ACG:  FIELD NAME
 SON .        AZ-XX-0907021034:  JOB NUMBER
 CTRY.              Azerbaijan:  COUNTRY NAME
 WELL.                    E01x:  WELL NAME
 COMP.     BP Exploration (Caspian Sea) LTD.:  COMPANY
 UWI .            /AZE00001403:  UNIQUE WELL IDENTIFIER
 API .            /AZE00001403:  API NUMBER
 WTYP.                Deviated:  WELL TYPE
 MDS .        Operator Entered:  MAG DATA SOURCE
 BASE.              Azerbaijan:  LOGGING EQUIPMENT BASE LOCATION
 REGN.                   EESSA:  REGION
 PROV.                    Baku:  PROVINCE
 STAT.                    Baku:  STATE NAME
 SRVC.          Turan Drilling:  CONTRACTOR
 MWDS.                    Baku:  MWD SHOP
 JOBN.        AZ-XX-0907021034:  JOB TICKET NUMB
 RIG .                     DWG:  RIG NAME
 DOE .                     N/A:  DOE NUMBER
 DCON.         Sperry Drilling:  DIRECTNL CONTR
 UNIT.                     N/A:  LOGGING EQUIPMENT ID
 CNTY.                        :  COUNTY
 LOC .                        :  LOCATION
 LMF .             Drill Floor:  LOG MEASURED FROM
 TVDS.m                  43.16:  TVDSS CORRECTN
 LATI.deg                40.17:  LATITUDE
 LONG.deg                51.17:  LONGITUDE
 WHNS.m                  -5.90:  WELL HEAD N/S
 WHEW.m                  -6.61:  WELL HEAD E/W
 UTMX.m              514337.95:  UTM X
 UTMY.m             4448627.46:  UTM Y
 DFWL.m                   0.00:  DISTANCE FWL
 DFSL.m                   0.00:  DISTANCE FSL
 SDEP.m                2606.87:  START DEPTH
 TDD .m                3618.01:  TOTAL DEPTH (DRILLER)
 VSDR.deg               177.42:  VERT SEC DIRECT
 GVFD.g                   1.00:  GRAVITY FIELD
 MFLD.nT              50399.00:  MAGNETIC FIELD
 MDIP.deg                59.67:  MAGNETIC DIP
 MDEC.deg                 6.56:  MAGNETIC DECL
 GRDC.deg                 0.11:  GRID CORRECTION
 AZTC.deg                 6.45:  AZM TOTAL CORR
 EPD .m                   0.00:  ELEVATION
 EGL .m                   0.00:  GROUND ELEVATION
 WDMS.m                 176.20:  WD ELEV
 APD .m                  43.16:  DEPTH ABOVE PD
 DEP .m                2606.87:  DEPTH
 AGAP.m                  43.16:  AIR GAP
 VSEW.m                  -6.61:  VERT SEC E/W
 VSNS.m                  -5.90:  VERT SEC N/S
 EKB .m                  43.16:  KB ELEVATION
 EDF .m                  43.16:  DF ELEVATION
 TDL .m                 438.00:  TOTAL DEPTH (LOGGER)
 VSC .                       0:  VS TO CLOSURE
 MAGU.                 1855490:  MAGUTM CHECKSUM
~Parameter Information Block
#MNEM.UNIT       Value        Description
#---------     -----------    ---------------------------
 AV  .mps                 2.20:  Ann Velocity 
 AVMX.mps                 2.50:  Max Ann Veloc 
 AZIF.deg               150.21:  Azm, Final 
 BHAT.        Rotary Steerable:  BHA Type 
 BROT.°/30m               0.08:  Build Rotating 
 BS  .in                  6.50:  Bit Size 
 BSZ .in                  6.50:  Bit Size 
 BTPL.psig              108.00:  Bit Press Loss 
 CABU.                     Yes:  Customer Abuse 
 CGEO.           Emin Aliyarli:  Customer Geo 
 COMM.                     )M:  Run Comments 1 
 TCS .hr                 74.20:  Time Ciculation Ended 
 CV  .mps                 3.63:  Crit Velocity 
 CVMX.mps                 3.66:  Max Crit Veloc 
 DD1 .         Intigam Rahimov:  Direct Drillr 1 
 DD2 .          Teymur Aghayev:  Direct Drillr 2 
 DDSV.               Geo-Pilot:  DD Service 
 DEFF.%                  97.00:  % Det Eff 
 DLRX.°/30m               1.63:  Dogleg Rot Max 
 DLSO.°/30m               0.00:  Dogleg Oriented 
 DLSX.°/30m               0.00:  Dogleg Str Max 
 DRET.      20.20.00 28-Apr-21:  Drill End Time 
 DRST.      04.45.00 26-Apr-21:  Drill Start Tim 
 DTIM.hr                 34.30:  Time Drilling 
 EDEP.m                3618.01:  End Depth 
 ENG1.           Amrah Tahirov:  Engineer 1 
 ENG2.         Bahruz Mehdiyev:  Engineer 2 
 ENG3.         Farhad Orujzade:  Engineer 3 
 ETIM.      19.00.00 29-Apr-21:  End Time 
 FLOI.gpm               370.00:  Flow In 
 FLON.gpm               300.00:  Flow In Min 
 FLOS.cptm                0.00:  Fluid Loss 
 FLOX.gpm               410.00:  Flow In Max 
 HFLO.                      No:  High Flow 
 HPRE.                      No:  High Pressure 
 HTEM.                      No:  High Temp 
 HYDO.m                   1.80:  Hydro Offset 
 IFIN.deg                67.19:  Inc, Final 
 IMAX.deg                68.42:  Inc Max 
 IMIN.deg                66.33:  Inc Min 
 IMND.m                3532.79:  Inc Min Depth 
 IMXD.m                3192.15:  Inc Max Depth 
 JARR.                      No:  Jarring 
 LETM.      20.20.00 28-Apr-21:  Log End Time 
 LOST.hr                     0:  Lost Rig Time 
 LSTM.      04.45.00 26-Apr-21:  Log Start Time 
 MDCL.ppm             36500.00:  Mud Chlorides 
 MDES.     Inversion Oil/Synthetic:  Mud Desc 
 DFD .sg                  1.42:  Mud Density 
 MDMN.sg                  1.42:  Dens Mud Min 
 MDMX.sg                  1.42:  Dens Mud Max 
 MOIL.                    55.7:  Run Mud Oil % 
 MOWR.                   71:29:  Run Mud OWR 
 MSND.                     0.1:  Run Mud Sand % 
 MSOL.                    19.9:  Run Mud Solids% 
 DFV .spqt               83.00:  Mud Viscosity 
 MWOD.in                  5.15:  MWD Tool OD 
 MWSI.                      No:  Serv Intrp, MWD 
 OTIM.hr                120.59:  Time Operating 
 PCON.           Look Like New:  Pad Condition 
 PMAX.psia            11292.93:  Press Op, Max 
 PV  .cP                 27.00:  Mud PV 
 RUN .                     400:  Run Number 
 ROPA.m/hr               14.00:  ROP Avg 
 ROPN.m/hr                9.00:  ROP Min 
 ROPX.m/hr               18.00:  ROP Max 
 RPMA.rpm               130.00:  RPM Surface Avg 
 RPMN.rpm               100.00:  RPM Surface Min 
 RPMX.rpm               140.00:  RPM Surface Max 
 RRUN.                    0400:  Rig Run Number 
 RTIM.hr                 38.60:  Time Reaming 
 SAZI.deg               149.55:  Azm, Start 
 SDEP.m                3180.01:  Start Depth 
 SIDD.                      No:  Serv Intrp, DD 
 SINC.deg                68.42:  Inc, Start 
 SPPA.psig             4400.00:  SPP Avg 
 SPPN.psig             3580.00:  SPP Min 
 SPPX.psig             4850.00:  SPP Max 
 STIM.      12.30.00 24-Apr-21:  Start Time 
 SVCS.                 DD, MWD:  Services 
 SVER.                    9.20:  Sperry Version 
 TDAT.m                 438.00:  Tot Depth Attmp 
 TDDF.                      No:  Trip for DD 
 TDLG.m                 438.00:  Tot Depth Loggd 
 TFF .                      No:  Trip for Fail 
 TQAA.f-kp               11.00:  Torque Abs Avg 
 TQAN.f-kp                9.00:  Torque Abs Min 
 TQAX.f-kp               14.00:  Torque Abs Max 
 TRRT.°/30m               0.04:  Turn Rotating 
 MRT .                    HCIM:  Maximum Recorded Temperature 
 TTMX.degC               84.31:  Max Tool Temp 
 VS01.                90521954:  Virtual Str1 SN 
 VS02.                90519327:  Virtual Str2 SN 
 VS03.                90522273:  Virtual Str3 SN 
 VS04.                11108038:  Virtual Str4 SN 
 VS05.                12258760:  Virtual Str5 SN 
 WBMN.klb                 1.00:  WOB Min 
 WITN.           Adil Mammadov:  Customer Rep 
 WITN.         Alex Yadullayev:  Customer Rep 2 
 WOBA.klb                 6.00:  WOB Avg 
 WOBX.klb                 9.00:  WOB Max 
 YP  .lhf2               31.00:  Yield Point 
~Curve Information Block
#MNEM.UNIT                 API CODE     Curve Description
#---------               -----------    ---------------------------
 TIME.HHMMSS            00 000 000 000:  GT Time & Date
 GTDEPTH.m              00 000 000 000:  GT Depth
 GTPQH.psia             00 000 000 000:  GT HR Quartz Pressure
 GTTQ.degC              00 000 000 000:  GT Quartz Temperature
 GTTN.NONE              00 000 000 000:  GT Test Number
 GTET.sec               00 000 000 000:  GT Elapsed Test Time
 GTTVD.m                00 000 000 000:  GT True Vertical Depth
#Other Information
#
#WARRANTY: Halliburton will use its best efforts to furnish customers with 
#accurate information and interpretations that are part of, and incident to, the services 
#provided.  However, Halliburton cannot and does not warrant the accuracy 
#or correctness of such information and interpretations.  Under no circumstances should any 
#such information or interpretation be relied upon as the sole basis for any drilling, 
#completion, production, or financial decision or any procedure involving any risk to the 
#safety of any drilling venture, drilling rig or its crew or any other third party.  The 
#Customer has full responsibility for all drilling, completion and production operation.  
#Halliburton makes no representations or warranties, either expressed or 
#implied, including, but not limited to, the implied warranties of merchantability or fitness 
#for a particular purpose, with respect to the services rendered.  In no event will 
#Halliburton be liable for failure to obtain any particular results or for 
#any damages, including, but not limited to, indirect, special or consequential damages, 
#resulting from the use of any information or interpretation provided by Halliburton.
#
~A           TIME           GTDEPTH  GTPQH  GTTQ  GTTN  GTET   GTTVD  
# ...
   06:44:18.869.27-Apr-2021 3278.01 3731.08 73.95 4.00 138.01 2671.88
   06:44:19.069.27-Apr-2021 3278.01 3731.08 73.95 4.00 138.21 2671.88
   06:44:19.269.27-Apr-2021 3278.01 3725.84 73.95 4.00 138.41 2671.88
   06:44:19.469.27-Apr-2021 3278.01 3727.70 73.95 4.00 138.61 2671.88
   06:44:19.669.27-Apr-2021 3278.01 3725.76 73.95 4.00 138.81 2671.88
   06:44:19.869.27-Apr-2021 3278.01 3728.49 73.95 4.00 139.01 2671.88
   06:44:20.069.27-Apr-2021 3278.01 3728.49 73.95 4.00 139.21 2671.88
   06:44:20.269.27-Apr-2021 3278.01 3718.51 73.95 4.00 139.41 2671.88
   06:44:20.469.27-Apr-2021 3278.01 3718.28 73.95 4.00 139.61 2671.88
   06:44:20.669.27-Apr-2021 3278.01 3720.82 73.95 4.00 139.81 2671.88
   06:44:20.869.27-Apr-2021 3278.01 3718.02 73.95 4.00 140.01 2671.88
   06:44:21.069.27-Apr-2021 3278.01 3718.02 73.95 4.00 140.21 2671.88
   06:44:21.269.27-Apr-2021 3278.01 3721.25 73.94 4.00 140.41 2671.88
   06:44:21.469.27-Apr-2021 3278.01 3718.44 73.94 4.00 140.61 2671.88
   06:44:21.669.27-Apr-2021 3278.01 3720.63 73.94 4.00 140.81 2671.88
   06:44:21.869.27-Apr-2021 3278.01 3721.06 73.94 4.00 141.01 2671.88
   06:44:22.069.27-Apr-2021 3278.01 3721.06 73.94 4.00 141.21 2671.88
   06:44:22.269.27-Apr-2021 3278.01 3891.54 73.94 4.00 141.41 2671.88
   06:44:22.469.27-Apr-2021 3278.01 4141.71 73.94 4.00 141.61 2671.88
   06:44:22.669.27-Apr-2021 3278.01 4248.65 73.94 4.00 141.81 2671.88
   06:44:22.869.27-Apr-2021 3278.01 4292.62 73.94 4.00 142.01 2671.88
   06:44:23.069.27-Apr-2021 3278.01 4292.62 73.94 4.00 142.21 2671.88
   06:44:23.269.27-Apr-2021 3278.01 4325.29 73.94 4.00 142.41 2671.88
   06:44:23.469.27-Apr-2021 3278.01 4332.43 73.94 4.00 142.61 2671.88
   06:44:23.669.27-Apr-2021 3278.01 4337.37 73.94 4.00 142.81 2671.88
   06:44:23.869.27-Apr-2021 3278.01 4340.77 73.94 4.00 143.01 2671.88
   06:44:24.069.27-Apr-2021 3278.01 4340.77 73.94 4.00 143.21 2671.88
   06:44:24.269.27-Apr-2021 3278.01 4345.93 73.94 4.00 143.41 2671.88
   06:44:24.469.27-Apr-2021 3278.01 4348.26 73.94 4.00 143.61 2671.88
   06:44:24.669.27-Apr-2021 3278.01 4349.87 73.93 4.00 143.81 2671.88
   06:44:24.869.27-Apr-2021 3278.01 4351.46 73.93 4.00 144.01 2671.88
   06:44:25.069.27-Apr-2021 3278.01 4351.46 73.93 4.00 144.21 2671.88
   06:44:25.269.27-Apr-2021 3278.01 4354.06 73.93 4.00 144.41 2671.88
   06:44:25.469.27-Apr-2021 3278.01 4355.02 73.93 4.00 144.61 2671.88
   06:44:25.669.27-Apr-2021 3278.01 4355.56 73.93 4.00 144.81 2671.88
   06:44:25.869.27-Apr-2021 3278.01 4356.91 73.93 4.00 145.01 2671.88
   06:44:26.069.27-Apr-2021 3278.01 4356.91 73.93 4.00 145.21 2671.88
   06:44:26.269.27-Apr-2021 3278.01 4358.79 73.93 4.00 145.41 2671.88
   06:44:26.469.27-Apr-2021 3278.01 4359.60 73.93 4.00 145.61 2671.88
   06:44:26.669.27-Apr-2021 3278.01 4360.24 73.93 4.00 145.81 2671.88
   06:44:26.869.27-Apr-2021 3278.01 4360.68 73.93 4.00 146.01 2671.88
   06:44:27.069.27-Apr-2021 3278.01 4360.68 73.93 4.00 146.21 2671.88
   06:44:27.269.27-Apr-2021 3278.01 4362.40 73.93 4.00 146.41 2671.88
   06:44:27.469.27-Apr-2021 3278.01 4362.81 73.93 4.00 146.61 2671.88
   06:44:27.670.27-Apr-2021 3278.01 4363.10 73.93 4.00 146.81 2671.88
   06:44:27.870.27-Apr-2021 3278.01 4363.68 73.93 4.00 147.01 2671.88
   06:44:28.070.27-Apr-2021 3278.01 4363.68 73.93 4.00 147.21 2671.88
   06:44:28.270.27-Apr-2021 3278.01 4364.67 73.93 4.00 147.41 2671.88
   06:44:28.470.27-Apr-2021 3278.01 4365.01 73.93 4.00 147.61 2671.88
   06:44:28.670.27-Apr-2021 3278.01 4365.34 73.93 4.00 147.81 2671.88
   06:44:28.870.27-Apr-2021 3278.01 4365.58 73.93 4.00 148.01 2671.88
   06:44:29.070.27-Apr-2021 3278.01 4365.58 73.93 4.00 148.21 2671.88
   06:44:29.270.27-Apr-2021 3278.01 4365.58 73.93 4.00 148.41 2671.88
   06:44:29.470.27-Apr-2021 3278.01 4366.98 73.92 4.00 148.61 2671.88
   06:44:29.670.27-Apr-2021 3278.01 4367.09 73.92 4.00 148.81 2671.88
   06:44:29.870.27-Apr-2021 3278.01 4367.47 73.92 4.00 149.01 2671.88
   06:44:30.070.27-Apr-2021 3278.01 4367.47 73.92 4.00 149.21 2671.88
   06:44:30.270.27-Apr-2021 3278.01 4368.07 73.92 4.00 149.41 2671.88
   06:44:30.470.27-Apr-2021 3278.01 4368.27 73.92 4.00 149.61 2671.88
   06:44:30.670.27-Apr-2021 3278.01 4368.51 73.92 4.00 149.81 2671.88
   06:44:30.870.27-Apr-2021 3278.01 4368.65 73.92 4.00 150.01 2671.88
   06:44:31.070.27-Apr-2021 3278.01 4368.65 73.92 4.00 150.21 2671.88
   06:44:31.270.27-Apr-2021 3278.01 4369.03 73.92 4.00 150.41 2671.88
   06:44:31.470.27-Apr-2021 3278.01 4369.00 73.92 4.00 150.61 2671.88
   06:44:31.670.27-Apr-2021 3278.01 4369.47 73.92 4.00 150.81 2671.88
   06:44:31.870.27-Apr-2021 3278.01 4369.94 73.92 4.00 151.01 2671.88
   06:44:32.070.27-Apr-2021 3278.01 4369.94 73.92 4.00 151.21 2671.88
   06:44:32.270.27-Apr-2021 3278.01 4370.20 73.92 4.00 151.41 2671.88
   06:44:32.470.27-Apr-2021 3278.01 4370.51 73.92 4.00 151.61 2671.88
   06:44:32.670.27-Apr-2021 3278.01 4370.58 73.92 4.00 151.81 2671.88
   06:44:32.870.27-Apr-2021 3278.01 4370.93 73.92 4.00 152.01 2671.88
   06:44:33.070.27-Apr-2021 3278.01 4370.93 73.92 4.00 152.21 2671.88
   06:44:33.270.27-Apr-2021 3278.01 4371.24 73.92 4.00 152.41 2671.88
   06:44:33.470.27-Apr-2021 3278.01 4371.21 73.92 4.00 152.61 2671.88
   06:44:33.670.27-Apr-2021 3278.01 4371.50 73.92 4.00 152.81 2671.88
   06:44:33.870.27-Apr-2021 3278.01 4371.58 73.91 4.00 153.01 2671.88
   06:44:34.070.27-Apr-2021 3278.01 4371.58 73.91 4.00 153.21 2671.88
   06:44:34.270.27-Apr-2021 3278.01 4371.76 73.91 4.00 153.41 2671.88
   06:44:34.470.27-Apr-2021 3278.01 4372.05 73.91 4.00 153.61 2671.88
   06:44:34.670.27-Apr-2021 3278.01 4372.33 73.91 4.00 153.81 2671.88
   06:44:34.870.27-Apr-2021 3278.01 4372.52 73.91 4.00 154.01 2671.88
   06:44:35.070.27-Apr-2021 3278.01 4372.52 73.91 4.00 154.21 2671.88
   06:44:35.270.27-Apr-2021 3278.01 4372.56 73.91 4.00 154.41 2671.88
   06:44:35.470.27-Apr-2021 3278.01 4372.36 73.91 4.00 154.61 2671.88
   06:44:35.670.27-Apr-2021 3278.01 4373.08 73.91 4.00 154.81 2671.88
   06:44:35.870.27-Apr-2021 3278.01 4373.32 73.91 4.00 155.01 2671.88
   06:44:36.070.27-Apr-2021 3278.01 4373.32 73.91 4.00 155.21 2671.88
   06:44:36.270.27-Apr-2021 3278.01 4373.29 73.91 4.00 155.41 2671.88
   06:44:36.470.27-Apr-2021 3278.01 4372.92 73.91 4.00 155.61 2671.88
   06:44:36.670.27-Apr-2021 3278.01 4373.54 73.91 4.00 155.81 2671.88
   06:44:36.870.27-Apr-2021 3278.01 4373.49 73.91 4.00 156.01 2671.88
   06:44:37.070.27-Apr-2021 3278.01 4373.49 73.91 4.00 156.21 2671.88
   06:44:37.270.27-Apr-2021 3278.01 4373.74 73.91 4.00 156.41 2671.88
   06:44:37.470.27-Apr-2021 3278.01 4373.55 73.91 4.00 156.61 2671.88
   06:44:37.670.27-Apr-2021 3278.01 4373.87 73.91 4.00 156.81 2671.88
   06:44:37.870.27-Apr-2021 3278.01 4374.29 73.90 4.00 157.01 2671.88
   06:44:38.070.27-Apr-2021 3278.01 4374.29 73.90 4.00 157.21 2671.88
   06:44:38.270.27-Apr-2021 3278.01 4374.46 73.90 4.00 157.41 2671.88
   06:44:38.470.27-Apr-2021 3278.01 4374.37 73.90 4.00 157.61 2671.88
   06:44:38.670.27-Apr-2021 3278.01 4374.47 73.90 4.00 157.81 2671.88
   06:44:38.870.27-Apr-2021 3278.01 4374.42 73.90 4.00 158.01 2671.88
   06:44:39.070.27-Apr-2021 3278.01 4374.42 73.90 4.00 158.21 2671.88
   06:44:39.270.27-Apr-2021 3278.01 4374.52 73.90 4.00 158.41 2671.88
   06:44:39.471.27-Apr-2021 3278.01 4374.65 73.90 4.00 158.61 2671.88
   06:44:39.671.27-Apr-2021 3278.01 4374.53 73.90 4.00 158.81 2671.88
   06:44:39.871.27-Apr-2021 3278.01 4374.69 73.90 4.00 159.01 2671.88
   06:44:40.071.27-Apr-2021 3278.01 4374.69 73.90 4.00 159.21 2671.88
   06:44:40.271.27-Apr-2021 3278.01 4374.74 73.90 4.00 159.41 2671.88
   06:44:40.471.27-Apr-2021 3278.01 4375.03 73.90 4.00 159.61 2671.88
   06:44:40.671.27-Apr-2021 3278.01 4375.05 73.90 4.00 159.81 2671.88
   06:44:40.871.27-Apr-2021 3278.01 4375.13 73.90 4.00 160.01 2671.88
   06:44:41.071.27-Apr-2021 3278.01 4375.13 73.90 4.00 160.21 2671.88
   06:44:41.271.27-Apr-2021 3278.01 4375.31 73.90 4.00 160.41 2671.88
   06:44:41.471.27-Apr-2021 3278.01 4375.37 73.90 4.00 160.61 2671.88
   06:44:41.671.27-Apr-2021 3278.01 4375.56 73.90 4.00 160.81 2671.88
