~Version Information
 VERS.                  2.0:   CWLS log ASCII Standard -VERSION 2.0
 WRAP.                   NO:   One line per depth step
~Well Information Block
#MNEM.UNIT     VALUE/NAME     DESCRIPTION
#---------     -----------    ---------------------------
 STRT.S             00:41:47 27-Apr-21: START TIME 00:41:47 27-Apr-21
 STOP.S             00:48:15 27-Apr-21: STOP TIME  00:48:15 27-Apr-21
 STEP.S                   0.00: STEP TIME
 NULL.                 -999.25: NULL VALUE
 DFWT.                        :  DIST FWL TEXT
 DFST.                        :  DIST FSL TEXT
 DMF .             Drill Floor:  DRILL MEAS FROM
 STIM.      02.00.00 12-Apr-21:  START TIME
 DATE.      02.00.00 02-May-21:  END TIME
 SPUD.               09-Apr-21:  SPUD DATE
 NREF.                    Grid:  NORTH REFERENCE
 HPTY.       Minimum Curvature:  HOLE POS TYPE
 DMOD.             Drill Model:  DRILL MOD DESC
 SVYD.                  Survey:  SURVEY DESC
 ILTD.               Lithology:  INTERP LTH DESC
 FTOP.          Formation Tops:  FORM TOPS DESC
 PDAT.          Mean Sea Level:  PERMANENT DATUM
 FLD .                     ACG:  FIELD NAME
 SON .        AZ-XX-0907021034:  JOB NUMBER
 CTRY.              Azerbaijan:  COUNTRY NAME
 WELL.                    E01x:  WELL NAME
 COMP.     BP Exploration (Caspian Sea) LTD.:  COMPANY
 UWI .            /AZE00001403:  UNIQUE WELL IDENTIFIER
 API .            /AZE00001403:  API NUMBER
 WTYP.                Deviated:  WELL TYPE
 MDS .        Operator Entered:  MAG DATA SOURCE
 BASE.              Azerbaijan:  LOGGING EQUIPMENT BASE LOCATION
 REGN.                   EESSA:  REGION
 PROV.                    Baku:  PROVINCE
 STAT.                    Baku:  STATE NAME
 SRVC.          Turan Drilling:  CONTRACTOR
 MWDS.                    Baku:  MWD SHOP
 JOBN.        AZ-XX-0907021034:  JOB TICKET NUMB
 RIG .                     DWG:  RIG NAME
 DOE .                     N/A:  DOE NUMBER
 DCON.         Sperry Drilling:  DIRECTNL CONTR
 UNIT.                     N/A:  LOGGING EQUIPMENT ID
 CNTY.                        :  COUNTY
 LOC .                        :  LOCATION
 LMF .             Drill Floor:  LOG MEASURED FROM
 TVDS.m                  43.16:  TVDSS CORRECTN
 LATI.deg                40.17:  LATITUDE
 LONG.deg                51.17:  LONGITUDE
 WHNS.m                  -5.90:  WELL HEAD N/S
 WHEW.m                  -6.61:  WELL HEAD E/W
 UTMX.m              514337.95:  UTM X
 UTMY.m             4448627.46:  UTM Y
 DFWL.m                   0.00:  DISTANCE FWL
 DFSL.m                   0.00:  DISTANCE FSL
 SDEP.m                2606.87:  START DEPTH
 TDD .m                3618.01:  TOTAL DEPTH (DRILLER)
 VSDR.deg               177.42:  VERT SEC DIRECT
 GVFD.g                   1.00:  GRAVITY FIELD
 MFLD.nT              50399.00:  MAGNETIC FIELD
 MDIP.deg                59.67:  MAGNETIC DIP
 MDEC.deg                 6.56:  MAGNETIC DECL
 GRDC.deg                 0.11:  GRID CORRECTION
 AZTC.deg                 6.45:  AZM TOTAL CORR
 EPD .m                   0.00:  ELEVATION
 EGL .m                   0.00:  GROUND ELEVATION
 WDMS.m                 176.20:  WD ELEV
 APD .m                  43.16:  DEPTH ABOVE PD
 DEP .m                2606.87:  DEPTH
 AGAP.m                  43.16:  AIR GAP
 VSEW.m                  -6.61:  VERT SEC E/W
 VSNS.m                  -5.90:  VERT SEC N/S
 EKB .m                  43.16:  KB ELEVATION
 EDF .m                  43.16:  DF ELEVATION
 TDL .m                 438.00:  TOTAL DEPTH (LOGGER)
 VSC .                       0:  VS TO CLOSURE
 MAGU.                 1855490:  MAGUTM CHECKSUM
~Parameter Information Block
#MNEM.UNIT       Value        Description
#---------     -----------    ---------------------------
 AV  .mps                 2.20:  Ann Velocity 
 AVMX.mps                 2.50:  Max Ann Veloc 
 AZIF.deg               150.21:  Azm, Final 
 BHAT.        Rotary Steerable:  BHA Type 
 BROT.°/30m               0.08:  Build Rotating 
 BS  .in                  6.50:  Bit Size 
 BSZ .in                  6.50:  Bit Size 
 BTPL.psig              108.00:  Bit Press Loss 
 CABU.                     Yes:  Customer Abuse 
 CGEO.           Emin Aliyarli:  Customer Geo 
 COMM.                     lJm:  Run Comments 1 
 TCS .hr                 74.20:  Time Ciculation Ended 
 CV  .mps                 3.63:  Crit Velocity 
 CVMX.mps                 3.66:  Max Crit Veloc 
 DD1 .         Intigam Rahimov:  Direct Drillr 1 
 DD2 .          Teymur Aghayev:  Direct Drillr 2 
 DDSV.               Geo-Pilot:  DD Service 
 DEFF.%                  97.00:  % Det Eff 
 DLRX.°/30m               1.63:  Dogleg Rot Max 
 DLSO.°/30m               0.00:  Dogleg Oriented 
 DLSX.°/30m               0.00:  Dogleg Str Max 
 DRET.      20.20.00 28-Apr-21:  Drill End Time 
 DRST.      04.45.00 26-Apr-21:  Drill Start Tim 
 DTIM.hr                 34.30:  Time Drilling 
 EDEP.m                3618.01:  End Depth 
 ENG1.           Amrah Tahirov:  Engineer 1 
 ENG2.         Bahruz Mehdiyev:  Engineer 2 
 ENG3.         Farhad Orujzade:  Engineer 3 
 ETIM.      19.00.00 29-Apr-21:  End Time 
 FLOI.gpm               370.00:  Flow In 
 FLON.gpm               300.00:  Flow In Min 
 FLOS.cptm                0.00:  Fluid Loss 
 FLOX.gpm               410.00:  Flow In Max 
 HFLO.                      No:  High Flow 
 HPRE.                      No:  High Pressure 
 HTEM.                      No:  High Temp 
 HYDO.m                   1.80:  Hydro Offset 
 IFIN.deg                67.19:  Inc, Final 
 IMAX.deg                68.42:  Inc Max 
 IMIN.deg                66.33:  Inc Min 
 IMND.m                3532.79:  Inc Min Depth 
 IMXD.m                3192.15:  Inc Max Depth 
 JARR.                      No:  Jarring 
 LETM.      20.20.00 28-Apr-21:  Log End Time 
 LOST.hr                     0:  Lost Rig Time 
 LSTM.      04.45.00 26-Apr-21:  Log Start Time 
 MDCL.ppm             36500.00:  Mud Chlorides 
 MDES.     Inversion Oil/Synthetic:  Mud Desc 
 DFD .sg                  1.42:  Mud Density 
 MDMN.sg                  1.42:  Dens Mud Min 
 MDMX.sg                  1.42:  Dens Mud Max 
 MOIL.                    55.7:  Run Mud Oil % 
 MOWR.                   71:29:  Run Mud OWR 
 MSND.                     0.1:  Run Mud Sand % 
 MSOL.                    19.9:  Run Mud Solids% 
 DFV .spqt               83.00:  Mud Viscosity 
 MWOD.in                  5.15:  MWD Tool OD 
 MWSI.                      No:  Serv Intrp, MWD 
 OTIM.hr                120.59:  Time Operating 
 PCON.           Look Like New:  Pad Condition 
 PMAX.psia            11292.93:  Press Op, Max 
 PV  .cP                 27.00:  Mud PV 
 RUN .                     400:  Run Number 
 ROPA.m/hr               14.00:  ROP Avg 
 ROPN.m/hr                9.00:  ROP Min 
 ROPX.m/hr               18.00:  ROP Max 
 RPMA.rpm               130.00:  RPM Surface Avg 
 RPMN.rpm               100.00:  RPM Surface Min 
 RPMX.rpm               140.00:  RPM Surface Max 
 RRUN.                    0400:  Rig Run Number 
 RTIM.hr                 38.60:  Time Reaming 
 SAZI.deg               149.55:  Azm, Start 
 SDEP.m                3180.01:  Start Depth 
 SIDD.                      No:  Serv Intrp, DD 
 SINC.deg                68.42:  Inc, Start 
 SPPA.psig             4400.00:  SPP Avg 
 SPPN.psig             3580.00:  SPP Min 
 SPPX.psig             4850.00:  SPP Max 
 STIM.      12.30.00 24-Apr-21:  Start Time 
 SVCS.                 DD, MWD:  Services 
 SVER.                    9.20:  Sperry Version 
 TDAT.m                 438.00:  Tot Depth Attmp 
 TDDF.                      No:  Trip for DD 
 TDLG.m                 438.00:  Tot Depth Loggd 
 TFF .                      No:  Trip for Fail 
 TQAA.f-kp               11.00:  Torque Abs Avg 
 TQAN.f-kp                9.00:  Torque Abs Min 
 TQAX.f-kp               14.00:  Torque Abs Max 
 TRRT.°/30m               0.04:  Turn Rotating 
 MRT .                    HCIM:  Maximum Recorded Temperature 
 TTMX.degC               84.31:  Max Tool Temp 
 VS01.                90521954:  Virtual Str1 SN 
 VS02.                90519327:  Virtual Str2 SN 
 VS03.                90522273:  Virtual Str3 SN 
 VS04.                11108038:  Virtual Str4 SN 
 VS05.                12258760:  Virtual Str5 SN 
 WBMN.klb                 1.00:  WOB Min 
 WITN.           Adil Mammadov:  Customer Rep 
 WITN.         Alex Yadullayev:  Customer Rep 2 
 WOBA.klb                 6.00:  WOB Avg 
 WOBX.klb                 9.00:  WOB Max 
 YP  .lhf2               31.00:  Yield Point 
~Curve Information Block
#MNEM.UNIT                 API CODE     Curve Description
#---------               -----------    ---------------------------
 TIME.HHMMSS            00 000 000 000:  GT Time & Date
 GTDEPTH.m              00 000 000 000:  GT Depth
 GTPQH.psia             00 000 000 000:  GT HR Quartz Pressure
 GTTQ.degC              00 000 000 000:  GT Quartz Temperature
 GTTN.NONE              00 000 000 000:  GT Test Number
 GTET.sec               00 000 000 000:  GT Elapsed Test Time
 GTTVD.m                00 000 000 000:  GT True Vertical Depth
#Other Information
#
#WARRANTY: Halliburton will use its best efforts to furnish customers with 
#accurate information and interpretations that are part of, and incident to, the services 
#provided.  However, Halliburton cannot and does not warrant the accuracy 
#or correctness of such information and interpretations.  Under no circumstances should any 
#such information or interpretation be relied upon as the sole basis for any drilling, 
#completion, production, or financial decision or any procedure involving any risk to the 
#safety of any drilling venture, drilling rig or its crew or any other third party.  The 
#Customer has full responsibility for all drilling, completion and production operation.  
#Halliburton makes no representations or warranties, either expressed or 
#implied, including, but not limited to, the implied warranties of merchantability or fitness 
#for a particular purpose, with respect to the services rendered.  In no event will 
#Halliburton be liable for failure to obtain any particular results or for 
#any damages, including, but not limited to, indirect, special or consequential damages, 
#resulting from the use of any information or interpretation provided by Halliburton.
#
~A           TIME           GTDEPTH  GTPQH  GTTQ  GTTN  GTET   GTTVD  
# ...
   00:47:09.790.27-Apr-2021 3226.01 4273.98 71.28 2.00 322.06 2651.33
   00:47:09.990.27-Apr-2021 3226.01 4273.98 71.28 2.00 322.26 2651.33
   00:47:10.190.27-Apr-2021 3226.01 4274.23 71.28 2.00 322.46 2651.33
   00:47:10.390.27-Apr-2021 3226.01 4274.16 71.28 2.00 322.66 2651.33
   00:47:10.590.27-Apr-2021 3226.01 4273.88 71.28 2.00 322.86 2651.33
   00:47:10.790.27-Apr-2021 3226.01 4274.18 71.28 2.00 323.06 2651.33
   00:47:10.990.27-Apr-2021 3226.01 4274.18 71.28 2.00 323.26 2651.33
   00:47:11.190.27-Apr-2021 3226.01 4274.20 71.28 2.00 323.46 2651.33
   00:47:11.390.27-Apr-2021 3226.01 4273.97 71.28 2.00 323.66 2651.33
   00:47:11.590.27-Apr-2021 3226.01 4274.14 71.28 2.00 323.86 2651.33
   00:47:11.790.27-Apr-2021 3226.01 4274.16 71.28 2.00 324.06 2651.33
   00:47:11.990.27-Apr-2021 3226.01 4274.16 71.28 2.00 324.26 2651.33
   00:47:12.190.27-Apr-2021 3226.01 4274.20 71.28 2.00 324.46 2651.33
   00:47:12.390.27-Apr-2021 3226.01 4274.17 71.28 2.00 324.66 2651.33
   00:47:12.590.27-Apr-2021 3226.01 4274.15 71.28 2.00 324.86 2651.33
   00:47:12.790.27-Apr-2021 3226.01 4274.14 71.28 2.00 325.06 2651.33
   00:47:12.990.27-Apr-2021 3226.01 4274.14 71.28 2.00 325.26 2651.33
   00:47:13.190.27-Apr-2021 3226.01 4274.13 71.28 2.00 325.46 2651.33
   00:47:13.390.27-Apr-2021 3226.01 4274.12 71.28 2.00 325.66 2651.33
   00:47:13.590.27-Apr-2021 3226.01 4274.09 71.27 2.00 325.86 2651.33
   00:47:13.790.27-Apr-2021 3226.01 4274.10 71.27 2.00 326.06 2651.33
   00:47:13.990.27-Apr-2021 3226.01 4274.10 71.27 2.00 326.26 2651.33
   00:47:14.190.27-Apr-2021 3226.01 4274.06 71.27 2.00 326.46 2651.33
   00:47:14.390.27-Apr-2021 3226.01 4274.16 71.27 2.00 326.66 2651.33
   00:47:14.590.27-Apr-2021 3226.01 4274.15 71.27 2.00 326.86 2651.33
   00:47:14.791.27-Apr-2021 3226.01 4274.14 71.27 2.00 327.06 2651.33
   00:47:14.991.27-Apr-2021 3226.01 4274.14 71.27 2.00 327.26 2651.33
   00:47:15.191.27-Apr-2021 3226.01 4274.13 71.27 2.00 327.46 2651.33
   00:47:15.391.27-Apr-2021 3226.01 4274.14 71.27 2.00 327.66 2651.33
   00:47:15.591.27-Apr-2021 3226.01 4274.19 71.27 2.00 327.86 2651.33
   00:47:15.791.27-Apr-2021 3226.01 4274.14 71.27 2.00 328.06 2651.33
   00:47:15.991.27-Apr-2021 3226.01 4274.14 71.27 2.00 328.27 2651.33
   00:47:16.191.27-Apr-2021 3226.01 4274.10 71.27 2.00 328.47 2651.33
   00:47:16.391.27-Apr-2021 3226.01 4274.14 71.27 2.00 328.67 2651.33
   00:47:16.591.27-Apr-2021 3226.01 4274.12 71.27 2.00 328.87 2651.33
   00:47:16.791.27-Apr-2021 3226.01 4273.92 71.27 2.00 329.07 2651.33
   00:47:16.991.27-Apr-2021 3226.01 4273.92 71.27 2.00 329.27 2651.33
   00:47:17.191.27-Apr-2021 3226.01 4274.17 71.27 2.00 329.47 2651.33
   00:47:17.391.27-Apr-2021 3226.01 4274.17 71.27 2.00 329.67 2651.33
   00:47:17.591.27-Apr-2021 3226.01 4274.17 71.27 2.00 329.87 2651.33
   00:47:17.791.27-Apr-2021 3226.01 4274.15 71.26 2.00 330.07 2651.33
   00:47:17.991.27-Apr-2021 3226.01 4274.15 71.26 2.00 330.27 2651.33
   00:47:18.191.27-Apr-2021 3226.01 4274.11 71.26 2.00 330.47 2651.33
   00:47:18.391.27-Apr-2021 3226.01 4274.24 71.26 2.00 330.67 2651.33
   00:47:18.591.27-Apr-2021 3226.01 4274.19 71.26 2.00 330.87 2651.33
   00:47:18.791.27-Apr-2021 3226.01 4274.08 71.26 2.00 331.07 2651.33
   00:47:18.991.27-Apr-2021 3226.01 4274.08 71.26 2.00 331.27 2651.33
   00:47:19.191.27-Apr-2021 3226.01 4274.19 71.26 2.00 331.47 2651.33
   00:47:19.391.27-Apr-2021 3226.01 4274.20 71.26 2.00 331.67 2651.33
   00:47:19.591.27-Apr-2021 3226.01 4274.19 71.26 2.00 331.87 2651.33
   00:47:19.792.27-Apr-2021 3226.01 4273.90 71.26 2.00 332.07 2651.33
   00:47:19.992.27-Apr-2021 3226.01 4273.90 71.26 2.00 332.27 2651.33
   00:47:20.192.27-Apr-2021 3226.01 4274.19 71.26 2.00 332.47 2651.33
   00:47:20.392.27-Apr-2021 3226.01 4274.23 71.26 2.00 332.67 2651.33
   00:47:20.592.27-Apr-2021 3226.01 4274.20 71.26 2.00 332.87 2651.33
   00:47:20.792.27-Apr-2021 3226.01 4274.17 71.26 2.00 333.07 2651.33
   00:47:20.992.27-Apr-2021 3226.01 4274.17 71.26 2.00 333.27 2651.33
   00:47:21.192.27-Apr-2021 3226.01 4274.17 71.26 2.00 333.47 2651.33
   00:47:21.392.27-Apr-2021 3226.01 4274.18 71.26 2.00 333.67 2651.33
   00:47:21.592.27-Apr-2021 3226.01 4274.14 71.26 2.00 333.87 2651.33
   00:47:21.792.27-Apr-2021 3226.01 4274.12 71.25 2.00 334.07 2651.33
   00:47:21.992.27-Apr-2021 3226.01 4274.12 71.25 2.00 334.27 2651.33
   00:47:22.192.27-Apr-2021 3226.01 4274.11 71.25 2.00 334.47 2651.33
   00:47:22.392.27-Apr-2021 3226.01 4273.87 71.25 2.00 334.67 2651.33
   00:47:22.592.27-Apr-2021 3226.01 4274.14 71.25 2.00 334.87 2651.33
   00:47:22.792.27-Apr-2021 3226.01 4274.17 71.25 2.00 335.07 2651.33
   00:47:22.992.27-Apr-2021 3226.01 4274.17 71.25 2.00 335.27 2651.33
   00:47:23.192.27-Apr-2021 3226.01 4274.15 71.25 2.00 335.47 2651.33
   00:47:23.392.27-Apr-2021 3226.01 4274.15 71.25 2.00 335.67 2651.33
   00:47:23.592.27-Apr-2021 3226.01 4274.12 71.25 2.00 335.87 2651.33
   00:47:23.792.27-Apr-2021 3226.01 4274.17 71.25 2.00 336.07 2651.33
   00:47:23.992.27-Apr-2021 3226.01 4274.17 71.25 2.00 336.27 2651.33
   00:47:24.192.27-Apr-2021 3226.01 4274.18 71.25 2.00 336.47 2651.33
   00:47:24.392.27-Apr-2021 3226.01 4274.11 71.25 2.00 336.67 2651.33
   00:47:24.592.27-Apr-2021 3226.01 4274.09 71.25 2.00 336.87 2651.33
   00:47:24.792.27-Apr-2021 3226.01 4274.15 71.25 2.00 337.07 2651.33
   00:47:24.993.27-Apr-2021 3226.01 4274.15 71.25 2.00 337.27 2651.33
   00:47:25.193.27-Apr-2021 3226.01 4273.86 71.25 2.00 337.47 2651.33
   00:47:25.393.27-Apr-2021 3226.01 4274.17 71.25 2.00 337.67 2651.33
   00:47:25.593.27-Apr-2021 3226.01 4274.21 71.25 2.00 337.87 2651.33
   00:47:25.793.27-Apr-2021 3226.01 4274.19 71.25 2.00 338.07 2651.33
   00:47:25.993.27-Apr-2021 3226.01 4274.19 71.25 2.00 338.27 2651.33
   00:47:26.193.27-Apr-2021 3226.01 4274.16 71.24 2.00 338.47 2651.33
   00:47:26.393.27-Apr-2021 3226.01 4273.90 71.24 2.00 338.67 2651.33
   00:47:26.593.27-Apr-2021 3226.01 4274.21 71.24 2.00 338.87 2651.33
   00:47:26.793.27-Apr-2021 3226.01 4274.26 71.24 2.00 339.07 2651.33
   00:47:26.993.27-Apr-2021 3226.01 4274.26 71.24 2.00 339.27 2651.33
   00:47:27.193.27-Apr-2021 3226.01 4274.00 71.24 2.00 339.47 2651.33
   00:47:27.393.27-Apr-2021 3226.01 4274.09 71.24 2.00 339.67 2651.33
   00:47:27.593.27-Apr-2021 3226.01 4274.20 71.24 2.00 339.87 2651.33
   00:47:27.793.27-Apr-2021 3226.01 4274.21 71.24 2.00 340.07 2651.33
   00:47:27.993.27-Apr-2021 3226.01 4274.21 71.24 2.00 340.27 2651.33
   00:47:28.193.27-Apr-2021 3226.01 4274.11 71.24 2.00 340.47 2651.33
   00:47:28.393.27-Apr-2021 3226.01 4274.18 71.24 2.00 340.67 2651.33
   00:47:28.593.27-Apr-2021 3226.01 4274.20 71.24 2.00 340.87 2651.33
   00:47:28.793.27-Apr-2021 3226.01 4274.23 71.24 2.00 341.07 2651.33
   00:47:28.993.27-Apr-2021 3226.01 4274.23 71.24 2.00 341.27 2651.33
   00:47:29.193.27-Apr-2021 3226.01 4274.17 71.24 2.00 341.47 2651.33
   00:47:29.393.27-Apr-2021 3226.01 4274.15 71.24 2.00 341.67 2651.33
   00:47:29.593.27-Apr-2021 3226.01 4274.20 71.24 2.00 341.87 2651.33
   00:47:29.793.27-Apr-2021 3226.01 4274.18 71.24 2.00 342.07 2651.33
   00:47:29.994.27-Apr-2021 3226.01 4274.18 71.24 2.00 342.27 2651.33
   00:47:30.194.27-Apr-2021 3226.01 4274.11 71.23 2.00 342.47 2651.33
   00:47:30.394.27-Apr-2021 3226.01 4274.10 71.23 2.00 342.67 2651.33
   00:47:30.594.27-Apr-2021 3226.01 4274.06 71.23 2.00 342.87 2651.33
   00:47:30.794.27-Apr-2021 3226.01 4273.92 71.23 2.00 343.07 2651.33
   00:47:30.994.27-Apr-2021 3226.01 4273.92 71.23 2.00 343.27 2651.33
   00:47:31.194.27-Apr-2021 3226.01 4274.17 71.23 2.00 343.47 2651.33
   00:47:31.394.27-Apr-2021 3226.01 4274.16 71.23 2.00 343.67 2651.33
   00:47:31.594.27-Apr-2021 3226.01 4274.15 71.23 2.00 343.87 2651.33
   00:47:31.794.27-Apr-2021 3226.01 4274.15 71.23 2.00 344.07 2651.33
   00:47:31.994.27-Apr-2021 3226.01 4274.15 71.23 2.00 344.27 2651.33
   00:47:32.194.27-Apr-2021 3226.01 4274.20 71.23 2.00 344.47 2651.33
   00:47:32.394.27-Apr-2021 3226.01 4274.16 71.23 2.00 344.67 2651.33
   00:47:32.594.27-Apr-2021 3226.01 4274.14 71.23 2.00 344.87 2651.33
