~Version Information
 VERS.                  2.0:   CWLS log ASCII Standard -VERSION 2.0
 WRAP.                   NO:   One line per depth step
~Well Information Block
#MNEM.UNIT     VALUE/NAME     DESCRIPTION
#---------     -----------    ---------------------------
 STRT.S             02:50:28 27-Apr-21: START TIME 02:50:28 27-Apr-21
 STOP.S             02:56:55 27-Apr-21: STOP TIME  02:56:55 27-Apr-21
 STEP.S                   0.00: STEP TIME
 NULL.                 -999.25: NULL VALUE
 DFWT.                        :  DIST FWL TEXT
 DFST.                        :  DIST FSL TEXT
 DMF .             Drill Floor:  DRILL MEAS FROM
 STIM.      02.00.00 12-Apr-21:  START TIME
 DATE.      02.00.00 02-May-21:  END TIME
 SPUD.               09-Apr-21:  SPUD DATE
 NREF.                    Grid:  NORTH REFERENCE
 HPTY.       Minimum Curvature:  HOLE POS TYPE
 DMOD.             Drill Model:  DRILL MOD DESC
 SVYD.                  Survey:  SURVEY DESC
 ILTD.               Lithology:  INTERP LTH DESC
 FTOP.          Formation Tops:  FORM TOPS DESC
 PDAT.          Mean Sea Level:  PERMANENT DATUM
 FLD .                     ACG:  FIELD NAME
 SON .        AZ-XX-0907021034:  JOB NUMBER
 CTRY.              Azerbaijan:  COUNTRY NAME
 WELL.                    E01x:  WELL NAME
 COMP.     BP Exploration (Caspian Sea) LTD.:  COMPANY
 UWI .            /AZE00001403:  UNIQUE WELL IDENTIFIER
 API .            /AZE00001403:  API NUMBER
 WTYP.                Deviated:  WELL TYPE
 MDS .        Operator Entered:  MAG DATA SOURCE
 BASE.              Azerbaijan:  LOGGING EQUIPMENT BASE LOCATION
 REGN.                   EESSA:  REGION
 PROV.                    Baku:  PROVINCE
 STAT.                    Baku:  STATE NAME
 SRVC.          Turan Drilling:  CONTRACTOR
 MWDS.                    Baku:  MWD SHOP
 JOBN.        AZ-XX-0907021034:  JOB TICKET NUMB
 RIG .                     DWG:  RIG NAME
 DOE .                     N/A:  DOE NUMBER
 DCON.         Sperry Drilling:  DIRECTNL CONTR
 UNIT.                     N/A:  LOGGING EQUIPMENT ID
 CNTY.                        :  COUNTY
 LOC .                        :  LOCATION
 LMF .             Drill Floor:  LOG MEASURED FROM
 TVDS.m                  43.16:  TVDSS CORRECTN
 LATI.deg                40.17:  LATITUDE
 LONG.deg                51.17:  LONGITUDE
 WHNS.m                  -5.90:  WELL HEAD N/S
 WHEW.m                  -6.61:  WELL HEAD E/W
 UTMX.m              514337.95:  UTM X
 UTMY.m             4448627.46:  UTM Y
 DFWL.m                   0.00:  DISTANCE FWL
 DFSL.m                   0.00:  DISTANCE FSL
 SDEP.m                2606.87:  START DEPTH
 TDD .m                3618.01:  TOTAL DEPTH (DRILLER)
 VSDR.deg               177.42:  VERT SEC DIRECT
 GVFD.g                   1.00:  GRAVITY FIELD
 MFLD.nT              50399.00:  MAGNETIC FIELD
 MDIP.deg                59.67:  MAGNETIC DIP
 MDEC.deg                 6.56:  MAGNETIC DECL
 GRDC.deg                 0.11:  GRID CORRECTION
 AZTC.deg                 6.45:  AZM TOTAL CORR
 EPD .m                   0.00:  ELEVATION
 EGL .m                   0.00:  GROUND ELEVATION
 WDMS.m                 176.20:  WD ELEV
 APD .m                  43.16:  DEPTH ABOVE PD
 DEP .m                2606.87:  DEPTH
 AGAP.m                  43.16:  AIR GAP
 VSEW.m                  -6.61:  VERT SEC E/W
 VSNS.m                  -5.90:  VERT SEC N/S
 EKB .m                  43.16:  KB ELEVATION
 EDF .m                  43.16:  DF ELEVATION
 TDL .m                 438.00:  TOTAL DEPTH (LOGGER)
 VSC .                       0:  VS TO CLOSURE
 MAGU.                 1855490:  MAGUTM CHECKSUM
~Parameter Information Block
#MNEM.UNIT       Value        Description
#---------     -----------    ---------------------------
 AV  .mps                 2.20:  Ann Velocity 
 AVMX.mps                 2.50:  Max Ann Veloc 
 AZIF.deg               150.21:  Azm, Final 
 BHAT.        Rotary Steerable:  BHA Type 
 BROT.°/30m               0.08:  Build Rotating 
 BS  .in                  6.50:  Bit Size 
 BSZ .in                  6.50:  Bit Size 
 BTPL.psig              108.00:  Bit Press Loss 
 CABU.                     Yes:  Customer Abuse 
 CGEO.           Emin Aliyarli:  Customer Geo 
 COMM.                     äº~:  Run Comments 1 
 TCS .hr                 74.20:  Time Ciculation Ended 
 CV  .mps                 3.63:  Crit Velocity 
 CVMX.mps                 3.66:  Max Crit Veloc 
 DD1 .         Intigam Rahimov:  Direct Drillr 1 
 DD2 .          Teymur Aghayev:  Direct Drillr 2 
 DDSV.               Geo-Pilot:  DD Service 
 DEFF.%                  97.00:  % Det Eff 
 DLRX.°/30m               1.63:  Dogleg Rot Max 
 DLSO.°/30m               0.00:  Dogleg Oriented 
 DLSX.°/30m               0.00:  Dogleg Str Max 
 DRET.      20.20.00 28-Apr-21:  Drill End Time 
 DRST.      04.45.00 26-Apr-21:  Drill Start Tim 
 DTIM.hr                 34.30:  Time Drilling 
 EDEP.m                3618.01:  End Depth 
 ENG1.           Amrah Tahirov:  Engineer 1 
 ENG2.         Bahruz Mehdiyev:  Engineer 2 
 ENG3.         Farhad Orujzade:  Engineer 3 
 ETIM.      19.00.00 29-Apr-21:  End Time 
 FLOI.gpm               370.00:  Flow In 
 FLON.gpm               300.00:  Flow In Min 
 FLOS.cptm                0.00:  Fluid Loss 
 FLOX.gpm               410.00:  Flow In Max 
 HFLO.                      No:  High Flow 
 HPRE.                      No:  High Pressure 
 HTEM.                      No:  High Temp 
 HYDO.m                   1.80:  Hydro Offset 
 IFIN.deg                67.19:  Inc, Final 
 IMAX.deg                68.42:  Inc Max 
 IMIN.deg                66.33:  Inc Min 
 IMND.m                3532.79:  Inc Min Depth 
 IMXD.m                3192.15:  Inc Max Depth 
 JARR.                      No:  Jarring 
 LETM.      20.20.00 28-Apr-21:  Log End Time 
 LOST.hr                     0:  Lost Rig Time 
 LSTM.      04.45.00 26-Apr-21:  Log Start Time 
 MDCL.ppm             36500.00:  Mud Chlorides 
 MDES.     Inversion Oil/Synthetic:  Mud Desc 
 DFD .sg                  1.42:  Mud Density 
 MDMN.sg                  1.42:  Dens Mud Min 
 MDMX.sg                  1.42:  Dens Mud Max 
 MOIL.                    55.7:  Run Mud Oil % 
 MOWR.                   71:29:  Run Mud OWR 
 MSND.                     0.1:  Run Mud Sand % 
 MSOL.                    19.9:  Run Mud Solids% 
 DFV .spqt               83.00:  Mud Viscosity 
 MWOD.in                  5.15:  MWD Tool OD 
 MWSI.                      No:  Serv Intrp, MWD 
 OTIM.hr                120.59:  Time Operating 
 PCON.           Look Like New:  Pad Condition 
 PMAX.psia            11292.93:  Press Op, Max 
 PV  .cP                 27.00:  Mud PV 
 RUN .                     400:  Run Number 
 ROPA.m/hr               14.00:  ROP Avg 
 ROPN.m/hr                9.00:  ROP Min 
 ROPX.m/hr               18.00:  ROP Max 
 RPMA.rpm               130.00:  RPM Surface Avg 
 RPMN.rpm               100.00:  RPM Surface Min 
 RPMX.rpm               140.00:  RPM Surface Max 
 RRUN.                    0400:  Rig Run Number 
 RTIM.hr                 38.60:  Time Reaming 
 SAZI.deg               149.55:  Azm, Start 
 SDEP.m                3180.01:  Start Depth 
 SIDD.                      No:  Serv Intrp, DD 
 SINC.deg                68.42:  Inc, Start 
 SPPA.psig             4400.00:  SPP Avg 
 SPPN.psig             3580.00:  SPP Min 
 SPPX.psig             4850.00:  SPP Max 
 STIM.      12.30.00 24-Apr-21:  Start Time 
 SVCS.                 DD, MWD:  Services 
 SVER.                    9.20:  Sperry Version 
 TDAT.m                 438.00:  Tot Depth Attmp 
 TDDF.                      No:  Trip for DD 
 TDLG.m                 438.00:  Tot Depth Loggd 
 TFF .                      No:  Trip for Fail 
 TQAA.f-kp               11.00:  Torque Abs Avg 
 TQAN.f-kp                9.00:  Torque Abs Min 
 TQAX.f-kp               14.00:  Torque Abs Max 
 TRRT.°/30m               0.04:  Turn Rotating 
 MRT .                    HCIM:  Maximum Recorded Temperature 
 TTMX.degC               84.31:  Max Tool Temp 
 VS01.                90521954:  Virtual Str1 SN 
 VS02.                90519327:  Virtual Str2 SN 
 VS03.                90522273:  Virtual Str3 SN 
 VS04.                11108038:  Virtual Str4 SN 
 VS05.                12258760:  Virtual Str5 SN 
 WBMN.klb                 1.00:  WOB Min 
 WITN.           Adil Mammadov:  Customer Rep 
 WITN.         Alex Yadullayev:  Customer Rep 2 
 WOBA.klb                 6.00:  WOB Avg 
 WOBX.klb                 9.00:  WOB Max 
 YP  .lhf2               31.00:  Yield Point 
~Curve Information Block
#MNEM.UNIT                 API CODE     Curve Description
#---------               -----------    ---------------------------
 TIME.HHMMSS            00 000 000 000:  GT Time & Date
 GTDEPTH.m              00 000 000 000:  GT Depth
 GTPQH.psia             00 000 000 000:  GT HR Quartz Pressure
 GTTQ.degC              00 000 000 000:  GT Quartz Temperature
 GTTN.NONE              00 000 000 000:  GT Test Number
 GTET.sec               00 000 000 000:  GT Elapsed Test Time
 GTTVD.m                00 000 000 000:  GT True Vertical Depth
#Other Information
#
#WARRANTY: Halliburton will use its best efforts to furnish customers with 
#accurate information and interpretations that are part of, and incident to, the services 
#provided.  However, Halliburton cannot and does not warrant the accuracy 
#or correctness of such information and interpretations.  Under no circumstances should any 
#such information or interpretation be relied upon as the sole basis for any drilling, 
#completion, production, or financial decision or any procedure involving any risk to the 
#safety of any drilling venture, drilling rig or its crew or any other third party.  The 
#Customer has full responsibility for all drilling, completion and production operation.  
#Halliburton makes no representations or warranties, either expressed or 
#implied, including, but not limited to, the implied warranties of merchantability or fitness 
#for a particular purpose, with respect to the services rendered.  In no event will 
#Halliburton be liable for failure to obtain any particular results or for 
#any damages, including, but not limited to, indirect, special or consequential damages, 
#resulting from the use of any information or interpretation provided by Halliburton.
#
~A           TIME           GTDEPTH  GTPQH  GTTQ  GTTN  GTET   GTTVD  
# ...
   02:55:27.314.27-Apr-2021 3242.51 4318.83 72.13 3.00 299.06 2657.85
   02:55:27.515.27-Apr-2021 3242.51 4318.83 72.13 3.00 299.26 2657.85
   02:55:27.715.27-Apr-2021 3242.51 4319.02 72.13 3.00 299.46 2657.85
   02:55:27.915.27-Apr-2021 3242.51 4319.13 72.13 3.00 299.66 2657.85
   02:55:28.115.27-Apr-2021 3242.51 4318.97 72.13 3.00 299.86 2657.85
   02:55:28.315.27-Apr-2021 3242.51 4319.02 72.13 3.00 300.06 2657.85
   02:55:28.515.27-Apr-2021 3242.51 4319.02 72.13 3.00 300.26 2657.85
   02:55:28.715.27-Apr-2021 3242.51 4319.09 72.13 3.00 300.46 2657.85
   02:55:28.915.27-Apr-2021 3242.51 4318.95 72.13 3.00 300.66 2657.85
   02:55:29.115.27-Apr-2021 3242.51 4318.96 72.13 3.00 300.86 2657.85
   02:55:29.315.27-Apr-2021 3242.51 4318.88 72.13 3.00 301.06 2657.85
   02:55:29.515.27-Apr-2021 3242.51 4318.88 72.13 3.00 301.26 2657.85
   02:55:29.715.27-Apr-2021 3242.51 4318.78 72.13 3.00 301.46 2657.85
   02:55:29.915.27-Apr-2021 3242.51 4318.75 72.13 3.00 301.66 2657.85
   02:55:30.115.27-Apr-2021 3242.51 4318.91 72.13 3.00 301.86 2657.85
   02:55:30.315.27-Apr-2021 3242.51 4318.94 72.13 3.00 302.06 2657.85
   02:55:30.515.27-Apr-2021 3242.51 4318.94 72.13 3.00 302.26 2657.85
   02:55:30.715.27-Apr-2021 3242.51 4319.03 72.12 3.00 302.46 2657.85
   02:55:30.915.27-Apr-2021 3242.51 4319.04 72.12 3.00 302.66 2657.85
   02:55:31.115.27-Apr-2021 3242.51 4318.95 72.12 3.00 302.86 2657.85
   02:55:31.315.27-Apr-2021 3242.51 4319.09 72.12 3.00 303.06 2657.85
   02:55:31.515.27-Apr-2021 3242.51 4319.09 72.12 3.00 303.26 2657.85
   02:55:31.715.27-Apr-2021 3242.51 4318.98 72.12 3.00 303.46 2657.85
   02:55:31.915.27-Apr-2021 3242.51 4318.96 72.12 3.00 303.66 2657.85
   02:55:32.115.27-Apr-2021 3242.51 4319.00 72.12 3.00 303.86 2657.85
   02:55:32.315.27-Apr-2021 3242.51 4318.90 72.12 3.00 304.06 2657.85
   02:55:32.516.27-Apr-2021 3242.51 4318.90 72.12 3.00 304.26 2657.85
   02:55:32.716.27-Apr-2021 3242.51 4318.81 72.12 3.00 304.46 2657.85
   02:55:32.916.27-Apr-2021 3242.51 4319.02 72.12 3.00 304.66 2657.85
   02:55:33.116.27-Apr-2021 3242.51 4319.02 72.12 3.00 304.86 2657.85
   02:55:33.316.27-Apr-2021 3242.51 4319.07 72.12 3.00 305.06 2657.85
   02:55:33.516.27-Apr-2021 3242.51 4319.07 72.12 3.00 305.26 2657.85
   02:55:33.716.27-Apr-2021 3242.51 4318.62 72.12 3.00 305.46 2657.85
   02:55:33.916.27-Apr-2021 3242.51 4319.06 72.12 3.00 305.66 2657.85
   02:55:34.116.27-Apr-2021 3242.51 4319.26 72.12 3.00 305.86 2657.85
   02:55:34.316.27-Apr-2021 3242.51 4319.10 72.12 3.00 306.06 2657.85
   02:55:34.516.27-Apr-2021 3242.51 4319.10 72.12 3.00 306.26 2657.85
   02:55:34.716.27-Apr-2021 3242.51 4318.99 72.12 3.00 306.46 2657.85
   02:55:34.916.27-Apr-2021 3242.51 4318.83 72.12 3.00 306.66 2657.85
   02:55:35.116.27-Apr-2021 3242.51 4318.88 72.12 3.00 306.86 2657.85
   02:55:35.316.27-Apr-2021 3242.51 4319.04 72.12 3.00 307.06 2657.85
   02:55:35.516.27-Apr-2021 3242.51 4319.04 72.12 3.00 307.26 2657.85
   02:55:35.716.27-Apr-2021 3242.51 4319.04 72.12 3.00 307.46 2657.85
   02:55:35.916.27-Apr-2021 3242.51 4318.89 72.11 3.00 307.66 2657.85
   02:55:36.116.27-Apr-2021 3242.51 4318.85 72.11 3.00 307.86 2657.85
   02:55:36.316.27-Apr-2021 3242.51 4319.02 72.11 3.00 308.06 2657.85
   02:55:36.516.27-Apr-2021 3242.51 4319.02 72.11 3.00 308.26 2657.85
   02:55:36.716.27-Apr-2021 3242.51 4319.18 72.11 3.00 308.46 2657.85
   02:55:36.916.27-Apr-2021 3242.51 4319.05 72.11 3.00 308.66 2657.85
   02:55:37.116.27-Apr-2021 3242.51 4319.10 72.11 3.00 308.86 2657.85
   02:55:37.316.27-Apr-2021 3242.51 4319.01 72.11 3.00 309.06 2657.85
   02:55:37.517.27-Apr-2021 3242.51 4319.01 72.11 3.00 309.26 2657.85
   02:55:37.717.27-Apr-2021 3242.51 4319.04 72.11 3.00 309.46 2657.85
   02:55:37.917.27-Apr-2021 3242.51 4319.03 72.11 3.00 309.66 2657.85
   02:55:38.117.27-Apr-2021 3242.51 4318.91 72.11 3.00 309.86 2657.85
   02:55:38.317.27-Apr-2021 3242.51 4319.00 72.11 3.00 310.06 2657.85
   02:55:38.517.27-Apr-2021 3242.51 4319.00 72.11 3.00 310.26 2657.85
   02:55:38.717.27-Apr-2021 3242.51 4318.85 72.11 3.00 310.46 2657.85
   02:55:38.917.27-Apr-2021 3242.51 4318.90 72.11 3.00 310.66 2657.85
   02:55:39.117.27-Apr-2021 3242.51 4319.07 72.11 3.00 310.86 2657.85
   02:55:39.317.27-Apr-2021 3242.51 4319.03 72.11 3.00 311.06 2657.85
   02:55:39.517.27-Apr-2021 3242.51 4319.03 72.11 3.00 311.26 2657.85
   02:55:39.717.27-Apr-2021 3242.51 4319.06 72.11 3.00 311.46 2657.85
   02:55:39.917.27-Apr-2021 3242.51 4319.06 72.11 3.00 311.66 2657.85
   02:55:40.117.27-Apr-2021 3242.51 4319.12 72.11 3.00 311.86 2657.85
   02:55:40.317.27-Apr-2021 3242.51 4319.06 72.11 3.00 312.06 2657.85
   02:55:40.517.27-Apr-2021 3242.51 4319.06 72.11 3.00 312.26 2657.85
   02:55:40.717.27-Apr-2021 3242.51 4319.01 72.11 3.00 312.46 2657.85
   02:55:40.917.27-Apr-2021 3242.51 4319.05 72.10 3.00 312.66 2657.85
   02:55:41.117.27-Apr-2021 3242.51 4318.99 72.10 3.00 312.86 2657.85
   02:55:41.317.27-Apr-2021 3242.51 4318.88 72.10 3.00 313.06 2657.85
   02:55:41.517.27-Apr-2021 3242.51 4318.88 72.10 3.00 313.26 2657.85
   02:55:41.717.27-Apr-2021 3242.51 4319.04 72.10 3.00 313.46 2657.85
   02:55:41.917.27-Apr-2021 3242.51 4319.06 72.10 3.00 313.66 2657.85
   02:55:42.117.27-Apr-2021 3242.51 4319.11 72.10 3.00 313.86 2657.85
   02:55:42.317.27-Apr-2021 3242.51 4319.02 72.10 3.00 314.06 2657.85
   02:55:42.518.27-Apr-2021 3242.51 4319.02 72.10 3.00 314.26 2657.85
   02:55:42.718.27-Apr-2021 3242.51 4319.04 72.10 3.00 314.46 2657.85
   02:55:42.918.27-Apr-2021 3242.51 4319.28 72.10 3.00 314.66 2657.85
   02:55:43.118.27-Apr-2021 3242.51 4319.12 72.10 3.00 314.86 2657.85
   02:55:43.318.27-Apr-2021 3242.51 4319.14 72.10 3.00 315.06 2657.85
   02:55:43.518.27-Apr-2021 3242.51 4319.14 72.10 3.00 315.26 2657.85
   02:55:43.718.27-Apr-2021 3242.51 4319.00 72.10 3.00 315.46 2657.85
   02:55:43.918.27-Apr-2021 3242.51 4318.87 72.10 3.00 315.66 2657.85
   02:55:44.118.27-Apr-2021 3242.51 4319.10 72.10 3.00 315.86 2657.85
   02:55:44.318.27-Apr-2021 3242.51 4319.06 72.10 3.00 316.06 2657.85
   02:55:44.518.27-Apr-2021 3242.51 4319.06 72.10 3.00 316.26 2657.85
   02:55:44.718.27-Apr-2021 3242.51 4318.93 72.10 3.00 316.46 2657.85
   02:55:44.918.27-Apr-2021 3242.51 4318.87 72.10 3.00 316.66 2657.85
   02:55:45.118.27-Apr-2021 3242.51 4318.98 72.10 3.00 316.86 2657.85
   02:55:45.318.27-Apr-2021 3242.51 4319.20 72.10 3.00 317.06 2657.85
   02:55:45.518.27-Apr-2021 3242.51 4319.20 72.10 3.00 317.26 2657.85
   02:55:45.718.27-Apr-2021 3242.51 4319.11 72.10 3.00 317.46 2657.85
   02:55:45.918.27-Apr-2021 3242.51 4319.11 72.10 3.00 317.66 2657.85
   02:55:46.118.27-Apr-2021 3242.51 4319.04 72.10 3.00 317.86 2657.85
   02:55:46.318.27-Apr-2021 3242.51 4319.18 72.09 3.00 318.06 2657.85
   02:55:46.518.27-Apr-2021 3242.51 4319.18 72.09 3.00 318.26 2657.85
   02:55:46.718.27-Apr-2021 3242.51 4319.08 72.09 3.00 318.46 2657.85
   02:55:46.918.27-Apr-2021 3242.51 4318.96 72.09 3.00 318.66 2657.85
   02:55:47.118.27-Apr-2021 3242.51 4319.02 72.09 3.00 318.86 2657.85
   02:55:47.318.27-Apr-2021 3242.51 4318.88 72.09 3.00 319.06 2657.85
   02:55:47.518.27-Apr-2021 3242.51 4318.88 72.09 3.00 319.26 2657.85
   02:55:47.719.27-Apr-2021 3242.51 4318.91 72.09 3.00 319.46 2657.85
   02:55:47.919.27-Apr-2021 3242.51 4319.12 72.09 3.00 319.66 2657.85
   02:55:48.119.27-Apr-2021 3242.51 4319.04 72.09 3.00 319.86 2657.85
   02:55:48.319.27-Apr-2021 3242.51 4319.16 72.09 3.00 320.06 2657.85
   02:55:48.519.27-Apr-2021 3242.51 4319.16 72.09 3.00 320.26 2657.85
   02:55:48.719.27-Apr-2021 3242.51 4319.09 72.09 3.00 320.46 2657.85
   02:55:48.919.27-Apr-2021 3242.51 4319.13 72.09 3.00 320.66 2657.85
   02:55:49.119.27-Apr-2021 3242.51 4319.14 72.09 3.00 320.86 2657.85
   02:55:49.319.27-Apr-2021 3242.51 4319.07 72.09 3.00 321.06 2657.85
   02:55:49.519.27-Apr-2021 3242.51 4319.07 72.09 3.00 321.26 2657.85
   02:55:49.719.27-Apr-2021 3242.51 4319.04 72.09 3.00 321.46 2657.85
   02:55:49.919.27-Apr-2021 3242.51 4319.03 72.09 3.00 321.66 2657.85
   02:55:50.119.27-Apr-2021 3242.51 4318.90 72.09 3.00 321.86 2657.85
