~Version Information
 VERS.                  2.0:   CWLS log ASCII Standard -VERSION 2.0
 WRAP.                   NO:   One line per depth step
~Well Information Block
#MNEM.UNIT     VALUE/NAME     DESCRIPTION
#---------     -----------    ---------------------------
 STRT.S             00:41:47 27-Apr-21: START TIME 00:41:47 27-Apr-21
 STOP.S             00:48:15 27-Apr-21: STOP TIME  00:48:15 27-Apr-21
 STEP.S                   0.00: STEP TIME
 NULL.                 -999.25: NULL VALUE
 DFWT.                        :  DIST FWL TEXT
 DFST.                        :  DIST FSL TEXT
 DMF .             Drill Floor:  DRILL MEAS FROM
 STIM.      02.00.00 12-Apr-21:  START TIME
 DATE.      02.00.00 02-May-21:  END TIME
 SPUD.               09-Apr-21:  SPUD DATE
 NREF.                    Grid:  NORTH REFERENCE
 HPTY.       Minimum Curvature:  HOLE POS TYPE
 DMOD.             Drill Model:  DRILL MOD DESC
 SVYD.                  Survey:  SURVEY DESC
 ILTD.               Lithology:  INTERP LTH DESC
 FTOP.          Formation Tops:  FORM TOPS DESC
 PDAT.          Mean Sea Level:  PERMANENT DATUM
 FLD .                     ACG:  FIELD NAME
 SON .        AZ-XX-0907021034:  JOB NUMBER
 CTRY.              Azerbaijan:  COUNTRY NAME
 WELL.                    E01x:  WELL NAME
 COMP.     BP Exploration (Caspian Sea) LTD.:  COMPANY
 UWI .            /AZE00001403:  UNIQUE WELL IDENTIFIER
 API .            /AZE00001403:  API NUMBER
 WTYP.                Deviated:  WELL TYPE
 MDS .        Operator Entered:  MAG DATA SOURCE
 BASE.              Azerbaijan:  LOGGING EQUIPMENT BASE LOCATION
 REGN.                   EESSA:  REGION
 PROV.                    Baku:  PROVINCE
 STAT.                    Baku:  STATE NAME
 SRVC.          Turan Drilling:  CONTRACTOR
 MWDS.                    Baku:  MWD SHOP
 JOBN.        AZ-XX-0907021034:  JOB TICKET NUMB
 RIG .                     DWG:  RIG NAME
 DOE .                     N/A:  DOE NUMBER
 DCON.         Sperry Drilling:  DIRECTNL CONTR
 UNIT.                     N/A:  LOGGING EQUIPMENT ID
 CNTY.                        :  COUNTY
 LOC .                        :  LOCATION
 LMF .             Drill Floor:  LOG MEASURED FROM
 TVDS.m                  43.16:  TVDSS CORRECTN
 LATI.deg                40.17:  LATITUDE
 LONG.deg                51.17:  LONGITUDE
 WHNS.m                  -5.90:  WELL HEAD N/S
 WHEW.m                  -6.61:  WELL HEAD E/W
 UTMX.m              514337.95:  UTM X
 UTMY.m             4448627.46:  UTM Y
 DFWL.m                   0.00:  DISTANCE FWL
 DFSL.m                   0.00:  DISTANCE FSL
 SDEP.m                2606.87:  START DEPTH
 TDD .m                3618.01:  TOTAL DEPTH (DRILLER)
 VSDR.deg               177.42:  VERT SEC DIRECT
 GVFD.g                   1.00:  GRAVITY FIELD
 MFLD.nT              50399.00:  MAGNETIC FIELD
 MDIP.deg                59.67:  MAGNETIC DIP
 MDEC.deg                 6.56:  MAGNETIC DECL
 GRDC.deg                 0.11:  GRID CORRECTION
 AZTC.deg                 6.45:  AZM TOTAL CORR
 EPD .m                   0.00:  ELEVATION
 EGL .m                   0.00:  GROUND ELEVATION
 WDMS.m                 176.20:  WD ELEV
 APD .m                  43.16:  DEPTH ABOVE PD
 DEP .m                2606.87:  DEPTH
 AGAP.m                  43.16:  AIR GAP
 VSEW.m                  -6.61:  VERT SEC E/W
 VSNS.m                  -5.90:  VERT SEC N/S
 EKB .m                  43.16:  KB ELEVATION
 EDF .m                  43.16:  DF ELEVATION
 TDL .m                 438.00:  TOTAL DEPTH (LOGGER)
 VSC .                       0:  VS TO CLOSURE
 MAGU.                 1855490:  MAGUTM CHECKSUM
~Parameter Information Block
#MNEM.UNIT       Value        Description
#---------     -----------    ---------------------------
 AV  .mps                 2.20:  Ann Velocity 
 AVMX.mps                 2.50:  Max Ann Veloc 
 AZIF.deg               150.21:  Azm, Final 
 BHAT.        Rotary Steerable:  BHA Type 
 BROT.°/30m               0.08:  Build Rotating 
 BS  .in                  6.50:  Bit Size 
 BSZ .in                  6.50:  Bit Size 
 BTPL.psig              108.00:  Bit Press Loss 
 CABU.                     Yes:  Customer Abuse 
 CGEO.           Emin Aliyarli:  Customer Geo 
 COMM.                     lJm:  Run Comments 1 
 TCS .hr                 74.20:  Time Ciculation Ended 
 CV  .mps                 3.63:  Crit Velocity 
 CVMX.mps                 3.66:  Max Crit Veloc 
 DD1 .         Intigam Rahimov:  Direct Drillr 1 
 DD2 .          Teymur Aghayev:  Direct Drillr 2 
 DDSV.               Geo-Pilot:  DD Service 
 DEFF.%                  97.00:  % Det Eff 
 DLRX.°/30m               1.63:  Dogleg Rot Max 
 DLSO.°/30m               0.00:  Dogleg Oriented 
 DLSX.°/30m               0.00:  Dogleg Str Max 
 DRET.      20.20.00 28-Apr-21:  Drill End Time 
 DRST.      04.45.00 26-Apr-21:  Drill Start Tim 
 DTIM.hr                 34.30:  Time Drilling 
 EDEP.m                3618.01:  End Depth 
 ENG1.           Amrah Tahirov:  Engineer 1 
 ENG2.         Bahruz Mehdiyev:  Engineer 2 
 ENG3.         Farhad Orujzade:  Engineer 3 
 ETIM.      19.00.00 29-Apr-21:  End Time 
 FLOI.gpm               370.00:  Flow In 
 FLON.gpm               300.00:  Flow In Min 
 FLOS.cptm                0.00:  Fluid Loss 
 FLOX.gpm               410.00:  Flow In Max 
 HFLO.                      No:  High Flow 
 HPRE.                      No:  High Pressure 
 HTEM.                      No:  High Temp 
 HYDO.m                   1.80:  Hydro Offset 
 IFIN.deg                67.19:  Inc, Final 
 IMAX.deg                68.42:  Inc Max 
 IMIN.deg                66.33:  Inc Min 
 IMND.m                3532.79:  Inc Min Depth 
 IMXD.m                3192.15:  Inc Max Depth 
 JARR.                      No:  Jarring 
 LETM.      20.20.00 28-Apr-21:  Log End Time 
 LOST.hr                     0:  Lost Rig Time 
 LSTM.      04.45.00 26-Apr-21:  Log Start Time 
 MDCL.ppm             36500.00:  Mud Chlorides 
 MDES.     Inversion Oil/Synthetic:  Mud Desc 
 DFD .sg                  1.42:  Mud Density 
 MDMN.sg                  1.42:  Dens Mud Min 
 MDMX.sg                  1.42:  Dens Mud Max 
 MOIL.                    55.7:  Run Mud Oil % 
 MOWR.                   71:29:  Run Mud OWR 
 MSND.                     0.1:  Run Mud Sand % 
 MSOL.                    19.9:  Run Mud Solids% 
 DFV .spqt               83.00:  Mud Viscosity 
 MWOD.in                  5.15:  MWD Tool OD 
 MWSI.                      No:  Serv Intrp, MWD 
 OTIM.hr                120.59:  Time Operating 
 PCON.           Look Like New:  Pad Condition 
 PMAX.psia            11292.93:  Press Op, Max 
 PV  .cP                 27.00:  Mud PV 
 RUN .                     400:  Run Number 
 ROPA.m/hr               14.00:  ROP Avg 
 ROPN.m/hr                9.00:  ROP Min 
 ROPX.m/hr               18.00:  ROP Max 
 RPMA.rpm               130.00:  RPM Surface Avg 
 RPMN.rpm               100.00:  RPM Surface Min 
 RPMX.rpm               140.00:  RPM Surface Max 
 RRUN.                    0400:  Rig Run Number 
 RTIM.hr                 38.60:  Time Reaming 
 SAZI.deg               149.55:  Azm, Start 
 SDEP.m                3180.01:  Start Depth 
 SIDD.                      No:  Serv Intrp, DD 
 SINC.deg                68.42:  Inc, Start 
 SPPA.psig             4400.00:  SPP Avg 
 SPPN.psig             3580.00:  SPP Min 
 SPPX.psig             4850.00:  SPP Max 
 STIM.      12.30.00 24-Apr-21:  Start Time 
 SVCS.                 DD, MWD:  Services 
 SVER.                    9.20:  Sperry Version 
 TDAT.m                 438.00:  Tot Depth Attmp 
 TDDF.                      No:  Trip for DD 
 TDLG.m                 438.00:  Tot Depth Loggd 
 TFF .                      No:  Trip for Fail 
 TQAA.f-kp               11.00:  Torque Abs Avg 
 TQAN.f-kp                9.00:  Torque Abs Min 
 TQAX.f-kp               14.00:  Torque Abs Max 
 TRRT.°/30m               0.04:  Turn Rotating 
 MRT .                    HCIM:  Maximum Recorded Temperature 
 TTMX.degC               84.31:  Max Tool Temp 
 VS01.                90521954:  Virtual Str1 SN 
 VS02.                90519327:  Virtual Str2 SN 
 VS03.                90522273:  Virtual Str3 SN 
 VS04.                11108038:  Virtual Str4 SN 
 VS05.                12258760:  Virtual Str5 SN 
 WBMN.klb                 1.00:  WOB Min 
 WITN.           Adil Mammadov:  Customer Rep 
 WITN.         Alex Yadullayev:  Customer Rep 2 
 WOBA.klb                 6.00:  WOB Avg 
 WOBX.klb                 9.00:  WOB Max 
 YP  .lhf2               31.00:  Yield Point 
~Curve Information Block
#MNEM.UNIT                 API CODE     Curve Description
#---------               -----------    ---------------------------
 TIME.HHMMSS            00 000 000 000:  GT Time & Date
 GTDEPTH.m              00 000 000 000:  GT Depth
 GTPQH.psia             00 000 000 000:  GT HR Quartz Pressure
 GTTQ.degC              00 000 000 000:  GT Quartz Temperature
 GTTN.NONE              00 000 000 000:  GT Test Number
 GTET.sec               00 000 000 000:  GT Elapsed Test Time
 GTTVD.m                00 000 000 000:  GT True Vertical Depth
#Other Information
#
#WARRANTY: Halliburton will use its best efforts to furnish customers with 
#accurate information and interpretations that are part of, and incident to, the services 
#provided.  However, Halliburton cannot and does not warrant the accuracy 
#or correctness of such information and interpretations.  Under no circumstances should any 
#such information or interpretation be relied upon as the sole basis for any drilling, 
#completion, production, or financial decision or any procedure involving any risk to the 
#safety of any drilling venture, drilling rig or its crew or any other third party.  The 
#Customer has full responsibility for all drilling, completion and production operation.  
#Halliburton makes no representations or warranties, either expressed or 
#implied, including, but not limited to, the implied warranties of merchantability or fitness 
#for a particular purpose, with respect to the services rendered.  In no event will 
#Halliburton be liable for failure to obtain any particular results or for 
#any damages, including, but not limited to, indirect, special or consequential damages, 
#resulting from the use of any information or interpretation provided by Halliburton.
#
~A           TIME           GTDEPTH  GTPQH  GTTQ  GTTN  GTET   GTTVD  
# ...
   00:44:28.758.27-Apr-2021 3226.01 4274.05 71.71 2.00 161.03 2651.33
   00:44:28.958.27-Apr-2021 3226.01 4274.05 71.71 2.00 161.23 2651.33
   00:44:29.158.27-Apr-2021 3226.01 4274.07 71.71 2.00 161.43 2651.33
   00:44:29.358.27-Apr-2021 3226.01 4274.10 71.71 2.00 161.63 2651.33
   00:44:29.558.27-Apr-2021 3226.01 4274.03 71.71 2.00 161.83 2651.33
   00:44:29.758.27-Apr-2021 3226.01 4274.08 71.71 2.00 162.03 2651.33
   00:44:29.958.27-Apr-2021 3226.01 4274.08 71.71 2.00 162.23 2651.33
   00:44:30.158.27-Apr-2021 3226.01 4273.95 71.71 2.00 162.43 2651.33
   00:44:30.358.27-Apr-2021 3226.01 4273.97 71.71 2.00 162.63 2651.33
   00:44:30.558.27-Apr-2021 3226.01 4274.14 71.71 2.00 162.83 2651.33
   00:44:30.758.27-Apr-2021 3226.01 4274.13 71.70 2.00 163.03 2651.33
   00:44:30.958.27-Apr-2021 3226.01 4274.13 71.70 2.00 163.23 2651.33
   00:44:31.158.27-Apr-2021 3226.01 4274.11 71.70 2.00 163.43 2651.33
   00:44:31.358.27-Apr-2021 3226.01 4273.95 71.70 2.00 163.63 2651.33
   00:44:31.558.27-Apr-2021 3226.01 4274.06 71.70 2.00 163.83 2651.33
   00:44:31.758.27-Apr-2021 3226.01 4274.20 71.70 2.00 164.03 2651.33
   00:44:31.958.27-Apr-2021 3226.01 4274.20 71.70 2.00 164.23 2651.33
   00:44:32.158.27-Apr-2021 3226.01 4274.17 71.70 2.00 164.43 2651.33
   00:44:32.358.27-Apr-2021 3226.01 4273.91 71.70 2.00 164.63 2651.33
   00:44:32.558.27-Apr-2021 3226.01 4274.14 71.70 2.00 164.83 2651.33
   00:44:32.758.27-Apr-2021 3226.01 4274.21 71.70 2.00 165.03 2651.33
   00:44:32.958.27-Apr-2021 3226.01 4274.21 71.70 2.00 165.23 2651.33
   00:44:33.158.27-Apr-2021 3226.01 4273.97 71.70 2.00 165.43 2651.33
   00:44:33.359.27-Apr-2021 3226.01 4274.14 71.70 2.00 165.63 2651.33
   00:44:33.559.27-Apr-2021 3226.01 4274.18 71.70 2.00 165.83 2651.33
   00:44:33.759.27-Apr-2021 3226.01 4274.17 71.70 2.00 166.03 2651.33
   00:44:33.959.27-Apr-2021 3226.01 4274.17 71.70 2.00 166.23 2651.33
   00:44:34.159.27-Apr-2021 3226.01 4274.12 71.70 2.00 166.43 2651.33
   00:44:34.359.27-Apr-2021 3226.01 4274.17 71.69 2.00 166.63 2651.33
   00:44:34.559.27-Apr-2021 3226.01 4274.13 71.69 2.00 166.83 2651.33
   00:44:34.759.27-Apr-2021 3226.01 4274.19 71.69 2.00 167.03 2651.33
   00:44:34.959.27-Apr-2021 3226.01 4274.19 71.69 2.00 167.23 2651.33
   00:44:35.159.27-Apr-2021 3226.01 4274.12 71.69 2.00 167.43 2651.33
   00:44:35.359.27-Apr-2021 3226.01 4274.08 71.69 2.00 167.63 2651.33
   00:44:35.559.27-Apr-2021 3226.01 4274.09 71.69 2.00 167.83 2651.33
   00:44:35.759.27-Apr-2021 3226.01 4273.88 71.69 2.00 168.03 2651.33
   00:44:35.959.27-Apr-2021 3226.01 4273.88 71.69 2.00 168.23 2651.33
   00:44:36.159.27-Apr-2021 3226.01 4274.16 71.69 2.00 168.43 2651.33
   00:44:36.359.27-Apr-2021 3226.01 4274.15 71.69 2.00 168.63 2651.33
   00:44:36.559.27-Apr-2021 3226.01 4274.14 71.69 2.00 168.83 2651.33
   00:44:36.759.27-Apr-2021 3226.01 4274.15 71.69 2.00 169.03 2651.33
   00:44:36.959.27-Apr-2021 3226.01 4274.15 71.69 2.00 169.23 2651.33
   00:44:37.159.27-Apr-2021 3226.01 4274.18 71.69 2.00 169.43 2651.33
   00:44:37.359.27-Apr-2021 3226.01 4274.19 71.69 2.00 169.63 2651.33
   00:44:37.559.27-Apr-2021 3226.01 4274.13 71.69 2.00 169.83 2651.33
   00:44:37.759.27-Apr-2021 3226.01 4274.15 71.68 2.00 170.03 2651.33
   00:44:37.959.27-Apr-2021 3226.01 4274.15 71.68 2.00 170.23 2651.33
   00:44:38.159.27-Apr-2021 3226.01 4274.18 71.68 2.00 170.43 2651.33
   00:44:38.360.27-Apr-2021 3226.01 4274.04 71.68 2.00 170.63 2651.33
   00:44:38.560.27-Apr-2021 3226.01 4273.97 71.68 2.00 170.83 2651.33
   00:44:38.760.27-Apr-2021 3226.01 4274.14 71.68 2.00 171.03 2651.33
   00:44:38.960.27-Apr-2021 3226.01 4274.14 71.68 2.00 171.23 2651.33
   00:44:39.160.27-Apr-2021 3226.01 4274.16 71.68 2.00 171.43 2651.33
   00:44:39.360.27-Apr-2021 3226.01 4274.19 71.68 2.00 171.63 2651.33
   00:44:39.560.27-Apr-2021 3226.01 4274.12 71.68 2.00 171.83 2651.33
   00:44:39.760.27-Apr-2021 3226.01 4273.97 71.68 2.00 172.03 2651.33
   00:44:39.960.27-Apr-2021 3226.01 4273.97 71.68 2.00 172.23 2651.33
   00:44:40.160.27-Apr-2021 3226.01 4274.28 71.68 2.00 172.43 2651.33
   00:44:40.360.27-Apr-2021 3226.01 4274.19 71.68 2.00 172.63 2651.33
   00:44:40.560.27-Apr-2021 3226.01 4273.97 71.68 2.00 172.83 2651.33
   00:44:40.760.27-Apr-2021 3226.01 4274.16 71.68 2.00 173.03 2651.33
   00:44:40.960.27-Apr-2021 3226.01 4274.16 71.68 2.00 173.23 2651.33
   00:44:41.160.27-Apr-2021 3226.01 4274.22 71.67 2.00 173.43 2651.33
   00:44:41.360.27-Apr-2021 3226.01 4274.08 71.67 2.00 173.63 2651.33
   00:44:41.560.27-Apr-2021 3226.01 4274.08 71.67 2.00 173.83 2651.33
   00:44:41.760.27-Apr-2021 3226.01 4274.21 71.67 2.00 174.03 2651.33
   00:44:41.960.27-Apr-2021 3226.01 4274.21 71.67 2.00 174.23 2651.33
   00:44:42.160.27-Apr-2021 3226.01 4274.24 71.67 2.00 174.43 2651.33
   00:44:42.360.27-Apr-2021 3226.01 4274.22 71.67 2.00 174.63 2651.33
   00:44:42.560.27-Apr-2021 3226.01 4274.18 71.67 2.00 174.83 2651.33
   00:44:42.760.27-Apr-2021 3226.01 4274.19 71.67 2.00 175.03 2651.33
   00:44:42.960.27-Apr-2021 3226.01 4274.19 71.67 2.00 175.23 2651.33
   00:44:43.160.27-Apr-2021 3226.01 4274.22 71.67 2.00 175.43 2651.33
   00:44:43.361.27-Apr-2021 3226.01 4274.13 71.67 2.00 175.63 2651.33
   00:44:43.561.27-Apr-2021 3226.01 4274.16 71.67 2.00 175.83 2651.33
   00:44:43.761.27-Apr-2021 3226.01 4274.12 71.67 2.00 176.03 2651.33
   00:44:43.961.27-Apr-2021 3226.01 4274.12 71.67 2.00 176.23 2651.33
   00:44:44.161.27-Apr-2021 3226.01 4274.06 71.67 2.00 176.43 2651.33
   00:44:44.361.27-Apr-2021 3226.01 4274.23 71.67 2.00 176.63 2651.33
   00:44:44.561.27-Apr-2021 3226.01 4274.20 71.67 2.00 176.84 2651.33
   00:44:44.761.27-Apr-2021 3226.01 4274.24 71.66 2.00 177.04 2651.33
   00:44:44.961.27-Apr-2021 3226.01 4274.24 71.66 2.00 177.24 2651.33
   00:44:45.161.27-Apr-2021 3226.01 4274.21 71.66 2.00 177.44 2651.33
   00:44:45.361.27-Apr-2021 3226.01 4274.18 71.66 2.00 177.64 2651.33
   00:44:45.561.27-Apr-2021 3226.01 4274.26 71.66 2.00 177.84 2651.33
   00:44:45.761.27-Apr-2021 3226.01 4274.19 71.66 2.00 178.04 2651.33
   00:44:45.961.27-Apr-2021 3226.01 4274.19 71.66 2.00 178.24 2651.33
   00:44:46.161.27-Apr-2021 3226.01 4274.15 71.66 2.00 178.44 2651.33
   00:44:46.361.27-Apr-2021 3226.01 4274.18 71.66 2.00 178.64 2651.33
   00:44:46.561.27-Apr-2021 3226.01 4274.19 71.66 2.00 178.84 2651.33
   00:44:46.761.27-Apr-2021 3226.01 4274.02 71.66 2.00 179.04 2651.33
   00:44:46.961.27-Apr-2021 3226.01 4274.02 71.66 2.00 179.24 2651.33
   00:44:47.161.27-Apr-2021 3226.01 4274.21 71.66 2.00 179.44 2651.33
   00:44:47.361.27-Apr-2021 3226.01 4274.25 71.66 2.00 179.64 2651.33
   00:44:47.561.27-Apr-2021 3226.01 4274.19 71.66 2.00 179.84 2651.33
   00:44:47.761.27-Apr-2021 3226.01 4274.23 71.66 2.00 180.04 2651.33
   00:44:47.961.27-Apr-2021 3226.01 4274.23 71.66 2.00 180.24 2651.33
   00:44:48.161.27-Apr-2021 3226.01 4274.06 71.66 2.00 180.44 2651.33
   00:44:48.362.27-Apr-2021 3226.01 4274.26 71.65 2.00 180.64 2651.33
   00:44:48.562.27-Apr-2021 3226.01 4274.29 71.65 2.00 180.84 2651.33
   00:44:48.762.27-Apr-2021 3226.01 4274.18 71.65 2.00 181.04 2651.33
   00:44:48.962.27-Apr-2021 3226.01 4274.18 71.65 2.00 181.24 2651.33
   00:44:49.162.27-Apr-2021 3226.01 4274.21 71.65 2.00 181.44 2651.33
   00:44:49.362.27-Apr-2021 3226.01 4274.28 71.65 2.00 181.64 2651.33
   00:44:49.562.27-Apr-2021 3226.01 4274.23 71.65 2.00 181.84 2651.33
   00:44:49.762.27-Apr-2021 3226.01 4274.02 71.65 2.00 182.04 2651.33
   00:44:49.962.27-Apr-2021 3226.01 4274.02 71.65 2.00 182.24 2651.33
   00:44:50.162.27-Apr-2021 3226.01 4274.24 71.65 2.00 182.44 2651.33
   00:44:50.362.27-Apr-2021 3226.01 4274.26 71.65 2.00 182.64 2651.33
   00:44:50.562.27-Apr-2021 3226.01 4274.28 71.65 2.00 182.84 2651.33
   00:44:50.762.27-Apr-2021 3226.01 4274.22 71.65 2.00 183.04 2651.33
   00:44:50.962.27-Apr-2021 3226.01 4274.22 71.65 2.00 183.24 2651.33
   00:44:51.162.27-Apr-2021 3226.01 4274.21 71.65 2.00 183.44 2651.33
   00:44:51.362.27-Apr-2021 3226.01 4274.26 71.65 2.00 183.64 2651.33
   00:44:51.562.27-Apr-2021 3226.01 4274.20 71.65 2.00 183.84 2651.33
