~Version Information
 VERS.                  2.0:   CWLS log ASCII Standard -VERSION 2.0
 WRAP.                   NO:   One line per depth step
~Well Information Block
#MNEM.UNIT     VALUE/NAME     DESCRIPTION
#---------     -----------    ---------------------------
 STRT.S             00:41:47 27-Apr-21: START TIME 00:41:47 27-Apr-21
 STOP.S             00:48:15 27-Apr-21: STOP TIME  00:48:15 27-Apr-21
 STEP.S                   0.00: STEP TIME
 NULL.                 -999.25: NULL VALUE
 DFWT.                        :  DIST FWL TEXT
 DFST.                        :  DIST FSL TEXT
 DMF .             Drill Floor:  DRILL MEAS FROM
 STIM.      02.00.00 12-Apr-21:  START TIME
 DATE.      02.00.00 02-May-21:  END TIME
 SPUD.               09-Apr-21:  SPUD DATE
 NREF.                    Grid:  NORTH REFERENCE
 HPTY.       Minimum Curvature:  HOLE POS TYPE
 DMOD.             Drill Model:  DRILL MOD DESC
 SVYD.                  Survey:  SURVEY DESC
 ILTD.               Lithology:  INTERP LTH DESC
 FTOP.          Formation Tops:  FORM TOPS DESC
 PDAT.          Mean Sea Level:  PERMANENT DATUM
 FLD .                     ACG:  FIELD NAME
 SON .        AZ-XX-0907021034:  JOB NUMBER
 CTRY.              Azerbaijan:  COUNTRY NAME
 WELL.                    E01x:  WELL NAME
 COMP.     BP Exploration (Caspian Sea) LTD.:  COMPANY
 UWI .            /AZE00001403:  UNIQUE WELL IDENTIFIER
 API .            /AZE00001403:  API NUMBER
 WTYP.                Deviated:  WELL TYPE
 MDS .        Operator Entered:  MAG DATA SOURCE
 BASE.              Azerbaijan:  LOGGING EQUIPMENT BASE LOCATION
 REGN.                   EESSA:  REGION
 PROV.                    Baku:  PROVINCE
 STAT.                    Baku:  STATE NAME
 SRVC.          Turan Drilling:  CONTRACTOR
 MWDS.                    Baku:  MWD SHOP
 JOBN.        AZ-XX-0907021034:  JOB TICKET NUMB
 RIG .                     DWG:  RIG NAME
 DOE .                     N/A:  DOE NUMBER
 DCON.         Sperry Drilling:  DIRECTNL CONTR
 UNIT.                     N/A:  LOGGING EQUIPMENT ID
 CNTY.                        :  COUNTY
 LOC .                        :  LOCATION
 LMF .             Drill Floor:  LOG MEASURED FROM
 TVDS.m                  43.16:  TVDSS CORRECTN
 LATI.deg                40.17:  LATITUDE
 LONG.deg                51.17:  LONGITUDE
 WHNS.m                  -5.90:  WELL HEAD N/S
 WHEW.m                  -6.61:  WELL HEAD E/W
 UTMX.m              514337.95:  UTM X
 UTMY.m             4448627.46:  UTM Y
 DFWL.m                   0.00:  DISTANCE FWL
 DFSL.m                   0.00:  DISTANCE FSL
 SDEP.m                2606.87:  START DEPTH
 TDD .m                3618.01:  TOTAL DEPTH (DRILLER)
 VSDR.deg               177.42:  VERT SEC DIRECT
 GVFD.g                   1.00:  GRAVITY FIELD
 MFLD.nT              50399.00:  MAGNETIC FIELD
 MDIP.deg                59.67:  MAGNETIC DIP
 MDEC.deg                 6.56:  MAGNETIC DECL
 GRDC.deg                 0.11:  GRID CORRECTION
 AZTC.deg                 6.45:  AZM TOTAL CORR
 EPD .m                   0.00:  ELEVATION
 EGL .m                   0.00:  GROUND ELEVATION
 WDMS.m                 176.20:  WD ELEV
 APD .m                  43.16:  DEPTH ABOVE PD
 DEP .m                2606.87:  DEPTH
 AGAP.m                  43.16:  AIR GAP
 VSEW.m                  -6.61:  VERT SEC E/W
 VSNS.m                  -5.90:  VERT SEC N/S
 EKB .m                  43.16:  KB ELEVATION
 EDF .m                  43.16:  DF ELEVATION
 TDL .m                 438.00:  TOTAL DEPTH (LOGGER)
 VSC .                       0:  VS TO CLOSURE
 MAGU.                 1855490:  MAGUTM CHECKSUM
~Parameter Information Block
#MNEM.UNIT       Value        Description
#---------     -----------    ---------------------------
 AV  .mps                 2.20:  Ann Velocity 
 AVMX.mps                 2.50:  Max Ann Veloc 
 AZIF.deg               150.21:  Azm, Final 
 BHAT.        Rotary Steerable:  BHA Type 
 BROT.°/30m               0.08:  Build Rotating 
 BS  .in                  6.50:  Bit Size 
 BSZ .in                  6.50:  Bit Size 
 BTPL.psig              108.00:  Bit Press Loss 
 CABU.                     Yes:  Customer Abuse 
 CGEO.           Emin Aliyarli:  Customer Geo 
 COMM.                     lJm:  Run Comments 1 
 TCS .hr                 74.20:  Time Ciculation Ended 
 CV  .mps                 3.63:  Crit Velocity 
 CVMX.mps                 3.66:  Max Crit Veloc 
 DD1 .         Intigam Rahimov:  Direct Drillr 1 
 DD2 .          Teymur Aghayev:  Direct Drillr 2 
 DDSV.               Geo-Pilot:  DD Service 
 DEFF.%                  97.00:  % Det Eff 
 DLRX.°/30m               1.63:  Dogleg Rot Max 
 DLSO.°/30m               0.00:  Dogleg Oriented 
 DLSX.°/30m               0.00:  Dogleg Str Max 
 DRET.      20.20.00 28-Apr-21:  Drill End Time 
 DRST.      04.45.00 26-Apr-21:  Drill Start Tim 
 DTIM.hr                 34.30:  Time Drilling 
 EDEP.m                3618.01:  End Depth 
 ENG1.           Amrah Tahirov:  Engineer 1 
 ENG2.         Bahruz Mehdiyev:  Engineer 2 
 ENG3.         Farhad Orujzade:  Engineer 3 
 ETIM.      19.00.00 29-Apr-21:  End Time 
 FLOI.gpm               370.00:  Flow In 
 FLON.gpm               300.00:  Flow In Min 
 FLOS.cptm                0.00:  Fluid Loss 
 FLOX.gpm               410.00:  Flow In Max 
 HFLO.                      No:  High Flow 
 HPRE.                      No:  High Pressure 
 HTEM.                      No:  High Temp 
 HYDO.m                   1.80:  Hydro Offset 
 IFIN.deg                67.19:  Inc, Final 
 IMAX.deg                68.42:  Inc Max 
 IMIN.deg                66.33:  Inc Min 
 IMND.m                3532.79:  Inc Min Depth 
 IMXD.m                3192.15:  Inc Max Depth 
 JARR.                      No:  Jarring 
 LETM.      20.20.00 28-Apr-21:  Log End Time 
 LOST.hr                     0:  Lost Rig Time 
 LSTM.      04.45.00 26-Apr-21:  Log Start Time 
 MDCL.ppm             36500.00:  Mud Chlorides 
 MDES.     Inversion Oil/Synthetic:  Mud Desc 
 DFD .sg                  1.42:  Mud Density 
 MDMN.sg                  1.42:  Dens Mud Min 
 MDMX.sg                  1.42:  Dens Mud Max 
 MOIL.                    55.7:  Run Mud Oil % 
 MOWR.                   71:29:  Run Mud OWR 
 MSND.                     0.1:  Run Mud Sand % 
 MSOL.                    19.9:  Run Mud Solids% 
 DFV .spqt               83.00:  Mud Viscosity 
 MWOD.in                  5.15:  MWD Tool OD 
 MWSI.                      No:  Serv Intrp, MWD 
 OTIM.hr                120.59:  Time Operating 
 PCON.           Look Like New:  Pad Condition 
 PMAX.psia            11292.93:  Press Op, Max 
 PV  .cP                 27.00:  Mud PV 
 RUN .                     400:  Run Number 
 ROPA.m/hr               14.00:  ROP Avg 
 ROPN.m/hr                9.00:  ROP Min 
 ROPX.m/hr               18.00:  ROP Max 
 RPMA.rpm               130.00:  RPM Surface Avg 
 RPMN.rpm               100.00:  RPM Surface Min 
 RPMX.rpm               140.00:  RPM Surface Max 
 RRUN.                    0400:  Rig Run Number 
 RTIM.hr                 38.60:  Time Reaming 
 SAZI.deg               149.55:  Azm, Start 
 SDEP.m                3180.01:  Start Depth 
 SIDD.                      No:  Serv Intrp, DD 
 SINC.deg                68.42:  Inc, Start 
 SPPA.psig             4400.00:  SPP Avg 
 SPPN.psig             3580.00:  SPP Min 
 SPPX.psig             4850.00:  SPP Max 
 STIM.      12.30.00 24-Apr-21:  Start Time 
 SVCS.                 DD, MWD:  Services 
 SVER.                    9.20:  Sperry Version 
 TDAT.m                 438.00:  Tot Depth Attmp 
 TDDF.                      No:  Trip for DD 
 TDLG.m                 438.00:  Tot Depth Loggd 
 TFF .                      No:  Trip for Fail 
 TQAA.f-kp               11.00:  Torque Abs Avg 
 TQAN.f-kp                9.00:  Torque Abs Min 
 TQAX.f-kp               14.00:  Torque Abs Max 
 TRRT.°/30m               0.04:  Turn Rotating 
 MRT .                    HCIM:  Maximum Recorded Temperature 
 TTMX.degC               84.31:  Max Tool Temp 
 VS01.                90521954:  Virtual Str1 SN 
 VS02.                90519327:  Virtual Str2 SN 
 VS03.                90522273:  Virtual Str3 SN 
 VS04.                11108038:  Virtual Str4 SN 
 VS05.                12258760:  Virtual Str5 SN 
 WBMN.klb                 1.00:  WOB Min 
 WITN.           Adil Mammadov:  Customer Rep 
 WITN.         Alex Yadullayev:  Customer Rep 2 
 WOBA.klb                 6.00:  WOB Avg 
 WOBX.klb                 9.00:  WOB Max 
 YP  .lhf2               31.00:  Yield Point 
~Curve Information Block
#MNEM.UNIT                 API CODE     Curve Description
#---------               -----------    ---------------------------
 TIME.HHMMSS            00 000 000 000:  GT Time & Date
 GTDEPTH.m              00 000 000 000:  GT Depth
 GTPQH.psia             00 000 000 000:  GT HR Quartz Pressure
 GTTQ.degC              00 000 000 000:  GT Quartz Temperature
 GTTN.NONE              00 000 000 000:  GT Test Number
 GTET.sec               00 000 000 000:  GT Elapsed Test Time
 GTTVD.m                00 000 000 000:  GT True Vertical Depth
#Other Information
#
#WARRANTY: Halliburton will use its best efforts to furnish customers with 
#accurate information and interpretations that are part of, and incident to, the services 
#provided.  However, Halliburton cannot and does not warrant the accuracy 
#or correctness of such information and interpretations.  Under no circumstances should any 
#such information or interpretation be relied upon as the sole basis for any drilling, 
#completion, production, or financial decision or any procedure involving any risk to the 
#safety of any drilling venture, drilling rig or its crew or any other third party.  The 
#Customer has full responsibility for all drilling, completion and production operation.  
#Halliburton makes no representations or warranties, either expressed or 
#implied, including, but not limited to, the implied warranties of merchantability or fitness 
#for a particular purpose, with respect to the services rendered.  In no event will 
#Halliburton be liable for failure to obtain any particular results or for 
#any damages, including, but not limited to, indirect, special or consequential damages, 
#resulting from the use of any information or interpretation provided by Halliburton.
#
~A           TIME           GTDEPTH  GTPQH  GTTQ  GTTN  GTET   GTTVD  
# ...
   00:47:32.794.27-Apr-2021 3226.01 4274.50 71.23 2.00 345.07 2651.33
   00:47:32.994.27-Apr-2021 3226.01 4274.50 71.23 2.00 345.27 2651.33
   00:47:33.194.27-Apr-2021 3226.01 4696.57 71.23 2.00 345.47 2651.33
   00:47:33.394.27-Apr-2021 3226.01 5799.44 71.23 2.00 345.67 2651.33
   00:47:33.594.27-Apr-2021 3226.01 5794.17 71.23 2.00 345.87 2651.33
   00:47:33.794.27-Apr-2021 3226.01 5800.24 71.23 2.00 346.07 2651.33
   00:47:33.994.27-Apr-2021 3226.01 5800.24 71.23 2.00 346.27 2651.33
   00:47:34.194.27-Apr-2021 3226.01 5807.36 71.23 2.00 346.47 2651.33
   00:47:34.394.27-Apr-2021 3226.01 5808.86 71.23 2.00 346.67 2651.33
   00:47:34.594.27-Apr-2021 3226.01 5808.97 71.23 2.00 346.87 2651.33
   00:47:34.794.27-Apr-2021 3226.01 5797.95 71.23 2.00 347.07 2651.33
   00:47:34.995.27-Apr-2021 3226.01 5797.95 71.23 2.00 347.27 2651.33
   00:47:35.195.27-Apr-2021 3226.01 5812.94 71.23 2.00 347.47 2651.33
   00:47:35.395.27-Apr-2021 3226.01 5812.48 71.23 2.00 347.67 2651.33
   00:47:35.595.27-Apr-2021 3226.01 5804.19 71.23 2.00 347.87 2651.33
   00:47:35.795.27-Apr-2021 3226.01 5802.35 71.23 2.00 348.07 2651.33
   00:47:35.995.27-Apr-2021 3226.01 5802.35 71.23 2.00 348.27 2651.33
   00:47:36.195.27-Apr-2021 3226.01 5802.35 71.23 2.00 348.47 2651.33
   00:47:36.395.27-Apr-2021 3226.01 5802.35 71.23 2.00 348.67 2651.33
   00:47:36.595.27-Apr-2021 3226.01 5799.15 71.23 2.00 348.87 2651.33
   00:47:36.795.27-Apr-2021 3226.01 5805.58 71.23 2.00 349.07 2651.33
   00:47:36.995.27-Apr-2021 3226.01 5805.58 71.23 2.00 349.27 2651.33
   00:47:37.195.27-Apr-2021 3226.01 5814.10 71.23 2.00 349.47 2651.33
   00:47:37.395.27-Apr-2021 3226.01 5813.61 71.23 2.00 349.67 2651.33
   00:47:37.595.27-Apr-2021 3226.01 5812.97 71.23 2.00 349.87 2651.33
   00:47:37.795.27-Apr-2021 3226.01 5812.21 71.23 2.00 350.07 2651.33
   00:47:37.995.27-Apr-2021 3226.01 5812.21 71.23 2.00 350.27 2651.33
   00:47:38.195.27-Apr-2021 3226.01 5815.97 71.23 2.00 350.47 2651.33
   00:47:38.395.27-Apr-2021 3226.01 5814.00 71.23 2.00 350.67 2651.33
   00:47:38.595.27-Apr-2021 3226.01 5812.45 71.23 2.00 350.87 2651.33
   00:47:38.795.27-Apr-2021 3226.01 5810.99 71.22 2.00 351.07 2651.33
   00:47:38.995.27-Apr-2021 3226.01 5810.99 71.22 2.00 351.27 2651.33
   00:47:39.195.27-Apr-2021 3226.01 5796.53 71.22 2.00 351.47 2651.33
   00:47:39.395.27-Apr-2021 3226.01 5805.59 71.22 2.00 351.67 2651.33
   00:47:39.595.27-Apr-2021 3226.01 5808.15 71.22 2.00 351.87 2651.33
   00:47:39.795.27-Apr-2021 3226.01 5809.31 71.22 2.00 352.07 2651.33
   00:47:39.996.27-Apr-2021 3226.01 5809.31 71.22 2.00 352.27 2651.33
   00:47:40.196.27-Apr-2021 3226.01 5808.92 71.22 2.00 352.47 2651.33
   00:47:40.396.27-Apr-2021 3226.01 5809.84 71.22 2.00 352.67 2651.33
   00:47:40.596.27-Apr-2021 3226.01 5814.88 71.22 2.00 352.87 2651.33
   00:47:40.796.27-Apr-2021 3226.01 5814.78 71.22 2.00 353.07 2651.33
   00:47:40.996.27-Apr-2021 3226.01 5814.78 71.22 2.00 353.27 2651.33
   00:47:41.196.27-Apr-2021 3226.01 5811.51 71.22 2.00 353.47 2651.33
   00:47:41.396.27-Apr-2021 3226.01 5811.72 71.22 2.00 353.67 2651.33
   00:47:41.596.27-Apr-2021 3226.01 5813.40 71.22 2.00 353.87 2651.33
   00:47:41.796.27-Apr-2021 3226.01 5811.20 71.22 2.00 354.07 2651.33
   00:47:41.996.27-Apr-2021 3226.01 5811.20 71.22 2.00 354.27 2651.33
   00:47:42.196.27-Apr-2021 3226.01 5806.50 71.22 2.00 354.47 2651.33
   00:47:42.396.27-Apr-2021 3226.01 5810.58 71.22 2.00 354.67 2651.33
   00:47:42.596.27-Apr-2021 3226.01 5811.82 71.22 2.00 354.87 2651.33
   00:47:42.796.27-Apr-2021 3226.01 5812.16 71.22 2.00 355.07 2651.33
   00:47:42.996.27-Apr-2021 3226.01 5812.16 71.22 2.00 355.27 2651.33
   00:47:43.196.27-Apr-2021 3226.01 5798.89 71.22 2.00 355.47 2651.33
   00:47:43.396.27-Apr-2021 3226.01 5811.55 71.22 2.00 355.67 2651.33
   00:47:43.596.27-Apr-2021 3226.01 5814.95 71.22 2.00 355.87 2651.33
   00:47:43.796.27-Apr-2021 3226.01 5813.49 71.22 2.00 356.07 2651.33
   00:47:43.996.27-Apr-2021 3226.01 5813.49 71.22 2.00 356.27 2651.33
   00:47:44.196.27-Apr-2021 3226.01 5800.84 71.22 2.00 356.47 2651.33
   00:47:44.396.27-Apr-2021 3226.01 5809.59 71.22 2.00 356.67 2651.33
   00:47:44.596.27-Apr-2021 3226.01 5812.41 71.22 2.00 356.87 2651.33
   00:47:44.796.27-Apr-2021 3226.01 5804.64 71.22 2.00 357.07 2651.33
   00:47:44.997.27-Apr-2021 3226.01 5804.64 71.22 2.00 357.27 2651.33
   00:47:45.197.27-Apr-2021 3226.01 5806.90 71.22 2.00 357.47 2651.33
   00:47:45.397.27-Apr-2021 3226.01 5810.79 71.22 2.00 357.67 2651.33
   00:47:45.597.27-Apr-2021 3226.01 5814.19 71.22 2.00 357.87 2651.33
   00:47:45.797.27-Apr-2021 3226.01 5813.21 71.22 2.00 358.07 2651.33
   00:47:45.997.27-Apr-2021 3226.01 5813.21 71.22 2.00 358.27 2651.33
   00:47:46.197.27-Apr-2021 3226.01 5812.71 71.22 2.00 358.47 2651.33
   00:47:46.397.27-Apr-2021 3226.01 5816.36 71.22 2.00 358.67 2651.33
   00:47:46.597.27-Apr-2021 3226.01 5814.71 71.22 2.00 358.87 2651.33
   00:47:46.797.27-Apr-2021 3226.01 5813.24 71.22 2.00 359.07 2651.33
   00:47:46.997.27-Apr-2021 3226.01 5813.24 71.22 2.00 359.27 2651.33
   00:47:47.197.27-Apr-2021 3226.01 5810.85 71.21 2.00 359.47 2651.33
   00:47:47.397.27-Apr-2021 3226.01 5808.14 71.21 2.00 359.67 2651.33
   00:47:47.597.27-Apr-2021 3226.01 5796.74 71.21 2.00 359.87 2651.33
   00:47:47.797.27-Apr-2021 3226.01 5804.84 71.21 2.00 360.07 2651.33
   00:47:47.997.27-Apr-2021 3226.01 5804.84 71.21 2.00 360.27 2651.33
   00:47:48.197.27-Apr-2021 3226.01 5808.70 71.21 2.00 360.47 2651.33
   00:47:48.397.27-Apr-2021 3226.01 5809.15 71.21 2.00 360.67 2651.33
   00:47:48.597.27-Apr-2021 3226.01 5809.95 71.21 2.00 360.87 2651.33
   00:47:48.797.27-Apr-2021 3226.01 5810.52 71.21 2.00 361.07 2651.33
   00:47:48.997.27-Apr-2021 3226.01 5810.52 71.21 2.00 361.27 2651.33
   00:47:49.197.27-Apr-2021 3226.01 5814.69 71.21 2.00 361.47 2651.33
   00:47:49.397.27-Apr-2021 3226.01 5813.79 71.21 2.00 361.67 2651.33
   00:47:49.597.27-Apr-2021 3226.01 5811.94 71.21 2.00 361.87 2651.33
   00:47:49.797.27-Apr-2021 3226.01 5813.01 71.21 2.00 362.07 2651.33
   00:47:49.997.27-Apr-2021 3226.01 5813.01 71.21 2.00 362.27 2651.33
   00:47:50.198.27-Apr-2021 3226.01 5813.01 71.21 2.00 362.47 2651.33
   00:47:50.398.27-Apr-2021 3226.01 5798.66 71.21 2.00 362.67 2651.33
   00:47:50.598.27-Apr-2021 3226.01 5806.28 71.21 2.00 362.87 2651.33
   00:47:50.798.27-Apr-2021 3226.01 5810.36 71.21 2.00 363.07 2651.33
   00:47:50.998.27-Apr-2021 3226.01 5810.36 71.21 2.00 363.27 2651.33
   00:47:51.198.27-Apr-2021 3226.01 5811.71 71.21 2.00 363.47 2651.33
   00:47:51.398.27-Apr-2021 3226.01 5811.80 71.21 2.00 363.67 2651.33
   00:47:51.598.27-Apr-2021 3226.01 5801.48 71.21 2.00 363.87 2651.33
   00:47:51.798.27-Apr-2021 3226.01 5809.28 71.21 2.00 364.07 2651.33
   00:47:51.998.27-Apr-2021 3226.01 5809.28 71.21 2.00 364.27 2651.33
   00:47:52.198.27-Apr-2021 3226.01 5813.75 71.21 2.00 364.47 2651.33
   00:47:52.398.27-Apr-2021 3226.01 5804.19 71.20 2.00 364.67 2651.33
   00:47:52.598.27-Apr-2021 3226.01 5803.00 71.20 2.00 364.87 2651.33
   00:47:52.798.27-Apr-2021 3226.01 5807.92 71.20 2.00 365.07 2651.33
   00:47:52.998.27-Apr-2021 3226.01 5807.92 71.20 2.00 365.27 2651.33
   00:47:53.198.27-Apr-2021 3226.01 5812.17 71.20 2.00 365.47 2651.33
   00:47:53.398.27-Apr-2021 3226.01 5799.95 71.20 2.00 365.67 2651.33
   00:47:53.598.27-Apr-2021 3226.01 5804.50 71.20 2.00 365.87 2651.33
   00:47:53.798.27-Apr-2021 3226.01 5808.73 71.20 2.00 366.07 2651.33
   00:47:53.998.27-Apr-2021 3226.01 5808.73 71.20 2.00 366.27 2651.33
   00:47:54.198.27-Apr-2021 3226.01 5813.99 71.20 2.00 366.47 2651.33
   00:47:54.398.27-Apr-2021 3226.01 5814.75 71.20 2.00 366.67 2651.33
   00:47:54.598.27-Apr-2021 3226.01 5811.85 71.20 2.00 366.87 2651.33
   00:47:54.798.27-Apr-2021 3226.01 5815.93 71.20 2.00 367.07 2651.33
   00:47:54.998.27-Apr-2021 3226.01 5815.93 71.20 2.00 367.27 2651.33
   00:47:55.199.27-Apr-2021 3226.01 5814.24 71.20 2.00 367.47 2651.33
   00:47:55.399.27-Apr-2021 3226.01 5811.77 71.20 2.00 367.67 2651.33
   00:47:55.599.27-Apr-2021 3226.01 5810.58 71.20 2.00 367.87 2651.33
