~Version Information
 VERS.                  2.0:   CWLS log ASCII Standard -VERSION 2.0
 WRAP.                   NO:   One line per depth step
~Well Information Block
#MNEM.UNIT     VALUE/NAME     DESCRIPTION
#---------     -----------    ---------------------------
 STRT.S             03:12:46 28-Apr-21: START TIME 03:12:46 28-Apr-21
 STOP.S             03:19:14 28-Apr-21: STOP TIME  03:19:14 28-Apr-21
 STEP.S                   0.00: STEP TIME
 NULL.                 -999.25: NULL VALUE
 DFWT.                        :  DIST FWL TEXT
 DFST.                        :  DIST FSL TEXT
 DMF .             Drill Floor:  DRILL MEAS FROM
 STIM.      02.00.00 12-Apr-21:  START TIME
 DATE.      02.00.00 02-May-21:  END TIME
 SPUD.               09-Apr-21:  SPUD DATE
 NREF.                    Grid:  NORTH REFERENCE
 HPTY.       Minimum Curvature:  HOLE POS TYPE
 DMOD.             Drill Model:  DRILL MOD DESC
 SVYD.                  Survey:  SURVEY DESC
 ILTD.               Lithology:  INTERP LTH DESC
 FTOP.          Formation Tops:  FORM TOPS DESC
 PDAT.          Mean Sea Level:  PERMANENT DATUM
 FLD .                     ACG:  FIELD NAME
 SON .        AZ-XX-0907021034:  JOB NUMBER
 CTRY.              Azerbaijan:  COUNTRY NAME
 WELL.                    E01x:  WELL NAME
 COMP.     BP Exploration (Caspian Sea) LTD.:  COMPANY
 UWI .            /AZE00001403:  UNIQUE WELL IDENTIFIER
 API .            /AZE00001403:  API NUMBER
 WTYP.                Deviated:  WELL TYPE
 MDS .        Operator Entered:  MAG DATA SOURCE
 BASE.              Azerbaijan:  LOGGING EQUIPMENT BASE LOCATION
 REGN.                   EESSA:  REGION
 PROV.                    Baku:  PROVINCE
 STAT.                    Baku:  STATE NAME
 SRVC.          Turan Drilling:  CONTRACTOR
 MWDS.                    Baku:  MWD SHOP
 JOBN.        AZ-XX-0907021034:  JOB TICKET NUMB
 RIG .                     DWG:  RIG NAME
 DOE .                     N/A:  DOE NUMBER
 DCON.         Sperry Drilling:  DIRECTNL CONTR
 UNIT.                     N/A:  LOGGING EQUIPMENT ID
 CNTY.                        :  COUNTY
 LOC .                        :  LOCATION
 LMF .             Drill Floor:  LOG MEASURED FROM
 TVDS.m                  43.16:  TVDSS CORRECTN
 LATI.deg                40.17:  LATITUDE
 LONG.deg                51.17:  LONGITUDE
 WHNS.m                  -5.90:  WELL HEAD N/S
 WHEW.m                  -6.61:  WELL HEAD E/W
 UTMX.m              514337.95:  UTM X
 UTMY.m             4448627.46:  UTM Y
 DFWL.m                   0.00:  DISTANCE FWL
 DFSL.m                   0.00:  DISTANCE FSL
 SDEP.m                2606.87:  START DEPTH
 TDD .m                3618.01:  TOTAL DEPTH (DRILLER)
 VSDR.deg               177.42:  VERT SEC DIRECT
 GVFD.g                   1.00:  GRAVITY FIELD
 MFLD.nT              50399.00:  MAGNETIC FIELD
 MDIP.deg                59.67:  MAGNETIC DIP
 MDEC.deg                 6.56:  MAGNETIC DECL
 GRDC.deg                 0.11:  GRID CORRECTION
 AZTC.deg                 6.45:  AZM TOTAL CORR
 EPD .m                   0.00:  ELEVATION
 EGL .m                   0.00:  GROUND ELEVATION
 WDMS.m                 176.20:  WD ELEV
 APD .m                  43.16:  DEPTH ABOVE PD
 DEP .m                2606.87:  DEPTH
 AGAP.m                  43.16:  AIR GAP
 VSEW.m                  -6.61:  VERT SEC E/W
 VSNS.m                  -5.90:  VERT SEC N/S
 EKB .m                  43.16:  KB ELEVATION
 EDF .m                  43.16:  DF ELEVATION
 TDL .m                 438.00:  TOTAL DEPTH (LOGGER)
 VSC .                       0:  VS TO CLOSURE
 MAGU.                 1855490:  MAGUTM CHECKSUM
~Parameter Information Block
#MNEM.UNIT       Value        Description
#---------     -----------    ---------------------------
 AV  .mps                 2.20:  Ann Velocity 
 AVMX.mps                 2.50:  Max Ann Veloc 
 AZIF.deg               150.21:  Azm, Final 
 BHAT.        Rotary Steerable:  BHA Type 
 BROT.°/30m               0.08:  Build Rotating 
 BS  .in                  6.50:  Bit Size 
 BSZ .in                  6.50:  Bit Size 
 BTPL.psig              108.00:  Bit Press Loss 
 CABU.                     Yes:  Customer Abuse 
 CGEO.           Emin Aliyarli:  Customer Geo 
 COMM.                     ¬¼r:  Run Comments 1 
 TCS .hr                 74.20:  Time Ciculation Ended 
 CV  .mps                 3.63:  Crit Velocity 
 CVMX.mps                 3.66:  Max Crit Veloc 
 DD1 .         Intigam Rahimov:  Direct Drillr 1 
 DD2 .          Teymur Aghayev:  Direct Drillr 2 
 DDSV.               Geo-Pilot:  DD Service 
 DEFF.%                  97.00:  % Det Eff 
 DLRX.°/30m               1.63:  Dogleg Rot Max 
 DLSO.°/30m               0.00:  Dogleg Oriented 
 DLSX.°/30m               0.00:  Dogleg Str Max 
 DRET.      20.20.00 28-Apr-21:  Drill End Time 
 DRST.      04.45.00 26-Apr-21:  Drill Start Tim 
 DTIM.hr                 34.30:  Time Drilling 
 EDEP.m                3618.01:  End Depth 
 ENG1.           Amrah Tahirov:  Engineer 1 
 ENG2.         Bahruz Mehdiyev:  Engineer 2 
 ENG3.         Farhad Orujzade:  Engineer 3 
 ETIM.      19.00.00 29-Apr-21:  End Time 
 FLOI.gpm               370.00:  Flow In 
 FLON.gpm               300.00:  Flow In Min 
 FLOS.cptm                0.00:  Fluid Loss 
 FLOX.gpm               410.00:  Flow In Max 
 HFLO.                      No:  High Flow 
 HPRE.                      No:  High Pressure 
 HTEM.                      No:  High Temp 
 HYDO.m                   1.80:  Hydro Offset 
 IFIN.deg                67.19:  Inc, Final 
 IMAX.deg                68.42:  Inc Max 
 IMIN.deg                66.33:  Inc Min 
 IMND.m                3532.79:  Inc Min Depth 
 IMXD.m                3192.15:  Inc Max Depth 
 JARR.                      No:  Jarring 
 LETM.      20.20.00 28-Apr-21:  Log End Time 
 LOST.hr                     0:  Lost Rig Time 
 LSTM.      04.45.00 26-Apr-21:  Log Start Time 
 MDCL.ppm             36500.00:  Mud Chlorides 
 MDES.     Inversion Oil/Synthetic:  Mud Desc 
 DFD .sg                  1.42:  Mud Density 
 MDMN.sg                  1.42:  Dens Mud Min 
 MDMX.sg                  1.42:  Dens Mud Max 
 MOIL.                    55.7:  Run Mud Oil % 
 MOWR.                   71:29:  Run Mud OWR 
 MSND.                     0.1:  Run Mud Sand % 
 MSOL.                    19.9:  Run Mud Solids% 
 DFV .spqt               83.00:  Mud Viscosity 
 MWOD.in                  5.15:  MWD Tool OD 
 MWSI.                      No:  Serv Intrp, MWD 
 OTIM.hr                120.59:  Time Operating 
 PCON.           Look Like New:  Pad Condition 
 PMAX.psia            11292.93:  Press Op, Max 
 PV  .cP                 27.00:  Mud PV 
 RUN .                     400:  Run Number 
 ROPA.m/hr               14.00:  ROP Avg 
 ROPN.m/hr                9.00:  ROP Min 
 ROPX.m/hr               18.00:  ROP Max 
 RPMA.rpm               130.00:  RPM Surface Avg 
 RPMN.rpm               100.00:  RPM Surface Min 
 RPMX.rpm               140.00:  RPM Surface Max 
 RRUN.                    0400:  Rig Run Number 
 RTIM.hr                 38.60:  Time Reaming 
 SAZI.deg               149.55:  Azm, Start 
 SDEP.m                3180.01:  Start Depth 
 SIDD.                      No:  Serv Intrp, DD 
 SINC.deg                68.42:  Inc, Start 
 SPPA.psig             4400.00:  SPP Avg 
 SPPN.psig             3580.00:  SPP Min 
 SPPX.psig             4850.00:  SPP Max 
 STIM.      12.30.00 24-Apr-21:  Start Time 
 SVCS.                 DD, MWD:  Services 
 SVER.                    9.20:  Sperry Version 
 TDAT.m                 438.00:  Tot Depth Attmp 
 TDDF.                      No:  Trip for DD 
 TDLG.m                 438.00:  Tot Depth Loggd 
 TFF .                      No:  Trip for Fail 
 TQAA.f-kp               11.00:  Torque Abs Avg 
 TQAN.f-kp                9.00:  Torque Abs Min 
 TQAX.f-kp               14.00:  Torque Abs Max 
 TRRT.°/30m               0.04:  Turn Rotating 
 MRT .                    HCIM:  Maximum Recorded Temperature 
 TTMX.degC               84.31:  Max Tool Temp 
 VS01.                90521954:  Virtual Str1 SN 
 VS02.                90519327:  Virtual Str2 SN 
 VS03.                90522273:  Virtual Str3 SN 
 VS04.                11108038:  Virtual Str4 SN 
 VS05.                12258760:  Virtual Str5 SN 
 WBMN.klb                 1.00:  WOB Min 
 WITN.           Adil Mammadov:  Customer Rep 
 WITN.         Alex Yadullayev:  Customer Rep 2 
 WOBA.klb                 6.00:  WOB Avg 
 WOBX.klb                 9.00:  WOB Max 
 YP  .lhf2               31.00:  Yield Point 
~Curve Information Block
#MNEM.UNIT                 API CODE     Curve Description
#---------               -----------    ---------------------------
 TIME.HHMMSS            00 000 000 000:  GT Time & Date
 GTDEPTH.m              00 000 000 000:  GT Depth
 GTPQH.psia             00 000 000 000:  GT HR Quartz Pressure
 GTTQ.degC              00 000 000 000:  GT Quartz Temperature
 GTTN.NONE              00 000 000 000:  GT Test Number
 GTET.sec               00 000 000 000:  GT Elapsed Test Time
 GTTVD.m                00 000 000 000:  GT True Vertical Depth
#Other Information
#
#WARRANTY: Halliburton will use its best efforts to furnish customers with 
#accurate information and interpretations that are part of, and incident to, the services 
#provided.  However, Halliburton cannot and does not warrant the accuracy 
#or correctness of such information and interpretations.  Under no circumstances should any 
#such information or interpretation be relied upon as the sole basis for any drilling, 
#completion, production, or financial decision or any procedure involving any risk to the 
#safety of any drilling venture, drilling rig or its crew or any other third party.  The 
#Customer has full responsibility for all drilling, completion and production operation.  
#Halliburton makes no representations or warranties, either expressed or 
#implied, including, but not limited to, the implied warranties of merchantability or fitness 
#for a particular purpose, with respect to the services rendered.  In no event will 
#Halliburton be liable for failure to obtain any particular results or for 
#any damages, including, but not limited to, indirect, special or consequential damages, 
#resulting from the use of any information or interpretation provided by Halliburton.
#
~A           TIME           GTDEPTH  GTPQH  GTTQ  GTTN  GTET   GTTVD  
# ...
   03:17:22.852.28-Apr-2021 3448.01 3696.16 71.89 7.00 276.04 2738.99
   03:17:23.052.28-Apr-2021 3448.01 3696.16 71.89 7.00 276.24 2738.99
   03:17:23.252.28-Apr-2021 3448.01 3696.17 71.89 7.00 276.44 2738.99
   03:17:23.452.28-Apr-2021 3448.01 3696.11 71.89 7.00 276.64 2738.99
   03:17:23.652.28-Apr-2021 3448.01 3696.18 71.89 7.00 276.84 2738.99
   03:17:23.852.28-Apr-2021 3448.01 3696.11 71.89 7.00 277.04 2738.99
   03:17:24.052.28-Apr-2021 3448.01 3696.11 71.89 7.00 277.24 2738.99
   03:17:24.252.28-Apr-2021 3448.01 3696.09 71.89 7.00 277.44 2738.99
   03:17:24.452.28-Apr-2021 3448.01 3696.17 71.89 7.00 277.64 2738.99
   03:17:24.652.28-Apr-2021 3448.01 3696.09 71.89 7.00 277.84 2738.99
   03:17:24.852.28-Apr-2021 3448.01 3696.13 71.89 7.00 278.04 2738.99
   03:17:25.052.28-Apr-2021 3448.01 3696.13 71.89 7.00 278.24 2738.99
   03:17:25.252.28-Apr-2021 3448.01 3696.06 71.89 7.00 278.44 2738.99
   03:17:25.452.28-Apr-2021 3448.01 3695.70 71.89 7.00 278.64 2738.99
   03:17:25.652.28-Apr-2021 3448.01 3696.40 71.89 7.00 278.84 2738.99
   03:17:25.852.28-Apr-2021 3448.01 3696.27 71.88 7.00 279.04 2738.99
   03:17:26.052.28-Apr-2021 3448.01 3696.27 71.88 7.00 279.24 2738.99
   03:17:26.252.28-Apr-2021 3448.01 3695.85 71.88 7.00 279.44 2738.99
   03:17:26.452.28-Apr-2021 3448.01 3696.40 71.88 7.00 279.64 2738.99
   03:17:26.652.28-Apr-2021 3448.01 3696.17 71.88 7.00 279.84 2738.99
   03:17:26.853.28-Apr-2021 3448.01 3696.21 71.88 7.00 280.04 2738.99
   03:17:27.053.28-Apr-2021 3448.01 3696.21 71.88 7.00 280.24 2738.99
   03:17:27.253.28-Apr-2021 3448.01 3696.26 71.88 7.00 280.44 2738.99
   03:17:27.453.28-Apr-2021 3448.01 3695.71 71.88 7.00 280.64 2738.99
   03:17:27.653.28-Apr-2021 3448.01 3696.42 71.88 7.00 280.84 2738.99
   03:17:27.853.28-Apr-2021 3448.01 3696.23 71.88 7.00 281.04 2738.99
   03:17:28.053.28-Apr-2021 3448.01 3696.23 71.88 7.00 281.24 2738.99
   03:17:28.253.28-Apr-2021 3448.01 3695.86 71.88 7.00 281.44 2738.99
   03:17:28.453.28-Apr-2021 3448.01 3696.35 71.88 7.00 281.64 2738.99
   03:17:28.653.28-Apr-2021 3448.01 3696.25 71.88 7.00 281.84 2738.99
   03:17:28.853.28-Apr-2021 3448.01 3696.12 71.88 7.00 282.04 2738.99
   03:17:29.053.28-Apr-2021 3448.01 3696.12 71.88 7.00 282.24 2738.99
   03:17:29.253.28-Apr-2021 3448.01 3696.17 71.88 7.00 282.44 2738.99
   03:17:29.453.28-Apr-2021 3448.01 3696.18 71.88 7.00 282.64 2738.99
   03:17:29.653.28-Apr-2021 3448.01 3696.16 71.88 7.00 282.84 2738.99
   03:17:29.853.28-Apr-2021 3448.01 3696.09 71.88 7.00 283.04 2738.99
   03:17:30.053.28-Apr-2021 3448.01 3696.09 71.88 7.00 283.24 2738.99
   03:17:30.253.28-Apr-2021 3448.01 3696.11 71.88 7.00 283.44 2738.99
   03:17:30.453.28-Apr-2021 3448.01 3696.11 71.88 7.00 283.64 2738.99
   03:17:30.653.28-Apr-2021 3448.01 3696.12 71.88 7.00 283.84 2738.99
   03:17:30.853.28-Apr-2021 3448.01 3696.08 71.88 7.00 284.04 2738.99
   03:17:31.053.28-Apr-2021 3448.01 3696.08 71.88 7.00 284.24 2738.99
   03:17:31.253.28-Apr-2021 3448.01 3696.40 71.88 7.00 284.44 2738.99
   03:17:31.453.28-Apr-2021 3448.01 3696.28 71.88 7.00 284.64 2738.99
   03:17:31.653.28-Apr-2021 3448.01 3696.07 71.88 7.00 284.84 2738.99
   03:17:31.853.28-Apr-2021 3448.01 3696.21 71.88 7.00 285.04 2738.99
   03:17:32.053.28-Apr-2021 3448.01 3696.21 71.88 7.00 285.24 2738.99
   03:17:32.253.28-Apr-2021 3448.01 3696.13 71.87 7.00 285.44 2738.99
   03:17:32.453.28-Apr-2021 3448.01 3696.16 71.87 7.00 285.64 2738.99
   03:17:32.653.28-Apr-2021 3448.01 3696.10 71.87 7.00 285.84 2738.99
   03:17:32.853.28-Apr-2021 3448.01 3696.16 71.87 7.00 286.04 2738.99
   03:17:33.053.28-Apr-2021 3448.01 3696.16 71.87 7.00 286.24 2738.99
   03:17:33.253.28-Apr-2021 3448.01 3696.09 71.87 7.00 286.44 2738.99
   03:17:33.453.28-Apr-2021 3448.01 3696.10 71.87 7.00 286.64 2738.99
   03:17:33.654.28-Apr-2021 3448.01 3695.83 71.87 7.00 286.84 2738.99
   03:17:33.854.28-Apr-2021 3448.01 3696.25 71.87 7.00 287.04 2738.99
   03:17:34.054.28-Apr-2021 3448.01 3696.25 71.87 7.00 287.24 2738.99
   03:17:34.254.28-Apr-2021 3448.01 3696.25 71.87 7.00 287.44 2738.99
   03:17:34.454.28-Apr-2021 3448.01 3695.95 71.87 7.00 287.64 2738.99
   03:17:34.654.28-Apr-2021 3448.01 3696.04 71.87 7.00 287.84 2738.99
   03:17:34.854.28-Apr-2021 3448.01 3696.28 71.87 7.00 288.04 2738.99
   03:17:35.054.28-Apr-2021 3448.01 3696.28 71.87 7.00 288.24 2738.99
   03:17:35.254.28-Apr-2021 3448.01 3696.11 71.87 7.00 288.44 2738.99
   03:17:35.454.28-Apr-2021 3448.01 3696.15 71.87 7.00 288.64 2738.99
   03:17:35.654.28-Apr-2021 3448.01 3696.10 71.87 7.00 288.84 2738.99
   03:17:35.854.28-Apr-2021 3448.01 3696.01 71.87 7.00 289.04 2738.99
   03:17:36.054.28-Apr-2021 3448.01 3696.01 71.87 7.00 289.24 2738.99
   03:17:36.254.28-Apr-2021 3448.01 3696.22 71.87 7.00 289.44 2738.99
   03:17:36.454.28-Apr-2021 3448.01 3695.99 71.87 7.00 289.64 2738.99
   03:17:36.654.28-Apr-2021 3448.01 3696.06 71.87 7.00 289.84 2738.99
   03:17:36.854.28-Apr-2021 3448.01 3696.23 71.87 7.00 290.04 2738.99
   03:17:37.054.28-Apr-2021 3448.01 3696.23 71.87 7.00 290.24 2738.99
   03:17:37.254.28-Apr-2021 3448.01 3696.05 71.87 7.00 290.44 2738.99
   03:17:37.454.28-Apr-2021 3448.01 3696.23 71.87 7.00 290.64 2738.99
   03:17:37.654.28-Apr-2021 3448.01 3696.15 71.87 7.00 290.84 2738.99
   03:17:37.854.28-Apr-2021 3448.01 3696.16 71.87 7.00 291.04 2738.99
   03:17:38.054.28-Apr-2021 3448.01 3696.16 71.87 7.00 291.24 2738.99
   03:17:38.254.28-Apr-2021 3448.01 3696.10 71.86 7.00 291.44 2738.99
   03:17:38.454.28-Apr-2021 3448.01 3696.20 71.86 7.00 291.64 2738.99
   03:17:38.654.28-Apr-2021 3448.01 3696.08 71.86 7.00 291.84 2738.99
   03:17:38.854.28-Apr-2021 3448.01 3696.12 71.86 7.00 292.04 2738.99
   03:17:39.054.28-Apr-2021 3448.01 3696.12 71.86 7.00 292.24 2738.99
   03:17:39.254.28-Apr-2021 3448.01 3695.84 71.86 7.00 292.44 2738.99
   03:17:39.454.28-Apr-2021 3448.01 3696.21 71.86 7.00 292.64 2738.99
   03:17:39.654.28-Apr-2021 3448.01 3696.14 71.86 7.00 292.84 2738.99
   03:17:39.854.28-Apr-2021 3448.01 3696.24 71.86 7.00 293.04 2738.99
   03:17:40.054.28-Apr-2021 3448.01 3696.24 71.86 7.00 293.24 2738.99
   03:17:40.254.28-Apr-2021 3448.01 3696.20 71.86 7.00 293.44 2738.99
   03:17:40.455.28-Apr-2021 3448.01 3696.12 71.86 7.00 293.64 2738.99
   03:17:40.655.28-Apr-2021 3448.01 3696.12 71.86 7.00 293.84 2738.99
   03:17:40.855.28-Apr-2021 3448.01 3696.17 71.86 7.00 294.04 2738.99
   03:17:41.055.28-Apr-2021 3448.01 3696.17 71.86 7.00 294.24 2738.99
   03:17:41.255.28-Apr-2021 3448.01 3696.17 71.86 7.00 294.44 2738.99
   03:17:41.455.28-Apr-2021 3448.01 3696.04 71.86 7.00 294.64 2738.99
   03:17:41.655.28-Apr-2021 3448.01 3696.11 71.86 7.00 294.84 2738.99
   03:17:41.855.28-Apr-2021 3448.01 3696.06 71.86 7.00 295.04 2738.99
   03:17:42.055.28-Apr-2021 3448.01 3696.06 71.86 7.00 295.24 2738.99
   03:17:42.255.28-Apr-2021 3448.01 3696.45 71.86 7.00 295.44 2738.99
   03:17:42.455.28-Apr-2021 3448.01 3696.16 71.86 7.00 295.64 2738.99
   03:17:42.655.28-Apr-2021 3448.01 3696.17 71.86 7.00 295.84 2738.99
   03:17:42.855.28-Apr-2021 3448.01 3695.78 71.86 7.00 296.04 2738.99
   03:17:43.055.28-Apr-2021 3448.01 3695.78 71.86 7.00 296.24 2738.99
   03:17:43.255.28-Apr-2021 3448.01 3696.15 71.86 7.00 296.44 2738.99
   03:17:43.455.28-Apr-2021 3448.01 3696.15 71.86 7.00 296.64 2738.99
   03:17:43.655.28-Apr-2021 3448.01 3696.14 71.86 7.00 296.84 2738.99
   03:17:43.855.28-Apr-2021 3448.01 3696.15 71.86 7.00 297.04 2738.99
   03:17:44.055.28-Apr-2021 3448.01 3696.15 71.86 7.00 297.24 2738.99
   03:17:44.255.28-Apr-2021 3448.01 3696.35 71.85 7.00 297.44 2738.99
   03:17:44.455.28-Apr-2021 3448.01 3696.26 71.85 7.00 297.64 2738.99
   03:17:44.655.28-Apr-2021 3448.01 3696.10 71.85 7.00 297.84 2738.99
   03:17:44.855.28-Apr-2021 3448.01 3695.80 71.85 7.00 298.04 2738.99
   03:17:45.055.28-Apr-2021 3448.01 3695.80 71.85 7.00 298.24 2738.99
   03:17:45.255.28-Apr-2021 3448.01 3696.14 71.85 7.00 298.44 2738.99
   03:17:45.455.28-Apr-2021 3448.01 3696.22 71.85 7.00 298.64 2738.99
   03:17:45.655.28-Apr-2021 3448.01 3696.09 71.85 7.00 298.84 2738.99
