~Version Information
 VERS.                  2.0:   CWLS log ASCII Standard -VERSION 2.0
 WRAP.                   NO:   One line per depth step
~Well Information Block
#MNEM.UNIT     VALUE/NAME     DESCRIPTION
#---------     -----------    ---------------------------
 STRT.S             15:37:44 28-Apr-21: START TIME 15:37:44 28-Apr-21
 STOP.S             15:44:12 28-Apr-21: STOP TIME  15:44:12 28-Apr-21
 STEP.S                   0.00: STEP TIME
 NULL.                 -999.25: NULL VALUE
 DFWT.                        :  DIST FWL TEXT
 DFST.                        :  DIST FSL TEXT
 DMF .             Drill Floor:  DRILL MEAS FROM
 STIM.      02.00.00 12-Apr-21:  START TIME
 DATE.      02.00.00 02-May-21:  END TIME
 SPUD.               09-Apr-21:  SPUD DATE
 NREF.                    Grid:  NORTH REFERENCE
 HPTY.       Minimum Curvature:  HOLE POS TYPE
 DMOD.             Drill Model:  DRILL MOD DESC
 SVYD.                  Survey:  SURVEY DESC
 ILTD.               Lithology:  INTERP LTH DESC
 FTOP.          Formation Tops:  FORM TOPS DESC
 PDAT.          Mean Sea Level:  PERMANENT DATUM
 FLD .                     ACG:  FIELD NAME
 SON .        AZ-XX-0907021034:  JOB NUMBER
 CTRY.              Azerbaijan:  COUNTRY NAME
 WELL.                    E01x:  WELL NAME
 COMP.     BP Exploration (Caspian Sea) LTD.:  COMPANY
 UWI .            /AZE00001403:  UNIQUE WELL IDENTIFIER
 API .            /AZE00001403:  API NUMBER
 WTYP.                Deviated:  WELL TYPE
 MDS .        Operator Entered:  MAG DATA SOURCE
 BASE.              Azerbaijan:  LOGGING EQUIPMENT BASE LOCATION
 REGN.                   EESSA:  REGION
 PROV.                    Baku:  PROVINCE
 STAT.                    Baku:  STATE NAME
 SRVC.          Turan Drilling:  CONTRACTOR
 MWDS.                    Baku:  MWD SHOP
 JOBN.        AZ-XX-0907021034:  JOB TICKET NUMB
 RIG .                     DWG:  RIG NAME
 DOE .                     N/A:  DOE NUMBER
 DCON.         Sperry Drilling:  DIRECTNL CONTR
 UNIT.                     N/A:  LOGGING EQUIPMENT ID
 CNTY.                        :  COUNTY
 LOC .                        :  LOCATION
 LMF .             Drill Floor:  LOG MEASURED FROM
 TVDS.m                  43.16:  TVDSS CORRECTN
 LATI.deg                40.17:  LATITUDE
 LONG.deg                51.17:  LONGITUDE
 WHNS.m                  -5.90:  WELL HEAD N/S
 WHEW.m                  -6.61:  WELL HEAD E/W
 UTMX.m              514337.95:  UTM X
 UTMY.m             4448627.46:  UTM Y
 DFWL.m                   0.00:  DISTANCE FWL
 DFSL.m                   0.00:  DISTANCE FSL
 SDEP.m                2606.87:  START DEPTH
 TDD .m                3618.01:  TOTAL DEPTH (DRILLER)
 VSDR.deg               177.42:  VERT SEC DIRECT
 GVFD.g                   1.00:  GRAVITY FIELD
 MFLD.nT              50399.00:  MAGNETIC FIELD
 MDIP.deg                59.67:  MAGNETIC DIP
 MDEC.deg                 6.56:  MAGNETIC DECL
 GRDC.deg                 0.11:  GRID CORRECTION
 AZTC.deg                 6.45:  AZM TOTAL CORR
 EPD .m                   0.00:  ELEVATION
 EGL .m                   0.00:  GROUND ELEVATION
 WDMS.m                 176.20:  WD ELEV
 APD .m                  43.16:  DEPTH ABOVE PD
 DEP .m                2606.87:  DEPTH
 AGAP.m                  43.16:  AIR GAP
 VSEW.m                  -6.61:  VERT SEC E/W
 VSNS.m                  -5.90:  VERT SEC N/S
 EKB .m                  43.16:  KB ELEVATION
 EDF .m                  43.16:  DF ELEVATION
 TDL .m                 438.00:  TOTAL DEPTH (LOGGER)
 VSC .                       0:  VS TO CLOSURE
 MAGU.                 1855490:  MAGUTM CHECKSUM
~Parameter Information Block
#MNEM.UNIT       Value        Description
#---------     -----------    ---------------------------
 AV  .mps                 2.20:  Ann Velocity 
 AVMX.mps                 2.50:  Max Ann Veloc 
 AZIF.deg               150.21:  Azm, Final 
 BHAT.        Rotary Steerable:  BHA Type 
 BROT.°/30m               0.08:  Build Rotating 
 BS  .in                  6.50:  Bit Size 
 BSZ .in                  6.50:  Bit Size 
 BTPL.psig              108.00:  Bit Press Loss 
 CABU.                     Yes:  Customer Abuse 
 CGEO.           Emin Aliyarli:  Customer Geo 
 COMM.                     ôŸZ:  Run Comments 1 
 TCS .hr                 74.20:  Time Ciculation Ended 
 CV  .mps                 3.63:  Crit Velocity 
 CVMX.mps                 3.66:  Max Crit Veloc 
 DD1 .         Intigam Rahimov:  Direct Drillr 1 
 DD2 .          Teymur Aghayev:  Direct Drillr 2 
 DDSV.               Geo-Pilot:  DD Service 
 DEFF.%                  97.00:  % Det Eff 
 DLRX.°/30m               1.63:  Dogleg Rot Max 
 DLSO.°/30m               0.00:  Dogleg Oriented 
 DLSX.°/30m               0.00:  Dogleg Str Max 
 DRET.      20.20.00 28-Apr-21:  Drill End Time 
 DRST.      04.45.00 26-Apr-21:  Drill Start Tim 
 DTIM.hr                 34.30:  Time Drilling 
 EDEP.m                3618.01:  End Depth 
 ENG1.           Amrah Tahirov:  Engineer 1 
 ENG2.         Bahruz Mehdiyev:  Engineer 2 
 ENG3.         Farhad Orujzade:  Engineer 3 
 ETIM.      19.00.00 29-Apr-21:  End Time 
 FLOI.gpm               370.00:  Flow In 
 FLON.gpm               300.00:  Flow In Min 
 FLOS.cptm                0.00:  Fluid Loss 
 FLOX.gpm               410.00:  Flow In Max 
 HFLO.                      No:  High Flow 
 HPRE.                      No:  High Pressure 
 HTEM.                      No:  High Temp 
 HYDO.m                   1.80:  Hydro Offset 
 IFIN.deg                67.19:  Inc, Final 
 IMAX.deg                68.42:  Inc Max 
 IMIN.deg                66.33:  Inc Min 
 IMND.m                3532.79:  Inc Min Depth 
 IMXD.m                3192.15:  Inc Max Depth 
 JARR.                      No:  Jarring 
 LETM.      20.20.00 28-Apr-21:  Log End Time 
 LOST.hr                     0:  Lost Rig Time 
 LSTM.      04.45.00 26-Apr-21:  Log Start Time 
 MDCL.ppm             36500.00:  Mud Chlorides 
 MDES.     Inversion Oil/Synthetic:  Mud Desc 
 DFD .sg                  1.42:  Mud Density 
 MDMN.sg                  1.42:  Dens Mud Min 
 MDMX.sg                  1.42:  Dens Mud Max 
 MOIL.                    55.7:  Run Mud Oil % 
 MOWR.                   71:29:  Run Mud OWR 
 MSND.                     0.1:  Run Mud Sand % 
 MSOL.                    19.9:  Run Mud Solids% 
 DFV .spqt               83.00:  Mud Viscosity 
 MWOD.in                  5.15:  MWD Tool OD 
 MWSI.                      No:  Serv Intrp, MWD 
 OTIM.hr                120.59:  Time Operating 
 PCON.           Look Like New:  Pad Condition 
 PMAX.psia            11292.93:  Press Op, Max 
 PV  .cP                 27.00:  Mud PV 
 RUN .                     400:  Run Number 
 ROPA.m/hr               14.00:  ROP Avg 
 ROPN.m/hr                9.00:  ROP Min 
 ROPX.m/hr               18.00:  ROP Max 
 RPMA.rpm               130.00:  RPM Surface Avg 
 RPMN.rpm               100.00:  RPM Surface Min 
 RPMX.rpm               140.00:  RPM Surface Max 
 RRUN.                    0400:  Rig Run Number 
 RTIM.hr                 38.60:  Time Reaming 
 SAZI.deg               149.55:  Azm, Start 
 SDEP.m                3180.01:  Start Depth 
 SIDD.                      No:  Serv Intrp, DD 
 SINC.deg                68.42:  Inc, Start 
 SPPA.psig             4400.00:  SPP Avg 
 SPPN.psig             3580.00:  SPP Min 
 SPPX.psig             4850.00:  SPP Max 
 STIM.      12.30.00 24-Apr-21:  Start Time 
 SVCS.                 DD, MWD:  Services 
 SVER.                    9.20:  Sperry Version 
 TDAT.m                 438.00:  Tot Depth Attmp 
 TDDF.                      No:  Trip for DD 
 TDLG.m                 438.00:  Tot Depth Loggd 
 TFF .                      No:  Trip for Fail 
 TQAA.f-kp               11.00:  Torque Abs Avg 
 TQAN.f-kp                9.00:  Torque Abs Min 
 TQAX.f-kp               14.00:  Torque Abs Max 
 TRRT.°/30m               0.04:  Turn Rotating 
 MRT .                    HCIM:  Maximum Recorded Temperature 
 TTMX.degC               84.31:  Max Tool Temp 
 VS01.                90521954:  Virtual Str1 SN 
 VS02.                90519327:  Virtual Str2 SN 
 VS03.                90522273:  Virtual Str3 SN 
 VS04.                11108038:  Virtual Str4 SN 
 VS05.                12258760:  Virtual Str5 SN 
 WBMN.klb                 1.00:  WOB Min 
 WITN.           Adil Mammadov:  Customer Rep 
 WITN.         Alex Yadullayev:  Customer Rep 2 
 WOBA.klb                 6.00:  WOB Avg 
 WOBX.klb                 9.00:  WOB Max 
 YP  .lhf2               31.00:  Yield Point 
~Curve Information Block
#MNEM.UNIT                 API CODE     Curve Description
#---------               -----------    ---------------------------
 TIME.HHMMSS            00 000 000 000:  GT Time & Date
 GTDEPTH.m              00 000 000 000:  GT Depth
 GTPQH.psia             00 000 000 000:  GT HR Quartz Pressure
 GTTQ.degC              00 000 000 000:  GT Quartz Temperature
 GTTN.NONE              00 000 000 000:  GT Test Number
 GTET.sec               00 000 000 000:  GT Elapsed Test Time
 GTTVD.m                00 000 000 000:  GT True Vertical Depth
#Other Information
#
#WARRANTY: Halliburton will use its best efforts to furnish customers with 
#accurate information and interpretations that are part of, and incident to, the services 
#provided.  However, Halliburton cannot and does not warrant the accuracy 
#or correctness of such information and interpretations.  Under no circumstances should any 
#such information or interpretation be relied upon as the sole basis for any drilling, 
#completion, production, or financial decision or any procedure involving any risk to the 
#safety of any drilling venture, drilling rig or its crew or any other third party.  The 
#Customer has full responsibility for all drilling, completion and production operation.  
#Halliburton makes no representations or warranties, either expressed or 
#implied, including, but not limited to, the implied warranties of merchantability or fitness 
#for a particular purpose, with respect to the services rendered.  In no event will 
#Halliburton be liable for failure to obtain any particular results or for 
#any damages, including, but not limited to, indirect, special or consequential damages, 
#resulting from the use of any information or interpretation provided by Halliburton.
#
~A           TIME           GTDEPTH  GTPQH  GTTQ  GTTN   GTET   GTTVD  
# ...
   15:39:37.357.28-Apr-2021 3537.51 4281.54 74.83 10.00 113.04 2773.98
   15:39:37.557.28-Apr-2021 3537.51 4281.54 74.83 10.00 113.24 2773.98
   15:39:37.757.28-Apr-2021 3537.51 4281.71 74.82 10.00 113.44 2773.98
   15:39:37.957.28-Apr-2021 3537.51 4281.59 74.82 10.00 113.64 2773.98
   15:39:38.158.28-Apr-2021 3537.51 4281.53 74.82 10.00 113.84 2773.98
   15:39:38.358.28-Apr-2021 3537.51 4281.52 74.82 10.00 114.04 2773.98
   15:39:38.558.28-Apr-2021 3537.51 4281.52 74.82 10.00 114.24 2773.98
   15:39:38.758.28-Apr-2021 3537.51 4281.53 74.82 10.00 114.44 2773.98
   15:39:38.958.28-Apr-2021 3537.51 4281.57 74.82 10.00 114.64 2773.98
   15:39:39.158.28-Apr-2021 3537.51 4281.57 74.82 10.00 114.84 2773.98
   15:39:39.358.28-Apr-2021 3537.51 4281.52 74.82 10.00 115.04 2773.98
   15:39:39.558.28-Apr-2021 3537.51 4281.52 74.82 10.00 115.24 2773.98
   15:39:39.758.28-Apr-2021 3537.51 4281.58 74.82 10.00 115.44 2773.98
   15:39:39.958.28-Apr-2021 3537.51 4281.55 74.82 10.00 115.64 2773.98
   15:39:40.158.28-Apr-2021 3537.51 4281.54 74.82 10.00 115.84 2773.98
   15:39:40.358.28-Apr-2021 3537.51 4281.52 74.82 10.00 116.04 2773.98
   15:39:40.558.28-Apr-2021 3537.51 4281.52 74.82 10.00 116.24 2773.98
   15:39:40.759.28-Apr-2021 3537.51 4281.54 74.82 10.00 116.44 2773.98
   15:39:40.959.28-Apr-2021 3537.51 4281.53 74.82 10.00 116.64 2773.98
   15:39:41.159.28-Apr-2021 3537.51 4281.50 74.81 10.00 116.84 2773.98
   15:39:41.359.28-Apr-2021 3537.51 4281.45 74.81 10.00 117.04 2773.98
   15:39:41.559.28-Apr-2021 3537.51 4281.45 74.81 10.00 117.24 2773.98
   15:39:41.759.28-Apr-2021 3537.51 4281.58 74.81 10.00 117.44 2773.98
   15:39:41.959.28-Apr-2021 3537.51 4281.53 74.81 10.00 117.64 2773.98
   15:39:42.159.28-Apr-2021 3537.51 4281.47 74.81 10.00 117.84 2773.98
   15:39:42.359.28-Apr-2021 3537.51 4281.55 74.81 10.00 118.05 2773.98
   15:39:42.559.28-Apr-2021 3537.51 4281.55 74.81 10.00 118.25 2773.98
   15:39:42.759.28-Apr-2021 3537.51 4281.53 74.81 10.00 118.45 2773.98
   15:39:42.959.28-Apr-2021 3537.51 4281.51 74.81 10.00 118.65 2773.98
   15:39:43.159.28-Apr-2021 3537.51 4281.51 74.81 10.00 118.85 2773.98
   15:39:43.360.28-Apr-2021 3537.51 4281.52 74.81 10.00 119.05 2773.98
   15:39:43.560.28-Apr-2021 3537.51 4281.52 74.81 10.00 119.25 2773.98
   15:39:43.760.28-Apr-2021 3537.51 4281.52 74.81 10.00 119.45 2773.98
   15:39:43.960.28-Apr-2021 3537.51 4281.43 74.81 10.00 119.65 2773.98
   15:39:44.160.28-Apr-2021 3537.51 4281.49 74.81 10.00 119.85 2773.98
   15:39:44.360.28-Apr-2021 3537.51 4281.52 74.81 10.00 120.05 2773.98
   15:39:44.560.28-Apr-2021 3537.51 4281.52 74.81 10.00 120.25 2773.98
   15:39:44.760.28-Apr-2021 3537.51 4281.50 74.80 10.00 120.45 2773.98
   15:39:44.960.28-Apr-2021 3537.51 4281.47 74.80 10.00 120.65 2773.98
   15:39:45.160.28-Apr-2021 3537.51 4281.53 74.80 10.00 120.85 2773.98
   15:39:45.360.28-Apr-2021 3537.51 4281.29 74.80 10.00 121.05 2773.98
   15:39:45.560.28-Apr-2021 3537.51 4281.29 74.80 10.00 121.25 2773.98
   15:39:45.760.28-Apr-2021 3537.51 4281.53 74.80 10.00 121.45 2773.98
   15:39:45.961.28-Apr-2021 3537.51 4281.50 74.80 10.00 121.65 2773.98
   15:39:46.161.28-Apr-2021 3537.51 4281.38 74.80 10.00 121.85 2773.98
   15:39:46.361.28-Apr-2021 3537.51 4281.55 74.80 10.00 122.05 2773.98
   15:39:46.561.28-Apr-2021 3537.51 4281.55 74.80 10.00 122.25 2773.98
   15:39:46.761.28-Apr-2021 3537.51 4281.50 74.80 10.00 122.45 2773.98
   15:39:46.961.28-Apr-2021 3537.51 4281.51 74.80 10.00 122.65 2773.98
   15:39:47.161.28-Apr-2021 3537.51 4281.44 74.80 10.00 122.85 2773.98
   15:39:47.361.28-Apr-2021 3537.51 4281.31 74.80 10.00 123.05 2773.98
   15:39:47.561.28-Apr-2021 3537.51 4281.31 74.80 10.00 123.25 2773.98
   15:39:47.761.28-Apr-2021 3537.51 4281.56 74.80 10.00 123.45 2773.98
   15:39:47.961.28-Apr-2021 3537.51 4281.49 74.80 10.00 123.65 2773.98
   15:39:48.161.28-Apr-2021 3537.51 4281.44 74.79 10.00 123.85 2773.98
   15:39:48.361.28-Apr-2021 3537.51 4281.53 74.79 10.00 124.05 2773.98
   15:39:48.562.28-Apr-2021 3537.51 4281.53 74.79 10.00 124.25 2773.98
   15:39:48.762.28-Apr-2021 3537.51 4281.52 74.79 10.00 124.45 2773.98
   15:39:48.962.28-Apr-2021 3537.51 4281.47 74.79 10.00 124.65 2773.98
   15:39:49.162.28-Apr-2021 3537.51 4281.47 74.79 10.00 124.85 2773.98
   15:39:49.362.28-Apr-2021 3537.51 4281.51 74.79 10.00 125.05 2773.98
   15:39:49.562.28-Apr-2021 3537.51 4281.51 74.79 10.00 125.25 2773.98
   15:39:49.762.28-Apr-2021 3537.51 4281.50 74.79 10.00 125.45 2773.98
   15:39:49.962.28-Apr-2021 3537.51 4281.23 74.79 10.00 125.65 2773.98
   15:39:50.162.28-Apr-2021 3537.51 4281.61 74.79 10.00 125.85 2773.98
   15:39:50.362.28-Apr-2021 3537.51 4281.53 74.79 10.00 126.05 2773.98
   15:39:50.562.28-Apr-2021 3537.51 4281.53 74.79 10.00 126.25 2773.98
   15:39:50.762.28-Apr-2021 3537.51 4281.45 74.79 10.00 126.45 2773.98
   15:39:50.962.28-Apr-2021 3537.51 4281.46 74.79 10.00 126.65 2773.98
   15:39:51.163.28-Apr-2021 3537.51 4281.50 74.79 10.00 126.85 2773.98
   15:39:51.363.28-Apr-2021 3537.51 4281.47 74.79 10.00 127.05 2773.98
   15:39:51.563.28-Apr-2021 3537.51 4281.47 74.79 10.00 127.25 2773.98
   15:39:51.763.28-Apr-2021 3537.51 4281.46 74.78 10.00 127.45 2773.98
   15:39:51.963.28-Apr-2021 3537.51 4281.48 74.78 10.00 127.65 2773.98
   15:39:52.163.28-Apr-2021 3537.51 4281.47 74.78 10.00 127.85 2773.98
   15:39:52.363.28-Apr-2021 3537.51 4281.46 74.78 10.00 128.05 2773.98
   15:39:52.563.28-Apr-2021 3537.51 4281.46 74.78 10.00 128.25 2773.98
   15:39:52.763.28-Apr-2021 3537.51 4281.46 74.78 10.00 128.45 2773.98
   15:39:52.963.28-Apr-2021 3537.51 4281.61 74.78 10.00 128.65 2773.98
   15:39:53.163.28-Apr-2021 3537.51 4281.52 74.78 10.00 128.85 2773.98
   15:39:53.363.28-Apr-2021 3537.51 4281.46 74.78 10.00 129.05 2773.98
   15:39:53.563.28-Apr-2021 3537.51 4281.46 74.78 10.00 129.25 2773.98
   15:39:53.764.28-Apr-2021 3537.51 4281.48 74.78 10.00 129.45 2773.98
   15:39:53.964.28-Apr-2021 3537.51 4281.31 74.78 10.00 129.65 2773.98
   15:39:54.164.28-Apr-2021 3537.51 4281.58 74.78 10.00 129.85 2773.98
   15:39:54.364.28-Apr-2021 3537.51 4281.49 74.78 10.00 130.05 2773.98
   15:39:54.564.28-Apr-2021 3537.51 4281.49 74.78 10.00 130.25 2773.98
   15:39:54.764.28-Apr-2021 3537.51 4281.46 74.78 10.00 130.45 2773.98
   15:39:54.964.28-Apr-2021 3537.51 4281.40 74.78 10.00 130.65 2773.98
   15:39:55.164.28-Apr-2021 3537.51 4270.71 74.78 10.00 130.85 2773.98
   15:39:55.364.28-Apr-2021 3537.51 4251.64 74.77 10.00 131.05 2773.98
   15:39:55.564.28-Apr-2021 3537.51 4251.64 74.77 10.00 131.25 2773.98
   15:39:55.764.28-Apr-2021 3537.51 4250.84 74.77 10.00 131.45 2773.98
   15:39:55.964.28-Apr-2021 3537.51 4250.46 74.77 10.00 131.65 2773.98
   15:39:56.164.28-Apr-2021 3537.51 4251.36 74.77 10.00 131.85 2773.98
   15:39:56.365.28-Apr-2021 3537.51 4250.95 74.77 10.00 132.05 2773.98
   15:39:56.565.28-Apr-2021 3537.51 4250.95 74.77 10.00 132.25 2773.98
   15:39:56.765.28-Apr-2021 3537.51 4250.64 74.77 10.00 132.45 2773.98
   15:39:56.965.28-Apr-2021 3537.51 4250.66 74.77 10.00 132.65 2773.98
   15:39:57.165.28-Apr-2021 3537.51 4250.62 74.77 10.00 132.85 2773.98
   15:39:57.365.28-Apr-2021 3537.51 4250.53 74.77 10.00 133.05 2773.98
   15:39:57.565.28-Apr-2021 3537.51 4250.53 74.77 10.00 133.25 2773.98
   15:39:57.765.28-Apr-2021 3537.51 4250.67 74.77 10.00 133.45 2773.98
   15:39:57.965.28-Apr-2021 3537.51 4250.74 74.77 10.00 133.65 2773.98
   15:39:58.165.28-Apr-2021 3537.51 4250.75 74.77 10.00 133.85 2773.98
   15:39:58.365.28-Apr-2021 3537.51 4250.52 74.77 10.00 134.05 2773.98
   15:39:58.565.28-Apr-2021 3537.51 4250.52 74.77 10.00 134.25 2773.98
   15:39:58.765.28-Apr-2021 3537.51 4250.60 74.76 10.00 134.45 2773.98
   15:39:58.966.28-Apr-2021 3537.51 4250.72 74.76 10.00 134.65 2773.98
   15:39:59.166.28-Apr-2021 3537.51 4250.55 74.76 10.00 134.85 2773.98
   15:39:59.366.28-Apr-2021 3537.51 4250.56 74.76 10.00 135.05 2773.98
   15:39:59.566.28-Apr-2021 3537.51 4250.56 74.76 10.00 135.25 2773.98
   15:39:59.766.28-Apr-2021 3537.51 4250.60 74.76 10.00 135.45 2773.98
