~Version Information
 VERS.                  2.0:   CWLS log ASCII Standard -VERSION 2.0
 WRAP.                   NO:   One line per depth step
~Well Information Block
#MNEM.UNIT     VALUE/NAME     DESCRIPTION
#---------     -----------    ---------------------------
 STRT.S             23:23:54 27-Apr-21: START TIME 23:23:54 27-Apr-21
 STOP.S             23:30:22 27-Apr-21: STOP TIME  23:30:22 27-Apr-21
 STEP.S                   0.00: STEP TIME
 NULL.                 -999.25: NULL VALUE
 DFWT.                        :  DIST FWL TEXT
 DFST.                        :  DIST FSL TEXT
 DMF .             Drill Floor:  DRILL MEAS FROM
 STIM.      02.00.00 12-Apr-21:  START TIME
 DATE.      02.00.00 02-May-21:  END TIME
 SPUD.               09-Apr-21:  SPUD DATE
 NREF.                    Grid:  NORTH REFERENCE
 HPTY.       Minimum Curvature:  HOLE POS TYPE
 DMOD.             Drill Model:  DRILL MOD DESC
 SVYD.                  Survey:  SURVEY DESC
 ILTD.               Lithology:  INTERP LTH DESC
 FTOP.          Formation Tops:  FORM TOPS DESC
 PDAT.          Mean Sea Level:  PERMANENT DATUM
 FLD .                     ACG:  FIELD NAME
 SON .        AZ-XX-0907021034:  JOB NUMBER
 CTRY.              Azerbaijan:  COUNTRY NAME
 WELL.                    E01x:  WELL NAME
 COMP.     BP Exploration (Caspian Sea) LTD.:  COMPANY
 UWI .            /AZE00001403:  UNIQUE WELL IDENTIFIER
 API .            /AZE00001403:  API NUMBER
 WTYP.                Deviated:  WELL TYPE
 MDS .        Operator Entered:  MAG DATA SOURCE
 BASE.              Azerbaijan:  LOGGING EQUIPMENT BASE LOCATION
 REGN.                   EESSA:  REGION
 PROV.                    Baku:  PROVINCE
 STAT.                    Baku:  STATE NAME
 SRVC.          Turan Drilling:  CONTRACTOR
 MWDS.                    Baku:  MWD SHOP
 JOBN.        AZ-XX-0907021034:  JOB TICKET NUMB
 RIG .                     DWG:  RIG NAME
 DOE .                     N/A:  DOE NUMBER
 DCON.         Sperry Drilling:  DIRECTNL CONTR
 UNIT.                     N/A:  LOGGING EQUIPMENT ID
 CNTY.                        :  COUNTY
 LOC .                        :  LOCATION
 LMF .             Drill Floor:  LOG MEASURED FROM
 TVDS.m                  43.16:  TVDSS CORRECTN
 LATI.deg                40.17:  LATITUDE
 LONG.deg                51.17:  LONGITUDE
 WHNS.m                  -5.90:  WELL HEAD N/S
 WHEW.m                  -6.61:  WELL HEAD E/W
 UTMX.m              514337.95:  UTM X
 UTMY.m             4448627.46:  UTM Y
 DFWL.m                   0.00:  DISTANCE FWL
 DFSL.m                   0.00:  DISTANCE FSL
 SDEP.m                2606.87:  START DEPTH
 TDD .m                3618.01:  TOTAL DEPTH (DRILLER)
 VSDR.deg               177.42:  VERT SEC DIRECT
 GVFD.g                   1.00:  GRAVITY FIELD
 MFLD.nT              50399.00:  MAGNETIC FIELD
 MDIP.deg                59.67:  MAGNETIC DIP
 MDEC.deg                 6.56:  MAGNETIC DECL
 GRDC.deg                 0.11:  GRID CORRECTION
 AZTC.deg                 6.45:  AZM TOTAL CORR
 EPD .m                   0.00:  ELEVATION
 EGL .m                   0.00:  GROUND ELEVATION
 WDMS.m                 176.20:  WD ELEV
 APD .m                  43.16:  DEPTH ABOVE PD
 DEP .m                2606.87:  DEPTH
 AGAP.m                  43.16:  AIR GAP
 VSEW.m                  -6.61:  VERT SEC E/W
 VSNS.m                  -5.90:  VERT SEC N/S
 EKB .m                  43.16:  KB ELEVATION
 EDF .m                  43.16:  DF ELEVATION
 TDL .m                 438.00:  TOTAL DEPTH (LOGGER)
 VSC .                       0:  VS TO CLOSURE
 MAGU.                 1855490:  MAGUTM CHECKSUM
~Parameter Information Block
#MNEM.UNIT       Value        Description
#---------     -----------    ---------------------------
 AV  .mps                 2.20:  Ann Velocity 
 AVMX.mps                 2.50:  Max Ann Veloc 
 AZIF.deg               150.21:  Azm, Final 
 BHAT.        Rotary Steerable:  BHA Type 
 BROT.°/30m               0.08:  Build Rotating 
 BS  .in                  6.50:  Bit Size 
 BSZ .in                  6.50:  Bit Size 
 BTPL.psig              108.00:  Bit Press Loss 
 CABU.                     Yes:  Customer Abuse 
 CGEO.           Emin Aliyarli:  Customer Geo 
 COMM.                     HO:  Run Comments 1 
 TCS .hr                 74.20:  Time Ciculation Ended 
 CV  .mps                 3.63:  Crit Velocity 
 CVMX.mps                 3.66:  Max Crit Veloc 
 DD1 .         Intigam Rahimov:  Direct Drillr 1 
 DD2 .          Teymur Aghayev:  Direct Drillr 2 
 DDSV.               Geo-Pilot:  DD Service 
 DEFF.%                  97.00:  % Det Eff 
 DLRX.°/30m               1.63:  Dogleg Rot Max 
 DLSO.°/30m               0.00:  Dogleg Oriented 
 DLSX.°/30m               0.00:  Dogleg Str Max 
 DRET.      20.20.00 28-Apr-21:  Drill End Time 
 DRST.      04.45.00 26-Apr-21:  Drill Start Tim 
 DTIM.hr                 34.30:  Time Drilling 
 EDEP.m                3618.01:  End Depth 
 ENG1.           Amrah Tahirov:  Engineer 1 
 ENG2.         Bahruz Mehdiyev:  Engineer 2 
 ENG3.         Farhad Orujzade:  Engineer 3 
 ETIM.      19.00.00 29-Apr-21:  End Time 
 FLOI.gpm               370.00:  Flow In 
 FLON.gpm               300.00:  Flow In Min 
 FLOS.cptm                0.00:  Fluid Loss 
 FLOX.gpm               410.00:  Flow In Max 
 HFLO.                      No:  High Flow 
 HPRE.                      No:  High Pressure 
 HTEM.                      No:  High Temp 
 HYDO.m                   1.80:  Hydro Offset 
 IFIN.deg                67.19:  Inc, Final 
 IMAX.deg                68.42:  Inc Max 
 IMIN.deg                66.33:  Inc Min 
 IMND.m                3532.79:  Inc Min Depth 
 IMXD.m                3192.15:  Inc Max Depth 
 JARR.                      No:  Jarring 
 LETM.      20.20.00 28-Apr-21:  Log End Time 
 LOST.hr                     0:  Lost Rig Time 
 LSTM.      04.45.00 26-Apr-21:  Log Start Time 
 MDCL.ppm             36500.00:  Mud Chlorides 
 MDES.     Inversion Oil/Synthetic:  Mud Desc 
 DFD .sg                  1.42:  Mud Density 
 MDMN.sg                  1.42:  Dens Mud Min 
 MDMX.sg                  1.42:  Dens Mud Max 
 MOIL.                    55.7:  Run Mud Oil % 
 MOWR.                   71:29:  Run Mud OWR 
 MSND.                     0.1:  Run Mud Sand % 
 MSOL.                    19.9:  Run Mud Solids% 
 DFV .spqt               83.00:  Mud Viscosity 
 MWOD.in                  5.15:  MWD Tool OD 
 MWSI.                      No:  Serv Intrp, MWD 
 OTIM.hr                120.59:  Time Operating 
 PCON.           Look Like New:  Pad Condition 
 PMAX.psia            11292.93:  Press Op, Max 
 PV  .cP                 27.00:  Mud PV 
 RUN .                     400:  Run Number 
 ROPA.m/hr               14.00:  ROP Avg 
 ROPN.m/hr                9.00:  ROP Min 
 ROPX.m/hr               18.00:  ROP Max 
 RPMA.rpm               130.00:  RPM Surface Avg 
 RPMN.rpm               100.00:  RPM Surface Min 
 RPMX.rpm               140.00:  RPM Surface Max 
 RRUN.                    0400:  Rig Run Number 
 RTIM.hr                 38.60:  Time Reaming 
 SAZI.deg               149.55:  Azm, Start 
 SDEP.m                3180.01:  Start Depth 
 SIDD.                      No:  Serv Intrp, DD 
 SINC.deg                68.42:  Inc, Start 
 SPPA.psig             4400.00:  SPP Avg 
 SPPN.psig             3580.00:  SPP Min 
 SPPX.psig             4850.00:  SPP Max 
 STIM.      12.30.00 24-Apr-21:  Start Time 
 SVCS.                 DD, MWD:  Services 
 SVER.                    9.20:  Sperry Version 
 TDAT.m                 438.00:  Tot Depth Attmp 
 TDDF.                      No:  Trip for DD 
 TDLG.m                 438.00:  Tot Depth Loggd 
 TFF .                      No:  Trip for Fail 
 TQAA.f-kp               11.00:  Torque Abs Avg 
 TQAN.f-kp                9.00:  Torque Abs Min 
 TQAX.f-kp               14.00:  Torque Abs Max 
 TRRT.°/30m               0.04:  Turn Rotating 
 MRT .                    HCIM:  Maximum Recorded Temperature 
 TTMX.degC               84.31:  Max Tool Temp 
 VS01.                90521954:  Virtual Str1 SN 
 VS02.                90519327:  Virtual Str2 SN 
 VS03.                90522273:  Virtual Str3 SN 
 VS04.                11108038:  Virtual Str4 SN 
 VS05.                12258760:  Virtual Str5 SN 
 WBMN.klb                 1.00:  WOB Min 
 WITN.           Adil Mammadov:  Customer Rep 
 WITN.         Alex Yadullayev:  Customer Rep 2 
 WOBA.klb                 6.00:  WOB Avg 
 WOBX.klb                 9.00:  WOB Max 
 YP  .lhf2               31.00:  Yield Point 
~Curve Information Block
#MNEM.UNIT                 API CODE     Curve Description
#---------               -----------    ---------------------------
 TIME.HHMMSS            00 000 000 000:  GT Time & Date
 GTDEPTH.m              00 000 000 000:  GT Depth
 GTPQH.psia             00 000 000 000:  GT HR Quartz Pressure
 GTTQ.degC              00 000 000 000:  GT Quartz Temperature
 GTTN.NONE              00 000 000 000:  GT Test Number
 GTET.sec               00 000 000 000:  GT Elapsed Test Time
 GTTVD.m                00 000 000 000:  GT True Vertical Depth
#Other Information
#
#WARRANTY: Halliburton will use its best efforts to furnish customers with 
#accurate information and interpretations that are part of, and incident to, the services 
#provided.  However, Halliburton cannot and does not warrant the accuracy 
#or correctness of such information and interpretations.  Under no circumstances should any 
#such information or interpretation be relied upon as the sole basis for any drilling, 
#completion, production, or financial decision or any procedure involving any risk to the 
#safety of any drilling venture, drilling rig or its crew or any other third party.  The 
#Customer has full responsibility for all drilling, completion and production operation.  
#Halliburton makes no representations or warranties, either expressed or 
#implied, including, but not limited to, the implied warranties of merchantability or fitness 
#for a particular purpose, with respect to the services rendered.  In no event will 
#Halliburton be liable for failure to obtain any particular results or for 
#any damages, including, but not limited to, indirect, special or consequential damages, 
#resulting from the use of any information or interpretation provided by Halliburton.
#
~A           TIME           GTDEPTH  GTPQH  GTTQ  GTTN  GTET   GTTVD  
# ...
   23:30:02.724.27-Apr-2021 3418.01 6055.93 73.36 6.00 368.09 2727.14
   23:30:02.924.27-Apr-2021 3418.01 6055.93 73.36 6.00 368.29 2727.14
   23:30:03.124.27-Apr-2021 3418.01 6045.43 73.36 6.00 368.49 2727.14
   23:30:03.324.27-Apr-2021 3418.01 6055.44 73.36 6.00 368.69 2727.14
   23:30:03.525.27-Apr-2021 3418.01 6055.11 73.36 6.00 368.90 2727.14
   23:30:03.725.27-Apr-2021 3418.01 6041.21 73.36 6.00 369.10 2727.14
   23:30:03.925.27-Apr-2021 3418.01 6041.21 73.36 6.00 369.30 2727.14
   23:30:04.125.27-Apr-2021 3418.01 6059.89 73.36 6.00 369.50 2727.14
   23:30:04.325.27-Apr-2021 3418.01 6050.87 73.36 6.00 369.70 2727.14
   23:30:04.525.27-Apr-2021 3418.01 6045.61 73.36 6.00 369.90 2727.14
   23:30:04.725.27-Apr-2021 3418.01 6052.53 73.36 6.00 370.10 2727.14
   23:30:04.925.27-Apr-2021 3418.01 6052.53 73.36 6.00 370.30 2727.14
   23:30:05.125.27-Apr-2021 3418.01 6052.09 73.36 6.00 370.50 2727.14
   23:30:05.325.27-Apr-2021 3418.01 6052.51 73.35 6.00 370.70 2727.14
   23:30:05.525.27-Apr-2021 3418.01 6056.74 73.35 6.00 370.90 2727.14
   23:30:05.725.27-Apr-2021 3418.01 6055.03 73.35 6.00 371.10 2727.14
   23:30:05.925.27-Apr-2021 3418.01 6055.03 73.35 6.00 371.30 2727.14
   23:30:06.125.27-Apr-2021 3418.01 6054.57 73.35 6.00 371.50 2727.14
   23:30:06.325.27-Apr-2021 3418.01 6058.54 73.35 6.00 371.70 2727.14
   23:30:06.525.27-Apr-2021 3418.01 6055.03 73.35 6.00 371.90 2727.14
   23:30:06.725.27-Apr-2021 3418.01 6055.35 73.35 6.00 372.10 2727.14
   23:30:06.925.27-Apr-2021 3418.01 6055.35 73.35 6.00 372.30 2727.14
   23:30:07.125.27-Apr-2021 3418.01 6043.56 73.35 6.00 372.50 2727.14
   23:30:07.325.27-Apr-2021 3418.01 6055.25 73.35 6.00 372.70 2727.14
   23:30:07.526.27-Apr-2021 3418.01 6056.23 73.35 6.00 372.90 2727.14
   23:30:07.726.27-Apr-2021 3418.01 6048.18 73.35 6.00 373.10 2727.14
   23:30:07.926.27-Apr-2021 3418.01 6048.18 73.35 6.00 373.30 2727.14
   23:30:08.126.27-Apr-2021 3418.01 6054.72 73.35 6.00 373.50 2727.14
   23:30:08.326.27-Apr-2021 3418.01 6052.68 73.35 6.00 373.70 2727.14
   23:30:08.526.27-Apr-2021 3418.01 6053.88 73.35 6.00 373.90 2727.14
   23:30:08.726.27-Apr-2021 3418.01 6052.73 73.35 6.00 374.10 2727.14
   23:30:08.926.27-Apr-2021 3418.01 6052.73 73.35 6.00 374.30 2727.14
   23:30:09.126.27-Apr-2021 3418.01 6056.41 73.35 6.00 374.50 2727.14
   23:30:09.326.27-Apr-2021 3418.01 6054.54 73.35 6.00 374.70 2727.14
   23:30:09.526.27-Apr-2021 3418.01 6054.90 73.35 6.00 374.90 2727.14
   23:30:09.726.27-Apr-2021 3418.01 6055.99 73.35 6.00 375.10 2727.14
   23:30:09.926.27-Apr-2021 3418.01 6055.99 73.35 6.00 375.30 2727.14
   23:30:10.126.27-Apr-2021 3418.01 6050.00 73.35 6.00 375.50 2727.14
   23:30:10.326.27-Apr-2021 3418.01 6054.44 73.34 6.00 375.70 2727.14
   23:30:10.526.27-Apr-2021 3418.01 6053.57 73.34 6.00 375.90 2727.14
   23:30:10.726.27-Apr-2021 3418.01 6052.39 73.34 6.00 376.10 2727.14
   23:30:10.926.27-Apr-2021 3418.01 6052.39 73.34 6.00 376.30 2727.14
   23:30:11.126.27-Apr-2021 3418.01 6053.08 73.34 6.00 376.50 2727.14
   23:30:11.327.27-Apr-2021 3418.01 6047.87 73.34 6.00 376.70 2727.14
   23:30:11.527.27-Apr-2021 3418.01 6053.83 73.34 6.00 376.90 2727.14
   23:30:11.727.27-Apr-2021 3418.01 6055.07 73.34 6.00 377.10 2727.14
   23:30:11.927.27-Apr-2021 3418.01 6055.07 73.34 6.00 377.30 2727.14
   23:30:12.127.27-Apr-2021 3418.01 6049.49 73.34 6.00 377.50 2727.14
   23:30:12.327.27-Apr-2021 3418.01 6054.21 73.34 6.00 377.70 2727.14
   23:30:12.527.27-Apr-2021 3418.01 6053.88 73.34 6.00 377.90 2727.14
   23:30:12.727.27-Apr-2021 3418.01 6039.55 73.34 6.00 378.10 2727.14
   23:30:12.927.27-Apr-2021 3418.01 6039.55 73.34 6.00 378.30 2727.14
   23:30:13.127.27-Apr-2021 3418.01 6057.16 73.34 6.00 378.50 2727.14
   23:30:13.327.27-Apr-2021 3418.01 6049.18 73.34 6.00 378.70 2727.14
   23:30:13.527.27-Apr-2021 3418.01 6052.66 73.34 6.00 378.90 2727.14
   23:30:13.727.27-Apr-2021 3418.01 6055.40 73.34 6.00 379.10 2727.14
   23:30:13.927.27-Apr-2021 3418.01 6055.40 73.34 6.00 379.30 2727.14
   23:30:14.127.27-Apr-2021 3418.01 6053.24 73.34 6.00 379.50 2727.14
   23:30:14.327.27-Apr-2021 3418.01 6054.20 73.34 6.00 379.70 2727.14
   23:30:14.527.27-Apr-2021 3418.01 6057.25 73.34 6.00 379.90 2727.14
   23:30:14.727.27-Apr-2021 3418.01 6056.56 73.34 6.00 380.10 2727.14
   23:30:14.927.27-Apr-2021 3418.01 6056.56 73.34 6.00 380.30 2727.14
   23:30:15.127.27-Apr-2021 3418.01 6056.74 73.34 6.00 380.50 2727.14
   23:30:15.328.27-Apr-2021 3418.01 6044.82 73.33 6.00 380.70 2727.14
   23:30:15.528.27-Apr-2021 3418.01 6055.06 73.33 6.00 380.90 2727.14
   23:30:15.728.27-Apr-2021 3418.01 6053.53 73.33 6.00 381.10 2727.14
   23:30:15.928.27-Apr-2021 3418.01 6053.53 73.33 6.00 381.30 2727.14
   23:30:16.128.27-Apr-2021 3418.01 6050.98 73.33 6.00 381.50 2727.14
   23:30:16.328.27-Apr-2021 3418.01 6053.98 73.33 6.00 381.70 2727.14
   23:30:16.528.27-Apr-2021 3418.01 6052.43 73.33 6.00 381.90 2727.14
   23:30:16.728.27-Apr-2021 3418.01 6053.87 73.33 6.00 382.10 2727.14
   23:30:16.928.27-Apr-2021 3418.01 6053.87 73.33 6.00 382.30 2727.14
   23:30:17.128.27-Apr-2021 3418.01 6054.14 73.33 6.00 382.50 2727.14
   23:30:17.328.27-Apr-2021 3418.01 6056.27 73.33 6.00 382.70 2727.14
   23:30:17.528.27-Apr-2021 3418.01 6055.16 73.33 6.00 382.90 2727.14
   23:30:17.728.27-Apr-2021 3418.01 6054.32 73.33 6.00 383.10 2727.14
   23:30:17.928.27-Apr-2021 3418.01 6054.32 73.33 6.00 383.30 2727.14
   23:30:18.128.27-Apr-2021 3418.01 6054.02 73.33 6.00 383.50 2727.14
   23:30:18.328.27-Apr-2021 3418.01 6044.51 73.33 6.00 383.70 2727.14
   23:30:18.528.27-Apr-2021 3418.01 6055.38 73.33 6.00 383.90 2727.14
   23:30:18.728.27-Apr-2021 3418.01 6056.46 73.33 6.00 384.10 2727.14
   23:30:18.928.27-Apr-2021 3418.01 6056.46 73.33 6.00 384.30 2727.14
   23:30:19.129.27-Apr-2021 3418.01 6055.61 73.33 6.00 384.50 2727.14
   23:30:19.329.27-Apr-2021 3418.01 6056.61 73.33 6.00 384.70 2727.14
   23:30:19.529.27-Apr-2021 3418.01 6041.80 73.33 6.00 384.90 2727.14
   23:30:19.729.27-Apr-2021 3418.01 6058.16 73.33 6.00 385.10 2727.14
   23:30:19.929.27-Apr-2021 3418.01 6058.16 73.33 6.00 385.30 2727.14
   23:30:20.129.27-Apr-2021 3418.01 6056.44 73.32 6.00 385.50 2727.14
   23:30:20.329.27-Apr-2021 3418.01 6049.31 73.32 6.00 385.70 2727.14
   23:30:20.529.27-Apr-2021 3418.01 6054.43 73.32 6.00 385.90 2727.14
   23:30:20.729.27-Apr-2021 3418.01 6053.78 73.32 6.00 386.10 2727.14
   23:30:20.929.27-Apr-2021 3418.01 6053.78 73.32 6.00 386.30 2727.14
   23:30:21.129.27-Apr-2021 3418.01 6051.47 73.32 6.00 386.50 2727.14
   23:30:21.329.27-Apr-2021 3418.01 6046.68 73.32 6.00 386.70 2727.14
   23:30:21.529.27-Apr-2021 3418.01 6054.56 73.32 6.00 386.90 2727.14
   23:30:21.729.27-Apr-2021 3418.01 6053.19 73.32 6.00 387.10 2727.14
   23:30:21.929.27-Apr-2021 3418.01 6053.19 73.32 6.00 387.30 2727.14
   23:30:22.129.27-Apr-2021 3418.01 6057.20 73.32 6.00 387.50 2727.14
   23:30:22.329.27-Apr-2021 3418.01 6053.08 73.32 6.00 387.70 2727.14
   23:30:22.529.27-Apr-2021 3418.01 6053.60 73.32 6.00 387.90 2727.14
