~Version Information
 VERS.                  2.0:   CWLS log ASCII Standard -VERSION 2.0
 WRAP.                   NO:   One line per depth step
~Well Information Block
#MNEM.UNIT     VALUE/NAME     DESCRIPTION
#---------     -----------    ---------------------------
 STRT.S             23:13:46 26-Apr-21: START TIME 23:13:46 26-Apr-21
 STOP.S             23:20:13 26-Apr-21: STOP TIME  23:20:13 26-Apr-21
 STEP.S                   0.00: STEP TIME
 NULL.                 -999.25: NULL VALUE
 DFWT.                        :  DIST FWL TEXT
 DFST.                        :  DIST FSL TEXT
 DMF .             Drill Floor:  DRILL MEAS FROM
 STIM.      02.00.00 12-Apr-21:  START TIME
 DATE.      02.00.00 02-May-21:  END TIME
 SPUD.               09-Apr-21:  SPUD DATE
 NREF.                    Grid:  NORTH REFERENCE
 HPTY.       Minimum Curvature:  HOLE POS TYPE
 DMOD.             Drill Model:  DRILL MOD DESC
 SVYD.                  Survey:  SURVEY DESC
 ILTD.               Lithology:  INTERP LTH DESC
 FTOP.          Formation Tops:  FORM TOPS DESC
 PDAT.          Mean Sea Level:  PERMANENT DATUM
 FLD .                     ACG:  FIELD NAME
 SON .        AZ-XX-0907021034:  JOB NUMBER
 CTRY.              Azerbaijan:  COUNTRY NAME
 WELL.                    E01x:  WELL NAME
 COMP.     BP Exploration (Caspian Sea) LTD.:  COMPANY
 UWI .            /AZE00001403:  UNIQUE WELL IDENTIFIER
 API .            /AZE00001403:  API NUMBER
 WTYP.                Deviated:  WELL TYPE
 MDS .        Operator Entered:  MAG DATA SOURCE
 BASE.              Azerbaijan:  LOGGING EQUIPMENT BASE LOCATION
 REGN.                   EESSA:  REGION
 PROV.                    Baku:  PROVINCE
 STAT.                    Baku:  STATE NAME
 SRVC.          Turan Drilling:  CONTRACTOR
 MWDS.                    Baku:  MWD SHOP
 JOBN.        AZ-XX-0907021034:  JOB TICKET NUMB
 RIG .                     DWG:  RIG NAME
 DOE .                     N/A:  DOE NUMBER
 DCON.         Sperry Drilling:  DIRECTNL CONTR
 UNIT.                     N/A:  LOGGING EQUIPMENT ID
 CNTY.                        :  COUNTY
 LOC .                        :  LOCATION
 LMF .             Drill Floor:  LOG MEASURED FROM
 TVDS.m                  43.16:  TVDSS CORRECTN
 LATI.deg                40.17:  LATITUDE
 LONG.deg                51.17:  LONGITUDE
 WHNS.m                  -5.90:  WELL HEAD N/S
 WHEW.m                  -6.61:  WELL HEAD E/W
 UTMX.m              514337.95:  UTM X
 UTMY.m             4448627.46:  UTM Y
 DFWL.m                   0.00:  DISTANCE FWL
 DFSL.m                   0.00:  DISTANCE FSL
 SDEP.m                2606.87:  START DEPTH
 TDD .m                3618.01:  TOTAL DEPTH (DRILLER)
 VSDR.deg               177.42:  VERT SEC DIRECT
 GVFD.g                   1.00:  GRAVITY FIELD
 MFLD.nT              50399.00:  MAGNETIC FIELD
 MDIP.deg                59.67:  MAGNETIC DIP
 MDEC.deg                 6.56:  MAGNETIC DECL
 GRDC.deg                 0.11:  GRID CORRECTION
 AZTC.deg                 6.45:  AZM TOTAL CORR
 EPD .m                   0.00:  ELEVATION
 EGL .m                   0.00:  GROUND ELEVATION
 WDMS.m                 176.20:  WD ELEV
 APD .m                  43.16:  DEPTH ABOVE PD
 DEP .m                2606.87:  DEPTH
 AGAP.m                  43.16:  AIR GAP
 VSEW.m                  -6.61:  VERT SEC E/W
 VSNS.m                  -5.90:  VERT SEC N/S
 EKB .m                  43.16:  KB ELEVATION
 EDF .m                  43.16:  DF ELEVATION
 TDL .m                 438.00:  TOTAL DEPTH (LOGGER)
 VSC .                       0:  VS TO CLOSURE
 MAGU.                 1855490:  MAGUTM CHECKSUM
~Parameter Information Block
#MNEM.UNIT       Value        Description
#---------     -----------    ---------------------------
 AV  .mps                 2.20:  Ann Velocity 
 AVMX.mps                 2.50:  Max Ann Veloc 
 AZIF.deg               150.21:  Azm, Final 
 BHAT.        Rotary Steerable:  BHA Type 
 BROT.°/30m               0.08:  Build Rotating 
 BS  .in                  6.50:  Bit Size 
 BSZ .in                  6.50:  Bit Size 
 BTPL.psig              108.00:  Bit Press Loss 
 CABU.                     Yes:  Customer Abuse 
 CGEO.           Emin Aliyarli:  Customer Geo 
 COMM.                     <MW:  Run Comments 1 
 TCS .hr                 74.20:  Time Ciculation Ended 
 CV  .mps                 3.63:  Crit Velocity 
 CVMX.mps                 3.66:  Max Crit Veloc 
 DD1 .         Intigam Rahimov:  Direct Drillr 1 
 DD2 .          Teymur Aghayev:  Direct Drillr 2 
 DDSV.               Geo-Pilot:  DD Service 
 DEFF.%                  97.00:  % Det Eff 
 DLRX.°/30m               1.63:  Dogleg Rot Max 
 DLSO.°/30m               0.00:  Dogleg Oriented 
 DLSX.°/30m               0.00:  Dogleg Str Max 
 DRET.      20.20.00 28-Apr-21:  Drill End Time 
 DRST.      04.45.00 26-Apr-21:  Drill Start Tim 
 DTIM.hr                 34.30:  Time Drilling 
 EDEP.m                3618.01:  End Depth 
 ENG1.           Amrah Tahirov:  Engineer 1 
 ENG2.         Bahruz Mehdiyev:  Engineer 2 
 ENG3.         Farhad Orujzade:  Engineer 3 
 ETIM.      19.00.00 29-Apr-21:  End Time 
 FLOI.gpm               370.00:  Flow In 
 FLON.gpm               300.00:  Flow In Min 
 FLOS.cptm                0.00:  Fluid Loss 
 FLOX.gpm               410.00:  Flow In Max 
 HFLO.                      No:  High Flow 
 HPRE.                      No:  High Pressure 
 HTEM.                      No:  High Temp 
 HYDO.m                   1.80:  Hydro Offset 
 IFIN.deg                67.19:  Inc, Final 
 IMAX.deg                68.42:  Inc Max 
 IMIN.deg                66.33:  Inc Min 
 IMND.m                3532.79:  Inc Min Depth 
 IMXD.m                3192.15:  Inc Max Depth 
 JARR.                      No:  Jarring 
 LETM.      20.20.00 28-Apr-21:  Log End Time 
 LOST.hr                     0:  Lost Rig Time 
 LSTM.      04.45.00 26-Apr-21:  Log Start Time 
 MDCL.ppm             36500.00:  Mud Chlorides 
 MDES.     Inversion Oil/Synthetic:  Mud Desc 
 DFD .sg                  1.42:  Mud Density 
 MDMN.sg                  1.42:  Dens Mud Min 
 MDMX.sg                  1.42:  Dens Mud Max 
 MOIL.                    55.7:  Run Mud Oil % 
 MOWR.                   71:29:  Run Mud OWR 
 MSND.                     0.1:  Run Mud Sand % 
 MSOL.                    19.9:  Run Mud Solids% 
 DFV .spqt               83.00:  Mud Viscosity 
 MWOD.in                  5.15:  MWD Tool OD 
 MWSI.                      No:  Serv Intrp, MWD 
 OTIM.hr                120.59:  Time Operating 
 PCON.           Look Like New:  Pad Condition 
 PMAX.psia            11292.93:  Press Op, Max 
 PV  .cP                 27.00:  Mud PV 
 RUN .                     400:  Run Number 
 ROPA.m/hr               14.00:  ROP Avg 
 ROPN.m/hr                9.00:  ROP Min 
 ROPX.m/hr               18.00:  ROP Max 
 RPMA.rpm               130.00:  RPM Surface Avg 
 RPMN.rpm               100.00:  RPM Surface Min 
 RPMX.rpm               140.00:  RPM Surface Max 
 RRUN.                    0400:  Rig Run Number 
 RTIM.hr                 38.60:  Time Reaming 
 SAZI.deg               149.55:  Azm, Start 
 SDEP.m                3180.01:  Start Depth 
 SIDD.                      No:  Serv Intrp, DD 
 SINC.deg                68.42:  Inc, Start 
 SPPA.psig             4400.00:  SPP Avg 
 SPPN.psig             3580.00:  SPP Min 
 SPPX.psig             4850.00:  SPP Max 
 STIM.      12.30.00 24-Apr-21:  Start Time 
 SVCS.                 DD, MWD:  Services 
 SVER.                    9.20:  Sperry Version 
 TDAT.m                 438.00:  Tot Depth Attmp 
 TDDF.                      No:  Trip for DD 
 TDLG.m                 438.00:  Tot Depth Loggd 
 TFF .                      No:  Trip for Fail 
 TQAA.f-kp               11.00:  Torque Abs Avg 
 TQAN.f-kp                9.00:  Torque Abs Min 
 TQAX.f-kp               14.00:  Torque Abs Max 
 TRRT.°/30m               0.04:  Turn Rotating 
 MRT .                    HCIM:  Maximum Recorded Temperature 
 TTMX.degC               84.31:  Max Tool Temp 
 VS01.                90521954:  Virtual Str1 SN 
 VS02.                90519327:  Virtual Str2 SN 
 VS03.                90522273:  Virtual Str3 SN 
 VS04.                11108038:  Virtual Str4 SN 
 VS05.                12258760:  Virtual Str5 SN 
 WBMN.klb                 1.00:  WOB Min 
 WITN.           Adil Mammadov:  Customer Rep 
 WITN.         Alex Yadullayev:  Customer Rep 2 
 WOBA.klb                 6.00:  WOB Avg 
 WOBX.klb                 9.00:  WOB Max 
 YP  .lhf2               31.00:  Yield Point 
~Curve Information Block
#MNEM.UNIT                 API CODE     Curve Description
#---------               -----------    ---------------------------
 TIME.HHMMSS            00 000 000 000:  GT Time & Date
 GTDEPTH.m              00 000 000 000:  GT Depth
 GTPQH.psia             00 000 000 000:  GT HR Quartz Pressure
 GTTQ.degC              00 000 000 000:  GT Quartz Temperature
 GTTN.NONE              00 000 000 000:  GT Test Number
 GTET.sec               00 000 000 000:  GT Elapsed Test Time
 GTTVD.m                00 000 000 000:  GT True Vertical Depth
#Other Information
#
#WARRANTY: Halliburton will use its best efforts to furnish customers with 
#accurate information and interpretations that are part of, and incident to, the services 
#provided.  However, Halliburton cannot and does not warrant the accuracy 
#or correctness of such information and interpretations.  Under no circumstances should any 
#such information or interpretation be relied upon as the sole basis for any drilling, 
#completion, production, or financial decision or any procedure involving any risk to the 
#safety of any drilling venture, drilling rig or its crew or any other third party.  The 
#Customer has full responsibility for all drilling, completion and production operation.  
#Halliburton makes no representations or warranties, either expressed or 
#implied, including, but not limited to, the implied warranties of merchantability or fitness 
#for a particular purpose, with respect to the services rendered.  In no event will 
#Halliburton be liable for failure to obtain any particular results or for 
#any damages, including, but not limited to, indirect, special or consequential damages, 
#resulting from the use of any information or interpretation provided by Halliburton.
#
~A           TIME           GTDEPTH  GTPQH  GTTQ  GTTN  GTET   GTTVD  
# ...
   23:15:18.553.26-Apr-2021 3222.01 4279.77 69.58 1.00  92.03 2649.76
   23:15:18.753.26-Apr-2021 3222.01 4279.77 69.58 1.00  92.23 2649.76
   23:15:18.953.26-Apr-2021 3222.01 4279.73 69.58 1.00  92.43 2649.76
   23:15:19.153.26-Apr-2021 3222.01 4279.51 69.58 1.00  92.63 2649.76
   23:15:19.353.26-Apr-2021 3222.01 4279.55 69.58 1.00  92.83 2649.76
   23:15:19.553.26-Apr-2021 3222.01 4279.46 69.58 1.00  93.03 2649.76
   23:15:19.753.26-Apr-2021 3222.01 4279.46 69.58 1.00  93.23 2649.76
   23:15:19.953.26-Apr-2021 3222.01 4279.19 69.58 1.00  93.43 2649.76
   23:15:20.153.26-Apr-2021 3222.01 4279.69 69.58 1.00  93.63 2649.76
   23:15:20.353.26-Apr-2021 3222.01 4279.57 69.58 1.00  93.83 2649.76
   23:15:20.553.26-Apr-2021 3222.01 4279.71 69.58 1.00  94.03 2649.76
   23:15:20.753.26-Apr-2021 3222.01 4279.71 69.58 1.00  94.23 2649.76
   23:15:20.953.26-Apr-2021 3222.01 4279.70 69.58 1.00  94.43 2649.76
   23:15:21.153.26-Apr-2021 3222.01 4279.73 69.58 1.00  94.63 2649.76
   23:15:21.353.26-Apr-2021 3222.01 4279.90 69.58 1.00  94.83 2649.76
   23:15:21.554.26-Apr-2021 3222.01 4279.67 69.58 1.00  95.03 2649.76
   23:15:21.754.26-Apr-2021 3222.01 4279.67 69.58 1.00  95.23 2649.76
   23:15:21.954.26-Apr-2021 3222.01 4279.55 69.58 1.00  95.43 2649.76
   23:15:22.154.26-Apr-2021 3222.01 4279.67 69.58 1.00  95.63 2649.76
   23:15:22.354.26-Apr-2021 3222.01 4279.66 69.58 1.00  95.83 2649.76
   23:15:22.554.26-Apr-2021 3222.01 4279.00 69.58 1.00  96.03 2649.76
   23:15:22.754.26-Apr-2021 3222.01 4279.00 69.58 1.00  96.23 2649.76
   23:15:22.954.26-Apr-2021 3222.01 4279.66 69.58 1.00  96.43 2649.76
   23:15:23.154.26-Apr-2021 3222.01 4279.75 69.58 1.00  96.63 2649.76
   23:15:23.354.26-Apr-2021 3222.01 4279.66 69.58 1.00  96.83 2649.76
   23:15:23.554.26-Apr-2021 3222.01 4279.71 69.58 1.00  97.03 2649.76
   23:15:23.754.26-Apr-2021 3222.01 4279.71 69.58 1.00  97.23 2649.76
   23:15:23.954.26-Apr-2021 3222.01 4279.59 69.58 1.00  97.43 2649.76
   23:15:24.154.26-Apr-2021 3222.01 4279.86 69.58 1.00  97.63 2649.76
   23:15:24.354.26-Apr-2021 3222.01 4279.82 69.58 1.00  97.83 2649.76
   23:15:24.554.26-Apr-2021 3222.01 4279.61 69.58 1.00  98.03 2649.76
   23:15:24.754.26-Apr-2021 3222.01 4279.61 69.58 1.00  98.23 2649.76
   23:15:24.955.26-Apr-2021 3222.01 4279.36 69.58 1.00  98.43 2649.76
   23:15:25.155.26-Apr-2021 3222.01 4279.85 69.57 1.00  98.63 2649.76
   23:15:25.355.26-Apr-2021 3222.01 4279.70 69.57 1.00  98.83 2649.76
   23:15:25.555.26-Apr-2021 3222.01 4279.01 69.57 1.00  99.03 2649.76
   23:15:25.755.26-Apr-2021 3222.01 4279.01 69.57 1.00  99.23 2649.76
   23:15:25.955.26-Apr-2021 3222.01 4279.72 69.57 1.00  99.43 2649.76
   23:15:26.155.26-Apr-2021 3222.01 4279.81 69.57 1.00  99.63 2649.76
   23:15:26.355.26-Apr-2021 3222.01 4279.91 69.57 1.00  99.83 2649.76
   23:15:26.555.26-Apr-2021 3222.01 4279.73 69.57 1.00 100.03 2649.76
   23:15:26.755.26-Apr-2021 3222.01 4279.73 69.57 1.00 100.23 2649.76
   23:15:26.955.26-Apr-2021 3222.01 4279.72 69.57 1.00 100.43 2649.76
   23:15:27.155.26-Apr-2021 3222.01 4279.81 69.57 1.00 100.63 2649.76
   23:15:27.355.26-Apr-2021 3222.01 4279.66 69.57 1.00 100.83 2649.76
   23:15:27.555.26-Apr-2021 3222.01 4279.55 69.57 1.00 101.03 2649.76
   23:15:27.755.26-Apr-2021 3222.01 4279.55 69.57 1.00 101.23 2649.76
   23:15:27.955.26-Apr-2021 3222.01 4279.53 69.57 1.00 101.43 2649.76
   23:15:28.155.26-Apr-2021 3222.01 4278.99 69.57 1.00 101.63 2649.76
   23:15:28.356.26-Apr-2021 3222.01 4279.33 69.57 1.00 101.83 2649.76
   23:15:28.556.26-Apr-2021 3222.01 4279.71 69.57 1.00 102.03 2649.76
   23:15:28.756.26-Apr-2021 3222.01 4279.71 69.57 1.00 102.23 2649.76
   23:15:28.956.26-Apr-2021 3222.01 4279.70 69.57 1.00 102.43 2649.76
   23:15:29.156.26-Apr-2021 3222.01 4279.60 69.57 1.00 102.63 2649.76
   23:15:29.356.26-Apr-2021 3222.01 4279.71 69.57 1.00 102.83 2649.76
   23:15:29.556.26-Apr-2021 3222.01 4279.75 69.57 1.00 103.03 2649.76
   23:15:29.756.26-Apr-2021 3222.01 4279.75 69.57 1.00 103.23 2649.76
   23:15:29.956.26-Apr-2021 3222.01 4279.63 69.57 1.00 103.43 2649.76
   23:15:30.156.26-Apr-2021 3222.01 4279.68 69.57 1.00 103.63 2649.76
   23:15:30.356.26-Apr-2021 3222.01 4279.53 69.57 1.00 103.83 2649.76
   23:15:30.556.26-Apr-2021 3222.01 4279.74 69.57 1.00 104.03 2649.76
   23:15:30.756.26-Apr-2021 3222.01 4279.74 69.57 1.00 104.23 2649.76
   23:15:30.956.26-Apr-2021 3222.01 4278.90 69.57 1.00 104.43 2649.76
   23:15:31.156.26-Apr-2021 3222.01 4279.44 69.57 1.00 104.63 2649.76
   23:15:31.356.26-Apr-2021 3222.01 4279.78 69.57 1.00 104.83 2649.76
   23:15:31.556.26-Apr-2021 3222.01 4279.74 69.57 1.00 105.03 2649.76
   23:15:31.757.26-Apr-2021 3222.01 4279.74 69.57 1.00 105.23 2649.76
   23:15:31.957.26-Apr-2021 3222.01 4279.67 69.56 1.00 105.43 2649.76
   23:15:32.157.26-Apr-2021 3222.01 4279.06 69.56 1.00 105.63 2649.76
   23:15:32.357.26-Apr-2021 3222.01 4279.69 69.56 1.00 105.83 2649.76
   23:15:32.557.26-Apr-2021 3222.01 4279.94 69.56 1.00 106.03 2649.76
   23:15:32.757.26-Apr-2021 3222.01 4279.94 69.56 1.00 106.23 2649.76
   23:15:32.957.26-Apr-2021 3222.01 4279.63 69.56 1.00 106.43 2649.76
   23:15:33.157.26-Apr-2021 3222.01 4278.87 69.56 1.00 106.63 2649.76
   23:15:33.357.26-Apr-2021 3222.01 4279.48 69.56 1.00 106.83 2649.76
   23:15:33.557.26-Apr-2021 3222.01 4279.88 69.56 1.00 107.03 2649.76
   23:15:33.757.26-Apr-2021 3222.01 4279.88 69.56 1.00 107.23 2649.76
   23:15:33.957.26-Apr-2021 3222.01 4278.94 69.56 1.00 107.43 2649.76
   23:15:34.157.26-Apr-2021 3222.01 4279.55 69.56 1.00 107.63 2649.76
   23:15:34.357.26-Apr-2021 3222.01 4279.75 69.56 1.00 107.83 2649.76
   23:15:34.557.26-Apr-2021 3222.01 4279.83 69.56 1.00 108.03 2649.76
   23:15:34.757.26-Apr-2021 3222.01 4279.83 69.56 1.00 108.23 2649.76
   23:15:34.957.26-Apr-2021 3222.01 4279.69 69.56 1.00 108.43 2649.76
   23:15:35.158.26-Apr-2021 3222.01 4279.70 69.56 1.00 108.63 2649.76
   23:15:35.358.26-Apr-2021 3222.01 4279.72 69.56 1.00 108.83 2649.76
   23:15:35.558.26-Apr-2021 3222.01 4279.84 69.56 1.00 109.03 2649.76
   23:15:35.758.26-Apr-2021 3222.01 4279.84 69.56 1.00 109.23 2649.76
   23:15:35.958.26-Apr-2021 3222.01 4279.63 69.56 1.00 109.43 2649.76
   23:15:36.158.26-Apr-2021 3222.01 4279.47 69.56 1.00 109.63 2649.76
   23:15:36.358.26-Apr-2021 3222.01 4279.57 69.56 1.00 109.83 2649.76
   23:15:36.558.26-Apr-2021 3222.01 4278.83 69.56 1.00 110.03 2649.76
   23:15:36.758.26-Apr-2021 3222.01 4278.83 69.56 1.00 110.23 2649.76
   23:15:36.958.26-Apr-2021 3222.01 4279.72 69.56 1.00 110.43 2649.76
   23:15:37.158.26-Apr-2021 3222.01 4279.66 69.56 1.00 110.63 2649.76
   23:15:37.358.26-Apr-2021 3222.01 4279.67 69.56 1.00 110.83 2649.76
   23:15:37.558.26-Apr-2021 3222.01 4279.64 69.56 1.00 111.03 2649.76
   23:15:37.758.26-Apr-2021 3222.01 4279.64 69.56 1.00 111.23 2649.76
   23:15:37.958.26-Apr-2021 3222.01 4279.83 69.56 1.00 111.43 2649.76
   23:15:38.158.26-Apr-2021 3222.01 4279.86 69.56 1.00 111.63 2649.76
   23:15:38.358.26-Apr-2021 3222.01 4279.62 69.56 1.00 111.83 2649.76
   23:15:38.559.26-Apr-2021 3222.01 4279.66 69.56 1.00 112.03 2649.76
   23:15:38.759.26-Apr-2021 3222.01 4279.66 69.56 1.00 112.23 2649.76
   23:15:38.959.26-Apr-2021 3222.01 4279.75 69.55 1.00 112.43 2649.76
   23:15:39.159.26-Apr-2021 3222.01 4279.58 69.55 1.00 112.63 2649.76
   23:15:39.359.26-Apr-2021 3222.01 4278.87 69.55 1.00 112.83 2649.76
   23:15:39.559.26-Apr-2021 3222.01 4279.49 69.55 1.00 113.03 2649.76
   23:15:39.759.26-Apr-2021 3222.01 4279.49 69.55 1.00 113.23 2649.76
   23:15:39.959.26-Apr-2021 3222.01 4279.71 69.55 1.00 113.43 2649.76
   23:15:40.159.26-Apr-2021 3222.01 4279.78 69.55 1.00 113.63 2649.76
   23:15:40.359.26-Apr-2021 3222.01 4279.62 69.55 1.00 113.83 2649.76
   23:15:40.559.26-Apr-2021 3222.01 4278.97 69.55 1.00 114.03 2649.76
   23:15:40.759.26-Apr-2021 3222.01 4278.97 69.55 1.00 114.23 2649.76
   23:15:40.959.26-Apr-2021 3222.01 4279.99 69.55 1.00 114.43 2649.76
   23:15:41.159.26-Apr-2021 3222.01 4279.77 69.55 1.00 114.63 2649.76
   23:15:41.359.26-Apr-2021 3222.01 4279.69 69.55 1.00 114.83 2649.76
