~Version Information
 VERS.                  2.0:   CWLS log ASCII Standard -VERSION 2.0
 WRAP.                   NO:   One line per depth step
~Well Information Block
#MNEM.UNIT     VALUE/NAME     DESCRIPTION
#---------     -----------    ---------------------------
 STRT.S             13:09:03 28-Apr-21: START TIME 13:09:03 28-Apr-21
 STOP.S             13:15:31 28-Apr-21: STOP TIME  13:15:31 28-Apr-21
 STEP.S                   0.00: STEP TIME
 NULL.                 -999.25: NULL VALUE
 DFWT.                        :  DIST FWL TEXT
 DFST.                        :  DIST FSL TEXT
 DMF .             Drill Floor:  DRILL MEAS FROM
 STIM.      02.00.00 12-Apr-21:  START TIME
 DATE.      02.00.00 02-May-21:  END TIME
 SPUD.               09-Apr-21:  SPUD DATE
 NREF.                    Grid:  NORTH REFERENCE
 HPTY.       Minimum Curvature:  HOLE POS TYPE
 DMOD.             Drill Model:  DRILL MOD DESC
 SVYD.                  Survey:  SURVEY DESC
 ILTD.               Lithology:  INTERP LTH DESC
 FTOP.          Formation Tops:  FORM TOPS DESC
 PDAT.          Mean Sea Level:  PERMANENT DATUM
 FLD .                     ACG:  FIELD NAME
 SON .        AZ-XX-0907021034:  JOB NUMBER
 CTRY.              Azerbaijan:  COUNTRY NAME
 WELL.                    E01x:  WELL NAME
 COMP.     BP Exploration (Caspian Sea) LTD.:  COMPANY
 UWI .            /AZE00001403:  UNIQUE WELL IDENTIFIER
 API .            /AZE00001403:  API NUMBER
 WTYP.                Deviated:  WELL TYPE
 MDS .        Operator Entered:  MAG DATA SOURCE
 BASE.              Azerbaijan:  LOGGING EQUIPMENT BASE LOCATION
 REGN.                   EESSA:  REGION
 PROV.                    Baku:  PROVINCE
 STAT.                    Baku:  STATE NAME
 SRVC.          Turan Drilling:  CONTRACTOR
 MWDS.                    Baku:  MWD SHOP
 JOBN.        AZ-XX-0907021034:  JOB TICKET NUMB
 RIG .                     DWG:  RIG NAME
 DOE .                     N/A:  DOE NUMBER
 DCON.         Sperry Drilling:  DIRECTNL CONTR
 UNIT.                     N/A:  LOGGING EQUIPMENT ID
 CNTY.                        :  COUNTY
 LOC .                        :  LOCATION
 LMF .             Drill Floor:  LOG MEASURED FROM
 TVDS.m                  43.16:  TVDSS CORRECTN
 LATI.deg                40.17:  LATITUDE
 LONG.deg                51.17:  LONGITUDE
 WHNS.m                  -5.90:  WELL HEAD N/S
 WHEW.m                  -6.61:  WELL HEAD E/W
 UTMX.m              514337.95:  UTM X
 UTMY.m             4448627.46:  UTM Y
 DFWL.m                   0.00:  DISTANCE FWL
 DFSL.m                   0.00:  DISTANCE FSL
 SDEP.m                2606.87:  START DEPTH
 TDD .m                3618.01:  TOTAL DEPTH (DRILLER)
 VSDR.deg               177.42:  VERT SEC DIRECT
 GVFD.g                   1.00:  GRAVITY FIELD
 MFLD.nT              50399.00:  MAGNETIC FIELD
 MDIP.deg                59.67:  MAGNETIC DIP
 MDEC.deg                 6.56:  MAGNETIC DECL
 GRDC.deg                 0.11:  GRID CORRECTION
 AZTC.deg                 6.45:  AZM TOTAL CORR
 EPD .m                   0.00:  ELEVATION
 EGL .m                   0.00:  GROUND ELEVATION
 WDMS.m                 176.20:  WD ELEV
 APD .m                  43.16:  DEPTH ABOVE PD
 DEP .m                2606.87:  DEPTH
 AGAP.m                  43.16:  AIR GAP
 VSEW.m                  -6.61:  VERT SEC E/W
 VSNS.m                  -5.90:  VERT SEC N/S
 EKB .m                  43.16:  KB ELEVATION
 EDF .m                  43.16:  DF ELEVATION
 TDL .m                 438.00:  TOTAL DEPTH (LOGGER)
 VSC .                       0:  VS TO CLOSURE
 MAGU.                 1855490:  MAGUTM CHECKSUM
~Parameter Information Block
#MNEM.UNIT       Value        Description
#---------     -----------    ---------------------------
 AV  .mps                 2.20:  Ann Velocity 
 AVMX.mps                 2.50:  Max Ann Veloc 
 AZIF.deg               150.21:  Azm, Final 
 BHAT.        Rotary Steerable:  BHA Type 
 BROT.∞/30m               0.08:  Build Rotating 
 BS  .in                  6.50:  Bit Size 
 BSZ .in                  6.50:  Bit Size 
 BTPL.psig              108.00:  Bit Press Loss 
 CABU.                     Yes:  Customer Abuse 
 CGEO.           Emin Aliyarli:  Customer Geo 
 COMM.                     ‹Ïq:  Run Comments 1 
 TCS .hr                 74.20:  Time Ciculation Ended 
 CV  .mps                 3.63:  Crit Velocity 
 CVMX.mps                 3.66:  Max Crit Veloc 
 DD1 .         Intigam Rahimov:  Direct Drillr 1 
 DD2 .          Teymur Aghayev:  Direct Drillr 2 
 DDSV.               Geo-Pilot:  DD Service 
 DEFF.%                  97.00:  % Det Eff 
 DLRX.∞/30m               1.63:  Dogleg Rot Max 
 DLSO.∞/30m               0.00:  Dogleg Oriented 
 DLSX.∞/30m               0.00:  Dogleg Str Max 
 DRET.      20.20.00 28-Apr-21:  Drill End Time 
 DRST.      04.45.00 26-Apr-21:  Drill Start Tim 
 DTIM.hr                 34.30:  Time Drilling 
 EDEP.m                3618.01:  End Depth 
 ENG1.           Amrah Tahirov:  Engineer 1 
 ENG2.         Bahruz Mehdiyev:  Engineer 2 
 ENG3.         Farhad Orujzade:  Engineer 3 
 ETIM.      19.00.00 29-Apr-21:  End Time 
 FLOI.gpm               370.00:  Flow In 
 FLON.gpm               300.00:  Flow In Min 
 FLOS.cptm                0.00:  Fluid Loss 
 FLOX.gpm               410.00:  Flow In Max 
 HFLO.                      No:  High Flow 
 HPRE.                      No:  High Pressure 
 HTEM.                      No:  High Temp 
 HYDO.m                   1.80:  Hydro Offset 
 IFIN.deg                67.19:  Inc, Final 
 IMAX.deg                68.42:  Inc Max 
 IMIN.deg                66.33:  Inc Min 
 IMND.m                3532.79:  Inc Min Depth 
 IMXD.m                3192.15:  Inc Max Depth 
 JARR.                      No:  Jarring 
 LETM.      20.20.00 28-Apr-21:  Log End Time 
 LOST.hr                     0:  Lost Rig Time 
 LSTM.      04.45.00 26-Apr-21:  Log Start Time 
 MDCL.ppm             36500.00:  Mud Chlorides 
 MDES.     Inversion Oil/Synthetic:  Mud Desc 
 DFD .sg                  1.42:  Mud Density 
 MDMN.sg                  1.42:  Dens Mud Min 
 MDMX.sg                  1.42:  Dens Mud Max 
 MOIL.                    55.7:  Run Mud Oil % 
 MOWR.                   71:29:  Run Mud OWR 
 MSND.                     0.1:  Run Mud Sand % 
 MSOL.                    19.9:  Run Mud Solids% 
 DFV .spqt               83.00:  Mud Viscosity 
 MWOD.in                  5.15:  MWD Tool OD 
 MWSI.                      No:  Serv Intrp, MWD 
 OTIM.hr                120.59:  Time Operating 
 PCON.           Look Like New:  Pad Condition 
 PMAX.psia            11292.93:  Press Op, Max 
 PV  .cP                 27.00:  Mud PV 
 RUN .                     400:  Run Number 
 ROPA.m/hr               14.00:  ROP Avg 
 ROPN.m/hr                9.00:  ROP Min 
 ROPX.m/hr               18.00:  ROP Max 
 RPMA.rpm               130.00:  RPM Surface Avg 
 RPMN.rpm               100.00:  RPM Surface Min 
 RPMX.rpm               140.00:  RPM Surface Max 
 RRUN.                    0400:  Rig Run Number 
 RTIM.hr                 38.60:  Time Reaming 
 SAZI.deg               149.55:  Azm, Start 
 SDEP.m                3180.01:  Start Depth 
 SIDD.                      No:  Serv Intrp, DD 
 SINC.deg                68.42:  Inc, Start 
 SPPA.psig             4400.00:  SPP Avg 
 SPPN.psig             3580.00:  SPP Min 
 SPPX.psig             4850.00:  SPP Max 
 STIM.      12.30.00 24-Apr-21:  Start Time 
 SVCS.                 DD, MWD:  Services 
 SVER.                    9.20:  Sperry Version 
 TDAT.m                 438.00:  Tot Depth Attmp 
 TDDF.                      No:  Trip for DD 
 TDLG.m                 438.00:  Tot Depth Loggd 
 TFF .                      No:  Trip for Fail 
 TQAA.f-kp               11.00:  Torque Abs Avg 
 TQAN.f-kp                9.00:  Torque Abs Min 
 TQAX.f-kp               14.00:  Torque Abs Max 
 TRRT.∞/30m               0.04:  Turn Rotating 
 MRT .                    HCIM:  Maximum Recorded Temperature 
 TTMX.degC               84.31:  Max Tool Temp 
 VS01.                90521954:  Virtual Str1 SN 
 VS02.                90519327:  Virtual Str2 SN 
 VS03.                90522273:  Virtual Str3 SN 
 VS04.                11108038:  Virtual Str4 SN 
 VS05.                12258760:  Virtual Str5 SN 
 WBMN.klb                 1.00:  WOB Min 
 WITN.           Adil Mammadov:  Customer Rep 
 WITN.         Alex Yadullayev:  Customer Rep 2 
 WOBA.klb                 6.00:  WOB Avg 
 WOBX.klb                 9.00:  WOB Max 
 YP  .lhf2               31.00:  Yield Point 
~Curve Information Block
#MNEM.UNIT                 API CODE     Curve Description
#---------               -----------    ---------------------------
 TIME.HHMMSS            00 000 000 000:  GT Time & Date
 GTDEPTH.m              00 000 000 000:  GT Depth
 GTPQH.psia             00 000 000 000:  GT HR Quartz Pressure
 GTTQ.degC              00 000 000 000:  GT Quartz Temperature
 GTTN.NONE              00 000 000 000:  GT Test Number
 GTET.sec               00 000 000 000:  GT Elapsed Test Time
 GTTVD.m                00 000 000 000:  GT True Vertical Depth
#Other Information
#
#WARRANTY: Halliburton will use its best efforts to furnish customers with 
#accurate information and interpretations that are part of, and incident to, the services 
#provided.  However, Halliburton cannot and does not warrant the accuracy 
#or correctness of such information and interpretations.  Under no circumstances should any 
#such information or interpretation be relied upon as the sole basis for any drilling, 
#completion, production, or financial decision or any procedure involving any risk to the 
#safety of any drilling venture, drilling rig or its crew or any other third party.  The 
#Customer has full responsibility for all drilling, completion and production operation.  
#Halliburton makes no representations or warranties, either expressed or 
#implied, including, but not limited to, the implied warranties of merchantability or fitness 
#for a particular purpose, with respect to the services rendered.  In no event will 
#Halliburton be liable for failure to obtain any particular results or for 
#any damages, including, but not limited to, indirect, special or consequential damages, 
#resulting from the use of any information or interpretation provided by Halliburton.
#
~A           TIME           GTDEPTH  GTPQH  GTTQ  GTTN  GTET   GTTVD  
# ...
   13:13:39.472.28-Apr-2021 3524.51 4369.26 74.84 9.00 276.04 2768.78
   13:13:39.672.28-Apr-2021 3524.51 4369.26 74.84 9.00 276.24 2768.78
   13:13:39.872.28-Apr-2021 3524.51 4369.22 74.84 9.00 276.44 2768.78
   13:13:40.072.28-Apr-2021 3524.51 4368.82 74.84 9.00 276.64 2768.78
   13:13:40.272.28-Apr-2021 3524.51 4369.41 74.84 9.00 276.84 2768.78
   13:13:40.472.28-Apr-2021 3524.51 4369.29 74.84 9.00 277.04 2768.78
   13:13:40.672.28-Apr-2021 3524.51 4369.29 74.84 9.00 277.24 2768.78
   13:13:40.872.28-Apr-2021 3524.51 4369.17 74.84 9.00 277.45 2768.78
   13:13:41.072.28-Apr-2021 3524.51 4369.01 74.84 9.00 277.65 2768.78
   13:13:41.272.28-Apr-2021 3524.51 4369.31 74.84 9.00 277.85 2768.78
   13:13:41.472.28-Apr-2021 3524.51 4369.25 74.84 9.00 278.05 2768.78
   13:13:41.672.28-Apr-2021 3524.51 4369.25 74.84 9.00 278.25 2768.78
   13:13:41.872.28-Apr-2021 3524.51 4369.17 74.84 9.00 278.45 2768.78
   13:13:42.073.28-Apr-2021 3524.51 4369.19 74.84 9.00 278.65 2768.78
   13:13:42.273.28-Apr-2021 3524.51 4369.25 74.84 9.00 278.85 2768.78
   13:13:42.473.28-Apr-2021 3524.51 4369.20 74.84 9.00 279.05 2768.78
   13:13:42.673.28-Apr-2021 3524.51 4369.20 74.84 9.00 279.25 2768.78
   13:13:42.873.28-Apr-2021 3524.51 4369.15 74.83 9.00 279.45 2768.78
   13:13:43.073.28-Apr-2021 3524.51 4369.19 74.83 9.00 279.65 2768.78
   13:13:43.273.28-Apr-2021 3524.51 4369.20 74.83 9.00 279.85 2768.78
   13:13:43.473.28-Apr-2021 3524.51 4369.16 74.83 9.00 280.05 2768.78
   13:13:43.673.28-Apr-2021 3524.51 4369.16 74.83 9.00 280.25 2768.78
   13:13:43.873.28-Apr-2021 3524.51 4369.19 74.83 9.00 280.45 2768.78
   13:13:44.073.28-Apr-2021 3524.51 4369.24 74.83 9.00 280.65 2768.78
   13:13:44.273.28-Apr-2021 3524.51 4369.21 74.83 9.00 280.85 2768.78
   13:13:44.473.28-Apr-2021 3524.51 4369.18 74.83 9.00 281.05 2768.78
   13:13:44.673.28-Apr-2021 3524.51 4369.18 74.83 9.00 281.25 2768.78
   13:13:44.873.28-Apr-2021 3524.51 4369.20 74.83 9.00 281.45 2768.78
   13:13:45.073.28-Apr-2021 3524.51 4369.20 74.83 9.00 281.65 2768.78
   13:13:45.273.28-Apr-2021 3524.51 4369.15 74.83 9.00 281.85 2768.78
   13:13:45.473.28-Apr-2021 3524.51 4369.15 74.83 9.00 282.05 2768.78
   13:13:45.673.28-Apr-2021 3524.51 4369.15 74.83 9.00 282.25 2768.78
   13:13:45.873.28-Apr-2021 3524.51 4369.15 74.83 9.00 282.45 2768.78
   13:13:46.073.28-Apr-2021 3524.51 4369.15 74.83 9.00 282.65 2768.78
   13:13:46.273.28-Apr-2021 3524.51 4369.15 74.83 9.00 282.85 2768.78
   13:13:46.473.28-Apr-2021 3524.51 4369.01 74.83 9.00 283.05 2768.78
   13:13:46.673.28-Apr-2021 3524.51 4369.01 74.83 9.00 283.25 2768.78
   13:13:46.873.28-Apr-2021 3524.51 4369.23 74.83 9.00 283.45 2768.78
   13:13:47.073.28-Apr-2021 3524.51 4369.21 74.83 9.00 283.65 2768.78
   13:13:47.273.28-Apr-2021 3524.51 4368.88 74.82 9.00 283.85 2768.78
   13:13:47.473.28-Apr-2021 3524.51 4369.31 74.82 9.00 284.05 2768.78
   13:13:47.673.28-Apr-2021 3524.51 4369.31 74.82 9.00 284.25 2768.78
   13:13:47.873.28-Apr-2021 3524.51 4369.21 74.82 9.00 284.45 2768.78
   13:13:48.073.28-Apr-2021 3524.51 4369.03 74.82 9.00 284.65 2768.78
   13:13:48.274.28-Apr-2021 3524.51 4369.15 74.82 9.00 284.85 2768.78
   13:13:48.474.28-Apr-2021 3524.51 4369.25 74.82 9.00 285.05 2768.78
   13:13:48.674.28-Apr-2021 3524.51 4369.25 74.82 9.00 285.25 2768.78
   13:13:48.874.28-Apr-2021 3524.51 4369.21 74.82 9.00 285.45 2768.78
   13:13:49.074.28-Apr-2021 3524.51 4369.11 74.82 9.00 285.65 2768.78
   13:13:49.274.28-Apr-2021 3524.51 4368.97 74.82 9.00 285.85 2768.78
   13:13:49.474.28-Apr-2021 3524.51 4369.36 74.82 9.00 286.05 2768.78
   13:13:49.674.28-Apr-2021 3524.51 4369.36 74.82 9.00 286.25 2768.78
   13:13:49.874.28-Apr-2021 3524.51 4369.17 74.82 9.00 286.45 2768.78
   13:13:50.074.28-Apr-2021 3524.51 4369.13 74.82 9.00 286.65 2768.78
   13:13:50.274.28-Apr-2021 3524.51 4369.24 74.82 9.00 286.85 2768.78
   13:13:50.474.28-Apr-2021 3524.51 4369.19 74.82 9.00 287.05 2768.78
   13:13:50.674.28-Apr-2021 3524.51 4369.19 74.82 9.00 287.25 2768.78
   13:13:50.874.28-Apr-2021 3524.51 4369.15 74.82 9.00 287.45 2768.78
   13:13:51.074.28-Apr-2021 3524.51 4369.15 74.82 9.00 287.65 2768.78
   13:13:51.274.28-Apr-2021 3524.51 4369.19 74.82 9.00 287.85 2768.78
   13:13:51.474.28-Apr-2021 3524.51 4369.17 74.82 9.00 288.05 2768.78
   13:13:51.674.28-Apr-2021 3524.51 4369.17 74.82 9.00 288.25 2768.78
   13:13:51.874.28-Apr-2021 3524.51 4368.81 74.81 9.00 288.45 2768.78
   13:13:52.074.28-Apr-2021 3524.51 4369.36 74.81 9.00 288.65 2768.78
   13:13:52.274.28-Apr-2021 3524.51 4369.25 74.81 9.00 288.85 2768.78
   13:13:52.474.28-Apr-2021 3524.51 4369.18 74.81 9.00 289.05 2768.78
   13:13:52.674.28-Apr-2021 3524.51 4369.18 74.81 9.00 289.25 2768.78
   13:13:52.874.28-Apr-2021 3524.51 4369.18 74.81 9.00 289.45 2768.78
   13:13:53.074.28-Apr-2021 3524.51 4369.19 74.81 9.00 289.65 2768.78
   13:13:53.274.28-Apr-2021 3524.51 4369.15 74.81 9.00 289.85 2768.78
   13:13:53.474.28-Apr-2021 3524.51 4369.14 74.81 9.00 290.05 2768.78
   13:13:53.674.28-Apr-2021 3524.51 4369.14 74.81 9.00 290.25 2768.78
   13:13:53.874.28-Apr-2021 3524.51 4369.15 74.81 9.00 290.45 2768.78
   13:13:54.074.28-Apr-2021 3524.51 4369.14 74.81 9.00 290.65 2768.78
   13:13:54.274.28-Apr-2021 3524.51 4369.15 74.81 9.00 290.85 2768.78
   13:13:54.475.28-Apr-2021 3524.51 4369.12 74.81 9.00 291.05 2768.78
   13:13:54.675.28-Apr-2021 3524.51 4369.12 74.81 9.00 291.25 2768.78
   13:13:54.875.28-Apr-2021 3524.51 4369.37 74.81 9.00 291.45 2768.78
   13:13:55.075.28-Apr-2021 3524.51 4369.23 74.81 9.00 291.65 2768.78
   13:13:55.275.28-Apr-2021 3524.51 4369.06 74.81 9.00 291.85 2768.78
   13:13:55.475.28-Apr-2021 3524.51 4369.10 74.81 9.00 292.05 2768.78
   13:13:55.675.28-Apr-2021 3524.51 4369.10 74.81 9.00 292.25 2768.78
   13:13:55.875.28-Apr-2021 3524.51 4369.24 74.81 9.00 292.45 2768.78
   13:13:56.075.28-Apr-2021 3524.51 4369.20 74.80 9.00 292.65 2768.78
   13:13:56.275.28-Apr-2021 3524.51 4368.81 74.80 9.00 292.85 2768.78
   13:13:56.475.28-Apr-2021 3524.51 4369.39 74.80 9.00 293.05 2768.78
   13:13:56.675.28-Apr-2021 3524.51 4369.39 74.80 9.00 293.25 2768.78
   13:13:56.875.28-Apr-2021 3524.51 4369.21 74.80 9.00 293.45 2768.78
   13:13:57.075.28-Apr-2021 3524.51 4369.14 74.80 9.00 293.65 2768.78
   13:13:57.275.28-Apr-2021 3524.51 4368.99 74.80 9.00 293.85 2768.78
   13:13:57.475.28-Apr-2021 3524.51 4369.29 74.80 9.00 294.05 2768.78
   13:13:57.675.28-Apr-2021 3524.51 4369.29 74.80 9.00 294.25 2768.78
   13:13:57.875.28-Apr-2021 3524.51 4369.19 74.80 9.00 294.45 2768.78
   13:13:58.075.28-Apr-2021 3524.51 4369.15 74.80 9.00 294.65 2768.78
   13:13:58.275.28-Apr-2021 3524.51 4369.16 74.80 9.00 294.85 2768.78
   13:13:58.475.28-Apr-2021 3524.51 4369.21 74.80 9.00 295.05 2768.78
   13:13:58.675.28-Apr-2021 3524.51 4369.21 74.80 9.00 295.25 2768.78
   13:13:58.875.28-Apr-2021 3524.51 4369.16 74.80 9.00 295.45 2768.78
   13:13:59.075.28-Apr-2021 3524.51 4369.13 74.80 9.00 295.65 2768.78
   13:13:59.275.28-Apr-2021 3524.51 4369.15 74.80 9.00 295.85 2768.78
   13:13:59.475.28-Apr-2021 3524.51 4369.18 74.80 9.00 296.05 2768.78
   13:13:59.675.28-Apr-2021 3524.51 4369.18 74.80 9.00 296.25 2768.78
   13:13:59.875.28-Apr-2021 3524.51 4368.99 74.80 9.00 296.45 2768.78
   13:14:00.075.28-Apr-2021 3524.51 4369.16 74.80 9.00 296.65 2768.78
   13:14:00.275.28-Apr-2021 3524.51 4369.19 74.80 9.00 296.85 2768.78
   13:14:00.475.28-Apr-2021 3524.51 4369.19 74.79 9.00 297.05 2768.78
   13:14:00.676.28-Apr-2021 3524.51 4369.19 74.79 9.00 297.25 2768.78
   13:14:00.876.28-Apr-2021 3524.51 4369.12 74.79 9.00 297.45 2768.78
   13:14:01.076.28-Apr-2021 3524.51 4369.18 74.79 9.00 297.65 2768.78
   13:14:01.276.28-Apr-2021 3524.51 4369.17 74.79 9.00 297.85 2768.78
   13:14:01.476.28-Apr-2021 3524.51 4369.13 74.79 9.00 298.05 2768.78
   13:14:01.676.28-Apr-2021 3524.51 4369.13 74.79 9.00 298.25 2768.78
   13:14:01.876.28-Apr-2021 3524.51 4369.15 74.79 9.00 298.45 2768.78
   13:14:02.076.28-Apr-2021 3524.51 4369.15 74.79 9.00 298.65 2768.78
   13:14:02.276.28-Apr-2021 3524.51 4369.13 74.79 9.00 298.85 2768.78
