~Version Information
 VERS.                  2.0:   CWLS log ASCII Standard -VERSION 2.0
 WRAP.                   NO:   One line per depth step
~Well Information Block
#MNEM.UNIT     VALUE/NAME     DESCRIPTION
#---------     -----------    ---------------------------
 STRT.S             15:37:44 28-Apr-21: START TIME 15:37:44 28-Apr-21
 STOP.S             15:44:12 28-Apr-21: STOP TIME  15:44:12 28-Apr-21
 STEP.S                   0.00: STEP TIME
 NULL.                 -999.25: NULL VALUE
 DFWT.                        :  DIST FWL TEXT
 DFST.                        :  DIST FSL TEXT
 DMF .             Drill Floor:  DRILL MEAS FROM
 STIM.      02.00.00 12-Apr-21:  START TIME
 DATE.      02.00.00 02-May-21:  END TIME
 SPUD.               09-Apr-21:  SPUD DATE
 NREF.                    Grid:  NORTH REFERENCE
 HPTY.       Minimum Curvature:  HOLE POS TYPE
 DMOD.             Drill Model:  DRILL MOD DESC
 SVYD.                  Survey:  SURVEY DESC
 ILTD.               Lithology:  INTERP LTH DESC
 FTOP.          Formation Tops:  FORM TOPS DESC
 PDAT.          Mean Sea Level:  PERMANENT DATUM
 FLD .                     ACG:  FIELD NAME
 SON .        AZ-XX-0907021034:  JOB NUMBER
 CTRY.              Azerbaijan:  COUNTRY NAME
 WELL.                    E01x:  WELL NAME
 COMP.     BP Exploration (Caspian Sea) LTD.:  COMPANY
 UWI .            /AZE00001403:  UNIQUE WELL IDENTIFIER
 API .            /AZE00001403:  API NUMBER
 WTYP.                Deviated:  WELL TYPE
 MDS .        Operator Entered:  MAG DATA SOURCE
 BASE.              Azerbaijan:  LOGGING EQUIPMENT BASE LOCATION
 REGN.                   EESSA:  REGION
 PROV.                    Baku:  PROVINCE
 STAT.                    Baku:  STATE NAME
 SRVC.          Turan Drilling:  CONTRACTOR
 MWDS.                    Baku:  MWD SHOP
 JOBN.        AZ-XX-0907021034:  JOB TICKET NUMB
 RIG .                     DWG:  RIG NAME
 DOE .                     N/A:  DOE NUMBER
 DCON.         Sperry Drilling:  DIRECTNL CONTR
 UNIT.                     N/A:  LOGGING EQUIPMENT ID
 CNTY.                        :  COUNTY
 LOC .                        :  LOCATION
 LMF .             Drill Floor:  LOG MEASURED FROM
 TVDS.m                  43.16:  TVDSS CORRECTN
 LATI.deg                40.17:  LATITUDE
 LONG.deg                51.17:  LONGITUDE
 WHNS.m                  -5.90:  WELL HEAD N/S
 WHEW.m                  -6.61:  WELL HEAD E/W
 UTMX.m              514337.95:  UTM X
 UTMY.m             4448627.46:  UTM Y
 DFWL.m                   0.00:  DISTANCE FWL
 DFSL.m                   0.00:  DISTANCE FSL
 SDEP.m                2606.87:  START DEPTH
 TDD .m                3618.01:  TOTAL DEPTH (DRILLER)
 VSDR.deg               177.42:  VERT SEC DIRECT
 GVFD.g                   1.00:  GRAVITY FIELD
 MFLD.nT              50399.00:  MAGNETIC FIELD
 MDIP.deg                59.67:  MAGNETIC DIP
 MDEC.deg                 6.56:  MAGNETIC DECL
 GRDC.deg                 0.11:  GRID CORRECTION
 AZTC.deg                 6.45:  AZM TOTAL CORR
 EPD .m                   0.00:  ELEVATION
 EGL .m                   0.00:  GROUND ELEVATION
 WDMS.m                 176.20:  WD ELEV
 APD .m                  43.16:  DEPTH ABOVE PD
 DEP .m                2606.87:  DEPTH
 AGAP.m                  43.16:  AIR GAP
 VSEW.m                  -6.61:  VERT SEC E/W
 VSNS.m                  -5.90:  VERT SEC N/S
 EKB .m                  43.16:  KB ELEVATION
 EDF .m                  43.16:  DF ELEVATION
 TDL .m                 438.00:  TOTAL DEPTH (LOGGER)
 VSC .                       0:  VS TO CLOSURE
 MAGU.                 1855490:  MAGUTM CHECKSUM
~Parameter Information Block
#MNEM.UNIT       Value        Description
#---------     -----------    ---------------------------
 AV  .mps                 2.20:  Ann Velocity 
 AVMX.mps                 2.50:  Max Ann Veloc 
 AZIF.deg               150.21:  Azm, Final 
 BHAT.        Rotary Steerable:  BHA Type 
 BROT.°/30m               0.08:  Build Rotating 
 BS  .in                  6.50:  Bit Size 
 BSZ .in                  6.50:  Bit Size 
 BTPL.psig              108.00:  Bit Press Loss 
 CABU.                     Yes:  Customer Abuse 
 CGEO.           Emin Aliyarli:  Customer Geo 
 COMM.                     ôŸZ:  Run Comments 1 
 TCS .hr                 74.20:  Time Ciculation Ended 
 CV  .mps                 3.63:  Crit Velocity 
 CVMX.mps                 3.66:  Max Crit Veloc 
 DD1 .         Intigam Rahimov:  Direct Drillr 1 
 DD2 .          Teymur Aghayev:  Direct Drillr 2 
 DDSV.               Geo-Pilot:  DD Service 
 DEFF.%                  97.00:  % Det Eff 
 DLRX.°/30m               1.63:  Dogleg Rot Max 
 DLSO.°/30m               0.00:  Dogleg Oriented 
 DLSX.°/30m               0.00:  Dogleg Str Max 
 DRET.      20.20.00 28-Apr-21:  Drill End Time 
 DRST.      04.45.00 26-Apr-21:  Drill Start Tim 
 DTIM.hr                 34.30:  Time Drilling 
 EDEP.m                3618.01:  End Depth 
 ENG1.           Amrah Tahirov:  Engineer 1 
 ENG2.         Bahruz Mehdiyev:  Engineer 2 
 ENG3.         Farhad Orujzade:  Engineer 3 
 ETIM.      19.00.00 29-Apr-21:  End Time 
 FLOI.gpm               370.00:  Flow In 
 FLON.gpm               300.00:  Flow In Min 
 FLOS.cptm                0.00:  Fluid Loss 
 FLOX.gpm               410.00:  Flow In Max 
 HFLO.                      No:  High Flow 
 HPRE.                      No:  High Pressure 
 HTEM.                      No:  High Temp 
 HYDO.m                   1.80:  Hydro Offset 
 IFIN.deg                67.19:  Inc, Final 
 IMAX.deg                68.42:  Inc Max 
 IMIN.deg                66.33:  Inc Min 
 IMND.m                3532.79:  Inc Min Depth 
 IMXD.m                3192.15:  Inc Max Depth 
 JARR.                      No:  Jarring 
 LETM.      20.20.00 28-Apr-21:  Log End Time 
 LOST.hr                     0:  Lost Rig Time 
 LSTM.      04.45.00 26-Apr-21:  Log Start Time 
 MDCL.ppm             36500.00:  Mud Chlorides 
 MDES.     Inversion Oil/Synthetic:  Mud Desc 
 DFD .sg                  1.42:  Mud Density 
 MDMN.sg                  1.42:  Dens Mud Min 
 MDMX.sg                  1.42:  Dens Mud Max 
 MOIL.                    55.7:  Run Mud Oil % 
 MOWR.                   71:29:  Run Mud OWR 
 MSND.                     0.1:  Run Mud Sand % 
 MSOL.                    19.9:  Run Mud Solids% 
 DFV .spqt               83.00:  Mud Viscosity 
 MWOD.in                  5.15:  MWD Tool OD 
 MWSI.                      No:  Serv Intrp, MWD 
 OTIM.hr                120.59:  Time Operating 
 PCON.           Look Like New:  Pad Condition 
 PMAX.psia            11292.93:  Press Op, Max 
 PV  .cP                 27.00:  Mud PV 
 RUN .                     400:  Run Number 
 ROPA.m/hr               14.00:  ROP Avg 
 ROPN.m/hr                9.00:  ROP Min 
 ROPX.m/hr               18.00:  ROP Max 
 RPMA.rpm               130.00:  RPM Surface Avg 
 RPMN.rpm               100.00:  RPM Surface Min 
 RPMX.rpm               140.00:  RPM Surface Max 
 RRUN.                    0400:  Rig Run Number 
 RTIM.hr                 38.60:  Time Reaming 
 SAZI.deg               149.55:  Azm, Start 
 SDEP.m                3180.01:  Start Depth 
 SIDD.                      No:  Serv Intrp, DD 
 SINC.deg                68.42:  Inc, Start 
 SPPA.psig             4400.00:  SPP Avg 
 SPPN.psig             3580.00:  SPP Min 
 SPPX.psig             4850.00:  SPP Max 
 STIM.      12.30.00 24-Apr-21:  Start Time 
 SVCS.                 DD, MWD:  Services 
 SVER.                    9.20:  Sperry Version 
 TDAT.m                 438.00:  Tot Depth Attmp 
 TDDF.                      No:  Trip for DD 
 TDLG.m                 438.00:  Tot Depth Loggd 
 TFF .                      No:  Trip for Fail 
 TQAA.f-kp               11.00:  Torque Abs Avg 
 TQAN.f-kp                9.00:  Torque Abs Min 
 TQAX.f-kp               14.00:  Torque Abs Max 
 TRRT.°/30m               0.04:  Turn Rotating 
 MRT .                    HCIM:  Maximum Recorded Temperature 
 TTMX.degC               84.31:  Max Tool Temp 
 VS01.                90521954:  Virtual Str1 SN 
 VS02.                90519327:  Virtual Str2 SN 
 VS03.                90522273:  Virtual Str3 SN 
 VS04.                11108038:  Virtual Str4 SN 
 VS05.                12258760:  Virtual Str5 SN 
 WBMN.klb                 1.00:  WOB Min 
 WITN.           Adil Mammadov:  Customer Rep 
 WITN.         Alex Yadullayev:  Customer Rep 2 
 WOBA.klb                 6.00:  WOB Avg 
 WOBX.klb                 9.00:  WOB Max 
 YP  .lhf2               31.00:  Yield Point 
~Curve Information Block
#MNEM.UNIT                 API CODE     Curve Description
#---------               -----------    ---------------------------
 TIME.HHMMSS            00 000 000 000:  GT Time & Date
 GTDEPTH.m              00 000 000 000:  GT Depth
 GTPQH.psia             00 000 000 000:  GT HR Quartz Pressure
 GTTQ.degC              00 000 000 000:  GT Quartz Temperature
 GTTN.NONE              00 000 000 000:  GT Test Number
 GTET.sec               00 000 000 000:  GT Elapsed Test Time
 GTTVD.m                00 000 000 000:  GT True Vertical Depth
#Other Information
#
#WARRANTY: Halliburton will use its best efforts to furnish customers with 
#accurate information and interpretations that are part of, and incident to, the services 
#provided.  However, Halliburton cannot and does not warrant the accuracy 
#or correctness of such information and interpretations.  Under no circumstances should any 
#such information or interpretation be relied upon as the sole basis for any drilling, 
#completion, production, or financial decision or any procedure involving any risk to the 
#safety of any drilling venture, drilling rig or its crew or any other third party.  The 
#Customer has full responsibility for all drilling, completion and production operation.  
#Halliburton makes no representations or warranties, either expressed or 
#implied, including, but not limited to, the implied warranties of merchantability or fitness 
#for a particular purpose, with respect to the services rendered.  In no event will 
#Halliburton be liable for failure to obtain any particular results or for 
#any damages, including, but not limited to, indirect, special or consequential damages, 
#resulting from the use of any information or interpretation provided by Halliburton.
#
~A           TIME           GTDEPTH  GTPQH  GTTQ  GTTN   GTET   GTTVD  
# ...
   15:38:06.923.28-Apr-2021 3537.51 8016.55 75.13 10.00  22.61 2773.98
   15:38:07.123.28-Apr-2021 3537.51 8015.70 75.13 10.00  22.81 2773.98
   15:38:07.323.28-Apr-2021 3537.51 8022.82 75.13 10.00  23.01 2773.98
   15:38:07.523.28-Apr-2021 3537.51 8022.82 75.13 10.00  23.21 2773.98
   15:38:07.723.28-Apr-2021 3537.51 8021.84 75.13 10.00  23.41 2773.98
   15:38:07.923.28-Apr-2021 3537.51 8018.43 75.13 10.00  23.61 2773.98
   15:38:08.123.28-Apr-2021 3537.51 7660.30 75.13 10.00  23.81 2773.98
   15:38:08.323.28-Apr-2021 3537.51 6954.39 75.13 10.00  24.01 2773.98
   15:38:08.523.28-Apr-2021 3537.51 6954.39 75.13 10.00  24.21 2773.98
   15:38:08.723.28-Apr-2021 3537.51 6037.99 75.13 10.00  24.41 2773.98
   15:38:08.924.28-Apr-2021 3537.51 5777.50 75.13 10.00  24.61 2773.98
   15:38:09.124.28-Apr-2021 3537.51 5254.98 75.13 10.00  24.81 2773.98
   15:38:09.324.28-Apr-2021 3537.51 4490.30 75.13 10.00  25.01 2773.98
   15:38:09.524.28-Apr-2021 3537.51 4490.30 75.13 10.00  25.21 2773.98
   15:38:09.724.28-Apr-2021 3537.51 4242.22 75.13 10.00  25.41 2773.98
   15:38:09.924.28-Apr-2021 3537.51 4245.00 75.13 10.00  25.61 2773.98
   15:38:10.124.28-Apr-2021 3537.51 4245.86 75.13 10.00  25.81 2773.98
   15:38:10.324.28-Apr-2021 3537.51 4245.65 75.13 10.00  26.01 2773.98
   15:38:10.524.28-Apr-2021 3537.51 4245.65 75.13 10.00  26.21 2773.98
   15:38:10.724.28-Apr-2021 3537.51 4245.37 75.12 10.00  26.41 2773.98
   15:38:10.924.28-Apr-2021 3537.51 4245.01 75.12 10.00  26.61 2773.98
   15:38:11.124.28-Apr-2021 3537.51 4244.53 75.12 10.00  26.81 2773.98
   15:38:11.324.28-Apr-2021 3537.51 4244.39 75.12 10.00  27.01 2773.98
   15:38:11.525.28-Apr-2021 3537.51 4244.39 75.12 10.00  27.21 2773.98
   15:38:11.725.28-Apr-2021 3537.51 4244.46 75.12 10.00  27.41 2773.98
   15:38:11.925.28-Apr-2021 3537.51 4244.68 75.12 10.00  27.61 2773.98
   15:38:12.125.28-Apr-2021 3537.51 4245.27 75.11 10.00  27.81 2773.98
   15:38:12.325.28-Apr-2021 3537.51 4246.95 75.11 10.00  28.01 2773.98
   15:38:12.525.28-Apr-2021 3537.51 4246.95 75.11 10.00  28.21 2773.98
   15:38:12.725.28-Apr-2021 3537.51 4246.95 75.11 10.00  28.41 2773.98
   15:38:12.925.28-Apr-2021 3537.51 4251.25 75.11 10.00  28.61 2773.98
   15:38:13.125.28-Apr-2021 3537.51 4250.57 75.11 10.00  28.81 2773.98
   15:38:13.325.28-Apr-2021 3537.51 4252.25 75.11 10.00  29.01 2773.98
   15:38:13.525.28-Apr-2021 3537.51 4252.25 75.11 10.00  29.21 2773.98
   15:38:13.725.28-Apr-2021 3537.51 4250.53 75.10 10.00  29.41 2773.98
   15:38:13.925.28-Apr-2021 3537.51 4250.67 75.10 10.00  29.61 2773.98
   15:38:14.126.28-Apr-2021 3537.51 4250.69 75.10 10.00  29.81 2773.98
   15:38:14.326.28-Apr-2021 3537.51 4251.20 75.10 10.00  30.01 2773.98
   15:38:14.526.28-Apr-2021 3537.51 4251.20 75.10 10.00  30.21 2773.98
   15:38:14.726.28-Apr-2021 3537.51 4251.03 75.10 10.00  30.41 2773.98
   15:38:14.926.28-Apr-2021 3537.51 4251.32 75.09 10.00  30.61 2773.98
   15:38:15.126.28-Apr-2021 3537.51 4252.07 75.09 10.00  30.81 2773.98
   15:38:15.326.28-Apr-2021 3537.51 4253.04 75.09 10.00  31.01 2773.98
   15:38:15.526.28-Apr-2021 3537.51 4253.04 75.09 10.00  31.21 2773.98
   15:38:15.726.28-Apr-2021 3537.51 4251.00 75.09 10.00  31.41 2773.98
   15:38:15.926.28-Apr-2021 3537.51 4250.84 75.09 10.00  31.61 2773.98
   15:38:16.126.28-Apr-2021 3537.51 4250.93 75.09 10.00  31.81 2773.98
   15:38:16.326.28-Apr-2021 3537.51 4250.70 75.09 10.00  32.01 2773.98
   15:38:16.526.28-Apr-2021 3537.51 4250.70 75.09 10.00  32.21 2773.98
   15:38:16.726.28-Apr-2021 3537.51 4249.90 75.08 10.00  32.41 2773.98
   15:38:16.927.28-Apr-2021 3537.51 4251.50 75.08 10.00  32.61 2773.98
   15:38:17.127.28-Apr-2021 3537.51 4250.63 75.08 10.00  32.81 2773.98
   15:38:17.327.28-Apr-2021 3537.51 4250.87 75.08 10.00  33.01 2773.98
   15:38:17.527.28-Apr-2021 3537.51 4250.87 75.08 10.00  33.21 2773.98
   15:38:17.727.28-Apr-2021 3537.51 4250.25 75.08 10.00  33.41 2773.98
   15:38:17.927.28-Apr-2021 3537.51 4250.74 75.08 10.00  33.61 2773.98
   15:38:18.127.28-Apr-2021 3537.51 4262.72 75.07 10.00  33.81 2773.98
   15:38:18.327.28-Apr-2021 3537.51 4280.99 75.07 10.00  34.01 2773.98
   15:38:18.527.28-Apr-2021 3537.51 4280.99 75.07 10.00  34.21 2773.98
   15:38:18.727.28-Apr-2021 3537.51 4281.15 75.07 10.00  34.41 2773.98
   15:38:18.927.28-Apr-2021 3537.51 4281.12 75.07 10.00  34.61 2773.98
   15:38:19.127.28-Apr-2021 3537.51 4281.46 75.07 10.00  34.81 2773.98
   15:38:19.327.28-Apr-2021 3537.51 4281.36 75.07 10.00  35.01 2773.98
   15:38:19.528.28-Apr-2021 3537.51 4281.36 75.07 10.00  35.21 2773.98
   15:38:19.728.28-Apr-2021 3537.51 4281.40 75.07 10.00  35.41 2773.98
   15:38:19.928.28-Apr-2021 3537.51 4281.43 75.07 10.00  35.61 2773.98
   15:38:20.128.28-Apr-2021 3537.51 4281.47 75.06 10.00  35.81 2773.98
   15:38:20.328.28-Apr-2021 3537.51 4281.47 75.06 10.00  36.01 2773.98
   15:38:20.528.28-Apr-2021 3537.51 4281.47 75.06 10.00  36.21 2773.98
   15:38:20.728.28-Apr-2021 3537.51 4281.48 75.06 10.00  36.41 2773.98
   15:38:20.928.28-Apr-2021 3537.51 4281.52 75.06 10.00  36.61 2773.98
   15:38:21.128.28-Apr-2021 3537.51 4281.53 75.06 10.00  36.81 2773.98
   15:38:21.328.28-Apr-2021 3537.51 4281.54 75.06 10.00  37.01 2773.98
   15:38:21.528.28-Apr-2021 3537.51 4281.54 75.06 10.00  37.21 2773.98
   15:38:21.728.28-Apr-2021 3537.51 4281.55 75.06 10.00  37.41 2773.98
   15:38:21.928.28-Apr-2021 3537.51 4281.35 75.06 10.00  37.61 2773.98
   15:38:22.129.28-Apr-2021 3537.51 4281.69 75.06 10.00  37.81 2773.98
   15:38:22.329.28-Apr-2021 3537.51 4281.60 75.05 10.00  38.01 2773.98
   15:38:22.529.28-Apr-2021 3537.51 4281.60 75.05 10.00  38.21 2773.98
   15:38:22.729.28-Apr-2021 3537.51 4281.56 75.05 10.00  38.41 2773.98
   15:38:22.929.28-Apr-2021 3537.51 4281.59 75.05 10.00  38.61 2773.98
   15:38:23.129.28-Apr-2021 3537.51 4281.62 75.05 10.00  38.81 2773.98
   15:38:23.329.28-Apr-2021 3537.51 4281.63 75.05 10.00  39.01 2773.98
   15:38:23.529.28-Apr-2021 3537.51 4281.63 75.05 10.00  39.21 2773.98
   15:38:23.729.28-Apr-2021 3537.51 4281.62 75.05 10.00  39.42 2773.98
   15:38:23.929.28-Apr-2021 3537.51 4281.65 75.05 10.00  39.62 2773.98
   15:38:24.129.28-Apr-2021 3537.51 4281.66 75.05 10.00  39.82 2773.98
   15:38:24.329.28-Apr-2021 3537.51 4281.67 75.05 10.00  40.02 2773.98
   15:38:24.529.28-Apr-2021 3537.51 4281.67 75.05 10.00  40.22 2773.98
   15:38:24.730.28-Apr-2021 3537.51 4281.66 75.04 10.00  40.42 2773.98
   15:38:24.930.28-Apr-2021 3537.51 4281.65 75.04 10.00  40.62 2773.98
   15:38:25.130.28-Apr-2021 3537.51 4281.58 75.04 10.00  40.82 2773.98
   15:38:25.330.28-Apr-2021 3537.51 4281.71 75.04 10.00  41.02 2773.98
   15:38:25.530.28-Apr-2021 3537.51 4281.71 75.04 10.00  41.22 2773.98
   15:38:25.730.28-Apr-2021 3537.51 4281.66 75.04 10.00  41.42 2773.98
   15:38:25.930.28-Apr-2021 3537.51 4281.67 75.04 10.00  41.62 2773.98
   15:38:26.130.28-Apr-2021 3537.51 4281.54 75.04 10.00  41.82 2773.98
   15:38:26.330.28-Apr-2021 3537.51 4281.67 75.05 10.00  42.02 2773.98
   15:38:26.530.28-Apr-2021 3537.51 4281.79 75.04 10.00  42.22 2773.98
   15:38:26.730.28-Apr-2021 3537.51 4281.79 75.04 10.00  42.42 2773.98
   15:38:26.930.28-Apr-2021 3537.51 4281.79 75.04 10.00  42.62 2773.98
   15:38:27.130.28-Apr-2021 3537.51 4281.79 75.04 10.00  42.82 2773.98
   15:38:27.331.28-Apr-2021 3537.51 4281.76 75.04 10.00  43.02 2773.98
   15:38:27.531.28-Apr-2021 3537.51 4281.76 75.04 10.00  43.22 2773.98
   15:38:27.731.28-Apr-2021 3537.51 4281.69 75.03 10.00  43.42 2773.98
   15:38:27.931.28-Apr-2021 3537.51 4281.70 75.03 10.00  43.62 2773.98
   15:38:28.131.28-Apr-2021 3537.51 4281.77 75.03 10.00  43.82 2773.98
   15:38:28.331.28-Apr-2021 3537.51 4281.57 75.03 10.00  44.02 2773.98
   15:38:28.531.28-Apr-2021 3537.51 4281.57 75.03 10.00  44.22 2773.98
   15:38:28.731.28-Apr-2021 3537.51 4281.75 75.03 10.00  44.42 2773.98
   15:38:28.931.28-Apr-2021 3537.51 4281.74 75.03 10.00  44.62 2773.98
   15:38:29.131.28-Apr-2021 3537.51 4281.76 75.03 10.00  44.82 2773.98
   15:38:29.331.28-Apr-2021 3537.51 4281.57 75.03 10.00  45.02 2773.98
