~Version Information
 VERS.                  2.0:   CWLS log ASCII Standard -VERSION 2.0
 WRAP.                   NO:   One line per depth step
~Well Information Block
#MNEM.UNIT     VALUE/NAME     DESCRIPTION
#---------     -----------    ---------------------------
 STRT.S             03:12:46 28-Apr-21: START TIME 03:12:46 28-Apr-21
 STOP.S             03:19:14 28-Apr-21: STOP TIME  03:19:14 28-Apr-21
 STEP.S                   0.00: STEP TIME
 NULL.                 -999.25: NULL VALUE
 DFWT.                        :  DIST FWL TEXT
 DFST.                        :  DIST FSL TEXT
 DMF .             Drill Floor:  DRILL MEAS FROM
 STIM.      02.00.00 12-Apr-21:  START TIME
 DATE.      02.00.00 02-May-21:  END TIME
 SPUD.               09-Apr-21:  SPUD DATE
 NREF.                    Grid:  NORTH REFERENCE
 HPTY.       Minimum Curvature:  HOLE POS TYPE
 DMOD.             Drill Model:  DRILL MOD DESC
 SVYD.                  Survey:  SURVEY DESC
 ILTD.               Lithology:  INTERP LTH DESC
 FTOP.          Formation Tops:  FORM TOPS DESC
 PDAT.          Mean Sea Level:  PERMANENT DATUM
 FLD .                     ACG:  FIELD NAME
 SON .        AZ-XX-0907021034:  JOB NUMBER
 CTRY.              Azerbaijan:  COUNTRY NAME
 WELL.                    E01x:  WELL NAME
 COMP.     BP Exploration (Caspian Sea) LTD.:  COMPANY
 UWI .            /AZE00001403:  UNIQUE WELL IDENTIFIER
 API .            /AZE00001403:  API NUMBER
 WTYP.                Deviated:  WELL TYPE
 MDS .        Operator Entered:  MAG DATA SOURCE
 BASE.              Azerbaijan:  LOGGING EQUIPMENT BASE LOCATION
 REGN.                   EESSA:  REGION
 PROV.                    Baku:  PROVINCE
 STAT.                    Baku:  STATE NAME
 SRVC.          Turan Drilling:  CONTRACTOR
 MWDS.                    Baku:  MWD SHOP
 JOBN.        AZ-XX-0907021034:  JOB TICKET NUMB
 RIG .                     DWG:  RIG NAME
 DOE .                     N/A:  DOE NUMBER
 DCON.         Sperry Drilling:  DIRECTNL CONTR
 UNIT.                     N/A:  LOGGING EQUIPMENT ID
 CNTY.                        :  COUNTY
 LOC .                        :  LOCATION
 LMF .             Drill Floor:  LOG MEASURED FROM
 TVDS.m                  43.16:  TVDSS CORRECTN
 LATI.deg                40.17:  LATITUDE
 LONG.deg                51.17:  LONGITUDE
 WHNS.m                  -5.90:  WELL HEAD N/S
 WHEW.m                  -6.61:  WELL HEAD E/W
 UTMX.m              514337.95:  UTM X
 UTMY.m             4448627.46:  UTM Y
 DFWL.m                   0.00:  DISTANCE FWL
 DFSL.m                   0.00:  DISTANCE FSL
 SDEP.m                2606.87:  START DEPTH
 TDD .m                3618.01:  TOTAL DEPTH (DRILLER)
 VSDR.deg               177.42:  VERT SEC DIRECT
 GVFD.g                   1.00:  GRAVITY FIELD
 MFLD.nT              50399.00:  MAGNETIC FIELD
 MDIP.deg                59.67:  MAGNETIC DIP
 MDEC.deg                 6.56:  MAGNETIC DECL
 GRDC.deg                 0.11:  GRID CORRECTION
 AZTC.deg                 6.45:  AZM TOTAL CORR
 EPD .m                   0.00:  ELEVATION
 EGL .m                   0.00:  GROUND ELEVATION
 WDMS.m                 176.20:  WD ELEV
 APD .m                  43.16:  DEPTH ABOVE PD
 DEP .m                2606.87:  DEPTH
 AGAP.m                  43.16:  AIR GAP
 VSEW.m                  -6.61:  VERT SEC E/W
 VSNS.m                  -5.90:  VERT SEC N/S
 EKB .m                  43.16:  KB ELEVATION
 EDF .m                  43.16:  DF ELEVATION
 TDL .m                 438.00:  TOTAL DEPTH (LOGGER)
 VSC .                       0:  VS TO CLOSURE
 MAGU.                 1855490:  MAGUTM CHECKSUM
~Parameter Information Block
#MNEM.UNIT       Value        Description
#---------     -----------    ---------------------------
 AV  .mps                 2.20:  Ann Velocity 
 AVMX.mps                 2.50:  Max Ann Veloc 
 AZIF.deg               150.21:  Azm, Final 
 BHAT.        Rotary Steerable:  BHA Type 
 BROT.°/30m               0.08:  Build Rotating 
 BS  .in                  6.50:  Bit Size 
 BSZ .in                  6.50:  Bit Size 
 BTPL.psig              108.00:  Bit Press Loss 
 CABU.                     Yes:  Customer Abuse 
 CGEO.           Emin Aliyarli:  Customer Geo 
 COMM.                     ¬¼r:  Run Comments 1 
 TCS .hr                 74.20:  Time Ciculation Ended 
 CV  .mps                 3.63:  Crit Velocity 
 CVMX.mps                 3.66:  Max Crit Veloc 
 DD1 .         Intigam Rahimov:  Direct Drillr 1 
 DD2 .          Teymur Aghayev:  Direct Drillr 2 
 DDSV.               Geo-Pilot:  DD Service 
 DEFF.%                  97.00:  % Det Eff 
 DLRX.°/30m               1.63:  Dogleg Rot Max 
 DLSO.°/30m               0.00:  Dogleg Oriented 
 DLSX.°/30m               0.00:  Dogleg Str Max 
 DRET.      20.20.00 28-Apr-21:  Drill End Time 
 DRST.      04.45.00 26-Apr-21:  Drill Start Tim 
 DTIM.hr                 34.30:  Time Drilling 
 EDEP.m                3618.01:  End Depth 
 ENG1.           Amrah Tahirov:  Engineer 1 
 ENG2.         Bahruz Mehdiyev:  Engineer 2 
 ENG3.         Farhad Orujzade:  Engineer 3 
 ETIM.      19.00.00 29-Apr-21:  End Time 
 FLOI.gpm               370.00:  Flow In 
 FLON.gpm               300.00:  Flow In Min 
 FLOS.cptm                0.00:  Fluid Loss 
 FLOX.gpm               410.00:  Flow In Max 
 HFLO.                      No:  High Flow 
 HPRE.                      No:  High Pressure 
 HTEM.                      No:  High Temp 
 HYDO.m                   1.80:  Hydro Offset 
 IFIN.deg                67.19:  Inc, Final 
 IMAX.deg                68.42:  Inc Max 
 IMIN.deg                66.33:  Inc Min 
 IMND.m                3532.79:  Inc Min Depth 
 IMXD.m                3192.15:  Inc Max Depth 
 JARR.                      No:  Jarring 
 LETM.      20.20.00 28-Apr-21:  Log End Time 
 LOST.hr                     0:  Lost Rig Time 
 LSTM.      04.45.00 26-Apr-21:  Log Start Time 
 MDCL.ppm             36500.00:  Mud Chlorides 
 MDES.     Inversion Oil/Synthetic:  Mud Desc 
 DFD .sg                  1.42:  Mud Density 
 MDMN.sg                  1.42:  Dens Mud Min 
 MDMX.sg                  1.42:  Dens Mud Max 
 MOIL.                    55.7:  Run Mud Oil % 
 MOWR.                   71:29:  Run Mud OWR 
 MSND.                     0.1:  Run Mud Sand % 
 MSOL.                    19.9:  Run Mud Solids% 
 DFV .spqt               83.00:  Mud Viscosity 
 MWOD.in                  5.15:  MWD Tool OD 
 MWSI.                      No:  Serv Intrp, MWD 
 OTIM.hr                120.59:  Time Operating 
 PCON.           Look Like New:  Pad Condition 
 PMAX.psia            11292.93:  Press Op, Max 
 PV  .cP                 27.00:  Mud PV 
 RUN .                     400:  Run Number 
 ROPA.m/hr               14.00:  ROP Avg 
 ROPN.m/hr                9.00:  ROP Min 
 ROPX.m/hr               18.00:  ROP Max 
 RPMA.rpm               130.00:  RPM Surface Avg 
 RPMN.rpm               100.00:  RPM Surface Min 
 RPMX.rpm               140.00:  RPM Surface Max 
 RRUN.                    0400:  Rig Run Number 
 RTIM.hr                 38.60:  Time Reaming 
 SAZI.deg               149.55:  Azm, Start 
 SDEP.m                3180.01:  Start Depth 
 SIDD.                      No:  Serv Intrp, DD 
 SINC.deg                68.42:  Inc, Start 
 SPPA.psig             4400.00:  SPP Avg 
 SPPN.psig             3580.00:  SPP Min 
 SPPX.psig             4850.00:  SPP Max 
 STIM.      12.30.00 24-Apr-21:  Start Time 
 SVCS.                 DD, MWD:  Services 
 SVER.                    9.20:  Sperry Version 
 TDAT.m                 438.00:  Tot Depth Attmp 
 TDDF.                      No:  Trip for DD 
 TDLG.m                 438.00:  Tot Depth Loggd 
 TFF .                      No:  Trip for Fail 
 TQAA.f-kp               11.00:  Torque Abs Avg 
 TQAN.f-kp                9.00:  Torque Abs Min 
 TQAX.f-kp               14.00:  Torque Abs Max 
 TRRT.°/30m               0.04:  Turn Rotating 
 MRT .                    HCIM:  Maximum Recorded Temperature 
 TTMX.degC               84.31:  Max Tool Temp 
 VS01.                90521954:  Virtual Str1 SN 
 VS02.                90519327:  Virtual Str2 SN 
 VS03.                90522273:  Virtual Str3 SN 
 VS04.                11108038:  Virtual Str4 SN 
 VS05.                12258760:  Virtual Str5 SN 
 WBMN.klb                 1.00:  WOB Min 
 WITN.           Adil Mammadov:  Customer Rep 
 WITN.         Alex Yadullayev:  Customer Rep 2 
 WOBA.klb                 6.00:  WOB Avg 
 WOBX.klb                 9.00:  WOB Max 
 YP  .lhf2               31.00:  Yield Point 
~Curve Information Block
#MNEM.UNIT                 API CODE     Curve Description
#---------               -----------    ---------------------------
 TIME.HHMMSS            00 000 000 000:  GT Time & Date
 GTDEPTH.m              00 000 000 000:  GT Depth
 GTPQH.psia             00 000 000 000:  GT HR Quartz Pressure
 GTTQ.degC              00 000 000 000:  GT Quartz Temperature
 GTTN.NONE              00 000 000 000:  GT Test Number
 GTET.sec               00 000 000 000:  GT Elapsed Test Time
 GTTVD.m                00 000 000 000:  GT True Vertical Depth
#Other Information
#
#WARRANTY: Halliburton will use its best efforts to furnish customers with 
#accurate information and interpretations that are part of, and incident to, the services 
#provided.  However, Halliburton cannot and does not warrant the accuracy 
#or correctness of such information and interpretations.  Under no circumstances should any 
#such information or interpretation be relied upon as the sole basis for any drilling, 
#completion, production, or financial decision or any procedure involving any risk to the 
#safety of any drilling venture, drilling rig or its crew or any other third party.  The 
#Customer has full responsibility for all drilling, completion and production operation.  
#Halliburton makes no representations or warranties, either expressed or 
#implied, including, but not limited to, the implied warranties of merchantability or fitness 
#for a particular purpose, with respect to the services rendered.  In no event will 
#Halliburton be liable for failure to obtain any particular results or for 
#any damages, including, but not limited to, indirect, special or consequential damages, 
#resulting from the use of any information or interpretation provided by Halliburton.
#
~A           TIME           GTDEPTH  GTPQH  GTTQ  GTTN  GTET   GTTVD  
# ...
   03:16:36.845.28-Apr-2021 3448.01 3696.04 71.97 7.00 230.03 2738.99
   03:16:37.045.28-Apr-2021 3448.01 3696.04 71.97 7.00 230.23 2738.99
   03:16:37.245.28-Apr-2021 3448.01 3696.29 71.97 7.00 230.43 2738.99
   03:16:37.445.28-Apr-2021 3448.01 3696.34 71.97 7.00 230.63 2738.99
   03:16:37.645.28-Apr-2021 3448.01 3696.13 71.97 7.00 230.83 2738.99
   03:16:37.845.28-Apr-2021 3448.01 3696.32 71.96 7.00 231.03 2738.99
   03:16:38.045.28-Apr-2021 3448.01 3696.32 71.96 7.00 231.23 2738.99
   03:16:38.245.28-Apr-2021 3448.01 3696.21 71.96 7.00 231.43 2738.99
   03:16:38.445.28-Apr-2021 3448.01 3696.29 71.96 7.00 231.63 2738.99
   03:16:38.645.28-Apr-2021 3448.01 3696.27 71.96 7.00 231.83 2738.99
   03:16:38.845.28-Apr-2021 3448.01 3696.11 71.96 7.00 232.03 2738.99
   03:16:39.045.28-Apr-2021 3448.01 3696.11 71.96 7.00 232.23 2738.99
   03:16:39.245.28-Apr-2021 3448.01 3696.33 71.96 7.00 232.43 2738.99
   03:16:39.446.28-Apr-2021 3448.01 3696.29 71.96 7.00 232.63 2738.99
   03:16:39.646.28-Apr-2021 3448.01 3696.16 71.96 7.00 232.83 2738.99
   03:16:39.846.28-Apr-2021 3448.01 3696.30 71.96 7.00 233.03 2738.99
   03:16:40.046.28-Apr-2021 3448.01 3696.30 71.96 7.00 233.23 2738.99
   03:16:40.246.28-Apr-2021 3448.01 3696.29 71.96 7.00 233.43 2738.99
   03:16:40.446.28-Apr-2021 3448.01 3696.15 71.96 7.00 233.63 2738.99
   03:16:40.646.28-Apr-2021 3448.01 3696.27 71.96 7.00 233.83 2738.99
   03:16:40.846.28-Apr-2021 3448.01 3696.21 71.96 7.00 234.03 2738.99
   03:16:41.046.28-Apr-2021 3448.01 3696.21 71.96 7.00 234.23 2738.99
   03:16:41.246.28-Apr-2021 3448.01 3696.21 71.96 7.00 234.43 2738.99
   03:16:41.446.28-Apr-2021 3448.01 3696.18 71.96 7.00 234.63 2738.99
   03:16:41.646.28-Apr-2021 3448.01 3695.96 71.96 7.00 234.83 2738.99
   03:16:41.846.28-Apr-2021 3448.01 3696.29 71.96 7.00 235.03 2738.99
   03:16:42.046.28-Apr-2021 3448.01 3696.29 71.96 7.00 235.23 2738.99
   03:16:42.246.28-Apr-2021 3448.01 3696.21 71.96 7.00 235.43 2738.99
   03:16:42.446.28-Apr-2021 3448.01 3696.17 71.96 7.00 235.63 2738.99
   03:16:42.646.28-Apr-2021 3448.01 3696.25 71.96 7.00 235.83 2738.99
   03:16:42.846.28-Apr-2021 3448.01 3696.18 71.96 7.00 236.03 2738.99
   03:16:43.046.28-Apr-2021 3448.01 3696.18 71.96 7.00 236.23 2738.99
   03:16:43.246.28-Apr-2021 3448.01 3696.17 71.96 7.00 236.43 2738.99
   03:16:43.446.28-Apr-2021 3448.01 3696.22 71.96 7.00 236.63 2738.99
   03:16:43.646.28-Apr-2021 3448.01 3696.19 71.96 7.00 236.83 2738.99
   03:16:43.846.28-Apr-2021 3448.01 3696.19 71.95 7.00 237.03 2738.99
   03:16:44.046.28-Apr-2021 3448.01 3696.19 71.95 7.00 237.23 2738.99
   03:16:44.246.28-Apr-2021 3448.01 3695.95 71.95 7.00 237.43 2738.99
   03:16:44.446.28-Apr-2021 3448.01 3620.19 71.95 7.00 237.64 2738.99
   03:16:44.646.28-Apr-2021 3448.01 3601.28 71.95 7.00 237.84 2738.99
   03:16:44.846.28-Apr-2021 3448.01 3600.82 71.95 7.00 238.04 2738.99
   03:16:45.046.28-Apr-2021 3448.01 3600.82 71.95 7.00 238.24 2738.99
   03:16:45.246.28-Apr-2021 3448.01 3599.56 71.95 7.00 238.44 2738.99
   03:16:45.446.28-Apr-2021 3448.01 3602.63 71.95 7.00 238.64 2738.99
   03:16:45.646.28-Apr-2021 3448.01 3599.76 71.95 7.00 238.84 2738.99
   03:16:45.846.28-Apr-2021 3448.01 3600.39 71.95 7.00 239.04 2738.99
   03:16:46.046.28-Apr-2021 3448.01 3600.39 71.95 7.00 239.24 2738.99
   03:16:46.247.28-Apr-2021 3448.01 3601.00 71.95 7.00 239.44 2738.99
   03:16:46.447.28-Apr-2021 3448.01 3599.02 71.95 7.00 239.64 2738.99
   03:16:46.647.28-Apr-2021 3448.01 3601.94 71.95 7.00 239.84 2738.99
   03:16:46.847.28-Apr-2021 3448.01 3601.52 71.95 7.00 240.04 2738.99
   03:16:47.047.28-Apr-2021 3448.01 3601.52 71.95 7.00 240.24 2738.99
   03:16:47.247.28-Apr-2021 3448.01 3598.87 71.95 7.00 240.44 2738.99
   03:16:47.447.28-Apr-2021 3448.01 3602.43 71.95 7.00 240.64 2738.99
   03:16:47.647.28-Apr-2021 3448.01 3600.44 71.95 7.00 240.84 2738.99
   03:16:47.847.28-Apr-2021 3448.01 3600.00 71.95 7.00 241.04 2738.99
   03:16:48.047.28-Apr-2021 3448.01 3600.00 71.95 7.00 241.24 2738.99
   03:16:48.247.28-Apr-2021 3448.01 3600.61 71.95 7.00 241.44 2738.99
   03:16:48.447.28-Apr-2021 3448.01 3600.35 71.95 7.00 241.64 2738.99
   03:16:48.647.28-Apr-2021 3448.01 3600.32 71.95 7.00 241.84 2738.99
   03:16:48.847.28-Apr-2021 3448.01 3600.21 71.95 7.00 242.04 2738.99
   03:16:49.047.28-Apr-2021 3448.01 3600.21 71.95 7.00 242.24 2738.99
   03:16:49.247.28-Apr-2021 3448.01 3600.48 71.95 7.00 242.44 2738.99
   03:16:49.447.28-Apr-2021 3448.01 3600.01 71.94 7.00 242.64 2738.99
   03:16:49.647.28-Apr-2021 3448.01 3599.89 71.94 7.00 242.84 2738.99
   03:16:49.847.28-Apr-2021 3448.01 3600.07 71.94 7.00 243.04 2738.99
   03:16:50.047.28-Apr-2021 3448.01 3600.07 71.94 7.00 243.24 2738.99
   03:16:50.247.28-Apr-2021 3448.01 3602.26 71.94 7.00 243.44 2738.99
   03:16:50.447.28-Apr-2021 3448.01 3601.28 71.94 7.00 243.64 2738.99
   03:16:50.647.28-Apr-2021 3448.01 3599.90 71.94 7.00 243.84 2738.99
   03:16:50.847.28-Apr-2021 3448.01 3600.13 71.94 7.00 244.04 2738.99
   03:16:51.047.28-Apr-2021 3448.01 3600.13 71.94 7.00 244.24 2738.99
   03:16:51.247.28-Apr-2021 3448.01 3599.75 71.94 7.00 244.44 2738.99
   03:16:51.447.28-Apr-2021 3448.01 3600.88 71.94 7.00 244.64 2738.99
   03:16:51.647.28-Apr-2021 3448.01 3600.18 71.94 7.00 244.84 2738.99
   03:16:51.847.28-Apr-2021 3448.01 3600.31 71.94 7.00 245.04 2738.99
   03:16:52.047.28-Apr-2021 3448.01 3600.31 71.94 7.00 245.24 2738.99
   03:16:52.247.28-Apr-2021 3448.01 3599.60 71.94 7.00 245.44 2738.99
   03:16:52.447.28-Apr-2021 3448.01 3600.14 71.94 7.00 245.64 2738.99
   03:16:52.647.28-Apr-2021 3448.01 3599.43 71.94 7.00 245.84 2738.99
   03:16:52.847.28-Apr-2021 3448.01 3600.23 71.94 7.00 246.04 2738.99
   03:16:53.048.28-Apr-2021 3448.01 3600.23 71.94 7.00 246.24 2738.99
   03:16:53.248.28-Apr-2021 3448.01 3599.68 71.94 7.00 246.44 2738.99
   03:16:53.448.28-Apr-2021 3448.01 3598.68 71.94 7.00 246.64 2738.99
   03:16:53.648.28-Apr-2021 3448.01 3599.49 71.94 7.00 246.84 2738.99
   03:16:53.848.28-Apr-2021 3448.01 3601.55 71.94 7.00 247.04 2738.99
   03:16:54.048.28-Apr-2021 3448.01 3601.55 71.94 7.00 247.24 2738.99
   03:16:54.248.28-Apr-2021 3448.01 3599.90 71.94 7.00 247.44 2738.99
   03:16:54.448.28-Apr-2021 3448.01 3600.56 71.94 7.00 247.64 2738.99
   03:16:54.648.28-Apr-2021 3448.01 3647.67 71.94 7.00 247.84 2738.99
   03:16:54.848.28-Apr-2021 3448.01 3691.27 71.94 7.00 248.04 2738.99
   03:16:55.048.28-Apr-2021 3448.01 3691.27 71.94 7.00 248.24 2738.99
   03:16:55.248.28-Apr-2021 3448.01 3694.86 71.93 7.00 248.44 2738.99
   03:16:55.448.28-Apr-2021 3448.01 3694.73 71.93 7.00 248.64 2738.99
   03:16:55.648.28-Apr-2021 3448.01 3695.37 71.93 7.00 248.84 2738.99
   03:16:55.848.28-Apr-2021 3448.01 3695.50 71.93 7.00 249.04 2738.99
   03:16:56.048.28-Apr-2021 3448.01 3695.50 71.93 7.00 249.24 2738.99
   03:16:56.248.28-Apr-2021 3448.01 3695.40 71.93 7.00 249.44 2738.99
   03:16:56.448.28-Apr-2021 3448.01 3695.58 71.93 7.00 249.64 2738.99
   03:16:56.648.28-Apr-2021 3448.01 3695.53 71.93 7.00 249.84 2738.99
   03:16:56.848.28-Apr-2021 3448.01 3695.52 71.93 7.00 250.04 2738.99
   03:16:57.048.28-Apr-2021 3448.01 3695.52 71.93 7.00 250.24 2738.99
   03:16:57.248.28-Apr-2021 3448.01 3695.50 71.93 7.00 250.44 2738.99
   03:16:57.448.28-Apr-2021 3448.01 3695.62 71.93 7.00 250.64 2738.99
   03:16:57.648.28-Apr-2021 3448.01 3695.52 71.93 7.00 250.84 2738.99
   03:16:57.848.28-Apr-2021 3448.01 3695.59 71.93 7.00 251.04 2738.99
   03:16:58.048.28-Apr-2021 3448.01 3695.59 71.93 7.00 251.24 2738.99
   03:16:58.248.28-Apr-2021 3448.01 3695.37 71.93 7.00 251.44 2738.99
   03:16:58.448.28-Apr-2021 3448.01 3696.07 71.93 7.00 251.64 2738.99
   03:16:58.648.28-Apr-2021 3448.01 3695.93 71.93 7.00 251.84 2738.99
   03:16:58.848.28-Apr-2021 3448.01 3696.05 71.93 7.00 252.04 2738.99
   03:16:59.048.28-Apr-2021 3448.01 3696.05 71.93 7.00 252.24 2738.99
   03:16:59.248.28-Apr-2021 3448.01 3695.97 71.93 7.00 252.44 2738.99
   03:16:59.448.28-Apr-2021 3448.01 3695.92 71.93 7.00 252.64 2738.99
   03:16:59.648.28-Apr-2021 3448.01 3695.89 71.93 7.00 252.84 2738.99
