~Version Information
 VERS.                  2.0:   CWLS log ASCII Standard -VERSION 2.0
 WRAP.                   NO:   One line per depth step
~Well Information Block
#MNEM.UNIT     VALUE/NAME     DESCRIPTION
#---------     -----------    ---------------------------
 STRT.S             19:03:38 27-Apr-21: START TIME 19:03:38 27-Apr-21
 STOP.S             19:10:06 27-Apr-21: STOP TIME  19:10:06 27-Apr-21
 STEP.S                   0.00: STEP TIME
 NULL.                 -999.25: NULL VALUE
 DFWT.                        :  DIST FWL TEXT
 DFST.                        :  DIST FSL TEXT
 DMF .             Drill Floor:  DRILL MEAS FROM
 STIM.      02.00.00 12-Apr-21:  START TIME
 DATE.      02.00.00 02-May-21:  END TIME
 SPUD.               09-Apr-21:  SPUD DATE
 NREF.                    Grid:  NORTH REFERENCE
 HPTY.       Minimum Curvature:  HOLE POS TYPE
 DMOD.             Drill Model:  DRILL MOD DESC
 SVYD.                  Survey:  SURVEY DESC
 ILTD.               Lithology:  INTERP LTH DESC
 FTOP.          Formation Tops:  FORM TOPS DESC
 PDAT.          Mean Sea Level:  PERMANENT DATUM
 FLD .                     ACG:  FIELD NAME
 SON .        AZ-XX-0907021034:  JOB NUMBER
 CTRY.              Azerbaijan:  COUNTRY NAME
 WELL.                    E01x:  WELL NAME
 COMP.     BP Exploration (Caspian Sea) LTD.:  COMPANY
 UWI .            /AZE00001403:  UNIQUE WELL IDENTIFIER
 API .            /AZE00001403:  API NUMBER
 WTYP.                Deviated:  WELL TYPE
 MDS .        Operator Entered:  MAG DATA SOURCE
 BASE.              Azerbaijan:  LOGGING EQUIPMENT BASE LOCATION
 REGN.                   EESSA:  REGION
 PROV.                    Baku:  PROVINCE
 STAT.                    Baku:  STATE NAME
 SRVC.          Turan Drilling:  CONTRACTOR
 MWDS.                    Baku:  MWD SHOP
 JOBN.        AZ-XX-0907021034:  JOB TICKET NUMB
 RIG .                     DWG:  RIG NAME
 DOE .                     N/A:  DOE NUMBER
 DCON.         Sperry Drilling:  DIRECTNL CONTR
 UNIT.                     N/A:  LOGGING EQUIPMENT ID
 CNTY.                        :  COUNTY
 LOC .                        :  LOCATION
 LMF .             Drill Floor:  LOG MEASURED FROM
 TVDS.m                  43.16:  TVDSS CORRECTN
 LATI.deg                40.17:  LATITUDE
 LONG.deg                51.17:  LONGITUDE
 WHNS.m                  -5.90:  WELL HEAD N/S
 WHEW.m                  -6.61:  WELL HEAD E/W
 UTMX.m              514337.95:  UTM X
 UTMY.m             4448627.46:  UTM Y
 DFWL.m                   0.00:  DISTANCE FWL
 DFSL.m                   0.00:  DISTANCE FSL
 SDEP.m                2606.87:  START DEPTH
 TDD .m                3618.01:  TOTAL DEPTH (DRILLER)
 VSDR.deg               177.42:  VERT SEC DIRECT
 GVFD.g                   1.00:  GRAVITY FIELD
 MFLD.nT              50399.00:  MAGNETIC FIELD
 MDIP.deg                59.67:  MAGNETIC DIP
 MDEC.deg                 6.56:  MAGNETIC DECL
 GRDC.deg                 0.11:  GRID CORRECTION
 AZTC.deg                 6.45:  AZM TOTAL CORR
 EPD .m                   0.00:  ELEVATION
 EGL .m                   0.00:  GROUND ELEVATION
 WDMS.m                 176.20:  WD ELEV
 APD .m                  43.16:  DEPTH ABOVE PD
 DEP .m                2606.87:  DEPTH
 AGAP.m                  43.16:  AIR GAP
 VSEW.m                  -6.61:  VERT SEC E/W
 VSNS.m                  -5.90:  VERT SEC N/S
 EKB .m                  43.16:  KB ELEVATION
 EDF .m                  43.16:  DF ELEVATION
 TDL .m                 438.00:  TOTAL DEPTH (LOGGER)
 VSC .                       0:  VS TO CLOSURE
 MAGU.                 1855490:  MAGUTM CHECKSUM
~Parameter Information Block
#MNEM.UNIT       Value        Description
#---------     -----------    ---------------------------
 AV  .mps                 2.20:  Ann Velocity 
 AVMX.mps                 2.50:  Max Ann Veloc 
 AZIF.deg               150.21:  Azm, Final 
 BHAT.        Rotary Steerable:  BHA Type 
 BROT.°/30m               0.08:  Build Rotating 
 BS  .in                  6.50:  Bit Size 
 BSZ .in                  6.50:  Bit Size 
 BTPL.psig              108.00:  Bit Press Loss 
 CABU.                     Yes:  Customer Abuse 
 CGEO.           Emin Aliyarli:  Customer Geo 
 COMM.                     LÊS:  Run Comments 1 
 TCS .hr                 74.20:  Time Ciculation Ended 
 CV  .mps                 3.63:  Crit Velocity 
 CVMX.mps                 3.66:  Max Crit Veloc 
 DD1 .         Intigam Rahimov:  Direct Drillr 1 
 DD2 .          Teymur Aghayev:  Direct Drillr 2 
 DDSV.               Geo-Pilot:  DD Service 
 DEFF.%                  97.00:  % Det Eff 
 DLRX.°/30m               1.63:  Dogleg Rot Max 
 DLSO.°/30m               0.00:  Dogleg Oriented 
 DLSX.°/30m               0.00:  Dogleg Str Max 
 DRET.      20.20.00 28-Apr-21:  Drill End Time 
 DRST.      04.45.00 26-Apr-21:  Drill Start Tim 
 DTIM.hr                 34.30:  Time Drilling 
 EDEP.m                3618.01:  End Depth 
 ENG1.           Amrah Tahirov:  Engineer 1 
 ENG2.         Bahruz Mehdiyev:  Engineer 2 
 ENG3.         Farhad Orujzade:  Engineer 3 
 ETIM.      19.00.00 29-Apr-21:  End Time 
 FLOI.gpm               370.00:  Flow In 
 FLON.gpm               300.00:  Flow In Min 
 FLOS.cptm                0.00:  Fluid Loss 
 FLOX.gpm               410.00:  Flow In Max 
 HFLO.                      No:  High Flow 
 HPRE.                      No:  High Pressure 
 HTEM.                      No:  High Temp 
 HYDO.m                   1.80:  Hydro Offset 
 IFIN.deg                67.19:  Inc, Final 
 IMAX.deg                68.42:  Inc Max 
 IMIN.deg                66.33:  Inc Min 
 IMND.m                3532.79:  Inc Min Depth 
 IMXD.m                3192.15:  Inc Max Depth 
 JARR.                      No:  Jarring 
 LETM.      20.20.00 28-Apr-21:  Log End Time 
 LOST.hr                     0:  Lost Rig Time 
 LSTM.      04.45.00 26-Apr-21:  Log Start Time 
 MDCL.ppm             36500.00:  Mud Chlorides 
 MDES.     Inversion Oil/Synthetic:  Mud Desc 
 DFD .sg                  1.42:  Mud Density 
 MDMN.sg                  1.42:  Dens Mud Min 
 MDMX.sg                  1.42:  Dens Mud Max 
 MOIL.                    55.7:  Run Mud Oil % 
 MOWR.                   71:29:  Run Mud OWR 
 MSND.                     0.1:  Run Mud Sand % 
 MSOL.                    19.9:  Run Mud Solids% 
 DFV .spqt               83.00:  Mud Viscosity 
 MWOD.in                  5.15:  MWD Tool OD 
 MWSI.                      No:  Serv Intrp, MWD 
 OTIM.hr                120.59:  Time Operating 
 PCON.           Look Like New:  Pad Condition 
 PMAX.psia            11292.93:  Press Op, Max 
 PV  .cP                 27.00:  Mud PV 
 RUN .                     400:  Run Number 
 ROPA.m/hr               14.00:  ROP Avg 
 ROPN.m/hr                9.00:  ROP Min 
 ROPX.m/hr               18.00:  ROP Max 
 RPMA.rpm               130.00:  RPM Surface Avg 
 RPMN.rpm               100.00:  RPM Surface Min 
 RPMX.rpm               140.00:  RPM Surface Max 
 RRUN.                    0400:  Rig Run Number 
 RTIM.hr                 38.60:  Time Reaming 
 SAZI.deg               149.55:  Azm, Start 
 SDEP.m                3180.01:  Start Depth 
 SIDD.                      No:  Serv Intrp, DD 
 SINC.deg                68.42:  Inc, Start 
 SPPA.psig             4400.00:  SPP Avg 
 SPPN.psig             3580.00:  SPP Min 
 SPPX.psig             4850.00:  SPP Max 
 STIM.      12.30.00 24-Apr-21:  Start Time 
 SVCS.                 DD, MWD:  Services 
 SVER.                    9.20:  Sperry Version 
 TDAT.m                 438.00:  Tot Depth Attmp 
 TDDF.                      No:  Trip for DD 
 TDLG.m                 438.00:  Tot Depth Loggd 
 TFF .                      No:  Trip for Fail 
 TQAA.f-kp               11.00:  Torque Abs Avg 
 TQAN.f-kp                9.00:  Torque Abs Min 
 TQAX.f-kp               14.00:  Torque Abs Max 
 TRRT.°/30m               0.04:  Turn Rotating 
 MRT .                    HCIM:  Maximum Recorded Temperature 
 TTMX.degC               84.31:  Max Tool Temp 
 VS01.                90521954:  Virtual Str1 SN 
 VS02.                90519327:  Virtual Str2 SN 
 VS03.                90522273:  Virtual Str3 SN 
 VS04.                11108038:  Virtual Str4 SN 
 VS05.                12258760:  Virtual Str5 SN 
 WBMN.klb                 1.00:  WOB Min 
 WITN.           Adil Mammadov:  Customer Rep 
 WITN.         Alex Yadullayev:  Customer Rep 2 
 WOBA.klb                 6.00:  WOB Avg 
 WOBX.klb                 9.00:  WOB Max 
 YP  .lhf2               31.00:  Yield Point 
~Curve Information Block
#MNEM.UNIT                 API CODE     Curve Description
#---------               -----------    ---------------------------
 TIME.HHMMSS            00 000 000 000:  GT Time & Date
 GTDEPTH.m              00 000 000 000:  GT Depth
 GTPQH.psia             00 000 000 000:  GT HR Quartz Pressure
 GTTQ.degC              00 000 000 000:  GT Quartz Temperature
 GTTN.NONE              00 000 000 000:  GT Test Number
 GTET.sec               00 000 000 000:  GT Elapsed Test Time
 GTTVD.m                00 000 000 000:  GT True Vertical Depth
#Other Information
#
#WARRANTY: Halliburton will use its best efforts to furnish customers with 
#accurate information and interpretations that are part of, and incident to, the services 
#provided.  However, Halliburton cannot and does not warrant the accuracy 
#or correctness of such information and interpretations.  Under no circumstances should any 
#such information or interpretation be relied upon as the sole basis for any drilling, 
#completion, production, or financial decision or any procedure involving any risk to the 
#safety of any drilling venture, drilling rig or its crew or any other third party.  The 
#Customer has full responsibility for all drilling, completion and production operation.  
#Halliburton makes no representations or warranties, either expressed or 
#implied, including, but not limited to, the implied warranties of merchantability or fitness 
#for a particular purpose, with respect to the services rendered.  In no event will 
#Halliburton be liable for failure to obtain any particular results or for 
#any damages, including, but not limited to, indirect, special or consequential damages, 
#resulting from the use of any information or interpretation provided by Halliburton.
#
~A           TIME           GTDEPTH  GTPQH  GTTQ  GTTN  GTET   GTTVD  
# ...
   19:09:46.717.27-Apr-2021 3392.01 6028.36 72.61 5.00 368.09 2716.87
   19:09:46.917.27-Apr-2021 3392.01 6028.36 72.61 5.00 368.29 2716.87
   19:09:47.117.27-Apr-2021 3392.01 6030.44 72.61 5.00 368.49 2716.87
   19:09:47.317.27-Apr-2021 3392.01 6027.97 72.61 5.00 368.69 2716.87
   19:09:47.517.27-Apr-2021 3392.01 6029.15 72.61 5.00 368.89 2716.87
   19:09:47.717.27-Apr-2021 3392.01 6029.74 72.61 5.00 369.09 2716.87
   19:09:47.917.27-Apr-2021 3392.01 6029.74 72.61 5.00 369.29 2716.87
   19:09:48.117.27-Apr-2021 3392.01 6027.84 72.61 5.00 369.49 2716.87
   19:09:48.317.27-Apr-2021 3392.01 6030.80 72.61 5.00 369.69 2716.87
   19:09:48.517.27-Apr-2021 3392.01 6023.20 72.61 5.00 369.89 2716.87
   19:09:48.717.27-Apr-2021 3392.01 6024.30 72.61 5.00 370.09 2716.87
   19:09:48.917.27-Apr-2021 3392.01 6024.30 72.61 5.00 370.29 2716.87
   19:09:49.117.27-Apr-2021 3392.01 6028.35 72.61 5.00 370.49 2716.87
   19:09:49.317.27-Apr-2021 3392.01 6028.41 72.61 5.00 370.69 2716.87
   19:09:49.517.27-Apr-2021 3392.01 6026.26 72.61 5.00 370.89 2716.87
   19:09:49.717.27-Apr-2021 3392.01 6026.89 72.61 5.00 371.09 2716.87
   19:09:49.918.27-Apr-2021 3392.01 6026.89 72.61 5.00 371.29 2716.87
   19:09:50.118.27-Apr-2021 3392.01 6028.40 72.61 5.00 371.49 2716.87
   19:09:50.318.27-Apr-2021 3392.01 6027.43 72.61 5.00 371.69 2716.87
   19:09:50.518.27-Apr-2021 3392.01 6031.13 72.61 5.00 371.89 2716.87
   19:09:50.718.27-Apr-2021 3392.01 6028.90 72.61 5.00 372.09 2716.87
   19:09:50.918.27-Apr-2021 3392.01 6028.90 72.61 5.00 372.29 2716.87
   19:09:51.118.27-Apr-2021 3392.01 6031.93 72.61 5.00 372.49 2716.87
   19:09:51.318.27-Apr-2021 3392.01 6028.70 72.61 5.00 372.69 2716.87
   19:09:51.518.27-Apr-2021 3392.01 6019.02 72.60 5.00 372.89 2716.87
   19:09:51.718.27-Apr-2021 3392.01 6029.10 72.60 5.00 373.09 2716.87
   19:09:51.918.27-Apr-2021 3392.01 6029.10 72.60 5.00 373.29 2716.87
   19:09:52.118.27-Apr-2021 3392.01 6025.17 72.60 5.00 373.49 2716.87
   19:09:52.318.27-Apr-2021 3392.01 6029.37 72.60 5.00 373.69 2716.87
   19:09:52.518.27-Apr-2021 3392.01 6027.75 72.60 5.00 373.89 2716.87
   19:09:52.718.27-Apr-2021 3392.01 6019.93 72.60 5.00 374.09 2716.87
   19:09:52.918.27-Apr-2021 3392.01 6019.93 72.60 5.00 374.29 2716.87
   19:09:53.118.27-Apr-2021 3392.01 6024.70 72.60 5.00 374.49 2716.87
   19:09:53.318.27-Apr-2021 3392.01 6021.55 72.60 5.00 374.69 2716.87
   19:09:53.518.27-Apr-2021 3392.01 6027.82 72.60 5.00 374.89 2716.87
   19:09:53.718.27-Apr-2021 3392.01 6028.60 72.60 5.00 375.09 2716.87
   19:09:53.919.27-Apr-2021 3392.01 6028.60 72.60 5.00 375.29 2716.87
   19:09:54.119.27-Apr-2021 3392.01 6029.13 72.60 5.00 375.49 2716.87
   19:09:54.319.27-Apr-2021 3392.01 6026.78 72.60 5.00 375.69 2716.87
   19:09:54.519.27-Apr-2021 3392.01 6029.91 72.60 5.00 375.89 2716.87
   19:09:54.719.27-Apr-2021 3392.01 6018.27 72.60 5.00 376.09 2716.87
   19:09:54.919.27-Apr-2021 3392.01 6018.27 72.60 5.00 376.29 2716.87
   19:09:55.119.27-Apr-2021 3392.01 6030.28 72.60 5.00 376.49 2716.87
   19:09:55.319.27-Apr-2021 3392.01 6026.30 72.60 5.00 376.69 2716.87
   19:09:55.519.27-Apr-2021 3392.01 6028.25 72.60 5.00 376.89 2716.87
   19:09:55.719.27-Apr-2021 3392.01 6027.82 72.60 5.00 377.09 2716.87
   19:09:55.919.27-Apr-2021 3392.01 6027.82 72.60 5.00 377.29 2716.87
   19:09:56.119.27-Apr-2021 3392.01 6027.25 72.59 5.00 377.49 2716.87
   19:09:56.319.27-Apr-2021 3392.01 6028.62 72.59 5.00 377.69 2716.87
   19:09:56.519.27-Apr-2021 3392.01 6031.13 72.59 5.00 377.89 2716.87
   19:09:56.719.27-Apr-2021 3392.01 6029.64 72.59 5.00 378.09 2716.87
   19:09:56.919.27-Apr-2021 3392.01 6029.64 72.59 5.00 378.29 2716.87
   19:09:57.119.27-Apr-2021 3392.01 6029.30 72.59 5.00 378.49 2716.87
   19:09:57.319.27-Apr-2021 3392.01 6015.61 72.59 5.00 378.69 2716.87
   19:09:57.519.27-Apr-2021 3392.01 6029.32 72.59 5.00 378.89 2716.87
   19:09:57.719.27-Apr-2021 3392.01 6030.43 72.59 5.00 379.09 2716.87
   19:09:57.919.27-Apr-2021 3392.01 6030.43 72.59 5.00 379.29 2716.87
   19:09:58.120.27-Apr-2021 3392.01 6028.16 72.59 5.00 379.49 2716.87
   19:09:58.320.27-Apr-2021 3392.01 6026.61 72.59 5.00 379.69 2716.87
   19:09:58.520.27-Apr-2021 3392.01 6025.97 72.59 5.00 379.89 2716.87
   19:09:58.720.27-Apr-2021 3392.01 6028.20 72.59 5.00 380.09 2716.87
   19:09:58.920.27-Apr-2021 3392.01 6028.20 72.59 5.00 380.29 2716.87
   19:09:59.120.27-Apr-2021 3392.01 6029.48 72.59 5.00 380.49 2716.87
   19:09:59.320.27-Apr-2021 3392.01 6029.14 72.59 5.00 380.69 2716.87
   19:09:59.520.27-Apr-2021 3392.01 6029.31 72.59 5.00 380.89 2716.87
   19:09:59.720.27-Apr-2021 3392.01 6029.23 72.59 5.00 381.09 2716.87
   19:09:59.920.27-Apr-2021 3392.01 6029.23 72.59 5.00 381.29 2716.87
   19:10:00.120.27-Apr-2021 3392.01 6027.87 72.59 5.00 381.49 2716.87
   19:10:00.320.27-Apr-2021 3392.01 6021.23 72.59 5.00 381.69 2716.87
   19:10:00.520.27-Apr-2021 3392.01 6029.09 72.58 5.00 381.89 2716.87
   19:10:00.720.27-Apr-2021 3392.01 6026.84 72.58 5.00 382.09 2716.87
   19:10:00.920.27-Apr-2021 3392.01 6026.84 72.58 5.00 382.29 2716.87
   19:10:01.120.27-Apr-2021 3392.01 6028.03 72.58 5.00 382.49 2716.87
   19:10:01.320.27-Apr-2021 3392.01 6020.71 72.58 5.00 382.69 2716.87
   19:10:01.520.27-Apr-2021 3392.01 6027.17 72.58 5.00 382.89 2716.87
   19:10:01.720.27-Apr-2021 3392.01 6029.56 72.58 5.00 383.09 2716.87
   19:10:01.920.27-Apr-2021 3392.01 6029.56 72.58 5.00 383.29 2716.87
   19:10:02.121.27-Apr-2021 3392.01 6021.10 72.58 5.00 383.49 2716.87
   19:10:02.321.27-Apr-2021 3392.01 6029.25 72.58 5.00 383.69 2716.87
   19:10:02.521.27-Apr-2021 3392.01 6026.94 72.58 5.00 383.89 2716.87
   19:10:02.721.27-Apr-2021 3392.01 6027.67 72.58 5.00 384.09 2716.87
   19:10:02.921.27-Apr-2021 3392.01 6027.67 72.58 5.00 384.29 2716.87
   19:10:03.121.27-Apr-2021 3392.01 6028.73 72.58 5.00 384.49 2716.87
   19:10:03.321.27-Apr-2021 3392.01 6017.76 72.58 5.00 384.69 2716.87
   19:10:03.521.27-Apr-2021 3392.01 6030.03 72.58 5.00 384.89 2716.87
   19:10:03.721.27-Apr-2021 3392.01 6026.99 72.58 5.00 385.09 2716.87
   19:10:03.921.27-Apr-2021 3392.01 6026.99 72.58 5.00 385.29 2716.87
   19:10:04.121.27-Apr-2021 3392.01 6027.70 72.58 5.00 385.49 2716.87
   19:10:04.321.27-Apr-2021 3392.01 6027.45 72.58 5.00 385.69 2716.87
   19:10:04.521.27-Apr-2021 3392.01 6030.10 72.58 5.00 385.89 2716.87
   19:10:04.721.27-Apr-2021 3392.01 6028.40 72.58 5.00 386.09 2716.87
   19:10:04.921.27-Apr-2021 3392.01 6028.40 72.58 5.00 386.29 2716.87
   19:10:05.121.27-Apr-2021 3392.01 6030.31 72.57 5.00 386.49 2716.87
   19:10:05.321.27-Apr-2021 3392.01 6030.76 72.57 5.00 386.69 2716.87
   19:10:05.521.27-Apr-2021 3392.01 6027.28 72.57 5.00 386.89 2716.87
   19:10:05.721.27-Apr-2021 3392.01 6031.20 72.57 5.00 387.09 2716.87
   19:10:05.921.27-Apr-2021 3392.01 6031.20 72.57 5.00 387.29 2716.87
   19:10:06.121.27-Apr-2021 3392.01 6029.40 72.57 5.00 387.49 2716.87
   19:10:06.322.27-Apr-2021 3392.01 6028.74 72.57 5.00 387.69 2716.87
   19:10:06.522.27-Apr-2021 3392.01 6022.30 72.57 5.00 387.89 2716.87
