~Version Information
 VERS.                  2.0:   CWLS log ASCII Standard -VERSION 2.0
 WRAP.                   NO:   One line per depth step
~Well Information Block
#MNEM.UNIT     VALUE/NAME     DESCRIPTION
#---------     -----------    ---------------------------
 STRT.S             23:13:46 26-Apr-21: START TIME 23:13:46 26-Apr-21
 STOP.S             23:20:13 26-Apr-21: STOP TIME  23:20:13 26-Apr-21
 STEP.S                   0.00: STEP TIME
 NULL.                 -999.25: NULL VALUE
 DFWT.                        :  DIST FWL TEXT
 DFST.                        :  DIST FSL TEXT
 DMF .             Drill Floor:  DRILL MEAS FROM
 STIM.      02.00.00 12-Apr-21:  START TIME
 DATE.      02.00.00 02-May-21:  END TIME
 SPUD.               09-Apr-21:  SPUD DATE
 NREF.                    Grid:  NORTH REFERENCE
 HPTY.       Minimum Curvature:  HOLE POS TYPE
 DMOD.             Drill Model:  DRILL MOD DESC
 SVYD.                  Survey:  SURVEY DESC
 ILTD.               Lithology:  INTERP LTH DESC
 FTOP.          Formation Tops:  FORM TOPS DESC
 PDAT.          Mean Sea Level:  PERMANENT DATUM
 FLD .                     ACG:  FIELD NAME
 SON .        AZ-XX-0907021034:  JOB NUMBER
 CTRY.              Azerbaijan:  COUNTRY NAME
 WELL.                    E01x:  WELL NAME
 COMP.     BP Exploration (Caspian Sea) LTD.:  COMPANY
 UWI .            /AZE00001403:  UNIQUE WELL IDENTIFIER
 API .            /AZE00001403:  API NUMBER
 WTYP.                Deviated:  WELL TYPE
 MDS .        Operator Entered:  MAG DATA SOURCE
 BASE.              Azerbaijan:  LOGGING EQUIPMENT BASE LOCATION
 REGN.                   EESSA:  REGION
 PROV.                    Baku:  PROVINCE
 STAT.                    Baku:  STATE NAME
 SRVC.          Turan Drilling:  CONTRACTOR
 MWDS.                    Baku:  MWD SHOP
 JOBN.        AZ-XX-0907021034:  JOB TICKET NUMB
 RIG .                     DWG:  RIG NAME
 DOE .                     N/A:  DOE NUMBER
 DCON.         Sperry Drilling:  DIRECTNL CONTR
 UNIT.                     N/A:  LOGGING EQUIPMENT ID
 CNTY.                        :  COUNTY
 LOC .                        :  LOCATION
 LMF .             Drill Floor:  LOG MEASURED FROM
 TVDS.m                  43.16:  TVDSS CORRECTN
 LATI.deg                40.17:  LATITUDE
 LONG.deg                51.17:  LONGITUDE
 WHNS.m                  -5.90:  WELL HEAD N/S
 WHEW.m                  -6.61:  WELL HEAD E/W
 UTMX.m              514337.95:  UTM X
 UTMY.m             4448627.46:  UTM Y
 DFWL.m                   0.00:  DISTANCE FWL
 DFSL.m                   0.00:  DISTANCE FSL
 SDEP.m                2606.87:  START DEPTH
 TDD .m                3618.01:  TOTAL DEPTH (DRILLER)
 VSDR.deg               177.42:  VERT SEC DIRECT
 GVFD.g                   1.00:  GRAVITY FIELD
 MFLD.nT              50399.00:  MAGNETIC FIELD
 MDIP.deg                59.67:  MAGNETIC DIP
 MDEC.deg                 6.56:  MAGNETIC DECL
 GRDC.deg                 0.11:  GRID CORRECTION
 AZTC.deg                 6.45:  AZM TOTAL CORR
 EPD .m                   0.00:  ELEVATION
 EGL .m                   0.00:  GROUND ELEVATION
 WDMS.m                 176.20:  WD ELEV
 APD .m                  43.16:  DEPTH ABOVE PD
 DEP .m                2606.87:  DEPTH
 AGAP.m                  43.16:  AIR GAP
 VSEW.m                  -6.61:  VERT SEC E/W
 VSNS.m                  -5.90:  VERT SEC N/S
 EKB .m                  43.16:  KB ELEVATION
 EDF .m                  43.16:  DF ELEVATION
 TDL .m                 438.00:  TOTAL DEPTH (LOGGER)
 VSC .                       0:  VS TO CLOSURE
 MAGU.                 1855490:  MAGUTM CHECKSUM
~Parameter Information Block
#MNEM.UNIT       Value        Description
#---------     -----------    ---------------------------
 AV  .mps                 2.20:  Ann Velocity 
 AVMX.mps                 2.50:  Max Ann Veloc 
 AZIF.deg               150.21:  Azm, Final 
 BHAT.        Rotary Steerable:  BHA Type 
 BROT.°/30m               0.08:  Build Rotating 
 BS  .in                  6.50:  Bit Size 
 BSZ .in                  6.50:  Bit Size 
 BTPL.psig              108.00:  Bit Press Loss 
 CABU.                     Yes:  Customer Abuse 
 CGEO.           Emin Aliyarli:  Customer Geo 
 COMM.                     <MW:  Run Comments 1 
 TCS .hr                 74.20:  Time Ciculation Ended 
 CV  .mps                 3.63:  Crit Velocity 
 CVMX.mps                 3.66:  Max Crit Veloc 
 DD1 .         Intigam Rahimov:  Direct Drillr 1 
 DD2 .          Teymur Aghayev:  Direct Drillr 2 
 DDSV.               Geo-Pilot:  DD Service 
 DEFF.%                  97.00:  % Det Eff 
 DLRX.°/30m               1.63:  Dogleg Rot Max 
 DLSO.°/30m               0.00:  Dogleg Oriented 
 DLSX.°/30m               0.00:  Dogleg Str Max 
 DRET.      20.20.00 28-Apr-21:  Drill End Time 
 DRST.      04.45.00 26-Apr-21:  Drill Start Tim 
 DTIM.hr                 34.30:  Time Drilling 
 EDEP.m                3618.01:  End Depth 
 ENG1.           Amrah Tahirov:  Engineer 1 
 ENG2.         Bahruz Mehdiyev:  Engineer 2 
 ENG3.         Farhad Orujzade:  Engineer 3 
 ETIM.      19.00.00 29-Apr-21:  End Time 
 FLOI.gpm               370.00:  Flow In 
 FLON.gpm               300.00:  Flow In Min 
 FLOS.cptm                0.00:  Fluid Loss 
 FLOX.gpm               410.00:  Flow In Max 
 HFLO.                      No:  High Flow 
 HPRE.                      No:  High Pressure 
 HTEM.                      No:  High Temp 
 HYDO.m                   1.80:  Hydro Offset 
 IFIN.deg                67.19:  Inc, Final 
 IMAX.deg                68.42:  Inc Max 
 IMIN.deg                66.33:  Inc Min 
 IMND.m                3532.79:  Inc Min Depth 
 IMXD.m                3192.15:  Inc Max Depth 
 JARR.                      No:  Jarring 
 LETM.      20.20.00 28-Apr-21:  Log End Time 
 LOST.hr                     0:  Lost Rig Time 
 LSTM.      04.45.00 26-Apr-21:  Log Start Time 
 MDCL.ppm             36500.00:  Mud Chlorides 
 MDES.     Inversion Oil/Synthetic:  Mud Desc 
 DFD .sg                  1.42:  Mud Density 
 MDMN.sg                  1.42:  Dens Mud Min 
 MDMX.sg                  1.42:  Dens Mud Max 
 MOIL.                    55.7:  Run Mud Oil % 
 MOWR.                   71:29:  Run Mud OWR 
 MSND.                     0.1:  Run Mud Sand % 
 MSOL.                    19.9:  Run Mud Solids% 
 DFV .spqt               83.00:  Mud Viscosity 
 MWOD.in                  5.15:  MWD Tool OD 
 MWSI.                      No:  Serv Intrp, MWD 
 OTIM.hr                120.59:  Time Operating 
 PCON.           Look Like New:  Pad Condition 
 PMAX.psia            11292.93:  Press Op, Max 
 PV  .cP                 27.00:  Mud PV 
 RUN .                     400:  Run Number 
 ROPA.m/hr               14.00:  ROP Avg 
 ROPN.m/hr                9.00:  ROP Min 
 ROPX.m/hr               18.00:  ROP Max 
 RPMA.rpm               130.00:  RPM Surface Avg 
 RPMN.rpm               100.00:  RPM Surface Min 
 RPMX.rpm               140.00:  RPM Surface Max 
 RRUN.                    0400:  Rig Run Number 
 RTIM.hr                 38.60:  Time Reaming 
 SAZI.deg               149.55:  Azm, Start 
 SDEP.m                3180.01:  Start Depth 
 SIDD.                      No:  Serv Intrp, DD 
 SINC.deg                68.42:  Inc, Start 
 SPPA.psig             4400.00:  SPP Avg 
 SPPN.psig             3580.00:  SPP Min 
 SPPX.psig             4850.00:  SPP Max 
 STIM.      12.30.00 24-Apr-21:  Start Time 
 SVCS.                 DD, MWD:  Services 
 SVER.                    9.20:  Sperry Version 
 TDAT.m                 438.00:  Tot Depth Attmp 
 TDDF.                      No:  Trip for DD 
 TDLG.m                 438.00:  Tot Depth Loggd 
 TFF .                      No:  Trip for Fail 
 TQAA.f-kp               11.00:  Torque Abs Avg 
 TQAN.f-kp                9.00:  Torque Abs Min 
 TQAX.f-kp               14.00:  Torque Abs Max 
 TRRT.°/30m               0.04:  Turn Rotating 
 MRT .                    HCIM:  Maximum Recorded Temperature 
 TTMX.degC               84.31:  Max Tool Temp 
 VS01.                90521954:  Virtual Str1 SN 
 VS02.                90519327:  Virtual Str2 SN 
 VS03.                90522273:  Virtual Str3 SN 
 VS04.                11108038:  Virtual Str4 SN 
 VS05.                12258760:  Virtual Str5 SN 
 WBMN.klb                 1.00:  WOB Min 
 WITN.           Adil Mammadov:  Customer Rep 
 WITN.         Alex Yadullayev:  Customer Rep 2 
 WOBA.klb                 6.00:  WOB Avg 
 WOBX.klb                 9.00:  WOB Max 
 YP  .lhf2               31.00:  Yield Point 
~Curve Information Block
#MNEM.UNIT                 API CODE     Curve Description
#---------               -----------    ---------------------------
 TIME.HHMMSS            00 000 000 000:  GT Time & Date
 GTDEPTH.m              00 000 000 000:  GT Depth
 GTPQH.psia             00 000 000 000:  GT HR Quartz Pressure
 GTTQ.degC              00 000 000 000:  GT Quartz Temperature
 GTTN.NONE              00 000 000 000:  GT Test Number
 GTET.sec               00 000 000 000:  GT Elapsed Test Time
 GTTVD.m                00 000 000 000:  GT True Vertical Depth
#Other Information
#
#WARRANTY: Halliburton will use its best efforts to furnish customers with 
#accurate information and interpretations that are part of, and incident to, the services 
#provided.  However, Halliburton cannot and does not warrant the accuracy 
#or correctness of such information and interpretations.  Under no circumstances should any 
#such information or interpretation be relied upon as the sole basis for any drilling, 
#completion, production, or financial decision or any procedure involving any risk to the 
#safety of any drilling venture, drilling rig or its crew or any other third party.  The 
#Customer has full responsibility for all drilling, completion and production operation.  
#Halliburton makes no representations or warranties, either expressed or 
#implied, including, but not limited to, the implied warranties of merchantability or fitness 
#for a particular purpose, with respect to the services rendered.  In no event will 
#Halliburton be liable for failure to obtain any particular results or for 
#any damages, including, but not limited to, indirect, special or consequential damages, 
#resulting from the use of any information or interpretation provided by Halliburton.
#
~A           TIME           GTDEPTH  GTPQH  GTTQ  GTTN  GTET   GTTVD  
# ...
   23:14:55.546.26-Apr-2021 3222.01 4279.56 69.62 1.00  69.02 2649.76
   23:14:55.746.26-Apr-2021 3222.01 4279.56 69.62 1.00  69.22 2649.76
   23:14:55.946.26-Apr-2021 3222.01 4279.61 69.62 1.00  69.42 2649.76
   23:14:56.146.26-Apr-2021 3222.01 4279.69 69.62 1.00  69.62 2649.76
   23:14:56.346.26-Apr-2021 3222.01 4279.68 69.62 1.00  69.82 2649.76
   23:14:56.546.26-Apr-2021 3222.01 4279.46 69.62 1.00  70.02 2649.76
   23:14:56.746.26-Apr-2021 3222.01 4279.46 69.62 1.00  70.22 2649.76
   23:14:56.946.26-Apr-2021 3222.01 4279.47 69.62 1.00  70.42 2649.76
   23:14:57.146.26-Apr-2021 3222.01 4279.63 69.62 1.00  70.62 2649.76
   23:14:57.346.26-Apr-2021 3222.01 4279.35 69.62 1.00  70.82 2649.76
   23:14:57.547.26-Apr-2021 3222.01 4278.90 69.62 1.00  71.02 2649.76
   23:14:57.747.26-Apr-2021 3222.01 4278.90 69.62 1.00  71.22 2649.76
   23:14:57.947.26-Apr-2021 3222.01 4279.59 69.62 1.00  71.42 2649.76
   23:14:58.147.26-Apr-2021 3222.01 4279.62 69.62 1.00  71.62 2649.76
   23:14:58.347.26-Apr-2021 3222.01 4279.53 69.62 1.00  71.82 2649.76
   23:14:58.547.26-Apr-2021 3222.01 4279.46 69.62 1.00  72.02 2649.76
   23:14:58.747.26-Apr-2021 3222.01 4279.46 69.62 1.00  72.22 2649.76
   23:14:58.947.26-Apr-2021 3222.01 4279.83 69.62 1.00  72.42 2649.76
   23:14:59.147.26-Apr-2021 3222.01 4279.68 69.62 1.00  72.62 2649.76
   23:14:59.347.26-Apr-2021 3222.01 4279.67 69.61 1.00  72.82 2649.76
   23:14:59.547.26-Apr-2021 3222.01 4279.32 69.61 1.00  73.02 2649.76
   23:14:59.747.26-Apr-2021 3222.01 4279.32 69.61 1.00  73.22 2649.76
   23:14:59.947.26-Apr-2021 3222.01 4279.50 69.61 1.00  73.42 2649.76
   23:15:00.147.26-Apr-2021 3222.01 4279.77 69.61 1.00  73.62 2649.76
   23:15:00.347.26-Apr-2021 3222.01 4279.26 69.61 1.00  73.82 2649.76
   23:15:00.547.26-Apr-2021 3222.01 4279.19 69.61 1.00  74.02 2649.76
   23:15:00.747.26-Apr-2021 3222.01 4279.19 69.61 1.00  74.22 2649.76
   23:15:00.948.26-Apr-2021 3222.01 4279.67 69.61 1.00  74.42 2649.76
   23:15:01.148.26-Apr-2021 3222.01 4279.75 69.61 1.00  74.62 2649.76
   23:15:01.348.26-Apr-2021 3222.01 4279.74 69.61 1.00  74.82 2649.76
   23:15:01.548.26-Apr-2021 3222.01 4279.52 69.61 1.00  75.02 2649.76
   23:15:01.748.26-Apr-2021 3222.01 4279.52 69.61 1.00  75.22 2649.76
   23:15:01.948.26-Apr-2021 3222.01 4279.67 69.61 1.00  75.42 2649.76
   23:15:02.148.26-Apr-2021 3222.01 4279.66 69.61 1.00  75.62 2649.76
   23:15:02.348.26-Apr-2021 3222.01 4279.52 69.61 1.00  75.82 2649.76
   23:15:02.548.26-Apr-2021 3222.01 4279.45 69.61 1.00  76.02 2649.76
   23:15:02.748.26-Apr-2021 3222.01 4279.45 69.61 1.00  76.22 2649.76
   23:15:02.948.26-Apr-2021 3222.01 4279.32 69.61 1.00  76.42 2649.76
   23:15:03.148.26-Apr-2021 3222.01 4278.92 69.61 1.00  76.62 2649.76
   23:15:03.348.26-Apr-2021 3222.01 4279.49 69.61 1.00  76.82 2649.76
   23:15:03.548.26-Apr-2021 3222.01 4279.57 69.61 1.00  77.02 2649.76
   23:15:03.748.26-Apr-2021 3222.01 4279.57 69.61 1.00  77.22 2649.76
   23:15:03.948.26-Apr-2021 3222.01 4279.61 69.61 1.00  77.42 2649.76
   23:15:04.148.26-Apr-2021 3222.01 4279.51 69.61 1.00  77.62 2649.76
   23:15:04.349.26-Apr-2021 3222.01 4279.69 69.61 1.00  77.82 2649.76
   23:15:04.549.26-Apr-2021 3222.01 4279.74 69.61 1.00  78.02 2649.76
   23:15:04.749.26-Apr-2021 3222.01 4279.74 69.61 1.00  78.22 2649.76
   23:15:04.949.26-Apr-2021 3222.01 4279.52 69.61 1.00  78.42 2649.76
   23:15:05.149.26-Apr-2021 3222.01 4279.60 69.61 1.00  78.62 2649.76
   23:15:05.349.26-Apr-2021 3222.01 4279.53 69.61 1.00  78.82 2649.76
   23:15:05.549.26-Apr-2021 3222.01 4279.71 69.60 1.00  79.02 2649.76
   23:15:05.749.26-Apr-2021 3222.01 4279.71 69.60 1.00  79.22 2649.76
   23:15:05.949.26-Apr-2021 3222.01 4279.14 69.60 1.00  79.42 2649.76
   23:15:06.149.26-Apr-2021 3222.01 4279.49 69.60 1.00  79.62 2649.76
   23:15:06.349.26-Apr-2021 3222.01 4279.69 69.60 1.00  79.82 2649.76
   23:15:06.549.26-Apr-2021 3222.01 4279.62 69.60 1.00  80.02 2649.76
   23:15:06.749.26-Apr-2021 3222.01 4279.62 69.60 1.00  80.22 2649.76
   23:15:06.949.26-Apr-2021 3222.01 4279.38 69.60 1.00  80.42 2649.76
   23:15:07.149.26-Apr-2021 3222.01 4279.17 69.60 1.00  80.62 2649.76
   23:15:07.349.26-Apr-2021 3222.01 4279.80 69.60 1.00  80.82 2649.76
   23:15:07.549.26-Apr-2021 3222.01 4279.73 69.60 1.00  81.02 2649.76
   23:15:07.750.26-Apr-2021 3222.01 4279.73 69.60 1.00  81.22 2649.76
   23:15:07.950.26-Apr-2021 3222.01 4279.27 69.60 1.00  81.42 2649.76
   23:15:08.150.26-Apr-2021 3222.01 4279.16 69.60 1.00  81.62 2649.76
   23:15:08.350.26-Apr-2021 3222.01 4279.61 69.60 1.00  81.82 2649.76
   23:15:08.550.26-Apr-2021 3222.01 4279.76 69.60 1.00  82.02 2649.76
   23:15:08.750.26-Apr-2021 3222.01 4279.76 69.60 1.00  82.22 2649.76
   23:15:08.950.26-Apr-2021 3222.01 4279.40 69.60 1.00  82.42 2649.76
   23:15:09.150.26-Apr-2021 3222.01 4279.55 69.60 1.00  82.62 2649.76
   23:15:09.350.26-Apr-2021 3222.01 4279.78 69.60 1.00  82.82 2649.76
   23:15:09.550.26-Apr-2021 3222.01 4279.79 69.60 1.00  83.02 2649.76
   23:15:09.750.26-Apr-2021 3222.01 4279.79 69.60 1.00  83.22 2649.76
   23:15:09.950.26-Apr-2021 3222.01 4279.56 69.60 1.00  83.42 2649.76
   23:15:10.150.26-Apr-2021 3222.01 4279.74 69.60 1.00  83.62 2649.76
   23:15:10.350.26-Apr-2021 3222.01 4279.70 69.60 1.00  83.82 2649.76
   23:15:10.550.26-Apr-2021 3222.01 4279.72 69.60 1.00  84.02 2649.76
   23:15:10.750.26-Apr-2021 3222.01 4279.72 69.60 1.00  84.22 2649.76
   23:15:10.950.26-Apr-2021 3222.01 4279.54 69.60 1.00  84.42 2649.76
   23:15:11.151.26-Apr-2021 3222.01 4279.48 69.60 1.00  84.62 2649.76
   23:15:11.351.26-Apr-2021 3222.01 4279.27 69.60 1.00  84.82 2649.76
   23:15:11.551.26-Apr-2021 3222.01 4279.06 69.60 1.00  85.02 2649.76
   23:15:11.751.26-Apr-2021 3222.01 4279.06 69.60 1.00  85.22 2649.76
   23:15:11.951.26-Apr-2021 3222.01 4279.58 69.59 1.00  85.43 2649.76
   23:15:12.151.26-Apr-2021 3222.01 4279.64 69.59 1.00  85.63 2649.76
   23:15:12.351.26-Apr-2021 3222.01 4279.59 69.59 1.00  85.83 2649.76
   23:15:12.551.26-Apr-2021 3222.01 4279.64 69.59 1.00  86.03 2649.76
   23:15:12.751.26-Apr-2021 3222.01 4279.64 69.59 1.00  86.23 2649.76
   23:15:12.951.26-Apr-2021 3222.01 4279.85 69.59 1.00  86.43 2649.76
   23:15:13.151.26-Apr-2021 3222.01 4279.71 69.59 1.00  86.63 2649.76
   23:15:13.351.26-Apr-2021 3222.01 4279.58 69.59 1.00  86.83 2649.76
   23:15:13.551.26-Apr-2021 3222.01 4279.60 69.59 1.00  87.03 2649.76
   23:15:13.751.26-Apr-2021 3222.01 4279.60 69.59 1.00  87.23 2649.76
   23:15:13.951.26-Apr-2021 3222.01 4279.73 69.59 1.00  87.43 2649.76
   23:15:14.151.26-Apr-2021 3222.01 4279.04 69.59 1.00  87.63 2649.76
   23:15:14.351.26-Apr-2021 3222.01 4279.30 69.59 1.00  87.83 2649.76
   23:15:14.552.26-Apr-2021 3222.01 4279.55 69.59 1.00  88.03 2649.76
   23:15:14.752.26-Apr-2021 3222.01 4279.55 69.59 1.00  88.23 2649.76
   23:15:14.952.26-Apr-2021 3222.01 4279.65 69.59 1.00  88.43 2649.76
   23:15:15.152.26-Apr-2021 3222.01 4279.71 69.59 1.00  88.63 2649.76
   23:15:15.352.26-Apr-2021 3222.01 4279.25 69.59 1.00  88.83 2649.76
   23:15:15.552.26-Apr-2021 3222.01 4279.40 69.59 1.00  89.03 2649.76
   23:15:15.752.26-Apr-2021 3222.01 4279.40 69.59 1.00  89.23 2649.76
   23:15:15.952.26-Apr-2021 3222.01 4279.83 69.59 1.00  89.43 2649.76
   23:15:16.152.26-Apr-2021 3222.01 4279.63 69.59 1.00  89.63 2649.76
   23:15:16.352.26-Apr-2021 3222.01 4279.18 69.59 1.00  89.83 2649.76
   23:15:16.552.26-Apr-2021 3222.01 4279.27 69.59 1.00  90.03 2649.76
   23:15:16.752.26-Apr-2021 3222.01 4279.27 69.59 1.00  90.23 2649.76
   23:15:16.952.26-Apr-2021 3222.01 4279.72 69.59 1.00  90.43 2649.76
   23:15:17.152.26-Apr-2021 3222.01 4279.08 69.59 1.00  90.63 2649.76
   23:15:17.352.26-Apr-2021 3222.01 4279.42 69.59 1.00  90.83 2649.76
   23:15:17.552.26-Apr-2021 3222.01 4279.62 69.59 1.00  91.03 2649.76
   23:15:17.752.26-Apr-2021 3222.01 4279.62 69.59 1.00  91.23 2649.76
   23:15:17.953.26-Apr-2021 3222.01 4279.88 69.59 1.00  91.43 2649.76
   23:15:18.153.26-Apr-2021 3222.01 4279.75 69.59 1.00  91.63 2649.76
   23:15:18.353.26-Apr-2021 3222.01 4279.60 69.58 1.00  91.83 2649.76
