~Version Information
 VERS.                  2.0:   CWLS log ASCII Standard -VERSION 2.0
 WRAP.                   NO:   One line per depth step
~Well Information Block
#MNEM.UNIT     VALUE/NAME     DESCRIPTION
#---------     -----------    ---------------------------
 STRT.S             06:54:29 28-Apr-21: START TIME 06:54:29 28-Apr-21
 STOP.S             07:00:57 28-Apr-21: STOP TIME  07:00:57 28-Apr-21
 STEP.S                   0.00: STEP TIME
 NULL.                 -999.25: NULL VALUE
 DFWT.                        :  DIST FWL TEXT
 DFST.                        :  DIST FSL TEXT
 DMF .             Drill Floor:  DRILL MEAS FROM
 STIM.      02.00.00 12-Apr-21:  START TIME
 DATE.      02.00.00 02-May-21:  END TIME
 SPUD.               09-Apr-21:  SPUD DATE
 NREF.                    Grid:  NORTH REFERENCE
 HPTY.       Minimum Curvature:  HOLE POS TYPE
 DMOD.             Drill Model:  DRILL MOD DESC
 SVYD.                  Survey:  SURVEY DESC
 ILTD.               Lithology:  INTERP LTH DESC
 FTOP.          Formation Tops:  FORM TOPS DESC
 PDAT.          Mean Sea Level:  PERMANENT DATUM
 FLD .                     ACG:  FIELD NAME
 SON .        AZ-XX-0907021034:  JOB NUMBER
 CTRY.              Azerbaijan:  COUNTRY NAME
 WELL.                    E01x:  WELL NAME
 COMP.     BP Exploration (Caspian Sea) LTD.:  COMPANY
 UWI .            /AZE00001403:  UNIQUE WELL IDENTIFIER
 API .            /AZE00001403:  API NUMBER
 WTYP.                Deviated:  WELL TYPE
 MDS .        Operator Entered:  MAG DATA SOURCE
 BASE.              Azerbaijan:  LOGGING EQUIPMENT BASE LOCATION
 REGN.                   EESSA:  REGION
 PROV.                    Baku:  PROVINCE
 STAT.                    Baku:  STATE NAME
 SRVC.          Turan Drilling:  CONTRACTOR
 MWDS.                    Baku:  MWD SHOP
 JOBN.        AZ-XX-0907021034:  JOB TICKET NUMB
 RIG .                     DWG:  RIG NAME
 DOE .                     N/A:  DOE NUMBER
 DCON.         Sperry Drilling:  DIRECTNL CONTR
 UNIT.                     N/A:  LOGGING EQUIPMENT ID
 CNTY.                        :  COUNTY
 LOC .                        :  LOCATION
 LMF .             Drill Floor:  LOG MEASURED FROM
 TVDS.m                  43.16:  TVDSS CORRECTN
 LATI.deg                40.17:  LATITUDE
 LONG.deg                51.17:  LONGITUDE
 WHNS.m                  -5.90:  WELL HEAD N/S
 WHEW.m                  -6.61:  WELL HEAD E/W
 UTMX.m              514337.95:  UTM X
 UTMY.m             4448627.46:  UTM Y
 DFWL.m                   0.00:  DISTANCE FWL
 DFSL.m                   0.00:  DISTANCE FSL
 SDEP.m                2606.87:  START DEPTH
 TDD .m                3618.01:  TOTAL DEPTH (DRILLER)
 VSDR.deg               177.42:  VERT SEC DIRECT
 GVFD.g                   1.00:  GRAVITY FIELD
 MFLD.nT              50399.00:  MAGNETIC FIELD
 MDIP.deg                59.67:  MAGNETIC DIP
 MDEC.deg                 6.56:  MAGNETIC DECL
 GRDC.deg                 0.11:  GRID CORRECTION
 AZTC.deg                 6.45:  AZM TOTAL CORR
 EPD .m                   0.00:  ELEVATION
 EGL .m                   0.00:  GROUND ELEVATION
 WDMS.m                 176.20:  WD ELEV
 APD .m                  43.16:  DEPTH ABOVE PD
 DEP .m                2606.87:  DEPTH
 AGAP.m                  43.16:  AIR GAP
 VSEW.m                  -6.61:  VERT SEC E/W
 VSNS.m                  -5.90:  VERT SEC N/S
 EKB .m                  43.16:  KB ELEVATION
 EDF .m                  43.16:  DF ELEVATION
 TDL .m                 438.00:  TOTAL DEPTH (LOGGER)
 VSC .                       0:  VS TO CLOSURE
 MAGU.                 1855490:  MAGUTM CHECKSUM
~Parameter Information Block
#MNEM.UNIT       Value        Description
#---------     -----------    ---------------------------
 AV  .mps                 2.20:  Ann Velocity 
 AVMX.mps                 2.50:  Max Ann Veloc 
 AZIF.deg               150.21:  Azm, Final 
 BHAT.        Rotary Steerable:  BHA Type 
 BROT.°/30m               0.08:  Build Rotating 
 BS  .in                  6.50:  Bit Size 
 BSZ .in                  6.50:  Bit Size 
 BTPL.psig              108.00:  Bit Press Loss 
 CABU.                     Yes:  Customer Abuse 
 CGEO.           Emin Aliyarli:  Customer Geo 
 COMM.                     Ô8c:  Run Comments 1 
 TCS .hr                 74.20:  Time Ciculation Ended 
 CV  .mps                 3.63:  Crit Velocity 
 CVMX.mps                 3.66:  Max Crit Veloc 
 DD1 .         Intigam Rahimov:  Direct Drillr 1 
 DD2 .          Teymur Aghayev:  Direct Drillr 2 
 DDSV.               Geo-Pilot:  DD Service 
 DEFF.%                  97.00:  % Det Eff 
 DLRX.°/30m               1.63:  Dogleg Rot Max 
 DLSO.°/30m               0.00:  Dogleg Oriented 
 DLSX.°/30m               0.00:  Dogleg Str Max 
 DRET.      20.20.00 28-Apr-21:  Drill End Time 
 DRST.      04.45.00 26-Apr-21:  Drill Start Tim 
 DTIM.hr                 34.30:  Time Drilling 
 EDEP.m                3618.01:  End Depth 
 ENG1.           Amrah Tahirov:  Engineer 1 
 ENG2.         Bahruz Mehdiyev:  Engineer 2 
 ENG3.         Farhad Orujzade:  Engineer 3 
 ETIM.      19.00.00 29-Apr-21:  End Time 
 FLOI.gpm               370.00:  Flow In 
 FLON.gpm               300.00:  Flow In Min 
 FLOS.cptm                0.00:  Fluid Loss 
 FLOX.gpm               410.00:  Flow In Max 
 HFLO.                      No:  High Flow 
 HPRE.                      No:  High Pressure 
 HTEM.                      No:  High Temp 
 HYDO.m                   1.80:  Hydro Offset 
 IFIN.deg                67.19:  Inc, Final 
 IMAX.deg                68.42:  Inc Max 
 IMIN.deg                66.33:  Inc Min 
 IMND.m                3532.79:  Inc Min Depth 
 IMXD.m                3192.15:  Inc Max Depth 
 JARR.                      No:  Jarring 
 LETM.      20.20.00 28-Apr-21:  Log End Time 
 LOST.hr                     0:  Lost Rig Time 
 LSTM.      04.45.00 26-Apr-21:  Log Start Time 
 MDCL.ppm             36500.00:  Mud Chlorides 
 MDES.     Inversion Oil/Synthetic:  Mud Desc 
 DFD .sg                  1.42:  Mud Density 
 MDMN.sg                  1.42:  Dens Mud Min 
 MDMX.sg                  1.42:  Dens Mud Max 
 MOIL.                    55.7:  Run Mud Oil % 
 MOWR.                   71:29:  Run Mud OWR 
 MSND.                     0.1:  Run Mud Sand % 
 MSOL.                    19.9:  Run Mud Solids% 
 DFV .spqt               83.00:  Mud Viscosity 
 MWOD.in                  5.15:  MWD Tool OD 
 MWSI.                      No:  Serv Intrp, MWD 
 OTIM.hr                120.59:  Time Operating 
 PCON.           Look Like New:  Pad Condition 
 PMAX.psia            11292.93:  Press Op, Max 
 PV  .cP                 27.00:  Mud PV 
 RUN .                     400:  Run Number 
 ROPA.m/hr               14.00:  ROP Avg 
 ROPN.m/hr                9.00:  ROP Min 
 ROPX.m/hr               18.00:  ROP Max 
 RPMA.rpm               130.00:  RPM Surface Avg 
 RPMN.rpm               100.00:  RPM Surface Min 
 RPMX.rpm               140.00:  RPM Surface Max 
 RRUN.                    0400:  Rig Run Number 
 RTIM.hr                 38.60:  Time Reaming 
 SAZI.deg               149.55:  Azm, Start 
 SDEP.m                3180.01:  Start Depth 
 SIDD.                      No:  Serv Intrp, DD 
 SINC.deg                68.42:  Inc, Start 
 SPPA.psig             4400.00:  SPP Avg 
 SPPN.psig             3580.00:  SPP Min 
 SPPX.psig             4850.00:  SPP Max 
 STIM.      12.30.00 24-Apr-21:  Start Time 
 SVCS.                 DD, MWD:  Services 
 SVER.                    9.20:  Sperry Version 
 TDAT.m                 438.00:  Tot Depth Attmp 
 TDDF.                      No:  Trip for DD 
 TDLG.m                 438.00:  Tot Depth Loggd 
 TFF .                      No:  Trip for Fail 
 TQAA.f-kp               11.00:  Torque Abs Avg 
 TQAN.f-kp                9.00:  Torque Abs Min 
 TQAX.f-kp               14.00:  Torque Abs Max 
 TRRT.°/30m               0.04:  Turn Rotating 
 MRT .                    HCIM:  Maximum Recorded Temperature 
 TTMX.degC               84.31:  Max Tool Temp 
 VS01.                90521954:  Virtual Str1 SN 
 VS02.                90519327:  Virtual Str2 SN 
 VS03.                90522273:  Virtual Str3 SN 
 VS04.                11108038:  Virtual Str4 SN 
 VS05.                12258760:  Virtual Str5 SN 
 WBMN.klb                 1.00:  WOB Min 
 WITN.           Adil Mammadov:  Customer Rep 
 WITN.         Alex Yadullayev:  Customer Rep 2 
 WOBA.klb                 6.00:  WOB Avg 
 WOBX.klb                 9.00:  WOB Max 
 YP  .lhf2               31.00:  Yield Point 
~Curve Information Block
#MNEM.UNIT                 API CODE     Curve Description
#---------               -----------    ---------------------------
 TIME.HHMMSS            00 000 000 000:  GT Time & Date
 GTDEPTH.m              00 000 000 000:  GT Depth
 GTPQH.psia             00 000 000 000:  GT HR Quartz Pressure
 GTTQ.degC              00 000 000 000:  GT Quartz Temperature
 GTTN.NONE              00 000 000 000:  GT Test Number
 GTET.sec               00 000 000 000:  GT Elapsed Test Time
 GTTVD.m                00 000 000 000:  GT True Vertical Depth
#Other Information
#
#WARRANTY: Halliburton will use its best efforts to furnish customers with 
#accurate information and interpretations that are part of, and incident to, the services 
#provided.  However, Halliburton cannot and does not warrant the accuracy 
#or correctness of such information and interpretations.  Under no circumstances should any 
#such information or interpretation be relied upon as the sole basis for any drilling, 
#completion, production, or financial decision or any procedure involving any risk to the 
#safety of any drilling venture, drilling rig or its crew or any other third party.  The 
#Customer has full responsibility for all drilling, completion and production operation.  
#Halliburton makes no representations or warranties, either expressed or 
#implied, including, but not limited to, the implied warranties of merchantability or fitness 
#for a particular purpose, with respect to the services rendered.  In no event will 
#Halliburton be liable for failure to obtain any particular results or for 
#any damages, including, but not limited to, indirect, special or consequential damages, 
#resulting from the use of any information or interpretation provided by Halliburton.
#
~A           TIME           GTDEPTH  GTPQH  GTTQ  GTTN  GTET   GTTVD  
# ...
   06:56:47.792.28-Apr-2021 3473.01 3619.42 72.78 8.00 138.02 2748.71
   06:56:47.992.28-Apr-2021 3473.01 3619.42 72.78 8.00 138.22 2748.71
   06:56:48.192.28-Apr-2021 3473.01 3620.04 72.78 8.00 138.42 2748.71
   06:56:48.392.28-Apr-2021 3473.01 3619.76 72.78 8.00 138.62 2748.71
   06:56:48.592.28-Apr-2021 3473.01 3619.89 72.78 8.00 138.82 2748.71
   06:56:48.792.28-Apr-2021 3473.01 3619.02 72.78 8.00 139.02 2748.71
   06:56:48.992.28-Apr-2021 3473.01 3619.02 72.78 8.00 139.22 2748.71
   06:56:49.192.28-Apr-2021 3473.01 3619.94 72.77 8.00 139.42 2748.71
   06:56:49.392.28-Apr-2021 3473.01 3619.83 72.77 8.00 139.62 2748.71
   06:56:49.592.28-Apr-2021 3473.01 3619.85 72.77 8.00 139.82 2748.71
   06:56:49.792.28-Apr-2021 3473.01 3620.08 72.77 8.00 140.02 2748.71
   06:56:49.992.28-Apr-2021 3473.01 3620.08 72.77 8.00 140.22 2748.71
   06:56:50.192.28-Apr-2021 3473.01 3620.46 72.77 8.00 140.42 2748.71
   06:56:50.392.28-Apr-2021 3473.01 3620.27 72.77 8.00 140.62 2748.71
   06:56:50.592.28-Apr-2021 3473.01 3619.92 72.77 8.00 140.82 2748.71
   06:56:50.792.28-Apr-2021 3473.01 3634.93 72.77 8.00 141.02 2748.71
   06:56:50.992.28-Apr-2021 3473.01 3634.93 72.77 8.00 141.22 2748.71
   06:56:51.192.28-Apr-2021 3473.01 3650.59 72.77 8.00 141.42 2748.71
   06:56:51.392.28-Apr-2021 3473.01 3650.66 72.77 8.00 141.62 2748.71
   06:56:51.592.28-Apr-2021 3473.01 3650.62 72.77 8.00 141.82 2748.71
   06:56:51.792.28-Apr-2021 3473.01 3650.72 72.77 8.00 142.02 2748.71
   06:56:51.992.28-Apr-2021 3473.01 3650.72 72.77 8.00 142.22 2748.71
   06:56:52.192.28-Apr-2021 3473.01 3650.72 72.77 8.00 142.42 2748.71
   06:56:52.392.28-Apr-2021 3473.01 3650.81 72.77 8.00 142.62 2748.71
   06:56:52.592.28-Apr-2021 3473.01 3650.62 72.77 8.00 142.82 2748.71
   06:56:52.792.28-Apr-2021 3473.01 3651.01 72.77 8.00 143.02 2748.71
   06:56:52.992.28-Apr-2021 3473.01 3651.01 72.77 8.00 143.22 2748.71
   06:56:53.193.28-Apr-2021 3473.01 3651.04 72.77 8.00 143.42 2748.71
   06:56:53.393.28-Apr-2021 3473.01 3651.01 72.76 8.00 143.62 2748.71
   06:56:53.593.28-Apr-2021 3473.01 3650.96 72.76 8.00 143.82 2748.71
   06:56:53.793.28-Apr-2021 3473.01 3651.04 72.76 8.00 144.02 2748.71
   06:56:53.993.28-Apr-2021 3473.01 3651.04 72.76 8.00 144.22 2748.71
   06:56:54.193.28-Apr-2021 3473.01 3651.01 72.76 8.00 144.42 2748.71
   06:56:54.393.28-Apr-2021 3473.01 3650.95 72.76 8.00 144.62 2748.71
   06:56:54.593.28-Apr-2021 3473.01 3650.95 72.76 8.00 144.82 2748.71
   06:56:54.793.28-Apr-2021 3473.01 3650.98 72.76 8.00 145.02 2748.71
   06:56:54.993.28-Apr-2021 3473.01 3650.98 72.76 8.00 145.22 2748.71
   06:56:55.193.28-Apr-2021 3473.01 3651.02 72.76 8.00 145.42 2748.71
   06:56:55.393.28-Apr-2021 3473.01 3650.72 72.76 8.00 145.62 2748.71
   06:56:55.593.28-Apr-2021 3473.01 3651.23 72.76 8.00 145.82 2748.71
   06:56:55.793.28-Apr-2021 3473.01 3651.10 72.76 8.00 146.02 2748.71
   06:56:55.993.28-Apr-2021 3473.01 3651.10 72.76 8.00 146.22 2748.71
   06:56:56.193.28-Apr-2021 3473.01 3650.93 72.76 8.00 146.42 2748.71
   06:56:56.393.28-Apr-2021 3473.01 3651.10 72.76 8.00 146.62 2748.71
   06:56:56.593.28-Apr-2021 3473.01 3651.14 72.76 8.00 146.82 2748.71
   06:56:56.793.28-Apr-2021 3473.01 3651.09 72.76 8.00 147.02 2748.71
   06:56:56.993.28-Apr-2021 3473.01 3651.09 72.76 8.00 147.22 2748.71
   06:56:57.193.28-Apr-2021 3473.01 3651.24 72.76 8.00 147.42 2748.71
   06:56:57.393.28-Apr-2021 3473.01 3651.11 72.76 8.00 147.62 2748.71
   06:56:57.593.28-Apr-2021 3473.01 3651.14 72.76 8.00 147.82 2748.71
   06:56:57.793.28-Apr-2021 3473.01 3651.01 72.75 8.00 148.02 2748.71
   06:56:57.993.28-Apr-2021 3473.01 3651.01 72.75 8.00 148.22 2748.71
   06:56:58.193.28-Apr-2021 3473.01 3650.87 72.75 8.00 148.42 2748.71
   06:56:58.393.28-Apr-2021 3473.01 3651.22 72.75 8.00 148.62 2748.71
   06:56:58.593.28-Apr-2021 3473.01 3651.12 72.75 8.00 148.82 2748.71
   06:56:58.793.28-Apr-2021 3473.01 3651.09 72.75 8.00 149.02 2748.71
   06:56:58.993.28-Apr-2021 3473.01 3651.09 72.75 8.00 149.22 2748.71
   06:56:59.193.28-Apr-2021 3473.01 3651.08 72.75 8.00 149.42 2748.71
   06:56:59.393.28-Apr-2021 3473.01 3651.08 72.75 8.00 149.62 2748.71
   06:56:59.593.28-Apr-2021 3473.01 3651.09 72.75 8.00 149.82 2748.71
   06:56:59.793.28-Apr-2021 3473.01 3651.04 72.75 8.00 150.02 2748.71
   06:56:59.994.28-Apr-2021 3473.01 3651.04 72.75 8.00 150.22 2748.71
   06:57:00.194.28-Apr-2021 3473.01 3651.03 72.75 8.00 150.42 2748.71
   06:57:00.394.28-Apr-2021 3473.01 3651.06 72.75 8.00 150.62 2748.71
   06:57:00.594.28-Apr-2021 3473.01 3651.04 72.75 8.00 150.82 2748.71
   06:57:00.794.28-Apr-2021 3473.01 3651.00 72.75 8.00 151.02 2748.71
   06:57:00.994.28-Apr-2021 3473.01 3651.00 72.75 8.00 151.22 2748.71
   06:57:01.194.28-Apr-2021 3473.01 3651.14 72.75 8.00 151.42 2748.71
   06:57:01.394.28-Apr-2021 3473.01 3651.14 72.75 8.00 151.62 2748.71
   06:57:01.594.28-Apr-2021 3473.01 3651.05 72.75 8.00 151.82 2748.71
   06:57:01.794.28-Apr-2021 3473.01 3651.09 72.75 8.00 152.02 2748.71
   06:57:01.994.28-Apr-2021 3473.01 3651.09 72.75 8.00 152.22 2748.71
   06:57:02.194.28-Apr-2021 3473.01 3651.04 72.74 8.00 152.42 2748.71
   06:57:02.394.28-Apr-2021 3473.01 3651.09 72.74 8.00 152.62 2748.71
   06:57:02.594.28-Apr-2021 3473.01 3651.03 72.74 8.00 152.82 2748.71
   06:57:02.794.28-Apr-2021 3473.01 3651.09 72.74 8.00 153.02 2748.71
   06:57:02.994.28-Apr-2021 3473.01 3651.09 72.74 8.00 153.22 2748.71
   06:57:03.194.28-Apr-2021 3473.01 3651.02 72.74 8.00 153.42 2748.71
   06:57:03.394.28-Apr-2021 3473.01 3651.08 72.74 8.00 153.62 2748.71
   06:57:03.594.28-Apr-2021 3473.01 3650.82 72.74 8.00 153.82 2748.71
   06:57:03.794.28-Apr-2021 3473.01 3651.18 72.74 8.00 154.02 2748.71
   06:57:03.994.28-Apr-2021 3473.01 3651.18 72.74 8.00 154.22 2748.71
   06:57:04.194.28-Apr-2021 3473.01 3651.11 72.74 8.00 154.42 2748.71
   06:57:04.394.28-Apr-2021 3473.01 3650.76 72.74 8.00 154.62 2748.71
   06:57:04.594.28-Apr-2021 3473.01 3651.28 72.74 8.00 154.82 2748.71
   06:57:04.794.28-Apr-2021 3473.01 3651.12 72.74 8.00 155.02 2748.71
   06:57:04.994.28-Apr-2021 3473.01 3651.12 72.74 8.00 155.22 2748.71
   06:57:05.194.28-Apr-2021 3473.01 3651.07 72.74 8.00 155.42 2748.71
   06:57:05.394.28-Apr-2021 3473.01 3650.84 72.74 8.00 155.62 2748.71
   06:57:05.594.28-Apr-2021 3473.01 3651.24 72.74 8.00 155.82 2748.71
   06:57:05.794.28-Apr-2021 3473.01 3651.11 72.74 8.00 156.02 2748.71
   06:57:05.994.28-Apr-2021 3473.01 3651.11 72.74 8.00 156.22 2748.71
   06:57:06.194.28-Apr-2021 3473.01 3651.07 72.74 8.00 156.42 2748.71
   06:57:06.394.28-Apr-2021 3473.01 3651.07 72.74 8.00 156.62 2748.71
   06:57:06.594.28-Apr-2021 3473.01 3650.91 72.73 8.00 156.82 2748.71
   06:57:06.795.28-Apr-2021 3473.01 3651.10 72.73 8.00 157.02 2748.71
   06:57:06.995.28-Apr-2021 3473.01 3651.10 72.73 8.00 157.22 2748.71
   06:57:07.195.28-Apr-2021 3473.01 3651.10 72.73 8.00 157.42 2748.71
   06:57:07.395.28-Apr-2021 3473.01 3651.03 72.73 8.00 157.62 2748.71
   06:57:07.595.28-Apr-2021 3473.01 3651.11 72.73 8.00 157.82 2748.71
   06:57:07.795.28-Apr-2021 3473.01 3651.05 72.73 8.00 158.02 2748.71
   06:57:07.995.28-Apr-2021 3473.01 3651.05 72.73 8.00 158.22 2748.71
   06:57:08.195.28-Apr-2021 3473.01 3651.04 72.73 8.00 158.42 2748.71
   06:57:08.395.28-Apr-2021 3473.01 3651.02 72.73 8.00 158.62 2748.71
   06:57:08.595.28-Apr-2021 3473.01 3651.08 72.73 8.00 158.82 2748.71
   06:57:08.795.28-Apr-2021 3473.01 3651.01 72.73 8.00 159.02 2748.71
   06:57:08.995.28-Apr-2021 3473.01 3651.01 72.73 8.00 159.22 2748.71
   06:57:09.195.28-Apr-2021 3473.01 3651.01 72.73 8.00 159.42 2748.71
   06:57:09.395.28-Apr-2021 3473.01 3650.78 72.73 8.00 159.62 2748.71
   06:57:09.595.28-Apr-2021 3473.01 3651.19 72.73 8.00 159.82 2748.71
   06:57:09.795.28-Apr-2021 3473.01 3651.06 72.73 8.00 160.02 2748.71
   06:57:09.995.28-Apr-2021 3473.01 3651.06 72.73 8.00 160.22 2748.71
   06:57:10.195.28-Apr-2021 3473.01 3650.99 72.73 8.00 160.42 2748.71
   06:57:10.395.28-Apr-2021 3473.01 3651.09 72.73 8.00 160.62 2748.71
   06:57:10.595.28-Apr-2021 3473.01 3651.04 72.73 8.00 160.82 2748.71
