~Version Information
 VERS.                  2.0:   CWLS log ASCII Standard -VERSION 2.0
 WRAP.                   NO:   One line per depth step
~Well Information Block
#MNEM.UNIT     VALUE/NAME     DESCRIPTION
#---------     -----------    ---------------------------
 STRT.S             23:13:46 26-Apr-21: START TIME 23:13:46 26-Apr-21
 STOP.S             23:20:13 26-Apr-21: STOP TIME  23:20:13 26-Apr-21
 STEP.S                   0.00: STEP TIME
 NULL.                 -999.25: NULL VALUE
 DFWT.                        :  DIST FWL TEXT
 DFST.                        :  DIST FSL TEXT
 DMF .             Drill Floor:  DRILL MEAS FROM
 STIM.      02.00.00 12-Apr-21:  START TIME
 DATE.      02.00.00 02-May-21:  END TIME
 SPUD.               09-Apr-21:  SPUD DATE
 NREF.                    Grid:  NORTH REFERENCE
 HPTY.       Minimum Curvature:  HOLE POS TYPE
 DMOD.             Drill Model:  DRILL MOD DESC
 SVYD.                  Survey:  SURVEY DESC
 ILTD.               Lithology:  INTERP LTH DESC
 FTOP.          Formation Tops:  FORM TOPS DESC
 PDAT.          Mean Sea Level:  PERMANENT DATUM
 FLD .                     ACG:  FIELD NAME
 SON .        AZ-XX-0907021034:  JOB NUMBER
 CTRY.              Azerbaijan:  COUNTRY NAME
 WELL.                    E01x:  WELL NAME
 COMP.     BP Exploration (Caspian Sea) LTD.:  COMPANY
 UWI .            /AZE00001403:  UNIQUE WELL IDENTIFIER
 API .            /AZE00001403:  API NUMBER
 WTYP.                Deviated:  WELL TYPE
 MDS .        Operator Entered:  MAG DATA SOURCE
 BASE.              Azerbaijan:  LOGGING EQUIPMENT BASE LOCATION
 REGN.                   EESSA:  REGION
 PROV.                    Baku:  PROVINCE
 STAT.                    Baku:  STATE NAME
 SRVC.          Turan Drilling:  CONTRACTOR
 MWDS.                    Baku:  MWD SHOP
 JOBN.        AZ-XX-0907021034:  JOB TICKET NUMB
 RIG .                     DWG:  RIG NAME
 DOE .                     N/A:  DOE NUMBER
 DCON.         Sperry Drilling:  DIRECTNL CONTR
 UNIT.                     N/A:  LOGGING EQUIPMENT ID
 CNTY.                        :  COUNTY
 LOC .                        :  LOCATION
 LMF .             Drill Floor:  LOG MEASURED FROM
 TVDS.m                  43.16:  TVDSS CORRECTN
 LATI.deg                40.17:  LATITUDE
 LONG.deg                51.17:  LONGITUDE
 WHNS.m                  -5.90:  WELL HEAD N/S
 WHEW.m                  -6.61:  WELL HEAD E/W
 UTMX.m              514337.95:  UTM X
 UTMY.m             4448627.46:  UTM Y
 DFWL.m                   0.00:  DISTANCE FWL
 DFSL.m                   0.00:  DISTANCE FSL
 SDEP.m                2606.87:  START DEPTH
 TDD .m                3618.01:  TOTAL DEPTH (DRILLER)
 VSDR.deg               177.42:  VERT SEC DIRECT
 GVFD.g                   1.00:  GRAVITY FIELD
 MFLD.nT              50399.00:  MAGNETIC FIELD
 MDIP.deg                59.67:  MAGNETIC DIP
 MDEC.deg                 6.56:  MAGNETIC DECL
 GRDC.deg                 0.11:  GRID CORRECTION
 AZTC.deg                 6.45:  AZM TOTAL CORR
 EPD .m                   0.00:  ELEVATION
 EGL .m                   0.00:  GROUND ELEVATION
 WDMS.m                 176.20:  WD ELEV
 APD .m                  43.16:  DEPTH ABOVE PD
 DEP .m                2606.87:  DEPTH
 AGAP.m                  43.16:  AIR GAP
 VSEW.m                  -6.61:  VERT SEC E/W
 VSNS.m                  -5.90:  VERT SEC N/S
 EKB .m                  43.16:  KB ELEVATION
 EDF .m                  43.16:  DF ELEVATION
 TDL .m                 438.00:  TOTAL DEPTH (LOGGER)
 VSC .                       0:  VS TO CLOSURE
 MAGU.                 1855490:  MAGUTM CHECKSUM
~Parameter Information Block
#MNEM.UNIT       Value        Description
#---------     -----------    ---------------------------
 AV  .mps                 2.20:  Ann Velocity 
 AVMX.mps                 2.50:  Max Ann Veloc 
 AZIF.deg               150.21:  Azm, Final 
 BHAT.        Rotary Steerable:  BHA Type 
 BROT.°/30m               0.08:  Build Rotating 
 BS  .in                  6.50:  Bit Size 
 BSZ .in                  6.50:  Bit Size 
 BTPL.psig              108.00:  Bit Press Loss 
 CABU.                     Yes:  Customer Abuse 
 CGEO.           Emin Aliyarli:  Customer Geo 
 COMM.                     <MW:  Run Comments 1 
 TCS .hr                 74.20:  Time Ciculation Ended 
 CV  .mps                 3.63:  Crit Velocity 
 CVMX.mps                 3.66:  Max Crit Veloc 
 DD1 .         Intigam Rahimov:  Direct Drillr 1 
 DD2 .          Teymur Aghayev:  Direct Drillr 2 
 DDSV.               Geo-Pilot:  DD Service 
 DEFF.%                  97.00:  % Det Eff 
 DLRX.°/30m               1.63:  Dogleg Rot Max 
 DLSO.°/30m               0.00:  Dogleg Oriented 
 DLSX.°/30m               0.00:  Dogleg Str Max 
 DRET.      20.20.00 28-Apr-21:  Drill End Time 
 DRST.      04.45.00 26-Apr-21:  Drill Start Tim 
 DTIM.hr                 34.30:  Time Drilling 
 EDEP.m                3618.01:  End Depth 
 ENG1.           Amrah Tahirov:  Engineer 1 
 ENG2.         Bahruz Mehdiyev:  Engineer 2 
 ENG3.         Farhad Orujzade:  Engineer 3 
 ETIM.      19.00.00 29-Apr-21:  End Time 
 FLOI.gpm               370.00:  Flow In 
 FLON.gpm               300.00:  Flow In Min 
 FLOS.cptm                0.00:  Fluid Loss 
 FLOX.gpm               410.00:  Flow In Max 
 HFLO.                      No:  High Flow 
 HPRE.                      No:  High Pressure 
 HTEM.                      No:  High Temp 
 HYDO.m                   1.80:  Hydro Offset 
 IFIN.deg                67.19:  Inc, Final 
 IMAX.deg                68.42:  Inc Max 
 IMIN.deg                66.33:  Inc Min 
 IMND.m                3532.79:  Inc Min Depth 
 IMXD.m                3192.15:  Inc Max Depth 
 JARR.                      No:  Jarring 
 LETM.      20.20.00 28-Apr-21:  Log End Time 
 LOST.hr                     0:  Lost Rig Time 
 LSTM.      04.45.00 26-Apr-21:  Log Start Time 
 MDCL.ppm             36500.00:  Mud Chlorides 
 MDES.     Inversion Oil/Synthetic:  Mud Desc 
 DFD .sg                  1.42:  Mud Density 
 MDMN.sg                  1.42:  Dens Mud Min 
 MDMX.sg                  1.42:  Dens Mud Max 
 MOIL.                    55.7:  Run Mud Oil % 
 MOWR.                   71:29:  Run Mud OWR 
 MSND.                     0.1:  Run Mud Sand % 
 MSOL.                    19.9:  Run Mud Solids% 
 DFV .spqt               83.00:  Mud Viscosity 
 MWOD.in                  5.15:  MWD Tool OD 
 MWSI.                      No:  Serv Intrp, MWD 
 OTIM.hr                120.59:  Time Operating 
 PCON.           Look Like New:  Pad Condition 
 PMAX.psia            11292.93:  Press Op, Max 
 PV  .cP                 27.00:  Mud PV 
 RUN .                     400:  Run Number 
 ROPA.m/hr               14.00:  ROP Avg 
 ROPN.m/hr                9.00:  ROP Min 
 ROPX.m/hr               18.00:  ROP Max 
 RPMA.rpm               130.00:  RPM Surface Avg 
 RPMN.rpm               100.00:  RPM Surface Min 
 RPMX.rpm               140.00:  RPM Surface Max 
 RRUN.                    0400:  Rig Run Number 
 RTIM.hr                 38.60:  Time Reaming 
 SAZI.deg               149.55:  Azm, Start 
 SDEP.m                3180.01:  Start Depth 
 SIDD.                      No:  Serv Intrp, DD 
 SINC.deg                68.42:  Inc, Start 
 SPPA.psig             4400.00:  SPP Avg 
 SPPN.psig             3580.00:  SPP Min 
 SPPX.psig             4850.00:  SPP Max 
 STIM.      12.30.00 24-Apr-21:  Start Time 
 SVCS.                 DD, MWD:  Services 
 SVER.                    9.20:  Sperry Version 
 TDAT.m                 438.00:  Tot Depth Attmp 
 TDDF.                      No:  Trip for DD 
 TDLG.m                 438.00:  Tot Depth Loggd 
 TFF .                      No:  Trip for Fail 
 TQAA.f-kp               11.00:  Torque Abs Avg 
 TQAN.f-kp                9.00:  Torque Abs Min 
 TQAX.f-kp               14.00:  Torque Abs Max 
 TRRT.°/30m               0.04:  Turn Rotating 
 MRT .                    HCIM:  Maximum Recorded Temperature 
 TTMX.degC               84.31:  Max Tool Temp 
 VS01.                90521954:  Virtual Str1 SN 
 VS02.                90519327:  Virtual Str2 SN 
 VS03.                90522273:  Virtual Str3 SN 
 VS04.                11108038:  Virtual Str4 SN 
 VS05.                12258760:  Virtual Str5 SN 
 WBMN.klb                 1.00:  WOB Min 
 WITN.           Adil Mammadov:  Customer Rep 
 WITN.         Alex Yadullayev:  Customer Rep 2 
 WOBA.klb                 6.00:  WOB Avg 
 WOBX.klb                 9.00:  WOB Max 
 YP  .lhf2               31.00:  Yield Point 
~Curve Information Block
#MNEM.UNIT                 API CODE     Curve Description
#---------               -----------    ---------------------------
 TIME.HHMMSS            00 000 000 000:  GT Time & Date
 GTDEPTH.m              00 000 000 000:  GT Depth
 GTPQH.psia             00 000 000 000:  GT HR Quartz Pressure
 GTTQ.degC              00 000 000 000:  GT Quartz Temperature
 GTTN.NONE              00 000 000 000:  GT Test Number
 GTET.sec               00 000 000 000:  GT Elapsed Test Time
 GTTVD.m                00 000 000 000:  GT True Vertical Depth
#Other Information
#
#WARRANTY: Halliburton will use its best efforts to furnish customers with 
#accurate information and interpretations that are part of, and incident to, the services 
#provided.  However, Halliburton cannot and does not warrant the accuracy 
#or correctness of such information and interpretations.  Under no circumstances should any 
#such information or interpretation be relied upon as the sole basis for any drilling, 
#completion, production, or financial decision or any procedure involving any risk to the 
#safety of any drilling venture, drilling rig or its crew or any other third party.  The 
#Customer has full responsibility for all drilling, completion and production operation.  
#Halliburton makes no representations or warranties, either expressed or 
#implied, including, but not limited to, the implied warranties of merchantability or fitness 
#for a particular purpose, with respect to the services rendered.  In no event will 
#Halliburton be liable for failure to obtain any particular results or for 
#any damages, including, but not limited to, indirect, special or consequential damages, 
#resulting from the use of any information or interpretation provided by Halliburton.
#
~A           TIME           GTDEPTH  GTPQH  GTTQ  GTTN  GTET   GTTVD  
# ...
   23:17:13.586.26-Apr-2021 3222.01 4279.13 69.44 1.00 207.06 2649.76
   23:17:13.786.26-Apr-2021 3222.01 4279.13 69.44 1.00 207.26 2649.76
   23:17:13.987.26-Apr-2021 3222.01 4279.43 69.44 1.00 207.46 2649.76
   23:17:14.187.26-Apr-2021 3222.01 4278.55 69.44 1.00 207.66 2649.76
   23:17:14.387.26-Apr-2021 3222.01 4279.26 69.44 1.00 207.86 2649.76
   23:17:14.587.26-Apr-2021 3222.01 4279.35 69.44 1.00 208.06 2649.76
   23:17:14.787.26-Apr-2021 3222.01 4279.35 69.44 1.00 208.26 2649.76
   23:17:14.987.26-Apr-2021 3222.01 4279.53 69.43 1.00 208.46 2649.76
   23:17:15.187.26-Apr-2021 3222.01 4279.40 69.43 1.00 208.66 2649.76
   23:17:15.387.26-Apr-2021 3222.01 4279.35 69.43 1.00 208.86 2649.76
   23:17:15.587.26-Apr-2021 3222.01 4279.43 69.43 1.00 209.06 2649.76
   23:17:15.787.26-Apr-2021 3222.01 4279.43 69.43 1.00 209.26 2649.76
   23:17:15.987.26-Apr-2021 3222.01 4279.34 69.43 1.00 209.46 2649.76
   23:17:16.187.26-Apr-2021 3222.01 4279.28 69.43 1.00 209.66 2649.76
   23:17:16.387.26-Apr-2021 3222.01 4279.20 69.43 1.00 209.86 2649.76
   23:17:16.587.26-Apr-2021 3222.01 4279.24 69.43 1.00 210.06 2649.76
   23:17:16.787.26-Apr-2021 3222.01 4279.24 69.43 1.00 210.26 2649.76
   23:17:16.987.26-Apr-2021 3222.01 4279.10 69.43 1.00 210.46 2649.76
   23:17:17.187.26-Apr-2021 3222.01 4279.39 69.43 1.00 210.66 2649.76
   23:17:17.388.26-Apr-2021 3222.01 4279.32 69.43 1.00 210.86 2649.76
   23:17:17.588.26-Apr-2021 3222.01 4279.33 69.43 1.00 211.06 2649.76
   23:17:17.788.26-Apr-2021 3222.01 4279.33 69.43 1.00 211.26 2649.76
   23:17:17.988.26-Apr-2021 3222.01 4279.35 69.43 1.00 211.46 2649.76
   23:17:18.188.26-Apr-2021 3222.01 4279.46 69.43 1.00 211.66 2649.76
   23:17:18.388.26-Apr-2021 3222.01 4279.50 69.43 1.00 211.86 2649.76
   23:17:18.588.26-Apr-2021 3222.01 4279.37 69.43 1.00 212.06 2649.76
   23:17:18.788.26-Apr-2021 3222.01 4279.37 69.43 1.00 212.26 2649.76
   23:17:18.988.26-Apr-2021 3222.01 4279.24 69.43 1.00 212.46 2649.76
   23:17:19.188.26-Apr-2021 3222.01 4279.38 69.43 1.00 212.66 2649.76
   23:17:19.388.26-Apr-2021 3222.01 4279.33 69.43 1.00 212.86 2649.76
   23:17:19.588.26-Apr-2021 3222.01 4278.48 69.43 1.00 213.06 2649.76
   23:17:19.788.26-Apr-2021 3222.01 4278.48 69.43 1.00 213.26 2649.76
   23:17:19.988.26-Apr-2021 3222.01 4279.43 69.43 1.00 213.46 2649.76
   23:17:20.188.26-Apr-2021 3222.01 4279.41 69.43 1.00 213.66 2649.76
   23:17:20.388.26-Apr-2021 3222.01 4279.41 69.43 1.00 213.86 2649.76
   23:17:20.588.26-Apr-2021 3222.01 4279.34 69.43 1.00 214.06 2649.76
   23:17:20.789.26-Apr-2021 3222.01 4279.34 69.43 1.00 214.26 2649.76
   23:17:20.989.26-Apr-2021 3222.01 4279.38 69.43 1.00 214.46 2649.76
   23:17:21.189.26-Apr-2021 3222.01 4279.62 69.43 1.00 214.66 2649.76
   23:17:21.389.26-Apr-2021 3222.01 4279.46 69.43 1.00 214.86 2649.76
   23:17:21.589.26-Apr-2021 3222.01 4279.34 69.43 1.00 215.06 2649.76
   23:17:21.789.26-Apr-2021 3222.01 4279.34 69.43 1.00 215.26 2649.76
   23:17:21.989.26-Apr-2021 3222.01 4279.26 69.43 1.00 215.46 2649.76
   23:17:22.189.26-Apr-2021 3222.01 4279.54 69.43 1.00 215.66 2649.76
   23:17:22.389.26-Apr-2021 3222.01 4279.43 69.43 1.00 215.86 2649.76
   23:17:22.589.26-Apr-2021 3222.01 4278.64 69.43 1.00 216.06 2649.76
   23:17:22.789.26-Apr-2021 3222.01 4278.64 69.43 1.00 216.26 2649.76
   23:17:22.989.26-Apr-2021 3222.01 4279.36 69.43 1.00 216.46 2649.76
   23:17:23.189.26-Apr-2021 3222.01 4279.58 69.43 1.00 216.66 2649.76
   23:17:23.389.26-Apr-2021 3222.01 4279.55 69.43 1.00 216.86 2649.76
   23:17:23.589.26-Apr-2021 3222.01 4279.41 69.43 1.00 217.06 2649.76
   23:17:23.789.26-Apr-2021 3222.01 4279.41 69.43 1.00 217.26 2649.76
   23:17:23.989.26-Apr-2021 3222.01 4279.45 69.42 1.00 217.46 2649.76
   23:17:24.190.26-Apr-2021 3222.01 4279.48 69.42 1.00 217.66 2649.76
   23:17:24.390.26-Apr-2021 3222.01 4279.31 69.42 1.00 217.86 2649.76
   23:17:24.590.26-Apr-2021 3222.01 4279.27 69.42 1.00 218.06 2649.76
   23:17:24.790.26-Apr-2021 3222.01 4279.27 69.42 1.00 218.26 2649.76
   23:17:24.990.26-Apr-2021 3222.01 4279.25 69.42 1.00 218.46 2649.76
   23:17:25.190.26-Apr-2021 3222.01 4278.42 69.42 1.00 218.66 2649.76
   23:17:25.390.26-Apr-2021 3222.01 4279.22 69.42 1.00 218.86 2649.76
   23:17:25.590.26-Apr-2021 3222.01 4279.37 69.42 1.00 219.06 2649.76
   23:17:25.790.26-Apr-2021 3222.01 4279.37 69.42 1.00 219.26 2649.76
   23:17:25.990.26-Apr-2021 3222.01 4279.33 69.42 1.00 219.46 2649.76
   23:17:26.190.26-Apr-2021 3222.01 4279.34 69.42 1.00 219.66 2649.76
   23:17:26.390.26-Apr-2021 3222.01 4279.35 69.42 1.00 219.86 2649.76
   23:17:26.590.26-Apr-2021 3222.01 4279.51 69.42 1.00 220.06 2649.76
   23:17:26.790.26-Apr-2021 3222.01 4279.51 69.42 1.00 220.26 2649.76
   23:17:26.990.26-Apr-2021 3222.01 4279.36 69.42 1.00 220.46 2649.76
   23:17:27.190.26-Apr-2021 3222.01 4279.31 69.42 1.00 220.66 2649.76
   23:17:27.390.26-Apr-2021 3222.01 4279.28 69.42 1.00 220.86 2649.76
   23:17:27.591.26-Apr-2021 3222.01 4279.40 69.42 1.00 221.06 2649.76
   23:17:27.791.26-Apr-2021 3222.01 4279.40 69.42 1.00 221.26 2649.76
   23:17:27.991.26-Apr-2021 3222.01 4278.52 69.42 1.00 221.46 2649.76
   23:17:28.191.26-Apr-2021 3222.01 4279.19 69.42 1.00 221.67 2649.76
   23:17:28.391.26-Apr-2021 3222.01 4279.42 69.42 1.00 221.87 2649.76
   23:17:28.591.26-Apr-2021 3222.01 4279.41 69.42 1.00 222.07 2649.76
   23:17:28.791.26-Apr-2021 3222.01 4279.41 69.42 1.00 222.27 2649.76
   23:17:28.991.26-Apr-2021 3222.01 4279.31 69.42 1.00 222.47 2649.76
   23:17:29.191.26-Apr-2021 3222.01 4278.56 69.42 1.00 222.67 2649.76
   23:17:29.391.26-Apr-2021 3222.01 4279.53 69.42 1.00 222.87 2649.76
   23:17:29.591.26-Apr-2021 3222.01 4279.63 69.42 1.00 223.07 2649.76
   23:17:29.791.26-Apr-2021 3222.01 4279.63 69.42 1.00 223.27 2649.76
   23:17:29.991.26-Apr-2021 3222.01 4279.35 69.42 1.00 223.47 2649.76
   23:17:30.191.26-Apr-2021 3222.01 4278.53 69.42 1.00 223.67 2649.76
   23:17:30.391.26-Apr-2021 3222.01 4279.27 69.42 1.00 223.87 2649.76
   23:17:30.591.26-Apr-2021 3222.01 4279.54 69.42 1.00 224.07 2649.76
   23:17:30.791.26-Apr-2021 3222.01 4279.54 69.42 1.00 224.27 2649.76
   23:17:30.992.26-Apr-2021 3222.01 4278.68 69.42 1.00 224.47 2649.76
   23:17:31.192.26-Apr-2021 3222.01 4279.26 69.42 1.00 224.67 2649.76
   23:17:31.392.26-Apr-2021 3222.01 4279.36 69.42 1.00 224.87 2649.76
   23:17:31.592.26-Apr-2021 3222.01 4279.59 69.42 1.00 225.07 2649.76
   23:17:31.792.26-Apr-2021 3222.01 4279.59 69.42 1.00 225.27 2649.76
   23:17:31.992.26-Apr-2021 3222.01 4279.41 69.42 1.00 225.47 2649.76
   23:17:32.192.26-Apr-2021 3222.01 4279.34 69.42 1.00 225.67 2649.76
   23:17:32.392.26-Apr-2021 3222.01 4279.46 69.42 1.00 225.87 2649.76
   23:17:32.592.26-Apr-2021 3222.01 4279.45 69.42 1.00 226.07 2649.76
   23:17:32.792.26-Apr-2021 3222.01 4279.45 69.42 1.00 226.27 2649.76
   23:17:32.992.26-Apr-2021 3222.01 4279.26 69.42 1.00 226.47 2649.76
   23:17:33.192.26-Apr-2021 3222.01 4279.15 69.42 1.00 226.67 2649.76
   23:17:33.392.26-Apr-2021 3222.01 4279.22 69.42 1.00 226.87 2649.76
   23:17:33.592.26-Apr-2021 3222.01 4278.45 69.41 1.00 227.07 2649.76
   23:17:33.792.26-Apr-2021 3222.01 4278.45 69.41 1.00 227.27 2649.76
   23:17:33.992.26-Apr-2021 3222.01 4279.35 69.41 1.00 227.47 2649.76
   23:17:34.192.26-Apr-2021 3222.01 4279.35 69.41 1.00 227.67 2649.76
   23:17:34.393.26-Apr-2021 3222.01 4279.33 69.41 1.00 227.87 2649.76
   23:17:34.593.26-Apr-2021 3222.01 4279.35 69.41 1.00 228.07 2649.76
   23:17:34.793.26-Apr-2021 3222.01 4279.35 69.41 1.00 228.27 2649.76
   23:17:34.993.26-Apr-2021 3222.01 4279.53 69.41 1.00 228.47 2649.76
   23:17:35.193.26-Apr-2021 3222.01 4279.47 69.41 1.00 228.67 2649.76
   23:17:35.393.26-Apr-2021 3222.01 4279.37 69.41 1.00 228.87 2649.76
   23:17:35.593.26-Apr-2021 3222.01 4279.30 69.41 1.00 229.07 2649.76
   23:17:35.793.26-Apr-2021 3222.01 4279.30 69.41 1.00 229.27 2649.76
   23:17:35.993.26-Apr-2021 3222.01 4279.42 69.41 1.00 229.47 2649.76
   23:17:36.193.26-Apr-2021 3222.01 4279.28 69.41 1.00 229.67 2649.76
   23:17:36.393.26-Apr-2021 3222.01 4278.59 69.41 1.00 229.87 2649.76
