~Version Information
 VERS.                  2.0:   CWLS log ASCII Standard -VERSION 2.0
 WRAP.                   NO:   One line per depth step
~Well Information Block
#MNEM.UNIT     VALUE/NAME     DESCRIPTION
#---------     -----------    ---------------------------
 STRT.S             18:57:18 28-Apr-21: START TIME 18:57:18 28-Apr-21
 STOP.S             19:03:45 28-Apr-21: STOP TIME  19:03:45 28-Apr-21
 STEP.S                   0.00: STEP TIME
 NULL.                 -999.25: NULL VALUE
 DFWT.                        :  DIST FWL TEXT
 DFST.                        :  DIST FSL TEXT
 DMF .             Drill Floor:  DRILL MEAS FROM
 STIM.      02.00.00 12-Apr-21:  START TIME
 DATE.      02.00.00 02-May-21:  END TIME
 SPUD.               09-Apr-21:  SPUD DATE
 NREF.                    Grid:  NORTH REFERENCE
 HPTY.       Minimum Curvature:  HOLE POS TYPE
 DMOD.             Drill Model:  DRILL MOD DESC
 SVYD.                  Survey:  SURVEY DESC
 ILTD.               Lithology:  INTERP LTH DESC
 FTOP.          Formation Tops:  FORM TOPS DESC
 PDAT.          Mean Sea Level:  PERMANENT DATUM
 FLD .                     ACG:  FIELD NAME
 SON .        AZ-XX-0907021034:  JOB NUMBER
 CTRY.              Azerbaijan:  COUNTRY NAME
 WELL.                    E01x:  WELL NAME
 COMP.     BP Exploration (Caspian Sea) LTD.:  COMPANY
 UWI .            /AZE00001403:  UNIQUE WELL IDENTIFIER
 API .            /AZE00001403:  API NUMBER
 WTYP.                Deviated:  WELL TYPE
 MDS .        Operator Entered:  MAG DATA SOURCE
 BASE.              Azerbaijan:  LOGGING EQUIPMENT BASE LOCATION
 REGN.                   EESSA:  REGION
 PROV.                    Baku:  PROVINCE
 STAT.                    Baku:  STATE NAME
 SRVC.          Turan Drilling:  CONTRACTOR
 MWDS.                    Baku:  MWD SHOP
 JOBN.        AZ-XX-0907021034:  JOB TICKET NUMB
 RIG .                     DWG:  RIG NAME
 DOE .                     N/A:  DOE NUMBER
 DCON.         Sperry Drilling:  DIRECTNL CONTR
 UNIT.                     N/A:  LOGGING EQUIPMENT ID
 CNTY.                        :  COUNTY
 LOC .                        :  LOCATION
 LMF .             Drill Floor:  LOG MEASURED FROM
 TVDS.m                  43.16:  TVDSS CORRECTN
 LATI.deg                40.17:  LATITUDE
 LONG.deg                51.17:  LONGITUDE
 WHNS.m                  -5.90:  WELL HEAD N/S
 WHEW.m                  -6.61:  WELL HEAD E/W
 UTMX.m              514337.95:  UTM X
 UTMY.m             4448627.46:  UTM Y
 DFWL.m                   0.00:  DISTANCE FWL
 DFSL.m                   0.00:  DISTANCE FSL
 SDEP.m                2606.87:  START DEPTH
 TDD .m                3618.01:  TOTAL DEPTH (DRILLER)
 VSDR.deg               177.42:  VERT SEC DIRECT
 GVFD.g                   1.00:  GRAVITY FIELD
 MFLD.nT              50399.00:  MAGNETIC FIELD
 MDIP.deg                59.67:  MAGNETIC DIP
 MDEC.deg                 6.56:  MAGNETIC DECL
 GRDC.deg                 0.11:  GRID CORRECTION
 AZTC.deg                 6.45:  AZM TOTAL CORR
 EPD .m                   0.00:  ELEVATION
 EGL .m                   0.00:  GROUND ELEVATION
 WDMS.m                 176.20:  WD ELEV
 APD .m                  43.16:  DEPTH ABOVE PD
 DEP .m                2606.87:  DEPTH
 AGAP.m                  43.16:  AIR GAP
 VSEW.m                  -6.61:  VERT SEC E/W
 VSNS.m                  -5.90:  VERT SEC N/S
 EKB .m                  43.16:  KB ELEVATION
 EDF .m                  43.16:  DF ELEVATION
 TDL .m                 438.00:  TOTAL DEPTH (LOGGER)
 VSC .                       0:  VS TO CLOSURE
 MAGU.                 1855490:  MAGUTM CHECKSUM
~Parameter Information Block
#MNEM.UNIT       Value        Description
#---------     -----------    ---------------------------
 AV  .mps                 2.20:  Ann Velocity 
 AVMX.mps                 2.50:  Max Ann Veloc 
 AZIF.deg               150.21:  Azm, Final 
 BHAT.        Rotary Steerable:  BHA Type 
 BROT.°/30m               0.08:  Build Rotating 
 BS  .in                  6.50:  Bit Size 
 BSZ .in                  6.50:  Bit Size 
 BTPL.psig              108.00:  Bit Press Loss 
 CABU.                     Yes:  Customer Abuse 
 CGEO.           Emin Aliyarli:  Customer Geo 
 COMM.                     ´âi:  Run Comments 1 
 TCS .hr                 74.20:  Time Ciculation Ended 
 CV  .mps                 3.63:  Crit Velocity 
 CVMX.mps                 3.66:  Max Crit Veloc 
 DD1 .         Intigam Rahimov:  Direct Drillr 1 
 DD2 .          Teymur Aghayev:  Direct Drillr 2 
 DDSV.               Geo-Pilot:  DD Service 
 DEFF.%                  97.00:  % Det Eff 
 DLRX.°/30m               1.63:  Dogleg Rot Max 
 DLSO.°/30m               0.00:  Dogleg Oriented 
 DLSX.°/30m               0.00:  Dogleg Str Max 
 DRET.      20.20.00 28-Apr-21:  Drill End Time 
 DRST.      04.45.00 26-Apr-21:  Drill Start Tim 
 DTIM.hr                 34.30:  Time Drilling 
 EDEP.m                3618.01:  End Depth 
 ENG1.           Amrah Tahirov:  Engineer 1 
 ENG2.         Bahruz Mehdiyev:  Engineer 2 
 ENG3.         Farhad Orujzade:  Engineer 3 
 ETIM.      19.00.00 29-Apr-21:  End Time 
 FLOI.gpm               370.00:  Flow In 
 FLON.gpm               300.00:  Flow In Min 
 FLOS.cptm                0.00:  Fluid Loss 
 FLOX.gpm               410.00:  Flow In Max 
 HFLO.                      No:  High Flow 
 HPRE.                      No:  High Pressure 
 HTEM.                      No:  High Temp 
 HYDO.m                   1.80:  Hydro Offset 
 IFIN.deg                67.19:  Inc, Final 
 IMAX.deg                68.42:  Inc Max 
 IMIN.deg                66.33:  Inc Min 
 IMND.m                3532.79:  Inc Min Depth 
 IMXD.m                3192.15:  Inc Max Depth 
 JARR.                      No:  Jarring 
 LETM.      20.20.00 28-Apr-21:  Log End Time 
 LOST.hr                     0:  Lost Rig Time 
 LSTM.      04.45.00 26-Apr-21:  Log Start Time 
 MDCL.ppm             36500.00:  Mud Chlorides 
 MDES.     Inversion Oil/Synthetic:  Mud Desc 
 DFD .sg                  1.42:  Mud Density 
 MDMN.sg                  1.42:  Dens Mud Min 
 MDMX.sg                  1.42:  Dens Mud Max 
 MOIL.                    55.7:  Run Mud Oil % 
 MOWR.                   71:29:  Run Mud OWR 
 MSND.                     0.1:  Run Mud Sand % 
 MSOL.                    19.9:  Run Mud Solids% 
 DFV .spqt               83.00:  Mud Viscosity 
 MWOD.in                  5.15:  MWD Tool OD 
 MWSI.                      No:  Serv Intrp, MWD 
 OTIM.hr                120.59:  Time Operating 
 PCON.           Look Like New:  Pad Condition 
 PMAX.psia            11292.93:  Press Op, Max 
 PV  .cP                 27.00:  Mud PV 
 RUN .                     400:  Run Number 
 ROPA.m/hr               14.00:  ROP Avg 
 ROPN.m/hr                9.00:  ROP Min 
 ROPX.m/hr               18.00:  ROP Max 
 RPMA.rpm               130.00:  RPM Surface Avg 
 RPMN.rpm               100.00:  RPM Surface Min 
 RPMX.rpm               140.00:  RPM Surface Max 
 RRUN.                    0400:  Rig Run Number 
 RTIM.hr                 38.60:  Time Reaming 
 SAZI.deg               149.55:  Azm, Start 
 SDEP.m                3180.01:  Start Depth 
 SIDD.                      No:  Serv Intrp, DD 
 SINC.deg                68.42:  Inc, Start 
 SPPA.psig             4400.00:  SPP Avg 
 SPPN.psig             3580.00:  SPP Min 
 SPPX.psig             4850.00:  SPP Max 
 STIM.      12.30.00 24-Apr-21:  Start Time 
 SVCS.                 DD, MWD:  Services 
 SVER.                    9.20:  Sperry Version 
 TDAT.m                 438.00:  Tot Depth Attmp 
 TDDF.                      No:  Trip for DD 
 TDLG.m                 438.00:  Tot Depth Loggd 
 TFF .                      No:  Trip for Fail 
 TQAA.f-kp               11.00:  Torque Abs Avg 
 TQAN.f-kp                9.00:  Torque Abs Min 
 TQAX.f-kp               14.00:  Torque Abs Max 
 TRRT.°/30m               0.04:  Turn Rotating 
 MRT .                    HCIM:  Maximum Recorded Temperature 
 TTMX.degC               84.31:  Max Tool Temp 
 VS01.                90521954:  Virtual Str1 SN 
 VS02.                90519327:  Virtual Str2 SN 
 VS03.                90522273:  Virtual Str3 SN 
 VS04.                11108038:  Virtual Str4 SN 
 VS05.                12258760:  Virtual Str5 SN 
 WBMN.klb                 1.00:  WOB Min 
 WITN.           Adil Mammadov:  Customer Rep 
 WITN.         Alex Yadullayev:  Customer Rep 2 
 WOBA.klb                 6.00:  WOB Avg 
 WOBX.klb                 9.00:  WOB Max 
 YP  .lhf2               31.00:  Yield Point 
~Curve Information Block
#MNEM.UNIT                 API CODE     Curve Description
#---------               -----------    ---------------------------
 TIME.HHMMSS            00 000 000 000:  GT Time & Date
 GTDEPTH.m              00 000 000 000:  GT Depth
 GTPQH.psia             00 000 000 000:  GT HR Quartz Pressure
 GTTQ.degC              00 000 000 000:  GT Quartz Temperature
 GTTN.NONE              00 000 000 000:  GT Test Number
 GTET.sec               00 000 000 000:  GT Elapsed Test Time
 GTTVD.m                00 000 000 000:  GT True Vertical Depth
#Other Information
#
#WARRANTY: Halliburton will use its best efforts to furnish customers with 
#accurate information and interpretations that are part of, and incident to, the services 
#provided.  However, Halliburton cannot and does not warrant the accuracy 
#or correctness of such information and interpretations.  Under no circumstances should any 
#such information or interpretation be relied upon as the sole basis for any drilling, 
#completion, production, or financial decision or any procedure involving any risk to the 
#safety of any drilling venture, drilling rig or its crew or any other third party.  The 
#Customer has full responsibility for all drilling, completion and production operation.  
#Halliburton makes no representations or warranties, either expressed or 
#implied, including, but not limited to, the implied warranties of merchantability or fitness 
#for a particular purpose, with respect to the services rendered.  In no event will 
#Halliburton be liable for failure to obtain any particular results or for 
#any damages, including, but not limited to, indirect, special or consequential damages, 
#resulting from the use of any information or interpretation provided by Halliburton.
#
~A           TIME           GTDEPTH  GTPQH  GTTQ  GTTN   GTET   GTTVD  
   18:57:18.233.28-Apr-2021 3565.01 6111.13 75.68 11.00   0.00 2784.87
   18:57:18.433.28-Apr-2021 3565.01 6111.13 75.68 11.00   0.20 2784.87
   18:57:18.633.28-Apr-2021 3565.01 6109.05 75.68 11.00   0.40 2784.87
   18:57:18.833.28-Apr-2021 3565.01 6110.86 75.68 11.00   0.60 2784.87
   18:57:19.033.28-Apr-2021 3565.01 6109.01 75.68 11.00   0.80 2784.87
   18:57:19.233.28-Apr-2021 3565.01 6104.22 75.68 11.00   1.00 2784.87
   18:57:19.433.28-Apr-2021 3565.01 6104.22 75.68 11.00   1.20 2784.87
   18:57:19.633.28-Apr-2021 3565.01 6111.97 75.68 11.00   1.40 2784.87
   18:57:19.833.28-Apr-2021 3565.01 6112.01 75.68 11.00   1.60 2784.87
   18:57:20.033.28-Apr-2021 3565.01 6108.13 75.68 11.00   1.80 2784.87
   18:57:20.233.28-Apr-2021 3565.01 6108.48 75.68 11.00   2.00 2784.87
   18:57:20.434.28-Apr-2021 3565.01 6108.48 75.68 11.00   2.20 2784.87
   18:57:20.634.28-Apr-2021 3565.01 6110.38 75.67 11.00   2.40 2784.87
   18:57:20.834.28-Apr-2021 3565.01 6109.00 75.67 11.00   2.60 2784.87
   18:57:21.034.28-Apr-2021 3565.01 6108.10 75.67 11.00   2.80 2784.87
   18:57:21.234.28-Apr-2021 3565.01 6108.53 75.67 11.00   3.00 2784.87
   18:57:21.434.28-Apr-2021 3565.01 6108.53 75.67 11.00   3.20 2784.87
   18:57:21.634.28-Apr-2021 3565.01 6110.92 75.67 11.00   3.40 2784.87
   18:57:21.834.28-Apr-2021 3565.01 6107.66 75.67 11.00   3.60 2784.87
   18:57:22.034.28-Apr-2021 3565.01 6107.91 75.67 11.00   3.80 2784.87
   18:57:22.234.28-Apr-2021 3565.01 6106.83 75.67 11.00   4.00 2784.87
   18:57:22.434.28-Apr-2021 3565.01 6106.83 75.67 11.00   4.20 2784.87
   18:57:22.634.28-Apr-2021 3565.01 6109.79 75.67 11.00   4.40 2784.87
   18:57:22.834.28-Apr-2021 3565.01 6108.40 75.67 11.00   4.60 2784.87
   18:57:23.034.28-Apr-2021 3565.01 6109.48 75.67 11.00   4.80 2784.87
   18:57:23.234.28-Apr-2021 3565.01 6107.11 75.67 11.00   5.00 2784.87
   18:57:23.434.28-Apr-2021 3565.01 6107.11 75.67 11.00   5.20 2784.87
   18:57:23.634.28-Apr-2021 3565.01 6098.68 75.66 11.00   5.40 2784.87
   18:57:23.835.28-Apr-2021 3565.01 6108.80 75.66 11.00   5.60 2784.87
   18:57:24.035.28-Apr-2021 3565.01 6109.10 75.66 11.00   5.80 2784.87
   18:57:24.235.28-Apr-2021 3565.01 6108.46 75.66 11.00   6.00 2784.87
   18:57:24.435.28-Apr-2021 3565.01 6108.46 75.66 11.00   6.20 2784.87
   18:57:24.635.28-Apr-2021 3565.01 6105.00 75.66 11.00   6.40 2784.87
   18:57:24.835.28-Apr-2021 3565.01 6112.15 75.66 11.00   6.60 2784.87
   18:57:25.035.28-Apr-2021 3565.01 6110.56 75.66 11.00   6.80 2784.87
   18:57:25.235.28-Apr-2021 3565.01 6108.36 75.66 11.00   7.00 2784.87
   18:57:25.435.28-Apr-2021 3565.01 6108.36 75.66 11.00   7.20 2784.87
   18:57:25.635.28-Apr-2021 3565.01 6108.36 75.66 11.00   7.40 2784.87
   18:57:25.835.28-Apr-2021 3565.01 6113.42 75.66 11.00   7.60 2784.87
   18:57:26.035.28-Apr-2021 3565.01 6111.34 75.66 11.00   7.80 2784.87
   18:57:26.235.28-Apr-2021 3565.01 6112.09 75.65 11.00   8.00 2784.87
   18:57:26.435.28-Apr-2021 3565.01 6112.09 75.65 11.00   8.20 2784.87
   18:57:26.635.28-Apr-2021 3565.01 6112.09 75.65 11.00   8.40 2784.87
   18:57:26.835.28-Apr-2021 3565.01 6105.95 75.65 11.00   8.60 2784.87
   18:57:27.035.28-Apr-2021 3565.01 6109.71 75.65 11.00   8.80 2784.87
   18:57:27.236.28-Apr-2021 3565.01 6112.53 75.65 11.00   9.00 2784.87
   18:57:27.436.28-Apr-2021 3565.01 6112.53 75.65 11.00   9.20 2784.87
   18:57:27.636.28-Apr-2021 3565.01 6107.63 75.65 11.00   9.40 2784.87
   18:57:27.836.28-Apr-2021 3565.01 6107.49 75.65 11.00   9.60 2784.87
   18:57:28.036.28-Apr-2021 3565.01 6104.61 75.65 11.00   9.80 2784.87
   18:57:28.236.28-Apr-2021 3565.01 6096.03 75.65 11.00  10.00 2784.87
   18:57:28.436.28-Apr-2021 3565.01 6096.03 75.65 11.00  10.20 2784.87
   18:57:28.636.28-Apr-2021 3565.01 6078.86 75.65 11.00  10.40 2784.87
   18:57:28.836.28-Apr-2021 3565.01 6053.59 75.65 11.00  10.60 2784.87
   18:57:29.036.28-Apr-2021 3565.01 6062.95 75.64 11.00  10.80 2784.87
   18:57:29.236.28-Apr-2021 3565.01 6054.69 75.64 11.00  11.00 2784.87
   18:57:29.436.28-Apr-2021 3565.01 6054.69 75.64 11.00  11.20 2784.87
   18:57:29.636.28-Apr-2021 3565.01 6030.75 75.64 11.00  11.40 2784.87
   18:57:29.836.28-Apr-2021 3565.01 6025.24 75.64 11.00  11.60 2784.87
   18:57:30.036.28-Apr-2021 3565.01 5994.08 75.64 11.00  11.80 2784.87
   18:57:30.236.28-Apr-2021 3565.01 5988.75 75.64 11.00  12.00 2784.87
   18:57:30.436.28-Apr-2021 3565.01 5988.75 75.64 11.00  12.20 2784.87
   18:57:30.637.28-Apr-2021 3565.01 5975.23 75.64 11.00  12.40 2784.87
   18:57:30.837.28-Apr-2021 3565.01 5931.03 75.64 11.00  12.60 2784.87
   18:57:31.037.28-Apr-2021 3565.01 5876.71 75.64 11.00  12.80 2784.87
   18:57:31.237.28-Apr-2021 3565.01 5779.09 75.64 11.00  13.00 2784.87
   18:57:31.437.28-Apr-2021 3565.01 5779.09 75.64 11.00  13.20 2784.87
   18:57:31.637.28-Apr-2021 3565.01 5607.73 75.64 11.00  13.40 2784.87
   18:57:31.837.28-Apr-2021 3565.01 5520.43 75.64 11.00  13.60 2784.87
   18:57:32.037.28-Apr-2021 3565.01 5482.82 75.63 11.00  13.80 2784.87
   18:57:32.237.28-Apr-2021 3565.01 5414.46 75.63 11.00  14.00 2784.87
   18:57:32.437.28-Apr-2021 3565.01 5414.46 75.63 11.00  14.20 2784.87
   18:57:32.637.28-Apr-2021 3565.01 5222.25 75.63 11.00  14.40 2784.87
   18:57:32.837.28-Apr-2021 3565.01 5150.86 75.63 11.00  14.60 2784.87
   18:57:33.037.28-Apr-2021 3565.01 5100.73 75.63 11.00  14.80 2784.87
   18:57:33.237.28-Apr-2021 3565.01 5053.32 75.63 11.00  15.00 2784.87
   18:57:33.437.28-Apr-2021 3565.01 5053.32 75.63 11.00  15.20 2784.87
   18:57:33.637.28-Apr-2021 3565.01 5019.95 75.63 11.00  15.40 2784.87
   18:57:33.837.28-Apr-2021 3565.01 4976.06 75.63 11.00  15.60 2784.87
   18:57:34.038.28-Apr-2021 3565.01 4928.28 75.63 11.00  15.80 2784.87
   18:57:34.238.28-Apr-2021 3565.01 4913.46 75.62 11.00  16.00 2784.87
   18:57:34.438.28-Apr-2021 3565.01 4913.46 75.62 11.00  16.20 2784.87
   18:57:34.638.28-Apr-2021 3565.01 4856.29 75.62 11.00  16.40 2784.87
   18:57:34.838.28-Apr-2021 3565.01 4859.15 75.62 11.00  16.60 2784.87
   18:57:35.038.28-Apr-2021 3565.01 5937.74 75.62 11.00  16.80 2784.87
   18:57:35.238.28-Apr-2021 3565.01 6412.54 75.62 11.00  17.01 2784.87
   18:57:35.438.28-Apr-2021 3565.01 6412.54 75.62 11.00  17.21 2784.87
   18:57:35.638.28-Apr-2021 3565.01 6871.54 75.62 11.00  17.41 2784.87
   18:57:35.838.28-Apr-2021 3565.01 6936.35 75.62 11.00  17.61 2784.87
   18:57:36.038.28-Apr-2021 3565.01 6920.90 75.62 11.00  17.81 2784.87
   18:57:36.238.28-Apr-2021 3565.01 6893.73 75.62 11.00  18.01 2784.87
   18:57:36.438.28-Apr-2021 3565.01 6893.73 75.62 11.00  18.21 2784.87
   18:57:36.638.28-Apr-2021 3565.01 6955.02 75.62 11.00  18.41 2784.87
   18:57:36.838.28-Apr-2021 3565.01 6913.16 75.61 11.00  18.61 2784.87
   18:57:37.038.28-Apr-2021 3565.01 6938.13 75.61 11.00  18.81 2784.87
   18:57:37.238.28-Apr-2021 3565.01 6681.82 75.61 11.00  19.01 2784.87
   18:57:37.439.28-Apr-2021 3565.01 6681.82 75.61 11.00  19.21 2784.87
   18:57:37.639.28-Apr-2021 3565.01 6671.63 75.61 11.00  19.41 2784.87
   18:57:37.839.28-Apr-2021 3565.01 6695.50 75.61 11.00  19.61 2784.87
   18:57:38.039.28-Apr-2021 3565.01 6710.75 75.61 11.00  19.81 2784.87
   18:57:38.239.28-Apr-2021 3565.01 6721.35 75.61 11.00  20.01 2784.87
   18:57:38.439.28-Apr-2021 3565.01 6721.35 75.61 11.00  20.21 2784.87
   18:57:38.639.28-Apr-2021 3565.01 6739.68 75.61 11.00  20.41 2784.87
   18:57:38.839.28-Apr-2021 3565.01 6746.12 75.61 11.00  20.61 2784.87
   18:57:39.039.28-Apr-2021 3565.01 6750.96 75.61 11.00  20.81 2784.87
   18:57:39.239.28-Apr-2021 3565.01 6756.01 75.61 11.00  21.01 2784.87
   18:57:39.439.28-Apr-2021 3565.01 6756.01 75.61 11.00  21.21 2784.87
   18:57:39.639.28-Apr-2021 3565.01 6765.35 75.61 11.00  21.41 2784.87
   18:57:39.839.28-Apr-2021 3565.01 6765.60 75.61 11.00  21.61 2784.87
   18:57:40.039.28-Apr-2021 3565.01 6769.62 75.61 11.00  21.81 2784.87
   18:57:40.239.28-Apr-2021 3565.01 6774.28 75.61 11.00  22.01 2784.87
   18:57:40.439.28-Apr-2021 3565.01 6774.28 75.61 11.00  22.21 2784.87
   18:57:40.639.28-Apr-2021 3565.01 6534.85 75.61 11.00  22.41 2784.87
