~Version Information
 VERS.                  2.0:   CWLS log ASCII Standard -VERSION 2.0
 WRAP.                   NO:   One line per depth step
~Well Information Block
#MNEM.UNIT     VALUE/NAME     DESCRIPTION
#---------     -----------    ---------------------------
 STRT.S             23:13:46 26-Apr-21: START TIME 23:13:46 26-Apr-21
 STOP.S             23:20:13 26-Apr-21: STOP TIME  23:20:13 26-Apr-21
 STEP.S                   0.00: STEP TIME
 NULL.                 -999.25: NULL VALUE
 DFWT.                        :  DIST FWL TEXT
 DFST.                        :  DIST FSL TEXT
 DMF .             Drill Floor:  DRILL MEAS FROM
 STIM.      02.00.00 12-Apr-21:  START TIME
 DATE.      02.00.00 02-May-21:  END TIME
 SPUD.               09-Apr-21:  SPUD DATE
 NREF.                    Grid:  NORTH REFERENCE
 HPTY.       Minimum Curvature:  HOLE POS TYPE
 DMOD.             Drill Model:  DRILL MOD DESC
 SVYD.                  Survey:  SURVEY DESC
 ILTD.               Lithology:  INTERP LTH DESC
 FTOP.          Formation Tops:  FORM TOPS DESC
 PDAT.          Mean Sea Level:  PERMANENT DATUM
 FLD .                     ACG:  FIELD NAME
 SON .        AZ-XX-0907021034:  JOB NUMBER
 CTRY.              Azerbaijan:  COUNTRY NAME
 WELL.                    E01x:  WELL NAME
 COMP.     BP Exploration (Caspian Sea) LTD.:  COMPANY
 UWI .            /AZE00001403:  UNIQUE WELL IDENTIFIER
 API .            /AZE00001403:  API NUMBER
 WTYP.                Deviated:  WELL TYPE
 MDS .        Operator Entered:  MAG DATA SOURCE
 BASE.              Azerbaijan:  LOGGING EQUIPMENT BASE LOCATION
 REGN.                   EESSA:  REGION
 PROV.                    Baku:  PROVINCE
 STAT.                    Baku:  STATE NAME
 SRVC.          Turan Drilling:  CONTRACTOR
 MWDS.                    Baku:  MWD SHOP
 JOBN.        AZ-XX-0907021034:  JOB TICKET NUMB
 RIG .                     DWG:  RIG NAME
 DOE .                     N/A:  DOE NUMBER
 DCON.         Sperry Drilling:  DIRECTNL CONTR
 UNIT.                     N/A:  LOGGING EQUIPMENT ID
 CNTY.                        :  COUNTY
 LOC .                        :  LOCATION
 LMF .             Drill Floor:  LOG MEASURED FROM
 TVDS.m                  43.16:  TVDSS CORRECTN
 LATI.deg                40.17:  LATITUDE
 LONG.deg                51.17:  LONGITUDE
 WHNS.m                  -5.90:  WELL HEAD N/S
 WHEW.m                  -6.61:  WELL HEAD E/W
 UTMX.m              514337.95:  UTM X
 UTMY.m             4448627.46:  UTM Y
 DFWL.m                   0.00:  DISTANCE FWL
 DFSL.m                   0.00:  DISTANCE FSL
 SDEP.m                2606.87:  START DEPTH
 TDD .m                3618.01:  TOTAL DEPTH (DRILLER)
 VSDR.deg               177.42:  VERT SEC DIRECT
 GVFD.g                   1.00:  GRAVITY FIELD
 MFLD.nT              50399.00:  MAGNETIC FIELD
 MDIP.deg                59.67:  MAGNETIC DIP
 MDEC.deg                 6.56:  MAGNETIC DECL
 GRDC.deg                 0.11:  GRID CORRECTION
 AZTC.deg                 6.45:  AZM TOTAL CORR
 EPD .m                   0.00:  ELEVATION
 EGL .m                   0.00:  GROUND ELEVATION
 WDMS.m                 176.20:  WD ELEV
 APD .m                  43.16:  DEPTH ABOVE PD
 DEP .m                2606.87:  DEPTH
 AGAP.m                  43.16:  AIR GAP
 VSEW.m                  -6.61:  VERT SEC E/W
 VSNS.m                  -5.90:  VERT SEC N/S
 EKB .m                  43.16:  KB ELEVATION
 EDF .m                  43.16:  DF ELEVATION
 TDL .m                 438.00:  TOTAL DEPTH (LOGGER)
 VSC .                       0:  VS TO CLOSURE
 MAGU.                 1855490:  MAGUTM CHECKSUM
~Parameter Information Block
#MNEM.UNIT       Value        Description
#---------     -----------    ---------------------------
 AV  .mps                 2.20:  Ann Velocity 
 AVMX.mps                 2.50:  Max Ann Veloc 
 AZIF.deg               150.21:  Azm, Final 
 BHAT.        Rotary Steerable:  BHA Type 
 BROT.°/30m               0.08:  Build Rotating 
 BS  .in                  6.50:  Bit Size 
 BSZ .in                  6.50:  Bit Size 
 BTPL.psig              108.00:  Bit Press Loss 
 CABU.                     Yes:  Customer Abuse 
 CGEO.           Emin Aliyarli:  Customer Geo 
 COMM.                     <MW:  Run Comments 1 
 TCS .hr                 74.20:  Time Ciculation Ended 
 CV  .mps                 3.63:  Crit Velocity 
 CVMX.mps                 3.66:  Max Crit Veloc 
 DD1 .         Intigam Rahimov:  Direct Drillr 1 
 DD2 .          Teymur Aghayev:  Direct Drillr 2 
 DDSV.               Geo-Pilot:  DD Service 
 DEFF.%                  97.00:  % Det Eff 
 DLRX.°/30m               1.63:  Dogleg Rot Max 
 DLSO.°/30m               0.00:  Dogleg Oriented 
 DLSX.°/30m               0.00:  Dogleg Str Max 
 DRET.      20.20.00 28-Apr-21:  Drill End Time 
 DRST.      04.45.00 26-Apr-21:  Drill Start Tim 
 DTIM.hr                 34.30:  Time Drilling 
 EDEP.m                3618.01:  End Depth 
 ENG1.           Amrah Tahirov:  Engineer 1 
 ENG2.         Bahruz Mehdiyev:  Engineer 2 
 ENG3.         Farhad Orujzade:  Engineer 3 
 ETIM.      19.00.00 29-Apr-21:  End Time 
 FLOI.gpm               370.00:  Flow In 
 FLON.gpm               300.00:  Flow In Min 
 FLOS.cptm                0.00:  Fluid Loss 
 FLOX.gpm               410.00:  Flow In Max 
 HFLO.                      No:  High Flow 
 HPRE.                      No:  High Pressure 
 HTEM.                      No:  High Temp 
 HYDO.m                   1.80:  Hydro Offset 
 IFIN.deg                67.19:  Inc, Final 
 IMAX.deg                68.42:  Inc Max 
 IMIN.deg                66.33:  Inc Min 
 IMND.m                3532.79:  Inc Min Depth 
 IMXD.m                3192.15:  Inc Max Depth 
 JARR.                      No:  Jarring 
 LETM.      20.20.00 28-Apr-21:  Log End Time 
 LOST.hr                     0:  Lost Rig Time 
 LSTM.      04.45.00 26-Apr-21:  Log Start Time 
 MDCL.ppm             36500.00:  Mud Chlorides 
 MDES.     Inversion Oil/Synthetic:  Mud Desc 
 DFD .sg                  1.42:  Mud Density 
 MDMN.sg                  1.42:  Dens Mud Min 
 MDMX.sg                  1.42:  Dens Mud Max 
 MOIL.                    55.7:  Run Mud Oil % 
 MOWR.                   71:29:  Run Mud OWR 
 MSND.                     0.1:  Run Mud Sand % 
 MSOL.                    19.9:  Run Mud Solids% 
 DFV .spqt               83.00:  Mud Viscosity 
 MWOD.in                  5.15:  MWD Tool OD 
 MWSI.                      No:  Serv Intrp, MWD 
 OTIM.hr                120.59:  Time Operating 
 PCON.           Look Like New:  Pad Condition 
 PMAX.psia            11292.93:  Press Op, Max 
 PV  .cP                 27.00:  Mud PV 
 RUN .                     400:  Run Number 
 ROPA.m/hr               14.00:  ROP Avg 
 ROPN.m/hr                9.00:  ROP Min 
 ROPX.m/hr               18.00:  ROP Max 
 RPMA.rpm               130.00:  RPM Surface Avg 
 RPMN.rpm               100.00:  RPM Surface Min 
 RPMX.rpm               140.00:  RPM Surface Max 
 RRUN.                    0400:  Rig Run Number 
 RTIM.hr                 38.60:  Time Reaming 
 SAZI.deg               149.55:  Azm, Start 
 SDEP.m                3180.01:  Start Depth 
 SIDD.                      No:  Serv Intrp, DD 
 SINC.deg                68.42:  Inc, Start 
 SPPA.psig             4400.00:  SPP Avg 
 SPPN.psig             3580.00:  SPP Min 
 SPPX.psig             4850.00:  SPP Max 
 STIM.      12.30.00 24-Apr-21:  Start Time 
 SVCS.                 DD, MWD:  Services 
 SVER.                    9.20:  Sperry Version 
 TDAT.m                 438.00:  Tot Depth Attmp 
 TDDF.                      No:  Trip for DD 
 TDLG.m                 438.00:  Tot Depth Loggd 
 TFF .                      No:  Trip for Fail 
 TQAA.f-kp               11.00:  Torque Abs Avg 
 TQAN.f-kp                9.00:  Torque Abs Min 
 TQAX.f-kp               14.00:  Torque Abs Max 
 TRRT.°/30m               0.04:  Turn Rotating 
 MRT .                    HCIM:  Maximum Recorded Temperature 
 TTMX.degC               84.31:  Max Tool Temp 
 VS01.                90521954:  Virtual Str1 SN 
 VS02.                90519327:  Virtual Str2 SN 
 VS03.                90522273:  Virtual Str3 SN 
 VS04.                11108038:  Virtual Str4 SN 
 VS05.                12258760:  Virtual Str5 SN 
 WBMN.klb                 1.00:  WOB Min 
 WITN.           Adil Mammadov:  Customer Rep 
 WITN.         Alex Yadullayev:  Customer Rep 2 
 WOBA.klb                 6.00:  WOB Avg 
 WOBX.klb                 9.00:  WOB Max 
 YP  .lhf2               31.00:  Yield Point 
~Curve Information Block
#MNEM.UNIT                 API CODE     Curve Description
#---------               -----------    ---------------------------
 TIME.HHMMSS            00 000 000 000:  GT Time & Date
 GTDEPTH.m              00 000 000 000:  GT Depth
 GTPQH.psia             00 000 000 000:  GT HR Quartz Pressure
 GTTQ.degC              00 000 000 000:  GT Quartz Temperature
 GTTN.NONE              00 000 000 000:  GT Test Number
 GTET.sec               00 000 000 000:  GT Elapsed Test Time
 GTTVD.m                00 000 000 000:  GT True Vertical Depth
#Other Information
#
#WARRANTY: Halliburton will use its best efforts to furnish customers with 
#accurate information and interpretations that are part of, and incident to, the services 
#provided.  However, Halliburton cannot and does not warrant the accuracy 
#or correctness of such information and interpretations.  Under no circumstances should any 
#such information or interpretation be relied upon as the sole basis for any drilling, 
#completion, production, or financial decision or any procedure involving any risk to the 
#safety of any drilling venture, drilling rig or its crew or any other third party.  The 
#Customer has full responsibility for all drilling, completion and production operation.  
#Halliburton makes no representations or warranties, either expressed or 
#implied, including, but not limited to, the implied warranties of merchantability or fitness 
#for a particular purpose, with respect to the services rendered.  In no event will 
#Halliburton be liable for failure to obtain any particular results or for 
#any damages, including, but not limited to, indirect, special or consequential damages, 
#resulting from the use of any information or interpretation provided by Halliburton.
#
~A           TIME           GTDEPTH  GTPQH  GTTQ  GTTN  GTET   GTTVD  
# ...
   23:19:54.634.26-Apr-2021 3222.01 5796.64 69.31 1.00 368.11 2649.76
   23:19:54.834.26-Apr-2021 3222.01 5796.64 69.31 1.00 368.31 2649.76
   23:19:55.034.26-Apr-2021 3222.01 5795.32 69.31 1.00 368.51 2649.76
   23:19:55.234.26-Apr-2021 3222.01 5781.76 69.31 1.00 368.71 2649.76
   23:19:55.434.26-Apr-2021 3222.01 5788.40 69.31 1.00 368.91 2649.76
   23:19:55.634.26-Apr-2021 3222.01 5791.83 69.31 1.00 369.11 2649.76
   23:19:55.834.26-Apr-2021 3222.01 5791.83 69.31 1.00 369.31 2649.76
   23:19:56.034.26-Apr-2021 3222.01 5794.83 69.31 1.00 369.51 2649.76
   23:19:56.234.26-Apr-2021 3222.01 5796.07 69.31 1.00 369.71 2649.76
   23:19:56.434.26-Apr-2021 3222.01 5796.22 69.31 1.00 369.91 2649.76
   23:19:56.634.26-Apr-2021 3222.01 5798.11 69.31 1.00 370.11 2649.76
   23:19:56.834.26-Apr-2021 3222.01 5798.11 69.31 1.00 370.31 2649.76
   23:19:57.034.26-Apr-2021 3222.01 5798.23 69.31 1.00 370.51 2649.76
   23:19:57.234.26-Apr-2021 3222.01 5800.71 69.31 1.00 370.71 2649.76
   23:19:57.434.26-Apr-2021 3222.01 5797.33 69.31 1.00 370.91 2649.76
   23:19:57.635.26-Apr-2021 3222.01 5799.44 69.31 1.00 371.11 2649.76
   23:19:57.835.26-Apr-2021 3222.01 5799.44 69.31 1.00 371.31 2649.76
   23:19:58.035.26-Apr-2021 3222.01 5790.58 69.31 1.00 371.51 2649.76
   23:19:58.235.26-Apr-2021 3222.01 5785.79 69.31 1.00 371.71 2649.76
   23:19:58.435.26-Apr-2021 3222.01 5794.95 69.31 1.00 371.91 2649.76
   23:19:58.635.26-Apr-2021 3222.01 5793.45 69.31 1.00 372.11 2649.76
   23:19:58.835.26-Apr-2021 3222.01 5793.45 69.31 1.00 372.31 2649.76
   23:19:59.035.26-Apr-2021 3222.01 5793.55 69.31 1.00 372.51 2649.76
   23:19:59.235.26-Apr-2021 3222.01 5787.43 69.31 1.00 372.71 2649.76
   23:19:59.435.26-Apr-2021 3222.01 5789.49 69.31 1.00 372.91 2649.76
   23:19:59.635.26-Apr-2021 3222.01 5799.75 69.31 1.00 373.11 2649.76
   23:19:59.835.26-Apr-2021 3222.01 5799.75 69.31 1.00 373.31 2649.76
   23:20:00.035.26-Apr-2021 3222.01 5785.05 69.31 1.00 373.51 2649.76
   23:20:00.235.26-Apr-2021 3222.01 5790.61 69.31 1.00 373.71 2649.76
   23:20:00.435.26-Apr-2021 3222.01 5795.01 69.31 1.00 373.91 2649.76
   23:20:00.635.26-Apr-2021 3222.01 5797.09 69.31 1.00 374.11 2649.76
   23:20:00.835.26-Apr-2021 3222.01 5797.09 69.31 1.00 374.31 2649.76
   23:20:01.036.26-Apr-2021 3222.01 5783.34 69.31 1.00 374.51 2649.76
   23:20:01.236.26-Apr-2021 3222.01 5789.46 69.31 1.00 374.71 2649.76
   23:20:01.436.26-Apr-2021 3222.01 5797.17 69.31 1.00 374.91 2649.76
   23:20:01.636.26-Apr-2021 3222.01 5797.61 69.31 1.00 375.11 2649.76
   23:20:01.836.26-Apr-2021 3222.01 5797.61 69.31 1.00 375.31 2649.76
   23:20:02.036.26-Apr-2021 3222.01 5796.17 69.30 1.00 375.51 2649.76
   23:20:02.236.26-Apr-2021 3222.01 5796.36 69.30 1.00 375.71 2649.76
   23:20:02.436.26-Apr-2021 3222.01 5799.24 69.30 1.00 375.91 2649.76
   23:20:02.636.26-Apr-2021 3222.01 5800.30 69.30 1.00 376.11 2649.76
   23:20:02.836.26-Apr-2021 3222.01 5800.30 69.30 1.00 376.31 2649.76
   23:20:03.036.26-Apr-2021 3222.01 5796.82 69.30 1.00 376.51 2649.76
   23:20:03.236.26-Apr-2021 3222.01 5792.99 69.30 1.00 376.71 2649.76
   23:20:03.436.26-Apr-2021 3222.01 5795.80 69.30 1.00 376.91 2649.76
   23:20:03.636.26-Apr-2021 3222.01 5780.99 69.30 1.00 377.11 2649.76
   23:20:03.836.26-Apr-2021 3222.01 5780.99 69.30 1.00 377.31 2649.76
   23:20:04.036.26-Apr-2021 3222.01 5790.25 69.30 1.00 377.51 2649.76
   23:20:04.236.26-Apr-2021 3222.01 5793.25 69.30 1.00 377.71 2649.76
   23:20:04.437.26-Apr-2021 3222.01 5792.43 69.30 1.00 377.91 2649.76
   23:20:04.637.26-Apr-2021 3222.01 5794.32 69.30 1.00 378.11 2649.76
   23:20:04.837.26-Apr-2021 3222.01 5794.32 69.30 1.00 378.31 2649.76
   23:20:05.037.26-Apr-2021 3222.01 5798.01 69.30 1.00 378.51 2649.76
   23:20:05.237.26-Apr-2021 3222.01 5799.14 69.30 1.00 378.71 2649.76
   23:20:05.437.26-Apr-2021 3222.01 5797.95 69.30 1.00 378.91 2649.76
   23:20:05.637.26-Apr-2021 3222.01 5796.77 69.30 1.00 379.11 2649.76
   23:20:05.837.26-Apr-2021 3222.01 5796.77 69.30 1.00 379.31 2649.76
   23:20:06.037.26-Apr-2021 3222.01 5798.28 69.30 1.00 379.51 2649.76
   23:20:06.237.26-Apr-2021 3222.01 5797.43 69.30 1.00 379.71 2649.76
   23:20:06.437.26-Apr-2021 3222.01 5792.34 69.30 1.00 379.91 2649.76
   23:20:06.637.26-Apr-2021 3222.01 5783.93 69.30 1.00 380.11 2649.76
   23:20:06.837.26-Apr-2021 3222.01 5783.93 69.30 1.00 380.31 2649.76
   23:20:07.037.26-Apr-2021 3222.01 5794.83 69.30 1.00 380.51 2649.76
   23:20:07.237.26-Apr-2021 3222.01 5797.32 69.30 1.00 380.71 2649.76
   23:20:07.437.26-Apr-2021 3222.01 5794.74 69.30 1.00 380.91 2649.76
   23:20:07.637.26-Apr-2021 3222.01 5794.55 69.30 1.00 381.11 2649.76
   23:20:07.838.26-Apr-2021 3222.01 5794.55 69.30 1.00 381.31 2649.76
   23:20:08.038.26-Apr-2021 3222.01 5797.92 69.30 1.00 381.51 2649.76
   23:20:08.238.26-Apr-2021 3222.01 5796.37 69.30 1.00 381.71 2649.76
   23:20:08.438.26-Apr-2021 3222.01 5785.80 69.30 1.00 381.91 2649.76
   23:20:08.638.26-Apr-2021 3222.01 5788.17 69.30 1.00 382.11 2649.76
   23:20:08.838.26-Apr-2021 3222.01 5788.17 69.30 1.00 382.31 2649.76
   23:20:09.038.26-Apr-2021 3222.01 5793.26 69.30 1.00 382.51 2649.76
   23:20:09.238.26-Apr-2021 3222.01 5798.44 69.30 1.00 382.71 2649.76
   23:20:09.438.26-Apr-2021 3222.01 5795.06 69.30 1.00 382.91 2649.76
   23:20:09.638.26-Apr-2021 3222.01 5783.36 69.30 1.00 383.11 2649.76
   23:20:09.838.26-Apr-2021 3222.01 5783.36 69.30 1.00 383.31 2649.76
   23:20:10.038.26-Apr-2021 3222.01 5797.84 69.30 1.00 383.51 2649.76
   23:20:10.238.26-Apr-2021 3222.01 5797.83 69.30 1.00 383.71 2649.76
   23:20:10.438.26-Apr-2021 3222.01 5798.32 69.30 1.00 383.91 2649.76
   23:20:10.638.26-Apr-2021 3222.01 5796.28 69.30 1.00 384.11 2649.76
   23:20:10.838.26-Apr-2021 3222.01 5796.28 69.30 1.00 384.31 2649.76
   23:20:11.038.26-Apr-2021 3222.01 5799.49 69.30 1.00 384.51 2649.76
   23:20:11.239.26-Apr-2021 3222.01 5797.97 69.30 1.00 384.71 2649.76
   23:20:11.439.26-Apr-2021 3222.01 5797.19 69.30 1.00 384.91 2649.76
   23:20:11.639.26-Apr-2021 3222.01 5794.49 69.30 1.00 385.11 2649.76
   23:20:11.839.26-Apr-2021 3222.01 5794.49 69.30 1.00 385.31 2649.76
   23:20:12.039.26-Apr-2021 3222.01 5792.80 69.30 1.00 385.51 2649.76
   23:20:12.239.26-Apr-2021 3222.01 5785.34 69.30 1.00 385.71 2649.76
   23:20:12.439.26-Apr-2021 3222.01 5783.94 69.30 1.00 385.91 2649.76
   23:20:12.639.26-Apr-2021 3222.01 5792.10 69.30 1.00 386.11 2649.76
   23:20:12.839.26-Apr-2021 3222.01 5792.10 69.30 1.00 386.31 2649.76
   23:20:13.039.26-Apr-2021 3222.01 5794.90 69.30 1.00 386.51 2649.76
   23:20:13.239.26-Apr-2021 3222.01 5793.00 69.30 1.00 386.71 2649.76
   23:20:13.439.26-Apr-2021 3222.01 5795.98 69.30 1.00 386.91 2649.76
