~Version Information
 VERS.                  2.0:   CWLS log ASCII Standard -VERSION 2.0
 WRAP.                   NO:   One line per depth step
~Well Information Block
#MNEM.UNIT     VALUE/NAME     DESCRIPTION
#---------     -----------    ---------------------------
 STRT.S             00:41:47 27-Apr-21: START TIME 00:41:47 27-Apr-21
 STOP.S             00:48:15 27-Apr-21: STOP TIME  00:48:15 27-Apr-21
 STEP.S                   0.00: STEP TIME
 NULL.                 -999.25: NULL VALUE
 DFWT.                        :  DIST FWL TEXT
 DFST.                        :  DIST FSL TEXT
 DMF .             Drill Floor:  DRILL MEAS FROM
 STIM.      02.00.00 12-Apr-21:  START TIME
 DATE.      02.00.00 02-May-21:  END TIME
 SPUD.               09-Apr-21:  SPUD DATE
 NREF.                    Grid:  NORTH REFERENCE
 HPTY.       Minimum Curvature:  HOLE POS TYPE
 DMOD.             Drill Model:  DRILL MOD DESC
 SVYD.                  Survey:  SURVEY DESC
 ILTD.               Lithology:  INTERP LTH DESC
 FTOP.          Formation Tops:  FORM TOPS DESC
 PDAT.          Mean Sea Level:  PERMANENT DATUM
 FLD .                     ACG:  FIELD NAME
 SON .        AZ-XX-0907021034:  JOB NUMBER
 CTRY.              Azerbaijan:  COUNTRY NAME
 WELL.                    E01x:  WELL NAME
 COMP.     BP Exploration (Caspian Sea) LTD.:  COMPANY
 UWI .            /AZE00001403:  UNIQUE WELL IDENTIFIER
 API .            /AZE00001403:  API NUMBER
 WTYP.                Deviated:  WELL TYPE
 MDS .        Operator Entered:  MAG DATA SOURCE
 BASE.              Azerbaijan:  LOGGING EQUIPMENT BASE LOCATION
 REGN.                   EESSA:  REGION
 PROV.                    Baku:  PROVINCE
 STAT.                    Baku:  STATE NAME
 SRVC.          Turan Drilling:  CONTRACTOR
 MWDS.                    Baku:  MWD SHOP
 JOBN.        AZ-XX-0907021034:  JOB TICKET NUMB
 RIG .                     DWG:  RIG NAME
 DOE .                     N/A:  DOE NUMBER
 DCON.         Sperry Drilling:  DIRECTNL CONTR
 UNIT.                     N/A:  LOGGING EQUIPMENT ID
 CNTY.                        :  COUNTY
 LOC .                        :  LOCATION
 LMF .             Drill Floor:  LOG MEASURED FROM
 TVDS.m                  43.16:  TVDSS CORRECTN
 LATI.deg                40.17:  LATITUDE
 LONG.deg                51.17:  LONGITUDE
 WHNS.m                  -5.90:  WELL HEAD N/S
 WHEW.m                  -6.61:  WELL HEAD E/W
 UTMX.m              514337.95:  UTM X
 UTMY.m             4448627.46:  UTM Y
 DFWL.m                   0.00:  DISTANCE FWL
 DFSL.m                   0.00:  DISTANCE FSL
 SDEP.m                2606.87:  START DEPTH
 TDD .m                3618.01:  TOTAL DEPTH (DRILLER)
 VSDR.deg               177.42:  VERT SEC DIRECT
 GVFD.g                   1.00:  GRAVITY FIELD
 MFLD.nT              50399.00:  MAGNETIC FIELD
 MDIP.deg                59.67:  MAGNETIC DIP
 MDEC.deg                 6.56:  MAGNETIC DECL
 GRDC.deg                 0.11:  GRID CORRECTION
 AZTC.deg                 6.45:  AZM TOTAL CORR
 EPD .m                   0.00:  ELEVATION
 EGL .m                   0.00:  GROUND ELEVATION
 WDMS.m                 176.20:  WD ELEV
 APD .m                  43.16:  DEPTH ABOVE PD
 DEP .m                2606.87:  DEPTH
 AGAP.m                  43.16:  AIR GAP
 VSEW.m                  -6.61:  VERT SEC E/W
 VSNS.m                  -5.90:  VERT SEC N/S
 EKB .m                  43.16:  KB ELEVATION
 EDF .m                  43.16:  DF ELEVATION
 TDL .m                 438.00:  TOTAL DEPTH (LOGGER)
 VSC .                       0:  VS TO CLOSURE
 MAGU.                 1855490:  MAGUTM CHECKSUM
~Parameter Information Block
#MNEM.UNIT       Value        Description
#---------     -----------    ---------------------------
 AV  .mps                 2.20:  Ann Velocity 
 AVMX.mps                 2.50:  Max Ann Veloc 
 AZIF.deg               150.21:  Azm, Final 
 BHAT.        Rotary Steerable:  BHA Type 
 BROT.°/30m               0.08:  Build Rotating 
 BS  .in                  6.50:  Bit Size 
 BSZ .in                  6.50:  Bit Size 
 BTPL.psig              108.00:  Bit Press Loss 
 CABU.                     Yes:  Customer Abuse 
 CGEO.           Emin Aliyarli:  Customer Geo 
 COMM.                     lJm:  Run Comments 1 
 TCS .hr                 74.20:  Time Ciculation Ended 
 CV  .mps                 3.63:  Crit Velocity 
 CVMX.mps                 3.66:  Max Crit Veloc 
 DD1 .         Intigam Rahimov:  Direct Drillr 1 
 DD2 .          Teymur Aghayev:  Direct Drillr 2 
 DDSV.               Geo-Pilot:  DD Service 
 DEFF.%                  97.00:  % Det Eff 
 DLRX.°/30m               1.63:  Dogleg Rot Max 
 DLSO.°/30m               0.00:  Dogleg Oriented 
 DLSX.°/30m               0.00:  Dogleg Str Max 
 DRET.      20.20.00 28-Apr-21:  Drill End Time 
 DRST.      04.45.00 26-Apr-21:  Drill Start Tim 
 DTIM.hr                 34.30:  Time Drilling 
 EDEP.m                3618.01:  End Depth 
 ENG1.           Amrah Tahirov:  Engineer 1 
 ENG2.         Bahruz Mehdiyev:  Engineer 2 
 ENG3.         Farhad Orujzade:  Engineer 3 
 ETIM.      19.00.00 29-Apr-21:  End Time 
 FLOI.gpm               370.00:  Flow In 
 FLON.gpm               300.00:  Flow In Min 
 FLOS.cptm                0.00:  Fluid Loss 
 FLOX.gpm               410.00:  Flow In Max 
 HFLO.                      No:  High Flow 
 HPRE.                      No:  High Pressure 
 HTEM.                      No:  High Temp 
 HYDO.m                   1.80:  Hydro Offset 
 IFIN.deg                67.19:  Inc, Final 
 IMAX.deg                68.42:  Inc Max 
 IMIN.deg                66.33:  Inc Min 
 IMND.m                3532.79:  Inc Min Depth 
 IMXD.m                3192.15:  Inc Max Depth 
 JARR.                      No:  Jarring 
 LETM.      20.20.00 28-Apr-21:  Log End Time 
 LOST.hr                     0:  Lost Rig Time 
 LSTM.      04.45.00 26-Apr-21:  Log Start Time 
 MDCL.ppm             36500.00:  Mud Chlorides 
 MDES.     Inversion Oil/Synthetic:  Mud Desc 
 DFD .sg                  1.42:  Mud Density 
 MDMN.sg                  1.42:  Dens Mud Min 
 MDMX.sg                  1.42:  Dens Mud Max 
 MOIL.                    55.7:  Run Mud Oil % 
 MOWR.                   71:29:  Run Mud OWR 
 MSND.                     0.1:  Run Mud Sand % 
 MSOL.                    19.9:  Run Mud Solids% 
 DFV .spqt               83.00:  Mud Viscosity 
 MWOD.in                  5.15:  MWD Tool OD 
 MWSI.                      No:  Serv Intrp, MWD 
 OTIM.hr                120.59:  Time Operating 
 PCON.           Look Like New:  Pad Condition 
 PMAX.psia            11292.93:  Press Op, Max 
 PV  .cP                 27.00:  Mud PV 
 RUN .                     400:  Run Number 
 ROPA.m/hr               14.00:  ROP Avg 
 ROPN.m/hr                9.00:  ROP Min 
 ROPX.m/hr               18.00:  ROP Max 
 RPMA.rpm               130.00:  RPM Surface Avg 
 RPMN.rpm               100.00:  RPM Surface Min 
 RPMX.rpm               140.00:  RPM Surface Max 
 RRUN.                    0400:  Rig Run Number 
 RTIM.hr                 38.60:  Time Reaming 
 SAZI.deg               149.55:  Azm, Start 
 SDEP.m                3180.01:  Start Depth 
 SIDD.                      No:  Serv Intrp, DD 
 SINC.deg                68.42:  Inc, Start 
 SPPA.psig             4400.00:  SPP Avg 
 SPPN.psig             3580.00:  SPP Min 
 SPPX.psig             4850.00:  SPP Max 
 STIM.      12.30.00 24-Apr-21:  Start Time 
 SVCS.                 DD, MWD:  Services 
 SVER.                    9.20:  Sperry Version 
 TDAT.m                 438.00:  Tot Depth Attmp 
 TDDF.                      No:  Trip for DD 
 TDLG.m                 438.00:  Tot Depth Loggd 
 TFF .                      No:  Trip for Fail 
 TQAA.f-kp               11.00:  Torque Abs Avg 
 TQAN.f-kp                9.00:  Torque Abs Min 
 TQAX.f-kp               14.00:  Torque Abs Max 
 TRRT.°/30m               0.04:  Turn Rotating 
 MRT .                    HCIM:  Maximum Recorded Temperature 
 TTMX.degC               84.31:  Max Tool Temp 
 VS01.                90521954:  Virtual Str1 SN 
 VS02.                90519327:  Virtual Str2 SN 
 VS03.                90522273:  Virtual Str3 SN 
 VS04.                11108038:  Virtual Str4 SN 
 VS05.                12258760:  Virtual Str5 SN 
 WBMN.klb                 1.00:  WOB Min 
 WITN.           Adil Mammadov:  Customer Rep 
 WITN.         Alex Yadullayev:  Customer Rep 2 
 WOBA.klb                 6.00:  WOB Avg 
 WOBX.klb                 9.00:  WOB Max 
 YP  .lhf2               31.00:  Yield Point 
~Curve Information Block
#MNEM.UNIT                 API CODE     Curve Description
#---------               -----------    ---------------------------
 TIME.HHMMSS            00 000 000 000:  GT Time & Date
 GTDEPTH.m              00 000 000 000:  GT Depth
 GTPQH.psia             00 000 000 000:  GT HR Quartz Pressure
 GTTQ.degC              00 000 000 000:  GT Quartz Temperature
 GTTN.NONE              00 000 000 000:  GT Test Number
 GTET.sec               00 000 000 000:  GT Elapsed Test Time
 GTTVD.m                00 000 000 000:  GT True Vertical Depth
#Other Information
#
#WARRANTY: Halliburton will use its best efforts to furnish customers with 
#accurate information and interpretations that are part of, and incident to, the services 
#provided.  However, Halliburton cannot and does not warrant the accuracy 
#or correctness of such information and interpretations.  Under no circumstances should any 
#such information or interpretation be relied upon as the sole basis for any drilling, 
#completion, production, or financial decision or any procedure involving any risk to the 
#safety of any drilling venture, drilling rig or its crew or any other third party.  The 
#Customer has full responsibility for all drilling, completion and production operation.  
#Halliburton makes no representations or warranties, either expressed or 
#implied, including, but not limited to, the implied warranties of merchantability or fitness 
#for a particular purpose, with respect to the services rendered.  In no event will 
#Halliburton be liable for failure to obtain any particular results or for 
#any damages, including, but not limited to, indirect, special or consequential damages, 
#resulting from the use of any information or interpretation provided by Halliburton.
#
~A           TIME           GTDEPTH  GTPQH  GTTQ  GTTN  GTET   GTTVD  
   00:41:47.726.27-Apr-2021 3226.01 5798.15 72.28 2.00   0.00 2651.33
   00:41:47.926.27-Apr-2021 3226.01 5798.15 72.28 2.00   0.20 2651.33
   00:41:48.126.27-Apr-2021 3226.01 5807.54 72.27 2.00   0.40 2651.33
   00:41:48.326.27-Apr-2021 3226.01 5806.81 72.27 2.00   0.60 2651.33
   00:41:48.526.27-Apr-2021 3226.01 5808.19 72.27 2.00   0.80 2651.33
   00:41:48.726.27-Apr-2021 3226.01 5806.35 72.27 2.00   1.00 2651.33
   00:41:48.926.27-Apr-2021 3226.01 5806.35 72.27 2.00   1.20 2651.33
   00:41:49.126.27-Apr-2021 3226.01 5796.53 72.27 2.00   1.40 2651.33
   00:41:49.326.27-Apr-2021 3226.01 5807.98 72.27 2.00   1.60 2651.33
   00:41:49.526.27-Apr-2021 3226.01 5808.99 72.27 2.00   1.80 2651.33
   00:41:49.726.27-Apr-2021 3226.01 5810.82 72.27 2.00   2.00 2651.33
   00:41:49.926.27-Apr-2021 3226.01 5810.82 72.27 2.00   2.20 2651.33
   00:41:50.126.27-Apr-2021 3226.01 5809.56 72.27 2.00   2.40 2651.33
   00:41:50.326.27-Apr-2021 3226.01 5807.29 72.27 2.00   2.60 2651.33
   00:41:50.526.27-Apr-2021 3226.01 5811.50 72.26 2.00   2.80 2651.33
   00:41:50.726.27-Apr-2021 3226.01 5809.23 72.26 2.00   3.00 2651.33
   00:41:50.926.27-Apr-2021 3226.01 5809.23 72.26 2.00   3.20 2651.33
   00:41:51.126.27-Apr-2021 3226.01 5806.52 72.26 2.00   3.40 2651.33
   00:41:51.326.27-Apr-2021 3226.01 5798.40 72.26 2.00   3.60 2651.33
   00:41:51.526.27-Apr-2021 3226.01 5801.24 72.26 2.00   3.80 2651.33
   00:41:51.727.27-Apr-2021 3226.01 5807.49 72.26 2.00   4.00 2651.33
   00:41:51.927.27-Apr-2021 3226.01 5807.49 72.26 2.00   4.20 2651.33
   00:41:52.127.27-Apr-2021 3226.01 5809.29 72.26 2.00   4.40 2651.33
   00:41:52.327.27-Apr-2021 3226.01 5798.09 72.26 2.00   4.60 2651.33
   00:41:52.527.27-Apr-2021 3226.01 5806.05 72.26 2.00   4.80 2651.33
   00:41:52.727.27-Apr-2021 3226.01 5812.35 72.26 2.00   5.00 2651.33
   00:41:52.927.27-Apr-2021 3226.01 5812.35 72.26 2.00   5.20 2651.33
   00:41:53.127.27-Apr-2021 3226.01 5814.53 72.25 2.00   5.40 2651.33
   00:41:53.327.27-Apr-2021 3226.01 5812.52 72.25 2.00   5.60 2651.33
   00:41:53.527.27-Apr-2021 3226.01 5798.99 72.25 2.00   5.80 2651.33
   00:41:53.727.27-Apr-2021 3226.01 5809.74 72.25 2.00   6.00 2651.33
   00:41:53.927.27-Apr-2021 3226.01 5809.74 72.25 2.00   6.20 2651.33
   00:41:54.127.27-Apr-2021 3226.01 5809.74 72.25 2.00   6.40 2651.33
   00:41:54.327.27-Apr-2021 3226.01 5804.21 72.25 2.00   6.60 2651.33
   00:41:54.527.27-Apr-2021 3226.01 5800.35 72.25 2.00   6.80 2651.33
   00:41:54.727.27-Apr-2021 3226.01 5808.50 72.25 2.00   7.00 2651.33
   00:41:54.927.27-Apr-2021 3226.01 5808.50 72.25 2.00   7.20 2651.33
   00:41:55.127.27-Apr-2021 3226.01 5812.75 72.25 2.00   7.40 2651.33
   00:41:55.327.27-Apr-2021 3226.01 5797.84 72.25 2.00   7.60 2651.33
   00:41:55.527.27-Apr-2021 3226.01 5807.28 72.24 2.00   7.80 2651.33
   00:41:55.727.27-Apr-2021 3226.01 5810.26 72.24 2.00   8.00 2651.33
   00:41:55.927.27-Apr-2021 3226.01 5810.26 72.24 2.00   8.20 2651.33
   00:41:56.127.27-Apr-2021 3226.01 5813.82 72.24 2.00   8.40 2651.33
   00:41:56.327.27-Apr-2021 3226.01 5802.14 72.24 2.00   8.60 2651.33
   00:41:56.527.27-Apr-2021 3226.01 5803.89 72.24 2.00   8.80 2651.33
   00:41:56.728.27-Apr-2021 3226.01 5812.39 72.24 2.00   9.00 2651.33
   00:41:56.928.27-Apr-2021 3226.01 5812.39 72.24 2.00   9.20 2651.33
   00:41:57.128.27-Apr-2021 3226.01 5805.96 72.24 2.00   9.40 2651.33
   00:41:57.328.27-Apr-2021 3226.01 5800.28 72.24 2.00   9.60 2651.33
   00:41:57.528.27-Apr-2021 3226.01 5804.56 72.24 2.00   9.80 2651.33
   00:41:57.728.27-Apr-2021 3226.01 5810.33 72.24 2.00  10.00 2651.33
   00:41:57.928.27-Apr-2021 3226.01 5810.33 72.24 2.00  10.20 2651.33
   00:41:58.128.27-Apr-2021 3226.01 5812.49 72.23 2.00  10.40 2651.33
   00:41:58.328.27-Apr-2021 3226.01 5797.52 72.23 2.00  10.60 2651.33
   00:41:58.528.27-Apr-2021 3226.01 5797.98 72.23 2.00  10.80 2651.33
   00:41:58.728.27-Apr-2021 3226.01 5768.94 72.23 2.00  11.00 2651.33
   00:41:58.928.27-Apr-2021 3226.01 5768.94 72.23 2.00  11.20 2651.33
   00:41:59.128.27-Apr-2021 3226.01 5734.75 72.23 2.00  11.40 2651.33
   00:41:59.328.27-Apr-2021 3226.01 5728.75 72.23 2.00  11.60 2651.33
   00:41:59.528.27-Apr-2021 3226.01 5725.14 72.23 2.00  11.80 2651.33
   00:41:59.728.27-Apr-2021 3226.01 5732.85 72.23 2.00  12.00 2651.33
   00:41:59.928.27-Apr-2021 3226.01 5732.85 72.23 2.00  12.20 2651.33
   00:42:00.128.27-Apr-2021 3226.01 5724.96 72.23 2.00  12.40 2651.33
   00:42:00.328.27-Apr-2021 3226.01 5728.54 72.22 2.00  12.60 2651.33
   00:42:00.528.27-Apr-2021 3226.01 5729.59 72.22 2.00  12.80 2651.33
   00:42:00.728.27-Apr-2021 3226.01 5694.78 72.22 2.00  13.00 2651.33
   00:42:00.928.27-Apr-2021 3226.01 5694.78 72.22 2.00  13.20 2651.33
   00:42:01.128.27-Apr-2021 3226.01 5572.88 72.22 2.00  13.40 2651.33
   00:42:01.328.27-Apr-2021 3226.01 5483.67 72.22 2.00  13.60 2651.33
   00:42:01.528.27-Apr-2021 3226.01 5415.59 72.22 2.00  13.80 2651.33
   00:42:01.728.27-Apr-2021 3226.01 5345.00 72.22 2.00  14.00 2651.33
   00:42:01.929.27-Apr-2021 3226.01 5345.00 72.22 2.00  14.20 2651.33
   00:42:02.129.27-Apr-2021 3226.01 5153.25 72.22 2.00  14.40 2651.33
   00:42:02.329.27-Apr-2021 3226.01 5047.50 72.22 2.00  14.60 2651.33
   00:42:02.529.27-Apr-2021 3226.01 4974.66 72.22 2.00  14.80 2651.33
   00:42:02.729.27-Apr-2021 3226.01 4872.78 72.21 2.00  15.00 2651.33
   00:42:02.929.27-Apr-2021 3226.01 4872.78 72.21 2.00  15.20 2651.33
   00:42:03.129.27-Apr-2021 3226.01 4706.06 72.21 2.00  15.40 2651.33
   00:42:03.329.27-Apr-2021 3226.01 4593.04 72.21 2.00  15.60 2651.33
   00:42:03.529.27-Apr-2021 3226.01 4499.39 72.21 2.00  15.80 2651.33
   00:42:03.729.27-Apr-2021 3226.01 4386.23 72.21 2.00  16.00 2651.33
   00:42:03.929.27-Apr-2021 3226.01 4386.23 72.21 2.00  16.20 2651.33
   00:42:04.129.27-Apr-2021 3226.01 4259.51 72.21 2.00  16.40 2651.33
   00:42:04.329.27-Apr-2021 3226.01 4190.03 72.21 2.00  16.60 2651.33
   00:42:04.529.27-Apr-2021 3226.01 4125.22 72.21 2.00  16.80 2651.33
   00:42:04.729.27-Apr-2021 3226.01 4075.04 72.20 2.00  17.00 2651.33
   00:42:04.929.27-Apr-2021 3226.01 4075.04 72.20 2.00  17.20 2651.33
   00:42:05.129.27-Apr-2021 3226.01 4009.91 72.20 2.00  17.40 2651.33
   00:42:05.329.27-Apr-2021 3226.01 4015.73 72.20 2.00  17.60 2651.33
   00:42:05.529.27-Apr-2021 3226.01 4013.70 72.20 2.00  17.80 2651.33
   00:42:05.729.27-Apr-2021 3226.01 4046.17 72.20 2.00  18.00 2651.33
   00:42:05.929.27-Apr-2021 3226.01 4046.17 72.20 2.00  18.20 2651.33
   00:42:06.129.27-Apr-2021 3226.01 4747.38 72.20 2.00  18.40 2651.33
   00:42:06.329.27-Apr-2021 3226.01 6041.03 72.19 2.00  18.60 2651.33
   00:42:06.529.27-Apr-2021 3226.01 6479.22 72.19 2.00  18.80 2651.33
   00:42:06.729.27-Apr-2021 3226.01 6620.93 72.19 2.00  19.00 2651.33
   00:42:06.930.27-Apr-2021 3226.01 6620.93 72.19 2.00  19.20 2651.33
   00:42:07.130.27-Apr-2021 3226.01 6641.56 72.19 2.00  19.40 2651.33
   00:42:07.330.27-Apr-2021 3226.01 6637.45 72.19 2.00  19.60 2651.33
   00:42:07.530.27-Apr-2021 3226.01 6505.36 72.19 2.00  19.80 2651.33
   00:42:07.730.27-Apr-2021 3226.01 6604.56 72.19 2.00  20.00 2651.33
   00:42:07.930.27-Apr-2021 3226.01 6604.56 72.19 2.00  20.20 2651.33
   00:42:08.130.27-Apr-2021 3226.01 6703.77 72.19 2.00  20.40 2651.33
   00:42:08.330.27-Apr-2021 3226.01 6719.75 72.19 2.00  20.60 2651.33
   00:42:08.530.27-Apr-2021 3226.01 6730.54 72.19 2.00  20.80 2651.33
   00:42:08.730.27-Apr-2021 3226.01 6741.40 72.19 2.00  21.00 2651.33
   00:42:08.930.27-Apr-2021 3226.01 6741.40 72.19 2.00  21.20 2651.33
   00:42:09.130.27-Apr-2021 3226.01 6759.11 72.18 2.00  21.40 2651.33
   00:42:09.330.27-Apr-2021 3226.01 6766.38 72.18 2.00  21.60 2651.33
   00:42:09.530.27-Apr-2021 3226.01 6768.06 72.18 2.00  21.80 2651.33
   00:42:09.730.27-Apr-2021 3226.01 6774.51 72.18 2.00  22.00 2651.33
   00:42:09.930.27-Apr-2021 3226.01 6774.51 72.18 2.00  22.20 2651.33
   00:42:10.130.27-Apr-2021 3226.01 6784.25 72.18 2.00  22.40 2651.33
   00:42:10.330.27-Apr-2021 3226.01 6786.83 72.18 2.00  22.60 2651.33
   00:42:10.530.27-Apr-2021 3226.01 6789.85 72.18 2.00  22.80 2651.33
