~Version Information
 VERS.                  2.0:   CWLS log ASCII Standard -VERSION 2.0
 WRAP.                   NO:   One line per depth step
~Well Information Block
#MNEM.UNIT     VALUE/NAME     DESCRIPTION
#---------     -----------    ---------------------------
 STRT.S             06:42:00 27-Apr-21: START TIME 06:42:00 27-Apr-21
 STOP.S             06:48:27 27-Apr-21: STOP TIME  06:48:27 27-Apr-21
 STEP.S                   0.00: STEP TIME
 NULL.                 -999.25: NULL VALUE
 DFWT.                        :  DIST FWL TEXT
 DFST.                        :  DIST FSL TEXT
 DMF .             Drill Floor:  DRILL MEAS FROM
 STIM.      02.00.00 12-Apr-21:  START TIME
 DATE.      02.00.00 02-May-21:  END TIME
 SPUD.               09-Apr-21:  SPUD DATE
 NREF.                    Grid:  NORTH REFERENCE
 HPTY.       Minimum Curvature:  HOLE POS TYPE
 DMOD.             Drill Model:  DRILL MOD DESC
 SVYD.                  Survey:  SURVEY DESC
 ILTD.               Lithology:  INTERP LTH DESC
 FTOP.          Formation Tops:  FORM TOPS DESC
 PDAT.          Mean Sea Level:  PERMANENT DATUM
 FLD .                     ACG:  FIELD NAME
 SON .        AZ-XX-0907021034:  JOB NUMBER
 CTRY.              Azerbaijan:  COUNTRY NAME
 WELL.                    E01x:  WELL NAME
 COMP.     BP Exploration (Caspian Sea) LTD.:  COMPANY
 UWI .            /AZE00001403:  UNIQUE WELL IDENTIFIER
 API .            /AZE00001403:  API NUMBER
 WTYP.                Deviated:  WELL TYPE
 MDS .        Operator Entered:  MAG DATA SOURCE
 BASE.              Azerbaijan:  LOGGING EQUIPMENT BASE LOCATION
 REGN.                   EESSA:  REGION
 PROV.                    Baku:  PROVINCE
 STAT.                    Baku:  STATE NAME
 SRVC.          Turan Drilling:  CONTRACTOR
 MWDS.                    Baku:  MWD SHOP
 JOBN.        AZ-XX-0907021034:  JOB TICKET NUMB
 RIG .                     DWG:  RIG NAME
 DOE .                     N/A:  DOE NUMBER
 DCON.         Sperry Drilling:  DIRECTNL CONTR
 UNIT.                     N/A:  LOGGING EQUIPMENT ID
 CNTY.                        :  COUNTY
 LOC .                        :  LOCATION
 LMF .             Drill Floor:  LOG MEASURED FROM
 TVDS.m                  43.16:  TVDSS CORRECTN
 LATI.deg                40.17:  LATITUDE
 LONG.deg                51.17:  LONGITUDE
 WHNS.m                  -5.90:  WELL HEAD N/S
 WHEW.m                  -6.61:  WELL HEAD E/W
 UTMX.m              514337.95:  UTM X
 UTMY.m             4448627.46:  UTM Y
 DFWL.m                   0.00:  DISTANCE FWL
 DFSL.m                   0.00:  DISTANCE FSL
 SDEP.m                2606.87:  START DEPTH
 TDD .m                3618.01:  TOTAL DEPTH (DRILLER)
 VSDR.deg               177.42:  VERT SEC DIRECT
 GVFD.g                   1.00:  GRAVITY FIELD
 MFLD.nT              50399.00:  MAGNETIC FIELD
 MDIP.deg                59.67:  MAGNETIC DIP
 MDEC.deg                 6.56:  MAGNETIC DECL
 GRDC.deg                 0.11:  GRID CORRECTION
 AZTC.deg                 6.45:  AZM TOTAL CORR
 EPD .m                   0.00:  ELEVATION
 EGL .m                   0.00:  GROUND ELEVATION
 WDMS.m                 176.20:  WD ELEV
 APD .m                  43.16:  DEPTH ABOVE PD
 DEP .m                2606.87:  DEPTH
 AGAP.m                  43.16:  AIR GAP
 VSEW.m                  -6.61:  VERT SEC E/W
 VSNS.m                  -5.90:  VERT SEC N/S
 EKB .m                  43.16:  KB ELEVATION
 EDF .m                  43.16:  DF ELEVATION
 TDL .m                 438.00:  TOTAL DEPTH (LOGGER)
 VSC .                       0:  VS TO CLOSURE
 MAGU.                 1855490:  MAGUTM CHECKSUM
~Parameter Information Block
#MNEM.UNIT       Value        Description
#---------     -----------    ---------------------------
 AV  .mps                 2.20:  Ann Velocity 
 AVMX.mps                 2.50:  Max Ann Veloc 
 AZIF.deg               150.21:  Azm, Final 
 BHAT.        Rotary Steerable:  BHA Type 
 BROT.°/30m               0.08:  Build Rotating 
 BS  .in                  6.50:  Bit Size 
 BSZ .in                  6.50:  Bit Size 
 BTPL.psig              108.00:  Bit Press Loss 
 CABU.                     Yes:  Customer Abuse 
 CGEO.           Emin Aliyarli:  Customer Geo 
 COMM.                     )M:  Run Comments 1 
 TCS .hr                 74.20:  Time Ciculation Ended 
 CV  .mps                 3.63:  Crit Velocity 
 CVMX.mps                 3.66:  Max Crit Veloc 
 DD1 .         Intigam Rahimov:  Direct Drillr 1 
 DD2 .          Teymur Aghayev:  Direct Drillr 2 
 DDSV.               Geo-Pilot:  DD Service 
 DEFF.%                  97.00:  % Det Eff 
 DLRX.°/30m               1.63:  Dogleg Rot Max 
 DLSO.°/30m               0.00:  Dogleg Oriented 
 DLSX.°/30m               0.00:  Dogleg Str Max 
 DRET.      20.20.00 28-Apr-21:  Drill End Time 
 DRST.      04.45.00 26-Apr-21:  Drill Start Tim 
 DTIM.hr                 34.30:  Time Drilling 
 EDEP.m                3618.01:  End Depth 
 ENG1.           Amrah Tahirov:  Engineer 1 
 ENG2.         Bahruz Mehdiyev:  Engineer 2 
 ENG3.         Farhad Orujzade:  Engineer 3 
 ETIM.      19.00.00 29-Apr-21:  End Time 
 FLOI.gpm               370.00:  Flow In 
 FLON.gpm               300.00:  Flow In Min 
 FLOS.cptm                0.00:  Fluid Loss 
 FLOX.gpm               410.00:  Flow In Max 
 HFLO.                      No:  High Flow 
 HPRE.                      No:  High Pressure 
 HTEM.                      No:  High Temp 
 HYDO.m                   1.80:  Hydro Offset 
 IFIN.deg                67.19:  Inc, Final 
 IMAX.deg                68.42:  Inc Max 
 IMIN.deg                66.33:  Inc Min 
 IMND.m                3532.79:  Inc Min Depth 
 IMXD.m                3192.15:  Inc Max Depth 
 JARR.                      No:  Jarring 
 LETM.      20.20.00 28-Apr-21:  Log End Time 
 LOST.hr                     0:  Lost Rig Time 
 LSTM.      04.45.00 26-Apr-21:  Log Start Time 
 MDCL.ppm             36500.00:  Mud Chlorides 
 MDES.     Inversion Oil/Synthetic:  Mud Desc 
 DFD .sg                  1.42:  Mud Density 
 MDMN.sg                  1.42:  Dens Mud Min 
 MDMX.sg                  1.42:  Dens Mud Max 
 MOIL.                    55.7:  Run Mud Oil % 
 MOWR.                   71:29:  Run Mud OWR 
 MSND.                     0.1:  Run Mud Sand % 
 MSOL.                    19.9:  Run Mud Solids% 
 DFV .spqt               83.00:  Mud Viscosity 
 MWOD.in                  5.15:  MWD Tool OD 
 MWSI.                      No:  Serv Intrp, MWD 
 OTIM.hr                120.59:  Time Operating 
 PCON.           Look Like New:  Pad Condition 
 PMAX.psia            11292.93:  Press Op, Max 
 PV  .cP                 27.00:  Mud PV 
 RUN .                     400:  Run Number 
 ROPA.m/hr               14.00:  ROP Avg 
 ROPN.m/hr                9.00:  ROP Min 
 ROPX.m/hr               18.00:  ROP Max 
 RPMA.rpm               130.00:  RPM Surface Avg 
 RPMN.rpm               100.00:  RPM Surface Min 
 RPMX.rpm               140.00:  RPM Surface Max 
 RRUN.                    0400:  Rig Run Number 
 RTIM.hr                 38.60:  Time Reaming 
 SAZI.deg               149.55:  Azm, Start 
 SDEP.m                3180.01:  Start Depth 
 SIDD.                      No:  Serv Intrp, DD 
 SINC.deg                68.42:  Inc, Start 
 SPPA.psig             4400.00:  SPP Avg 
 SPPN.psig             3580.00:  SPP Min 
 SPPX.psig             4850.00:  SPP Max 
 STIM.      12.30.00 24-Apr-21:  Start Time 
 SVCS.                 DD, MWD:  Services 
 SVER.                    9.20:  Sperry Version 
 TDAT.m                 438.00:  Tot Depth Attmp 
 TDDF.                      No:  Trip for DD 
 TDLG.m                 438.00:  Tot Depth Loggd 
 TFF .                      No:  Trip for Fail 
 TQAA.f-kp               11.00:  Torque Abs Avg 
 TQAN.f-kp                9.00:  Torque Abs Min 
 TQAX.f-kp               14.00:  Torque Abs Max 
 TRRT.°/30m               0.04:  Turn Rotating 
 MRT .                    HCIM:  Maximum Recorded Temperature 
 TTMX.degC               84.31:  Max Tool Temp 
 VS01.                90521954:  Virtual Str1 SN 
 VS02.                90519327:  Virtual Str2 SN 
 VS03.                90522273:  Virtual Str3 SN 
 VS04.                11108038:  Virtual Str4 SN 
 VS05.                12258760:  Virtual Str5 SN 
 WBMN.klb                 1.00:  WOB Min 
 WITN.           Adil Mammadov:  Customer Rep 
 WITN.         Alex Yadullayev:  Customer Rep 2 
 WOBA.klb                 6.00:  WOB Avg 
 WOBX.klb                 9.00:  WOB Max 
 YP  .lhf2               31.00:  Yield Point 
~Curve Information Block
#MNEM.UNIT                 API CODE     Curve Description
#---------               -----------    ---------------------------
 TIME.HHMMSS            00 000 000 000:  GT Time & Date
 GTDEPTH.m              00 000 000 000:  GT Depth
 GTPQH.psia             00 000 000 000:  GT HR Quartz Pressure
 GTTQ.degC              00 000 000 000:  GT Quartz Temperature
 GTTN.NONE              00 000 000 000:  GT Test Number
 GTET.sec               00 000 000 000:  GT Elapsed Test Time
 GTTVD.m                00 000 000 000:  GT True Vertical Depth
#Other Information
#
#WARRANTY: Halliburton will use its best efforts to furnish customers with 
#accurate information and interpretations that are part of, and incident to, the services 
#provided.  However, Halliburton cannot and does not warrant the accuracy 
#or correctness of such information and interpretations.  Under no circumstances should any 
#such information or interpretation be relied upon as the sole basis for any drilling, 
#completion, production, or financial decision or any procedure involving any risk to the 
#safety of any drilling venture, drilling rig or its crew or any other third party.  The 
#Customer has full responsibility for all drilling, completion and production operation.  
#Halliburton makes no representations or warranties, either expressed or 
#implied, including, but not limited to, the implied warranties of merchantability or fitness 
#for a particular purpose, with respect to the services rendered.  In no event will 
#Halliburton be liable for failure to obtain any particular results or for 
#any damages, including, but not limited to, indirect, special or consequential damages, 
#resulting from the use of any information or interpretation provided by Halliburton.
#
~A           TIME           GTDEPTH  GTPQH  GTTQ  GTTN  GTET   GTTVD  
# ...
   06:45:50.877.27-Apr-2021 3278.01 4380.78 73.72 4.00 230.02 2671.88
   06:45:51.077.27-Apr-2021 3278.01 4380.78 73.72 4.00 230.22 2671.88
   06:45:51.277.27-Apr-2021 3278.01 4380.76 73.72 4.00 230.42 2671.88
   06:45:51.477.27-Apr-2021 3278.01 4380.66 73.71 4.00 230.62 2671.88
   06:45:51.677.27-Apr-2021 3278.01 4380.64 73.71 4.00 230.82 2671.88
   06:45:51.877.27-Apr-2021 3278.01 4380.67 73.71 4.00 231.02 2671.88
   06:45:52.077.27-Apr-2021 3278.01 4380.67 73.71 4.00 231.22 2671.88
   06:45:52.277.27-Apr-2021 3278.01 4380.63 73.71 4.00 231.42 2671.88
   06:45:52.477.27-Apr-2021 3278.01 4380.66 73.71 4.00 231.62 2671.88
   06:45:52.677.27-Apr-2021 3278.01 4380.46 73.71 4.00 231.82 2671.88
   06:45:52.877.27-Apr-2021 3278.01 4380.58 73.71 4.00 232.02 2671.88
   06:45:53.077.27-Apr-2021 3278.01 4380.58 73.71 4.00 232.22 2671.88
   06:45:53.277.27-Apr-2021 3278.01 4380.61 73.71 4.00 232.42 2671.88
   06:45:53.477.27-Apr-2021 3278.01 4380.60 73.71 4.00 232.62 2671.88
   06:45:53.677.27-Apr-2021 3278.01 4380.66 73.71 4.00 232.82 2671.88
   06:45:53.877.27-Apr-2021 3278.01 4380.61 73.71 4.00 233.02 2671.88
   06:45:54.077.27-Apr-2021 3278.01 4380.61 73.71 4.00 233.22 2671.88
   06:45:54.277.27-Apr-2021 3278.01 4380.60 73.71 4.00 233.42 2671.88
   06:45:54.477.27-Apr-2021 3278.01 4380.70 73.71 4.00 233.62 2671.88
   06:45:54.677.27-Apr-2021 3278.01 4380.73 73.71 4.00 233.82 2671.88
   06:45:54.877.27-Apr-2021 3278.01 4380.72 73.71 4.00 234.02 2671.88
   06:45:55.077.27-Apr-2021 3278.01 4380.72 73.71 4.00 234.22 2671.88
   06:45:55.277.27-Apr-2021 3278.01 4380.65 73.71 4.00 234.42 2671.88
   06:45:55.477.27-Apr-2021 3278.01 4380.75 73.70 4.00 234.62 2671.88
   06:45:55.677.27-Apr-2021 3278.01 4380.62 73.70 4.00 234.82 2671.88
   06:45:55.877.27-Apr-2021 3278.01 4380.12 73.70 4.00 235.02 2671.88
   06:45:56.077.27-Apr-2021 3278.01 4380.12 73.70 4.00 235.22 2671.88
   06:45:56.277.27-Apr-2021 3278.01 4380.80 73.70 4.00 235.42 2671.88
   06:45:56.477.27-Apr-2021 3278.01 4380.70 73.70 4.00 235.62 2671.88
   06:45:56.677.27-Apr-2021 3278.01 4380.32 73.70 4.00 235.82 2671.88
   06:45:56.877.27-Apr-2021 3278.01 4380.73 73.70 4.00 236.02 2671.88
   06:45:57.077.27-Apr-2021 3278.01 4380.73 73.70 4.00 236.22 2671.88
   06:45:57.277.27-Apr-2021 3278.01 4380.73 73.70 4.00 236.42 2671.88
   06:45:57.477.27-Apr-2021 3278.01 4380.89 73.70 4.00 236.62 2671.88
   06:45:57.677.27-Apr-2021 3278.01 4380.45 73.70 4.00 236.82 2671.88
   06:45:57.877.27-Apr-2021 3278.01 4380.67 73.70 4.00 237.02 2671.88
   06:45:58.077.27-Apr-2021 3278.01 4380.67 73.70 4.00 237.22 2671.88
   06:45:58.277.27-Apr-2021 3278.01 4380.95 73.70 4.00 237.42 2671.88
   06:45:58.477.27-Apr-2021 3278.01 4380.57 73.70 4.00 237.62 2671.88
   06:45:58.677.27-Apr-2021 3278.01 4380.53 73.70 4.00 237.82 2671.88
   06:45:58.877.27-Apr-2021 3278.01 4364.57 73.70 4.00 238.02 2671.88
   06:45:59.077.27-Apr-2021 3278.01 4364.57 73.70 4.00 238.22 2671.88
   06:45:59.277.27-Apr-2021 3278.01 3893.85 73.70 4.00 238.42 2671.88
   06:45:59.477.27-Apr-2021 3278.01 3818.79 73.69 4.00 238.62 2671.88
   06:45:59.677.27-Apr-2021 3278.01 3786.22 73.69 4.00 238.82 2671.88
   06:45:59.877.27-Apr-2021 3278.01 3773.60 73.69 4.00 239.02 2671.88
   06:46:00.077.27-Apr-2021 3278.01 3773.60 73.69 4.00 239.22 2671.88
   06:46:00.277.27-Apr-2021 3278.01 3757.26 73.69 4.00 239.42 2671.88
   06:46:00.477.27-Apr-2021 3278.01 3754.26 73.69 4.00 239.62 2671.88
   06:46:00.677.27-Apr-2021 3278.01 3748.75 73.69 4.00 239.82 2671.88
   06:46:00.877.27-Apr-2021 3278.01 3745.94 73.69 4.00 240.02 2671.88
   06:46:01.077.27-Apr-2021 3278.01 3745.94 73.69 4.00 240.22 2671.88
   06:46:01.277.27-Apr-2021 3278.01 3734.98 73.69 4.00 240.42 2671.88
   06:46:01.477.27-Apr-2021 3278.01 3735.75 73.69 4.00 240.62 2671.88
   06:46:01.677.27-Apr-2021 3278.01 3737.40 73.69 4.00 240.82 2671.88
   06:46:01.877.27-Apr-2021 3278.01 3737.11 73.69 4.00 241.02 2671.88
   06:46:02.078.27-Apr-2021 3278.01 3737.11 73.69 4.00 241.22 2671.88
   06:46:02.278.27-Apr-2021 3278.01 3735.50 73.69 4.00 241.42 2671.88
   06:46:02.478.27-Apr-2021 3278.01 3733.76 73.69 4.00 241.62 2671.88
   06:46:02.678.27-Apr-2021 3278.01 3732.42 73.68 4.00 241.82 2671.88
   06:46:02.878.27-Apr-2021 3278.01 3731.31 73.68 4.00 242.02 2671.88
   06:46:03.078.27-Apr-2021 3278.01 3731.31 73.68 4.00 242.22 2671.88
   06:46:03.278.27-Apr-2021 3278.01 3728.30 73.68 4.00 242.42 2671.88
   06:46:03.478.27-Apr-2021 3278.01 3727.29 73.68 4.00 242.62 2671.88
   06:46:03.678.27-Apr-2021 3278.01 3727.65 73.68 4.00 242.82 2671.88
   06:46:03.878.27-Apr-2021 3278.01 3724.47 73.68 4.00 243.02 2671.88
   06:46:04.078.27-Apr-2021 3278.01 3724.47 73.68 4.00 243.22 2671.88
   06:46:04.278.27-Apr-2021 3278.01 3723.41 73.68 4.00 243.42 2671.88
   06:46:04.478.27-Apr-2021 3278.01 3725.62 73.68 4.00 243.62 2671.88
   06:46:04.678.27-Apr-2021 3278.01 3721.37 73.68 4.00 243.82 2671.88
   06:46:04.878.27-Apr-2021 3278.01 3717.28 73.68 4.00 244.02 2671.88
   06:46:05.078.27-Apr-2021 3278.01 3717.28 73.68 4.00 244.22 2671.88
   06:46:05.278.27-Apr-2021 3278.01 3724.09 73.68 4.00 244.42 2671.88
   06:46:05.478.27-Apr-2021 3278.01 3723.11 73.68 4.00 244.62 2671.88
   06:46:05.678.27-Apr-2021 3278.01 3719.30 73.67 4.00 244.82 2671.88
   06:46:05.878.27-Apr-2021 3278.01 3716.47 73.67 4.00 245.02 2671.88
   06:46:06.078.27-Apr-2021 3278.01 3716.47 73.67 4.00 245.22 2671.88
   06:46:06.278.27-Apr-2021 3278.01 3717.94 73.67 4.00 245.42 2671.88
   06:46:06.478.27-Apr-2021 3278.01 3719.43 73.67 4.00 245.62 2671.88
   06:46:06.678.27-Apr-2021 3278.01 3717.52 73.67 4.00 245.82 2671.88
   06:46:06.878.27-Apr-2021 3278.01 3723.31 73.67 4.00 246.02 2671.88
   06:46:07.078.27-Apr-2021 3278.01 3723.31 73.67 4.00 246.22 2671.88
   06:46:07.278.27-Apr-2021 3278.01 3730.96 73.67 4.00 246.42 2671.88
   06:46:07.478.27-Apr-2021 3278.01 3730.11 73.67 4.00 246.62 2671.88
   06:46:07.678.27-Apr-2021 3278.01 3728.41 73.67 4.00 246.82 2671.88
   06:46:07.878.27-Apr-2021 3278.01 3729.19 73.67 4.00 247.02 2671.88
   06:46:08.078.27-Apr-2021 3278.01 3729.19 73.67 4.00 247.22 2671.88
   06:46:08.278.27-Apr-2021 3278.01 3725.07 73.67 4.00 247.42 2671.88
   06:46:08.478.27-Apr-2021 3278.01 3721.45 73.67 4.00 247.62 2671.88
   06:46:08.678.27-Apr-2021 3278.01 3720.76 73.66 4.00 247.82 2671.88
   06:46:08.878.27-Apr-2021 3278.01 3720.72 73.66 4.00 248.02 2671.88
   06:46:09.078.27-Apr-2021 3278.01 3720.72 73.66 4.00 248.22 2671.88
   06:46:09.278.27-Apr-2021 3278.01 3720.72 73.66 4.00 248.42 2671.88
   06:46:09.478.27-Apr-2021 3278.01 4091.86 73.66 4.00 248.62 2671.88
   06:46:09.678.27-Apr-2021 3278.01 4218.54 73.66 4.00 248.82 2671.88
   06:46:09.878.27-Apr-2021 3278.01 4276.10 73.66 4.00 249.02 2671.88
   06:46:10.078.27-Apr-2021 3278.01 4276.10 73.66 4.00 249.22 2671.88
   06:46:10.278.27-Apr-2021 3278.01 4319.87 73.66 4.00 249.42 2671.88
   06:46:10.478.27-Apr-2021 3278.01 4329.11 73.66 4.00 249.62 2671.88
   06:46:10.678.27-Apr-2021 3278.01 4335.08 73.66 4.00 249.82 2671.88
   06:46:10.878.27-Apr-2021 3278.01 4339.59 73.66 4.00 250.02 2671.88
   06:46:11.078.27-Apr-2021 3278.01 4339.59 73.66 4.00 250.22 2671.88
   06:46:11.278.27-Apr-2021 3278.01 4345.61 73.66 4.00 250.42 2671.88
   06:46:11.478.27-Apr-2021 3278.01 4347.64 73.66 4.00 250.62 2671.88
   06:46:11.678.27-Apr-2021 3278.01 4349.59 73.66 4.00 250.82 2671.88
   06:46:11.878.27-Apr-2021 3278.01 4351.22 73.66 4.00 251.02 2671.88
   06:46:12.078.27-Apr-2021 3278.01 4351.22 73.66 4.00 251.22 2671.88
   06:46:12.278.27-Apr-2021 3278.01 4353.66 73.66 4.00 251.42 2671.88
   06:46:12.478.27-Apr-2021 3278.01 4354.96 73.66 4.00 251.62 2671.88
   06:46:12.678.27-Apr-2021 3278.01 4356.26 73.66 4.00 251.82 2671.88
   06:46:12.878.27-Apr-2021 3278.01 4357.32 73.66 4.00 252.02 2671.88
   06:46:13.078.27-Apr-2021 3278.01 4357.32 73.66 4.00 252.22 2671.88
   06:46:13.278.27-Apr-2021 3278.01 4358.79 73.65 4.00 252.42 2671.88
   06:46:13.478.27-Apr-2021 3278.01 4359.65 73.65 4.00 252.62 2671.88
   06:46:13.678.27-Apr-2021 3278.01 4360.75 73.65 4.00 252.82 2671.88
