~Version Information
 VERS.                  2.0:   CWLS log ASCII Standard -VERSION 2.0
 WRAP.                   NO:   One line per depth step
~Well Information Block
#MNEM.UNIT     VALUE/NAME     DESCRIPTION
#---------     -----------    ---------------------------
 STRT.S             15:37:44 28-Apr-21: START TIME 15:37:44 28-Apr-21
 STOP.S             15:44:12 28-Apr-21: STOP TIME  15:44:12 28-Apr-21
 STEP.S                   0.00: STEP TIME
 NULL.                 -999.25: NULL VALUE
 DFWT.                        :  DIST FWL TEXT
 DFST.                        :  DIST FSL TEXT
 DMF .             Drill Floor:  DRILL MEAS FROM
 STIM.      02.00.00 12-Apr-21:  START TIME
 DATE.      02.00.00 02-May-21:  END TIME
 SPUD.               09-Apr-21:  SPUD DATE
 NREF.                    Grid:  NORTH REFERENCE
 HPTY.       Minimum Curvature:  HOLE POS TYPE
 DMOD.             Drill Model:  DRILL MOD DESC
 SVYD.                  Survey:  SURVEY DESC
 ILTD.               Lithology:  INTERP LTH DESC
 FTOP.          Formation Tops:  FORM TOPS DESC
 PDAT.          Mean Sea Level:  PERMANENT DATUM
 FLD .                     ACG:  FIELD NAME
 SON .        AZ-XX-0907021034:  JOB NUMBER
 CTRY.              Azerbaijan:  COUNTRY NAME
 WELL.                    E01x:  WELL NAME
 COMP.     BP Exploration (Caspian Sea) LTD.:  COMPANY
 UWI .            /AZE00001403:  UNIQUE WELL IDENTIFIER
 API .            /AZE00001403:  API NUMBER
 WTYP.                Deviated:  WELL TYPE
 MDS .        Operator Entered:  MAG DATA SOURCE
 BASE.              Azerbaijan:  LOGGING EQUIPMENT BASE LOCATION
 REGN.                   EESSA:  REGION
 PROV.                    Baku:  PROVINCE
 STAT.                    Baku:  STATE NAME
 SRVC.          Turan Drilling:  CONTRACTOR
 MWDS.                    Baku:  MWD SHOP
 JOBN.        AZ-XX-0907021034:  JOB TICKET NUMB
 RIG .                     DWG:  RIG NAME
 DOE .                     N/A:  DOE NUMBER
 DCON.         Sperry Drilling:  DIRECTNL CONTR
 UNIT.                     N/A:  LOGGING EQUIPMENT ID
 CNTY.                        :  COUNTY
 LOC .                        :  LOCATION
 LMF .             Drill Floor:  LOG MEASURED FROM
 TVDS.m                  43.16:  TVDSS CORRECTN
 LATI.deg                40.17:  LATITUDE
 LONG.deg                51.17:  LONGITUDE
 WHNS.m                  -5.90:  WELL HEAD N/S
 WHEW.m                  -6.61:  WELL HEAD E/W
 UTMX.m              514337.95:  UTM X
 UTMY.m             4448627.46:  UTM Y
 DFWL.m                   0.00:  DISTANCE FWL
 DFSL.m                   0.00:  DISTANCE FSL
 SDEP.m                2606.87:  START DEPTH
 TDD .m                3618.01:  TOTAL DEPTH (DRILLER)
 VSDR.deg               177.42:  VERT SEC DIRECT
 GVFD.g                   1.00:  GRAVITY FIELD
 MFLD.nT              50399.00:  MAGNETIC FIELD
 MDIP.deg                59.67:  MAGNETIC DIP
 MDEC.deg                 6.56:  MAGNETIC DECL
 GRDC.deg                 0.11:  GRID CORRECTION
 AZTC.deg                 6.45:  AZM TOTAL CORR
 EPD .m                   0.00:  ELEVATION
 EGL .m                   0.00:  GROUND ELEVATION
 WDMS.m                 176.20:  WD ELEV
 APD .m                  43.16:  DEPTH ABOVE PD
 DEP .m                2606.87:  DEPTH
 AGAP.m                  43.16:  AIR GAP
 VSEW.m                  -6.61:  VERT SEC E/W
 VSNS.m                  -5.90:  VERT SEC N/S
 EKB .m                  43.16:  KB ELEVATION
 EDF .m                  43.16:  DF ELEVATION
 TDL .m                 438.00:  TOTAL DEPTH (LOGGER)
 VSC .                       0:  VS TO CLOSURE
 MAGU.                 1855490:  MAGUTM CHECKSUM
~Parameter Information Block
#MNEM.UNIT       Value        Description
#---------     -----------    ---------------------------
 AV  .mps                 2.20:  Ann Velocity 
 AVMX.mps                 2.50:  Max Ann Veloc 
 AZIF.deg               150.21:  Azm, Final 
 BHAT.        Rotary Steerable:  BHA Type 
 BROT.°/30m               0.08:  Build Rotating 
 BS  .in                  6.50:  Bit Size 
 BSZ .in                  6.50:  Bit Size 
 BTPL.psig              108.00:  Bit Press Loss 
 CABU.                     Yes:  Customer Abuse 
 CGEO.           Emin Aliyarli:  Customer Geo 
 COMM.                     ôŸZ:  Run Comments 1 
 TCS .hr                 74.20:  Time Ciculation Ended 
 CV  .mps                 3.63:  Crit Velocity 
 CVMX.mps                 3.66:  Max Crit Veloc 
 DD1 .         Intigam Rahimov:  Direct Drillr 1 
 DD2 .          Teymur Aghayev:  Direct Drillr 2 
 DDSV.               Geo-Pilot:  DD Service 
 DEFF.%                  97.00:  % Det Eff 
 DLRX.°/30m               1.63:  Dogleg Rot Max 
 DLSO.°/30m               0.00:  Dogleg Oriented 
 DLSX.°/30m               0.00:  Dogleg Str Max 
 DRET.      20.20.00 28-Apr-21:  Drill End Time 
 DRST.      04.45.00 26-Apr-21:  Drill Start Tim 
 DTIM.hr                 34.30:  Time Drilling 
 EDEP.m                3618.01:  End Depth 
 ENG1.           Amrah Tahirov:  Engineer 1 
 ENG2.         Bahruz Mehdiyev:  Engineer 2 
 ENG3.         Farhad Orujzade:  Engineer 3 
 ETIM.      19.00.00 29-Apr-21:  End Time 
 FLOI.gpm               370.00:  Flow In 
 FLON.gpm               300.00:  Flow In Min 
 FLOS.cptm                0.00:  Fluid Loss 
 FLOX.gpm               410.00:  Flow In Max 
 HFLO.                      No:  High Flow 
 HPRE.                      No:  High Pressure 
 HTEM.                      No:  High Temp 
 HYDO.m                   1.80:  Hydro Offset 
 IFIN.deg                67.19:  Inc, Final 
 IMAX.deg                68.42:  Inc Max 
 IMIN.deg                66.33:  Inc Min 
 IMND.m                3532.79:  Inc Min Depth 
 IMXD.m                3192.15:  Inc Max Depth 
 JARR.                      No:  Jarring 
 LETM.      20.20.00 28-Apr-21:  Log End Time 
 LOST.hr                     0:  Lost Rig Time 
 LSTM.      04.45.00 26-Apr-21:  Log Start Time 
 MDCL.ppm             36500.00:  Mud Chlorides 
 MDES.     Inversion Oil/Synthetic:  Mud Desc 
 DFD .sg                  1.42:  Mud Density 
 MDMN.sg                  1.42:  Dens Mud Min 
 MDMX.sg                  1.42:  Dens Mud Max 
 MOIL.                    55.7:  Run Mud Oil % 
 MOWR.                   71:29:  Run Mud OWR 
 MSND.                     0.1:  Run Mud Sand % 
 MSOL.                    19.9:  Run Mud Solids% 
 DFV .spqt               83.00:  Mud Viscosity 
 MWOD.in                  5.15:  MWD Tool OD 
 MWSI.                      No:  Serv Intrp, MWD 
 OTIM.hr                120.59:  Time Operating 
 PCON.           Look Like New:  Pad Condition 
 PMAX.psia            11292.93:  Press Op, Max 
 PV  .cP                 27.00:  Mud PV 
 RUN .                     400:  Run Number 
 ROPA.m/hr               14.00:  ROP Avg 
 ROPN.m/hr                9.00:  ROP Min 
 ROPX.m/hr               18.00:  ROP Max 
 RPMA.rpm               130.00:  RPM Surface Avg 
 RPMN.rpm               100.00:  RPM Surface Min 
 RPMX.rpm               140.00:  RPM Surface Max 
 RRUN.                    0400:  Rig Run Number 
 RTIM.hr                 38.60:  Time Reaming 
 SAZI.deg               149.55:  Azm, Start 
 SDEP.m                3180.01:  Start Depth 
 SIDD.                      No:  Serv Intrp, DD 
 SINC.deg                68.42:  Inc, Start 
 SPPA.psig             4400.00:  SPP Avg 
 SPPN.psig             3580.00:  SPP Min 
 SPPX.psig             4850.00:  SPP Max 
 STIM.      12.30.00 24-Apr-21:  Start Time 
 SVCS.                 DD, MWD:  Services 
 SVER.                    9.20:  Sperry Version 
 TDAT.m                 438.00:  Tot Depth Attmp 
 TDDF.                      No:  Trip for DD 
 TDLG.m                 438.00:  Tot Depth Loggd 
 TFF .                      No:  Trip for Fail 
 TQAA.f-kp               11.00:  Torque Abs Avg 
 TQAN.f-kp                9.00:  Torque Abs Min 
 TQAX.f-kp               14.00:  Torque Abs Max 
 TRRT.°/30m               0.04:  Turn Rotating 
 MRT .                    HCIM:  Maximum Recorded Temperature 
 TTMX.degC               84.31:  Max Tool Temp 
 VS01.                90521954:  Virtual Str1 SN 
 VS02.                90519327:  Virtual Str2 SN 
 VS03.                90522273:  Virtual Str3 SN 
 VS04.                11108038:  Virtual Str4 SN 
 VS05.                12258760:  Virtual Str5 SN 
 WBMN.klb                 1.00:  WOB Min 
 WITN.           Adil Mammadov:  Customer Rep 
 WITN.         Alex Yadullayev:  Customer Rep 2 
 WOBA.klb                 6.00:  WOB Avg 
 WOBX.klb                 9.00:  WOB Max 
 YP  .lhf2               31.00:  Yield Point 
~Curve Information Block
#MNEM.UNIT                 API CODE     Curve Description
#---------               -----------    ---------------------------
 TIME.HHMMSS            00 000 000 000:  GT Time & Date
 GTDEPTH.m              00 000 000 000:  GT Depth
 GTPQH.psia             00 000 000 000:  GT HR Quartz Pressure
 GTTQ.degC              00 000 000 000:  GT Quartz Temperature
 GTTN.NONE              00 000 000 000:  GT Test Number
 GTET.sec               00 000 000 000:  GT Elapsed Test Time
 GTTVD.m                00 000 000 000:  GT True Vertical Depth
#Other Information
#
#WARRANTY: Halliburton will use its best efforts to furnish customers with 
#accurate information and interpretations that are part of, and incident to, the services 
#provided.  However, Halliburton cannot and does not warrant the accuracy 
#or correctness of such information and interpretations.  Under no circumstances should any 
#such information or interpretation be relied upon as the sole basis for any drilling, 
#completion, production, or financial decision or any procedure involving any risk to the 
#safety of any drilling venture, drilling rig or its crew or any other third party.  The 
#Customer has full responsibility for all drilling, completion and production operation.  
#Halliburton makes no representations or warranties, either expressed or 
#implied, including, but not limited to, the implied warranties of merchantability or fitness 
#for a particular purpose, with respect to the services rendered.  In no event will 
#Halliburton be liable for failure to obtain any particular results or for 
#any damages, including, but not limited to, indirect, special or consequential damages, 
#resulting from the use of any information or interpretation provided by Halliburton.
#
~A           TIME           GTDEPTH  GTPQH  GTTQ  GTTN   GTET   GTTVD  
# ...
   15:41:07.792.28-Apr-2021 3537.51 4281.08 74.58 10.00 203.48 2773.98
   15:41:07.992.28-Apr-2021 3537.51 4281.22 74.58 10.00 203.68 2773.98
   15:41:08.192.28-Apr-2021 3537.51 4281.22 74.58 10.00 203.88 2773.98
   15:41:08.392.28-Apr-2021 3537.51 4281.27 74.58 10.00 204.08 2773.98
   15:41:08.592.28-Apr-2021 3537.51 4281.27 74.58 10.00 204.28 2773.98
   15:41:08.792.28-Apr-2021 3537.51 4281.16 74.57 10.00 204.48 2773.98
   15:41:08.992.28-Apr-2021 3537.51 4281.24 74.57 10.00 204.68 2773.98
   15:41:09.192.28-Apr-2021 3537.51 4281.21 74.57 10.00 204.88 2773.98
   15:41:09.392.28-Apr-2021 3537.51 4281.22 74.57 10.00 205.08 2773.98
   15:41:09.592.28-Apr-2021 3537.51 4281.22 74.57 10.00 205.28 2773.98
   15:41:09.793.28-Apr-2021 3537.51 4281.21 74.57 10.00 205.48 2773.98
   15:41:09.993.28-Apr-2021 3537.51 4281.21 74.57 10.00 205.68 2773.98
   15:41:10.193.28-Apr-2021 3537.51 4281.20 74.57 10.00 205.88 2773.98
   15:41:10.393.28-Apr-2021 3537.51 4281.21 74.57 10.00 206.08 2773.98
   15:41:10.593.28-Apr-2021 3537.51 4281.21 74.57 10.00 206.28 2773.98
   15:41:10.793.28-Apr-2021 3537.51 4281.29 74.57 10.00 206.48 2773.98
   15:41:10.993.28-Apr-2021 3537.51 4281.21 74.57 10.00 206.68 2773.98
   15:41:11.193.28-Apr-2021 3537.51 4281.23 74.57 10.00 206.88 2773.98
   15:41:11.393.28-Apr-2021 3537.51 4281.22 74.57 10.00 207.08 2773.98
   15:41:11.593.28-Apr-2021 3537.51 4281.22 74.57 10.00 207.28 2773.98
   15:41:11.793.28-Apr-2021 3537.51 4281.22 74.57 10.00 207.48 2773.98
   15:41:11.993.28-Apr-2021 3537.51 4281.13 74.57 10.00 207.68 2773.98
   15:41:12.193.28-Apr-2021 3537.51 4281.27 74.57 10.00 207.88 2773.98
   15:41:12.394.28-Apr-2021 3537.51 4281.22 74.57 10.00 208.08 2773.98
   15:41:12.594.28-Apr-2021 3537.51 4281.22 74.57 10.00 208.28 2773.98
   15:41:12.794.28-Apr-2021 3537.51 4281.22 74.57 10.00 208.48 2773.98
   15:41:12.994.28-Apr-2021 3537.51 4281.37 74.56 10.00 208.68 2773.98
   15:41:13.194.28-Apr-2021 3537.51 4281.26 74.56 10.00 208.88 2773.98
   15:41:13.394.28-Apr-2021 3537.51 4281.19 74.56 10.00 209.08 2773.98
   15:41:13.594.28-Apr-2021 3537.51 4281.19 74.56 10.00 209.28 2773.98
   15:41:13.794.28-Apr-2021 3537.51 4281.12 74.56 10.00 209.48 2773.98
   15:41:13.994.28-Apr-2021 3537.51 4281.18 74.56 10.00 209.68 2773.98
   15:41:14.194.28-Apr-2021 3537.51 4281.25 74.56 10.00 209.88 2773.98
   15:41:14.394.28-Apr-2021 3537.51 4281.27 74.56 10.00 210.08 2773.98
   15:41:14.594.28-Apr-2021 3537.51 4281.27 74.56 10.00 210.28 2773.98
   15:41:14.794.28-Apr-2021 3537.51 4281.15 74.56 10.00 210.48 2773.98
   15:41:14.995.28-Apr-2021 3537.51 4281.27 74.56 10.00 210.68 2773.98
   15:41:15.195.28-Apr-2021 3537.51 4281.20 74.56 10.00 210.88 2773.98
   15:41:15.395.28-Apr-2021 3537.51 4281.23 74.56 10.00 211.08 2773.98
   15:41:15.595.28-Apr-2021 3537.51 4281.23 74.56 10.00 211.28 2773.98
   15:41:15.795.28-Apr-2021 3537.51 4281.18 74.56 10.00 211.48 2773.98
   15:41:15.995.28-Apr-2021 3537.51 4281.23 74.56 10.00 211.68 2773.98
   15:41:16.195.28-Apr-2021 3537.51 4281.19 74.56 10.00 211.88 2773.98
   15:41:16.395.28-Apr-2021 3537.51 4281.20 74.55 10.00 212.08 2773.98
   15:41:16.595.28-Apr-2021 3537.51 4281.20 74.55 10.00 212.28 2773.98
   15:41:16.795.28-Apr-2021 3537.51 4281.27 74.55 10.00 212.48 2773.98
   15:41:16.995.28-Apr-2021 3537.51 4281.24 74.55 10.00 212.68 2773.98
   15:41:17.195.28-Apr-2021 3537.51 4281.21 74.55 10.00 212.88 2773.98
   15:41:17.395.28-Apr-2021 3537.51 4281.17 74.55 10.00 213.08 2773.98
   15:41:17.596.28-Apr-2021 3537.51 4281.17 74.55 10.00 213.28 2773.98
   15:41:17.796.28-Apr-2021 3537.51 4281.21 74.55 10.00 213.48 2773.98
   15:41:17.996.28-Apr-2021 3537.51 4281.18 74.55 10.00 213.68 2773.98
   15:41:18.196.28-Apr-2021 3537.51 4281.21 74.55 10.00 213.88 2773.98
   15:41:18.396.28-Apr-2021 3537.51 4281.16 74.55 10.00 214.08 2773.98
   15:41:18.596.28-Apr-2021 3537.51 4281.16 74.55 10.00 214.28 2773.98
   15:41:18.796.28-Apr-2021 3537.51 4281.18 74.55 10.00 214.48 2773.98
   15:41:18.996.28-Apr-2021 3537.51 4281.18 74.55 10.00 214.68 2773.98
   15:41:19.196.28-Apr-2021 3537.51 4281.15 74.55 10.00 214.88 2773.98
   15:41:19.396.28-Apr-2021 3537.51 4281.09 74.55 10.00 215.08 2773.98
   15:41:19.596.28-Apr-2021 3537.51 4281.09 74.55 10.00 215.28 2773.98
   15:41:19.796.28-Apr-2021 3537.51 4281.22 74.55 10.00 215.48 2773.98
   15:41:19.996.28-Apr-2021 3537.51 4281.20 74.54 10.00 215.68 2773.98
   15:41:20.197.28-Apr-2021 3537.51 4281.16 74.54 10.00 215.88 2773.98
   15:41:20.397.28-Apr-2021 3537.51 4281.20 74.54 10.00 216.08 2773.98
   15:41:20.597.28-Apr-2021 3537.51 4281.20 74.54 10.00 216.28 2773.98
   15:41:20.797.28-Apr-2021 3537.51 4281.32 74.54 10.00 216.48 2773.98
   15:41:20.997.28-Apr-2021 3537.51 4281.26 74.54 10.00 216.68 2773.98
   15:41:21.197.28-Apr-2021 3537.51 4281.18 74.54 10.00 216.88 2773.98
   15:41:21.397.28-Apr-2021 3537.51 4281.09 74.54 10.00 217.08 2773.98
   15:41:21.597.28-Apr-2021 3537.51 4281.09 74.54 10.00 217.28 2773.98
   15:41:21.797.28-Apr-2021 3537.51 4281.23 74.54 10.00 217.48 2773.98
   15:41:21.997.28-Apr-2021 3537.51 4281.24 74.54 10.00 217.68 2773.98
   15:41:22.197.28-Apr-2021 3537.51 4281.18 74.54 10.00 217.88 2773.98
   15:41:22.397.28-Apr-2021 3537.51 4281.16 74.54 10.00 218.08 2773.98
   15:41:22.597.28-Apr-2021 3537.51 4281.16 74.54 10.00 218.28 2773.98
   15:41:22.798.28-Apr-2021 3537.51 4281.36 74.54 10.00 218.48 2773.98
   15:41:22.998.28-Apr-2021 3537.51 4281.26 74.54 10.00 218.68 2773.98
   15:41:23.198.28-Apr-2021 3537.51 4281.19 74.54 10.00 218.88 2773.98
   15:41:23.398.28-Apr-2021 3537.51 4281.16 74.54 10.00 219.08 2773.98
   15:41:23.598.28-Apr-2021 3537.51 4281.16 74.54 10.00 219.28 2773.98
   15:41:23.798.28-Apr-2021 3537.51 4281.23 74.53 10.00 219.48 2773.98
   15:41:23.998.28-Apr-2021 3537.51 4281.19 74.53 10.00 219.68 2773.98
   15:41:24.198.28-Apr-2021 3537.51 4281.18 74.53 10.00 219.88 2773.98
   15:41:24.398.28-Apr-2021 3537.51 4281.17 74.53 10.00 220.08 2773.98
   15:41:24.598.28-Apr-2021 3537.51 4281.17 74.53 10.00 220.28 2773.98
   15:41:24.798.28-Apr-2021 3537.51 4281.21 74.53 10.00 220.48 2773.98
   15:41:24.998.28-Apr-2021 3537.51 4281.15 74.53 10.00 220.68 2773.98
   15:41:25.198.28-Apr-2021 3537.51 4280.94 74.53 10.00 220.88 2773.98
   15:41:25.399.28-Apr-2021 3537.51 4281.30 74.53 10.00 221.08 2773.98
   15:41:25.599.28-Apr-2021 3537.51 4281.30 74.53 10.00 221.28 2773.98
   15:41:25.799.28-Apr-2021 3537.51 4281.21 74.53 10.00 221.48 2773.98
   15:41:25.999.28-Apr-2021 3537.51 4281.15 74.53 10.00 221.68 2773.98
   15:41:26.199.28-Apr-2021 3537.51 4281.18 74.53 10.00 221.88 2773.98
   15:41:26.399.28-Apr-2021 3537.51 4281.18 74.53 10.00 222.08 2773.98
   15:41:26.599.28-Apr-2021 3537.51 4281.18 74.53 10.00 222.28 2773.98
   15:41:26.799.28-Apr-2021 3537.51 4281.16 74.53 10.00 222.48 2773.98
   15:41:26.999.28-Apr-2021 3537.51 4281.17 74.53 10.00 222.68 2773.98
   15:41:27.199.28-Apr-2021 3537.51 4281.18 74.53 10.00 222.89 2773.98
   15:41:27.399.28-Apr-2021 3537.51 4281.16 74.53 10.00 223.09 2773.98
   15:41:27.599.28-Apr-2021 3537.51 4281.16 74.53 10.00 223.29 2773.98
   15:41:27.799.28-Apr-2021 3537.51 4281.14 74.52 10.00 223.49 2773.98
   15:41:28.000.28-Apr-2021 3537.51 4280.94 74.52 10.00 223.69 2773.98
   15:41:28.200.28-Apr-2021 3537.51 4281.31 74.52 10.00 223.89 2773.98
   15:41:28.400.28-Apr-2021 3537.51 4281.25 74.52 10.00 224.09 2773.98
   15:41:28.600.28-Apr-2021 3537.51 4281.25 74.52 10.00 224.29 2773.98
   15:41:28.800.28-Apr-2021 3537.51 4281.14 74.52 10.00 224.49 2773.98
   15:41:29.000.28-Apr-2021 3537.51 4281.21 74.52 10.00 224.69 2773.98
   15:41:29.200.28-Apr-2021 3537.51 4281.01 74.52 10.00 224.89 2773.98
   15:41:29.400.28-Apr-2021 3537.51 4281.31 74.52 10.00 225.09 2773.98
   15:41:29.600.28-Apr-2021 3537.51 4281.31 74.52 10.00 225.29 2773.98
   15:41:29.800.28-Apr-2021 3537.51 4281.17 74.52 10.00 225.49 2773.98
   15:41:30.000.28-Apr-2021 3537.51 4281.19 74.52 10.00 225.69 2773.98
   15:41:30.200.28-Apr-2021 3537.51 4281.02 74.52 10.00 225.89 2773.98
