~Version Information
 VERS.                  2.0:   CWLS log ASCII Standard -VERSION 2.0
 WRAP.                   NO:   One line per depth step
~Well Information Block
#MNEM.UNIT     VALUE/NAME     DESCRIPTION
#---------     -----------    ---------------------------
 STRT.S             19:03:38 27-Apr-21: START TIME 19:03:38 27-Apr-21
 STOP.S             19:10:06 27-Apr-21: STOP TIME  19:10:06 27-Apr-21
 STEP.S                   0.00: STEP TIME
 NULL.                 -999.25: NULL VALUE
 DFWT.                        :  DIST FWL TEXT
 DFST.                        :  DIST FSL TEXT
 DMF .             Drill Floor:  DRILL MEAS FROM
 STIM.      02.00.00 12-Apr-21:  START TIME
 DATE.      02.00.00 02-May-21:  END TIME
 SPUD.               09-Apr-21:  SPUD DATE
 NREF.                    Grid:  NORTH REFERENCE
 HPTY.       Minimum Curvature:  HOLE POS TYPE
 DMOD.             Drill Model:  DRILL MOD DESC
 SVYD.                  Survey:  SURVEY DESC
 ILTD.               Lithology:  INTERP LTH DESC
 FTOP.          Formation Tops:  FORM TOPS DESC
 PDAT.          Mean Sea Level:  PERMANENT DATUM
 FLD .                     ACG:  FIELD NAME
 SON .        AZ-XX-0907021034:  JOB NUMBER
 CTRY.              Azerbaijan:  COUNTRY NAME
 WELL.                    E01x:  WELL NAME
 COMP.     BP Exploration (Caspian Sea) LTD.:  COMPANY
 UWI .            /AZE00001403:  UNIQUE WELL IDENTIFIER
 API .            /AZE00001403:  API NUMBER
 WTYP.                Deviated:  WELL TYPE
 MDS .        Operator Entered:  MAG DATA SOURCE
 BASE.              Azerbaijan:  LOGGING EQUIPMENT BASE LOCATION
 REGN.                   EESSA:  REGION
 PROV.                    Baku:  PROVINCE
 STAT.                    Baku:  STATE NAME
 SRVC.          Turan Drilling:  CONTRACTOR
 MWDS.                    Baku:  MWD SHOP
 JOBN.        AZ-XX-0907021034:  JOB TICKET NUMB
 RIG .                     DWG:  RIG NAME
 DOE .                     N/A:  DOE NUMBER
 DCON.         Sperry Drilling:  DIRECTNL CONTR
 UNIT.                     N/A:  LOGGING EQUIPMENT ID
 CNTY.                        :  COUNTY
 LOC .                        :  LOCATION
 LMF .             Drill Floor:  LOG MEASURED FROM
 TVDS.m                  43.16:  TVDSS CORRECTN
 LATI.deg                40.17:  LATITUDE
 LONG.deg                51.17:  LONGITUDE
 WHNS.m                  -5.90:  WELL HEAD N/S
 WHEW.m                  -6.61:  WELL HEAD E/W
 UTMX.m              514337.95:  UTM X
 UTMY.m             4448627.46:  UTM Y
 DFWL.m                   0.00:  DISTANCE FWL
 DFSL.m                   0.00:  DISTANCE FSL
 SDEP.m                2606.87:  START DEPTH
 TDD .m                3618.01:  TOTAL DEPTH (DRILLER)
 VSDR.deg               177.42:  VERT SEC DIRECT
 GVFD.g                   1.00:  GRAVITY FIELD
 MFLD.nT              50399.00:  MAGNETIC FIELD
 MDIP.deg                59.67:  MAGNETIC DIP
 MDEC.deg                 6.56:  MAGNETIC DECL
 GRDC.deg                 0.11:  GRID CORRECTION
 AZTC.deg                 6.45:  AZM TOTAL CORR
 EPD .m                   0.00:  ELEVATION
 EGL .m                   0.00:  GROUND ELEVATION
 WDMS.m                 176.20:  WD ELEV
 APD .m                  43.16:  DEPTH ABOVE PD
 DEP .m                2606.87:  DEPTH
 AGAP.m                  43.16:  AIR GAP
 VSEW.m                  -6.61:  VERT SEC E/W
 VSNS.m                  -5.90:  VERT SEC N/S
 EKB .m                  43.16:  KB ELEVATION
 EDF .m                  43.16:  DF ELEVATION
 TDL .m                 438.00:  TOTAL DEPTH (LOGGER)
 VSC .                       0:  VS TO CLOSURE
 MAGU.                 1855490:  MAGUTM CHECKSUM
~Parameter Information Block
#MNEM.UNIT       Value        Description
#---------     -----------    ---------------------------
 AV  .mps                 2.20:  Ann Velocity 
 AVMX.mps                 2.50:  Max Ann Veloc 
 AZIF.deg               150.21:  Azm, Final 
 BHAT.        Rotary Steerable:  BHA Type 
 BROT.°/30m               0.08:  Build Rotating 
 BS  .in                  6.50:  Bit Size 
 BSZ .in                  6.50:  Bit Size 
 BTPL.psig              108.00:  Bit Press Loss 
 CABU.                     Yes:  Customer Abuse 
 CGEO.           Emin Aliyarli:  Customer Geo 
 COMM.                     LÊS:  Run Comments 1 
 TCS .hr                 74.20:  Time Ciculation Ended 
 CV  .mps                 3.63:  Crit Velocity 
 CVMX.mps                 3.66:  Max Crit Veloc 
 DD1 .         Intigam Rahimov:  Direct Drillr 1 
 DD2 .          Teymur Aghayev:  Direct Drillr 2 
 DDSV.               Geo-Pilot:  DD Service 
 DEFF.%                  97.00:  % Det Eff 
 DLRX.°/30m               1.63:  Dogleg Rot Max 
 DLSO.°/30m               0.00:  Dogleg Oriented 
 DLSX.°/30m               0.00:  Dogleg Str Max 
 DRET.      20.20.00 28-Apr-21:  Drill End Time 
 DRST.      04.45.00 26-Apr-21:  Drill Start Tim 
 DTIM.hr                 34.30:  Time Drilling 
 EDEP.m                3618.01:  End Depth 
 ENG1.           Amrah Tahirov:  Engineer 1 
 ENG2.         Bahruz Mehdiyev:  Engineer 2 
 ENG3.         Farhad Orujzade:  Engineer 3 
 ETIM.      19.00.00 29-Apr-21:  End Time 
 FLOI.gpm               370.00:  Flow In 
 FLON.gpm               300.00:  Flow In Min 
 FLOS.cptm                0.00:  Fluid Loss 
 FLOX.gpm               410.00:  Flow In Max 
 HFLO.                      No:  High Flow 
 HPRE.                      No:  High Pressure 
 HTEM.                      No:  High Temp 
 HYDO.m                   1.80:  Hydro Offset 
 IFIN.deg                67.19:  Inc, Final 
 IMAX.deg                68.42:  Inc Max 
 IMIN.deg                66.33:  Inc Min 
 IMND.m                3532.79:  Inc Min Depth 
 IMXD.m                3192.15:  Inc Max Depth 
 JARR.                      No:  Jarring 
 LETM.      20.20.00 28-Apr-21:  Log End Time 
 LOST.hr                     0:  Lost Rig Time 
 LSTM.      04.45.00 26-Apr-21:  Log Start Time 
 MDCL.ppm             36500.00:  Mud Chlorides 
 MDES.     Inversion Oil/Synthetic:  Mud Desc 
 DFD .sg                  1.42:  Mud Density 
 MDMN.sg                  1.42:  Dens Mud Min 
 MDMX.sg                  1.42:  Dens Mud Max 
 MOIL.                    55.7:  Run Mud Oil % 
 MOWR.                   71:29:  Run Mud OWR 
 MSND.                     0.1:  Run Mud Sand % 
 MSOL.                    19.9:  Run Mud Solids% 
 DFV .spqt               83.00:  Mud Viscosity 
 MWOD.in                  5.15:  MWD Tool OD 
 MWSI.                      No:  Serv Intrp, MWD 
 OTIM.hr                120.59:  Time Operating 
 PCON.           Look Like New:  Pad Condition 
 PMAX.psia            11292.93:  Press Op, Max 
 PV  .cP                 27.00:  Mud PV 
 RUN .                     400:  Run Number 
 ROPA.m/hr               14.00:  ROP Avg 
 ROPN.m/hr                9.00:  ROP Min 
 ROPX.m/hr               18.00:  ROP Max 
 RPMA.rpm               130.00:  RPM Surface Avg 
 RPMN.rpm               100.00:  RPM Surface Min 
 RPMX.rpm               140.00:  RPM Surface Max 
 RRUN.                    0400:  Rig Run Number 
 RTIM.hr                 38.60:  Time Reaming 
 SAZI.deg               149.55:  Azm, Start 
 SDEP.m                3180.01:  Start Depth 
 SIDD.                      No:  Serv Intrp, DD 
 SINC.deg                68.42:  Inc, Start 
 SPPA.psig             4400.00:  SPP Avg 
 SPPN.psig             3580.00:  SPP Min 
 SPPX.psig             4850.00:  SPP Max 
 STIM.      12.30.00 24-Apr-21:  Start Time 
 SVCS.                 DD, MWD:  Services 
 SVER.                    9.20:  Sperry Version 
 TDAT.m                 438.00:  Tot Depth Attmp 
 TDDF.                      No:  Trip for DD 
 TDLG.m                 438.00:  Tot Depth Loggd 
 TFF .                      No:  Trip for Fail 
 TQAA.f-kp               11.00:  Torque Abs Avg 
 TQAN.f-kp                9.00:  Torque Abs Min 
 TQAX.f-kp               14.00:  Torque Abs Max 
 TRRT.°/30m               0.04:  Turn Rotating 
 MRT .                    HCIM:  Maximum Recorded Temperature 
 TTMX.degC               84.31:  Max Tool Temp 
 VS01.                90521954:  Virtual Str1 SN 
 VS02.                90519327:  Virtual Str2 SN 
 VS03.                90522273:  Virtual Str3 SN 
 VS04.                11108038:  Virtual Str4 SN 
 VS05.                12258760:  Virtual Str5 SN 
 WBMN.klb                 1.00:  WOB Min 
 WITN.           Adil Mammadov:  Customer Rep 
 WITN.         Alex Yadullayev:  Customer Rep 2 
 WOBA.klb                 6.00:  WOB Avg 
 WOBX.klb                 9.00:  WOB Max 
 YP  .lhf2               31.00:  Yield Point 
~Curve Information Block
#MNEM.UNIT                 API CODE     Curve Description
#---------               -----------    ---------------------------
 TIME.HHMMSS            00 000 000 000:  GT Time & Date
 GTDEPTH.m              00 000 000 000:  GT Depth
 GTPQH.psia             00 000 000 000:  GT HR Quartz Pressure
 GTTQ.degC              00 000 000 000:  GT Quartz Temperature
 GTTN.NONE              00 000 000 000:  GT Test Number
 GTET.sec               00 000 000 000:  GT Elapsed Test Time
 GTTVD.m                00 000 000 000:  GT True Vertical Depth
#Other Information
#
#WARRANTY: Halliburton will use its best efforts to furnish customers with 
#accurate information and interpretations that are part of, and incident to, the services 
#provided.  However, Halliburton cannot and does not warrant the accuracy 
#or correctness of such information and interpretations.  Under no circumstances should any 
#such information or interpretation be relied upon as the sole basis for any drilling, 
#completion, production, or financial decision or any procedure involving any risk to the 
#safety of any drilling venture, drilling rig or its crew or any other third party.  The 
#Customer has full responsibility for all drilling, completion and production operation.  
#Halliburton makes no representations or warranties, either expressed or 
#implied, including, but not limited to, the implied warranties of merchantability or fitness 
#for a particular purpose, with respect to the services rendered.  In no event will 
#Halliburton be liable for failure to obtain any particular results or for 
#any damages, including, but not limited to, indirect, special or consequential damages, 
#resulting from the use of any information or interpretation provided by Halliburton.
#
~A           TIME           GTDEPTH  GTPQH  GTTQ  GTTN  GTET   GTTVD  
# ...
   19:04:47.644.27-Apr-2021 3392.01 3474.41 73.27 5.00  69.02 2716.87
   19:04:47.844.27-Apr-2021 3392.01 3474.41 73.27 5.00  69.22 2716.87
   19:04:48.044.27-Apr-2021 3392.01 3474.46 73.26 5.00  69.42 2716.87
   19:04:48.244.27-Apr-2021 3392.01 3474.40 73.26 5.00  69.62 2716.87
   19:04:48.444.27-Apr-2021 3392.01 3474.42 73.26 5.00  69.82 2716.87
   19:04:48.644.27-Apr-2021 3392.01 3474.22 73.26 5.00  70.02 2716.87
   19:04:48.844.27-Apr-2021 3392.01 3474.22 73.26 5.00  70.22 2716.87
   19:04:49.044.27-Apr-2021 3392.01 3474.41 73.26 5.00  70.42 2716.87
   19:04:49.244.27-Apr-2021 3392.01 3474.39 73.26 5.00  70.62 2716.87
   19:04:49.444.27-Apr-2021 3392.01 3474.40 73.26 5.00  70.82 2716.87
   19:04:49.644.27-Apr-2021 3392.01 3474.42 73.26 5.00  71.02 2716.87
   19:04:49.844.27-Apr-2021 3392.01 3474.42 73.26 5.00  71.22 2716.87
   19:04:50.044.27-Apr-2021 3392.01 3474.46 73.26 5.00  71.42 2716.87
   19:04:50.244.27-Apr-2021 3392.01 3474.46 73.26 5.00  71.62 2716.87
   19:04:50.444.27-Apr-2021 3392.01 3474.35 73.26 5.00  71.82 2716.87
   19:04:50.644.27-Apr-2021 3392.01 3474.43 73.26 5.00  72.02 2716.87
   19:04:50.844.27-Apr-2021 3392.01 3474.43 73.26 5.00  72.22 2716.87
   19:04:51.045.27-Apr-2021 3392.01 3474.43 73.26 5.00  72.42 2716.87
   19:04:51.245.27-Apr-2021 3392.01 3474.38 73.26 5.00  72.62 2716.87
   19:04:51.445.27-Apr-2021 3392.01 3474.40 73.26 5.00  72.82 2716.87
   19:04:51.645.27-Apr-2021 3392.01 3474.41 73.25 5.00  73.02 2716.87
   19:04:51.845.27-Apr-2021 3392.01 3474.41 73.25 5.00  73.22 2716.87
   19:04:52.045.27-Apr-2021 3392.01 3474.39 73.25 5.00  73.42 2716.87
   19:04:52.245.27-Apr-2021 3392.01 3474.39 73.25 5.00  73.62 2716.87
   19:04:52.445.27-Apr-2021 3392.01 3474.28 73.25 5.00  73.82 2716.87
   19:04:52.645.27-Apr-2021 3392.01 3474.36 73.25 5.00  74.02 2716.87
   19:04:52.845.27-Apr-2021 3392.01 3474.36 73.25 5.00  74.22 2716.87
   19:04:53.045.27-Apr-2021 3392.01 3474.35 73.25 5.00  74.42 2716.87
   19:04:53.245.27-Apr-2021 3392.01 3474.40 73.25 5.00  74.62 2716.87
   19:04:53.445.27-Apr-2021 3392.01 3474.37 73.25 5.00  74.82 2716.87
   19:04:53.645.27-Apr-2021 3392.01 3474.38 73.25 5.00  75.02 2716.87
   19:04:53.845.27-Apr-2021 3392.01 3474.38 73.25 5.00  75.22 2716.87
   19:04:54.045.27-Apr-2021 3392.01 3474.38 73.25 5.00  75.42 2716.87
   19:04:54.245.27-Apr-2021 3392.01 3474.39 73.25 5.00  75.62 2716.87
   19:04:54.445.27-Apr-2021 3392.01 3474.36 73.25 5.00  75.82 2716.87
   19:04:54.645.27-Apr-2021 3392.01 3474.40 73.25 5.00  76.02 2716.87
   19:04:54.845.27-Apr-2021 3392.01 3474.40 73.25 5.00  76.22 2716.87
   19:04:55.045.27-Apr-2021 3392.01 3474.41 73.25 5.00  76.42 2716.87
   19:04:55.246.27-Apr-2021 3392.01 3474.16 73.24 5.00  76.62 2716.87
   19:04:55.446.27-Apr-2021 3392.01 3474.47 73.24 5.00  76.82 2716.87
   19:04:55.646.27-Apr-2021 3392.01 3474.36 73.24 5.00  77.02 2716.87
   19:04:55.846.27-Apr-2021 3392.01 3474.36 73.24 5.00  77.22 2716.87
   19:04:56.046.27-Apr-2021 3392.01 3474.40 73.24 5.00  77.42 2716.87
   19:04:56.246.27-Apr-2021 3392.01 3474.23 73.24 5.00  77.62 2716.87
   19:04:56.446.27-Apr-2021 3392.01 3474.38 73.24 5.00  77.82 2716.87
   19:04:56.646.27-Apr-2021 3392.01 3474.32 73.24 5.00  78.02 2716.87
   19:04:56.846.27-Apr-2021 3392.01 3474.32 73.24 5.00  78.22 2716.87
   19:04:57.046.27-Apr-2021 3392.01 3474.35 73.24 5.00  78.42 2716.87
   19:04:57.246.27-Apr-2021 3392.01 3474.23 73.24 5.00  78.62 2716.87
   19:04:57.446.27-Apr-2021 3392.01 3474.34 73.24 5.00  78.82 2716.87
   19:04:57.646.27-Apr-2021 3392.01 3474.36 73.24 5.00  79.02 2716.87
   19:04:57.846.27-Apr-2021 3392.01 3474.36 73.24 5.00  79.22 2716.87
   19:04:58.046.27-Apr-2021 3392.01 3474.31 73.24 5.00  79.42 2716.87
   19:04:58.246.27-Apr-2021 3392.01 3474.34 73.24 5.00  79.62 2716.87
   19:04:58.446.27-Apr-2021 3392.01 3474.24 73.24 5.00  79.82 2716.87
   19:04:58.646.27-Apr-2021 3392.01 3474.37 73.24 5.00  80.02 2716.87
   19:04:58.846.27-Apr-2021 3392.01 3474.37 73.24 5.00  80.22 2716.87
   19:04:59.046.27-Apr-2021 3392.01 3474.36 73.24 5.00  80.42 2716.87
   19:04:59.247.27-Apr-2021 3392.01 3474.31 73.23 5.00  80.62 2716.87
   19:04:59.447.27-Apr-2021 3392.01 3474.34 73.23 5.00  80.82 2716.87
   19:04:59.647.27-Apr-2021 3392.01 3474.35 73.23 5.00  81.02 2716.87
   19:04:59.847.27-Apr-2021 3392.01 3474.35 73.23 5.00  81.22 2716.87
   19:05:00.047.27-Apr-2021 3392.01 3474.33 73.23 5.00  81.42 2716.87
   19:05:00.247.27-Apr-2021 3392.01 3474.33 73.23 5.00  81.62 2716.87
   19:05:00.447.27-Apr-2021 3392.01 3474.34 73.23 5.00  81.82 2716.87
   19:05:00.647.27-Apr-2021 3392.01 3474.29 73.23 5.00  82.02 2716.87
   19:05:00.847.27-Apr-2021 3392.01 3474.29 73.23 5.00  82.22 2716.87
   19:05:01.047.27-Apr-2021 3392.01 3474.09 73.23 5.00  82.42 2716.87
   19:05:01.247.27-Apr-2021 3392.01 3474.41 73.23 5.00  82.62 2716.87
   19:05:01.447.27-Apr-2021 3392.01 3474.32 73.23 5.00  82.82 2716.87
   19:05:01.647.27-Apr-2021 3392.01 3474.27 73.23 5.00  83.02 2716.87
   19:05:01.847.27-Apr-2021 3392.01 3474.27 73.23 5.00  83.22 2716.87
   19:05:02.047.27-Apr-2021 3392.01 3474.29 73.23 5.00  83.42 2716.87
   19:05:02.247.27-Apr-2021 3392.01 3474.32 73.23 5.00  83.62 2716.87
   19:05:02.447.27-Apr-2021 3392.01 3474.29 73.23 5.00  83.82 2716.87
   19:05:02.647.27-Apr-2021 3392.01 3474.33 73.23 5.00  84.02 2716.87
   19:05:02.847.27-Apr-2021 3392.01 3474.33 73.23 5.00  84.22 2716.87
   19:05:03.047.27-Apr-2021 3392.01 3474.33 73.22 5.00  84.42 2716.87
   19:05:03.247.27-Apr-2021 3392.01 3474.28 73.22 5.00  84.62 2716.87
   19:05:03.448.27-Apr-2021 3392.01 3474.32 73.22 5.00  84.82 2716.87
   19:05:03.648.27-Apr-2021 3392.01 3474.30 73.22 5.00  85.02 2716.87
   19:05:03.848.27-Apr-2021 3392.01 3474.30 73.22 5.00  85.22 2716.87
   19:05:04.048.27-Apr-2021 3392.01 3474.37 73.22 5.00  85.42 2716.87
   19:05:04.248.27-Apr-2021 3392.01 3474.29 73.22 5.00  85.62 2716.87
   19:05:04.448.27-Apr-2021 3392.01 3474.30 73.22 5.00  85.82 2716.87
   19:05:04.648.27-Apr-2021 3392.01 3474.28 73.22 5.00  86.02 2716.87
   19:05:04.848.27-Apr-2021 3392.01 3474.28 73.22 5.00  86.22 2716.87
   19:05:05.048.27-Apr-2021 3392.01 3474.37 73.22 5.00  86.42 2716.87
   19:05:05.248.27-Apr-2021 3392.01 3474.30 73.22 5.00  86.62 2716.87
   19:05:05.448.27-Apr-2021 3392.01 3474.24 73.22 5.00  86.82 2716.87
   19:05:05.648.27-Apr-2021 3392.01 3474.21 73.22 5.00  87.02 2716.87
   19:05:05.848.27-Apr-2021 3392.01 3474.21 73.22 5.00  87.22 2716.87
   19:05:06.048.27-Apr-2021 3392.01 3474.24 73.22 5.00  87.42 2716.87
   19:05:06.248.27-Apr-2021 3392.01 3474.30 73.22 5.00  87.62 2716.87
   19:05:06.448.27-Apr-2021 3392.01 3474.26 73.22 5.00  87.82 2716.87
   19:05:06.648.27-Apr-2021 3392.01 3474.30 73.22 5.00  88.02 2716.87
   19:05:06.848.27-Apr-2021 3392.01 3474.30 73.22 5.00  88.22 2716.87
   19:05:07.048.27-Apr-2021 3392.01 3474.32 73.21 5.00  88.42 2716.87
   19:05:07.248.27-Apr-2021 3392.01 3474.26 73.21 5.00  88.62 2716.87
   19:05:07.449.27-Apr-2021 3392.01 3474.24 73.21 5.00  88.82 2716.87
   19:05:07.649.27-Apr-2021 3392.01 3474.28 73.21 5.00  89.02 2716.87
   19:05:07.849.27-Apr-2021 3392.01 3474.28 73.21 5.00  89.22 2716.87
   19:05:08.049.27-Apr-2021 3392.01 3474.27 73.21 5.00  89.42 2716.87
   19:05:08.249.27-Apr-2021 3392.01 3474.24 73.21 5.00  89.62 2716.87
   19:05:08.449.27-Apr-2021 3392.01 3474.28 73.21 5.00  89.82 2716.87
   19:05:08.649.27-Apr-2021 3392.01 3474.23 73.21 5.00  90.02 2716.87
   19:05:08.849.27-Apr-2021 3392.01 3474.23 73.21 5.00  90.22 2716.87
   19:05:09.049.27-Apr-2021 3392.01 3474.22 73.21 5.00  90.42 2716.87
   19:05:09.249.27-Apr-2021 3392.01 3474.26 73.21 5.00  90.62 2716.87
   19:05:09.449.27-Apr-2021 3392.01 3474.24 73.21 5.00  90.82 2716.87
   19:05:09.649.27-Apr-2021 3392.01 3474.04 73.21 5.00  91.02 2716.87
   19:05:09.849.27-Apr-2021 3392.01 3474.04 73.21 5.00  91.22 2716.87
   19:05:10.049.27-Apr-2021 3392.01 3474.25 73.21 5.00  91.42 2716.87
   19:05:10.249.27-Apr-2021 3392.01 3474.24 73.21 5.00  91.62 2716.87
   19:05:10.449.27-Apr-2021 3392.01 3474.22 73.21 5.00  91.82 2716.87
