~Version Information
 VERS.                  2.0:   CWLS log ASCII Standard -VERSION 2.0
 WRAP.                   NO:   One line per depth step
~Well Information Block
#MNEM.UNIT     VALUE/NAME     DESCRIPTION
#---------     -----------    ---------------------------
 STRT.S             06:42:00 27-Apr-21: START TIME 06:42:00 27-Apr-21
 STOP.S             06:48:27 27-Apr-21: STOP TIME  06:48:27 27-Apr-21
 STEP.S                   0.00: STEP TIME
 NULL.                 -999.25: NULL VALUE
 DFWT.                        :  DIST FWL TEXT
 DFST.                        :  DIST FSL TEXT
 DMF .             Drill Floor:  DRILL MEAS FROM
 STIM.      02.00.00 12-Apr-21:  START TIME
 DATE.      02.00.00 02-May-21:  END TIME
 SPUD.               09-Apr-21:  SPUD DATE
 NREF.                    Grid:  NORTH REFERENCE
 HPTY.       Minimum Curvature:  HOLE POS TYPE
 DMOD.             Drill Model:  DRILL MOD DESC
 SVYD.                  Survey:  SURVEY DESC
 ILTD.               Lithology:  INTERP LTH DESC
 FTOP.          Formation Tops:  FORM TOPS DESC
 PDAT.          Mean Sea Level:  PERMANENT DATUM
 FLD .                     ACG:  FIELD NAME
 SON .        AZ-XX-0907021034:  JOB NUMBER
 CTRY.              Azerbaijan:  COUNTRY NAME
 WELL.                    E01x:  WELL NAME
 COMP.     BP Exploration (Caspian Sea) LTD.:  COMPANY
 UWI .            /AZE00001403:  UNIQUE WELL IDENTIFIER
 API .            /AZE00001403:  API NUMBER
 WTYP.                Deviated:  WELL TYPE
 MDS .        Operator Entered:  MAG DATA SOURCE
 BASE.              Azerbaijan:  LOGGING EQUIPMENT BASE LOCATION
 REGN.                   EESSA:  REGION
 PROV.                    Baku:  PROVINCE
 STAT.                    Baku:  STATE NAME
 SRVC.          Turan Drilling:  CONTRACTOR
 MWDS.                    Baku:  MWD SHOP
 JOBN.        AZ-XX-0907021034:  JOB TICKET NUMB
 RIG .                     DWG:  RIG NAME
 DOE .                     N/A:  DOE NUMBER
 DCON.         Sperry Drilling:  DIRECTNL CONTR
 UNIT.                     N/A:  LOGGING EQUIPMENT ID
 CNTY.                        :  COUNTY
 LOC .                        :  LOCATION
 LMF .             Drill Floor:  LOG MEASURED FROM
 TVDS.m                  43.16:  TVDSS CORRECTN
 LATI.deg                40.17:  LATITUDE
 LONG.deg                51.17:  LONGITUDE
 WHNS.m                  -5.90:  WELL HEAD N/S
 WHEW.m                  -6.61:  WELL HEAD E/W
 UTMX.m              514337.95:  UTM X
 UTMY.m             4448627.46:  UTM Y
 DFWL.m                   0.00:  DISTANCE FWL
 DFSL.m                   0.00:  DISTANCE FSL
 SDEP.m                2606.87:  START DEPTH
 TDD .m                3618.01:  TOTAL DEPTH (DRILLER)
 VSDR.deg               177.42:  VERT SEC DIRECT
 GVFD.g                   1.00:  GRAVITY FIELD
 MFLD.nT              50399.00:  MAGNETIC FIELD
 MDIP.deg                59.67:  MAGNETIC DIP
 MDEC.deg                 6.56:  MAGNETIC DECL
 GRDC.deg                 0.11:  GRID CORRECTION
 AZTC.deg                 6.45:  AZM TOTAL CORR
 EPD .m                   0.00:  ELEVATION
 EGL .m                   0.00:  GROUND ELEVATION
 WDMS.m                 176.20:  WD ELEV
 APD .m                  43.16:  DEPTH ABOVE PD
 DEP .m                2606.87:  DEPTH
 AGAP.m                  43.16:  AIR GAP
 VSEW.m                  -6.61:  VERT SEC E/W
 VSNS.m                  -5.90:  VERT SEC N/S
 EKB .m                  43.16:  KB ELEVATION
 EDF .m                  43.16:  DF ELEVATION
 TDL .m                 438.00:  TOTAL DEPTH (LOGGER)
 VSC .                       0:  VS TO CLOSURE
 MAGU.                 1855490:  MAGUTM CHECKSUM
~Parameter Information Block
#MNEM.UNIT       Value        Description
#---------     -----------    ---------------------------
 AV  .mps                 2.20:  Ann Velocity 
 AVMX.mps                 2.50:  Max Ann Veloc 
 AZIF.deg               150.21:  Azm, Final 
 BHAT.        Rotary Steerable:  BHA Type 
 BROT.°/30m               0.08:  Build Rotating 
 BS  .in                  6.50:  Bit Size 
 BSZ .in                  6.50:  Bit Size 
 BTPL.psig              108.00:  Bit Press Loss 
 CABU.                     Yes:  Customer Abuse 
 CGEO.           Emin Aliyarli:  Customer Geo 
 COMM.                     )M:  Run Comments 1 
 TCS .hr                 74.20:  Time Ciculation Ended 
 CV  .mps                 3.63:  Crit Velocity 
 CVMX.mps                 3.66:  Max Crit Veloc 
 DD1 .         Intigam Rahimov:  Direct Drillr 1 
 DD2 .          Teymur Aghayev:  Direct Drillr 2 
 DDSV.               Geo-Pilot:  DD Service 
 DEFF.%                  97.00:  % Det Eff 
 DLRX.°/30m               1.63:  Dogleg Rot Max 
 DLSO.°/30m               0.00:  Dogleg Oriented 
 DLSX.°/30m               0.00:  Dogleg Str Max 
 DRET.      20.20.00 28-Apr-21:  Drill End Time 
 DRST.      04.45.00 26-Apr-21:  Drill Start Tim 
 DTIM.hr                 34.30:  Time Drilling 
 EDEP.m                3618.01:  End Depth 
 ENG1.           Amrah Tahirov:  Engineer 1 
 ENG2.         Bahruz Mehdiyev:  Engineer 2 
 ENG3.         Farhad Orujzade:  Engineer 3 
 ETIM.      19.00.00 29-Apr-21:  End Time 
 FLOI.gpm               370.00:  Flow In 
 FLON.gpm               300.00:  Flow In Min 
 FLOS.cptm                0.00:  Fluid Loss 
 FLOX.gpm               410.00:  Flow In Max 
 HFLO.                      No:  High Flow 
 HPRE.                      No:  High Pressure 
 HTEM.                      No:  High Temp 
 HYDO.m                   1.80:  Hydro Offset 
 IFIN.deg                67.19:  Inc, Final 
 IMAX.deg                68.42:  Inc Max 
 IMIN.deg                66.33:  Inc Min 
 IMND.m                3532.79:  Inc Min Depth 
 IMXD.m                3192.15:  Inc Max Depth 
 JARR.                      No:  Jarring 
 LETM.      20.20.00 28-Apr-21:  Log End Time 
 LOST.hr                     0:  Lost Rig Time 
 LSTM.      04.45.00 26-Apr-21:  Log Start Time 
 MDCL.ppm             36500.00:  Mud Chlorides 
 MDES.     Inversion Oil/Synthetic:  Mud Desc 
 DFD .sg                  1.42:  Mud Density 
 MDMN.sg                  1.42:  Dens Mud Min 
 MDMX.sg                  1.42:  Dens Mud Max 
 MOIL.                    55.7:  Run Mud Oil % 
 MOWR.                   71:29:  Run Mud OWR 
 MSND.                     0.1:  Run Mud Sand % 
 MSOL.                    19.9:  Run Mud Solids% 
 DFV .spqt               83.00:  Mud Viscosity 
 MWOD.in                  5.15:  MWD Tool OD 
 MWSI.                      No:  Serv Intrp, MWD 
 OTIM.hr                120.59:  Time Operating 
 PCON.           Look Like New:  Pad Condition 
 PMAX.psia            11292.93:  Press Op, Max 
 PV  .cP                 27.00:  Mud PV 
 RUN .                     400:  Run Number 
 ROPA.m/hr               14.00:  ROP Avg 
 ROPN.m/hr                9.00:  ROP Min 
 ROPX.m/hr               18.00:  ROP Max 
 RPMA.rpm               130.00:  RPM Surface Avg 
 RPMN.rpm               100.00:  RPM Surface Min 
 RPMX.rpm               140.00:  RPM Surface Max 
 RRUN.                    0400:  Rig Run Number 
 RTIM.hr                 38.60:  Time Reaming 
 SAZI.deg               149.55:  Azm, Start 
 SDEP.m                3180.01:  Start Depth 
 SIDD.                      No:  Serv Intrp, DD 
 SINC.deg                68.42:  Inc, Start 
 SPPA.psig             4400.00:  SPP Avg 
 SPPN.psig             3580.00:  SPP Min 
 SPPX.psig             4850.00:  SPP Max 
 STIM.      12.30.00 24-Apr-21:  Start Time 
 SVCS.                 DD, MWD:  Services 
 SVER.                    9.20:  Sperry Version 
 TDAT.m                 438.00:  Tot Depth Attmp 
 TDDF.                      No:  Trip for DD 
 TDLG.m                 438.00:  Tot Depth Loggd 
 TFF .                      No:  Trip for Fail 
 TQAA.f-kp               11.00:  Torque Abs Avg 
 TQAN.f-kp                9.00:  Torque Abs Min 
 TQAX.f-kp               14.00:  Torque Abs Max 
 TRRT.°/30m               0.04:  Turn Rotating 
 MRT .                    HCIM:  Maximum Recorded Temperature 
 TTMX.degC               84.31:  Max Tool Temp 
 VS01.                90521954:  Virtual Str1 SN 
 VS02.                90519327:  Virtual Str2 SN 
 VS03.                90522273:  Virtual Str3 SN 
 VS04.                11108038:  Virtual Str4 SN 
 VS05.                12258760:  Virtual Str5 SN 
 WBMN.klb                 1.00:  WOB Min 
 WITN.           Adil Mammadov:  Customer Rep 
 WITN.         Alex Yadullayev:  Customer Rep 2 
 WOBA.klb                 6.00:  WOB Avg 
 WOBX.klb                 9.00:  WOB Max 
 YP  .lhf2               31.00:  Yield Point 
~Curve Information Block
#MNEM.UNIT                 API CODE     Curve Description
#---------               -----------    ---------------------------
 TIME.HHMMSS            00 000 000 000:  GT Time & Date
 GTDEPTH.m              00 000 000 000:  GT Depth
 GTPQH.psia             00 000 000 000:  GT HR Quartz Pressure
 GTTQ.degC              00 000 000 000:  GT Quartz Temperature
 GTTN.NONE              00 000 000 000:  GT Test Number
 GTET.sec               00 000 000 000:  GT Elapsed Test Time
 GTTVD.m                00 000 000 000:  GT True Vertical Depth
#Other Information
#
#WARRANTY: Halliburton will use its best efforts to furnish customers with 
#accurate information and interpretations that are part of, and incident to, the services 
#provided.  However, Halliburton cannot and does not warrant the accuracy 
#or correctness of such information and interpretations.  Under no circumstances should any 
#such information or interpretation be relied upon as the sole basis for any drilling, 
#completion, production, or financial decision or any procedure involving any risk to the 
#safety of any drilling venture, drilling rig or its crew or any other third party.  The 
#Customer has full responsibility for all drilling, completion and production operation.  
#Halliburton makes no representations or warranties, either expressed or 
#implied, including, but not limited to, the implied warranties of merchantability or fitness 
#for a particular purpose, with respect to the services rendered.  In no event will 
#Halliburton be liable for failure to obtain any particular results or for 
#any damages, including, but not limited to, indirect, special or consequential damages, 
#resulting from the use of any information or interpretation provided by Halliburton.
#
~A           TIME           GTDEPTH  GTPQH  GTTQ  GTTN  GTET   GTTVD  
# ...
   06:43:32.865.27-Apr-2021 3278.01 4379.92 74.09 4.00  92.01 2671.88
   06:43:33.065.27-Apr-2021 3278.01 4379.92 74.09 4.00  92.21 2671.88
   06:43:33.265.27-Apr-2021 3278.01 4380.00 74.09 4.00  92.41 2671.88
   06:43:33.465.27-Apr-2021 3278.01 4379.91 74.09 4.00  92.61 2671.88
   06:43:33.665.27-Apr-2021 3278.01 4379.92 74.09 4.00  92.81 2671.88
   06:43:33.865.27-Apr-2021 3278.01 4379.82 74.09 4.00  93.01 2671.88
   06:43:34.065.27-Apr-2021 3278.01 4379.82 74.09 4.00  93.21 2671.88
   06:43:34.265.27-Apr-2021 3278.01 4379.80 74.09 4.00  93.41 2671.88
   06:43:34.465.27-Apr-2021 3278.01 4379.87 74.09 4.00  93.61 2671.88
   06:43:34.665.27-Apr-2021 3278.01 4379.92 74.08 4.00  93.81 2671.88
   06:43:34.865.27-Apr-2021 3278.01 4380.14 74.08 4.00  94.01 2671.88
   06:43:35.065.27-Apr-2021 3278.01 4380.14 74.08 4.00  94.21 2671.88
   06:43:35.265.27-Apr-2021 3278.01 4380.05 74.08 4.00  94.41 2671.88
   06:43:35.465.27-Apr-2021 3278.01 4379.86 74.08 4.00  94.61 2671.88
   06:43:35.665.27-Apr-2021 3278.01 4380.19 74.08 4.00  94.81 2671.88
   06:43:35.865.27-Apr-2021 3278.01 4380.05 74.08 4.00  95.01 2671.88
   06:43:36.065.27-Apr-2021 3278.01 4380.05 74.08 4.00  95.21 2671.88
   06:43:36.265.27-Apr-2021 3278.01 4379.93 74.08 4.00  95.41 2671.88
   06:43:36.465.27-Apr-2021 3278.01 4380.03 74.08 4.00  95.61 2671.88
   06:43:36.665.27-Apr-2021 3278.01 4379.99 74.08 4.00  95.81 2671.88
   06:43:36.865.27-Apr-2021 3278.01 4379.64 74.08 4.00  96.01 2671.88
   06:43:37.065.27-Apr-2021 3278.01 4379.64 74.08 4.00  96.21 2671.88
   06:43:37.265.27-Apr-2021 3278.01 4379.85 74.08 4.00  96.41 2671.88
   06:43:37.465.27-Apr-2021 3278.01 4380.19 74.08 4.00  96.61 2671.88
   06:43:37.665.27-Apr-2021 3278.01 4379.89 74.08 4.00  96.81 2671.88
   06:43:37.865.27-Apr-2021 3278.01 4379.98 74.08 4.00  97.01 2671.88
   06:43:38.065.27-Apr-2021 3278.01 4379.98 74.08 4.00  97.21 2671.88
   06:43:38.265.27-Apr-2021 3278.01 4380.28 74.07 4.00  97.41 2671.88
   06:43:38.465.27-Apr-2021 3278.01 4380.20 74.07 4.00  97.61 2671.88
   06:43:38.665.27-Apr-2021 3278.01 4379.70 74.07 4.00  97.81 2671.88
   06:43:38.865.27-Apr-2021 3278.01 4380.19 74.07 4.00  98.01 2671.88
   06:43:39.065.27-Apr-2021 3278.01 4380.19 74.07 4.00  98.21 2671.88
   06:43:39.265.27-Apr-2021 3278.01 4380.15 74.07 4.00  98.41 2671.88
   06:43:39.465.27-Apr-2021 3278.01 4380.14 74.07 4.00  98.61 2671.88
   06:43:39.665.27-Apr-2021 3278.01 4379.88 74.07 4.00  98.81 2671.88
   06:43:39.865.27-Apr-2021 3278.01 4379.97 74.07 4.00  99.01 2671.88
   06:43:40.065.27-Apr-2021 3278.01 4379.97 74.07 4.00  99.21 2671.88
   06:43:40.266.27-Apr-2021 3278.01 4380.38 74.07 4.00  99.41 2671.88
   06:43:40.466.27-Apr-2021 3278.01 4380.20 74.07 4.00  99.61 2671.88
   06:43:40.666.27-Apr-2021 3278.01 4380.29 74.07 4.00  99.81 2671.88
   06:43:40.866.27-Apr-2021 3278.01 4380.07 74.07 4.00 100.01 2671.88
   06:43:41.066.27-Apr-2021 3278.01 4380.07 74.07 4.00 100.21 2671.88
   06:43:41.266.27-Apr-2021 3278.01 4380.25 74.07 4.00 100.41 2671.88
   06:43:41.466.27-Apr-2021 3278.01 4380.27 74.06 4.00 100.61 2671.88
   06:43:41.666.27-Apr-2021 3278.01 4380.21 74.06 4.00 100.81 2671.88
   06:43:41.866.27-Apr-2021 3278.01 4380.16 74.06 4.00 101.01 2671.88
   06:43:42.066.27-Apr-2021 3278.01 4380.16 74.06 4.00 101.21 2671.88
   06:43:42.266.27-Apr-2021 3278.01 4379.77 74.06 4.00 101.41 2671.88
   06:43:42.466.27-Apr-2021 3278.01 4380.01 74.06 4.00 101.61 2671.88
   06:43:42.666.27-Apr-2021 3278.01 4380.24 74.06 4.00 101.81 2671.88
   06:43:42.866.27-Apr-2021 3278.01 4380.30 74.06 4.00 102.01 2671.88
   06:43:43.066.27-Apr-2021 3278.01 4380.30 74.06 4.00 102.21 2671.88
   06:43:43.266.27-Apr-2021 3278.01 4380.30 74.06 4.00 102.41 2671.88
   06:43:43.466.27-Apr-2021 3278.01 4380.02 74.06 4.00 102.61 2671.88
   06:43:43.666.27-Apr-2021 3278.01 4380.17 74.06 4.00 102.81 2671.88
   06:43:43.866.27-Apr-2021 3278.01 4380.19 74.06 4.00 103.01 2671.88
   06:43:44.066.27-Apr-2021 3278.01 4380.19 74.06 4.00 103.21 2671.88
   06:43:44.266.27-Apr-2021 3278.01 4380.17 74.06 4.00 103.41 2671.88
   06:43:44.466.27-Apr-2021 3278.01 4380.34 74.06 4.00 103.61 2671.88
   06:43:44.666.27-Apr-2021 3278.01 4380.24 74.06 4.00 103.81 2671.88
   06:43:44.866.27-Apr-2021 3278.01 4380.19 74.05 4.00 104.01 2671.88
   06:43:45.066.27-Apr-2021 3278.01 4380.19 74.05 4.00 104.21 2671.88
   06:43:45.266.27-Apr-2021 3278.01 4380.12 74.05 4.00 104.41 2671.88
   06:43:45.466.27-Apr-2021 3278.01 4380.35 74.05 4.00 104.61 2671.88
   06:43:45.666.27-Apr-2021 3278.01 4380.29 74.05 4.00 104.81 2671.88
   06:43:45.866.27-Apr-2021 3278.01 4379.90 74.05 4.00 105.01 2671.88
   06:43:46.066.27-Apr-2021 3278.01 4379.90 74.05 4.00 105.21 2671.88
   06:43:46.266.27-Apr-2021 3278.01 4380.45 74.05 4.00 105.41 2671.88
   06:43:46.466.27-Apr-2021 3278.01 4380.48 74.05 4.00 105.61 2671.88
   06:43:46.666.27-Apr-2021 3278.01 4380.06 74.05 4.00 105.81 2671.88
   06:43:46.866.27-Apr-2021 3278.01 4380.50 74.05 4.00 106.01 2671.88
   06:43:47.066.27-Apr-2021 3278.01 4380.50 74.05 4.00 106.21 2671.88
   06:43:47.266.27-Apr-2021 3278.01 4380.40 74.05 4.00 106.41 2671.88
   06:43:47.466.27-Apr-2021 3278.01 4380.51 74.05 4.00 106.61 2671.88
   06:43:47.666.27-Apr-2021 3278.01 4379.89 74.05 4.00 106.81 2671.88
   06:43:47.866.27-Apr-2021 3278.01 4380.33 74.05 4.00 107.01 2671.88
   06:43:48.066.27-Apr-2021 3278.01 4380.33 74.05 4.00 107.21 2671.88
   06:43:48.266.27-Apr-2021 3278.01 4380.62 74.05 4.00 107.41 2671.88
   06:43:48.466.27-Apr-2021 3278.01 4380.41 74.04 4.00 107.61 2671.88
   06:43:48.666.27-Apr-2021 3278.01 4380.52 74.04 4.00 107.81 2671.88
   06:43:48.866.27-Apr-2021 3278.01 4380.28 74.04 4.00 108.01 2671.88
   06:43:49.066.27-Apr-2021 3278.01 4380.28 74.04 4.00 108.21 2671.88
   06:43:49.266.27-Apr-2021 3278.01 4380.48 74.04 4.00 108.41 2671.88
   06:43:49.466.27-Apr-2021 3278.01 4380.55 74.04 4.00 108.61 2671.88
   06:43:49.666.27-Apr-2021 3278.01 4380.35 74.04 4.00 108.81 2671.88
   06:43:49.866.27-Apr-2021 3278.01 4380.45 74.04 4.00 109.01 2671.88
   06:43:50.066.27-Apr-2021 3278.01 4380.45 74.04 4.00 109.21 2671.88
   06:43:50.266.27-Apr-2021 3278.01 4379.84 74.04 4.00 109.41 2671.88
   06:43:50.466.27-Apr-2021 3278.01 4380.27 74.04 4.00 109.61 2671.88
   06:43:50.666.27-Apr-2021 3278.01 4380.54 74.04 4.00 109.81 2671.88
   06:43:50.866.27-Apr-2021 3278.01 4380.37 74.04 4.00 110.01 2671.88
   06:43:51.066.27-Apr-2021 3278.01 4380.37 74.04 4.00 110.21 2671.88
   06:43:51.266.27-Apr-2021 3278.01 4380.44 74.04 4.00 110.41 2671.88
   06:43:51.466.27-Apr-2021 3278.01 4380.45 74.04 4.00 110.61 2671.88
   06:43:51.666.27-Apr-2021 3278.01 4380.46 74.04 4.00 110.81 2671.88
   06:43:51.866.27-Apr-2021 3278.01 4380.64 74.03 4.00 111.01 2671.88
   06:43:52.066.27-Apr-2021 3278.01 4380.64 74.03 4.00 111.21 2671.88
   06:43:52.267.27-Apr-2021 3278.01 4380.50 74.03 4.00 111.41 2671.88
   06:43:52.467.27-Apr-2021 3278.01 4380.51 74.03 4.00 111.61 2671.88
   06:43:52.667.27-Apr-2021 3278.01 4380.50 74.03 4.00 111.81 2671.88
   06:43:52.867.27-Apr-2021 3278.01 4380.47 74.03 4.00 112.01 2671.88
   06:43:53.067.27-Apr-2021 3278.01 4380.47 74.03 4.00 112.21 2671.88
   06:43:53.267.27-Apr-2021 3278.01 4380.57 74.03 4.00 112.41 2671.88
   06:43:53.467.27-Apr-2021 3278.01 4380.52 74.03 4.00 112.61 2671.88
   06:43:53.667.27-Apr-2021 3278.01 4380.56 74.03 4.00 112.81 2671.88
   06:43:53.867.27-Apr-2021 3278.01 4379.96 74.03 4.00 113.01 2671.88
   06:43:54.067.27-Apr-2021 3278.01 4379.96 74.03 4.00 113.21 2671.88
   06:43:54.267.27-Apr-2021 3278.01 4380.55 74.03 4.00 113.41 2671.88
   06:43:54.467.27-Apr-2021 3278.01 4380.65 74.03 4.00 113.61 2671.88
   06:43:54.667.27-Apr-2021 3278.01 4380.58 74.03 4.00 113.81 2671.88
   06:43:54.867.27-Apr-2021 3278.01 4380.43 74.03 4.00 114.01 2671.88
   06:43:55.067.27-Apr-2021 3278.01 4380.43 74.03 4.00 114.21 2671.88
   06:43:55.267.27-Apr-2021 3278.01 4380.76 74.02 4.00 114.41 2671.88
   06:43:55.467.27-Apr-2021 3278.01 4380.69 74.02 4.00 114.61 2671.88
   06:43:55.667.27-Apr-2021 3278.01 4380.46 74.02 4.00 114.81 2671.88
