~Version Information
 VERS.                  2.0:   CWLS log ASCII Standard -VERSION 2.0
 WRAP.                   NO:   One line per depth step
~Well Information Block
#MNEM.UNIT     VALUE/NAME     DESCRIPTION
#---------     -----------    ---------------------------
 STRT.S             06:42:00 27-Apr-21: START TIME 06:42:00 27-Apr-21
 STOP.S             06:48:27 27-Apr-21: STOP TIME  06:48:27 27-Apr-21
 STEP.S                   0.00: STEP TIME
 NULL.                 -999.25: NULL VALUE
 DFWT.                        :  DIST FWL TEXT
 DFST.                        :  DIST FSL TEXT
 DMF .             Drill Floor:  DRILL MEAS FROM
 STIM.      02.00.00 12-Apr-21:  START TIME
 DATE.      02.00.00 02-May-21:  END TIME
 SPUD.               09-Apr-21:  SPUD DATE
 NREF.                    Grid:  NORTH REFERENCE
 HPTY.       Minimum Curvature:  HOLE POS TYPE
 DMOD.             Drill Model:  DRILL MOD DESC
 SVYD.                  Survey:  SURVEY DESC
 ILTD.               Lithology:  INTERP LTH DESC
 FTOP.          Formation Tops:  FORM TOPS DESC
 PDAT.          Mean Sea Level:  PERMANENT DATUM
 FLD .                     ACG:  FIELD NAME
 SON .        AZ-XX-0907021034:  JOB NUMBER
 CTRY.              Azerbaijan:  COUNTRY NAME
 WELL.                    E01x:  WELL NAME
 COMP.     BP Exploration (Caspian Sea) LTD.:  COMPANY
 UWI .            /AZE00001403:  UNIQUE WELL IDENTIFIER
 API .            /AZE00001403:  API NUMBER
 WTYP.                Deviated:  WELL TYPE
 MDS .        Operator Entered:  MAG DATA SOURCE
 BASE.              Azerbaijan:  LOGGING EQUIPMENT BASE LOCATION
 REGN.                   EESSA:  REGION
 PROV.                    Baku:  PROVINCE
 STAT.                    Baku:  STATE NAME
 SRVC.          Turan Drilling:  CONTRACTOR
 MWDS.                    Baku:  MWD SHOP
 JOBN.        AZ-XX-0907021034:  JOB TICKET NUMB
 RIG .                     DWG:  RIG NAME
 DOE .                     N/A:  DOE NUMBER
 DCON.         Sperry Drilling:  DIRECTNL CONTR
 UNIT.                     N/A:  LOGGING EQUIPMENT ID
 CNTY.                        :  COUNTY
 LOC .                        :  LOCATION
 LMF .             Drill Floor:  LOG MEASURED FROM
 TVDS.m                  43.16:  TVDSS CORRECTN
 LATI.deg                40.17:  LATITUDE
 LONG.deg                51.17:  LONGITUDE
 WHNS.m                  -5.90:  WELL HEAD N/S
 WHEW.m                  -6.61:  WELL HEAD E/W
 UTMX.m              514337.95:  UTM X
 UTMY.m             4448627.46:  UTM Y
 DFWL.m                   0.00:  DISTANCE FWL
 DFSL.m                   0.00:  DISTANCE FSL
 SDEP.m                2606.87:  START DEPTH
 TDD .m                3618.01:  TOTAL DEPTH (DRILLER)
 VSDR.deg               177.42:  VERT SEC DIRECT
 GVFD.g                   1.00:  GRAVITY FIELD
 MFLD.nT              50399.00:  MAGNETIC FIELD
 MDIP.deg                59.67:  MAGNETIC DIP
 MDEC.deg                 6.56:  MAGNETIC DECL
 GRDC.deg                 0.11:  GRID CORRECTION
 AZTC.deg                 6.45:  AZM TOTAL CORR
 EPD .m                   0.00:  ELEVATION
 EGL .m                   0.00:  GROUND ELEVATION
 WDMS.m                 176.20:  WD ELEV
 APD .m                  43.16:  DEPTH ABOVE PD
 DEP .m                2606.87:  DEPTH
 AGAP.m                  43.16:  AIR GAP
 VSEW.m                  -6.61:  VERT SEC E/W
 VSNS.m                  -5.90:  VERT SEC N/S
 EKB .m                  43.16:  KB ELEVATION
 EDF .m                  43.16:  DF ELEVATION
 TDL .m                 438.00:  TOTAL DEPTH (LOGGER)
 VSC .                       0:  VS TO CLOSURE
 MAGU.                 1855490:  MAGUTM CHECKSUM
~Parameter Information Block
#MNEM.UNIT       Value        Description
#---------     -----------    ---------------------------
 AV  .mps                 2.20:  Ann Velocity 
 AVMX.mps                 2.50:  Max Ann Veloc 
 AZIF.deg               150.21:  Azm, Final 
 BHAT.        Rotary Steerable:  BHA Type 
 BROT.°/30m               0.08:  Build Rotating 
 BS  .in                  6.50:  Bit Size 
 BSZ .in                  6.50:  Bit Size 
 BTPL.psig              108.00:  Bit Press Loss 
 CABU.                     Yes:  Customer Abuse 
 CGEO.           Emin Aliyarli:  Customer Geo 
 COMM.                     )M:  Run Comments 1 
 TCS .hr                 74.20:  Time Ciculation Ended 
 CV  .mps                 3.63:  Crit Velocity 
 CVMX.mps                 3.66:  Max Crit Veloc 
 DD1 .         Intigam Rahimov:  Direct Drillr 1 
 DD2 .          Teymur Aghayev:  Direct Drillr 2 
 DDSV.               Geo-Pilot:  DD Service 
 DEFF.%                  97.00:  % Det Eff 
 DLRX.°/30m               1.63:  Dogleg Rot Max 
 DLSO.°/30m               0.00:  Dogleg Oriented 
 DLSX.°/30m               0.00:  Dogleg Str Max 
 DRET.      20.20.00 28-Apr-21:  Drill End Time 
 DRST.      04.45.00 26-Apr-21:  Drill Start Tim 
 DTIM.hr                 34.30:  Time Drilling 
 EDEP.m                3618.01:  End Depth 
 ENG1.           Amrah Tahirov:  Engineer 1 
 ENG2.         Bahruz Mehdiyev:  Engineer 2 
 ENG3.         Farhad Orujzade:  Engineer 3 
 ETIM.      19.00.00 29-Apr-21:  End Time 
 FLOI.gpm               370.00:  Flow In 
 FLON.gpm               300.00:  Flow In Min 
 FLOS.cptm                0.00:  Fluid Loss 
 FLOX.gpm               410.00:  Flow In Max 
 HFLO.                      No:  High Flow 
 HPRE.                      No:  High Pressure 
 HTEM.                      No:  High Temp 
 HYDO.m                   1.80:  Hydro Offset 
 IFIN.deg                67.19:  Inc, Final 
 IMAX.deg                68.42:  Inc Max 
 IMIN.deg                66.33:  Inc Min 
 IMND.m                3532.79:  Inc Min Depth 
 IMXD.m                3192.15:  Inc Max Depth 
 JARR.                      No:  Jarring 
 LETM.      20.20.00 28-Apr-21:  Log End Time 
 LOST.hr                     0:  Lost Rig Time 
 LSTM.      04.45.00 26-Apr-21:  Log Start Time 
 MDCL.ppm             36500.00:  Mud Chlorides 
 MDES.     Inversion Oil/Synthetic:  Mud Desc 
 DFD .sg                  1.42:  Mud Density 
 MDMN.sg                  1.42:  Dens Mud Min 
 MDMX.sg                  1.42:  Dens Mud Max 
 MOIL.                    55.7:  Run Mud Oil % 
 MOWR.                   71:29:  Run Mud OWR 
 MSND.                     0.1:  Run Mud Sand % 
 MSOL.                    19.9:  Run Mud Solids% 
 DFV .spqt               83.00:  Mud Viscosity 
 MWOD.in                  5.15:  MWD Tool OD 
 MWSI.                      No:  Serv Intrp, MWD 
 OTIM.hr                120.59:  Time Operating 
 PCON.           Look Like New:  Pad Condition 
 PMAX.psia            11292.93:  Press Op, Max 
 PV  .cP                 27.00:  Mud PV 
 RUN .                     400:  Run Number 
 ROPA.m/hr               14.00:  ROP Avg 
 ROPN.m/hr                9.00:  ROP Min 
 ROPX.m/hr               18.00:  ROP Max 
 RPMA.rpm               130.00:  RPM Surface Avg 
 RPMN.rpm               100.00:  RPM Surface Min 
 RPMX.rpm               140.00:  RPM Surface Max 
 RRUN.                    0400:  Rig Run Number 
 RTIM.hr                 38.60:  Time Reaming 
 SAZI.deg               149.55:  Azm, Start 
 SDEP.m                3180.01:  Start Depth 
 SIDD.                      No:  Serv Intrp, DD 
 SINC.deg                68.42:  Inc, Start 
 SPPA.psig             4400.00:  SPP Avg 
 SPPN.psig             3580.00:  SPP Min 
 SPPX.psig             4850.00:  SPP Max 
 STIM.      12.30.00 24-Apr-21:  Start Time 
 SVCS.                 DD, MWD:  Services 
 SVER.                    9.20:  Sperry Version 
 TDAT.m                 438.00:  Tot Depth Attmp 
 TDDF.                      No:  Trip for DD 
 TDLG.m                 438.00:  Tot Depth Loggd 
 TFF .                      No:  Trip for Fail 
 TQAA.f-kp               11.00:  Torque Abs Avg 
 TQAN.f-kp                9.00:  Torque Abs Min 
 TQAX.f-kp               14.00:  Torque Abs Max 
 TRRT.°/30m               0.04:  Turn Rotating 
 MRT .                    HCIM:  Maximum Recorded Temperature 
 TTMX.degC               84.31:  Max Tool Temp 
 VS01.                90521954:  Virtual Str1 SN 
 VS02.                90519327:  Virtual Str2 SN 
 VS03.                90522273:  Virtual Str3 SN 
 VS04.                11108038:  Virtual Str4 SN 
 VS05.                12258760:  Virtual Str5 SN 
 WBMN.klb                 1.00:  WOB Min 
 WITN.           Adil Mammadov:  Customer Rep 
 WITN.         Alex Yadullayev:  Customer Rep 2 
 WOBA.klb                 6.00:  WOB Avg 
 WOBX.klb                 9.00:  WOB Max 
 YP  .lhf2               31.00:  Yield Point 
~Curve Information Block
#MNEM.UNIT                 API CODE     Curve Description
#---------               -----------    ---------------------------
 TIME.HHMMSS            00 000 000 000:  GT Time & Date
 GTDEPTH.m              00 000 000 000:  GT Depth
 GTPQH.psia             00 000 000 000:  GT HR Quartz Pressure
 GTTQ.degC              00 000 000 000:  GT Quartz Temperature
 GTTN.NONE              00 000 000 000:  GT Test Number
 GTET.sec               00 000 000 000:  GT Elapsed Test Time
 GTTVD.m                00 000 000 000:  GT True Vertical Depth
#Other Information
#
#WARRANTY: Halliburton will use its best efforts to furnish customers with 
#accurate information and interpretations that are part of, and incident to, the services 
#provided.  However, Halliburton cannot and does not warrant the accuracy 
#or correctness of such information and interpretations.  Under no circumstances should any 
#such information or interpretation be relied upon as the sole basis for any drilling, 
#completion, production, or financial decision or any procedure involving any risk to the 
#safety of any drilling venture, drilling rig or its crew or any other third party.  The 
#Customer has full responsibility for all drilling, completion and production operation.  
#Halliburton makes no representations or warranties, either expressed or 
#implied, including, but not limited to, the implied warranties of merchantability or fitness 
#for a particular purpose, with respect to the services rendered.  In no event will 
#Halliburton be liable for failure to obtain any particular results or for 
#any damages, including, but not limited to, indirect, special or consequential damages, 
#resulting from the use of any information or interpretation provided by Halliburton.
#
~A           TIME           GTDEPTH  GTPQH  GTTQ  GTTN  GTET   GTTVD  
# ...
   06:47:22.884.27-Apr-2021 3278.01 4380.26 73.49 4.00 322.03 2671.88
   06:47:23.084.27-Apr-2021 3278.01 4380.26 73.49 4.00 322.23 2671.88
   06:47:23.284.27-Apr-2021 3278.01 4380.22 73.49 4.00 322.43 2671.88
   06:47:23.484.27-Apr-2021 3278.01 4380.32 73.49 4.00 322.63 2671.88
   06:47:23.684.27-Apr-2021 3278.01 4380.45 73.49 4.00 322.83 2671.88
   06:47:23.884.27-Apr-2021 3278.01 4380.41 73.49 4.00 323.03 2671.88
   06:47:24.084.27-Apr-2021 3278.01 4380.41 73.49 4.00 323.23 2671.88
   06:47:24.284.27-Apr-2021 3278.01 4380.29 73.49 4.00 323.43 2671.88
   06:47:24.484.27-Apr-2021 3278.01 4380.39 73.49 4.00 323.63 2671.88
   06:47:24.684.27-Apr-2021 3278.01 4380.14 73.49 4.00 323.83 2671.88
   06:47:24.885.27-Apr-2021 3278.01 4379.90 73.49 4.00 324.03 2671.88
   06:47:25.085.27-Apr-2021 3278.01 4379.90 73.49 4.00 324.23 2671.88
   06:47:25.285.27-Apr-2021 3278.01 4380.49 73.49 4.00 324.43 2671.88
   06:47:25.485.27-Apr-2021 3278.01 4380.26 73.49 4.00 324.63 2671.88
   06:47:25.685.27-Apr-2021 3278.01 4379.93 73.49 4.00 324.83 2671.88
   06:47:25.885.27-Apr-2021 3278.01 4380.29 73.49 4.00 325.03 2671.88
   06:47:26.085.27-Apr-2021 3278.01 4380.29 73.49 4.00 325.23 2671.88
   06:47:26.285.27-Apr-2021 3278.01 4380.43 73.49 4.00 325.43 2671.88
   06:47:26.485.27-Apr-2021 3278.01 4380.25 73.48 4.00 325.63 2671.88
   06:47:26.685.27-Apr-2021 3278.01 4380.41 73.48 4.00 325.83 2671.88
   06:47:26.885.27-Apr-2021 3278.01 4380.25 73.48 4.00 326.03 2671.88
   06:47:27.085.27-Apr-2021 3278.01 4380.25 73.48 4.00 326.23 2671.88
   06:47:27.285.27-Apr-2021 3278.01 4380.50 73.48 4.00 326.43 2671.88
   06:47:27.485.27-Apr-2021 3278.01 4379.89 73.48 4.00 326.63 2671.88
   06:47:27.685.27-Apr-2021 3278.01 4380.39 73.48 4.00 326.83 2671.88
   06:47:27.885.27-Apr-2021 3278.01 4380.44 73.48 4.00 327.03 2671.88
   06:47:28.085.27-Apr-2021 3278.01 4380.44 73.48 4.00 327.23 2671.88
   06:47:28.285.27-Apr-2021 3278.01 4380.53 73.48 4.00 327.43 2671.88
   06:47:28.485.27-Apr-2021 3278.01 4380.51 73.48 4.00 327.63 2671.88
   06:47:28.685.27-Apr-2021 3278.01 4380.42 73.48 4.00 327.83 2671.88
   06:47:28.885.27-Apr-2021 3278.01 4380.49 73.48 4.00 328.03 2671.88
   06:47:29.085.27-Apr-2021 3278.01 4380.49 73.48 4.00 328.23 2671.88
   06:47:29.285.27-Apr-2021 3278.01 4380.51 73.48 4.00 328.43 2671.88
   06:47:29.485.27-Apr-2021 3278.01 4380.51 73.48 4.00 328.63 2671.88
   06:47:29.685.27-Apr-2021 3278.01 4380.36 73.48 4.00 328.83 2671.88
   06:47:29.885.27-Apr-2021 3278.01 4380.43 73.48 4.00 329.03 2671.88
   06:47:30.085.27-Apr-2021 3278.01 4380.43 73.48 4.00 329.23 2671.88
   06:47:30.285.27-Apr-2021 3278.01 4380.34 73.48 4.00 329.43 2671.88
   06:47:30.485.27-Apr-2021 3278.01 4380.37 73.48 4.00 329.63 2671.88
   06:47:30.685.27-Apr-2021 3278.01 4380.45 73.48 4.00 329.83 2671.88
   06:47:30.885.27-Apr-2021 3278.01 4380.45 73.47 4.00 330.03 2671.88
   06:47:31.085.27-Apr-2021 3278.01 4380.45 73.47 4.00 330.23 2671.88
   06:47:31.285.27-Apr-2021 3278.01 4380.43 73.47 4.00 330.43 2671.88
   06:47:31.485.27-Apr-2021 3278.01 4380.49 73.47 4.00 330.63 2671.88
   06:47:31.685.27-Apr-2021 3278.01 4380.60 73.47 4.00 330.83 2671.88
   06:47:31.885.27-Apr-2021 3278.01 4380.61 73.47 4.00 331.03 2671.88
   06:47:32.085.27-Apr-2021 3278.01 4380.61 73.47 4.00 331.23 2671.88
   06:47:32.285.27-Apr-2021 3278.01 4380.49 73.47 4.00 331.43 2671.88
   06:47:32.485.27-Apr-2021 3278.01 4380.53 73.47 4.00 331.63 2671.88
   06:47:32.685.27-Apr-2021 3278.01 4380.47 73.47 4.00 331.83 2671.88
   06:47:32.885.27-Apr-2021 3278.01 4379.81 73.47 4.00 332.03 2671.88
   06:47:33.085.27-Apr-2021 3278.01 4379.81 73.47 4.00 332.23 2671.88
   06:47:33.285.27-Apr-2021 3278.01 4380.47 73.47 4.00 332.43 2671.88
   06:47:33.485.27-Apr-2021 3278.01 4380.53 73.47 4.00 332.63 2671.88
   06:47:33.685.27-Apr-2021 3278.01 4380.00 73.47 4.00 332.83 2671.88
   06:47:33.885.27-Apr-2021 3278.01 4380.60 73.47 4.00 333.03 2671.88
   06:47:34.085.27-Apr-2021 3278.01 4380.60 73.47 4.00 333.23 2671.88
   06:47:34.285.27-Apr-2021 3278.01 4380.59 73.47 4.00 333.43 2671.88
   06:47:34.485.27-Apr-2021 3278.01 4380.69 73.47 4.00 333.63 2671.88
   06:47:34.685.27-Apr-2021 3278.01 4380.28 73.47 4.00 333.83 2671.88
   06:47:34.885.27-Apr-2021 3278.01 4380.53 73.47 4.00 334.03 2671.88
   06:47:35.085.27-Apr-2021 3278.01 4380.53 73.47 4.00 334.23 2671.88
   06:47:35.285.27-Apr-2021 3278.01 4380.73 73.46 4.00 334.43 2671.88
   06:47:35.485.27-Apr-2021 3278.01 4379.97 73.46 4.00 334.63 2671.88
   06:47:35.685.27-Apr-2021 3278.01 4380.69 73.46 4.00 334.83 2671.88
   06:47:35.885.27-Apr-2021 3278.01 4380.44 73.46 4.00 335.03 2671.88
   06:47:36.085.27-Apr-2021 3278.01 4380.44 73.46 4.00 335.23 2671.88
   06:47:36.285.27-Apr-2021 3278.01 4380.73 73.46 4.00 335.43 2671.88
   06:47:36.485.27-Apr-2021 3278.01 4380.72 73.46 4.00 335.63 2671.88
   06:47:36.686.27-Apr-2021 3278.01 4380.62 73.46 4.00 335.83 2671.88
   06:47:36.886.27-Apr-2021 3278.01 4380.64 73.46 4.00 336.03 2671.88
   06:47:37.086.27-Apr-2021 3278.01 4380.64 73.46 4.00 336.23 2671.88
   06:47:37.286.27-Apr-2021 3278.01 4380.70 73.46 4.00 336.43 2671.88
   06:47:37.486.27-Apr-2021 3278.01 4380.62 73.46 4.00 336.63 2671.88
   06:47:37.686.27-Apr-2021 3278.01 4380.57 73.46 4.00 336.83 2671.88
   06:47:37.886.27-Apr-2021 3278.01 4380.58 73.46 4.00 337.03 2671.88
   06:47:38.086.27-Apr-2021 3278.01 4380.58 73.46 4.00 337.23 2671.88
   06:47:38.286.27-Apr-2021 3278.01 4380.47 73.46 4.00 337.43 2671.88
   06:47:38.486.27-Apr-2021 3278.01 4380.38 73.46 4.00 337.63 2671.88
   06:47:38.686.27-Apr-2021 3278.01 4380.56 73.46 4.00 337.83 2671.88
   06:47:38.886.27-Apr-2021 3278.01 4380.64 73.46 4.00 338.03 2671.88
   06:47:39.086.27-Apr-2021 3278.01 4380.64 73.46 4.00 338.23 2671.88
   06:47:39.286.27-Apr-2021 3278.01 4380.58 73.46 4.00 338.43 2671.88
   06:47:39.486.27-Apr-2021 3278.01 4380.60 73.45 4.00 338.63 2671.88
   06:47:39.686.27-Apr-2021 3278.01 4380.72 73.45 4.00 338.83 2671.88
   06:47:39.886.27-Apr-2021 3278.01 4380.73 73.45 4.00 339.03 2671.88
   06:47:40.086.27-Apr-2021 3278.01 4380.73 73.45 4.00 339.23 2671.88
   06:47:40.286.27-Apr-2021 3278.01 4380.60 73.45 4.00 339.43 2671.88
   06:47:40.486.27-Apr-2021 3278.01 4380.59 73.45 4.00 339.63 2671.88
   06:47:40.686.27-Apr-2021 3278.01 4380.68 73.45 4.00 339.83 2671.88
   06:47:40.886.27-Apr-2021 3278.01 4380.20 73.45 4.00 340.03 2671.88
   06:47:41.086.27-Apr-2021 3278.01 4380.20 73.45 4.00 340.23 2671.88
   06:47:41.286.27-Apr-2021 3278.01 4380.38 73.45 4.00 340.43 2671.88
   06:47:41.486.27-Apr-2021 3278.01 4380.74 73.45 4.00 340.63 2671.88
   06:47:41.686.27-Apr-2021 3278.01 4380.22 73.45 4.00 340.83 2671.88
   06:47:41.886.27-Apr-2021 3278.01 4380.76 73.45 4.00 341.03 2671.88
   06:47:42.086.27-Apr-2021 3278.01 4380.76 73.45 4.00 341.23 2671.88
   06:47:42.286.27-Apr-2021 3278.01 4380.76 73.45 4.00 341.43 2671.88
   06:47:42.486.27-Apr-2021 3278.01 4380.86 73.45 4.00 341.63 2671.88
   06:47:42.686.27-Apr-2021 3278.01 4380.27 73.45 4.00 341.83 2671.88
   06:47:42.886.27-Apr-2021 3278.01 4380.84 73.45 4.00 342.03 2671.88
   06:47:43.086.27-Apr-2021 3278.01 4380.84 73.45 4.00 342.23 2671.88
   06:47:43.286.27-Apr-2021 3278.01 4380.84 73.45 4.00 342.43 2671.88
   06:47:43.486.27-Apr-2021 3278.01 4380.75 73.45 4.00 342.63 2671.88
   06:47:43.686.27-Apr-2021 3278.01 4380.22 73.45 4.00 342.83 2671.88
   06:47:43.886.27-Apr-2021 3278.01 4380.58 73.45 4.00 343.03 2671.88
   06:47:44.086.27-Apr-2021 3278.01 4380.58 73.45 4.00 343.23 2671.88
   06:47:44.286.27-Apr-2021 3278.01 4380.79 73.44 4.00 343.43 2671.88
   06:47:44.486.27-Apr-2021 3278.01 4380.85 73.44 4.00 343.63 2671.88
   06:47:44.686.27-Apr-2021 3278.01 4380.71 73.44 4.00 343.83 2671.88
   06:47:44.886.27-Apr-2021 3278.01 4381.12 73.44 4.00 344.03 2671.88
   06:47:45.086.27-Apr-2021 3278.01 4381.12 73.44 4.00 344.23 2671.88
   06:47:45.286.27-Apr-2021 3278.01 4482.20 73.44 4.00 344.43 2671.88
   06:47:45.486.27-Apr-2021 3278.01 4775.22 73.44 4.00 344.63 2671.88
   06:47:45.686.27-Apr-2021 3278.01 5773.32 73.44 4.00 344.83 2671.88
