~Version Information
 VERS.                  2.0:   CWLS log ASCII Standard -VERSION 2.0
 WRAP.                   NO:   One line per depth step
~Well Information Block
#MNEM.UNIT     VALUE/NAME     DESCRIPTION
#---------     -----------    ---------------------------
 STRT.S             23:23:54 27-Apr-21: START TIME 23:23:54 27-Apr-21
 STOP.S             23:30:22 27-Apr-21: STOP TIME  23:30:22 27-Apr-21
 STEP.S                   0.00: STEP TIME
 NULL.                 -999.25: NULL VALUE
 DFWT.                        :  DIST FWL TEXT
 DFST.                        :  DIST FSL TEXT
 DMF .             Drill Floor:  DRILL MEAS FROM
 STIM.      02.00.00 12-Apr-21:  START TIME
 DATE.      02.00.00 02-May-21:  END TIME
 SPUD.               09-Apr-21:  SPUD DATE
 NREF.                    Grid:  NORTH REFERENCE
 HPTY.       Minimum Curvature:  HOLE POS TYPE
 DMOD.             Drill Model:  DRILL MOD DESC
 SVYD.                  Survey:  SURVEY DESC
 ILTD.               Lithology:  INTERP LTH DESC
 FTOP.          Formation Tops:  FORM TOPS DESC
 PDAT.          Mean Sea Level:  PERMANENT DATUM
 FLD .                     ACG:  FIELD NAME
 SON .        AZ-XX-0907021034:  JOB NUMBER
 CTRY.              Azerbaijan:  COUNTRY NAME
 WELL.                    E01x:  WELL NAME
 COMP.     BP Exploration (Caspian Sea) LTD.:  COMPANY
 UWI .            /AZE00001403:  UNIQUE WELL IDENTIFIER
 API .            /AZE00001403:  API NUMBER
 WTYP.                Deviated:  WELL TYPE
 MDS .        Operator Entered:  MAG DATA SOURCE
 BASE.              Azerbaijan:  LOGGING EQUIPMENT BASE LOCATION
 REGN.                   EESSA:  REGION
 PROV.                    Baku:  PROVINCE
 STAT.                    Baku:  STATE NAME
 SRVC.          Turan Drilling:  CONTRACTOR
 MWDS.                    Baku:  MWD SHOP
 JOBN.        AZ-XX-0907021034:  JOB TICKET NUMB
 RIG .                     DWG:  RIG NAME
 DOE .                     N/A:  DOE NUMBER
 DCON.         Sperry Drilling:  DIRECTNL CONTR
 UNIT.                     N/A:  LOGGING EQUIPMENT ID
 CNTY.                        :  COUNTY
 LOC .                        :  LOCATION
 LMF .             Drill Floor:  LOG MEASURED FROM
 TVDS.m                  43.16:  TVDSS CORRECTN
 LATI.deg                40.17:  LATITUDE
 LONG.deg                51.17:  LONGITUDE
 WHNS.m                  -5.90:  WELL HEAD N/S
 WHEW.m                  -6.61:  WELL HEAD E/W
 UTMX.m              514337.95:  UTM X
 UTMY.m             4448627.46:  UTM Y
 DFWL.m                   0.00:  DISTANCE FWL
 DFSL.m                   0.00:  DISTANCE FSL
 SDEP.m                2606.87:  START DEPTH
 TDD .m                3618.01:  TOTAL DEPTH (DRILLER)
 VSDR.deg               177.42:  VERT SEC DIRECT
 GVFD.g                   1.00:  GRAVITY FIELD
 MFLD.nT              50399.00:  MAGNETIC FIELD
 MDIP.deg                59.67:  MAGNETIC DIP
 MDEC.deg                 6.56:  MAGNETIC DECL
 GRDC.deg                 0.11:  GRID CORRECTION
 AZTC.deg                 6.45:  AZM TOTAL CORR
 EPD .m                   0.00:  ELEVATION
 EGL .m                   0.00:  GROUND ELEVATION
 WDMS.m                 176.20:  WD ELEV
 APD .m                  43.16:  DEPTH ABOVE PD
 DEP .m                2606.87:  DEPTH
 AGAP.m                  43.16:  AIR GAP
 VSEW.m                  -6.61:  VERT SEC E/W
 VSNS.m                  -5.90:  VERT SEC N/S
 EKB .m                  43.16:  KB ELEVATION
 EDF .m                  43.16:  DF ELEVATION
 TDL .m                 438.00:  TOTAL DEPTH (LOGGER)
 VSC .                       0:  VS TO CLOSURE
 MAGU.                 1855490:  MAGUTM CHECKSUM
~Parameter Information Block
#MNEM.UNIT       Value        Description
#---------     -----------    ---------------------------
 AV  .mps                 2.20:  Ann Velocity 
 AVMX.mps                 2.50:  Max Ann Veloc 
 AZIF.deg               150.21:  Azm, Final 
 BHAT.        Rotary Steerable:  BHA Type 
 BROT.°/30m               0.08:  Build Rotating 
 BS  .in                  6.50:  Bit Size 
 BSZ .in                  6.50:  Bit Size 
 BTPL.psig              108.00:  Bit Press Loss 
 CABU.                     Yes:  Customer Abuse 
 CGEO.           Emin Aliyarli:  Customer Geo 
 COMM.                     HO:  Run Comments 1 
 TCS .hr                 74.20:  Time Ciculation Ended 
 CV  .mps                 3.63:  Crit Velocity 
 CVMX.mps                 3.66:  Max Crit Veloc 
 DD1 .         Intigam Rahimov:  Direct Drillr 1 
 DD2 .          Teymur Aghayev:  Direct Drillr 2 
 DDSV.               Geo-Pilot:  DD Service 
 DEFF.%                  97.00:  % Det Eff 
 DLRX.°/30m               1.63:  Dogleg Rot Max 
 DLSO.°/30m               0.00:  Dogleg Oriented 
 DLSX.°/30m               0.00:  Dogleg Str Max 
 DRET.      20.20.00 28-Apr-21:  Drill End Time 
 DRST.      04.45.00 26-Apr-21:  Drill Start Tim 
 DTIM.hr                 34.30:  Time Drilling 
 EDEP.m                3618.01:  End Depth 
 ENG1.           Amrah Tahirov:  Engineer 1 
 ENG2.         Bahruz Mehdiyev:  Engineer 2 
 ENG3.         Farhad Orujzade:  Engineer 3 
 ETIM.      19.00.00 29-Apr-21:  End Time 
 FLOI.gpm               370.00:  Flow In 
 FLON.gpm               300.00:  Flow In Min 
 FLOS.cptm                0.00:  Fluid Loss 
 FLOX.gpm               410.00:  Flow In Max 
 HFLO.                      No:  High Flow 
 HPRE.                      No:  High Pressure 
 HTEM.                      No:  High Temp 
 HYDO.m                   1.80:  Hydro Offset 
 IFIN.deg                67.19:  Inc, Final 
 IMAX.deg                68.42:  Inc Max 
 IMIN.deg                66.33:  Inc Min 
 IMND.m                3532.79:  Inc Min Depth 
 IMXD.m                3192.15:  Inc Max Depth 
 JARR.                      No:  Jarring 
 LETM.      20.20.00 28-Apr-21:  Log End Time 
 LOST.hr                     0:  Lost Rig Time 
 LSTM.      04.45.00 26-Apr-21:  Log Start Time 
 MDCL.ppm             36500.00:  Mud Chlorides 
 MDES.     Inversion Oil/Synthetic:  Mud Desc 
 DFD .sg                  1.42:  Mud Density 
 MDMN.sg                  1.42:  Dens Mud Min 
 MDMX.sg                  1.42:  Dens Mud Max 
 MOIL.                    55.7:  Run Mud Oil % 
 MOWR.                   71:29:  Run Mud OWR 
 MSND.                     0.1:  Run Mud Sand % 
 MSOL.                    19.9:  Run Mud Solids% 
 DFV .spqt               83.00:  Mud Viscosity 
 MWOD.in                  5.15:  MWD Tool OD 
 MWSI.                      No:  Serv Intrp, MWD 
 OTIM.hr                120.59:  Time Operating 
 PCON.           Look Like New:  Pad Condition 
 PMAX.psia            11292.93:  Press Op, Max 
 PV  .cP                 27.00:  Mud PV 
 RUN .                     400:  Run Number 
 ROPA.m/hr               14.00:  ROP Avg 
 ROPN.m/hr                9.00:  ROP Min 
 ROPX.m/hr               18.00:  ROP Max 
 RPMA.rpm               130.00:  RPM Surface Avg 
 RPMN.rpm               100.00:  RPM Surface Min 
 RPMX.rpm               140.00:  RPM Surface Max 
 RRUN.                    0400:  Rig Run Number 
 RTIM.hr                 38.60:  Time Reaming 
 SAZI.deg               149.55:  Azm, Start 
 SDEP.m                3180.01:  Start Depth 
 SIDD.                      No:  Serv Intrp, DD 
 SINC.deg                68.42:  Inc, Start 
 SPPA.psig             4400.00:  SPP Avg 
 SPPN.psig             3580.00:  SPP Min 
 SPPX.psig             4850.00:  SPP Max 
 STIM.      12.30.00 24-Apr-21:  Start Time 
 SVCS.                 DD, MWD:  Services 
 SVER.                    9.20:  Sperry Version 
 TDAT.m                 438.00:  Tot Depth Attmp 
 TDDF.                      No:  Trip for DD 
 TDLG.m                 438.00:  Tot Depth Loggd 
 TFF .                      No:  Trip for Fail 
 TQAA.f-kp               11.00:  Torque Abs Avg 
 TQAN.f-kp                9.00:  Torque Abs Min 
 TQAX.f-kp               14.00:  Torque Abs Max 
 TRRT.°/30m               0.04:  Turn Rotating 
 MRT .                    HCIM:  Maximum Recorded Temperature 
 TTMX.degC               84.31:  Max Tool Temp 
 VS01.                90521954:  Virtual Str1 SN 
 VS02.                90519327:  Virtual Str2 SN 
 VS03.                90522273:  Virtual Str3 SN 
 VS04.                11108038:  Virtual Str4 SN 
 VS05.                12258760:  Virtual Str5 SN 
 WBMN.klb                 1.00:  WOB Min 
 WITN.           Adil Mammadov:  Customer Rep 
 WITN.         Alex Yadullayev:  Customer Rep 2 
 WOBA.klb                 6.00:  WOB Avg 
 WOBX.klb                 9.00:  WOB Max 
 YP  .lhf2               31.00:  Yield Point 
~Curve Information Block
#MNEM.UNIT                 API CODE     Curve Description
#---------               -----------    ---------------------------
 TIME.HHMMSS            00 000 000 000:  GT Time & Date
 GTDEPTH.m              00 000 000 000:  GT Depth
 GTPQH.psia             00 000 000 000:  GT HR Quartz Pressure
 GTTQ.degC              00 000 000 000:  GT Quartz Temperature
 GTTN.NONE              00 000 000 000:  GT Test Number
 GTET.sec               00 000 000 000:  GT Elapsed Test Time
 GTTVD.m                00 000 000 000:  GT True Vertical Depth
#Other Information
#
#WARRANTY: Halliburton will use its best efforts to furnish customers with 
#accurate information and interpretations that are part of, and incident to, the services 
#provided.  However, Halliburton cannot and does not warrant the accuracy 
#or correctness of such information and interpretations.  Under no circumstances should any 
#such information or interpretation be relied upon as the sole basis for any drilling, 
#completion, production, or financial decision or any procedure involving any risk to the 
#safety of any drilling venture, drilling rig or its crew or any other third party.  The 
#Customer has full responsibility for all drilling, completion and production operation.  
#Halliburton makes no representations or warranties, either expressed or 
#implied, including, but not limited to, the implied warranties of merchantability or fitness 
#for a particular purpose, with respect to the services rendered.  In no event will 
#Halliburton be liable for failure to obtain any particular results or for 
#any damages, including, but not limited to, indirect, special or consequential damages, 
#resulting from the use of any information or interpretation provided by Halliburton.
#
~A           TIME           GTDEPTH  GTPQH  GTTQ  GTTN  GTET   GTTVD  
# ...
   23:26:35.671.27-Apr-2021 3418.01 3573.06 73.75 6.00 161.04 2727.14
   23:26:35.871.27-Apr-2021 3418.01 3573.06 73.75 6.00 161.24 2727.14
   23:26:36.071.27-Apr-2021 3418.01 3573.05 73.75 6.00 161.44 2727.14
   23:26:36.271.27-Apr-2021 3418.01 3573.06 73.74 6.00 161.64 2727.14
   23:26:36.471.27-Apr-2021 3418.01 3572.87 73.74 6.00 161.84 2727.14
   23:26:36.671.27-Apr-2021 3418.01 3573.15 73.74 6.00 162.04 2727.14
   23:26:36.871.27-Apr-2021 3418.01 3573.15 73.74 6.00 162.24 2727.14
   23:26:37.071.27-Apr-2021 3418.01 3573.04 73.74 6.00 162.44 2727.14
   23:26:37.271.27-Apr-2021 3418.01 3573.06 73.74 6.00 162.64 2727.14
   23:26:37.471.27-Apr-2021 3418.01 3573.06 73.74 6.00 162.84 2727.14
   23:26:37.671.27-Apr-2021 3418.01 3572.91 73.74 6.00 163.04 2727.14
   23:26:37.872.27-Apr-2021 3418.01 3572.91 73.74 6.00 163.24 2727.14
   23:26:38.072.27-Apr-2021 3418.01 3573.05 73.74 6.00 163.44 2727.14
   23:26:38.272.27-Apr-2021 3418.01 3573.04 73.74 6.00 163.64 2727.14
   23:26:38.472.27-Apr-2021 3418.01 3573.07 73.74 6.00 163.84 2727.14
   23:26:38.672.27-Apr-2021 3418.01 3573.04 73.74 6.00 164.04 2727.14
   23:26:38.872.27-Apr-2021 3418.01 3573.04 73.74 6.00 164.24 2727.14
   23:26:39.072.27-Apr-2021 3418.01 3573.04 73.74 6.00 164.44 2727.14
   23:26:39.272.27-Apr-2021 3418.01 3573.04 73.74 6.00 164.64 2727.14
   23:26:39.472.27-Apr-2021 3418.01 3573.04 73.74 6.00 164.84 2727.14
   23:26:39.672.27-Apr-2021 3418.01 3573.05 73.74 6.00 165.04 2727.14
   23:26:39.872.27-Apr-2021 3418.01 3573.05 73.74 6.00 165.24 2727.14
   23:26:40.072.27-Apr-2021 3418.01 3573.05 73.74 6.00 165.44 2727.14
   23:26:40.272.27-Apr-2021 3418.01 3573.01 73.74 6.00 165.64 2727.14
   23:26:40.472.27-Apr-2021 3418.01 3572.86 73.74 6.00 165.84 2727.14
   23:26:40.672.27-Apr-2021 3418.01 3573.10 73.74 6.00 166.04 2727.14
   23:26:40.872.27-Apr-2021 3418.01 3573.10 73.74 6.00 166.24 2727.14
   23:26:41.072.27-Apr-2021 3418.01 3572.98 73.73 6.00 166.44 2727.14
   23:26:41.272.27-Apr-2021 3418.01 3573.07 73.73 6.00 166.64 2727.14
   23:26:41.472.27-Apr-2021 3418.01 3573.03 73.73 6.00 166.84 2727.14
   23:26:41.673.27-Apr-2021 3418.01 3573.04 73.73 6.00 167.04 2727.14
   23:26:41.873.27-Apr-2021 3418.01 3573.04 73.73 6.00 167.24 2727.14
   23:26:42.073.27-Apr-2021 3418.01 3573.03 73.73 6.00 167.44 2727.14
   23:26:42.273.27-Apr-2021 3418.01 3573.01 73.73 6.00 167.64 2727.14
   23:26:42.473.27-Apr-2021 3418.01 3573.04 73.73 6.00 167.84 2727.14
   23:26:42.673.27-Apr-2021 3418.01 3573.01 73.73 6.00 168.04 2727.14
   23:26:42.873.27-Apr-2021 3418.01 3573.01 73.73 6.00 168.24 2727.14
   23:26:43.073.27-Apr-2021 3418.01 3572.92 73.73 6.00 168.44 2727.14
   23:26:43.273.27-Apr-2021 3418.01 3573.02 73.73 6.00 168.64 2727.14
   23:26:43.473.27-Apr-2021 3418.01 3573.03 73.73 6.00 168.84 2727.14
   23:26:43.673.27-Apr-2021 3418.01 3573.03 73.73 6.00 169.04 2727.14
   23:26:43.873.27-Apr-2021 3418.01 3573.03 73.73 6.00 169.24 2727.14
   23:26:44.073.27-Apr-2021 3418.01 3573.03 73.73 6.00 169.44 2727.14
   23:26:44.273.27-Apr-2021 3418.01 3572.92 73.73 6.00 169.64 2727.14
   23:26:44.473.27-Apr-2021 3418.01 3573.05 73.73 6.00 169.84 2727.14
   23:26:44.673.27-Apr-2021 3418.01 3573.04 73.73 6.00 170.04 2727.14
   23:26:44.873.27-Apr-2021 3418.01 3573.04 73.73 6.00 170.24 2727.14
   23:26:45.073.27-Apr-2021 3418.01 3573.05 73.73 6.00 170.44 2727.14
   23:26:45.273.27-Apr-2021 3418.01 3573.02 73.73 6.00 170.64 2727.14
   23:26:45.473.27-Apr-2021 3418.01 3573.03 73.73 6.00 170.84 2727.14
   23:26:45.674.27-Apr-2021 3418.01 3572.84 73.72 6.00 171.04 2727.14
   23:26:45.874.27-Apr-2021 3418.01 3572.84 73.72 6.00 171.24 2727.14
   23:26:46.074.27-Apr-2021 3418.01 3573.04 73.72 6.00 171.44 2727.14
   23:26:46.274.27-Apr-2021 3418.01 3573.01 73.72 6.00 171.64 2727.14
   23:26:46.474.27-Apr-2021 3418.01 3573.03 73.72 6.00 171.84 2727.14
   23:26:46.674.27-Apr-2021 3418.01 3573.04 73.72 6.00 172.04 2727.14
   23:26:46.874.27-Apr-2021 3418.01 3573.04 73.72 6.00 172.24 2727.14
   23:26:47.074.27-Apr-2021 3418.01 3573.10 73.72 6.00 172.44 2727.14
   23:26:47.274.27-Apr-2021 3418.01 3573.02 73.72 6.00 172.64 2727.14
   23:26:47.474.27-Apr-2021 3418.01 3573.02 73.72 6.00 172.84 2727.14
   23:26:47.674.27-Apr-2021 3418.01 3573.03 73.72 6.00 173.04 2727.14
   23:26:47.874.27-Apr-2021 3418.01 3573.03 73.72 6.00 173.24 2727.14
   23:26:48.074.27-Apr-2021 3418.01 3575.25 73.72 6.00 173.44 2727.14
   23:26:48.274.27-Apr-2021 3418.01 3573.01 73.72 6.00 173.64 2727.14
   23:26:48.474.27-Apr-2021 3418.01 3573.01 73.72 6.00 173.84 2727.14
   23:26:48.674.27-Apr-2021 3418.01 3573.01 73.72 6.00 174.04 2727.14
   23:26:48.874.27-Apr-2021 3418.01 3573.01 73.72 6.00 174.24 2727.14
   23:26:49.074.27-Apr-2021 3418.01 3572.97 73.72 6.00 174.44 2727.14
   23:26:49.274.27-Apr-2021 3418.01 3573.01 73.72 6.00 174.64 2727.14
   23:26:49.475.27-Apr-2021 3418.01 3572.97 73.72 6.00 174.85 2727.14
   23:26:49.675.27-Apr-2021 3418.01 3572.89 73.72 6.00 175.05 2727.14
   23:26:49.875.27-Apr-2021 3418.01 3572.89 73.72 6.00 175.25 2727.14
   23:26:50.075.27-Apr-2021 3418.01 3573.04 73.72 6.00 175.45 2727.14
   23:26:50.275.27-Apr-2021 3418.01 3572.97 73.72 6.00 175.65 2727.14
   23:26:50.475.27-Apr-2021 3418.01 3573.04 73.71 6.00 175.85 2727.14
   23:26:50.675.27-Apr-2021 3418.01 3572.99 73.71 6.00 176.05 2727.14
   23:26:50.875.27-Apr-2021 3418.01 3572.99 73.71 6.00 176.25 2727.14
   23:26:51.075.27-Apr-2021 3418.01 3573.00 73.71 6.00 176.45 2727.14
   23:26:51.275.27-Apr-2021 3418.01 3573.01 73.71 6.00 176.65 2727.14
   23:26:51.475.27-Apr-2021 3418.01 3573.00 73.71 6.00 176.85 2727.14
   23:26:51.675.27-Apr-2021 3418.01 3573.01 73.71 6.00 177.05 2727.14
   23:26:51.875.27-Apr-2021 3418.01 3573.01 73.71 6.00 177.25 2727.14
   23:26:52.075.27-Apr-2021 3418.01 3573.00 73.71 6.00 177.45 2727.14
   23:26:52.275.27-Apr-2021 3418.01 3572.86 73.71 6.00 177.65 2727.14
   23:26:52.475.27-Apr-2021 3418.01 3573.03 73.71 6.00 177.85 2727.14
   23:26:52.675.27-Apr-2021 3418.01 3573.00 73.71 6.00 178.05 2727.14
   23:26:52.875.27-Apr-2021 3418.01 3573.00 73.71 6.00 178.25 2727.14
   23:26:53.075.27-Apr-2021 3418.01 3573.01 73.71 6.00 178.45 2727.14
   23:26:53.275.27-Apr-2021 3418.01 3572.99 73.71 6.00 178.65 2727.14
   23:26:53.476.27-Apr-2021 3418.01 3572.87 73.71 6.00 178.85 2727.14
   23:26:53.676.27-Apr-2021 3418.01 3573.06 73.71 6.00 179.05 2727.14
   23:26:53.876.27-Apr-2021 3418.01 3573.06 73.71 6.00 179.25 2727.14
   23:26:54.076.27-Apr-2021 3418.01 3572.98 73.71 6.00 179.45 2727.14
   23:26:54.276.27-Apr-2021 3418.01 3573.02 73.71 6.00 179.65 2727.14
   23:26:54.476.27-Apr-2021 3418.01 3573.00 73.71 6.00 179.85 2727.14
   23:26:54.676.27-Apr-2021 3418.01 3572.99 73.71 6.00 180.05 2727.14
   23:26:54.876.27-Apr-2021 3418.01 3572.99 73.71 6.00 180.25 2727.14
   23:26:55.076.27-Apr-2021 3418.01 3573.07 73.70 6.00 180.45 2727.14
   23:26:55.276.27-Apr-2021 3418.01 3573.02 73.70 6.00 180.65 2727.14
   23:26:55.476.27-Apr-2021 3418.01 3572.98 73.70 6.00 180.85 2727.14
   23:26:55.676.27-Apr-2021 3418.01 3572.99 73.70 6.00 181.05 2727.14
   23:26:55.876.27-Apr-2021 3418.01 3572.99 73.70 6.00 181.25 2727.14
   23:26:56.076.27-Apr-2021 3418.01 3573.01 73.70 6.00 181.45 2727.14
   23:26:56.276.27-Apr-2021 3418.01 3573.09 73.70 6.00 181.65 2727.14
   23:26:56.476.27-Apr-2021 3418.01 3573.00 73.70 6.00 181.85 2727.14
   23:26:56.676.27-Apr-2021 3418.01 3572.99 73.70 6.00 182.05 2727.14
   23:26:56.876.27-Apr-2021 3418.01 3572.99 73.70 6.00 182.25 2727.14
   23:26:57.076.27-Apr-2021 3418.01 3572.98 73.70 6.00 182.45 2727.14
   23:26:57.277.27-Apr-2021 3418.01 3572.99 73.70 6.00 182.65 2727.14
   23:26:57.477.27-Apr-2021 3418.01 3572.98 73.70 6.00 182.85 2727.14
   23:26:57.677.27-Apr-2021 3418.01 3572.97 73.70 6.00 183.05 2727.14
   23:26:57.877.27-Apr-2021 3418.01 3572.97 73.70 6.00 183.25 2727.14
   23:26:58.077.27-Apr-2021 3418.01 3572.98 73.70 6.00 183.45 2727.14
   23:26:58.277.27-Apr-2021 3418.01 3572.94 73.70 6.00 183.65 2727.14
   23:26:58.477.27-Apr-2021 3418.01 3572.99 73.70 6.00 183.85 2727.14
