~Version Information
 VERS.                  2.0:   CWLS log ASCII Standard -VERSION 2.0
 WRAP.                   NO:   One line per depth step
~Well Information Block
#MNEM.UNIT     VALUE/NAME     DESCRIPTION
#---------     -----------    ---------------------------
 STRT.S             23:13:46 26-Apr-21: START TIME 23:13:46 26-Apr-21
 STOP.S             23:20:13 26-Apr-21: STOP TIME  23:20:13 26-Apr-21
 STEP.S                   0.00: STEP TIME
 NULL.                 -999.25: NULL VALUE
 DFWT.                        :  DIST FWL TEXT
 DFST.                        :  DIST FSL TEXT
 DMF .             Drill Floor:  DRILL MEAS FROM
 STIM.      02.00.00 12-Apr-21:  START TIME
 DATE.      02.00.00 02-May-21:  END TIME
 SPUD.               09-Apr-21:  SPUD DATE
 NREF.                    Grid:  NORTH REFERENCE
 HPTY.       Minimum Curvature:  HOLE POS TYPE
 DMOD.             Drill Model:  DRILL MOD DESC
 SVYD.                  Survey:  SURVEY DESC
 ILTD.               Lithology:  INTERP LTH DESC
 FTOP.          Formation Tops:  FORM TOPS DESC
 PDAT.          Mean Sea Level:  PERMANENT DATUM
 FLD .                     ACG:  FIELD NAME
 SON .        AZ-XX-0907021034:  JOB NUMBER
 CTRY.              Azerbaijan:  COUNTRY NAME
 WELL.                    E01x:  WELL NAME
 COMP.     BP Exploration (Caspian Sea) LTD.:  COMPANY
 UWI .            /AZE00001403:  UNIQUE WELL IDENTIFIER
 API .            /AZE00001403:  API NUMBER
 WTYP.                Deviated:  WELL TYPE
 MDS .        Operator Entered:  MAG DATA SOURCE
 BASE.              Azerbaijan:  LOGGING EQUIPMENT BASE LOCATION
 REGN.                   EESSA:  REGION
 PROV.                    Baku:  PROVINCE
 STAT.                    Baku:  STATE NAME
 SRVC.          Turan Drilling:  CONTRACTOR
 MWDS.                    Baku:  MWD SHOP
 JOBN.        AZ-XX-0907021034:  JOB TICKET NUMB
 RIG .                     DWG:  RIG NAME
 DOE .                     N/A:  DOE NUMBER
 DCON.         Sperry Drilling:  DIRECTNL CONTR
 UNIT.                     N/A:  LOGGING EQUIPMENT ID
 CNTY.                        :  COUNTY
 LOC .                        :  LOCATION
 LMF .             Drill Floor:  LOG MEASURED FROM
 TVDS.m                  43.16:  TVDSS CORRECTN
 LATI.deg                40.17:  LATITUDE
 LONG.deg                51.17:  LONGITUDE
 WHNS.m                  -5.90:  WELL HEAD N/S
 WHEW.m                  -6.61:  WELL HEAD E/W
 UTMX.m              514337.95:  UTM X
 UTMY.m             4448627.46:  UTM Y
 DFWL.m                   0.00:  DISTANCE FWL
 DFSL.m                   0.00:  DISTANCE FSL
 SDEP.m                2606.87:  START DEPTH
 TDD .m                3618.01:  TOTAL DEPTH (DRILLER)
 VSDR.deg               177.42:  VERT SEC DIRECT
 GVFD.g                   1.00:  GRAVITY FIELD
 MFLD.nT              50399.00:  MAGNETIC FIELD
 MDIP.deg                59.67:  MAGNETIC DIP
 MDEC.deg                 6.56:  MAGNETIC DECL
 GRDC.deg                 0.11:  GRID CORRECTION
 AZTC.deg                 6.45:  AZM TOTAL CORR
 EPD .m                   0.00:  ELEVATION
 EGL .m                   0.00:  GROUND ELEVATION
 WDMS.m                 176.20:  WD ELEV
 APD .m                  43.16:  DEPTH ABOVE PD
 DEP .m                2606.87:  DEPTH
 AGAP.m                  43.16:  AIR GAP
 VSEW.m                  -6.61:  VERT SEC E/W
 VSNS.m                  -5.90:  VERT SEC N/S
 EKB .m                  43.16:  KB ELEVATION
 EDF .m                  43.16:  DF ELEVATION
 TDL .m                 438.00:  TOTAL DEPTH (LOGGER)
 VSC .                       0:  VS TO CLOSURE
 MAGU.                 1855490:  MAGUTM CHECKSUM
~Parameter Information Block
#MNEM.UNIT       Value        Description
#---------     -----------    ---------------------------
 AV  .mps                 2.20:  Ann Velocity 
 AVMX.mps                 2.50:  Max Ann Veloc 
 AZIF.deg               150.21:  Azm, Final 
 BHAT.        Rotary Steerable:  BHA Type 
 BROT.°/30m               0.08:  Build Rotating 
 BS  .in                  6.50:  Bit Size 
 BSZ .in                  6.50:  Bit Size 
 BTPL.psig              108.00:  Bit Press Loss 
 CABU.                     Yes:  Customer Abuse 
 CGEO.           Emin Aliyarli:  Customer Geo 
 COMM.                     <MW:  Run Comments 1 
 TCS .hr                 74.20:  Time Ciculation Ended 
 CV  .mps                 3.63:  Crit Velocity 
 CVMX.mps                 3.66:  Max Crit Veloc 
 DD1 .         Intigam Rahimov:  Direct Drillr 1 
 DD2 .          Teymur Aghayev:  Direct Drillr 2 
 DDSV.               Geo-Pilot:  DD Service 
 DEFF.%                  97.00:  % Det Eff 
 DLRX.°/30m               1.63:  Dogleg Rot Max 
 DLSO.°/30m               0.00:  Dogleg Oriented 
 DLSX.°/30m               0.00:  Dogleg Str Max 
 DRET.      20.20.00 28-Apr-21:  Drill End Time 
 DRST.      04.45.00 26-Apr-21:  Drill Start Tim 
 DTIM.hr                 34.30:  Time Drilling 
 EDEP.m                3618.01:  End Depth 
 ENG1.           Amrah Tahirov:  Engineer 1 
 ENG2.         Bahruz Mehdiyev:  Engineer 2 
 ENG3.         Farhad Orujzade:  Engineer 3 
 ETIM.      19.00.00 29-Apr-21:  End Time 
 FLOI.gpm               370.00:  Flow In 
 FLON.gpm               300.00:  Flow In Min 
 FLOS.cptm                0.00:  Fluid Loss 
 FLOX.gpm               410.00:  Flow In Max 
 HFLO.                      No:  High Flow 
 HPRE.                      No:  High Pressure 
 HTEM.                      No:  High Temp 
 HYDO.m                   1.80:  Hydro Offset 
 IFIN.deg                67.19:  Inc, Final 
 IMAX.deg                68.42:  Inc Max 
 IMIN.deg                66.33:  Inc Min 
 IMND.m                3532.79:  Inc Min Depth 
 IMXD.m                3192.15:  Inc Max Depth 
 JARR.                      No:  Jarring 
 LETM.      20.20.00 28-Apr-21:  Log End Time 
 LOST.hr                     0:  Lost Rig Time 
 LSTM.      04.45.00 26-Apr-21:  Log Start Time 
 MDCL.ppm             36500.00:  Mud Chlorides 
 MDES.     Inversion Oil/Synthetic:  Mud Desc 
 DFD .sg                  1.42:  Mud Density 
 MDMN.sg                  1.42:  Dens Mud Min 
 MDMX.sg                  1.42:  Dens Mud Max 
 MOIL.                    55.7:  Run Mud Oil % 
 MOWR.                   71:29:  Run Mud OWR 
 MSND.                     0.1:  Run Mud Sand % 
 MSOL.                    19.9:  Run Mud Solids% 
 DFV .spqt               83.00:  Mud Viscosity 
 MWOD.in                  5.15:  MWD Tool OD 
 MWSI.                      No:  Serv Intrp, MWD 
 OTIM.hr                120.59:  Time Operating 
 PCON.           Look Like New:  Pad Condition 
 PMAX.psia            11292.93:  Press Op, Max 
 PV  .cP                 27.00:  Mud PV 
 RUN .                     400:  Run Number 
 ROPA.m/hr               14.00:  ROP Avg 
 ROPN.m/hr                9.00:  ROP Min 
 ROPX.m/hr               18.00:  ROP Max 
 RPMA.rpm               130.00:  RPM Surface Avg 
 RPMN.rpm               100.00:  RPM Surface Min 
 RPMX.rpm               140.00:  RPM Surface Max 
 RRUN.                    0400:  Rig Run Number 
 RTIM.hr                 38.60:  Time Reaming 
 SAZI.deg               149.55:  Azm, Start 
 SDEP.m                3180.01:  Start Depth 
 SIDD.                      No:  Serv Intrp, DD 
 SINC.deg                68.42:  Inc, Start 
 SPPA.psig             4400.00:  SPP Avg 
 SPPN.psig             3580.00:  SPP Min 
 SPPX.psig             4850.00:  SPP Max 
 STIM.      12.30.00 24-Apr-21:  Start Time 
 SVCS.                 DD, MWD:  Services 
 SVER.                    9.20:  Sperry Version 
 TDAT.m                 438.00:  Tot Depth Attmp 
 TDDF.                      No:  Trip for DD 
 TDLG.m                 438.00:  Tot Depth Loggd 
 TFF .                      No:  Trip for Fail 
 TQAA.f-kp               11.00:  Torque Abs Avg 
 TQAN.f-kp                9.00:  Torque Abs Min 
 TQAX.f-kp               14.00:  Torque Abs Max 
 TRRT.°/30m               0.04:  Turn Rotating 
 MRT .                    HCIM:  Maximum Recorded Temperature 
 TTMX.degC               84.31:  Max Tool Temp 
 VS01.                90521954:  Virtual Str1 SN 
 VS02.                90519327:  Virtual Str2 SN 
 VS03.                90522273:  Virtual Str3 SN 
 VS04.                11108038:  Virtual Str4 SN 
 VS05.                12258760:  Virtual Str5 SN 
 WBMN.klb                 1.00:  WOB Min 
 WITN.           Adil Mammadov:  Customer Rep 
 WITN.         Alex Yadullayev:  Customer Rep 2 
 WOBA.klb                 6.00:  WOB Avg 
 WOBX.klb                 9.00:  WOB Max 
 YP  .lhf2               31.00:  Yield Point 
~Curve Information Block
#MNEM.UNIT                 API CODE     Curve Description
#---------               -----------    ---------------------------
 TIME.HHMMSS            00 000 000 000:  GT Time & Date
 GTDEPTH.m              00 000 000 000:  GT Depth
 GTPQH.psia             00 000 000 000:  GT HR Quartz Pressure
 GTTQ.degC              00 000 000 000:  GT Quartz Temperature
 GTTN.NONE              00 000 000 000:  GT Test Number
 GTET.sec               00 000 000 000:  GT Elapsed Test Time
 GTTVD.m                00 000 000 000:  GT True Vertical Depth
#Other Information
#
#WARRANTY: Halliburton will use its best efforts to furnish customers with 
#accurate information and interpretations that are part of, and incident to, the services 
#provided.  However, Halliburton cannot and does not warrant the accuracy 
#or correctness of such information and interpretations.  Under no circumstances should any 
#such information or interpretation be relied upon as the sole basis for any drilling, 
#completion, production, or financial decision or any procedure involving any risk to the 
#safety of any drilling venture, drilling rig or its crew or any other third party.  The 
#Customer has full responsibility for all drilling, completion and production operation.  
#Halliburton makes no representations or warranties, either expressed or 
#implied, including, but not limited to, the implied warranties of merchantability or fitness 
#for a particular purpose, with respect to the services rendered.  In no event will 
#Halliburton be liable for failure to obtain any particular results or for 
#any damages, including, but not limited to, indirect, special or consequential damages, 
#resulting from the use of any information or interpretation provided by Halliburton.
#
~A           TIME           GTDEPTH  GTPQH  GTTQ  GTTN  GTET   GTTVD  
# ...
   23:14:32.539.26-Apr-2021 3222.01 4279.09 69.66 1.00  46.01 2649.76
   23:14:32.739.26-Apr-2021 3222.01 4279.09 69.66 1.00  46.21 2649.76
   23:14:32.939.26-Apr-2021 3222.01 4278.13 69.66 1.00  46.41 2649.76
   23:14:33.139.26-Apr-2021 3222.01 4278.82 69.66 1.00  46.61 2649.76
   23:14:33.339.26-Apr-2021 3222.01 4278.84 69.66 1.00  46.81 2649.76
   23:14:33.539.26-Apr-2021 3222.01 4278.95 69.66 1.00  47.01 2649.76
   23:14:33.740.26-Apr-2021 3222.01 4278.95 69.66 1.00  47.21 2649.76
   23:14:33.940.26-Apr-2021 3222.01 4278.97 69.66 1.00  47.41 2649.76
   23:14:34.140.26-Apr-2021 3222.01 4278.86 69.66 1.00  47.61 2649.76
   23:14:34.340.26-Apr-2021 3222.01 4278.60 69.66 1.00  47.81 2649.76
   23:14:34.540.26-Apr-2021 3222.01 4278.92 69.66 1.00  48.01 2649.76
   23:14:34.740.26-Apr-2021 3222.01 4278.92 69.66 1.00  48.21 2649.76
   23:14:34.940.26-Apr-2021 3222.01 4279.05 69.66 1.00  48.41 2649.76
   23:14:35.140.26-Apr-2021 3222.01 4279.23 69.66 1.00  48.61 2649.76
   23:14:35.340.26-Apr-2021 3222.01 4278.61 69.66 1.00  48.81 2649.76
   23:14:35.540.26-Apr-2021 3222.01 4278.72 69.66 1.00  49.01 2649.76
   23:14:35.740.26-Apr-2021 3222.01 4278.72 69.66 1.00  49.21 2649.76
   23:14:35.940.26-Apr-2021 3222.01 4279.22 69.66 1.00  49.41 2649.76
   23:14:36.140.26-Apr-2021 3222.01 4278.98 69.65 1.00  49.61 2649.76
   23:14:36.340.26-Apr-2021 3222.01 4278.99 69.65 1.00  49.81 2649.76
   23:14:36.540.26-Apr-2021 3222.01 4278.78 69.65 1.00  50.01 2649.76
   23:14:36.740.26-Apr-2021 3222.01 4278.78 69.65 1.00  50.21 2649.76
   23:14:36.940.26-Apr-2021 3222.01 4279.11 69.65 1.00  50.41 2649.76
   23:14:37.141.26-Apr-2021 3222.01 4279.10 69.65 1.00  50.61 2649.76
   23:14:37.341.26-Apr-2021 3222.01 4278.98 69.65 1.00  50.81 2649.76
   23:14:37.541.26-Apr-2021 3222.01 4279.02 69.65 1.00  51.01 2649.76
   23:14:37.741.26-Apr-2021 3222.01 4279.02 69.65 1.00  51.22 2649.76
   23:14:37.941.26-Apr-2021 3222.01 4278.97 69.65 1.00  51.42 2649.76
   23:14:38.141.26-Apr-2021 3222.01 4278.74 69.65 1.00  51.62 2649.76
   23:14:38.341.26-Apr-2021 3222.01 4279.11 69.65 1.00  51.82 2649.76
   23:14:38.541.26-Apr-2021 3222.01 4279.20 69.65 1.00  52.02 2649.76
   23:14:38.741.26-Apr-2021 3222.01 4279.20 69.65 1.00  52.22 2649.76
   23:14:38.941.26-Apr-2021 3222.01 4279.30 69.65 1.00  52.42 2649.76
   23:14:39.141.26-Apr-2021 3222.01 4279.13 69.65 1.00  52.62 2649.76
   23:14:39.341.26-Apr-2021 3222.01 4279.27 69.65 1.00  52.82 2649.76
   23:14:39.541.26-Apr-2021 3222.01 4279.29 69.65 1.00  53.02 2649.76
   23:14:39.741.26-Apr-2021 3222.01 4279.29 69.65 1.00  53.22 2649.76
   23:14:39.941.26-Apr-2021 3222.01 4279.15 69.65 1.00  53.42 2649.76
   23:14:40.141.26-Apr-2021 3222.01 4279.23 69.65 1.00  53.62 2649.76
   23:14:40.341.26-Apr-2021 3222.01 4279.16 69.65 1.00  53.82 2649.76
   23:14:40.542.26-Apr-2021 3222.01 4279.29 69.65 1.00  54.02 2649.76
   23:14:40.742.26-Apr-2021 3222.01 4279.29 69.65 1.00  54.22 2649.76
   23:14:40.942.26-Apr-2021 3222.01 4278.95 69.65 1.00  54.42 2649.76
   23:14:41.142.26-Apr-2021 3222.01 4279.22 69.65 1.00  54.62 2649.76
   23:14:41.342.26-Apr-2021 3222.01 4279.40 69.65 1.00  54.82 2649.76
   23:14:41.542.26-Apr-2021 3222.01 4279.23 69.65 1.00  55.02 2649.76
   23:14:41.742.26-Apr-2021 3222.01 4279.23 69.65 1.00  55.22 2649.76
   23:14:41.942.26-Apr-2021 3222.01 4278.92 69.64 1.00  55.42 2649.76
   23:14:42.142.26-Apr-2021 3222.01 4279.01 69.64 1.00  55.62 2649.76
   23:14:42.342.26-Apr-2021 3222.01 4279.47 69.64 1.00  55.82 2649.76
   23:14:42.542.26-Apr-2021 3222.01 4279.44 69.64 1.00  56.02 2649.76
   23:14:42.742.26-Apr-2021 3222.01 4279.44 69.64 1.00  56.22 2649.76
   23:14:42.942.26-Apr-2021 3222.01 4278.56 69.64 1.00  56.42 2649.76
   23:14:43.142.26-Apr-2021 3222.01 4279.17 69.64 1.00  56.62 2649.76
   23:14:43.342.26-Apr-2021 3222.01 4279.45 69.64 1.00  56.82 2649.76
   23:14:43.542.26-Apr-2021 3222.01 4279.44 69.64 1.00  57.02 2649.76
   23:14:43.742.26-Apr-2021 3222.01 4279.44 69.64 1.00  57.22 2649.76
   23:14:43.943.26-Apr-2021 3222.01 4279.35 69.64 1.00  57.42 2649.76
   23:14:44.143.26-Apr-2021 3222.01 4279.26 69.64 1.00  57.62 2649.76
   23:14:44.343.26-Apr-2021 3222.01 4279.56 69.64 1.00  57.82 2649.76
   23:14:44.543.26-Apr-2021 3222.01 4279.43 69.64 1.00  58.02 2649.76
   23:14:44.743.26-Apr-2021 3222.01 4279.43 69.64 1.00  58.22 2649.76
   23:14:44.943.26-Apr-2021 3222.01 4279.28 69.64 1.00  58.42 2649.76
   23:14:45.143.26-Apr-2021 3222.01 4279.52 69.64 1.00  58.62 2649.76
   23:14:45.343.26-Apr-2021 3222.01 4279.36 69.64 1.00  58.82 2649.76
   23:14:45.543.26-Apr-2021 3222.01 4279.39 69.64 1.00  59.02 2649.76
   23:14:45.743.26-Apr-2021 3222.01 4279.39 69.64 1.00  59.22 2649.76
   23:14:45.943.26-Apr-2021 3222.01 4279.29 69.64 1.00  59.42 2649.76
   23:14:46.143.26-Apr-2021 3222.01 4279.16 69.64 1.00  59.62 2649.76
   23:14:46.343.26-Apr-2021 3222.01 4278.65 69.64 1.00  59.82 2649.76
   23:14:46.543.26-Apr-2021 3222.01 4279.17 69.64 1.00  60.02 2649.76
   23:14:46.743.26-Apr-2021 3222.01 4279.17 69.64 1.00  60.22 2649.76
   23:14:46.943.26-Apr-2021 3222.01 4279.34 69.64 1.00  60.42 2649.76
   23:14:47.143.26-Apr-2021 3222.01 4279.44 69.64 1.00  60.62 2649.76
   23:14:47.344.26-Apr-2021 3222.01 4279.36 69.63 1.00  60.82 2649.76
   23:14:47.544.26-Apr-2021 3222.01 4279.42 69.63 1.00  61.02 2649.76
   23:14:47.744.26-Apr-2021 3222.01 4279.42 69.63 1.00  61.22 2649.76
   23:14:47.944.26-Apr-2021 3222.01 4279.55 69.63 1.00  61.42 2649.76
   23:14:48.144.26-Apr-2021 3222.01 4279.42 69.63 1.00  61.62 2649.76
   23:14:48.344.26-Apr-2021 3222.01 4279.36 69.63 1.00  61.82 2649.76
   23:14:48.544.26-Apr-2021 3222.01 4279.38 69.63 1.00  62.02 2649.76
   23:14:48.744.26-Apr-2021 3222.01 4279.38 69.63 1.00  62.22 2649.76
   23:14:48.944.26-Apr-2021 3222.01 4279.39 69.63 1.00  62.42 2649.76
   23:14:49.144.26-Apr-2021 3222.01 4278.67 69.63 1.00  62.62 2649.76
   23:14:49.344.26-Apr-2021 3222.01 4279.39 69.63 1.00  62.82 2649.76
   23:14:49.544.26-Apr-2021 3222.01 4279.45 69.63 1.00  63.02 2649.76
   23:14:49.744.26-Apr-2021 3222.01 4279.45 69.63 1.00  63.22 2649.76
   23:14:49.944.26-Apr-2021 3222.01 4279.44 69.63 1.00  63.42 2649.76
   23:14:50.144.26-Apr-2021 3222.01 4279.48 69.63 1.00  63.62 2649.76
   23:14:50.344.26-Apr-2021 3222.01 4278.77 69.63 1.00  63.82 2649.76
   23:14:50.544.26-Apr-2021 3222.01 4279.71 69.63 1.00  64.02 2649.76
   23:14:50.745.26-Apr-2021 3222.01 4279.71 69.63 1.00  64.22 2649.76
   23:14:50.945.26-Apr-2021 3222.01 4279.61 69.63 1.00  64.42 2649.76
   23:14:51.145.26-Apr-2021 3222.01 4279.29 69.63 1.00  64.62 2649.76
   23:14:51.345.26-Apr-2021 3222.01 4278.81 69.63 1.00  64.82 2649.76
   23:14:51.545.26-Apr-2021 3222.01 4279.36 69.63 1.00  65.02 2649.76
   23:14:51.745.26-Apr-2021 3222.01 4279.36 69.63 1.00  65.22 2649.76
   23:14:51.945.26-Apr-2021 3222.01 4279.36 69.63 1.00  65.42 2649.76
   23:14:52.145.26-Apr-2021 3222.01 4278.94 69.63 1.00  65.62 2649.76
   23:14:52.345.26-Apr-2021 3222.01 4279.42 69.63 1.00  65.82 2649.76
   23:14:52.545.26-Apr-2021 3222.01 4279.48 69.63 1.00  66.02 2649.76
   23:14:52.745.26-Apr-2021 3222.01 4279.48 69.63 1.00  66.22 2649.76
   23:14:52.945.26-Apr-2021 3222.01 4279.61 69.63 1.00  66.42 2649.76
   23:14:53.145.26-Apr-2021 3222.01 4279.51 69.62 1.00  66.62 2649.76
   23:14:53.345.26-Apr-2021 3222.01 4279.46 69.62 1.00  66.82 2649.76
   23:14:53.545.26-Apr-2021 3222.01 4279.67 69.62 1.00  67.02 2649.76
   23:14:53.745.26-Apr-2021 3222.01 4279.67 69.62 1.00  67.22 2649.76
   23:14:53.945.26-Apr-2021 3222.01 4279.52 69.62 1.00  67.42 2649.76
   23:14:54.146.26-Apr-2021 3222.01 4279.34 69.62 1.00  67.62 2649.76
   23:14:54.346.26-Apr-2021 3222.01 4279.43 69.62 1.00  67.82 2649.76
   23:14:54.546.26-Apr-2021 3222.01 4279.27 69.62 1.00  68.02 2649.76
   23:14:54.746.26-Apr-2021 3222.01 4279.27 69.62 1.00  68.22 2649.76
   23:14:54.946.26-Apr-2021 3222.01 4279.36 69.62 1.00  68.42 2649.76
   23:14:55.146.26-Apr-2021 3222.01 4279.58 69.62 1.00  68.62 2649.76
   23:14:55.346.26-Apr-2021 3222.01 4279.45 69.62 1.00  68.82 2649.76
