~Version Information
 VERS.                  2.0:   CWLS log ASCII Standard -VERSION 2.0
 WRAP.                   NO:   One line per depth step
~Well Information Block
#MNEM.UNIT     VALUE/NAME     DESCRIPTION
#---------     -----------    ---------------------------
 STRT.S             06:54:29 28-Apr-21: START TIME 06:54:29 28-Apr-21
 STOP.S             07:00:57 28-Apr-21: STOP TIME  07:00:57 28-Apr-21
 STEP.S                   0.00: STEP TIME
 NULL.                 -999.25: NULL VALUE
 DFWT.                        :  DIST FWL TEXT
 DFST.                        :  DIST FSL TEXT
 DMF .             Drill Floor:  DRILL MEAS FROM
 STIM.      02.00.00 12-Apr-21:  START TIME
 DATE.      02.00.00 02-May-21:  END TIME
 SPUD.               09-Apr-21:  SPUD DATE
 NREF.                    Grid:  NORTH REFERENCE
 HPTY.       Minimum Curvature:  HOLE POS TYPE
 DMOD.             Drill Model:  DRILL MOD DESC
 SVYD.                  Survey:  SURVEY DESC
 ILTD.               Lithology:  INTERP LTH DESC
 FTOP.          Formation Tops:  FORM TOPS DESC
 PDAT.          Mean Sea Level:  PERMANENT DATUM
 FLD .                     ACG:  FIELD NAME
 SON .        AZ-XX-0907021034:  JOB NUMBER
 CTRY.              Azerbaijan:  COUNTRY NAME
 WELL.                    E01x:  WELL NAME
 COMP.     BP Exploration (Caspian Sea) LTD.:  COMPANY
 UWI .            /AZE00001403:  UNIQUE WELL IDENTIFIER
 API .            /AZE00001403:  API NUMBER
 WTYP.                Deviated:  WELL TYPE
 MDS .        Operator Entered:  MAG DATA SOURCE
 BASE.              Azerbaijan:  LOGGING EQUIPMENT BASE LOCATION
 REGN.                   EESSA:  REGION
 PROV.                    Baku:  PROVINCE
 STAT.                    Baku:  STATE NAME
 SRVC.          Turan Drilling:  CONTRACTOR
 MWDS.                    Baku:  MWD SHOP
 JOBN.        AZ-XX-0907021034:  JOB TICKET NUMB
 RIG .                     DWG:  RIG NAME
 DOE .                     N/A:  DOE NUMBER
 DCON.         Sperry Drilling:  DIRECTNL CONTR
 UNIT.                     N/A:  LOGGING EQUIPMENT ID
 CNTY.                        :  COUNTY
 LOC .                        :  LOCATION
 LMF .             Drill Floor:  LOG MEASURED FROM
 TVDS.m                  43.16:  TVDSS CORRECTN
 LATI.deg                40.17:  LATITUDE
 LONG.deg                51.17:  LONGITUDE
 WHNS.m                  -5.90:  WELL HEAD N/S
 WHEW.m                  -6.61:  WELL HEAD E/W
 UTMX.m              514337.95:  UTM X
 UTMY.m             4448627.46:  UTM Y
 DFWL.m                   0.00:  DISTANCE FWL
 DFSL.m                   0.00:  DISTANCE FSL
 SDEP.m                2606.87:  START DEPTH
 TDD .m                3618.01:  TOTAL DEPTH (DRILLER)
 VSDR.deg               177.42:  VERT SEC DIRECT
 GVFD.g                   1.00:  GRAVITY FIELD
 MFLD.nT              50399.00:  MAGNETIC FIELD
 MDIP.deg                59.67:  MAGNETIC DIP
 MDEC.deg                 6.56:  MAGNETIC DECL
 GRDC.deg                 0.11:  GRID CORRECTION
 AZTC.deg                 6.45:  AZM TOTAL CORR
 EPD .m                   0.00:  ELEVATION
 EGL .m                   0.00:  GROUND ELEVATION
 WDMS.m                 176.20:  WD ELEV
 APD .m                  43.16:  DEPTH ABOVE PD
 DEP .m                2606.87:  DEPTH
 AGAP.m                  43.16:  AIR GAP
 VSEW.m                  -6.61:  VERT SEC E/W
 VSNS.m                  -5.90:  VERT SEC N/S
 EKB .m                  43.16:  KB ELEVATION
 EDF .m                  43.16:  DF ELEVATION
 TDL .m                 438.00:  TOTAL DEPTH (LOGGER)
 VSC .                       0:  VS TO CLOSURE
 MAGU.                 1855490:  MAGUTM CHECKSUM
~Parameter Information Block
#MNEM.UNIT       Value        Description
#---------     -----------    ---------------------------
 AV  .mps                 2.20:  Ann Velocity 
 AVMX.mps                 2.50:  Max Ann Veloc 
 AZIF.deg               150.21:  Azm, Final 
 BHAT.        Rotary Steerable:  BHA Type 
 BROT.°/30m               0.08:  Build Rotating 
 BS  .in                  6.50:  Bit Size 
 BSZ .in                  6.50:  Bit Size 
 BTPL.psig              108.00:  Bit Press Loss 
 CABU.                     Yes:  Customer Abuse 
 CGEO.           Emin Aliyarli:  Customer Geo 
 COMM.                     Ô8c:  Run Comments 1 
 TCS .hr                 74.20:  Time Ciculation Ended 
 CV  .mps                 3.63:  Crit Velocity 
 CVMX.mps                 3.66:  Max Crit Veloc 
 DD1 .         Intigam Rahimov:  Direct Drillr 1 
 DD2 .          Teymur Aghayev:  Direct Drillr 2 
 DDSV.               Geo-Pilot:  DD Service 
 DEFF.%                  97.00:  % Det Eff 
 DLRX.°/30m               1.63:  Dogleg Rot Max 
 DLSO.°/30m               0.00:  Dogleg Oriented 
 DLSX.°/30m               0.00:  Dogleg Str Max 
 DRET.      20.20.00 28-Apr-21:  Drill End Time 
 DRST.      04.45.00 26-Apr-21:  Drill Start Tim 
 DTIM.hr                 34.30:  Time Drilling 
 EDEP.m                3618.01:  End Depth 
 ENG1.           Amrah Tahirov:  Engineer 1 
 ENG2.         Bahruz Mehdiyev:  Engineer 2 
 ENG3.         Farhad Orujzade:  Engineer 3 
 ETIM.      19.00.00 29-Apr-21:  End Time 
 FLOI.gpm               370.00:  Flow In 
 FLON.gpm               300.00:  Flow In Min 
 FLOS.cptm                0.00:  Fluid Loss 
 FLOX.gpm               410.00:  Flow In Max 
 HFLO.                      No:  High Flow 
 HPRE.                      No:  High Pressure 
 HTEM.                      No:  High Temp 
 HYDO.m                   1.80:  Hydro Offset 
 IFIN.deg                67.19:  Inc, Final 
 IMAX.deg                68.42:  Inc Max 
 IMIN.deg                66.33:  Inc Min 
 IMND.m                3532.79:  Inc Min Depth 
 IMXD.m                3192.15:  Inc Max Depth 
 JARR.                      No:  Jarring 
 LETM.      20.20.00 28-Apr-21:  Log End Time 
 LOST.hr                     0:  Lost Rig Time 
 LSTM.      04.45.00 26-Apr-21:  Log Start Time 
 MDCL.ppm             36500.00:  Mud Chlorides 
 MDES.     Inversion Oil/Synthetic:  Mud Desc 
 DFD .sg                  1.42:  Mud Density 
 MDMN.sg                  1.42:  Dens Mud Min 
 MDMX.sg                  1.42:  Dens Mud Max 
 MOIL.                    55.7:  Run Mud Oil % 
 MOWR.                   71:29:  Run Mud OWR 
 MSND.                     0.1:  Run Mud Sand % 
 MSOL.                    19.9:  Run Mud Solids% 
 DFV .spqt               83.00:  Mud Viscosity 
 MWOD.in                  5.15:  MWD Tool OD 
 MWSI.                      No:  Serv Intrp, MWD 
 OTIM.hr                120.59:  Time Operating 
 PCON.           Look Like New:  Pad Condition 
 PMAX.psia            11292.93:  Press Op, Max 
 PV  .cP                 27.00:  Mud PV 
 RUN .                     400:  Run Number 
 ROPA.m/hr               14.00:  ROP Avg 
 ROPN.m/hr                9.00:  ROP Min 
 ROPX.m/hr               18.00:  ROP Max 
 RPMA.rpm               130.00:  RPM Surface Avg 
 RPMN.rpm               100.00:  RPM Surface Min 
 RPMX.rpm               140.00:  RPM Surface Max 
 RRUN.                    0400:  Rig Run Number 
 RTIM.hr                 38.60:  Time Reaming 
 SAZI.deg               149.55:  Azm, Start 
 SDEP.m                3180.01:  Start Depth 
 SIDD.                      No:  Serv Intrp, DD 
 SINC.deg                68.42:  Inc, Start 
 SPPA.psig             4400.00:  SPP Avg 
 SPPN.psig             3580.00:  SPP Min 
 SPPX.psig             4850.00:  SPP Max 
 STIM.      12.30.00 24-Apr-21:  Start Time 
 SVCS.                 DD, MWD:  Services 
 SVER.                    9.20:  Sperry Version 
 TDAT.m                 438.00:  Tot Depth Attmp 
 TDDF.                      No:  Trip for DD 
 TDLG.m                 438.00:  Tot Depth Loggd 
 TFF .                      No:  Trip for Fail 
 TQAA.f-kp               11.00:  Torque Abs Avg 
 TQAN.f-kp                9.00:  Torque Abs Min 
 TQAX.f-kp               14.00:  Torque Abs Max 
 TRRT.°/30m               0.04:  Turn Rotating 
 MRT .                    HCIM:  Maximum Recorded Temperature 
 TTMX.degC               84.31:  Max Tool Temp 
 VS01.                90521954:  Virtual Str1 SN 
 VS02.                90519327:  Virtual Str2 SN 
 VS03.                90522273:  Virtual Str3 SN 
 VS04.                11108038:  Virtual Str4 SN 
 VS05.                12258760:  Virtual Str5 SN 
 WBMN.klb                 1.00:  WOB Min 
 WITN.           Adil Mammadov:  Customer Rep 
 WITN.         Alex Yadullayev:  Customer Rep 2 
 WOBA.klb                 6.00:  WOB Avg 
 WOBX.klb                 9.00:  WOB Max 
 YP  .lhf2               31.00:  Yield Point 
~Curve Information Block
#MNEM.UNIT                 API CODE     Curve Description
#---------               -----------    ---------------------------
 TIME.HHMMSS            00 000 000 000:  GT Time & Date
 GTDEPTH.m              00 000 000 000:  GT Depth
 GTPQH.psia             00 000 000 000:  GT HR Quartz Pressure
 GTTQ.degC              00 000 000 000:  GT Quartz Temperature
 GTTN.NONE              00 000 000 000:  GT Test Number
 GTET.sec               00 000 000 000:  GT Elapsed Test Time
 GTTVD.m                00 000 000 000:  GT True Vertical Depth
#Other Information
#
#WARRANTY: Halliburton will use its best efforts to furnish customers with 
#accurate information and interpretations that are part of, and incident to, the services 
#provided.  However, Halliburton cannot and does not warrant the accuracy 
#or correctness of such information and interpretations.  Under no circumstances should any 
#such information or interpretation be relied upon as the sole basis for any drilling, 
#completion, production, or financial decision or any procedure involving any risk to the 
#safety of any drilling venture, drilling rig or its crew or any other third party.  The 
#Customer has full responsibility for all drilling, completion and production operation.  
#Halliburton makes no representations or warranties, either expressed or 
#implied, including, but not limited to, the implied warranties of merchantability or fitness 
#for a particular purpose, with respect to the services rendered.  In no event will 
#Halliburton be liable for failure to obtain any particular results or for 
#any damages, including, but not limited to, indirect, special or consequential damages, 
#resulting from the use of any information or interpretation provided by Halliburton.
#
~A           TIME           GTDEPTH  GTPQH  GTTQ  GTTN  GTET   GTTVD  
# ...
   07:00:14.822.28-Apr-2021 3473.01 3657.58 72.35 8.00 345.05 2748.71
   07:00:15.022.28-Apr-2021 3473.01 3657.58 72.35 8.00 345.25 2748.71
   07:00:15.222.28-Apr-2021 3473.01 5603.71 72.35 8.00 345.45 2748.71
   07:00:15.422.28-Apr-2021 3473.01 6039.43 72.35 8.00 345.65 2748.71
   07:00:15.622.28-Apr-2021 3473.01 6051.57 72.35 8.00 345.85 2748.71
   07:00:15.822.28-Apr-2021 3473.01 6049.71 72.35 8.00 346.05 2748.71
   07:00:16.022.28-Apr-2021 3473.01 6049.71 72.35 8.00 346.25 2748.71
   07:00:16.222.28-Apr-2021 3473.01 6049.54 72.35 8.00 346.45 2748.71
   07:00:16.422.28-Apr-2021 3473.01 6052.24 72.35 8.00 346.65 2748.71
   07:00:16.622.28-Apr-2021 3473.01 6054.58 72.35 8.00 346.85 2748.71
   07:00:16.823.28-Apr-2021 3473.01 6052.74 72.35 8.00 347.05 2748.71
   07:00:17.023.28-Apr-2021 3473.01 6052.74 72.35 8.00 347.25 2748.71
   07:00:17.223.28-Apr-2021 3473.01 6054.71 72.35 8.00 347.45 2748.71
   07:00:17.423.28-Apr-2021 3473.01 6058.42 72.35 8.00 347.65 2748.71
   07:00:17.623.28-Apr-2021 3473.01 6057.34 72.35 8.00 347.85 2748.71
   07:00:17.823.28-Apr-2021 3473.01 6058.38 72.35 8.00 348.05 2748.71
   07:00:18.023.28-Apr-2021 3473.01 6058.38 72.35 8.00 348.25 2748.71
   07:00:18.223.28-Apr-2021 3473.01 6058.54 72.35 8.00 348.45 2748.71
   07:00:18.423.28-Apr-2021 3473.01 6059.84 72.35 8.00 348.65 2748.71
   07:00:18.623.28-Apr-2021 3473.01 6058.83 72.35 8.00 348.85 2748.71
   07:00:18.823.28-Apr-2021 3473.01 6043.11 72.35 8.00 349.05 2748.71
   07:00:19.023.28-Apr-2021 3473.01 6043.11 72.35 8.00 349.25 2748.71
   07:00:19.223.28-Apr-2021 3473.01 6058.86 72.35 8.00 349.45 2748.71
   07:00:19.423.28-Apr-2021 3473.01 6058.49 72.35 8.00 349.65 2748.71
   07:00:19.623.28-Apr-2021 3473.01 6053.79 72.36 8.00 349.85 2748.71
   07:00:19.823.28-Apr-2021 3473.01 6047.60 72.36 8.00 350.05 2748.71
   07:00:20.023.28-Apr-2021 3473.01 6047.60 72.36 8.00 350.25 2748.71
   07:00:20.223.28-Apr-2021 3473.01 6060.06 72.36 8.00 350.45 2748.71
   07:00:20.423.28-Apr-2021 3473.01 6058.27 72.36 8.00 350.65 2748.71
   07:00:20.623.28-Apr-2021 3473.01 6054.38 72.36 8.00 350.85 2748.71
   07:00:20.823.28-Apr-2021 3473.01 6062.39 72.36 8.00 351.05 2748.71
   07:00:21.023.28-Apr-2021 3473.01 6062.39 72.36 8.00 351.25 2748.71
   07:00:21.223.28-Apr-2021 3473.01 6057.32 72.36 8.00 351.45 2748.71
   07:00:21.423.28-Apr-2021 3473.01 6058.47 72.36 8.00 351.65 2748.71
   07:00:21.623.28-Apr-2021 3473.01 6058.45 72.36 8.00 351.85 2748.71
   07:00:21.823.28-Apr-2021 3473.01 6056.73 72.36 8.00 352.05 2748.71
   07:00:22.023.28-Apr-2021 3473.01 6056.73 72.36 8.00 352.25 2748.71
   07:00:22.223.28-Apr-2021 3473.01 6058.94 72.36 8.00 352.45 2748.71
   07:00:22.423.28-Apr-2021 3473.01 6058.29 72.36 8.00 352.65 2748.71
   07:00:22.623.28-Apr-2021 3473.01 6057.32 72.36 8.00 352.85 2748.71
   07:00:22.823.28-Apr-2021 3473.01 6058.27 72.36 8.00 353.05 2748.71
   07:00:23.023.28-Apr-2021 3473.01 6058.27 72.36 8.00 353.25 2748.71
   07:00:23.223.28-Apr-2021 3473.01 6061.15 72.36 8.00 353.45 2748.71
   07:00:23.423.28-Apr-2021 3473.01 6057.39 72.36 8.00 353.65 2748.71
   07:00:23.624.28-Apr-2021 3473.01 6058.08 72.36 8.00 353.85 2748.71
   07:00:23.824.28-Apr-2021 3473.01 6050.47 72.36 8.00 354.05 2748.71
   07:00:24.024.28-Apr-2021 3473.01 6050.47 72.36 8.00 354.25 2748.71
   07:00:24.224.28-Apr-2021 3473.01 6059.33 72.36 8.00 354.45 2748.71
   07:00:24.424.28-Apr-2021 3473.01 6053.91 72.36 8.00 354.65 2748.71
   07:00:24.624.28-Apr-2021 3473.01 6057.03 72.36 8.00 354.85 2748.71
   07:00:24.824.28-Apr-2021 3473.01 6056.53 72.36 8.00 355.05 2748.71
   07:00:25.024.28-Apr-2021 3473.01 6056.53 72.36 8.00 355.25 2748.71
   07:00:25.224.28-Apr-2021 3473.01 6057.64 72.36 8.00 355.45 2748.71
   07:00:25.424.28-Apr-2021 3473.01 6055.96 72.36 8.00 355.65 2748.71
   07:00:25.624.28-Apr-2021 3473.01 6059.08 72.36 8.00 355.85 2748.71
   07:00:25.824.28-Apr-2021 3473.01 6058.58 72.36 8.00 356.05 2748.71
   07:00:26.024.28-Apr-2021 3473.01 6058.58 72.36 8.00 356.25 2748.71
   07:00:26.224.28-Apr-2021 3473.01 6059.95 72.36 8.00 356.45 2748.71
   07:00:26.424.28-Apr-2021 3473.01 6058.39 72.36 8.00 356.65 2748.71
   07:00:26.624.28-Apr-2021 3473.01 6048.14 72.36 8.00 356.85 2748.71
   07:00:26.824.28-Apr-2021 3473.01 6059.60 72.36 8.00 357.05 2748.71
   07:00:27.024.28-Apr-2021 3473.01 6059.60 72.36 8.00 357.25 2748.71
   07:00:27.224.28-Apr-2021 3473.01 6058.34 72.36 8.00 357.45 2748.71
   07:00:27.424.28-Apr-2021 3473.01 6054.97 72.36 8.00 357.65 2748.71
   07:00:27.624.28-Apr-2021 3473.01 6059.58 72.36 8.00 357.85 2748.71
   07:00:27.824.28-Apr-2021 3473.01 6046.83 72.36 8.00 358.05 2748.71
   07:00:28.024.28-Apr-2021 3473.01 6046.83 72.36 8.00 358.25 2748.71
   07:00:28.224.28-Apr-2021 3473.01 6057.11 72.36 8.00 358.45 2748.71
   07:00:28.424.28-Apr-2021 3473.01 6057.99 72.36 8.00 358.65 2748.71
   07:00:28.624.28-Apr-2021 3473.01 6045.35 72.36 8.00 358.85 2748.71
   07:00:28.824.28-Apr-2021 3473.01 6060.63 72.36 8.00 359.05 2748.71
   07:00:29.024.28-Apr-2021 3473.01 6060.63 72.36 8.00 359.25 2748.71
   07:00:29.224.28-Apr-2021 3473.01 6055.79 72.36 8.00 359.45 2748.71
   07:00:29.424.28-Apr-2021 3473.01 6044.67 72.36 8.00 359.65 2748.71
   07:00:29.624.28-Apr-2021 3473.01 6057.64 72.36 8.00 359.85 2748.71
   07:00:29.824.28-Apr-2021 3473.01 6060.11 72.36 8.00 360.05 2748.71
   07:00:30.024.28-Apr-2021 3473.01 6060.11 72.36 8.00 360.25 2748.71
   07:00:30.224.28-Apr-2021 3473.01 6052.20 72.36 8.00 360.45 2748.71
   07:00:30.425.28-Apr-2021 3473.01 6058.69 72.36 8.00 360.65 2748.71
   07:00:30.625.28-Apr-2021 3473.01 6058.78 72.35 8.00 360.85 2748.71
   07:00:30.825.28-Apr-2021 3473.01 6058.27 72.35 8.00 361.05 2748.71
   07:00:31.025.28-Apr-2021 3473.01 6058.27 72.35 8.00 361.25 2748.71
   07:00:31.225.28-Apr-2021 3473.01 6058.04 72.35 8.00 361.45 2748.71
   07:00:31.425.28-Apr-2021 3473.01 6060.53 72.35 8.00 361.65 2748.71
   07:00:31.625.28-Apr-2021 3473.01 6058.13 72.35 8.00 361.85 2748.71
   07:00:31.825.28-Apr-2021 3473.01 6059.41 72.35 8.00 362.05 2748.71
   07:00:32.025.28-Apr-2021 3473.01 6059.41 72.35 8.00 362.25 2748.71
   07:00:32.225.28-Apr-2021 3473.01 6053.05 72.35 8.00 362.45 2748.71
   07:00:32.425.28-Apr-2021 3473.01 6057.67 72.35 8.00 362.65 2748.71
   07:00:32.625.28-Apr-2021 3473.01 6057.44 72.35 8.00 362.85 2748.71
   07:00:32.825.28-Apr-2021 3473.01 6054.89 72.35 8.00 363.05 2748.71
   07:00:33.025.28-Apr-2021 3473.01 6054.89 72.35 8.00 363.25 2748.71
   07:00:33.225.28-Apr-2021 3473.01 6058.20 72.35 8.00 363.45 2748.71
   07:00:33.425.28-Apr-2021 3473.01 6056.34 72.35 8.00 363.65 2748.71
   07:00:33.625.28-Apr-2021 3473.01 6056.19 72.35 8.00 363.85 2748.71
   07:00:33.825.28-Apr-2021 3473.01 6056.60 72.35 8.00 364.05 2748.71
   07:00:34.025.28-Apr-2021 3473.01 6056.60 72.35 8.00 364.25 2748.71
   07:00:34.225.28-Apr-2021 3473.01 6060.95 72.35 8.00 364.45 2748.71
   07:00:34.425.28-Apr-2021 3473.01 6055.96 72.35 8.00 364.65 2748.71
   07:00:34.625.28-Apr-2021 3473.01 6058.69 72.35 8.00 364.85 2748.71
   07:00:34.825.28-Apr-2021 3473.01 6057.82 72.35 8.00 365.05 2748.71
   07:00:35.025.28-Apr-2021 3473.01 6057.82 72.35 8.00 365.25 2748.71
   07:00:35.225.28-Apr-2021 3473.01 6060.23 72.35 8.00 365.45 2748.71
   07:00:35.425.28-Apr-2021 3473.01 6057.91 72.35 8.00 365.65 2748.71
   07:00:35.625.28-Apr-2021 3473.01 6058.87 72.35 8.00 365.85 2748.71
   07:00:35.825.28-Apr-2021 3473.01 6054.40 72.35 8.00 366.05 2748.71
   07:00:36.025.28-Apr-2021 3473.01 6054.40 72.35 8.00 366.25 2748.71
   07:00:36.225.28-Apr-2021 3473.01 6051.74 72.35 8.00 366.45 2748.71
   07:00:36.425.28-Apr-2021 3473.01 6057.96 72.35 8.00 366.65 2748.71
   07:00:36.625.28-Apr-2021 3473.01 6060.42 72.35 8.00 366.85 2748.71
   07:00:36.825.28-Apr-2021 3473.01 6059.70 72.35 8.00 367.05 2748.71
   07:00:37.025.28-Apr-2021 3473.01 6059.70 72.35 8.00 367.25 2748.71
   07:00:37.226.28-Apr-2021 3473.01 6061.10 72.34 8.00 367.45 2748.71
   07:00:37.426.28-Apr-2021 3473.01 6060.92 72.34 8.00 367.65 2748.71
   07:00:37.626.28-Apr-2021 3473.01 6059.44 72.34 8.00 367.85 2748.71
