~Version Information
 VERS.                  2.0:   CWLS log ASCII Standard -VERSION 2.0
 WRAP.                   NO:   One line per depth step
~Well Information Block
#MNEM.UNIT     VALUE/NAME     DESCRIPTION
#---------     -----------    ---------------------------
 STRT.S             15:37:44 28-Apr-21: START TIME 15:37:44 28-Apr-21
 STOP.S             15:44:12 28-Apr-21: STOP TIME  15:44:12 28-Apr-21
 STEP.S                   0.00: STEP TIME
 NULL.                 -999.25: NULL VALUE
 DFWT.                        :  DIST FWL TEXT
 DFST.                        :  DIST FSL TEXT
 DMF .             Drill Floor:  DRILL MEAS FROM
 STIM.      02.00.00 12-Apr-21:  START TIME
 DATE.      02.00.00 02-May-21:  END TIME
 SPUD.               09-Apr-21:  SPUD DATE
 NREF.                    Grid:  NORTH REFERENCE
 HPTY.       Minimum Curvature:  HOLE POS TYPE
 DMOD.             Drill Model:  DRILL MOD DESC
 SVYD.                  Survey:  SURVEY DESC
 ILTD.               Lithology:  INTERP LTH DESC
 FTOP.          Formation Tops:  FORM TOPS DESC
 PDAT.          Mean Sea Level:  PERMANENT DATUM
 FLD .                     ACG:  FIELD NAME
 SON .        AZ-XX-0907021034:  JOB NUMBER
 CTRY.              Azerbaijan:  COUNTRY NAME
 WELL.                    E01x:  WELL NAME
 COMP.     BP Exploration (Caspian Sea) LTD.:  COMPANY
 UWI .            /AZE00001403:  UNIQUE WELL IDENTIFIER
 API .            /AZE00001403:  API NUMBER
 WTYP.                Deviated:  WELL TYPE
 MDS .        Operator Entered:  MAG DATA SOURCE
 BASE.              Azerbaijan:  LOGGING EQUIPMENT BASE LOCATION
 REGN.                   EESSA:  REGION
 PROV.                    Baku:  PROVINCE
 STAT.                    Baku:  STATE NAME
 SRVC.          Turan Drilling:  CONTRACTOR
 MWDS.                    Baku:  MWD SHOP
 JOBN.        AZ-XX-0907021034:  JOB TICKET NUMB
 RIG .                     DWG:  RIG NAME
 DOE .                     N/A:  DOE NUMBER
 DCON.         Sperry Drilling:  DIRECTNL CONTR
 UNIT.                     N/A:  LOGGING EQUIPMENT ID
 CNTY.                        :  COUNTY
 LOC .                        :  LOCATION
 LMF .             Drill Floor:  LOG MEASURED FROM
 TVDS.m                  43.16:  TVDSS CORRECTN
 LATI.deg                40.17:  LATITUDE
 LONG.deg                51.17:  LONGITUDE
 WHNS.m                  -5.90:  WELL HEAD N/S
 WHEW.m                  -6.61:  WELL HEAD E/W
 UTMX.m              514337.95:  UTM X
 UTMY.m             4448627.46:  UTM Y
 DFWL.m                   0.00:  DISTANCE FWL
 DFSL.m                   0.00:  DISTANCE FSL
 SDEP.m                2606.87:  START DEPTH
 TDD .m                3618.01:  TOTAL DEPTH (DRILLER)
 VSDR.deg               177.42:  VERT SEC DIRECT
 GVFD.g                   1.00:  GRAVITY FIELD
 MFLD.nT              50399.00:  MAGNETIC FIELD
 MDIP.deg                59.67:  MAGNETIC DIP
 MDEC.deg                 6.56:  MAGNETIC DECL
 GRDC.deg                 0.11:  GRID CORRECTION
 AZTC.deg                 6.45:  AZM TOTAL CORR
 EPD .m                   0.00:  ELEVATION
 EGL .m                   0.00:  GROUND ELEVATION
 WDMS.m                 176.20:  WD ELEV
 APD .m                  43.16:  DEPTH ABOVE PD
 DEP .m                2606.87:  DEPTH
 AGAP.m                  43.16:  AIR GAP
 VSEW.m                  -6.61:  VERT SEC E/W
 VSNS.m                  -5.90:  VERT SEC N/S
 EKB .m                  43.16:  KB ELEVATION
 EDF .m                  43.16:  DF ELEVATION
 TDL .m                 438.00:  TOTAL DEPTH (LOGGER)
 VSC .                       0:  VS TO CLOSURE
 MAGU.                 1855490:  MAGUTM CHECKSUM
~Parameter Information Block
#MNEM.UNIT       Value        Description
#---------     -----------    ---------------------------
 AV  .mps                 2.20:  Ann Velocity 
 AVMX.mps                 2.50:  Max Ann Veloc 
 AZIF.deg               150.21:  Azm, Final 
 BHAT.        Rotary Steerable:  BHA Type 
 BROT.°/30m               0.08:  Build Rotating 
 BS  .in                  6.50:  Bit Size 
 BSZ .in                  6.50:  Bit Size 
 BTPL.psig              108.00:  Bit Press Loss 
 CABU.                     Yes:  Customer Abuse 
 CGEO.           Emin Aliyarli:  Customer Geo 
 COMM.                     ôŸZ:  Run Comments 1 
 TCS .hr                 74.20:  Time Ciculation Ended 
 CV  .mps                 3.63:  Crit Velocity 
 CVMX.mps                 3.66:  Max Crit Veloc 
 DD1 .         Intigam Rahimov:  Direct Drillr 1 
 DD2 .          Teymur Aghayev:  Direct Drillr 2 
 DDSV.               Geo-Pilot:  DD Service 
 DEFF.%                  97.00:  % Det Eff 
 DLRX.°/30m               1.63:  Dogleg Rot Max 
 DLSO.°/30m               0.00:  Dogleg Oriented 
 DLSX.°/30m               0.00:  Dogleg Str Max 
 DRET.      20.20.00 28-Apr-21:  Drill End Time 
 DRST.      04.45.00 26-Apr-21:  Drill Start Tim 
 DTIM.hr                 34.30:  Time Drilling 
 EDEP.m                3618.01:  End Depth 
 ENG1.           Amrah Tahirov:  Engineer 1 
 ENG2.         Bahruz Mehdiyev:  Engineer 2 
 ENG3.         Farhad Orujzade:  Engineer 3 
 ETIM.      19.00.00 29-Apr-21:  End Time 
 FLOI.gpm               370.00:  Flow In 
 FLON.gpm               300.00:  Flow In Min 
 FLOS.cptm                0.00:  Fluid Loss 
 FLOX.gpm               410.00:  Flow In Max 
 HFLO.                      No:  High Flow 
 HPRE.                      No:  High Pressure 
 HTEM.                      No:  High Temp 
 HYDO.m                   1.80:  Hydro Offset 
 IFIN.deg                67.19:  Inc, Final 
 IMAX.deg                68.42:  Inc Max 
 IMIN.deg                66.33:  Inc Min 
 IMND.m                3532.79:  Inc Min Depth 
 IMXD.m                3192.15:  Inc Max Depth 
 JARR.                      No:  Jarring 
 LETM.      20.20.00 28-Apr-21:  Log End Time 
 LOST.hr                     0:  Lost Rig Time 
 LSTM.      04.45.00 26-Apr-21:  Log Start Time 
 MDCL.ppm             36500.00:  Mud Chlorides 
 MDES.     Inversion Oil/Synthetic:  Mud Desc 
 DFD .sg                  1.42:  Mud Density 
 MDMN.sg                  1.42:  Dens Mud Min 
 MDMX.sg                  1.42:  Dens Mud Max 
 MOIL.                    55.7:  Run Mud Oil % 
 MOWR.                   71:29:  Run Mud OWR 
 MSND.                     0.1:  Run Mud Sand % 
 MSOL.                    19.9:  Run Mud Solids% 
 DFV .spqt               83.00:  Mud Viscosity 
 MWOD.in                  5.15:  MWD Tool OD 
 MWSI.                      No:  Serv Intrp, MWD 
 OTIM.hr                120.59:  Time Operating 
 PCON.           Look Like New:  Pad Condition 
 PMAX.psia            11292.93:  Press Op, Max 
 PV  .cP                 27.00:  Mud PV 
 RUN .                     400:  Run Number 
 ROPA.m/hr               14.00:  ROP Avg 
 ROPN.m/hr                9.00:  ROP Min 
 ROPX.m/hr               18.00:  ROP Max 
 RPMA.rpm               130.00:  RPM Surface Avg 
 RPMN.rpm               100.00:  RPM Surface Min 
 RPMX.rpm               140.00:  RPM Surface Max 
 RRUN.                    0400:  Rig Run Number 
 RTIM.hr                 38.60:  Time Reaming 
 SAZI.deg               149.55:  Azm, Start 
 SDEP.m                3180.01:  Start Depth 
 SIDD.                      No:  Serv Intrp, DD 
 SINC.deg                68.42:  Inc, Start 
 SPPA.psig             4400.00:  SPP Avg 
 SPPN.psig             3580.00:  SPP Min 
 SPPX.psig             4850.00:  SPP Max 
 STIM.      12.30.00 24-Apr-21:  Start Time 
 SVCS.                 DD, MWD:  Services 
 SVER.                    9.20:  Sperry Version 
 TDAT.m                 438.00:  Tot Depth Attmp 
 TDDF.                      No:  Trip for DD 
 TDLG.m                 438.00:  Tot Depth Loggd 
 TFF .                      No:  Trip for Fail 
 TQAA.f-kp               11.00:  Torque Abs Avg 
 TQAN.f-kp                9.00:  Torque Abs Min 
 TQAX.f-kp               14.00:  Torque Abs Max 
 TRRT.°/30m               0.04:  Turn Rotating 
 MRT .                    HCIM:  Maximum Recorded Temperature 
 TTMX.degC               84.31:  Max Tool Temp 
 VS01.                90521954:  Virtual Str1 SN 
 VS02.                90519327:  Virtual Str2 SN 
 VS03.                90522273:  Virtual Str3 SN 
 VS04.                11108038:  Virtual Str4 SN 
 VS05.                12258760:  Virtual Str5 SN 
 WBMN.klb                 1.00:  WOB Min 
 WITN.           Adil Mammadov:  Customer Rep 
 WITN.         Alex Yadullayev:  Customer Rep 2 
 WOBA.klb                 6.00:  WOB Avg 
 WOBX.klb                 9.00:  WOB Max 
 YP  .lhf2               31.00:  Yield Point 
~Curve Information Block
#MNEM.UNIT                 API CODE     Curve Description
#---------               -----------    ---------------------------
 TIME.HHMMSS            00 000 000 000:  GT Time & Date
 GTDEPTH.m              00 000 000 000:  GT Depth
 GTPQH.psia             00 000 000 000:  GT HR Quartz Pressure
 GTTQ.degC              00 000 000 000:  GT Quartz Temperature
 GTTN.NONE              00 000 000 000:  GT Test Number
 GTET.sec               00 000 000 000:  GT Elapsed Test Time
 GTTVD.m                00 000 000 000:  GT True Vertical Depth
#Other Information
#
#WARRANTY: Halliburton will use its best efforts to furnish customers with 
#accurate information and interpretations that are part of, and incident to, the services 
#provided.  However, Halliburton cannot and does not warrant the accuracy 
#or correctness of such information and interpretations.  Under no circumstances should any 
#such information or interpretation be relied upon as the sole basis for any drilling, 
#completion, production, or financial decision or any procedure involving any risk to the 
#safety of any drilling venture, drilling rig or its crew or any other third party.  The 
#Customer has full responsibility for all drilling, completion and production operation.  
#Halliburton makes no representations or warranties, either expressed or 
#implied, including, but not limited to, the implied warranties of merchantability or fitness 
#for a particular purpose, with respect to the services rendered.  In no event will 
#Halliburton be liable for failure to obtain any particular results or for 
#any damages, including, but not limited to, indirect, special or consequential damages, 
#resulting from the use of any information or interpretation provided by Halliburton.
#
~A           TIME           GTDEPTH  GTPQH  GTTQ  GTTN   GTET   GTTVD  
# ...
   15:39:14.749.28-Apr-2021 3537.51 4281.71 74.89 10.00  90.43 2773.98
   15:39:14.949.28-Apr-2021 3537.51 4281.69 74.89 10.00  90.63 2773.98
   15:39:15.149.28-Apr-2021 3537.51 4281.69 74.89 10.00  90.83 2773.98
   15:39:15.349.28-Apr-2021 3537.51 4281.52 74.89 10.00  91.03 2773.98
   15:39:15.549.28-Apr-2021 3537.51 4281.52 74.89 10.00  91.23 2773.98
   15:39:15.749.28-Apr-2021 3537.51 4281.72 74.89 10.00  91.43 2773.98
   15:39:15.949.28-Apr-2021 3537.51 4281.69 74.89 10.00  91.63 2773.98
   15:39:16.149.28-Apr-2021 3537.51 4281.64 74.89 10.00  91.84 2773.98
   15:39:16.349.28-Apr-2021 3537.51 4281.69 74.89 10.00  92.04 2773.98
   15:39:16.549.28-Apr-2021 3537.51 4281.69 74.89 10.00  92.24 2773.98
   15:39:16.749.28-Apr-2021 3537.51 4281.69 74.88 10.00  92.44 2773.98
   15:39:16.949.28-Apr-2021 3537.51 4281.67 74.88 10.00  92.64 2773.98
   15:39:17.150.28-Apr-2021 3537.51 4281.67 74.88 10.00  92.84 2773.98
   15:39:17.350.28-Apr-2021 3537.51 4281.67 74.88 10.00  93.04 2773.98
   15:39:17.550.28-Apr-2021 3537.51 4281.67 74.88 10.00  93.24 2773.98
   15:39:17.750.28-Apr-2021 3537.51 4281.68 74.88 10.00  93.44 2773.98
   15:39:17.950.28-Apr-2021 3537.51 4281.64 74.88 10.00  93.64 2773.98
   15:39:18.150.28-Apr-2021 3537.51 4281.59 74.88 10.00  93.84 2773.98
   15:39:18.350.28-Apr-2021 3537.51 4281.69 74.88 10.00  94.04 2773.98
   15:39:18.550.28-Apr-2021 3537.51 4281.69 74.88 10.00  94.24 2773.98
   15:39:18.750.28-Apr-2021 3537.51 4281.66 74.88 10.00  94.44 2773.98
   15:39:18.950.28-Apr-2021 3537.51 4281.62 74.88 10.00  94.64 2773.98
   15:39:19.150.28-Apr-2021 3537.51 4281.69 74.88 10.00  94.84 2773.98
   15:39:19.350.28-Apr-2021 3537.51 4281.45 74.88 10.00  95.04 2773.98
   15:39:19.550.28-Apr-2021 3537.51 4281.45 74.88 10.00  95.24 2773.98
   15:39:19.751.28-Apr-2021 3537.51 4281.70 74.88 10.00  95.44 2773.98
   15:39:19.951.28-Apr-2021 3537.51 4281.65 74.88 10.00  95.64 2773.98
   15:39:20.151.28-Apr-2021 3537.51 4281.57 74.87 10.00  95.84 2773.98
   15:39:20.351.28-Apr-2021 3537.51 4281.66 74.87 10.00  96.04 2773.98
   15:39:20.551.28-Apr-2021 3537.51 4281.66 74.87 10.00  96.24 2773.98
   15:39:20.751.28-Apr-2021 3537.51 4281.69 74.87 10.00  96.44 2773.98
   15:39:20.951.28-Apr-2021 3537.51 4281.65 74.87 10.00  96.64 2773.98
   15:39:21.151.28-Apr-2021 3537.51 4281.59 74.87 10.00  96.84 2773.98
   15:39:21.351.28-Apr-2021 3537.51 4281.45 74.87 10.00  97.04 2773.98
   15:39:21.551.28-Apr-2021 3537.51 4281.45 74.87 10.00  97.24 2773.98
   15:39:21.751.28-Apr-2021 3537.51 4281.70 74.87 10.00  97.44 2773.98
   15:39:21.951.28-Apr-2021 3537.51 4281.64 74.87 10.00  97.64 2773.98
   15:39:22.151.28-Apr-2021 3537.51 4281.59 74.87 10.00  97.84 2773.98
   15:39:22.352.28-Apr-2021 3537.51 4281.65 74.87 10.00  98.04 2773.98
   15:39:22.552.28-Apr-2021 3537.51 4281.65 74.87 10.00  98.24 2773.98
   15:39:22.752.28-Apr-2021 3537.51 4281.67 74.87 10.00  98.44 2773.98
   15:39:22.952.28-Apr-2021 3537.51 4281.61 74.87 10.00  98.64 2773.98
   15:39:23.152.28-Apr-2021 3537.51 4281.62 74.87 10.00  98.84 2773.98
   15:39:23.352.28-Apr-2021 3537.51 4281.65 74.87 10.00  99.04 2773.98
   15:39:23.552.28-Apr-2021 3537.51 4281.65 74.87 10.00  99.24 2773.98
   15:39:23.752.28-Apr-2021 3537.51 4281.63 74.86 10.00  99.44 2773.98
   15:39:23.952.28-Apr-2021 3537.51 4281.41 74.86 10.00  99.64 2773.98
   15:39:24.152.28-Apr-2021 3537.51 4281.75 74.86 10.00  99.84 2773.98
   15:39:24.352.28-Apr-2021 3537.51 4281.65 74.86 10.00 100.04 2773.98
   15:39:24.552.28-Apr-2021 3537.51 4281.65 74.86 10.00 100.24 2773.98
   15:39:24.752.28-Apr-2021 3537.51 4281.61 74.86 10.00 100.44 2773.98
   15:39:24.953.28-Apr-2021 3537.51 4281.59 74.86 10.00 100.64 2773.98
   15:39:25.153.28-Apr-2021 3537.51 4281.64 74.86 10.00 100.84 2773.98
   15:39:25.353.28-Apr-2021 3537.51 4281.61 74.86 10.00 101.04 2773.98
   15:39:25.553.28-Apr-2021 3537.51 4281.61 74.86 10.00 101.24 2773.98
   15:39:25.753.28-Apr-2021 3537.51 4281.60 74.86 10.00 101.44 2773.98
   15:39:25.953.28-Apr-2021 3537.51 4281.64 74.86 10.00 101.64 2773.98
   15:39:26.153.28-Apr-2021 3537.51 4281.60 74.86 10.00 101.84 2773.98
   15:39:26.353.28-Apr-2021 3537.51 4281.63 74.86 10.00 102.04 2773.98
   15:39:26.553.28-Apr-2021 3537.51 4281.63 74.86 10.00 102.24 2773.98
   15:39:26.753.28-Apr-2021 3537.51 4281.38 74.86 10.00 102.44 2773.98
   15:39:26.953.28-Apr-2021 3537.51 4281.74 74.86 10.00 102.64 2773.98
   15:39:27.153.28-Apr-2021 3537.51 4281.65 74.85 10.00 102.84 2773.98
   15:39:27.353.28-Apr-2021 3537.51 4281.62 74.85 10.00 103.04 2773.98
   15:39:27.554.28-Apr-2021 3537.51 4281.62 74.85 10.00 103.24 2773.98
   15:39:27.754.28-Apr-2021 3537.51 4281.61 74.85 10.00 103.44 2773.98
   15:39:27.954.28-Apr-2021 3537.51 4281.48 74.85 10.00 103.64 2773.98
   15:39:28.154.28-Apr-2021 3537.51 4281.70 74.85 10.00 103.84 2773.98
   15:39:28.354.28-Apr-2021 3537.51 4281.61 74.85 10.00 104.04 2773.98
   15:39:28.554.28-Apr-2021 3537.51 4281.61 74.85 10.00 104.24 2773.98
   15:39:28.754.28-Apr-2021 3537.51 4281.62 74.85 10.00 104.44 2773.98
   15:39:28.954.28-Apr-2021 3537.51 4281.43 74.85 10.00 104.64 2773.98
   15:39:29.154.28-Apr-2021 3537.51 4281.70 74.85 10.00 104.84 2773.98
   15:39:29.354.28-Apr-2021 3537.51 4281.63 74.85 10.00 105.04 2773.98
   15:39:29.554.28-Apr-2021 3537.51 4281.63 74.85 10.00 105.24 2773.98
   15:39:29.754.28-Apr-2021 3537.51 4281.57 74.85 10.00 105.44 2773.98
   15:39:29.954.28-Apr-2021 3537.51 4281.45 74.85 10.00 105.64 2773.98
   15:39:30.155.28-Apr-2021 3537.51 4281.71 74.85 10.00 105.84 2773.98
   15:39:30.355.28-Apr-2021 3537.51 4281.58 74.85 10.00 106.04 2773.98
   15:39:30.555.28-Apr-2021 3537.51 4281.58 74.85 10.00 106.24 2773.98
   15:39:30.755.28-Apr-2021 3537.51 4281.57 74.84 10.00 106.44 2773.98
   15:39:30.955.28-Apr-2021 3537.51 4281.55 74.84 10.00 106.64 2773.98
   15:39:31.155.28-Apr-2021 3537.51 4281.61 74.84 10.00 106.84 2773.98
   15:39:31.355.28-Apr-2021 3537.51 4281.60 74.84 10.00 107.04 2773.98
   15:39:31.555.28-Apr-2021 3537.51 4281.60 74.84 10.00 107.24 2773.98
   15:39:31.755.28-Apr-2021 3537.51 4281.56 74.84 10.00 107.44 2773.98
   15:39:31.955.28-Apr-2021 3537.51 4281.58 74.84 10.00 107.64 2773.98
   15:39:32.155.28-Apr-2021 3537.51 4281.59 74.84 10.00 107.84 2773.98
   15:39:32.355.28-Apr-2021 3537.51 4281.57 74.84 10.00 108.04 2773.98
   15:39:32.555.28-Apr-2021 3537.51 4281.57 74.84 10.00 108.24 2773.98
   15:39:32.756.28-Apr-2021 3537.51 4281.57 74.84 10.00 108.44 2773.98
   15:39:32.956.28-Apr-2021 3537.51 4281.59 74.84 10.00 108.64 2773.98
   15:39:33.156.28-Apr-2021 3537.51 4281.57 74.84 10.00 108.84 2773.98
   15:39:33.356.28-Apr-2021 3537.51 4281.60 74.84 10.00 109.04 2773.98
   15:39:33.556.28-Apr-2021 3537.51 4281.60 74.84 10.00 109.24 2773.98
   15:39:33.756.28-Apr-2021 3537.51 4281.59 74.84 10.00 109.44 2773.98
   15:39:33.956.28-Apr-2021 3537.51 4281.58 74.84 10.00 109.64 2773.98
   15:39:34.156.28-Apr-2021 3537.51 4281.56 74.83 10.00 109.84 2773.98
   15:39:34.356.28-Apr-2021 3537.51 4281.57 74.83 10.00 110.04 2773.98
   15:39:34.556.28-Apr-2021 3537.51 4281.57 74.83 10.00 110.24 2773.98
   15:39:34.756.28-Apr-2021 3537.51 4281.57 74.83 10.00 110.44 2773.98
   15:39:34.956.28-Apr-2021 3537.51 4281.56 74.83 10.00 110.64 2773.98
   15:39:35.156.28-Apr-2021 3537.51 4281.56 74.83 10.00 110.84 2773.98
   15:39:35.357.28-Apr-2021 3537.51 4281.41 74.83 10.00 111.04 2773.98
   15:39:35.557.28-Apr-2021 3537.51 4281.41 74.83 10.00 111.24 2773.98
   15:39:35.757.28-Apr-2021 3537.51 4281.58 74.83 10.00 111.44 2773.98
   15:39:35.957.28-Apr-2021 3537.51 4281.54 74.83 10.00 111.64 2773.98
   15:39:36.157.28-Apr-2021 3537.51 4281.56 74.83 10.00 111.84 2773.98
   15:39:36.357.28-Apr-2021 3537.51 4281.51 74.83 10.00 112.04 2773.98
   15:39:36.557.28-Apr-2021 3537.51 4281.51 74.83 10.00 112.24 2773.98
   15:39:36.757.28-Apr-2021 3537.51 4281.52 74.83 10.00 112.44 2773.98
   15:39:36.957.28-Apr-2021 3537.51 4281.56 74.83 10.00 112.64 2773.98
   15:39:37.157.28-Apr-2021 3537.51 4281.58 74.83 10.00 112.84 2773.98
