~Version Information
 VERS.                  2.0:   CWLS log ASCII Standard -VERSION 2.0
 WRAP.                   NO:   One line per depth step
~Well Information Block
#MNEM.UNIT     VALUE/NAME     DESCRIPTION
#---------     -----------    ---------------------------
 STRT.S             23:23:54 27-Apr-21: START TIME 23:23:54 27-Apr-21
 STOP.S             23:30:22 27-Apr-21: STOP TIME  23:30:22 27-Apr-21
 STEP.S                   0.00: STEP TIME
 NULL.                 -999.25: NULL VALUE
 DFWT.                        :  DIST FWL TEXT
 DFST.                        :  DIST FSL TEXT
 DMF .             Drill Floor:  DRILL MEAS FROM
 STIM.      02.00.00 12-Apr-21:  START TIME
 DATE.      02.00.00 02-May-21:  END TIME
 SPUD.               09-Apr-21:  SPUD DATE
 NREF.                    Grid:  NORTH REFERENCE
 HPTY.       Minimum Curvature:  HOLE POS TYPE
 DMOD.             Drill Model:  DRILL MOD DESC
 SVYD.                  Survey:  SURVEY DESC
 ILTD.               Lithology:  INTERP LTH DESC
 FTOP.          Formation Tops:  FORM TOPS DESC
 PDAT.          Mean Sea Level:  PERMANENT DATUM
 FLD .                     ACG:  FIELD NAME
 SON .        AZ-XX-0907021034:  JOB NUMBER
 CTRY.              Azerbaijan:  COUNTRY NAME
 WELL.                    E01x:  WELL NAME
 COMP.     BP Exploration (Caspian Sea) LTD.:  COMPANY
 UWI .            /AZE00001403:  UNIQUE WELL IDENTIFIER
 API .            /AZE00001403:  API NUMBER
 WTYP.                Deviated:  WELL TYPE
 MDS .        Operator Entered:  MAG DATA SOURCE
 BASE.              Azerbaijan:  LOGGING EQUIPMENT BASE LOCATION
 REGN.                   EESSA:  REGION
 PROV.                    Baku:  PROVINCE
 STAT.                    Baku:  STATE NAME
 SRVC.          Turan Drilling:  CONTRACTOR
 MWDS.                    Baku:  MWD SHOP
 JOBN.        AZ-XX-0907021034:  JOB TICKET NUMB
 RIG .                     DWG:  RIG NAME
 DOE .                     N/A:  DOE NUMBER
 DCON.         Sperry Drilling:  DIRECTNL CONTR
 UNIT.                     N/A:  LOGGING EQUIPMENT ID
 CNTY.                        :  COUNTY
 LOC .                        :  LOCATION
 LMF .             Drill Floor:  LOG MEASURED FROM
 TVDS.m                  43.16:  TVDSS CORRECTN
 LATI.deg                40.17:  LATITUDE
 LONG.deg                51.17:  LONGITUDE
 WHNS.m                  -5.90:  WELL HEAD N/S
 WHEW.m                  -6.61:  WELL HEAD E/W
 UTMX.m              514337.95:  UTM X
 UTMY.m             4448627.46:  UTM Y
 DFWL.m                   0.00:  DISTANCE FWL
 DFSL.m                   0.00:  DISTANCE FSL
 SDEP.m                2606.87:  START DEPTH
 TDD .m                3618.01:  TOTAL DEPTH (DRILLER)
 VSDR.deg               177.42:  VERT SEC DIRECT
 GVFD.g                   1.00:  GRAVITY FIELD
 MFLD.nT              50399.00:  MAGNETIC FIELD
 MDIP.deg                59.67:  MAGNETIC DIP
 MDEC.deg                 6.56:  MAGNETIC DECL
 GRDC.deg                 0.11:  GRID CORRECTION
 AZTC.deg                 6.45:  AZM TOTAL CORR
 EPD .m                   0.00:  ELEVATION
 EGL .m                   0.00:  GROUND ELEVATION
 WDMS.m                 176.20:  WD ELEV
 APD .m                  43.16:  DEPTH ABOVE PD
 DEP .m                2606.87:  DEPTH
 AGAP.m                  43.16:  AIR GAP
 VSEW.m                  -6.61:  VERT SEC E/W
 VSNS.m                  -5.90:  VERT SEC N/S
 EKB .m                  43.16:  KB ELEVATION
 EDF .m                  43.16:  DF ELEVATION
 TDL .m                 438.00:  TOTAL DEPTH (LOGGER)
 VSC .                       0:  VS TO CLOSURE
 MAGU.                 1855490:  MAGUTM CHECKSUM
~Parameter Information Block
#MNEM.UNIT       Value        Description
#---------     -----------    ---------------------------
 AV  .mps                 2.20:  Ann Velocity 
 AVMX.mps                 2.50:  Max Ann Veloc 
 AZIF.deg               150.21:  Azm, Final 
 BHAT.        Rotary Steerable:  BHA Type 
 BROT.°/30m               0.08:  Build Rotating 
 BS  .in                  6.50:  Bit Size 
 BSZ .in                  6.50:  Bit Size 
 BTPL.psig              108.00:  Bit Press Loss 
 CABU.                     Yes:  Customer Abuse 
 CGEO.           Emin Aliyarli:  Customer Geo 
 COMM.                     HO:  Run Comments 1 
 TCS .hr                 74.20:  Time Ciculation Ended 
 CV  .mps                 3.63:  Crit Velocity 
 CVMX.mps                 3.66:  Max Crit Veloc 
 DD1 .         Intigam Rahimov:  Direct Drillr 1 
 DD2 .          Teymur Aghayev:  Direct Drillr 2 
 DDSV.               Geo-Pilot:  DD Service 
 DEFF.%                  97.00:  % Det Eff 
 DLRX.°/30m               1.63:  Dogleg Rot Max 
 DLSO.°/30m               0.00:  Dogleg Oriented 
 DLSX.°/30m               0.00:  Dogleg Str Max 
 DRET.      20.20.00 28-Apr-21:  Drill End Time 
 DRST.      04.45.00 26-Apr-21:  Drill Start Tim 
 DTIM.hr                 34.30:  Time Drilling 
 EDEP.m                3618.01:  End Depth 
 ENG1.           Amrah Tahirov:  Engineer 1 
 ENG2.         Bahruz Mehdiyev:  Engineer 2 
 ENG3.         Farhad Orujzade:  Engineer 3 
 ETIM.      19.00.00 29-Apr-21:  End Time 
 FLOI.gpm               370.00:  Flow In 
 FLON.gpm               300.00:  Flow In Min 
 FLOS.cptm                0.00:  Fluid Loss 
 FLOX.gpm               410.00:  Flow In Max 
 HFLO.                      No:  High Flow 
 HPRE.                      No:  High Pressure 
 HTEM.                      No:  High Temp 
 HYDO.m                   1.80:  Hydro Offset 
 IFIN.deg                67.19:  Inc, Final 
 IMAX.deg                68.42:  Inc Max 
 IMIN.deg                66.33:  Inc Min 
 IMND.m                3532.79:  Inc Min Depth 
 IMXD.m                3192.15:  Inc Max Depth 
 JARR.                      No:  Jarring 
 LETM.      20.20.00 28-Apr-21:  Log End Time 
 LOST.hr                     0:  Lost Rig Time 
 LSTM.      04.45.00 26-Apr-21:  Log Start Time 
 MDCL.ppm             36500.00:  Mud Chlorides 
 MDES.     Inversion Oil/Synthetic:  Mud Desc 
 DFD .sg                  1.42:  Mud Density 
 MDMN.sg                  1.42:  Dens Mud Min 
 MDMX.sg                  1.42:  Dens Mud Max 
 MOIL.                    55.7:  Run Mud Oil % 
 MOWR.                   71:29:  Run Mud OWR 
 MSND.                     0.1:  Run Mud Sand % 
 MSOL.                    19.9:  Run Mud Solids% 
 DFV .spqt               83.00:  Mud Viscosity 
 MWOD.in                  5.15:  MWD Tool OD 
 MWSI.                      No:  Serv Intrp, MWD 
 OTIM.hr                120.59:  Time Operating 
 PCON.           Look Like New:  Pad Condition 
 PMAX.psia            11292.93:  Press Op, Max 
 PV  .cP                 27.00:  Mud PV 
 RUN .                     400:  Run Number 
 ROPA.m/hr               14.00:  ROP Avg 
 ROPN.m/hr                9.00:  ROP Min 
 ROPX.m/hr               18.00:  ROP Max 
 RPMA.rpm               130.00:  RPM Surface Avg 
 RPMN.rpm               100.00:  RPM Surface Min 
 RPMX.rpm               140.00:  RPM Surface Max 
 RRUN.                    0400:  Rig Run Number 
 RTIM.hr                 38.60:  Time Reaming 
 SAZI.deg               149.55:  Azm, Start 
 SDEP.m                3180.01:  Start Depth 
 SIDD.                      No:  Serv Intrp, DD 
 SINC.deg                68.42:  Inc, Start 
 SPPA.psig             4400.00:  SPP Avg 
 SPPN.psig             3580.00:  SPP Min 
 SPPX.psig             4850.00:  SPP Max 
 STIM.      12.30.00 24-Apr-21:  Start Time 
 SVCS.                 DD, MWD:  Services 
 SVER.                    9.20:  Sperry Version 
 TDAT.m                 438.00:  Tot Depth Attmp 
 TDDF.                      No:  Trip for DD 
 TDLG.m                 438.00:  Tot Depth Loggd 
 TFF .                      No:  Trip for Fail 
 TQAA.f-kp               11.00:  Torque Abs Avg 
 TQAN.f-kp                9.00:  Torque Abs Min 
 TQAX.f-kp               14.00:  Torque Abs Max 
 TRRT.°/30m               0.04:  Turn Rotating 
 MRT .                    HCIM:  Maximum Recorded Temperature 
 TTMX.degC               84.31:  Max Tool Temp 
 VS01.                90521954:  Virtual Str1 SN 
 VS02.                90519327:  Virtual Str2 SN 
 VS03.                90522273:  Virtual Str3 SN 
 VS04.                11108038:  Virtual Str4 SN 
 VS05.                12258760:  Virtual Str5 SN 
 WBMN.klb                 1.00:  WOB Min 
 WITN.           Adil Mammadov:  Customer Rep 
 WITN.         Alex Yadullayev:  Customer Rep 2 
 WOBA.klb                 6.00:  WOB Avg 
 WOBX.klb                 9.00:  WOB Max 
 YP  .lhf2               31.00:  Yield Point 
~Curve Information Block
#MNEM.UNIT                 API CODE     Curve Description
#---------               -----------    ---------------------------
 TIME.HHMMSS            00 000 000 000:  GT Time & Date
 GTDEPTH.m              00 000 000 000:  GT Depth
 GTPQH.psia             00 000 000 000:  GT HR Quartz Pressure
 GTTQ.degC              00 000 000 000:  GT Quartz Temperature
 GTTN.NONE              00 000 000 000:  GT Test Number
 GTET.sec               00 000 000 000:  GT Elapsed Test Time
 GTTVD.m                00 000 000 000:  GT True Vertical Depth
#Other Information
#
#WARRANTY: Halliburton will use its best efforts to furnish customers with 
#accurate information and interpretations that are part of, and incident to, the services 
#provided.  However, Halliburton cannot and does not warrant the accuracy 
#or correctness of such information and interpretations.  Under no circumstances should any 
#such information or interpretation be relied upon as the sole basis for any drilling, 
#completion, production, or financial decision or any procedure involving any risk to the 
#safety of any drilling venture, drilling rig or its crew or any other third party.  The 
#Customer has full responsibility for all drilling, completion and production operation.  
#Halliburton makes no representations or warranties, either expressed or 
#implied, including, but not limited to, the implied warranties of merchantability or fitness 
#for a particular purpose, with respect to the services rendered.  In no event will 
#Halliburton be liable for failure to obtain any particular results or for 
#any damages, including, but not limited to, indirect, special or consequential damages, 
#resulting from the use of any information or interpretation provided by Halliburton.
#
~A           TIME           GTDEPTH  GTPQH  GTTQ  GTTN  GTET   GTTVD  
# ...
   23:26:12.665.27-Apr-2021 3418.01 3555.52 73.80 6.00 138.04 2727.14
   23:26:12.865.27-Apr-2021 3418.01 3555.52 73.80 6.00 138.24 2727.14
   23:26:13.065.27-Apr-2021 3418.01 3555.52 73.80 6.00 138.44 2727.14
   23:26:13.265.27-Apr-2021 3418.01 3555.51 73.79 6.00 138.64 2727.14
   23:26:13.465.27-Apr-2021 3418.01 3555.64 73.79 6.00 138.84 2727.14
   23:26:13.665.27-Apr-2021 3418.01 3555.72 73.79 6.00 139.04 2727.14
   23:26:13.865.27-Apr-2021 3418.01 3555.72 73.79 6.00 139.24 2727.14
   23:26:14.065.27-Apr-2021 3418.01 3555.69 73.79 6.00 139.44 2727.14
   23:26:14.265.27-Apr-2021 3418.01 3555.81 73.79 6.00 139.64 2727.14
   23:26:14.465.27-Apr-2021 3418.01 3555.57 73.79 6.00 139.84 2727.14
   23:26:14.666.27-Apr-2021 3418.01 3555.76 73.79 6.00 140.04 2727.14
   23:26:14.866.27-Apr-2021 3418.01 3555.76 73.79 6.00 140.24 2727.14
   23:26:15.066.27-Apr-2021 3418.01 3555.80 73.79 6.00 140.44 2727.14
   23:26:15.266.27-Apr-2021 3418.01 3555.77 73.79 6.00 140.64 2727.14
   23:26:15.466.27-Apr-2021 3418.01 3555.73 73.79 6.00 140.84 2727.14
   23:26:15.666.27-Apr-2021 3418.01 3555.80 73.79 6.00 141.04 2727.14
   23:26:15.866.27-Apr-2021 3418.01 3555.80 73.79 6.00 141.24 2727.14
   23:26:16.066.27-Apr-2021 3418.01 3572.75 73.79 6.00 141.44 2727.14
   23:26:16.266.27-Apr-2021 3418.01 3572.87 73.79 6.00 141.64 2727.14
   23:26:16.466.27-Apr-2021 3418.01 3572.87 73.79 6.00 141.84 2727.14
   23:26:16.666.27-Apr-2021 3418.01 3572.76 73.79 6.00 142.04 2727.14
   23:26:16.866.27-Apr-2021 3418.01 3572.76 73.79 6.00 142.24 2727.14
   23:26:17.066.27-Apr-2021 3418.01 3573.05 73.79 6.00 142.44 2727.14
   23:26:17.266.27-Apr-2021 3418.01 3572.98 73.79 6.00 142.64 2727.14
   23:26:17.466.27-Apr-2021 3418.01 3573.05 73.79 6.00 142.84 2727.14
   23:26:17.666.27-Apr-2021 3418.01 3573.01 73.79 6.00 143.04 2727.14
   23:26:17.866.27-Apr-2021 3418.01 3573.01 73.79 6.00 143.24 2727.14
   23:26:18.066.27-Apr-2021 3418.01 3573.13 73.78 6.00 143.44 2727.14
   23:26:18.266.27-Apr-2021 3418.01 3573.07 73.78 6.00 143.64 2727.14
   23:26:18.467.27-Apr-2021 3418.01 3573.05 73.78 6.00 143.84 2727.14
   23:26:18.667.27-Apr-2021 3418.01 3573.09 73.78 6.00 144.04 2727.14
   23:26:18.867.27-Apr-2021 3418.01 3573.09 73.78 6.00 144.24 2727.14
   23:26:19.067.27-Apr-2021 3418.01 3573.13 73.78 6.00 144.44 2727.14
   23:26:19.267.27-Apr-2021 3418.01 3573.08 73.78 6.00 144.64 2727.14
   23:26:19.467.27-Apr-2021 3418.01 3573.06 73.78 6.00 144.84 2727.14
   23:26:19.667.27-Apr-2021 3418.01 3573.09 73.78 6.00 145.04 2727.14
   23:26:19.867.27-Apr-2021 3418.01 3573.09 73.78 6.00 145.24 2727.14
   23:26:20.067.27-Apr-2021 3418.01 3573.17 73.78 6.00 145.44 2727.14
   23:26:20.267.27-Apr-2021 3418.01 3573.09 73.78 6.00 145.64 2727.14
   23:26:20.467.27-Apr-2021 3418.01 3573.08 73.78 6.00 145.84 2727.14
   23:26:20.667.27-Apr-2021 3418.01 3573.09 73.78 6.00 146.04 2727.14
   23:26:20.867.27-Apr-2021 3418.01 3573.09 73.78 6.00 146.24 2727.14
   23:26:21.067.27-Apr-2021 3418.01 3573.06 73.78 6.00 146.44 2727.14
   23:26:21.267.27-Apr-2021 3418.01 3573.10 73.78 6.00 146.64 2727.14
   23:26:21.467.27-Apr-2021 3418.01 3573.07 73.78 6.00 146.84 2727.14
   23:26:21.667.27-Apr-2021 3418.01 3573.09 73.78 6.00 147.04 2727.14
   23:26:21.867.27-Apr-2021 3418.01 3573.09 73.78 6.00 147.24 2727.14
   23:26:22.067.27-Apr-2021 3418.01 3573.08 73.78 6.00 147.44 2727.14
   23:26:22.268.27-Apr-2021 3418.01 3573.07 73.78 6.00 147.64 2727.14
   23:26:22.468.27-Apr-2021 3418.01 3572.99 73.77 6.00 147.84 2727.14
   23:26:22.668.27-Apr-2021 3418.01 3573.06 73.77 6.00 148.04 2727.14
   23:26:22.868.27-Apr-2021 3418.01 3573.06 73.77 6.00 148.24 2727.14
   23:26:23.068.27-Apr-2021 3418.01 3573.10 73.77 6.00 148.44 2727.14
   23:26:23.268.27-Apr-2021 3418.01 3573.08 73.77 6.00 148.64 2727.14
   23:26:23.468.27-Apr-2021 3418.01 3573.09 73.77 6.00 148.84 2727.14
   23:26:23.668.27-Apr-2021 3418.01 3573.08 73.77 6.00 149.04 2727.14
   23:26:23.868.27-Apr-2021 3418.01 3573.08 73.77 6.00 149.24 2727.14
   23:26:24.068.27-Apr-2021 3418.01 3573.08 73.77 6.00 149.44 2727.14
   23:26:24.268.27-Apr-2021 3418.01 3573.08 73.77 6.00 149.64 2727.14
   23:26:24.468.27-Apr-2021 3418.01 3573.09 73.77 6.00 149.84 2727.14
   23:26:24.668.27-Apr-2021 3418.01 3573.07 73.77 6.00 150.04 2727.14
   23:26:24.868.27-Apr-2021 3418.01 3573.07 73.77 6.00 150.24 2727.14
   23:26:25.068.27-Apr-2021 3418.01 3573.10 73.77 6.00 150.44 2727.14
   23:26:25.268.27-Apr-2021 3418.01 3572.89 73.77 6.00 150.64 2727.14
   23:26:25.468.27-Apr-2021 3418.01 3573.17 73.77 6.00 150.84 2727.14
   23:26:25.668.27-Apr-2021 3418.01 3573.08 73.77 6.00 151.04 2727.14
   23:26:25.868.27-Apr-2021 3418.01 3573.08 73.77 6.00 151.24 2727.14
   23:26:26.068.27-Apr-2021 3418.01 3573.08 73.77 6.00 151.44 2727.14
   23:26:26.269.27-Apr-2021 3418.01 3573.09 73.77 6.00 151.64 2727.14
   23:26:26.469.27-Apr-2021 3418.01 3572.95 73.77 6.00 151.84 2727.14
   23:26:26.669.27-Apr-2021 3418.01 3573.14 73.77 6.00 152.04 2727.14
   23:26:26.869.27-Apr-2021 3418.01 3573.14 73.77 6.00 152.24 2727.14
   23:26:27.069.27-Apr-2021 3418.01 3573.09 73.76 6.00 152.44 2727.14
   23:26:27.269.27-Apr-2021 3418.01 3573.09 73.76 6.00 152.64 2727.14
   23:26:27.469.27-Apr-2021 3418.01 3573.05 73.76 6.00 152.84 2727.14
   23:26:27.669.27-Apr-2021 3418.01 3573.00 73.76 6.00 153.04 2727.14
   23:26:27.869.27-Apr-2021 3418.01 3573.00 73.76 6.00 153.24 2727.14
   23:26:28.069.27-Apr-2021 3418.01 3573.09 73.76 6.00 153.44 2727.14
   23:26:28.269.27-Apr-2021 3418.01 3573.05 73.76 6.00 153.64 2727.14
   23:26:28.469.27-Apr-2021 3418.01 3572.98 73.76 6.00 153.84 2727.14
   23:26:28.669.27-Apr-2021 3418.01 3573.12 73.76 6.00 154.04 2727.14
   23:26:28.869.27-Apr-2021 3418.01 3573.12 73.76 6.00 154.24 2727.14
   23:26:29.069.27-Apr-2021 3418.01 3573.06 73.76 6.00 154.44 2727.14
   23:26:29.269.27-Apr-2021 3418.01 3573.09 73.76 6.00 154.64 2727.14
   23:26:29.469.27-Apr-2021 3418.01 3573.08 73.76 6.00 154.84 2727.14
   23:26:29.669.27-Apr-2021 3418.01 3573.08 73.76 6.00 155.04 2727.14
   23:26:29.869.27-Apr-2021 3418.01 3573.08 73.76 6.00 155.24 2727.14
   23:26:30.070.27-Apr-2021 3418.01 3573.09 73.76 6.00 155.44 2727.14
   23:26:30.270.27-Apr-2021 3418.01 3573.05 73.76 6.00 155.64 2727.14
   23:26:30.470.27-Apr-2021 3418.01 3573.08 73.76 6.00 155.84 2727.14
   23:26:30.670.27-Apr-2021 3418.01 3573.04 73.76 6.00 156.04 2727.14
   23:26:30.870.27-Apr-2021 3418.01 3573.04 73.76 6.00 156.24 2727.14
   23:26:31.070.27-Apr-2021 3418.01 3573.05 73.76 6.00 156.44 2727.14
   23:26:31.270.27-Apr-2021 3418.01 3572.89 73.76 6.00 156.64 2727.14
   23:26:31.470.27-Apr-2021 3418.01 3573.14 73.76 6.00 156.84 2727.14
   23:26:31.670.27-Apr-2021 3418.01 3573.10 73.75 6.00 157.04 2727.14
   23:26:31.870.27-Apr-2021 3418.01 3573.10 73.75 6.00 157.24 2727.14
   23:26:32.070.27-Apr-2021 3418.01 3573.09 73.75 6.00 157.44 2727.14
   23:26:32.270.27-Apr-2021 3418.01 3573.05 73.75 6.00 157.64 2727.14
   23:26:32.470.27-Apr-2021 3418.01 3573.07 73.75 6.00 157.84 2727.14
   23:26:32.670.27-Apr-2021 3418.01 3573.06 73.75 6.00 158.04 2727.14
   23:26:32.870.27-Apr-2021 3418.01 3573.06 73.75 6.00 158.24 2727.14
   23:26:33.070.27-Apr-2021 3418.01 3573.06 73.75 6.00 158.44 2727.14
   23:26:33.270.27-Apr-2021 3418.01 3573.06 73.75 6.00 158.64 2727.14
   23:26:33.470.27-Apr-2021 3418.01 3573.03 73.75 6.00 158.84 2727.14
   23:26:33.670.27-Apr-2021 3418.01 3573.06 73.75 6.00 159.04 2727.14
   23:26:33.870.27-Apr-2021 3418.01 3573.06 73.75 6.00 159.24 2727.14
   23:26:34.071.27-Apr-2021 3418.01 3572.98 73.75 6.00 159.44 2727.14
   23:26:34.271.27-Apr-2021 3418.01 3573.08 73.75 6.00 159.64 2727.14
   23:26:34.471.27-Apr-2021 3418.01 3573.07 73.75 6.00 159.84 2727.14
   23:26:34.671.27-Apr-2021 3418.01 3573.04 73.75 6.00 160.04 2727.14
   23:26:34.871.27-Apr-2021 3418.01 3573.04 73.75 6.00 160.24 2727.14
   23:26:35.071.27-Apr-2021 3418.01 3572.98 73.75 6.00 160.44 2727.14
   23:26:35.271.27-Apr-2021 3418.01 3573.03 73.75 6.00 160.64 2727.14
   23:26:35.471.27-Apr-2021 3418.01 3573.08 73.75 6.00 160.84 2727.14
