~Version Information
 VERS.                  2.0:   CWLS log ASCII Standard -VERSION 2.0
 WRAP.                   NO:   One line per depth step
~Well Information Block
#MNEM.UNIT     VALUE/NAME     DESCRIPTION
#---------     -----------    ---------------------------
 STRT.S             02:50:28 27-Apr-21: START TIME 02:50:28 27-Apr-21
 STOP.S             02:56:55 27-Apr-21: STOP TIME  02:56:55 27-Apr-21
 STEP.S                   0.00: STEP TIME
 NULL.                 -999.25: NULL VALUE
 DFWT.                        :  DIST FWL TEXT
 DFST.                        :  DIST FSL TEXT
 DMF .             Drill Floor:  DRILL MEAS FROM
 STIM.      02.00.00 12-Apr-21:  START TIME
 DATE.      02.00.00 02-May-21:  END TIME
 SPUD.               09-Apr-21:  SPUD DATE
 NREF.                    Grid:  NORTH REFERENCE
 HPTY.       Minimum Curvature:  HOLE POS TYPE
 DMOD.             Drill Model:  DRILL MOD DESC
 SVYD.                  Survey:  SURVEY DESC
 ILTD.               Lithology:  INTERP LTH DESC
 FTOP.          Formation Tops:  FORM TOPS DESC
 PDAT.          Mean Sea Level:  PERMANENT DATUM
 FLD .                     ACG:  FIELD NAME
 SON .        AZ-XX-0907021034:  JOB NUMBER
 CTRY.              Azerbaijan:  COUNTRY NAME
 WELL.                    E01x:  WELL NAME
 COMP.     BP Exploration (Caspian Sea) LTD.:  COMPANY
 UWI .            /AZE00001403:  UNIQUE WELL IDENTIFIER
 API .            /AZE00001403:  API NUMBER
 WTYP.                Deviated:  WELL TYPE
 MDS .        Operator Entered:  MAG DATA SOURCE
 BASE.              Azerbaijan:  LOGGING EQUIPMENT BASE LOCATION
 REGN.                   EESSA:  REGION
 PROV.                    Baku:  PROVINCE
 STAT.                    Baku:  STATE NAME
 SRVC.          Turan Drilling:  CONTRACTOR
 MWDS.                    Baku:  MWD SHOP
 JOBN.        AZ-XX-0907021034:  JOB TICKET NUMB
 RIG .                     DWG:  RIG NAME
 DOE .                     N/A:  DOE NUMBER
 DCON.         Sperry Drilling:  DIRECTNL CONTR
 UNIT.                     N/A:  LOGGING EQUIPMENT ID
 CNTY.                        :  COUNTY
 LOC .                        :  LOCATION
 LMF .             Drill Floor:  LOG MEASURED FROM
 TVDS.m                  43.16:  TVDSS CORRECTN
 LATI.deg                40.17:  LATITUDE
 LONG.deg                51.17:  LONGITUDE
 WHNS.m                  -5.90:  WELL HEAD N/S
 WHEW.m                  -6.61:  WELL HEAD E/W
 UTMX.m              514337.95:  UTM X
 UTMY.m             4448627.46:  UTM Y
 DFWL.m                   0.00:  DISTANCE FWL
 DFSL.m                   0.00:  DISTANCE FSL
 SDEP.m                2606.87:  START DEPTH
 TDD .m                3618.01:  TOTAL DEPTH (DRILLER)
 VSDR.deg               177.42:  VERT SEC DIRECT
 GVFD.g                   1.00:  GRAVITY FIELD
 MFLD.nT              50399.00:  MAGNETIC FIELD
 MDIP.deg                59.67:  MAGNETIC DIP
 MDEC.deg                 6.56:  MAGNETIC DECL
 GRDC.deg                 0.11:  GRID CORRECTION
 AZTC.deg                 6.45:  AZM TOTAL CORR
 EPD .m                   0.00:  ELEVATION
 EGL .m                   0.00:  GROUND ELEVATION
 WDMS.m                 176.20:  WD ELEV
 APD .m                  43.16:  DEPTH ABOVE PD
 DEP .m                2606.87:  DEPTH
 AGAP.m                  43.16:  AIR GAP
 VSEW.m                  -6.61:  VERT SEC E/W
 VSNS.m                  -5.90:  VERT SEC N/S
 EKB .m                  43.16:  KB ELEVATION
 EDF .m                  43.16:  DF ELEVATION
 TDL .m                 438.00:  TOTAL DEPTH (LOGGER)
 VSC .                       0:  VS TO CLOSURE
 MAGU.                 1855490:  MAGUTM CHECKSUM
~Parameter Information Block
#MNEM.UNIT       Value        Description
#---------     -----------    ---------------------------
 AV  .mps                 2.20:  Ann Velocity 
 AVMX.mps                 2.50:  Max Ann Veloc 
 AZIF.deg               150.21:  Azm, Final 
 BHAT.        Rotary Steerable:  BHA Type 
 BROT.°/30m               0.08:  Build Rotating 
 BS  .in                  6.50:  Bit Size 
 BSZ .in                  6.50:  Bit Size 
 BTPL.psig              108.00:  Bit Press Loss 
 CABU.                     Yes:  Customer Abuse 
 CGEO.           Emin Aliyarli:  Customer Geo 
 COMM.                     äº~:  Run Comments 1 
 TCS .hr                 74.20:  Time Ciculation Ended 
 CV  .mps                 3.63:  Crit Velocity 
 CVMX.mps                 3.66:  Max Crit Veloc 
 DD1 .         Intigam Rahimov:  Direct Drillr 1 
 DD2 .          Teymur Aghayev:  Direct Drillr 2 
 DDSV.               Geo-Pilot:  DD Service 
 DEFF.%                  97.00:  % Det Eff 
 DLRX.°/30m               1.63:  Dogleg Rot Max 
 DLSO.°/30m               0.00:  Dogleg Oriented 
 DLSX.°/30m               0.00:  Dogleg Str Max 
 DRET.      20.20.00 28-Apr-21:  Drill End Time 
 DRST.      04.45.00 26-Apr-21:  Drill Start Tim 
 DTIM.hr                 34.30:  Time Drilling 
 EDEP.m                3618.01:  End Depth 
 ENG1.           Amrah Tahirov:  Engineer 1 
 ENG2.         Bahruz Mehdiyev:  Engineer 2 
 ENG3.         Farhad Orujzade:  Engineer 3 
 ETIM.      19.00.00 29-Apr-21:  End Time 
 FLOI.gpm               370.00:  Flow In 
 FLON.gpm               300.00:  Flow In Min 
 FLOS.cptm                0.00:  Fluid Loss 
 FLOX.gpm               410.00:  Flow In Max 
 HFLO.                      No:  High Flow 
 HPRE.                      No:  High Pressure 
 HTEM.                      No:  High Temp 
 HYDO.m                   1.80:  Hydro Offset 
 IFIN.deg                67.19:  Inc, Final 
 IMAX.deg                68.42:  Inc Max 
 IMIN.deg                66.33:  Inc Min 
 IMND.m                3532.79:  Inc Min Depth 
 IMXD.m                3192.15:  Inc Max Depth 
 JARR.                      No:  Jarring 
 LETM.      20.20.00 28-Apr-21:  Log End Time 
 LOST.hr                     0:  Lost Rig Time 
 LSTM.      04.45.00 26-Apr-21:  Log Start Time 
 MDCL.ppm             36500.00:  Mud Chlorides 
 MDES.     Inversion Oil/Synthetic:  Mud Desc 
 DFD .sg                  1.42:  Mud Density 
 MDMN.sg                  1.42:  Dens Mud Min 
 MDMX.sg                  1.42:  Dens Mud Max 
 MOIL.                    55.7:  Run Mud Oil % 
 MOWR.                   71:29:  Run Mud OWR 
 MSND.                     0.1:  Run Mud Sand % 
 MSOL.                    19.9:  Run Mud Solids% 
 DFV .spqt               83.00:  Mud Viscosity 
 MWOD.in                  5.15:  MWD Tool OD 
 MWSI.                      No:  Serv Intrp, MWD 
 OTIM.hr                120.59:  Time Operating 
 PCON.           Look Like New:  Pad Condition 
 PMAX.psia            11292.93:  Press Op, Max 
 PV  .cP                 27.00:  Mud PV 
 RUN .                     400:  Run Number 
 ROPA.m/hr               14.00:  ROP Avg 
 ROPN.m/hr                9.00:  ROP Min 
 ROPX.m/hr               18.00:  ROP Max 
 RPMA.rpm               130.00:  RPM Surface Avg 
 RPMN.rpm               100.00:  RPM Surface Min 
 RPMX.rpm               140.00:  RPM Surface Max 
 RRUN.                    0400:  Rig Run Number 
 RTIM.hr                 38.60:  Time Reaming 
 SAZI.deg               149.55:  Azm, Start 
 SDEP.m                3180.01:  Start Depth 
 SIDD.                      No:  Serv Intrp, DD 
 SINC.deg                68.42:  Inc, Start 
 SPPA.psig             4400.00:  SPP Avg 
 SPPN.psig             3580.00:  SPP Min 
 SPPX.psig             4850.00:  SPP Max 
 STIM.      12.30.00 24-Apr-21:  Start Time 
 SVCS.                 DD, MWD:  Services 
 SVER.                    9.20:  Sperry Version 
 TDAT.m                 438.00:  Tot Depth Attmp 
 TDDF.                      No:  Trip for DD 
 TDLG.m                 438.00:  Tot Depth Loggd 
 TFF .                      No:  Trip for Fail 
 TQAA.f-kp               11.00:  Torque Abs Avg 
 TQAN.f-kp                9.00:  Torque Abs Min 
 TQAX.f-kp               14.00:  Torque Abs Max 
 TRRT.°/30m               0.04:  Turn Rotating 
 MRT .                    HCIM:  Maximum Recorded Temperature 
 TTMX.degC               84.31:  Max Tool Temp 
 VS01.                90521954:  Virtual Str1 SN 
 VS02.                90519327:  Virtual Str2 SN 
 VS03.                90522273:  Virtual Str3 SN 
 VS04.                11108038:  Virtual Str4 SN 
 VS05.                12258760:  Virtual Str5 SN 
 WBMN.klb                 1.00:  WOB Min 
 WITN.           Adil Mammadov:  Customer Rep 
 WITN.         Alex Yadullayev:  Customer Rep 2 
 WOBA.klb                 6.00:  WOB Avg 
 WOBX.klb                 9.00:  WOB Max 
 YP  .lhf2               31.00:  Yield Point 
~Curve Information Block
#MNEM.UNIT                 API CODE     Curve Description
#---------               -----------    ---------------------------
 TIME.HHMMSS            00 000 000 000:  GT Time & Date
 GTDEPTH.m              00 000 000 000:  GT Depth
 GTPQH.psia             00 000 000 000:  GT HR Quartz Pressure
 GTTQ.degC              00 000 000 000:  GT Quartz Temperature
 GTTN.NONE              00 000 000 000:  GT Test Number
 GTET.sec               00 000 000 000:  GT Elapsed Test Time
 GTTVD.m                00 000 000 000:  GT True Vertical Depth
#Other Information
#
#WARRANTY: Halliburton will use its best efforts to furnish customers with 
#accurate information and interpretations that are part of, and incident to, the services 
#provided.  However, Halliburton cannot and does not warrant the accuracy 
#or correctness of such information and interpretations.  Under no circumstances should any 
#such information or interpretation be relied upon as the sole basis for any drilling, 
#completion, production, or financial decision or any procedure involving any risk to the 
#safety of any drilling venture, drilling rig or its crew or any other third party.  The 
#Customer has full responsibility for all drilling, completion and production operation.  
#Halliburton makes no representations or warranties, either expressed or 
#implied, including, but not limited to, the implied warranties of merchantability or fitness 
#for a particular purpose, with respect to the services rendered.  In no event will 
#Halliburton be liable for failure to obtain any particular results or for 
#any damages, including, but not limited to, indirect, special or consequential damages, 
#resulting from the use of any information or interpretation provided by Halliburton.
#
~A           TIME           GTDEPTH  GTPQH  GTTQ  GTTN  GTET   GTTVD  
# ...
   02:56:36.328.27-Apr-2021 3242.51 5848.58 72.02 3.00 368.07 2657.85
   02:56:36.528.27-Apr-2021 3242.51 5848.58 72.02 3.00 368.27 2657.85
   02:56:36.728.27-Apr-2021 3242.51 5846.46 72.02 3.00 368.47 2657.85
   02:56:36.928.27-Apr-2021 3242.51 5833.72 72.02 3.00 368.67 2657.85
   02:56:37.128.27-Apr-2021 3242.51 5841.01 72.02 3.00 368.87 2657.85
   02:56:37.328.27-Apr-2021 3242.51 5843.09 72.02 3.00 369.07 2657.85
   02:56:37.528.27-Apr-2021 3242.51 5843.09 72.02 3.00 369.27 2657.85
   02:56:37.728.27-Apr-2021 3242.51 5841.98 72.02 3.00 369.47 2657.85
   02:56:37.928.27-Apr-2021 3242.51 5831.70 72.02 3.00 369.67 2657.85
   02:56:38.129.27-Apr-2021 3242.51 5836.86 72.02 3.00 369.87 2657.85
   02:56:38.329.27-Apr-2021 3242.51 5840.61 72.02 3.00 370.07 2657.85
   02:56:38.529.27-Apr-2021 3242.51 5840.61 72.02 3.00 370.27 2657.85
   02:56:38.729.27-Apr-2021 3242.51 5845.40 72.02 3.00 370.47 2657.85
   02:56:38.929.27-Apr-2021 3242.51 5845.12 72.02 3.00 370.67 2657.85
   02:56:39.129.27-Apr-2021 3242.51 5842.83 72.02 3.00 370.87 2657.85
   02:56:39.329.27-Apr-2021 3242.51 5848.46 72.02 3.00 371.07 2657.85
   02:56:39.529.27-Apr-2021 3242.51 5848.46 72.02 3.00 371.27 2657.85
   02:56:39.729.27-Apr-2021 3242.51 5846.58 72.02 3.00 371.47 2657.85
   02:56:39.929.27-Apr-2021 3242.51 5842.31 72.02 3.00 371.67 2657.85
   02:56:40.129.27-Apr-2021 3242.51 5842.95 72.02 3.00 371.87 2657.85
   02:56:40.329.27-Apr-2021 3242.51 5840.89 72.02 3.00 372.07 2657.85
   02:56:40.529.27-Apr-2021 3242.51 5840.89 72.02 3.00 372.27 2657.85
   02:56:40.729.27-Apr-2021 3242.51 5832.55 72.02 3.00 372.47 2657.85
   02:56:40.929.27-Apr-2021 3242.51 5838.96 72.02 3.00 372.67 2657.85
   02:56:41.129.27-Apr-2021 3242.51 5836.72 72.02 3.00 372.87 2657.85
   02:56:41.329.27-Apr-2021 3242.51 5840.82 72.01 3.00 373.07 2657.85
   02:56:41.529.27-Apr-2021 3242.51 5840.82 72.01 3.00 373.27 2657.85
   02:56:41.729.27-Apr-2021 3242.51 5843.60 72.01 3.00 373.47 2657.85
   02:56:41.929.27-Apr-2021 3242.51 5843.98 72.01 3.00 373.67 2657.85
   02:56:42.129.27-Apr-2021 3242.51 5846.49 72.01 3.00 373.87 2657.85
   02:56:42.329.27-Apr-2021 3242.51 5844.95 72.01 3.00 374.07 2657.85
   02:56:42.529.27-Apr-2021 3242.51 5844.95 72.01 3.00 374.27 2657.85
   02:56:42.729.27-Apr-2021 3242.51 5844.32 72.01 3.00 374.47 2657.85
   02:56:42.929.27-Apr-2021 3242.51 5845.37 72.01 3.00 374.67 2657.85
   02:56:43.130.27-Apr-2021 3242.51 5842.34 72.01 3.00 374.87 2657.85
   02:56:43.330.27-Apr-2021 3242.51 5830.22 72.01 3.00 375.07 2657.85
   02:56:43.530.27-Apr-2021 3242.51 5830.22 72.01 3.00 375.27 2657.85
   02:56:43.730.27-Apr-2021 3242.51 5839.73 72.01 3.00 375.47 2657.85
   02:56:43.930.27-Apr-2021 3242.51 5841.17 72.01 3.00 375.67 2657.85
   02:56:44.130.27-Apr-2021 3242.51 5840.78 72.01 3.00 375.87 2657.85
   02:56:44.330.27-Apr-2021 3242.51 5842.63 72.01 3.00 376.07 2657.85
   02:56:44.530.27-Apr-2021 3242.51 5842.63 72.01 3.00 376.27 2657.85
   02:56:44.730.27-Apr-2021 3242.51 5838.13 72.01 3.00 376.47 2657.85
   02:56:44.930.27-Apr-2021 3242.51 5844.07 72.01 3.00 376.67 2657.85
   02:56:45.130.27-Apr-2021 3242.51 5846.33 72.01 3.00 376.87 2657.85
   02:56:45.330.27-Apr-2021 3242.51 5842.73 72.01 3.00 377.07 2657.85
   02:56:45.530.27-Apr-2021 3242.51 5842.73 72.01 3.00 377.27 2657.85
   02:56:45.730.27-Apr-2021 3242.51 5831.11 72.01 3.00 377.47 2657.85
   02:56:45.930.27-Apr-2021 3242.51 5839.89 72.01 3.00 377.67 2657.85
   02:56:46.130.27-Apr-2021 3242.51 5840.79 72.01 3.00 377.87 2657.85
   02:56:46.330.27-Apr-2021 3242.51 5840.43 72.01 3.00 378.07 2657.85
   02:56:46.530.27-Apr-2021 3242.51 5840.43 72.01 3.00 378.27 2657.85
   02:56:46.730.27-Apr-2021 3242.51 5836.60 72.00 3.00 378.47 2657.85
   02:56:46.930.27-Apr-2021 3242.51 5838.12 72.00 3.00 378.68 2657.85
   02:56:47.130.27-Apr-2021 3242.51 5845.10 72.00 3.00 378.88 2657.85
   02:56:47.330.27-Apr-2021 3242.51 5844.88 72.00 3.00 379.08 2657.85
   02:56:47.530.27-Apr-2021 3242.51 5844.88 72.00 3.00 379.28 2657.85
   02:56:47.730.27-Apr-2021 3242.51 5843.81 72.00 3.00 379.48 2657.85
   02:56:47.930.27-Apr-2021 3242.51 5847.37 72.00 3.00 379.68 2657.85
   02:56:48.131.27-Apr-2021 3242.51 5847.59 72.00 3.00 379.88 2657.85
   02:56:48.331.27-Apr-2021 3242.51 5845.35 72.00 3.00 380.08 2657.85
   02:56:48.531.27-Apr-2021 3242.51 5845.35 72.00 3.00 380.28 2657.85
   02:56:48.731.27-Apr-2021 3242.51 5842.41 72.00 3.00 380.48 2657.85
   02:56:48.931.27-Apr-2021 3242.51 5842.92 72.00 3.00 380.68 2657.85
   02:56:49.131.27-Apr-2021 3242.51 5829.78 72.00 3.00 380.88 2657.85
   02:56:49.331.27-Apr-2021 3242.51 5835.09 72.00 3.00 381.08 2657.85
   02:56:49.531.27-Apr-2021 3242.51 5835.09 72.00 3.00 381.28 2657.85
   02:56:49.731.27-Apr-2021 3242.51 5840.80 72.00 3.00 381.48 2657.85
   02:56:49.931.27-Apr-2021 3242.51 5839.14 72.00 3.00 381.68 2657.85
   02:56:50.131.27-Apr-2021 3242.51 5842.71 72.00 3.00 381.88 2657.85
   02:56:50.331.27-Apr-2021 3242.51 5840.27 72.00 3.00 382.08 2657.85
   02:56:50.531.27-Apr-2021 3242.51 5840.27 72.00 3.00 382.28 2657.85
   02:56:50.731.27-Apr-2021 3242.51 5844.44 72.00 3.00 382.48 2657.85
   02:56:50.931.27-Apr-2021 3242.51 5845.76 72.00 3.00 382.68 2657.85
   02:56:51.131.27-Apr-2021 3242.51 5842.28 72.00 3.00 382.88 2657.85
   02:56:51.331.27-Apr-2021 3242.51 5843.97 72.00 3.00 383.08 2657.85
   02:56:51.531.27-Apr-2021 3242.51 5843.97 72.00 3.00 383.28 2657.85
   02:56:51.731.27-Apr-2021 3242.51 5843.57 72.00 3.00 383.48 2657.85
   02:56:51.931.27-Apr-2021 3242.51 5829.66 71.99 3.00 383.68 2657.85
   02:56:52.131.27-Apr-2021 3242.51 5839.31 71.99 3.00 383.88 2657.85
   02:56:52.331.27-Apr-2021 3242.51 5841.65 71.99 3.00 384.08 2657.85
   02:56:52.531.27-Apr-2021 3242.51 5841.65 71.99 3.00 384.28 2657.85
   02:56:52.731.27-Apr-2021 3242.51 5844.05 71.99 3.00 384.48 2657.85
   02:56:52.931.27-Apr-2021 3242.51 5843.94 71.99 3.00 384.68 2657.85
   02:56:53.131.27-Apr-2021 3242.51 5834.25 71.99 3.00 384.88 2657.85
   02:56:53.332.27-Apr-2021 3242.51 5841.08 71.99 3.00 385.08 2657.85
   02:56:53.532.27-Apr-2021 3242.51 5841.08 71.99 3.00 385.28 2657.85
   02:56:53.732.27-Apr-2021 3242.51 5845.97 71.99 3.00 385.48 2657.85
   02:56:53.932.27-Apr-2021 3242.51 5845.55 71.99 3.00 385.68 2657.85
   02:56:54.132.27-Apr-2021 3242.51 5829.80 71.99 3.00 385.88 2657.85
   02:56:54.332.27-Apr-2021 3242.51 5839.39 71.99 3.00 386.08 2657.85
   02:56:54.532.27-Apr-2021 3242.51 5839.39 71.99 3.00 386.28 2657.85
   02:56:54.732.27-Apr-2021 3242.51 5843.18 71.99 3.00 386.48 2657.85
   02:56:54.932.27-Apr-2021 3242.51 5834.33 71.99 3.00 386.68 2657.85
   02:56:55.132.27-Apr-2021 3242.51 5836.14 71.99 3.00 386.88 2657.85
