~Version Information
 VERS.                  2.0:   CWLS log ASCII Standard -VERSION 2.0
 WRAP.                   NO:   One line per depth step
~Well Information Block
#MNEM.UNIT     VALUE/NAME     DESCRIPTION
#---------     -----------    ---------------------------
 STRT.S             06:54:29 28-Apr-21: START TIME 06:54:29 28-Apr-21
 STOP.S             07:00:57 28-Apr-21: STOP TIME  07:00:57 28-Apr-21
 STEP.S                   0.00: STEP TIME
 NULL.                 -999.25: NULL VALUE
 DFWT.                        :  DIST FWL TEXT
 DFST.                        :  DIST FSL TEXT
 DMF .             Drill Floor:  DRILL MEAS FROM
 STIM.      02.00.00 12-Apr-21:  START TIME
 DATE.      02.00.00 02-May-21:  END TIME
 SPUD.               09-Apr-21:  SPUD DATE
 NREF.                    Grid:  NORTH REFERENCE
 HPTY.       Minimum Curvature:  HOLE POS TYPE
 DMOD.             Drill Model:  DRILL MOD DESC
 SVYD.                  Survey:  SURVEY DESC
 ILTD.               Lithology:  INTERP LTH DESC
 FTOP.          Formation Tops:  FORM TOPS DESC
 PDAT.          Mean Sea Level:  PERMANENT DATUM
 FLD .                     ACG:  FIELD NAME
 SON .        AZ-XX-0907021034:  JOB NUMBER
 CTRY.              Azerbaijan:  COUNTRY NAME
 WELL.                    E01x:  WELL NAME
 COMP.     BP Exploration (Caspian Sea) LTD.:  COMPANY
 UWI .            /AZE00001403:  UNIQUE WELL IDENTIFIER
 API .            /AZE00001403:  API NUMBER
 WTYP.                Deviated:  WELL TYPE
 MDS .        Operator Entered:  MAG DATA SOURCE
 BASE.              Azerbaijan:  LOGGING EQUIPMENT BASE LOCATION
 REGN.                   EESSA:  REGION
 PROV.                    Baku:  PROVINCE
 STAT.                    Baku:  STATE NAME
 SRVC.          Turan Drilling:  CONTRACTOR
 MWDS.                    Baku:  MWD SHOP
 JOBN.        AZ-XX-0907021034:  JOB TICKET NUMB
 RIG .                     DWG:  RIG NAME
 DOE .                     N/A:  DOE NUMBER
 DCON.         Sperry Drilling:  DIRECTNL CONTR
 UNIT.                     N/A:  LOGGING EQUIPMENT ID
 CNTY.                        :  COUNTY
 LOC .                        :  LOCATION
 LMF .             Drill Floor:  LOG MEASURED FROM
 TVDS.m                  43.16:  TVDSS CORRECTN
 LATI.deg                40.17:  LATITUDE
 LONG.deg                51.17:  LONGITUDE
 WHNS.m                  -5.90:  WELL HEAD N/S
 WHEW.m                  -6.61:  WELL HEAD E/W
 UTMX.m              514337.95:  UTM X
 UTMY.m             4448627.46:  UTM Y
 DFWL.m                   0.00:  DISTANCE FWL
 DFSL.m                   0.00:  DISTANCE FSL
 SDEP.m                2606.87:  START DEPTH
 TDD .m                3618.01:  TOTAL DEPTH (DRILLER)
 VSDR.deg               177.42:  VERT SEC DIRECT
 GVFD.g                   1.00:  GRAVITY FIELD
 MFLD.nT              50399.00:  MAGNETIC FIELD
 MDIP.deg                59.67:  MAGNETIC DIP
 MDEC.deg                 6.56:  MAGNETIC DECL
 GRDC.deg                 0.11:  GRID CORRECTION
 AZTC.deg                 6.45:  AZM TOTAL CORR
 EPD .m                   0.00:  ELEVATION
 EGL .m                   0.00:  GROUND ELEVATION
 WDMS.m                 176.20:  WD ELEV
 APD .m                  43.16:  DEPTH ABOVE PD
 DEP .m                2606.87:  DEPTH
 AGAP.m                  43.16:  AIR GAP
 VSEW.m                  -6.61:  VERT SEC E/W
 VSNS.m                  -5.90:  VERT SEC N/S
 EKB .m                  43.16:  KB ELEVATION
 EDF .m                  43.16:  DF ELEVATION
 TDL .m                 438.00:  TOTAL DEPTH (LOGGER)
 VSC .                       0:  VS TO CLOSURE
 MAGU.                 1855490:  MAGUTM CHECKSUM
~Parameter Information Block
#MNEM.UNIT       Value        Description
#---------     -----------    ---------------------------
 AV  .mps                 2.20:  Ann Velocity 
 AVMX.mps                 2.50:  Max Ann Veloc 
 AZIF.deg               150.21:  Azm, Final 
 BHAT.        Rotary Steerable:  BHA Type 
 BROT.°/30m               0.08:  Build Rotating 
 BS  .in                  6.50:  Bit Size 
 BSZ .in                  6.50:  Bit Size 
 BTPL.psig              108.00:  Bit Press Loss 
 CABU.                     Yes:  Customer Abuse 
 CGEO.           Emin Aliyarli:  Customer Geo 
 COMM.                     Ô8c:  Run Comments 1 
 TCS .hr                 74.20:  Time Ciculation Ended 
 CV  .mps                 3.63:  Crit Velocity 
 CVMX.mps                 3.66:  Max Crit Veloc 
 DD1 .         Intigam Rahimov:  Direct Drillr 1 
 DD2 .          Teymur Aghayev:  Direct Drillr 2 
 DDSV.               Geo-Pilot:  DD Service 
 DEFF.%                  97.00:  % Det Eff 
 DLRX.°/30m               1.63:  Dogleg Rot Max 
 DLSO.°/30m               0.00:  Dogleg Oriented 
 DLSX.°/30m               0.00:  Dogleg Str Max 
 DRET.      20.20.00 28-Apr-21:  Drill End Time 
 DRST.      04.45.00 26-Apr-21:  Drill Start Tim 
 DTIM.hr                 34.30:  Time Drilling 
 EDEP.m                3618.01:  End Depth 
 ENG1.           Amrah Tahirov:  Engineer 1 
 ENG2.         Bahruz Mehdiyev:  Engineer 2 
 ENG3.         Farhad Orujzade:  Engineer 3 
 ETIM.      19.00.00 29-Apr-21:  End Time 
 FLOI.gpm               370.00:  Flow In 
 FLON.gpm               300.00:  Flow In Min 
 FLOS.cptm                0.00:  Fluid Loss 
 FLOX.gpm               410.00:  Flow In Max 
 HFLO.                      No:  High Flow 
 HPRE.                      No:  High Pressure 
 HTEM.                      No:  High Temp 
 HYDO.m                   1.80:  Hydro Offset 
 IFIN.deg                67.19:  Inc, Final 
 IMAX.deg                68.42:  Inc Max 
 IMIN.deg                66.33:  Inc Min 
 IMND.m                3532.79:  Inc Min Depth 
 IMXD.m                3192.15:  Inc Max Depth 
 JARR.                      No:  Jarring 
 LETM.      20.20.00 28-Apr-21:  Log End Time 
 LOST.hr                     0:  Lost Rig Time 
 LSTM.      04.45.00 26-Apr-21:  Log Start Time 
 MDCL.ppm             36500.00:  Mud Chlorides 
 MDES.     Inversion Oil/Synthetic:  Mud Desc 
 DFD .sg                  1.42:  Mud Density 
 MDMN.sg                  1.42:  Dens Mud Min 
 MDMX.sg                  1.42:  Dens Mud Max 
 MOIL.                    55.7:  Run Mud Oil % 
 MOWR.                   71:29:  Run Mud OWR 
 MSND.                     0.1:  Run Mud Sand % 
 MSOL.                    19.9:  Run Mud Solids% 
 DFV .spqt               83.00:  Mud Viscosity 
 MWOD.in                  5.15:  MWD Tool OD 
 MWSI.                      No:  Serv Intrp, MWD 
 OTIM.hr                120.59:  Time Operating 
 PCON.           Look Like New:  Pad Condition 
 PMAX.psia            11292.93:  Press Op, Max 
 PV  .cP                 27.00:  Mud PV 
 RUN .                     400:  Run Number 
 ROPA.m/hr               14.00:  ROP Avg 
 ROPN.m/hr                9.00:  ROP Min 
 ROPX.m/hr               18.00:  ROP Max 
 RPMA.rpm               130.00:  RPM Surface Avg 
 RPMN.rpm               100.00:  RPM Surface Min 
 RPMX.rpm               140.00:  RPM Surface Max 
 RRUN.                    0400:  Rig Run Number 
 RTIM.hr                 38.60:  Time Reaming 
 SAZI.deg               149.55:  Azm, Start 
 SDEP.m                3180.01:  Start Depth 
 SIDD.                      No:  Serv Intrp, DD 
 SINC.deg                68.42:  Inc, Start 
 SPPA.psig             4400.00:  SPP Avg 
 SPPN.psig             3580.00:  SPP Min 
 SPPX.psig             4850.00:  SPP Max 
 STIM.      12.30.00 24-Apr-21:  Start Time 
 SVCS.                 DD, MWD:  Services 
 SVER.                    9.20:  Sperry Version 
 TDAT.m                 438.00:  Tot Depth Attmp 
 TDDF.                      No:  Trip for DD 
 TDLG.m                 438.00:  Tot Depth Loggd 
 TFF .                      No:  Trip for Fail 
 TQAA.f-kp               11.00:  Torque Abs Avg 
 TQAN.f-kp                9.00:  Torque Abs Min 
 TQAX.f-kp               14.00:  Torque Abs Max 
 TRRT.°/30m               0.04:  Turn Rotating 
 MRT .                    HCIM:  Maximum Recorded Temperature 
 TTMX.degC               84.31:  Max Tool Temp 
 VS01.                90521954:  Virtual Str1 SN 
 VS02.                90519327:  Virtual Str2 SN 
 VS03.                90522273:  Virtual Str3 SN 
 VS04.                11108038:  Virtual Str4 SN 
 VS05.                12258760:  Virtual Str5 SN 
 WBMN.klb                 1.00:  WOB Min 
 WITN.           Adil Mammadov:  Customer Rep 
 WITN.         Alex Yadullayev:  Customer Rep 2 
 WOBA.klb                 6.00:  WOB Avg 
 WOBX.klb                 9.00:  WOB Max 
 YP  .lhf2               31.00:  Yield Point 
~Curve Information Block
#MNEM.UNIT                 API CODE     Curve Description
#---------               -----------    ---------------------------
 TIME.HHMMSS            00 000 000 000:  GT Time & Date
 GTDEPTH.m              00 000 000 000:  GT Depth
 GTPQH.psia             00 000 000 000:  GT HR Quartz Pressure
 GTTQ.degC              00 000 000 000:  GT Quartz Temperature
 GTTN.NONE              00 000 000 000:  GT Test Number
 GTET.sec               00 000 000 000:  GT Elapsed Test Time
 GTTVD.m                00 000 000 000:  GT True Vertical Depth
#Other Information
#
#WARRANTY: Halliburton will use its best efforts to furnish customers with 
#accurate information and interpretations that are part of, and incident to, the services 
#provided.  However, Halliburton cannot and does not warrant the accuracy 
#or correctness of such information and interpretations.  Under no circumstances should any 
#such information or interpretation be relied upon as the sole basis for any drilling, 
#completion, production, or financial decision or any procedure involving any risk to the 
#safety of any drilling venture, drilling rig or its crew or any other third party.  The 
#Customer has full responsibility for all drilling, completion and production operation.  
#Halliburton makes no representations or warranties, either expressed or 
#implied, including, but not limited to, the implied warranties of merchantability or fitness 
#for a particular purpose, with respect to the services rendered.  In no event will 
#Halliburton be liable for failure to obtain any particular results or for 
#any damages, including, but not limited to, indirect, special or consequential damages, 
#resulting from the use of any information or interpretation provided by Halliburton.
#
~A           TIME           GTDEPTH  GTPQH  GTTQ  GTTN  GTET   GTTVD  
# ...
   06:58:19.805.28-Apr-2021 3473.01 3650.89 72.58 8.00 230.03 2748.71
   06:58:20.005.28-Apr-2021 3473.01 3650.89 72.58 8.00 230.23 2748.71
   06:58:20.205.28-Apr-2021 3473.01 3650.87 72.58 8.00 230.43 2748.71
   06:58:20.405.28-Apr-2021 3473.01 3650.55 72.58 8.00 230.63 2748.71
   06:58:20.605.28-Apr-2021 3473.01 3651.05 72.58 8.00 230.83 2748.71
   06:58:20.805.28-Apr-2021 3473.01 3650.84 72.58 8.00 231.03 2748.71
   06:58:21.005.28-Apr-2021 3473.01 3650.84 72.58 8.00 231.23 2748.71
   06:58:21.205.28-Apr-2021 3473.01 3650.79 72.57 8.00 231.43 2748.71
   06:58:21.406.28-Apr-2021 3473.01 3650.65 72.57 8.00 231.63 2748.71
   06:58:21.606.28-Apr-2021 3473.01 3650.99 72.57 8.00 231.83 2748.71
   06:58:21.806.28-Apr-2021 3473.01 3650.85 72.57 8.00 232.03 2748.71
   06:58:22.006.28-Apr-2021 3473.01 3650.85 72.57 8.00 232.23 2748.71
   06:58:22.206.28-Apr-2021 3473.01 3650.79 72.57 8.00 232.43 2748.71
   06:58:22.406.28-Apr-2021 3473.01 3650.89 72.57 8.00 232.63 2748.71
   06:58:22.606.28-Apr-2021 3473.01 3650.70 72.57 8.00 232.83 2748.71
   06:58:22.806.28-Apr-2021 3473.01 3650.84 72.57 8.00 233.03 2748.71
   06:58:23.006.28-Apr-2021 3473.01 3650.84 72.57 8.00 233.23 2748.71
   06:58:23.206.28-Apr-2021 3473.01 3650.84 72.57 8.00 233.43 2748.71
   06:58:23.406.28-Apr-2021 3473.01 3650.87 72.57 8.00 233.63 2748.71
   06:58:23.606.28-Apr-2021 3473.01 3650.83 72.57 8.00 233.83 2748.71
   06:58:23.806.28-Apr-2021 3473.01 3650.85 72.57 8.00 234.03 2748.71
   06:58:24.006.28-Apr-2021 3473.01 3650.85 72.57 8.00 234.23 2748.71
   06:58:24.206.28-Apr-2021 3473.01 3650.79 72.57 8.00 234.43 2748.71
   06:58:24.406.28-Apr-2021 3473.01 3650.85 72.57 8.00 234.63 2748.71
   06:58:24.606.28-Apr-2021 3473.01 3650.78 72.57 8.00 234.83 2748.71
   06:58:24.806.28-Apr-2021 3473.01 3650.84 72.57 8.00 235.03 2748.71
   06:58:25.006.28-Apr-2021 3473.01 3650.84 72.57 8.00 235.23 2748.71
   06:58:25.206.28-Apr-2021 3473.01 3650.78 72.57 8.00 235.43 2748.71
   06:58:25.406.28-Apr-2021 3473.01 3650.59 72.57 8.00 235.63 2748.71
   06:58:25.606.28-Apr-2021 3473.01 3650.92 72.57 8.00 235.83 2748.71
   06:58:25.806.28-Apr-2021 3473.01 3650.88 72.56 8.00 236.03 2748.71
   06:58:26.006.28-Apr-2021 3473.01 3650.88 72.56 8.00 236.23 2748.71
   06:58:26.206.28-Apr-2021 3473.01 3650.79 72.56 8.00 236.43 2748.71
   06:58:26.406.28-Apr-2021 3473.01 3650.84 72.56 8.00 236.63 2748.71
   06:58:26.606.28-Apr-2021 3473.01 3650.80 72.56 8.00 236.83 2748.71
   06:58:26.806.28-Apr-2021 3473.01 3650.86 72.56 8.00 237.03 2748.71
   06:58:27.006.28-Apr-2021 3473.01 3650.86 72.56 8.00 237.23 2748.71
   06:58:27.206.28-Apr-2021 3473.01 3650.83 72.56 8.00 237.43 2748.71
   06:58:27.406.28-Apr-2021 3473.01 3650.82 72.56 8.00 237.64 2748.71
   06:58:27.606.28-Apr-2021 3473.01 3632.96 72.56 8.00 237.84 2748.71
   06:58:27.806.28-Apr-2021 3473.01 3621.33 72.56 8.00 238.04 2748.71
   06:58:28.006.28-Apr-2021 3473.01 3621.33 72.56 8.00 238.24 2748.71
   06:58:28.207.28-Apr-2021 3473.01 3620.51 72.56 8.00 238.44 2748.71
   06:58:28.407.28-Apr-2021 3473.01 3621.31 72.56 8.00 238.64 2748.71
   06:58:28.607.28-Apr-2021 3473.01 3621.08 72.56 8.00 238.84 2748.71
   06:58:28.807.28-Apr-2021 3473.01 3620.63 72.56 8.00 239.04 2748.71
   06:58:29.007.28-Apr-2021 3473.01 3620.63 72.56 8.00 239.24 2748.71
   06:58:29.207.28-Apr-2021 3473.01 3621.48 72.56 8.00 239.44 2748.71
   06:58:29.407.28-Apr-2021 3473.01 3620.79 72.56 8.00 239.64 2748.71
   06:58:29.607.28-Apr-2021 3473.01 3620.95 72.56 8.00 239.84 2748.71
   06:58:29.807.28-Apr-2021 3473.01 3620.69 72.56 8.00 240.04 2748.71
   06:58:30.007.28-Apr-2021 3473.01 3620.69 72.56 8.00 240.24 2748.71
   06:58:30.207.28-Apr-2021 3473.01 3621.31 72.56 8.00 240.44 2748.71
   06:58:30.407.28-Apr-2021 3473.01 3620.84 72.56 8.00 240.64 2748.71
   06:58:30.607.28-Apr-2021 3473.01 3620.77 72.55 8.00 240.84 2748.71
   06:58:30.807.28-Apr-2021 3473.01 3620.82 72.55 8.00 241.04 2748.71
   06:58:31.007.28-Apr-2021 3473.01 3620.82 72.55 8.00 241.24 2748.71
   06:58:31.207.28-Apr-2021 3473.01 3620.08 72.55 8.00 241.44 2748.71
   06:58:31.407.28-Apr-2021 3473.01 3621.46 72.55 8.00 241.64 2748.71
   06:58:31.607.28-Apr-2021 3473.01 3621.05 72.55 8.00 241.84 2748.71
   06:58:31.807.28-Apr-2021 3473.01 3620.90 72.55 8.00 242.04 2748.71
   06:58:32.007.28-Apr-2021 3473.01 3620.90 72.55 8.00 242.24 2748.71
   06:58:32.207.28-Apr-2021 3473.01 3620.91 72.55 8.00 242.44 2748.71
   06:58:32.407.28-Apr-2021 3473.01 3621.13 72.55 8.00 242.64 2748.71
   06:58:32.607.28-Apr-2021 3473.01 3621.04 72.55 8.00 242.84 2748.71
   06:58:32.807.28-Apr-2021 3473.01 3620.84 72.55 8.00 243.04 2748.71
   06:58:33.007.28-Apr-2021 3473.01 3620.84 72.55 8.00 243.24 2748.71
   06:58:33.207.28-Apr-2021 3473.01 3621.08 72.55 8.00 243.44 2748.71
   06:58:33.407.28-Apr-2021 3473.01 3621.08 72.55 8.00 243.64 2748.71
   06:58:33.607.28-Apr-2021 3473.01 3621.12 72.55 8.00 243.84 2748.71
   06:58:33.807.28-Apr-2021 3473.01 3620.74 72.55 8.00 244.04 2748.71
   06:58:34.007.28-Apr-2021 3473.01 3620.74 72.55 8.00 244.24 2748.71
   06:58:34.207.28-Apr-2021 3473.01 3621.28 72.55 8.00 244.44 2748.71
   06:58:34.407.28-Apr-2021 3473.01 3620.88 72.55 8.00 244.64 2748.71
   06:58:34.607.28-Apr-2021 3473.01 3620.50 72.55 8.00 244.84 2748.71
   06:58:34.807.28-Apr-2021 3473.01 3621.29 72.55 8.00 245.04 2748.71
   06:58:35.008.28-Apr-2021 3473.01 3621.29 72.55 8.00 245.24 2748.71
   06:58:35.208.28-Apr-2021 3473.01 3620.94 72.55 8.00 245.44 2748.71
   06:58:35.408.28-Apr-2021 3473.01 3621.11 72.54 8.00 245.64 2748.71
   06:58:35.608.28-Apr-2021 3473.01 3621.01 72.54 8.00 245.84 2748.71
   06:58:35.808.28-Apr-2021 3473.01 3621.24 72.54 8.00 246.04 2748.71
   06:58:36.008.28-Apr-2021 3473.01 3621.24 72.54 8.00 246.24 2748.71
   06:58:36.208.28-Apr-2021 3473.01 3620.90 72.54 8.00 246.44 2748.71
   06:58:36.408.28-Apr-2021 3473.01 3621.31 72.54 8.00 246.64 2748.71
   06:58:36.608.28-Apr-2021 3473.01 3619.96 72.54 8.00 246.84 2748.71
   06:58:36.808.28-Apr-2021 3473.01 3621.95 72.54 8.00 247.04 2748.71
   06:58:37.008.28-Apr-2021 3473.01 3621.95 72.54 8.00 247.24 2748.71
   06:58:37.208.28-Apr-2021 3473.01 3621.17 72.54 8.00 247.44 2748.71
   06:58:37.408.28-Apr-2021 3473.01 3620.39 72.54 8.00 247.64 2748.71
   06:58:37.608.28-Apr-2021 3473.01 3621.97 72.54 8.00 247.84 2748.71
   06:58:37.808.28-Apr-2021 3473.01 3632.54 72.54 8.00 248.04 2748.71
   06:58:38.008.28-Apr-2021 3473.01 3632.54 72.54 8.00 248.24 2748.71
   06:58:38.208.28-Apr-2021 3473.01 3650.30 72.54 8.00 248.44 2748.71
   06:58:38.408.28-Apr-2021 3473.01 3650.40 72.54 8.00 248.64 2748.71
   06:58:38.608.28-Apr-2021 3473.01 3650.75 72.54 8.00 248.84 2748.71
   06:58:38.808.28-Apr-2021 3473.01 3650.65 72.54 8.00 249.04 2748.71
   06:58:39.008.28-Apr-2021 3473.01 3650.65 72.54 8.00 249.24 2748.71
   06:58:39.208.28-Apr-2021 3473.01 3650.66 72.54 8.00 249.44 2748.71
   06:58:39.408.28-Apr-2021 3473.01 3650.61 72.54 8.00 249.64 2748.71
   06:58:39.608.28-Apr-2021 3473.01 3650.41 72.54 8.00 249.84 2748.71
   06:58:39.808.28-Apr-2021 3473.01 3650.84 72.54 8.00 250.04 2748.71
   06:58:40.008.28-Apr-2021 3473.01 3650.84 72.54 8.00 250.24 2748.71
   06:58:40.208.28-Apr-2021 3473.01 3650.79 72.54 8.00 250.44 2748.71
   06:58:40.408.28-Apr-2021 3473.01 3650.68 72.53 8.00 250.64 2748.71
   06:58:40.608.28-Apr-2021 3473.01 3650.77 72.53 8.00 250.84 2748.71
   06:58:40.808.28-Apr-2021 3473.01 3650.70 72.53 8.00 251.04 2748.71
   06:58:41.008.28-Apr-2021 3473.01 3650.70 72.53 8.00 251.24 2748.71
   06:58:41.208.28-Apr-2021 3473.01 3650.70 72.53 8.00 251.44 2748.71
   06:58:41.408.28-Apr-2021 3473.01 3650.68 72.53 8.00 251.64 2748.71
   06:58:41.608.28-Apr-2021 3473.01 3650.74 72.53 8.00 251.84 2748.71
   06:58:41.809.28-Apr-2021 3473.01 3650.63 72.53 8.00 252.04 2748.71
   06:58:42.009.28-Apr-2021 3473.01 3650.63 72.53 8.00 252.24 2748.71
   06:58:42.209.28-Apr-2021 3473.01 3650.60 72.53 8.00 252.44 2748.71
   06:58:42.409.28-Apr-2021 3473.01 3650.60 72.53 8.00 252.64 2748.71
   06:58:42.609.28-Apr-2021 3473.01 3650.88 72.53 8.00 252.84 2748.71
