~Version Information
 VERS.                  2.0:   CWLS log ASCII Standard -VERSION 2.0
 WRAP.                   NO:   One line per depth step
~Well Information Block
#MNEM.UNIT     VALUE/NAME     DESCRIPTION
#---------     -----------    ---------------------------
 STRT.S             02:50:28 27-Apr-21: START TIME 02:50:28 27-Apr-21
 STOP.S             02:56:55 27-Apr-21: STOP TIME  02:56:55 27-Apr-21
 STEP.S                   0.00: STEP TIME
 NULL.                 -999.25: NULL VALUE
 DFWT.                        :  DIST FWL TEXT
 DFST.                        :  DIST FSL TEXT
 DMF .             Drill Floor:  DRILL MEAS FROM
 STIM.      02.00.00 12-Apr-21:  START TIME
 DATE.      02.00.00 02-May-21:  END TIME
 SPUD.               09-Apr-21:  SPUD DATE
 NREF.                    Grid:  NORTH REFERENCE
 HPTY.       Minimum Curvature:  HOLE POS TYPE
 DMOD.             Drill Model:  DRILL MOD DESC
 SVYD.                  Survey:  SURVEY DESC
 ILTD.               Lithology:  INTERP LTH DESC
 FTOP.          Formation Tops:  FORM TOPS DESC
 PDAT.          Mean Sea Level:  PERMANENT DATUM
 FLD .                     ACG:  FIELD NAME
 SON .        AZ-XX-0907021034:  JOB NUMBER
 CTRY.              Azerbaijan:  COUNTRY NAME
 WELL.                    E01x:  WELL NAME
 COMP.     BP Exploration (Caspian Sea) LTD.:  COMPANY
 UWI .            /AZE00001403:  UNIQUE WELL IDENTIFIER
 API .            /AZE00001403:  API NUMBER
 WTYP.                Deviated:  WELL TYPE
 MDS .        Operator Entered:  MAG DATA SOURCE
 BASE.              Azerbaijan:  LOGGING EQUIPMENT BASE LOCATION
 REGN.                   EESSA:  REGION
 PROV.                    Baku:  PROVINCE
 STAT.                    Baku:  STATE NAME
 SRVC.          Turan Drilling:  CONTRACTOR
 MWDS.                    Baku:  MWD SHOP
 JOBN.        AZ-XX-0907021034:  JOB TICKET NUMB
 RIG .                     DWG:  RIG NAME
 DOE .                     N/A:  DOE NUMBER
 DCON.         Sperry Drilling:  DIRECTNL CONTR
 UNIT.                     N/A:  LOGGING EQUIPMENT ID
 CNTY.                        :  COUNTY
 LOC .                        :  LOCATION
 LMF .             Drill Floor:  LOG MEASURED FROM
 TVDS.m                  43.16:  TVDSS CORRECTN
 LATI.deg                40.17:  LATITUDE
 LONG.deg                51.17:  LONGITUDE
 WHNS.m                  -5.90:  WELL HEAD N/S
 WHEW.m                  -6.61:  WELL HEAD E/W
 UTMX.m              514337.95:  UTM X
 UTMY.m             4448627.46:  UTM Y
 DFWL.m                   0.00:  DISTANCE FWL
 DFSL.m                   0.00:  DISTANCE FSL
 SDEP.m                2606.87:  START DEPTH
 TDD .m                3618.01:  TOTAL DEPTH (DRILLER)
 VSDR.deg               177.42:  VERT SEC DIRECT
 GVFD.g                   1.00:  GRAVITY FIELD
 MFLD.nT              50399.00:  MAGNETIC FIELD
 MDIP.deg                59.67:  MAGNETIC DIP
 MDEC.deg                 6.56:  MAGNETIC DECL
 GRDC.deg                 0.11:  GRID CORRECTION
 AZTC.deg                 6.45:  AZM TOTAL CORR
 EPD .m                   0.00:  ELEVATION
 EGL .m                   0.00:  GROUND ELEVATION
 WDMS.m                 176.20:  WD ELEV
 APD .m                  43.16:  DEPTH ABOVE PD
 DEP .m                2606.87:  DEPTH
 AGAP.m                  43.16:  AIR GAP
 VSEW.m                  -6.61:  VERT SEC E/W
 VSNS.m                  -5.90:  VERT SEC N/S
 EKB .m                  43.16:  KB ELEVATION
 EDF .m                  43.16:  DF ELEVATION
 TDL .m                 438.00:  TOTAL DEPTH (LOGGER)
 VSC .                       0:  VS TO CLOSURE
 MAGU.                 1855490:  MAGUTM CHECKSUM
~Parameter Information Block
#MNEM.UNIT       Value        Description
#---------     -----------    ---------------------------
 AV  .mps                 2.20:  Ann Velocity 
 AVMX.mps                 2.50:  Max Ann Veloc 
 AZIF.deg               150.21:  Azm, Final 
 BHAT.        Rotary Steerable:  BHA Type 
 BROT.°/30m               0.08:  Build Rotating 
 BS  .in                  6.50:  Bit Size 
 BSZ .in                  6.50:  Bit Size 
 BTPL.psig              108.00:  Bit Press Loss 
 CABU.                     Yes:  Customer Abuse 
 CGEO.           Emin Aliyarli:  Customer Geo 
 COMM.                     äº~:  Run Comments 1 
 TCS .hr                 74.20:  Time Ciculation Ended 
 CV  .mps                 3.63:  Crit Velocity 
 CVMX.mps                 3.66:  Max Crit Veloc 
 DD1 .         Intigam Rahimov:  Direct Drillr 1 
 DD2 .          Teymur Aghayev:  Direct Drillr 2 
 DDSV.               Geo-Pilot:  DD Service 
 DEFF.%                  97.00:  % Det Eff 
 DLRX.°/30m               1.63:  Dogleg Rot Max 
 DLSO.°/30m               0.00:  Dogleg Oriented 
 DLSX.°/30m               0.00:  Dogleg Str Max 
 DRET.      20.20.00 28-Apr-21:  Drill End Time 
 DRST.      04.45.00 26-Apr-21:  Drill Start Tim 
 DTIM.hr                 34.30:  Time Drilling 
 EDEP.m                3618.01:  End Depth 
 ENG1.           Amrah Tahirov:  Engineer 1 
 ENG2.         Bahruz Mehdiyev:  Engineer 2 
 ENG3.         Farhad Orujzade:  Engineer 3 
 ETIM.      19.00.00 29-Apr-21:  End Time 
 FLOI.gpm               370.00:  Flow In 
 FLON.gpm               300.00:  Flow In Min 
 FLOS.cptm                0.00:  Fluid Loss 
 FLOX.gpm               410.00:  Flow In Max 
 HFLO.                      No:  High Flow 
 HPRE.                      No:  High Pressure 
 HTEM.                      No:  High Temp 
 HYDO.m                   1.80:  Hydro Offset 
 IFIN.deg                67.19:  Inc, Final 
 IMAX.deg                68.42:  Inc Max 
 IMIN.deg                66.33:  Inc Min 
 IMND.m                3532.79:  Inc Min Depth 
 IMXD.m                3192.15:  Inc Max Depth 
 JARR.                      No:  Jarring 
 LETM.      20.20.00 28-Apr-21:  Log End Time 
 LOST.hr                     0:  Lost Rig Time 
 LSTM.      04.45.00 26-Apr-21:  Log Start Time 
 MDCL.ppm             36500.00:  Mud Chlorides 
 MDES.     Inversion Oil/Synthetic:  Mud Desc 
 DFD .sg                  1.42:  Mud Density 
 MDMN.sg                  1.42:  Dens Mud Min 
 MDMX.sg                  1.42:  Dens Mud Max 
 MOIL.                    55.7:  Run Mud Oil % 
 MOWR.                   71:29:  Run Mud OWR 
 MSND.                     0.1:  Run Mud Sand % 
 MSOL.                    19.9:  Run Mud Solids% 
 DFV .spqt               83.00:  Mud Viscosity 
 MWOD.in                  5.15:  MWD Tool OD 
 MWSI.                      No:  Serv Intrp, MWD 
 OTIM.hr                120.59:  Time Operating 
 PCON.           Look Like New:  Pad Condition 
 PMAX.psia            11292.93:  Press Op, Max 
 PV  .cP                 27.00:  Mud PV 
 RUN .                     400:  Run Number 
 ROPA.m/hr               14.00:  ROP Avg 
 ROPN.m/hr                9.00:  ROP Min 
 ROPX.m/hr               18.00:  ROP Max 
 RPMA.rpm               130.00:  RPM Surface Avg 
 RPMN.rpm               100.00:  RPM Surface Min 
 RPMX.rpm               140.00:  RPM Surface Max 
 RRUN.                    0400:  Rig Run Number 
 RTIM.hr                 38.60:  Time Reaming 
 SAZI.deg               149.55:  Azm, Start 
 SDEP.m                3180.01:  Start Depth 
 SIDD.                      No:  Serv Intrp, DD 
 SINC.deg                68.42:  Inc, Start 
 SPPA.psig             4400.00:  SPP Avg 
 SPPN.psig             3580.00:  SPP Min 
 SPPX.psig             4850.00:  SPP Max 
 STIM.      12.30.00 24-Apr-21:  Start Time 
 SVCS.                 DD, MWD:  Services 
 SVER.                    9.20:  Sperry Version 
 TDAT.m                 438.00:  Tot Depth Attmp 
 TDDF.                      No:  Trip for DD 
 TDLG.m                 438.00:  Tot Depth Loggd 
 TFF .                      No:  Trip for Fail 
 TQAA.f-kp               11.00:  Torque Abs Avg 
 TQAN.f-kp                9.00:  Torque Abs Min 
 TQAX.f-kp               14.00:  Torque Abs Max 
 TRRT.°/30m               0.04:  Turn Rotating 
 MRT .                    HCIM:  Maximum Recorded Temperature 
 TTMX.degC               84.31:  Max Tool Temp 
 VS01.                90521954:  Virtual Str1 SN 
 VS02.                90519327:  Virtual Str2 SN 
 VS03.                90522273:  Virtual Str3 SN 
 VS04.                11108038:  Virtual Str4 SN 
 VS05.                12258760:  Virtual Str5 SN 
 WBMN.klb                 1.00:  WOB Min 
 WITN.           Adil Mammadov:  Customer Rep 
 WITN.         Alex Yadullayev:  Customer Rep 2 
 WOBA.klb                 6.00:  WOB Avg 
 WOBX.klb                 9.00:  WOB Max 
 YP  .lhf2               31.00:  Yield Point 
~Curve Information Block
#MNEM.UNIT                 API CODE     Curve Description
#---------               -----------    ---------------------------
 TIME.HHMMSS            00 000 000 000:  GT Time & Date
 GTDEPTH.m              00 000 000 000:  GT Depth
 GTPQH.psia             00 000 000 000:  GT HR Quartz Pressure
 GTTQ.degC              00 000 000 000:  GT Quartz Temperature
 GTTN.NONE              00 000 000 000:  GT Test Number
 GTET.sec               00 000 000 000:  GT Elapsed Test Time
 GTTVD.m                00 000 000 000:  GT True Vertical Depth
#Other Information
#
#WARRANTY: Halliburton will use its best efforts to furnish customers with 
#accurate information and interpretations that are part of, and incident to, the services 
#provided.  However, Halliburton cannot and does not warrant the accuracy 
#or correctness of such information and interpretations.  Under no circumstances should any 
#such information or interpretation be relied upon as the sole basis for any drilling, 
#completion, production, or financial decision or any procedure involving any risk to the 
#safety of any drilling venture, drilling rig or its crew or any other third party.  The 
#Customer has full responsibility for all drilling, completion and production operation.  
#Halliburton makes no representations or warranties, either expressed or 
#implied, including, but not limited to, the implied warranties of merchantability or fitness 
#for a particular purpose, with respect to the services rendered.  In no event will 
#Halliburton be liable for failure to obtain any particular results or for 
#any damages, including, but not limited to, indirect, special or consequential damages, 
#resulting from the use of any information or interpretation provided by Halliburton.
#
~A           TIME           GTDEPTH  GTPQH  GTTQ  GTTN  GTET   GTTVD  
   02:50:28.255.27-Apr-2021 3242.51 5836.76 72.86 3.00   0.00 2657.85
   02:50:28.455.27-Apr-2021 3242.51 5836.76 72.86 3.00   0.20 2657.85
   02:50:28.655.27-Apr-2021 3242.51 5837.60 72.86 3.00   0.40 2657.85
   02:50:28.855.27-Apr-2021 3242.51 5838.51 72.86 3.00   0.60 2657.85
   02:50:29.055.27-Apr-2021 3242.51 5825.88 72.86 3.00   0.80 2657.85
   02:50:29.255.27-Apr-2021 3242.51 5833.83 72.86 3.00   1.00 2657.85
   02:50:29.455.27-Apr-2021 3242.51 5833.83 72.86 3.00   1.20 2657.85
   02:50:29.656.27-Apr-2021 3242.51 5841.52 72.86 3.00   1.40 2657.85
   02:50:29.856.27-Apr-2021 3242.51 5826.63 72.86 3.00   1.60 2657.85
   02:50:30.056.27-Apr-2021 3242.51 5834.83 72.86 3.00   1.80 2657.85
   02:50:30.256.27-Apr-2021 3242.51 5837.03 72.85 3.00   2.00 2657.85
   02:50:30.456.27-Apr-2021 3242.51 5837.03 72.85 3.00   2.20 2657.85
   02:50:30.656.27-Apr-2021 3242.51 5839.47 72.85 3.00   2.40 2657.85
   02:50:30.856.27-Apr-2021 3242.51 5840.31 72.85 3.00   2.60 2657.85
   02:50:31.056.27-Apr-2021 3242.51 5829.16 72.85 3.00   2.80 2657.85
   02:50:31.256.27-Apr-2021 3242.51 5835.81 72.85 3.00   3.00 2657.85
   02:50:31.456.27-Apr-2021 3242.51 5835.81 72.85 3.00   3.20 2657.85
   02:50:31.656.27-Apr-2021 3242.51 5843.34 72.85 3.00   3.40 2657.85
   02:50:31.856.27-Apr-2021 3242.51 5841.98 72.85 3.00   3.60 2657.85
   02:50:32.056.27-Apr-2021 3242.51 5841.54 72.85 3.00   3.80 2657.85
   02:50:32.256.27-Apr-2021 3242.51 5830.17 72.85 3.00   4.00 2657.85
   02:50:32.456.27-Apr-2021 3242.51 5830.17 72.85 3.00   4.20 2657.85
   02:50:32.656.27-Apr-2021 3242.51 5842.06 72.85 3.00   4.40 2657.85
   02:50:32.856.27-Apr-2021 3242.51 5842.37 72.85 3.00   4.60 2657.85
   02:50:33.056.27-Apr-2021 3242.51 5841.00 72.85 3.00   4.80 2657.85
   02:50:33.256.27-Apr-2021 3242.51 5838.93 72.84 3.00   5.00 2657.85
   02:50:33.456.27-Apr-2021 3242.51 5838.93 72.84 3.00   5.20 2657.85
   02:50:33.656.27-Apr-2021 3242.51 5839.57 72.84 3.00   5.40 2657.85
   02:50:33.856.27-Apr-2021 3242.51 5841.28 72.84 3.00   5.60 2657.85
   02:50:34.056.27-Apr-2021 3242.51 5839.56 72.84 3.00   5.80 2657.85
   02:50:34.256.27-Apr-2021 3242.51 5839.63 72.84 3.00   6.00 2657.85
   02:50:34.456.27-Apr-2021 3242.51 5839.63 72.84 3.00   6.20 2657.85
   02:50:34.657.27-Apr-2021 3242.51 5839.63 72.84 3.00   6.40 2657.85
   02:50:34.857.27-Apr-2021 3242.51 5838.44 72.84 3.00   6.60 2657.85
   02:50:35.057.27-Apr-2021 3242.51 5840.42 72.84 3.00   6.80 2657.85
   02:50:35.257.27-Apr-2021 3242.51 5828.27 72.84 3.00   7.00 2657.85
   02:50:35.457.27-Apr-2021 3242.51 5828.27 72.84 3.00   7.20 2657.85
   02:50:35.657.27-Apr-2021 3242.51 5828.27 72.84 3.00   7.40 2657.85
   02:50:35.857.27-Apr-2021 3242.51 5828.27 72.84 3.00   7.60 2657.85
   02:50:36.057.27-Apr-2021 3242.51 5828.27 72.84 3.00   7.80 2657.85
   02:50:36.257.27-Apr-2021 3242.51 5841.23 72.84 3.00   8.00 2657.85
   02:50:36.457.27-Apr-2021 3242.51 5838.69 72.83 3.00   8.20 2657.85
   02:50:36.657.27-Apr-2021 3242.51 5843.63 72.83 3.00   8.40 2657.85
   02:50:36.857.27-Apr-2021 3242.51 5843.71 72.83 3.00   8.60 2657.85
   02:50:37.057.27-Apr-2021 3242.51 5843.83 72.83 3.00   8.80 2657.85
   02:50:37.257.27-Apr-2021 3242.51 5841.18 72.83 3.00   9.00 2657.85
   02:50:37.457.27-Apr-2021 3242.51 5841.18 72.83 3.00   9.20 2657.85
   02:50:37.657.27-Apr-2021 3242.51 5840.93 72.83 3.00   9.40 2657.85
   02:50:37.857.27-Apr-2021 3242.51 5840.97 72.83 3.00   9.60 2657.85
   02:50:38.057.27-Apr-2021 3242.51 5839.30 72.83 3.00   9.80 2657.85
   02:50:38.257.27-Apr-2021 3242.51 5832.73 72.83 3.00  10.00 2657.85
   02:50:38.457.27-Apr-2021 3242.51 5832.73 72.83 3.00  10.20 2657.85
   02:50:38.657.27-Apr-2021 3242.51 5785.61 72.83 3.00  10.40 2657.85
   02:50:38.857.27-Apr-2021 3242.51 5769.84 72.83 3.00  10.60 2657.85
   02:50:39.057.27-Apr-2021 3242.51 5767.22 72.83 3.00  10.80 2657.85
   02:50:39.257.27-Apr-2021 3242.51 5765.66 72.83 3.00  11.00 2657.85
   02:50:39.457.27-Apr-2021 3242.51 5765.66 72.83 3.00  11.20 2657.85
   02:50:39.658.27-Apr-2021 3242.51 5754.15 72.82 3.00  11.40 2657.85
   02:50:39.858.27-Apr-2021 3242.51 5753.52 72.82 3.00  11.60 2657.85
   02:50:40.058.27-Apr-2021 3242.51 5717.26 72.82 3.00  11.80 2657.85
   02:50:40.258.27-Apr-2021 3242.51 5633.98 72.82 3.00  12.00 2657.85
   02:50:40.458.27-Apr-2021 3242.51 5633.98 72.82 3.00  12.20 2657.85
   02:50:40.658.27-Apr-2021 3242.51 5474.35 72.82 3.00  12.40 2657.85
   02:50:40.858.27-Apr-2021 3242.51 5374.67 72.82 3.00  12.60 2657.85
   02:50:41.058.27-Apr-2021 3242.51 5304.26 72.82 3.00  12.80 2657.85
   02:50:41.258.27-Apr-2021 3242.51 5192.26 72.82 3.00  13.00 2657.85
   02:50:41.458.27-Apr-2021 3242.51 5192.26 72.82 3.00  13.20 2657.85
   02:50:41.658.27-Apr-2021 3242.51 5010.96 72.82 3.00  13.40 2657.85
   02:50:41.858.27-Apr-2021 3242.51 4959.78 72.82 3.00  13.60 2657.85
   02:50:42.058.27-Apr-2021 3242.51 4840.90 72.82 3.00  13.80 2657.85
   02:50:42.258.27-Apr-2021 3242.51 4728.62 72.82 3.00  14.00 2657.85
   02:50:42.458.27-Apr-2021 3242.51 4728.62 72.82 3.00  14.20 2657.85
   02:50:42.658.27-Apr-2021 3242.51 4553.08 72.81 3.00  14.40 2657.85
   02:50:42.858.27-Apr-2021 3242.51 4467.88 72.81 3.00  14.60 2657.85
   02:50:43.058.27-Apr-2021 3242.51 4391.40 72.81 3.00  14.80 2657.85
   02:50:43.258.27-Apr-2021 3242.51 4306.58 72.81 3.00  15.00 2657.85
   02:50:43.458.27-Apr-2021 3242.51 4306.58 72.81 3.00  15.20 2657.85
   02:50:43.658.27-Apr-2021 3242.51 4257.29 72.81 3.00  15.40 2657.85
   02:50:43.858.27-Apr-2021 3242.51 4216.61 72.81 3.00  15.60 2657.85
   02:50:44.058.27-Apr-2021 3242.51 4160.04 72.81 3.00  15.80 2657.85
   02:50:44.258.27-Apr-2021 3242.51 4121.55 72.81 3.00  16.00 2657.85
   02:50:44.458.27-Apr-2021 3242.51 4121.55 72.81 3.00  16.20 2657.85
   02:50:44.658.27-Apr-2021 3242.51 4046.27 72.80 3.00  16.40 2657.85
   02:50:44.859.27-Apr-2021 3242.51 4024.83 72.80 3.00  16.60 2657.85
   02:50:45.059.27-Apr-2021 3242.51 3999.06 72.80 3.00  16.80 2657.85
   02:50:45.259.27-Apr-2021 3242.51 3993.61 72.80 3.00  17.00 2657.85
   02:50:45.459.27-Apr-2021 3242.51 3993.61 72.80 3.00  17.20 2657.85
   02:50:45.659.27-Apr-2021 3242.51 5705.33 72.80 3.00  17.40 2657.85
   02:50:45.859.27-Apr-2021 3242.51 6114.87 72.80 3.00  17.60 2657.85
   02:50:46.059.27-Apr-2021 3242.51 6460.71 72.80 3.00  17.80 2657.85
   02:50:46.259.27-Apr-2021 3242.51 6701.07 72.79 3.00  18.00 2657.85
   02:50:46.459.27-Apr-2021 3242.51 6701.07 72.79 3.00  18.20 2657.85
   02:50:46.659.27-Apr-2021 3242.51 6842.63 72.79 3.00  18.40 2657.85
   02:50:46.859.27-Apr-2021 3242.51 6832.86 72.79 3.00  18.60 2657.85
   02:50:47.059.27-Apr-2021 3242.51 6743.01 72.79 3.00  18.80 2657.85
   02:50:47.259.27-Apr-2021 3242.51 6656.85 72.79 3.00  19.00 2657.85
   02:50:47.459.27-Apr-2021 3242.51 6656.85 72.79 3.00  19.20 2657.85
   02:50:47.659.27-Apr-2021 3242.51 6758.24 72.79 3.00  19.40 2657.85
   02:50:47.859.27-Apr-2021 3242.51 6759.48 72.79 3.00  19.60 2657.85
   02:50:48.059.27-Apr-2021 3242.51 6782.35 72.79 3.00  19.80 2657.85
   02:50:48.259.27-Apr-2021 3242.51 6741.57 72.79 3.00  20.00 2657.85
   02:50:48.459.27-Apr-2021 3242.51 6741.57 72.79 3.00  20.20 2657.85
   02:50:48.659.27-Apr-2021 3242.51 6767.32 72.79 3.00  20.40 2657.85
   02:50:48.859.27-Apr-2021 3242.51 6775.84 72.79 3.00  20.60 2657.85
   02:50:49.059.27-Apr-2021 3242.51 6782.91 72.79 3.00  20.80 2657.85
   02:50:49.259.27-Apr-2021 3242.51 6783.81 72.79 3.00  21.00 2657.85
   02:50:49.459.27-Apr-2021 3242.51 6783.81 72.79 3.00  21.20 2657.85
   02:50:49.659.27-Apr-2021 3242.51 6795.81 72.79 3.00  21.40 2657.85
   02:50:49.860.27-Apr-2021 3242.51 6799.82 72.79 3.00  21.60 2657.85
   02:50:50.060.27-Apr-2021 3242.51 6803.40 72.79 3.00  21.80 2657.85
   02:50:50.260.27-Apr-2021 3242.51 6805.89 72.79 3.00  22.00 2657.85
   02:50:50.460.27-Apr-2021 3242.51 6805.89 72.79 3.00  22.20 2657.85
   02:50:50.660.27-Apr-2021 3242.51 6808.50 72.79 3.00  22.40 2657.85
   02:50:50.860.27-Apr-2021 3242.51 6812.51 72.79 3.00  22.60 2657.85
   02:50:51.060.27-Apr-2021 3242.51 6814.79 72.79 3.00  22.80 2657.85
