~Version Information
 VERS.                  2.0:   CWLS log ASCII Standard -VERSION 2.0
 WRAP.                   NO:   One line per depth step
~Well Information Block
#MNEM.UNIT     VALUE/NAME     DESCRIPTION
#---------     -----------    ---------------------------
 STRT.S             23:13:46 26-Apr-21: START TIME 23:13:46 26-Apr-21
 STOP.S             23:20:13 26-Apr-21: STOP TIME  23:20:13 26-Apr-21
 STEP.S                   0.00: STEP TIME
 NULL.                 -999.25: NULL VALUE
 DFWT.                        :  DIST FWL TEXT
 DFST.                        :  DIST FSL TEXT
 DMF .             Drill Floor:  DRILL MEAS FROM
 STIM.      02.00.00 12-Apr-21:  START TIME
 DATE.      02.00.00 02-May-21:  END TIME
 SPUD.               09-Apr-21:  SPUD DATE
 NREF.                    Grid:  NORTH REFERENCE
 HPTY.       Minimum Curvature:  HOLE POS TYPE
 DMOD.             Drill Model:  DRILL MOD DESC
 SVYD.                  Survey:  SURVEY DESC
 ILTD.               Lithology:  INTERP LTH DESC
 FTOP.          Formation Tops:  FORM TOPS DESC
 PDAT.          Mean Sea Level:  PERMANENT DATUM
 FLD .                     ACG:  FIELD NAME
 SON .        AZ-XX-0907021034:  JOB NUMBER
 CTRY.              Azerbaijan:  COUNTRY NAME
 WELL.                    E01x:  WELL NAME
 COMP.     BP Exploration (Caspian Sea) LTD.:  COMPANY
 UWI .            /AZE00001403:  UNIQUE WELL IDENTIFIER
 API .            /AZE00001403:  API NUMBER
 WTYP.                Deviated:  WELL TYPE
 MDS .        Operator Entered:  MAG DATA SOURCE
 BASE.              Azerbaijan:  LOGGING EQUIPMENT BASE LOCATION
 REGN.                   EESSA:  REGION
 PROV.                    Baku:  PROVINCE
 STAT.                    Baku:  STATE NAME
 SRVC.          Turan Drilling:  CONTRACTOR
 MWDS.                    Baku:  MWD SHOP
 JOBN.        AZ-XX-0907021034:  JOB TICKET NUMB
 RIG .                     DWG:  RIG NAME
 DOE .                     N/A:  DOE NUMBER
 DCON.         Sperry Drilling:  DIRECTNL CONTR
 UNIT.                     N/A:  LOGGING EQUIPMENT ID
 CNTY.                        :  COUNTY
 LOC .                        :  LOCATION
 LMF .             Drill Floor:  LOG MEASURED FROM
 TVDS.m                  43.16:  TVDSS CORRECTN
 LATI.deg                40.17:  LATITUDE
 LONG.deg                51.17:  LONGITUDE
 WHNS.m                  -5.90:  WELL HEAD N/S
 WHEW.m                  -6.61:  WELL HEAD E/W
 UTMX.m              514337.95:  UTM X
 UTMY.m             4448627.46:  UTM Y
 DFWL.m                   0.00:  DISTANCE FWL
 DFSL.m                   0.00:  DISTANCE FSL
 SDEP.m                2606.87:  START DEPTH
 TDD .m                3618.01:  TOTAL DEPTH (DRILLER)
 VSDR.deg               177.42:  VERT SEC DIRECT
 GVFD.g                   1.00:  GRAVITY FIELD
 MFLD.nT              50399.00:  MAGNETIC FIELD
 MDIP.deg                59.67:  MAGNETIC DIP
 MDEC.deg                 6.56:  MAGNETIC DECL
 GRDC.deg                 0.11:  GRID CORRECTION
 AZTC.deg                 6.45:  AZM TOTAL CORR
 EPD .m                   0.00:  ELEVATION
 EGL .m                   0.00:  GROUND ELEVATION
 WDMS.m                 176.20:  WD ELEV
 APD .m                  43.16:  DEPTH ABOVE PD
 DEP .m                2606.87:  DEPTH
 AGAP.m                  43.16:  AIR GAP
 VSEW.m                  -6.61:  VERT SEC E/W
 VSNS.m                  -5.90:  VERT SEC N/S
 EKB .m                  43.16:  KB ELEVATION
 EDF .m                  43.16:  DF ELEVATION
 TDL .m                 438.00:  TOTAL DEPTH (LOGGER)
 VSC .                       0:  VS TO CLOSURE
 MAGU.                 1855490:  MAGUTM CHECKSUM
~Parameter Information Block
#MNEM.UNIT       Value        Description
#---------     -----------    ---------------------------
 AV  .mps                 2.20:  Ann Velocity 
 AVMX.mps                 2.50:  Max Ann Veloc 
 AZIF.deg               150.21:  Azm, Final 
 BHAT.        Rotary Steerable:  BHA Type 
 BROT.°/30m               0.08:  Build Rotating 
 BS  .in                  6.50:  Bit Size 
 BSZ .in                  6.50:  Bit Size 
 BTPL.psig              108.00:  Bit Press Loss 
 CABU.                     Yes:  Customer Abuse 
 CGEO.           Emin Aliyarli:  Customer Geo 
 COMM.                     <MW:  Run Comments 1 
 TCS .hr                 74.20:  Time Ciculation Ended 
 CV  .mps                 3.63:  Crit Velocity 
 CVMX.mps                 3.66:  Max Crit Veloc 
 DD1 .         Intigam Rahimov:  Direct Drillr 1 
 DD2 .          Teymur Aghayev:  Direct Drillr 2 
 DDSV.               Geo-Pilot:  DD Service 
 DEFF.%                  97.00:  % Det Eff 
 DLRX.°/30m               1.63:  Dogleg Rot Max 
 DLSO.°/30m               0.00:  Dogleg Oriented 
 DLSX.°/30m               0.00:  Dogleg Str Max 
 DRET.      20.20.00 28-Apr-21:  Drill End Time 
 DRST.      04.45.00 26-Apr-21:  Drill Start Tim 
 DTIM.hr                 34.30:  Time Drilling 
 EDEP.m                3618.01:  End Depth 
 ENG1.           Amrah Tahirov:  Engineer 1 
 ENG2.         Bahruz Mehdiyev:  Engineer 2 
 ENG3.         Farhad Orujzade:  Engineer 3 
 ETIM.      19.00.00 29-Apr-21:  End Time 
 FLOI.gpm               370.00:  Flow In 
 FLON.gpm               300.00:  Flow In Min 
 FLOS.cptm                0.00:  Fluid Loss 
 FLOX.gpm               410.00:  Flow In Max 
 HFLO.                      No:  High Flow 
 HPRE.                      No:  High Pressure 
 HTEM.                      No:  High Temp 
 HYDO.m                   1.80:  Hydro Offset 
 IFIN.deg                67.19:  Inc, Final 
 IMAX.deg                68.42:  Inc Max 
 IMIN.deg                66.33:  Inc Min 
 IMND.m                3532.79:  Inc Min Depth 
 IMXD.m                3192.15:  Inc Max Depth 
 JARR.                      No:  Jarring 
 LETM.      20.20.00 28-Apr-21:  Log End Time 
 LOST.hr                     0:  Lost Rig Time 
 LSTM.      04.45.00 26-Apr-21:  Log Start Time 
 MDCL.ppm             36500.00:  Mud Chlorides 
 MDES.     Inversion Oil/Synthetic:  Mud Desc 
 DFD .sg                  1.42:  Mud Density 
 MDMN.sg                  1.42:  Dens Mud Min 
 MDMX.sg                  1.42:  Dens Mud Max 
 MOIL.                    55.7:  Run Mud Oil % 
 MOWR.                   71:29:  Run Mud OWR 
 MSND.                     0.1:  Run Mud Sand % 
 MSOL.                    19.9:  Run Mud Solids% 
 DFV .spqt               83.00:  Mud Viscosity 
 MWOD.in                  5.15:  MWD Tool OD 
 MWSI.                      No:  Serv Intrp, MWD 
 OTIM.hr                120.59:  Time Operating 
 PCON.           Look Like New:  Pad Condition 
 PMAX.psia            11292.93:  Press Op, Max 
 PV  .cP                 27.00:  Mud PV 
 RUN .                     400:  Run Number 
 ROPA.m/hr               14.00:  ROP Avg 
 ROPN.m/hr                9.00:  ROP Min 
 ROPX.m/hr               18.00:  ROP Max 
 RPMA.rpm               130.00:  RPM Surface Avg 
 RPMN.rpm               100.00:  RPM Surface Min 
 RPMX.rpm               140.00:  RPM Surface Max 
 RRUN.                    0400:  Rig Run Number 
 RTIM.hr                 38.60:  Time Reaming 
 SAZI.deg               149.55:  Azm, Start 
 SDEP.m                3180.01:  Start Depth 
 SIDD.                      No:  Serv Intrp, DD 
 SINC.deg                68.42:  Inc, Start 
 SPPA.psig             4400.00:  SPP Avg 
 SPPN.psig             3580.00:  SPP Min 
 SPPX.psig             4850.00:  SPP Max 
 STIM.      12.30.00 24-Apr-21:  Start Time 
 SVCS.                 DD, MWD:  Services 
 SVER.                    9.20:  Sperry Version 
 TDAT.m                 438.00:  Tot Depth Attmp 
 TDDF.                      No:  Trip for DD 
 TDLG.m                 438.00:  Tot Depth Loggd 
 TFF .                      No:  Trip for Fail 
 TQAA.f-kp               11.00:  Torque Abs Avg 
 TQAN.f-kp                9.00:  Torque Abs Min 
 TQAX.f-kp               14.00:  Torque Abs Max 
 TRRT.°/30m               0.04:  Turn Rotating 
 MRT .                    HCIM:  Maximum Recorded Temperature 
 TTMX.degC               84.31:  Max Tool Temp 
 VS01.                90521954:  Virtual Str1 SN 
 VS02.                90519327:  Virtual Str2 SN 
 VS03.                90522273:  Virtual Str3 SN 
 VS04.                11108038:  Virtual Str4 SN 
 VS05.                12258760:  Virtual Str5 SN 
 WBMN.klb                 1.00:  WOB Min 
 WITN.           Adil Mammadov:  Customer Rep 
 WITN.         Alex Yadullayev:  Customer Rep 2 
 WOBA.klb                 6.00:  WOB Avg 
 WOBX.klb                 9.00:  WOB Max 
 YP  .lhf2               31.00:  Yield Point 
~Curve Information Block
#MNEM.UNIT                 API CODE     Curve Description
#---------               -----------    ---------------------------
 TIME.HHMMSS            00 000 000 000:  GT Time & Date
 GTDEPTH.m              00 000 000 000:  GT Depth
 GTPQH.psia             00 000 000 000:  GT HR Quartz Pressure
 GTTQ.degC              00 000 000 000:  GT Quartz Temperature
 GTTN.NONE              00 000 000 000:  GT Test Number
 GTET.sec               00 000 000 000:  GT Elapsed Test Time
 GTTVD.m                00 000 000 000:  GT True Vertical Depth
#Other Information
#
#WARRANTY: Halliburton will use its best efforts to furnish customers with 
#accurate information and interpretations that are part of, and incident to, the services 
#provided.  However, Halliburton cannot and does not warrant the accuracy 
#or correctness of such information and interpretations.  Under no circumstances should any 
#such information or interpretation be relied upon as the sole basis for any drilling, 
#completion, production, or financial decision or any procedure involving any risk to the 
#safety of any drilling venture, drilling rig or its crew or any other third party.  The 
#Customer has full responsibility for all drilling, completion and production operation.  
#Halliburton makes no representations or warranties, either expressed or 
#implied, including, but not limited to, the implied warranties of merchantability or fitness 
#for a particular purpose, with respect to the services rendered.  In no event will 
#Halliburton be liable for failure to obtain any particular results or for 
#any damages, including, but not limited to, indirect, special or consequential damages, 
#resulting from the use of any information or interpretation provided by Halliburton.
#
~A           TIME           GTDEPTH  GTPQH  GTTQ  GTTN  GTET   GTTVD  
# ...
   23:19:08.620.26-Apr-2021 3222.01 4278.60 69.33 1.00 322.09 2649.76
   23:19:08.820.26-Apr-2021 3222.01 4278.60 69.33 1.00 322.29 2649.76
   23:19:09.020.26-Apr-2021 3222.01 4279.48 69.33 1.00 322.49 2649.76
   23:19:09.220.26-Apr-2021 3222.01 4279.47 69.33 1.00 322.69 2649.76
   23:19:09.420.26-Apr-2021 3222.01 4279.24 69.33 1.00 322.89 2649.76
   23:19:09.620.26-Apr-2021 3222.01 4278.55 69.33 1.00 323.09 2649.76
   23:19:09.821.26-Apr-2021 3222.01 4278.55 69.33 1.00 323.29 2649.76
   23:19:10.021.26-Apr-2021 3222.01 4279.52 69.32 1.00 323.49 2649.76
   23:19:10.221.26-Apr-2021 3222.01 4279.33 69.32 1.00 323.69 2649.76
   23:19:10.421.26-Apr-2021 3222.01 4278.58 69.32 1.00 323.89 2649.76
   23:19:10.621.26-Apr-2021 3222.01 4279.17 69.32 1.00 324.10 2649.76
   23:19:10.821.26-Apr-2021 3222.01 4279.17 69.32 1.00 324.30 2649.76
   23:19:11.021.26-Apr-2021 3222.01 4279.44 69.32 1.00 324.50 2649.76
   23:19:11.221.26-Apr-2021 3222.01 4279.52 69.32 1.00 324.70 2649.76
   23:19:11.421.26-Apr-2021 3222.01 4279.32 69.32 1.00 324.90 2649.76
   23:19:11.621.26-Apr-2021 3222.01 4279.30 69.32 1.00 325.10 2649.76
   23:19:11.821.26-Apr-2021 3222.01 4279.30 69.32 1.00 325.30 2649.76
   23:19:12.021.26-Apr-2021 3222.01 4279.43 69.32 1.00 325.50 2649.76
   23:19:12.221.26-Apr-2021 3222.01 4279.27 69.32 1.00 325.70 2649.76
   23:19:12.421.26-Apr-2021 3222.01 4279.19 69.32 1.00 325.90 2649.76
   23:19:12.621.26-Apr-2021 3222.01 4279.14 69.32 1.00 326.10 2649.76
   23:19:12.821.26-Apr-2021 3222.01 4279.14 69.32 1.00 326.30 2649.76
   23:19:13.021.26-Apr-2021 3222.01 4278.47 69.32 1.00 326.50 2649.76
   23:19:13.222.26-Apr-2021 3222.01 4279.04 69.32 1.00 326.70 2649.76
   23:19:13.422.26-Apr-2021 3222.01 4279.37 69.32 1.00 326.90 2649.76
   23:19:13.622.26-Apr-2021 3222.01 4279.22 69.32 1.00 327.10 2649.76
   23:19:13.822.26-Apr-2021 3222.01 4279.22 69.32 1.00 327.30 2649.76
   23:19:14.022.26-Apr-2021 3222.01 4279.20 69.32 1.00 327.50 2649.76
   23:19:14.222.26-Apr-2021 3222.01 4279.33 69.32 1.00 327.70 2649.76
   23:19:14.422.26-Apr-2021 3222.01 4279.37 69.32 1.00 327.90 2649.76
   23:19:14.622.26-Apr-2021 3222.01 4279.51 69.32 1.00 328.10 2649.76
   23:19:14.822.26-Apr-2021 3222.01 4279.51 69.32 1.00 328.30 2649.76
   23:19:15.022.26-Apr-2021 3222.01 4279.32 69.32 1.00 328.50 2649.76
   23:19:15.222.26-Apr-2021 3222.01 4279.12 69.32 1.00 328.70 2649.76
   23:19:15.422.26-Apr-2021 3222.01 4279.40 69.32 1.00 328.90 2649.76
   23:19:15.622.26-Apr-2021 3222.01 4279.22 69.32 1.00 329.10 2649.76
   23:19:15.822.26-Apr-2021 3222.01 4279.22 69.32 1.00 329.30 2649.76
   23:19:16.022.26-Apr-2021 3222.01 4279.14 69.32 1.00 329.50 2649.76
   23:19:16.222.26-Apr-2021 3222.01 4279.42 69.32 1.00 329.70 2649.76
   23:19:16.422.26-Apr-2021 3222.01 4279.34 69.32 1.00 329.90 2649.76
   23:19:16.623.26-Apr-2021 3222.01 4279.37 69.32 1.00 330.10 2649.76
   23:19:16.823.26-Apr-2021 3222.01 4279.37 69.32 1.00 330.30 2649.76
   23:19:17.023.26-Apr-2021 3222.01 4278.56 69.32 1.00 330.50 2649.76
   23:19:17.223.26-Apr-2021 3222.01 4279.38 69.32 1.00 330.70 2649.76
   23:19:17.423.26-Apr-2021 3222.01 4279.60 69.32 1.00 330.90 2649.76
   23:19:17.623.26-Apr-2021 3222.01 4279.44 69.32 1.00 331.10 2649.76
   23:19:17.823.26-Apr-2021 3222.01 4279.44 69.32 1.00 331.30 2649.76
   23:19:18.023.26-Apr-2021 3222.01 4278.49 69.32 1.00 331.50 2649.76
   23:19:18.223.26-Apr-2021 3222.01 4279.21 69.32 1.00 331.70 2649.76
   23:19:18.423.26-Apr-2021 3222.01 4279.52 69.32 1.00 331.90 2649.76
   23:19:18.623.26-Apr-2021 3222.01 4279.32 69.32 1.00 332.10 2649.76
   23:19:18.823.26-Apr-2021 3222.01 4279.32 69.32 1.00 332.30 2649.76
   23:19:19.023.26-Apr-2021 3222.01 4279.16 69.32 1.00 332.50 2649.76
   23:19:19.223.26-Apr-2021 3222.01 4279.36 69.32 1.00 332.70 2649.76
   23:19:19.423.26-Apr-2021 3222.01 4279.48 69.32 1.00 332.90 2649.76
   23:19:19.623.26-Apr-2021 3222.01 4279.53 69.32 1.00 333.10 2649.76
   23:19:19.823.26-Apr-2021 3222.01 4279.53 69.32 1.00 333.30 2649.76
   23:19:20.023.26-Apr-2021 3222.01 4279.37 69.32 1.00 333.50 2649.76
   23:19:20.224.26-Apr-2021 3222.01 4279.38 69.32 1.00 333.70 2649.76
   23:19:20.424.26-Apr-2021 3222.01 4279.51 69.32 1.00 333.90 2649.76
   23:19:20.624.26-Apr-2021 3222.01 4279.27 69.32 1.00 334.10 2649.76
   23:19:20.824.26-Apr-2021 3222.01 4279.27 69.32 1.00 334.30 2649.76
   23:19:21.024.26-Apr-2021 3222.01 4279.12 69.32 1.00 334.50 2649.76
   23:19:21.224.26-Apr-2021 3222.01 4279.27 69.32 1.00 334.70 2649.76
   23:19:21.424.26-Apr-2021 3222.01 4278.40 69.32 1.00 334.90 2649.76
   23:19:21.624.26-Apr-2021 3222.01 4279.22 69.32 1.00 335.10 2649.76
   23:19:21.824.26-Apr-2021 3222.01 4279.22 69.32 1.00 335.30 2649.76
   23:19:22.024.26-Apr-2021 3222.01 4279.30 69.31 1.00 335.50 2649.76
   23:19:22.224.26-Apr-2021 3222.01 4279.29 69.31 1.00 335.70 2649.76
   23:19:22.424.26-Apr-2021 3222.01 4279.29 69.31 1.00 335.90 2649.76
   23:19:22.624.26-Apr-2021 3222.01 4279.31 69.31 1.00 336.10 2649.76
   23:19:22.824.26-Apr-2021 3222.01 4279.31 69.31 1.00 336.30 2649.76
   23:19:23.024.26-Apr-2021 3222.01 4279.45 69.31 1.00 336.50 2649.76
   23:19:23.224.26-Apr-2021 3222.01 4279.28 69.31 1.00 336.70 2649.76
   23:19:23.424.26-Apr-2021 3222.01 4279.29 69.31 1.00 336.90 2649.76
   23:19:23.625.26-Apr-2021 3222.01 4279.16 69.31 1.00 337.10 2649.76
   23:19:23.825.26-Apr-2021 3222.01 4279.16 69.31 1.00 337.30 2649.76
   23:19:24.025.26-Apr-2021 3222.01 4279.19 69.31 1.00 337.50 2649.76
   23:19:24.225.26-Apr-2021 3222.01 4278.58 69.31 1.00 337.70 2649.76
   23:19:24.425.26-Apr-2021 3222.01 4279.11 69.31 1.00 337.90 2649.76
   23:19:24.625.26-Apr-2021 3222.01 4279.49 69.31 1.00 338.10 2649.76
   23:19:24.825.26-Apr-2021 3222.01 4279.49 69.31 1.00 338.30 2649.76
   23:19:25.025.26-Apr-2021 3222.01 4279.44 69.31 1.00 338.50 2649.76
   23:19:25.225.26-Apr-2021 3222.01 4279.25 69.31 1.00 338.70 2649.76
   23:19:25.425.26-Apr-2021 3222.01 4278.59 69.31 1.00 338.90 2649.76
   23:19:25.625.26-Apr-2021 3222.01 4279.47 69.31 1.00 339.10 2649.76
   23:19:25.825.26-Apr-2021 3222.01 4279.47 69.31 1.00 339.30 2649.76
   23:19:26.025.26-Apr-2021 3222.01 4279.38 69.31 1.00 339.50 2649.76
   23:19:26.225.26-Apr-2021 3222.01 4279.34 69.31 1.00 339.70 2649.76
   23:19:26.425.26-Apr-2021 3222.01 4278.47 69.31 1.00 339.90 2649.76
   23:19:26.625.26-Apr-2021 3222.01 4279.23 69.31 1.00 340.10 2649.76
   23:19:26.825.26-Apr-2021 3222.01 4279.23 69.31 1.00 340.30 2649.76
   23:19:27.026.26-Apr-2021 3222.01 4279.34 69.31 1.00 340.50 2649.76
   23:19:27.226.26-Apr-2021 3222.01 4278.62 69.31 1.00 340.70 2649.76
   23:19:27.426.26-Apr-2021 3222.01 4279.22 69.31 1.00 340.90 2649.76
   23:19:27.626.26-Apr-2021 3222.01 4279.33 69.31 1.00 341.10 2649.76
   23:19:27.826.26-Apr-2021 3222.01 4279.33 69.31 1.00 341.30 2649.76
   23:19:28.026.26-Apr-2021 3222.01 4279.53 69.31 1.00 341.50 2649.76
   23:19:28.226.26-Apr-2021 3222.01 4279.32 69.31 1.00 341.70 2649.76
   23:19:28.426.26-Apr-2021 3222.01 4279.36 69.31 1.00 341.90 2649.76
   23:19:28.626.26-Apr-2021 3222.01 4279.38 69.31 1.00 342.10 2649.76
   23:19:28.826.26-Apr-2021 3222.01 4279.38 69.31 1.00 342.30 2649.76
   23:19:29.026.26-Apr-2021 3222.01 4279.20 69.31 1.00 342.50 2649.76
   23:19:29.226.26-Apr-2021 3222.01 4279.29 69.31 1.00 342.70 2649.76
   23:19:29.426.26-Apr-2021 3222.01 4279.09 69.31 1.00 342.90 2649.76
   23:19:29.626.26-Apr-2021 3222.01 4279.28 69.31 1.00 343.10 2649.76
   23:19:29.826.26-Apr-2021 3222.01 4279.28 69.31 1.00 343.30 2649.76
   23:19:30.026.26-Apr-2021 3222.01 4279.28 69.31 1.00 343.50 2649.76
   23:19:30.226.26-Apr-2021 3222.01 4279.93 69.31 1.00 343.70 2649.76
   23:19:30.427.26-Apr-2021 3222.01 4296.10 69.31 1.00 343.90 2649.76
   23:19:30.627.26-Apr-2021 3222.01 4321.75 69.31 1.00 344.10 2649.76
   23:19:30.827.26-Apr-2021 3222.01 4321.75 69.31 1.00 344.30 2649.76
   23:19:31.027.26-Apr-2021 3222.01 5789.17 69.31 1.00 344.50 2649.76
   23:19:31.227.26-Apr-2021 3222.01 5794.78 69.31 1.00 344.70 2649.76
   23:19:31.427.26-Apr-2021 3222.01 5795.72 69.31 1.00 344.90 2649.76
