~Version Information
 VERS.                  2.0:   CWLS log ASCII Standard -VERSION 2.0
 WRAP.                   NO:   One line per depth step
~Well Information Block
#MNEM.UNIT     VALUE/NAME     DESCRIPTION
#---------     -----------    ---------------------------
 STRT.S             03:12:46 28-Apr-21: START TIME 03:12:46 28-Apr-21
 STOP.S             03:19:14 28-Apr-21: STOP TIME  03:19:14 28-Apr-21
 STEP.S                   0.00: STEP TIME
 NULL.                 -999.25: NULL VALUE
 DFWT.                        :  DIST FWL TEXT
 DFST.                        :  DIST FSL TEXT
 DMF .             Drill Floor:  DRILL MEAS FROM
 STIM.      02.00.00 12-Apr-21:  START TIME
 DATE.      02.00.00 02-May-21:  END TIME
 SPUD.               09-Apr-21:  SPUD DATE
 NREF.                    Grid:  NORTH REFERENCE
 HPTY.       Minimum Curvature:  HOLE POS TYPE
 DMOD.             Drill Model:  DRILL MOD DESC
 SVYD.                  Survey:  SURVEY DESC
 ILTD.               Lithology:  INTERP LTH DESC
 FTOP.          Formation Tops:  FORM TOPS DESC
 PDAT.          Mean Sea Level:  PERMANENT DATUM
 FLD .                     ACG:  FIELD NAME
 SON .        AZ-XX-0907021034:  JOB NUMBER
 CTRY.              Azerbaijan:  COUNTRY NAME
 WELL.                    E01x:  WELL NAME
 COMP.     BP Exploration (Caspian Sea) LTD.:  COMPANY
 UWI .            /AZE00001403:  UNIQUE WELL IDENTIFIER
 API .            /AZE00001403:  API NUMBER
 WTYP.                Deviated:  WELL TYPE
 MDS .        Operator Entered:  MAG DATA SOURCE
 BASE.              Azerbaijan:  LOGGING EQUIPMENT BASE LOCATION
 REGN.                   EESSA:  REGION
 PROV.                    Baku:  PROVINCE
 STAT.                    Baku:  STATE NAME
 SRVC.          Turan Drilling:  CONTRACTOR
 MWDS.                    Baku:  MWD SHOP
 JOBN.        AZ-XX-0907021034:  JOB TICKET NUMB
 RIG .                     DWG:  RIG NAME
 DOE .                     N/A:  DOE NUMBER
 DCON.         Sperry Drilling:  DIRECTNL CONTR
 UNIT.                     N/A:  LOGGING EQUIPMENT ID
 CNTY.                        :  COUNTY
 LOC .                        :  LOCATION
 LMF .             Drill Floor:  LOG MEASURED FROM
 TVDS.m                  43.16:  TVDSS CORRECTN
 LATI.deg                40.17:  LATITUDE
 LONG.deg                51.17:  LONGITUDE
 WHNS.m                  -5.90:  WELL HEAD N/S
 WHEW.m                  -6.61:  WELL HEAD E/W
 UTMX.m              514337.95:  UTM X
 UTMY.m             4448627.46:  UTM Y
 DFWL.m                   0.00:  DISTANCE FWL
 DFSL.m                   0.00:  DISTANCE FSL
 SDEP.m                2606.87:  START DEPTH
 TDD .m                3618.01:  TOTAL DEPTH (DRILLER)
 VSDR.deg               177.42:  VERT SEC DIRECT
 GVFD.g                   1.00:  GRAVITY FIELD
 MFLD.nT              50399.00:  MAGNETIC FIELD
 MDIP.deg                59.67:  MAGNETIC DIP
 MDEC.deg                 6.56:  MAGNETIC DECL
 GRDC.deg                 0.11:  GRID CORRECTION
 AZTC.deg                 6.45:  AZM TOTAL CORR
 EPD .m                   0.00:  ELEVATION
 EGL .m                   0.00:  GROUND ELEVATION
 WDMS.m                 176.20:  WD ELEV
 APD .m                  43.16:  DEPTH ABOVE PD
 DEP .m                2606.87:  DEPTH
 AGAP.m                  43.16:  AIR GAP
 VSEW.m                  -6.61:  VERT SEC E/W
 VSNS.m                  -5.90:  VERT SEC N/S
 EKB .m                  43.16:  KB ELEVATION
 EDF .m                  43.16:  DF ELEVATION
 TDL .m                 438.00:  TOTAL DEPTH (LOGGER)
 VSC .                       0:  VS TO CLOSURE
 MAGU.                 1855490:  MAGUTM CHECKSUM
~Parameter Information Block
#MNEM.UNIT       Value        Description
#---------     -----------    ---------------------------
 AV  .mps                 2.20:  Ann Velocity 
 AVMX.mps                 2.50:  Max Ann Veloc 
 AZIF.deg               150.21:  Azm, Final 
 BHAT.        Rotary Steerable:  BHA Type 
 BROT.°/30m               0.08:  Build Rotating 
 BS  .in                  6.50:  Bit Size 
 BSZ .in                  6.50:  Bit Size 
 BTPL.psig              108.00:  Bit Press Loss 
 CABU.                     Yes:  Customer Abuse 
 CGEO.           Emin Aliyarli:  Customer Geo 
 COMM.                     ¬¼r:  Run Comments 1 
 TCS .hr                 74.20:  Time Ciculation Ended 
 CV  .mps                 3.63:  Crit Velocity 
 CVMX.mps                 3.66:  Max Crit Veloc 
 DD1 .         Intigam Rahimov:  Direct Drillr 1 
 DD2 .          Teymur Aghayev:  Direct Drillr 2 
 DDSV.               Geo-Pilot:  DD Service 
 DEFF.%                  97.00:  % Det Eff 
 DLRX.°/30m               1.63:  Dogleg Rot Max 
 DLSO.°/30m               0.00:  Dogleg Oriented 
 DLSX.°/30m               0.00:  Dogleg Str Max 
 DRET.      20.20.00 28-Apr-21:  Drill End Time 
 DRST.      04.45.00 26-Apr-21:  Drill Start Tim 
 DTIM.hr                 34.30:  Time Drilling 
 EDEP.m                3618.01:  End Depth 
 ENG1.           Amrah Tahirov:  Engineer 1 
 ENG2.         Bahruz Mehdiyev:  Engineer 2 
 ENG3.         Farhad Orujzade:  Engineer 3 
 ETIM.      19.00.00 29-Apr-21:  End Time 
 FLOI.gpm               370.00:  Flow In 
 FLON.gpm               300.00:  Flow In Min 
 FLOS.cptm                0.00:  Fluid Loss 
 FLOX.gpm               410.00:  Flow In Max 
 HFLO.                      No:  High Flow 
 HPRE.                      No:  High Pressure 
 HTEM.                      No:  High Temp 
 HYDO.m                   1.80:  Hydro Offset 
 IFIN.deg                67.19:  Inc, Final 
 IMAX.deg                68.42:  Inc Max 
 IMIN.deg                66.33:  Inc Min 
 IMND.m                3532.79:  Inc Min Depth 
 IMXD.m                3192.15:  Inc Max Depth 
 JARR.                      No:  Jarring 
 LETM.      20.20.00 28-Apr-21:  Log End Time 
 LOST.hr                     0:  Lost Rig Time 
 LSTM.      04.45.00 26-Apr-21:  Log Start Time 
 MDCL.ppm             36500.00:  Mud Chlorides 
 MDES.     Inversion Oil/Synthetic:  Mud Desc 
 DFD .sg                  1.42:  Mud Density 
 MDMN.sg                  1.42:  Dens Mud Min 
 MDMX.sg                  1.42:  Dens Mud Max 
 MOIL.                    55.7:  Run Mud Oil % 
 MOWR.                   71:29:  Run Mud OWR 
 MSND.                     0.1:  Run Mud Sand % 
 MSOL.                    19.9:  Run Mud Solids% 
 DFV .spqt               83.00:  Mud Viscosity 
 MWOD.in                  5.15:  MWD Tool OD 
 MWSI.                      No:  Serv Intrp, MWD 
 OTIM.hr                120.59:  Time Operating 
 PCON.           Look Like New:  Pad Condition 
 PMAX.psia            11292.93:  Press Op, Max 
 PV  .cP                 27.00:  Mud PV 
 RUN .                     400:  Run Number 
 ROPA.m/hr               14.00:  ROP Avg 
 ROPN.m/hr                9.00:  ROP Min 
 ROPX.m/hr               18.00:  ROP Max 
 RPMA.rpm               130.00:  RPM Surface Avg 
 RPMN.rpm               100.00:  RPM Surface Min 
 RPMX.rpm               140.00:  RPM Surface Max 
 RRUN.                    0400:  Rig Run Number 
 RTIM.hr                 38.60:  Time Reaming 
 SAZI.deg               149.55:  Azm, Start 
 SDEP.m                3180.01:  Start Depth 
 SIDD.                      No:  Serv Intrp, DD 
 SINC.deg                68.42:  Inc, Start 
 SPPA.psig             4400.00:  SPP Avg 
 SPPN.psig             3580.00:  SPP Min 
 SPPX.psig             4850.00:  SPP Max 
 STIM.      12.30.00 24-Apr-21:  Start Time 
 SVCS.                 DD, MWD:  Services 
 SVER.                    9.20:  Sperry Version 
 TDAT.m                 438.00:  Tot Depth Attmp 
 TDDF.                      No:  Trip for DD 
 TDLG.m                 438.00:  Tot Depth Loggd 
 TFF .                      No:  Trip for Fail 
 TQAA.f-kp               11.00:  Torque Abs Avg 
 TQAN.f-kp                9.00:  Torque Abs Min 
 TQAX.f-kp               14.00:  Torque Abs Max 
 TRRT.°/30m               0.04:  Turn Rotating 
 MRT .                    HCIM:  Maximum Recorded Temperature 
 TTMX.degC               84.31:  Max Tool Temp 
 VS01.                90521954:  Virtual Str1 SN 
 VS02.                90519327:  Virtual Str2 SN 
 VS03.                90522273:  Virtual Str3 SN 
 VS04.                11108038:  Virtual Str4 SN 
 VS05.                12258760:  Virtual Str5 SN 
 WBMN.klb                 1.00:  WOB Min 
 WITN.           Adil Mammadov:  Customer Rep 
 WITN.         Alex Yadullayev:  Customer Rep 2 
 WOBA.klb                 6.00:  WOB Avg 
 WOBX.klb                 9.00:  WOB Max 
 YP  .lhf2               31.00:  Yield Point 
~Curve Information Block
#MNEM.UNIT                 API CODE     Curve Description
#---------               -----------    ---------------------------
 TIME.HHMMSS            00 000 000 000:  GT Time & Date
 GTDEPTH.m              00 000 000 000:  GT Depth
 GTPQH.psia             00 000 000 000:  GT HR Quartz Pressure
 GTTQ.degC              00 000 000 000:  GT Quartz Temperature
 GTTN.NONE              00 000 000 000:  GT Test Number
 GTET.sec               00 000 000 000:  GT Elapsed Test Time
 GTTVD.m                00 000 000 000:  GT True Vertical Depth
#Other Information
#
#WARRANTY: Halliburton will use its best efforts to furnish customers with 
#accurate information and interpretations that are part of, and incident to, the services 
#provided.  However, Halliburton cannot and does not warrant the accuracy 
#or correctness of such information and interpretations.  Under no circumstances should any 
#such information or interpretation be relied upon as the sole basis for any drilling, 
#completion, production, or financial decision or any procedure involving any risk to the 
#safety of any drilling venture, drilling rig or its crew or any other third party.  The 
#Customer has full responsibility for all drilling, completion and production operation.  
#Halliburton makes no representations or warranties, either expressed or 
#implied, including, but not limited to, the implied warranties of merchantability or fitness 
#for a particular purpose, with respect to the services rendered.  In no event will 
#Halliburton be liable for failure to obtain any particular results or for 
#any damages, including, but not limited to, indirect, special or consequential damages, 
#resulting from the use of any information or interpretation provided by Halliburton.
#
~A           TIME           GTDEPTH  GTPQH  GTTQ  GTTN  GTET   GTTVD  
# ...
   03:15:27.835.28-Apr-2021 3448.01 3696.37 72.09 7.00 161.02 2738.99
   03:15:28.035.28-Apr-2021 3448.01 3696.37 72.09 7.00 161.22 2738.99
   03:15:28.235.28-Apr-2021 3448.01 3696.31 72.09 7.00 161.42 2738.99
   03:15:28.435.28-Apr-2021 3448.01 3696.37 72.09 7.00 161.62 2738.99
   03:15:28.635.28-Apr-2021 3448.01 3696.35 72.09 7.00 161.82 2738.99
   03:15:28.835.28-Apr-2021 3448.01 3696.34 72.08 7.00 162.02 2738.99
   03:15:29.035.28-Apr-2021 3448.01 3696.34 72.08 7.00 162.22 2738.99
   03:15:29.235.28-Apr-2021 3448.01 3696.25 72.08 7.00 162.42 2738.99
   03:15:29.435.28-Apr-2021 3448.01 3696.37 72.08 7.00 162.62 2738.99
   03:15:29.635.28-Apr-2021 3448.01 3695.95 72.08 7.00 162.82 2738.99
   03:15:29.835.28-Apr-2021 3448.01 3696.57 72.08 7.00 163.02 2738.99
   03:15:30.035.28-Apr-2021 3448.01 3696.57 72.08 7.00 163.22 2738.99
   03:15:30.235.28-Apr-2021 3448.01 3696.39 72.08 7.00 163.42 2738.99
   03:15:30.435.28-Apr-2021 3448.01 3696.21 72.08 7.00 163.62 2738.99
   03:15:30.635.28-Apr-2021 3448.01 3696.32 72.08 7.00 163.82 2738.99
   03:15:30.835.28-Apr-2021 3448.01 3696.50 72.08 7.00 164.02 2738.99
   03:15:31.035.28-Apr-2021 3448.01 3696.50 72.08 7.00 164.22 2738.99
   03:15:31.235.28-Apr-2021 3448.01 3696.33 72.08 7.00 164.42 2738.99
   03:15:31.435.28-Apr-2021 3448.01 3696.40 72.08 7.00 164.62 2738.99
   03:15:31.636.28-Apr-2021 3448.01 3696.18 72.08 7.00 164.82 2738.99
   03:15:31.836.28-Apr-2021 3448.01 3696.40 72.08 7.00 165.02 2738.99
   03:15:32.036.28-Apr-2021 3448.01 3696.40 72.08 7.00 165.22 2738.99
   03:15:32.236.28-Apr-2021 3448.01 3696.48 72.08 7.00 165.42 2738.99
   03:15:32.436.28-Apr-2021 3448.01 3696.13 72.08 7.00 165.62 2738.99
   03:15:32.636.28-Apr-2021 3448.01 3696.38 72.08 7.00 165.82 2738.99
   03:15:32.836.28-Apr-2021 3448.01 3696.40 72.08 7.00 166.02 2738.99
   03:15:33.036.28-Apr-2021 3448.01 3696.40 72.08 7.00 166.22 2738.99
   03:15:33.236.28-Apr-2021 3448.01 3696.34 72.08 7.00 166.42 2738.99
   03:15:33.436.28-Apr-2021 3448.01 3696.36 72.08 7.00 166.62 2738.99
   03:15:33.636.28-Apr-2021 3448.01 3696.44 72.08 7.00 166.82 2738.99
   03:15:33.836.28-Apr-2021 3448.01 3696.32 72.08 7.00 167.02 2738.99
   03:15:34.036.28-Apr-2021 3448.01 3696.32 72.08 7.00 167.22 2738.99
   03:15:34.236.28-Apr-2021 3448.01 3696.33 72.07 7.00 167.42 2738.99
   03:15:34.436.28-Apr-2021 3448.01 3696.36 72.07 7.00 167.62 2738.99
   03:15:34.636.28-Apr-2021 3448.01 3696.34 72.07 7.00 167.82 2738.99
   03:15:34.836.28-Apr-2021 3448.01 3696.27 72.07 7.00 168.02 2738.99
   03:15:35.036.28-Apr-2021 3448.01 3696.27 72.07 7.00 168.22 2738.99
   03:15:35.236.28-Apr-2021 3448.01 3695.96 72.07 7.00 168.42 2738.99
   03:15:35.436.28-Apr-2021 3448.01 3696.54 72.07 7.00 168.62 2738.99
   03:15:35.636.28-Apr-2021 3448.01 3696.34 72.07 7.00 168.82 2738.99
   03:15:35.836.28-Apr-2021 3448.01 3696.38 72.07 7.00 169.02 2738.99
   03:15:36.036.28-Apr-2021 3448.01 3696.38 72.07 7.00 169.22 2738.99
   03:15:36.236.28-Apr-2021 3448.01 3696.33 72.07 7.00 169.42 2738.99
   03:15:36.436.28-Apr-2021 3448.01 3696.40 72.07 7.00 169.62 2738.99
   03:15:36.636.28-Apr-2021 3448.01 3696.28 72.07 7.00 169.83 2738.99
   03:15:36.836.28-Apr-2021 3448.01 3696.41 72.07 7.00 170.03 2738.99
   03:15:37.036.28-Apr-2021 3448.01 3696.41 72.07 7.00 170.23 2738.99
   03:15:37.236.28-Apr-2021 3448.01 3696.36 72.07 7.00 170.43 2738.99
   03:15:37.436.28-Apr-2021 3448.01 3696.32 72.07 7.00 170.63 2738.99
   03:15:37.636.28-Apr-2021 3448.01 3696.27 72.07 7.00 170.83 2738.99
   03:15:37.836.28-Apr-2021 3448.01 3696.32 72.07 7.00 171.03 2738.99
   03:15:38.036.28-Apr-2021 3448.01 3696.32 72.07 7.00 171.23 2738.99
   03:15:38.236.28-Apr-2021 3448.01 3696.54 72.07 7.00 171.43 2738.99
   03:15:38.437.28-Apr-2021 3448.01 3696.38 72.07 7.00 171.63 2738.99
   03:15:38.637.28-Apr-2021 3448.01 3696.30 72.07 7.00 171.83 2738.99
   03:15:38.837.28-Apr-2021 3448.01 3695.98 72.07 7.00 172.03 2738.99
   03:15:39.037.28-Apr-2021 3448.01 3695.98 72.07 7.00 172.23 2738.99
   03:15:39.237.28-Apr-2021 3448.01 3696.45 72.07 7.00 172.43 2738.99
   03:15:39.437.28-Apr-2021 3448.01 3696.27 72.07 7.00 172.63 2738.99
   03:15:39.637.28-Apr-2021 3448.01 3696.39 72.07 7.00 172.83 2738.99
   03:15:39.837.28-Apr-2021 3448.01 3696.36 72.07 7.00 173.03 2738.99
   03:15:40.037.28-Apr-2021 3448.01 3696.36 72.07 7.00 173.23 2738.99
   03:15:40.237.28-Apr-2021 3448.01 3696.63 72.06 7.00 173.43 2738.99
   03:15:40.437.28-Apr-2021 3448.01 3696.43 72.06 7.00 173.63 2738.99
   03:15:40.637.28-Apr-2021 3448.01 3696.38 72.06 7.00 173.83 2738.99
   03:15:40.837.28-Apr-2021 3448.01 3695.93 72.06 7.00 174.03 2738.99
   03:15:41.037.28-Apr-2021 3448.01 3695.93 72.06 7.00 174.23 2738.99
   03:15:41.237.28-Apr-2021 3448.01 3696.40 72.06 7.00 174.43 2738.99
   03:15:41.437.28-Apr-2021 3448.01 3696.33 72.06 7.00 174.63 2738.99
   03:15:41.637.28-Apr-2021 3448.01 3696.37 72.06 7.00 174.83 2738.99
   03:15:41.837.28-Apr-2021 3448.01 3696.31 72.06 7.00 175.03 2738.99
   03:15:42.037.28-Apr-2021 3448.01 3696.31 72.06 7.00 175.23 2738.99
   03:15:42.237.28-Apr-2021 3448.01 3696.24 72.06 7.00 175.43 2738.99
   03:15:42.437.28-Apr-2021 3448.01 3696.38 72.06 7.00 175.63 2738.99
   03:15:42.637.28-Apr-2021 3448.01 3696.30 72.06 7.00 175.83 2738.99
   03:15:42.837.28-Apr-2021 3448.01 3696.35 72.06 7.00 176.03 2738.99
   03:15:43.037.28-Apr-2021 3448.01 3696.35 72.06 7.00 176.23 2738.99
   03:15:43.237.28-Apr-2021 3448.01 3696.29 72.06 7.00 176.43 2738.99
   03:15:43.437.28-Apr-2021 3448.01 3696.31 72.06 7.00 176.63 2738.99
   03:15:43.637.28-Apr-2021 3448.01 3696.01 72.06 7.00 176.83 2738.99
   03:15:43.837.28-Apr-2021 3448.01 3696.53 72.06 7.00 177.03 2738.99
   03:15:44.037.28-Apr-2021 3448.01 3696.53 72.06 7.00 177.23 2738.99
   03:15:44.237.28-Apr-2021 3448.01 3696.31 72.06 7.00 177.43 2738.99
   03:15:44.437.28-Apr-2021 3448.01 3696.39 72.06 7.00 177.63 2738.99
   03:15:44.637.28-Apr-2021 3448.01 3696.29 72.06 7.00 177.83 2738.99
   03:15:44.837.28-Apr-2021 3448.01 3696.37 72.06 7.00 178.03 2738.99
   03:15:45.037.28-Apr-2021 3448.01 3696.37 72.06 7.00 178.23 2738.99
   03:15:45.238.28-Apr-2021 3448.01 3696.39 72.06 7.00 178.43 2738.99
   03:15:45.438.28-Apr-2021 3448.01 3696.27 72.06 7.00 178.63 2738.99
   03:15:45.638.28-Apr-2021 3448.01 3696.35 72.05 7.00 178.83 2738.99
   03:15:45.838.28-Apr-2021 3448.01 3696.27 72.05 7.00 179.03 2738.99
   03:15:46.038.28-Apr-2021 3448.01 3696.27 72.05 7.00 179.23 2738.99
   03:15:46.238.28-Apr-2021 3448.01 3696.03 72.05 7.00 179.43 2738.99
   03:15:46.438.28-Apr-2021 3448.01 3696.46 72.05 7.00 179.63 2738.99
   03:15:46.638.28-Apr-2021 3448.01 3696.37 72.05 7.00 179.83 2738.99
   03:15:46.838.28-Apr-2021 3448.01 3696.33 72.05 7.00 180.03 2738.99
   03:15:47.038.28-Apr-2021 3448.01 3696.33 72.05 7.00 180.23 2738.99
   03:15:47.238.28-Apr-2021 3448.01 3696.33 72.05 7.00 180.43 2738.99
   03:15:47.438.28-Apr-2021 3448.01 3696.39 72.05 7.00 180.63 2738.99
   03:15:47.638.28-Apr-2021 3448.01 3696.43 72.05 7.00 180.83 2738.99
   03:15:47.838.28-Apr-2021 3448.01 3696.23 72.05 7.00 181.03 2738.99
   03:15:48.038.28-Apr-2021 3448.01 3696.23 72.05 7.00 181.23 2738.99
   03:15:48.238.28-Apr-2021 3448.01 3696.13 72.05 7.00 181.43 2738.99
   03:15:48.438.28-Apr-2021 3448.01 3696.35 72.05 7.00 181.63 2738.99
   03:15:48.638.28-Apr-2021 3448.01 3696.38 72.05 7.00 181.83 2738.99
   03:15:48.838.28-Apr-2021 3448.01 3696.36 72.05 7.00 182.03 2738.99
   03:15:49.038.28-Apr-2021 3448.01 3696.36 72.05 7.00 182.23 2738.99
   03:15:49.238.28-Apr-2021 3448.01 3696.29 72.05 7.00 182.43 2738.99
   03:15:49.438.28-Apr-2021 3448.01 3696.43 72.05 7.00 182.63 2738.99
   03:15:49.638.28-Apr-2021 3448.01 3696.38 72.05 7.00 182.83 2738.99
   03:15:49.838.28-Apr-2021 3448.01 3696.27 72.05 7.00 183.03 2738.99
   03:15:50.038.28-Apr-2021 3448.01 3696.27 72.05 7.00 183.23 2738.99
   03:15:50.238.28-Apr-2021 3448.01 3696.33 72.05 7.00 183.43 2738.99
   03:15:50.438.28-Apr-2021 3448.01 3696.38 72.05 7.00 183.63 2738.99
   03:15:50.638.28-Apr-2021 3448.01 3696.24 72.05 7.00 183.83 2738.99
