~Version Information
 VERS.                  2.0:   CWLS log ASCII Standard -VERSION 2.0
 WRAP.                   NO:   One line per depth step
~Well Information Block
#MNEM.UNIT     VALUE/NAME     DESCRIPTION
#---------     -----------    ---------------------------
 STRT.S             19:03:38 27-Apr-21: START TIME 19:03:38 27-Apr-21
 STOP.S             19:10:06 27-Apr-21: STOP TIME  19:10:06 27-Apr-21
 STEP.S                   0.00: STEP TIME
 NULL.                 -999.25: NULL VALUE
 DFWT.                        :  DIST FWL TEXT
 DFST.                        :  DIST FSL TEXT
 DMF .             Drill Floor:  DRILL MEAS FROM
 STIM.      02.00.00 12-Apr-21:  START TIME
 DATE.      02.00.00 02-May-21:  END TIME
 SPUD.               09-Apr-21:  SPUD DATE
 NREF.                    Grid:  NORTH REFERENCE
 HPTY.       Minimum Curvature:  HOLE POS TYPE
 DMOD.             Drill Model:  DRILL MOD DESC
 SVYD.                  Survey:  SURVEY DESC
 ILTD.               Lithology:  INTERP LTH DESC
 FTOP.          Formation Tops:  FORM TOPS DESC
 PDAT.          Mean Sea Level:  PERMANENT DATUM
 FLD .                     ACG:  FIELD NAME
 SON .        AZ-XX-0907021034:  JOB NUMBER
 CTRY.              Azerbaijan:  COUNTRY NAME
 WELL.                    E01x:  WELL NAME
 COMP.     BP Exploration (Caspian Sea) LTD.:  COMPANY
 UWI .            /AZE00001403:  UNIQUE WELL IDENTIFIER
 API .            /AZE00001403:  API NUMBER
 WTYP.                Deviated:  WELL TYPE
 MDS .        Operator Entered:  MAG DATA SOURCE
 BASE.              Azerbaijan:  LOGGING EQUIPMENT BASE LOCATION
 REGN.                   EESSA:  REGION
 PROV.                    Baku:  PROVINCE
 STAT.                    Baku:  STATE NAME
 SRVC.          Turan Drilling:  CONTRACTOR
 MWDS.                    Baku:  MWD SHOP
 JOBN.        AZ-XX-0907021034:  JOB TICKET NUMB
 RIG .                     DWG:  RIG NAME
 DOE .                     N/A:  DOE NUMBER
 DCON.         Sperry Drilling:  DIRECTNL CONTR
 UNIT.                     N/A:  LOGGING EQUIPMENT ID
 CNTY.                        :  COUNTY
 LOC .                        :  LOCATION
 LMF .             Drill Floor:  LOG MEASURED FROM
 TVDS.m                  43.16:  TVDSS CORRECTN
 LATI.deg                40.17:  LATITUDE
 LONG.deg                51.17:  LONGITUDE
 WHNS.m                  -5.90:  WELL HEAD N/S
 WHEW.m                  -6.61:  WELL HEAD E/W
 UTMX.m              514337.95:  UTM X
 UTMY.m             4448627.46:  UTM Y
 DFWL.m                   0.00:  DISTANCE FWL
 DFSL.m                   0.00:  DISTANCE FSL
 SDEP.m                2606.87:  START DEPTH
 TDD .m                3618.01:  TOTAL DEPTH (DRILLER)
 VSDR.deg               177.42:  VERT SEC DIRECT
 GVFD.g                   1.00:  GRAVITY FIELD
 MFLD.nT              50399.00:  MAGNETIC FIELD
 MDIP.deg                59.67:  MAGNETIC DIP
 MDEC.deg                 6.56:  MAGNETIC DECL
 GRDC.deg                 0.11:  GRID CORRECTION
 AZTC.deg                 6.45:  AZM TOTAL CORR
 EPD .m                   0.00:  ELEVATION
 EGL .m                   0.00:  GROUND ELEVATION
 WDMS.m                 176.20:  WD ELEV
 APD .m                  43.16:  DEPTH ABOVE PD
 DEP .m                2606.87:  DEPTH
 AGAP.m                  43.16:  AIR GAP
 VSEW.m                  -6.61:  VERT SEC E/W
 VSNS.m                  -5.90:  VERT SEC N/S
 EKB .m                  43.16:  KB ELEVATION
 EDF .m                  43.16:  DF ELEVATION
 TDL .m                 438.00:  TOTAL DEPTH (LOGGER)
 VSC .                       0:  VS TO CLOSURE
 MAGU.                 1855490:  MAGUTM CHECKSUM
~Parameter Information Block
#MNEM.UNIT       Value        Description
#---------     -----------    ---------------------------
 AV  .mps                 2.20:  Ann Velocity 
 AVMX.mps                 2.50:  Max Ann Veloc 
 AZIF.deg               150.21:  Azm, Final 
 BHAT.        Rotary Steerable:  BHA Type 
 BROT.°/30m               0.08:  Build Rotating 
 BS  .in                  6.50:  Bit Size 
 BSZ .in                  6.50:  Bit Size 
 BTPL.psig              108.00:  Bit Press Loss 
 CABU.                     Yes:  Customer Abuse 
 CGEO.           Emin Aliyarli:  Customer Geo 
 COMM.                     LÊS:  Run Comments 1 
 TCS .hr                 74.20:  Time Ciculation Ended 
 CV  .mps                 3.63:  Crit Velocity 
 CVMX.mps                 3.66:  Max Crit Veloc 
 DD1 .         Intigam Rahimov:  Direct Drillr 1 
 DD2 .          Teymur Aghayev:  Direct Drillr 2 
 DDSV.               Geo-Pilot:  DD Service 
 DEFF.%                  97.00:  % Det Eff 
 DLRX.°/30m               1.63:  Dogleg Rot Max 
 DLSO.°/30m               0.00:  Dogleg Oriented 
 DLSX.°/30m               0.00:  Dogleg Str Max 
 DRET.      20.20.00 28-Apr-21:  Drill End Time 
 DRST.      04.45.00 26-Apr-21:  Drill Start Tim 
 DTIM.hr                 34.30:  Time Drilling 
 EDEP.m                3618.01:  End Depth 
 ENG1.           Amrah Tahirov:  Engineer 1 
 ENG2.         Bahruz Mehdiyev:  Engineer 2 
 ENG3.         Farhad Orujzade:  Engineer 3 
 ETIM.      19.00.00 29-Apr-21:  End Time 
 FLOI.gpm               370.00:  Flow In 
 FLON.gpm               300.00:  Flow In Min 
 FLOS.cptm                0.00:  Fluid Loss 
 FLOX.gpm               410.00:  Flow In Max 
 HFLO.                      No:  High Flow 
 HPRE.                      No:  High Pressure 
 HTEM.                      No:  High Temp 
 HYDO.m                   1.80:  Hydro Offset 
 IFIN.deg                67.19:  Inc, Final 
 IMAX.deg                68.42:  Inc Max 
 IMIN.deg                66.33:  Inc Min 
 IMND.m                3532.79:  Inc Min Depth 
 IMXD.m                3192.15:  Inc Max Depth 
 JARR.                      No:  Jarring 
 LETM.      20.20.00 28-Apr-21:  Log End Time 
 LOST.hr                     0:  Lost Rig Time 
 LSTM.      04.45.00 26-Apr-21:  Log Start Time 
 MDCL.ppm             36500.00:  Mud Chlorides 
 MDES.     Inversion Oil/Synthetic:  Mud Desc 
 DFD .sg                  1.42:  Mud Density 
 MDMN.sg                  1.42:  Dens Mud Min 
 MDMX.sg                  1.42:  Dens Mud Max 
 MOIL.                    55.7:  Run Mud Oil % 
 MOWR.                   71:29:  Run Mud OWR 
 MSND.                     0.1:  Run Mud Sand % 
 MSOL.                    19.9:  Run Mud Solids% 
 DFV .spqt               83.00:  Mud Viscosity 
 MWOD.in                  5.15:  MWD Tool OD 
 MWSI.                      No:  Serv Intrp, MWD 
 OTIM.hr                120.59:  Time Operating 
 PCON.           Look Like New:  Pad Condition 
 PMAX.psia            11292.93:  Press Op, Max 
 PV  .cP                 27.00:  Mud PV 
 RUN .                     400:  Run Number 
 ROPA.m/hr               14.00:  ROP Avg 
 ROPN.m/hr                9.00:  ROP Min 
 ROPX.m/hr               18.00:  ROP Max 
 RPMA.rpm               130.00:  RPM Surface Avg 
 RPMN.rpm               100.00:  RPM Surface Min 
 RPMX.rpm               140.00:  RPM Surface Max 
 RRUN.                    0400:  Rig Run Number 
 RTIM.hr                 38.60:  Time Reaming 
 SAZI.deg               149.55:  Azm, Start 
 SDEP.m                3180.01:  Start Depth 
 SIDD.                      No:  Serv Intrp, DD 
 SINC.deg                68.42:  Inc, Start 
 SPPA.psig             4400.00:  SPP Avg 
 SPPN.psig             3580.00:  SPP Min 
 SPPX.psig             4850.00:  SPP Max 
 STIM.      12.30.00 24-Apr-21:  Start Time 
 SVCS.                 DD, MWD:  Services 
 SVER.                    9.20:  Sperry Version 
 TDAT.m                 438.00:  Tot Depth Attmp 
 TDDF.                      No:  Trip for DD 
 TDLG.m                 438.00:  Tot Depth Loggd 
 TFF .                      No:  Trip for Fail 
 TQAA.f-kp               11.00:  Torque Abs Avg 
 TQAN.f-kp                9.00:  Torque Abs Min 
 TQAX.f-kp               14.00:  Torque Abs Max 
 TRRT.°/30m               0.04:  Turn Rotating 
 MRT .                    HCIM:  Maximum Recorded Temperature 
 TTMX.degC               84.31:  Max Tool Temp 
 VS01.                90521954:  Virtual Str1 SN 
 VS02.                90519327:  Virtual Str2 SN 
 VS03.                90522273:  Virtual Str3 SN 
 VS04.                11108038:  Virtual Str4 SN 
 VS05.                12258760:  Virtual Str5 SN 
 WBMN.klb                 1.00:  WOB Min 
 WITN.           Adil Mammadov:  Customer Rep 
 WITN.         Alex Yadullayev:  Customer Rep 2 
 WOBA.klb                 6.00:  WOB Avg 
 WOBX.klb                 9.00:  WOB Max 
 YP  .lhf2               31.00:  Yield Point 
~Curve Information Block
#MNEM.UNIT                 API CODE     Curve Description
#---------               -----------    ---------------------------
 TIME.HHMMSS            00 000 000 000:  GT Time & Date
 GTDEPTH.m              00 000 000 000:  GT Depth
 GTPQH.psia             00 000 000 000:  GT HR Quartz Pressure
 GTTQ.degC              00 000 000 000:  GT Quartz Temperature
 GTTN.NONE              00 000 000 000:  GT Test Number
 GTET.sec               00 000 000 000:  GT Elapsed Test Time
 GTTVD.m                00 000 000 000:  GT True Vertical Depth
#Other Information
#
#WARRANTY: Halliburton will use its best efforts to furnish customers with 
#accurate information and interpretations that are part of, and incident to, the services 
#provided.  However, Halliburton cannot and does not warrant the accuracy 
#or correctness of such information and interpretations.  Under no circumstances should any 
#such information or interpretation be relied upon as the sole basis for any drilling, 
#completion, production, or financial decision or any procedure involving any risk to the 
#safety of any drilling venture, drilling rig or its crew or any other third party.  The 
#Customer has full responsibility for all drilling, completion and production operation.  
#Halliburton makes no representations or warranties, either expressed or 
#implied, including, but not limited to, the implied warranties of merchantability or fitness 
#for a particular purpose, with respect to the services rendered.  In no event will 
#Halliburton be liable for failure to obtain any particular results or for 
#any damages, including, but not limited to, indirect, special or consequential damages, 
#resulting from the use of any information or interpretation provided by Halliburton.
#
~A           TIME           GTDEPTH  GTPQH  GTTQ  GTTN  GTET   GTTVD  
# ...
   19:07:28.683.27-Apr-2021 3392.01 3473.46 72.88 5.00 230.06 2716.87
   19:07:28.883.27-Apr-2021 3392.01 3473.46 72.88 5.00 230.26 2716.87
   19:07:29.083.27-Apr-2021 3392.01 3473.59 72.88 5.00 230.46 2716.87
   19:07:29.283.27-Apr-2021 3392.01 3473.51 72.88 5.00 230.66 2716.87
   19:07:29.483.27-Apr-2021 3392.01 3473.61 72.88 5.00 230.86 2716.87
   19:07:29.683.27-Apr-2021 3392.01 3473.38 72.87 5.00 231.06 2716.87
   19:07:29.883.27-Apr-2021 3392.01 3473.38 72.87 5.00 231.26 2716.87
   19:07:30.083.27-Apr-2021 3392.01 3473.58 72.87 5.00 231.46 2716.87
   19:07:30.283.27-Apr-2021 3392.01 3473.55 72.87 5.00 231.66 2716.87
   19:07:30.483.27-Apr-2021 3392.01 3473.56 72.87 5.00 231.86 2716.87
   19:07:30.684.27-Apr-2021 3392.01 3473.47 72.87 5.00 232.06 2716.87
   19:07:30.884.27-Apr-2021 3392.01 3473.47 72.87 5.00 232.26 2716.87
   19:07:31.084.27-Apr-2021 3392.01 3473.54 72.87 5.00 232.46 2716.87
   19:07:31.284.27-Apr-2021 3392.01 3473.57 72.87 5.00 232.66 2716.87
   19:07:31.484.27-Apr-2021 3392.01 3473.57 72.87 5.00 232.86 2716.87
   19:07:31.684.27-Apr-2021 3392.01 3473.58 72.87 5.00 233.06 2716.87
   19:07:31.884.27-Apr-2021 3392.01 3473.58 72.87 5.00 233.26 2716.87
   19:07:32.084.27-Apr-2021 3392.01 3473.58 72.87 5.00 233.46 2716.87
   19:07:32.284.27-Apr-2021 3392.01 3473.53 72.87 5.00 233.66 2716.87
   19:07:32.484.27-Apr-2021 3392.01 3473.54 72.87 5.00 233.86 2716.87
   19:07:32.684.27-Apr-2021 3392.01 3473.57 72.87 5.00 234.06 2716.87
   19:07:32.884.27-Apr-2021 3392.01 3473.57 72.87 5.00 234.26 2716.87
   19:07:33.084.27-Apr-2021 3392.01 3473.55 72.87 5.00 234.46 2716.87
   19:07:33.284.27-Apr-2021 3392.01 3473.52 72.87 5.00 234.66 2716.87
   19:07:33.484.27-Apr-2021 3392.01 3473.35 72.87 5.00 234.86 2716.87
   19:07:33.684.27-Apr-2021 3392.01 3473.60 72.87 5.00 235.06 2716.87
   19:07:33.884.27-Apr-2021 3392.01 3473.60 72.87 5.00 235.26 2716.87
   19:07:34.084.27-Apr-2021 3392.01 3473.50 72.86 5.00 235.46 2716.87
   19:07:34.284.27-Apr-2021 3392.01 3473.57 72.86 5.00 235.66 2716.87
   19:07:34.484.27-Apr-2021 3392.01 3473.54 72.86 5.00 235.86 2716.87
   19:07:34.684.27-Apr-2021 3392.01 3473.53 72.86 5.00 236.06 2716.87
   19:07:34.885.27-Apr-2021 3392.01 3473.53 72.86 5.00 236.26 2716.87
   19:07:35.085.27-Apr-2021 3392.01 3473.52 72.86 5.00 236.46 2716.87
   19:07:35.285.27-Apr-2021 3392.01 3473.56 72.86 5.00 236.66 2716.87
   19:07:35.485.27-Apr-2021 3392.01 3473.52 72.86 5.00 236.86 2716.87
   19:07:35.685.27-Apr-2021 3392.01 3473.53 72.86 5.00 237.06 2716.87
   19:07:35.885.27-Apr-2021 3392.01 3473.53 72.86 5.00 237.26 2716.87
   19:07:36.085.27-Apr-2021 3392.01 3469.64 72.86 5.00 237.46 2716.87
   19:07:36.285.27-Apr-2021 3392.01 3457.95 72.86 5.00 237.66 2716.87
   19:07:36.485.27-Apr-2021 3392.01 3458.11 72.86 5.00 237.86 2716.87
   19:07:36.685.27-Apr-2021 3392.01 3458.24 72.86 5.00 238.06 2716.87
   19:07:36.885.27-Apr-2021 3392.01 3458.24 72.86 5.00 238.26 2716.87
   19:07:37.085.27-Apr-2021 3392.01 3458.06 72.86 5.00 238.46 2716.87
   19:07:37.285.27-Apr-2021 3392.01 3457.23 72.86 5.00 238.66 2716.87
   19:07:37.485.27-Apr-2021 3392.01 3458.31 72.86 5.00 238.86 2716.87
   19:07:37.685.27-Apr-2021 3392.01 3457.82 72.86 5.00 239.06 2716.87
   19:07:37.885.27-Apr-2021 3392.01 3457.82 72.86 5.00 239.26 2716.87
   19:07:38.085.27-Apr-2021 3392.01 3457.64 72.86 5.00 239.46 2716.87
   19:07:38.285.27-Apr-2021 3392.01 3457.88 72.86 5.00 239.66 2716.87
   19:07:38.485.27-Apr-2021 3392.01 3457.72 72.86 5.00 239.86 2716.87
   19:07:38.685.27-Apr-2021 3392.01 3457.76 72.85 5.00 240.06 2716.87
   19:07:38.886.27-Apr-2021 3392.01 3457.76 72.85 5.00 240.26 2716.87
   19:07:39.086.27-Apr-2021 3392.01 3457.79 72.85 5.00 240.46 2716.87
   19:07:39.286.27-Apr-2021 3392.01 3457.38 72.85 5.00 240.66 2716.87
   19:07:39.486.27-Apr-2021 3392.01 3458.15 72.85 5.00 240.86 2716.87
   19:07:39.686.27-Apr-2021 3392.01 3458.05 72.85 5.00 241.06 2716.87
   19:07:39.886.27-Apr-2021 3392.01 3458.05 72.85 5.00 241.26 2716.87
   19:07:40.086.27-Apr-2021 3392.01 3457.98 72.85 5.00 241.46 2716.87
   19:07:40.286.27-Apr-2021 3392.01 3457.90 72.85 5.00 241.66 2716.87
   19:07:40.486.27-Apr-2021 3392.01 3457.88 72.85 5.00 241.86 2716.87
   19:07:40.686.27-Apr-2021 3392.01 3457.78 72.85 5.00 242.06 2716.87
   19:07:40.886.27-Apr-2021 3392.01 3457.78 72.85 5.00 242.26 2716.87
   19:07:41.086.27-Apr-2021 3392.01 3457.87 72.85 5.00 242.46 2716.87
   19:07:41.286.27-Apr-2021 3392.01 3457.68 72.85 5.00 242.66 2716.87
   19:07:41.486.27-Apr-2021 3392.01 3457.76 72.85 5.00 242.86 2716.87
   19:07:41.686.27-Apr-2021 3392.01 3457.77 72.85 5.00 243.06 2716.87
   19:07:41.886.27-Apr-2021 3392.01 3457.77 72.85 5.00 243.26 2716.87
   19:07:42.086.27-Apr-2021 3392.01 3457.83 72.85 5.00 243.46 2716.87
   19:07:42.286.27-Apr-2021 3392.01 3457.67 72.85 5.00 243.66 2716.87
   19:07:42.486.27-Apr-2021 3392.01 3457.50 72.85 5.00 243.86 2716.87
   19:07:42.686.27-Apr-2021 3392.01 3457.73 72.85 5.00 244.06 2716.87
   19:07:42.886.27-Apr-2021 3392.01 3457.73 72.85 5.00 244.26 2716.87
   19:07:43.087.27-Apr-2021 3392.01 3457.45 72.84 5.00 244.46 2716.87
   19:07:43.287.27-Apr-2021 3392.01 3457.68 72.84 5.00 244.66 2716.87
   19:07:43.487.27-Apr-2021 3392.01 3457.46 72.84 5.00 244.86 2716.87
   19:07:43.687.27-Apr-2021 3392.01 3457.65 72.84 5.00 245.06 2716.87
   19:07:43.887.27-Apr-2021 3392.01 3457.65 72.84 5.00 245.26 2716.87
   19:07:44.087.27-Apr-2021 3392.01 3458.16 72.84 5.00 245.46 2716.87
   19:07:44.287.27-Apr-2021 3392.01 3458.17 72.84 5.00 245.66 2716.87
   19:07:44.487.27-Apr-2021 3392.01 3458.00 72.84 5.00 245.86 2716.87
   19:07:44.687.27-Apr-2021 3392.01 3457.27 72.84 5.00 246.06 2716.87
   19:07:44.887.27-Apr-2021 3392.01 3457.27 72.84 5.00 246.26 2716.87
   19:07:45.087.27-Apr-2021 3392.01 3457.85 72.84 5.00 246.46 2716.87
   19:07:45.287.27-Apr-2021 3392.01 3457.24 72.84 5.00 246.66 2716.87
   19:07:45.487.27-Apr-2021 3392.01 3457.72 72.84 5.00 246.86 2716.87
   19:07:45.687.27-Apr-2021 3392.01 3456.81 72.84 5.00 247.06 2716.87
   19:07:45.887.27-Apr-2021 3392.01 3456.81 72.84 5.00 247.26 2716.87
   19:07:46.087.27-Apr-2021 3392.01 3457.38 72.84 5.00 247.46 2716.87
   19:07:46.287.27-Apr-2021 3392.01 3457.42 72.84 5.00 247.66 2716.87
   19:07:46.487.27-Apr-2021 3392.01 3472.24 72.84 5.00 247.86 2716.87
   19:07:46.687.27-Apr-2021 3392.01 3473.25 72.84 5.00 248.06 2716.87
   19:07:46.887.27-Apr-2021 3392.01 3473.25 72.84 5.00 248.26 2716.87
   19:07:47.088.27-Apr-2021 3392.01 3473.35 72.84 5.00 248.46 2716.87
   19:07:47.288.27-Apr-2021 3392.01 3473.41 72.84 5.00 248.66 2716.87
   19:07:47.488.27-Apr-2021 3392.01 3473.36 72.83 5.00 248.86 2716.87
   19:07:47.688.27-Apr-2021 3392.01 3473.22 72.83 5.00 249.06 2716.87
   19:07:47.888.27-Apr-2021 3392.01 3473.22 72.83 5.00 249.26 2716.87
   19:07:48.088.27-Apr-2021 3392.01 3473.51 72.83 5.00 249.46 2716.87
   19:07:48.288.27-Apr-2021 3392.01 3473.41 72.83 5.00 249.66 2716.87
   19:07:48.488.27-Apr-2021 3392.01 3473.48 72.83 5.00 249.86 2716.87
   19:07:48.688.27-Apr-2021 3392.01 3473.48 72.83 5.00 250.06 2716.87
   19:07:48.888.27-Apr-2021 3392.01 3473.48 72.83 5.00 250.26 2716.87
   19:07:49.088.27-Apr-2021 3392.01 3473.50 72.83 5.00 250.46 2716.87
   19:07:49.288.27-Apr-2021 3392.01 3473.43 72.83 5.00 250.66 2716.87
   19:07:49.488.27-Apr-2021 3392.01 3473.50 72.83 5.00 250.86 2716.87
   19:07:49.688.27-Apr-2021 3392.01 3473.44 72.83 5.00 251.06 2716.87
   19:07:49.888.27-Apr-2021 3392.01 3473.44 72.83 5.00 251.26 2716.87
   19:07:50.088.27-Apr-2021 3392.01 3473.45 72.83 5.00 251.46 2716.87
   19:07:50.288.27-Apr-2021 3392.01 3473.38 72.83 5.00 251.66 2716.87
   19:07:50.488.27-Apr-2021 3392.01 3473.45 72.83 5.00 251.86 2716.87
   19:07:50.688.27-Apr-2021 3392.01 3473.49 72.83 5.00 252.06 2716.87
   19:07:50.888.27-Apr-2021 3392.01 3473.49 72.83 5.00 252.26 2716.87
   19:07:51.089.27-Apr-2021 3392.01 3473.49 72.83 5.00 252.46 2716.87
   19:07:51.289.27-Apr-2021 3392.01 3473.53 72.83 5.00 252.66 2716.87
   19:07:51.489.27-Apr-2021 3392.01 3473.45 72.83 5.00 252.86 2716.87
