~Version Information
 VERS.                  2.0:   CWLS log ASCII Standard -VERSION 2.0
 WRAP.                   NO:   One line per depth step
~Well Information Block
#MNEM.UNIT     VALUE/NAME     DESCRIPTION
#---------     -----------    ---------------------------
 STRT.S             00:41:47 27-Apr-21: START TIME 00:41:47 27-Apr-21
 STOP.S             00:48:15 27-Apr-21: STOP TIME  00:48:15 27-Apr-21
 STEP.S                   0.00: STEP TIME
 NULL.                 -999.25: NULL VALUE
 DFWT.                        :  DIST FWL TEXT
 DFST.                        :  DIST FSL TEXT
 DMF .             Drill Floor:  DRILL MEAS FROM
 STIM.      02.00.00 12-Apr-21:  START TIME
 DATE.      02.00.00 02-May-21:  END TIME
 SPUD.               09-Apr-21:  SPUD DATE
 NREF.                    Grid:  NORTH REFERENCE
 HPTY.       Minimum Curvature:  HOLE POS TYPE
 DMOD.             Drill Model:  DRILL MOD DESC
 SVYD.                  Survey:  SURVEY DESC
 ILTD.               Lithology:  INTERP LTH DESC
 FTOP.          Formation Tops:  FORM TOPS DESC
 PDAT.          Mean Sea Level:  PERMANENT DATUM
 FLD .                     ACG:  FIELD NAME
 SON .        AZ-XX-0907021034:  JOB NUMBER
 CTRY.              Azerbaijan:  COUNTRY NAME
 WELL.                    E01x:  WELL NAME
 COMP.     BP Exploration (Caspian Sea) LTD.:  COMPANY
 UWI .            /AZE00001403:  UNIQUE WELL IDENTIFIER
 API .            /AZE00001403:  API NUMBER
 WTYP.                Deviated:  WELL TYPE
 MDS .        Operator Entered:  MAG DATA SOURCE
 BASE.              Azerbaijan:  LOGGING EQUIPMENT BASE LOCATION
 REGN.                   EESSA:  REGION
 PROV.                    Baku:  PROVINCE
 STAT.                    Baku:  STATE NAME
 SRVC.          Turan Drilling:  CONTRACTOR
 MWDS.                    Baku:  MWD SHOP
 JOBN.        AZ-XX-0907021034:  JOB TICKET NUMB
 RIG .                     DWG:  RIG NAME
 DOE .                     N/A:  DOE NUMBER
 DCON.         Sperry Drilling:  DIRECTNL CONTR
 UNIT.                     N/A:  LOGGING EQUIPMENT ID
 CNTY.                        :  COUNTY
 LOC .                        :  LOCATION
 LMF .             Drill Floor:  LOG MEASURED FROM
 TVDS.m                  43.16:  TVDSS CORRECTN
 LATI.deg                40.17:  LATITUDE
 LONG.deg                51.17:  LONGITUDE
 WHNS.m                  -5.90:  WELL HEAD N/S
 WHEW.m                  -6.61:  WELL HEAD E/W
 UTMX.m              514337.95:  UTM X
 UTMY.m             4448627.46:  UTM Y
 DFWL.m                   0.00:  DISTANCE FWL
 DFSL.m                   0.00:  DISTANCE FSL
 SDEP.m                2606.87:  START DEPTH
 TDD .m                3618.01:  TOTAL DEPTH (DRILLER)
 VSDR.deg               177.42:  VERT SEC DIRECT
 GVFD.g                   1.00:  GRAVITY FIELD
 MFLD.nT              50399.00:  MAGNETIC FIELD
 MDIP.deg                59.67:  MAGNETIC DIP
 MDEC.deg                 6.56:  MAGNETIC DECL
 GRDC.deg                 0.11:  GRID CORRECTION
 AZTC.deg                 6.45:  AZM TOTAL CORR
 EPD .m                   0.00:  ELEVATION
 EGL .m                   0.00:  GROUND ELEVATION
 WDMS.m                 176.20:  WD ELEV
 APD .m                  43.16:  DEPTH ABOVE PD
 DEP .m                2606.87:  DEPTH
 AGAP.m                  43.16:  AIR GAP
 VSEW.m                  -6.61:  VERT SEC E/W
 VSNS.m                  -5.90:  VERT SEC N/S
 EKB .m                  43.16:  KB ELEVATION
 EDF .m                  43.16:  DF ELEVATION
 TDL .m                 438.00:  TOTAL DEPTH (LOGGER)
 VSC .                       0:  VS TO CLOSURE
 MAGU.                 1855490:  MAGUTM CHECKSUM
~Parameter Information Block
#MNEM.UNIT       Value        Description
#---------     -----------    ---------------------------
 AV  .mps                 2.20:  Ann Velocity 
 AVMX.mps                 2.50:  Max Ann Veloc 
 AZIF.deg               150.21:  Azm, Final 
 BHAT.        Rotary Steerable:  BHA Type 
 BROT.°/30m               0.08:  Build Rotating 
 BS  .in                  6.50:  Bit Size 
 BSZ .in                  6.50:  Bit Size 
 BTPL.psig              108.00:  Bit Press Loss 
 CABU.                     Yes:  Customer Abuse 
 CGEO.           Emin Aliyarli:  Customer Geo 
 COMM.                     lJm:  Run Comments 1 
 TCS .hr                 74.20:  Time Ciculation Ended 
 CV  .mps                 3.63:  Crit Velocity 
 CVMX.mps                 3.66:  Max Crit Veloc 
 DD1 .         Intigam Rahimov:  Direct Drillr 1 
 DD2 .          Teymur Aghayev:  Direct Drillr 2 
 DDSV.               Geo-Pilot:  DD Service 
 DEFF.%                  97.00:  % Det Eff 
 DLRX.°/30m               1.63:  Dogleg Rot Max 
 DLSO.°/30m               0.00:  Dogleg Oriented 
 DLSX.°/30m               0.00:  Dogleg Str Max 
 DRET.      20.20.00 28-Apr-21:  Drill End Time 
 DRST.      04.45.00 26-Apr-21:  Drill Start Tim 
 DTIM.hr                 34.30:  Time Drilling 
 EDEP.m                3618.01:  End Depth 
 ENG1.           Amrah Tahirov:  Engineer 1 
 ENG2.         Bahruz Mehdiyev:  Engineer 2 
 ENG3.         Farhad Orujzade:  Engineer 3 
 ETIM.      19.00.00 29-Apr-21:  End Time 
 FLOI.gpm               370.00:  Flow In 
 FLON.gpm               300.00:  Flow In Min 
 FLOS.cptm                0.00:  Fluid Loss 
 FLOX.gpm               410.00:  Flow In Max 
 HFLO.                      No:  High Flow 
 HPRE.                      No:  High Pressure 
 HTEM.                      No:  High Temp 
 HYDO.m                   1.80:  Hydro Offset 
 IFIN.deg                67.19:  Inc, Final 
 IMAX.deg                68.42:  Inc Max 
 IMIN.deg                66.33:  Inc Min 
 IMND.m                3532.79:  Inc Min Depth 
 IMXD.m                3192.15:  Inc Max Depth 
 JARR.                      No:  Jarring 
 LETM.      20.20.00 28-Apr-21:  Log End Time 
 LOST.hr                     0:  Lost Rig Time 
 LSTM.      04.45.00 26-Apr-21:  Log Start Time 
 MDCL.ppm             36500.00:  Mud Chlorides 
 MDES.     Inversion Oil/Synthetic:  Mud Desc 
 DFD .sg                  1.42:  Mud Density 
 MDMN.sg                  1.42:  Dens Mud Min 
 MDMX.sg                  1.42:  Dens Mud Max 
 MOIL.                    55.7:  Run Mud Oil % 
 MOWR.                   71:29:  Run Mud OWR 
 MSND.                     0.1:  Run Mud Sand % 
 MSOL.                    19.9:  Run Mud Solids% 
 DFV .spqt               83.00:  Mud Viscosity 
 MWOD.in                  5.15:  MWD Tool OD 
 MWSI.                      No:  Serv Intrp, MWD 
 OTIM.hr                120.59:  Time Operating 
 PCON.           Look Like New:  Pad Condition 
 PMAX.psia            11292.93:  Press Op, Max 
 PV  .cP                 27.00:  Mud PV 
 RUN .                     400:  Run Number 
 ROPA.m/hr               14.00:  ROP Avg 
 ROPN.m/hr                9.00:  ROP Min 
 ROPX.m/hr               18.00:  ROP Max 
 RPMA.rpm               130.00:  RPM Surface Avg 
 RPMN.rpm               100.00:  RPM Surface Min 
 RPMX.rpm               140.00:  RPM Surface Max 
 RRUN.                    0400:  Rig Run Number 
 RTIM.hr                 38.60:  Time Reaming 
 SAZI.deg               149.55:  Azm, Start 
 SDEP.m                3180.01:  Start Depth 
 SIDD.                      No:  Serv Intrp, DD 
 SINC.deg                68.42:  Inc, Start 
 SPPA.psig             4400.00:  SPP Avg 
 SPPN.psig             3580.00:  SPP Min 
 SPPX.psig             4850.00:  SPP Max 
 STIM.      12.30.00 24-Apr-21:  Start Time 
 SVCS.                 DD, MWD:  Services 
 SVER.                    9.20:  Sperry Version 
 TDAT.m                 438.00:  Tot Depth Attmp 
 TDDF.                      No:  Trip for DD 
 TDLG.m                 438.00:  Tot Depth Loggd 
 TFF .                      No:  Trip for Fail 
 TQAA.f-kp               11.00:  Torque Abs Avg 
 TQAN.f-kp                9.00:  Torque Abs Min 
 TQAX.f-kp               14.00:  Torque Abs Max 
 TRRT.°/30m               0.04:  Turn Rotating 
 MRT .                    HCIM:  Maximum Recorded Temperature 
 TTMX.degC               84.31:  Max Tool Temp 
 VS01.                90521954:  Virtual Str1 SN 
 VS02.                90519327:  Virtual Str2 SN 
 VS03.                90522273:  Virtual Str3 SN 
 VS04.                11108038:  Virtual Str4 SN 
 VS05.                12258760:  Virtual Str5 SN 
 WBMN.klb                 1.00:  WOB Min 
 WITN.           Adil Mammadov:  Customer Rep 
 WITN.         Alex Yadullayev:  Customer Rep 2 
 WOBA.klb                 6.00:  WOB Avg 
 WOBX.klb                 9.00:  WOB Max 
 YP  .lhf2               31.00:  Yield Point 
~Curve Information Block
#MNEM.UNIT                 API CODE     Curve Description
#---------               -----------    ---------------------------
 TIME.HHMMSS            00 000 000 000:  GT Time & Date
 GTDEPTH.m              00 000 000 000:  GT Depth
 GTPQH.psia             00 000 000 000:  GT HR Quartz Pressure
 GTTQ.degC              00 000 000 000:  GT Quartz Temperature
 GTTN.NONE              00 000 000 000:  GT Test Number
 GTET.sec               00 000 000 000:  GT Elapsed Test Time
 GTTVD.m                00 000 000 000:  GT True Vertical Depth
#Other Information
#
#WARRANTY: Halliburton will use its best efforts to furnish customers with 
#accurate information and interpretations that are part of, and incident to, the services 
#provided.  However, Halliburton cannot and does not warrant the accuracy 
#or correctness of such information and interpretations.  Under no circumstances should any 
#such information or interpretation be relied upon as the sole basis for any drilling, 
#completion, production, or financial decision or any procedure involving any risk to the 
#safety of any drilling venture, drilling rig or its crew or any other third party.  The 
#Customer has full responsibility for all drilling, completion and production operation.  
#Halliburton makes no representations or warranties, either expressed or 
#implied, including, but not limited to, the implied warranties of merchantability or fitness 
#for a particular purpose, with respect to the services rendered.  In no event will 
#Halliburton be liable for failure to obtain any particular results or for 
#any damages, including, but not limited to, indirect, special or consequential damages, 
#resulting from the use of any information or interpretation provided by Halliburton.
#
~A           TIME           GTDEPTH  GTPQH  GTTQ  GTTN  GTET   GTTVD  
# ...
   00:43:19.744.27-Apr-2021 3226.01 4274.60 71.92 2.00  92.02 2651.33
   00:43:19.944.27-Apr-2021 3226.01 4274.60 71.92 2.00  92.22 2651.33
   00:43:20.144.27-Apr-2021 3226.01 4274.55 71.92 2.00  92.42 2651.33
   00:43:20.344.27-Apr-2021 3226.01 4274.47 71.92 2.00  92.62 2651.33
   00:43:20.544.27-Apr-2021 3226.01 4274.55 71.92 2.00  92.82 2651.33
   00:43:20.744.27-Apr-2021 3226.01 4274.24 71.92 2.00  93.02 2651.33
   00:43:20.944.27-Apr-2021 3226.01 4274.24 71.92 2.00  93.22 2651.33
   00:43:21.144.27-Apr-2021 3226.01 4274.54 71.92 2.00  93.42 2651.33
   00:43:21.344.27-Apr-2021 3226.01 4274.56 71.92 2.00  93.62 2651.33
   00:43:21.544.27-Apr-2021 3226.01 4274.51 71.92 2.00  93.82 2651.33
   00:43:21.744.27-Apr-2021 3226.01 4274.55 71.92 2.00  94.02 2651.33
   00:43:21.944.27-Apr-2021 3226.01 4274.55 71.92 2.00  94.22 2651.33
   00:43:22.144.27-Apr-2021 3226.01 4274.60 71.91 2.00  94.42 2651.33
   00:43:22.344.27-Apr-2021 3226.01 4274.55 71.91 2.00  94.62 2651.33
   00:43:22.545.27-Apr-2021 3226.01 4274.55 71.91 2.00  94.82 2651.33
   00:43:22.745.27-Apr-2021 3226.01 4274.51 71.91 2.00  95.02 2651.33
   00:43:22.945.27-Apr-2021 3226.01 4274.51 71.91 2.00  95.22 2651.33
   00:43:23.145.27-Apr-2021 3226.01 4274.56 71.91 2.00  95.42 2651.33
   00:43:23.345.27-Apr-2021 3226.01 4274.50 71.91 2.00  95.62 2651.33
   00:43:23.545.27-Apr-2021 3226.01 4274.30 71.91 2.00  95.82 2651.33
   00:43:23.745.27-Apr-2021 3226.01 4274.53 71.91 2.00  96.02 2651.33
   00:43:23.945.27-Apr-2021 3226.01 4274.53 71.91 2.00  96.22 2651.33
   00:43:24.145.27-Apr-2021 3226.01 4274.60 71.91 2.00  96.42 2651.33
   00:43:24.345.27-Apr-2021 3226.01 4274.58 71.91 2.00  96.62 2651.33
   00:43:24.545.27-Apr-2021 3226.01 4274.50 71.91 2.00  96.82 2651.33
   00:43:24.745.27-Apr-2021 3226.01 4274.31 71.91 2.00  97.02 2651.33
   00:43:24.945.27-Apr-2021 3226.01 4274.31 71.91 2.00  97.22 2651.33
   00:43:25.145.27-Apr-2021 3226.01 4274.64 71.90 2.00  97.42 2651.33
   00:43:25.345.27-Apr-2021 3226.01 4274.52 71.90 2.00  97.62 2651.33
   00:43:25.545.27-Apr-2021 3226.01 4274.38 71.90 2.00  97.82 2651.33
   00:43:25.745.27-Apr-2021 3226.01 4274.46 71.90 2.00  98.02 2651.33
   00:43:25.945.27-Apr-2021 3226.01 4274.46 71.90 2.00  98.22 2651.33
   00:43:26.145.27-Apr-2021 3226.01 4274.55 71.90 2.00  98.42 2651.33
   00:43:26.345.27-Apr-2021 3226.01 4274.49 71.90 2.00  98.62 2651.33
   00:43:26.545.27-Apr-2021 3226.01 4274.37 71.90 2.00  98.82 2651.33
   00:43:26.745.27-Apr-2021 3226.01 4274.55 71.90 2.00  99.02 2651.33
   00:43:26.945.27-Apr-2021 3226.01 4274.55 71.90 2.00  99.22 2651.33
   00:43:27.145.27-Apr-2021 3226.01 4274.61 71.90 2.00  99.42 2651.33
   00:43:27.345.27-Apr-2021 3226.01 4274.55 71.90 2.00  99.62 2651.33
   00:43:27.545.27-Apr-2021 3226.01 4274.54 71.90 2.00  99.82 2651.33
   00:43:27.746.27-Apr-2021 3226.01 4274.52 71.90 2.00 100.02 2651.33
   00:43:27.946.27-Apr-2021 3226.01 4274.52 71.90 2.00 100.22 2651.33
   00:43:28.146.27-Apr-2021 3226.01 4274.57 71.90 2.00 100.42 2651.33
   00:43:28.346.27-Apr-2021 3226.01 4274.51 71.89 2.00 100.62 2651.33
   00:43:28.546.27-Apr-2021 3226.01 4274.50 71.89 2.00 100.82 2651.33
   00:43:28.746.27-Apr-2021 3226.01 4274.48 71.89 2.00 101.02 2651.33
   00:43:28.946.27-Apr-2021 3226.01 4274.48 71.89 2.00 101.22 2651.33
   00:43:29.146.27-Apr-2021 3226.01 4274.31 71.89 2.00 101.42 2651.33
   00:43:29.346.27-Apr-2021 3226.01 4274.55 71.89 2.00 101.62 2651.33
   00:43:29.546.27-Apr-2021 3226.01 4274.51 71.89 2.00 101.82 2651.33
   00:43:29.746.27-Apr-2021 3226.01 4274.55 71.89 2.00 102.02 2651.33
   00:43:29.946.27-Apr-2021 3226.01 4274.55 71.89 2.00 102.22 2651.33
   00:43:30.146.27-Apr-2021 3226.01 4274.55 71.89 2.00 102.42 2651.33
   00:43:30.346.27-Apr-2021 3226.01 4274.50 71.89 2.00 102.62 2651.33
   00:43:30.546.27-Apr-2021 3226.01 4274.61 71.89 2.00 102.82 2651.33
   00:43:30.746.27-Apr-2021 3226.01 4274.51 71.89 2.00 103.02 2651.33
   00:43:30.946.27-Apr-2021 3226.01 4274.51 71.89 2.00 103.22 2651.33
   00:43:31.146.27-Apr-2021 3226.01 4274.47 71.89 2.00 103.42 2651.33
   00:43:31.346.27-Apr-2021 3226.01 4274.53 71.88 2.00 103.62 2651.33
   00:43:31.546.27-Apr-2021 3226.01 4274.51 71.88 2.00 103.82 2651.33
   00:43:31.746.27-Apr-2021 3226.01 4274.44 71.88 2.00 104.02 2651.33
   00:43:31.946.27-Apr-2021 3226.01 4274.44 71.88 2.00 104.22 2651.33
   00:43:32.146.27-Apr-2021 3226.01 4274.53 71.88 2.00 104.42 2651.33
   00:43:32.346.27-Apr-2021 3226.01 4274.56 71.88 2.00 104.62 2651.33
   00:43:32.546.27-Apr-2021 3226.01 4274.54 71.88 2.00 104.82 2651.33
   00:43:32.747.27-Apr-2021 3226.01 4274.53 71.88 2.00 105.02 2651.33
   00:43:32.947.27-Apr-2021 3226.01 4274.53 71.88 2.00 105.22 2651.33
   00:43:33.147.27-Apr-2021 3226.01 4274.37 71.88 2.00 105.42 2651.33
   00:43:33.347.27-Apr-2021 3226.01 4274.58 71.88 2.00 105.62 2651.33
   00:43:33.547.27-Apr-2021 3226.01 4274.60 71.88 2.00 105.82 2651.33
   00:43:33.747.27-Apr-2021 3226.01 4274.52 71.88 2.00 106.02 2651.33
   00:43:33.947.27-Apr-2021 3226.01 4274.52 71.88 2.00 106.22 2651.33
   00:43:34.147.27-Apr-2021 3226.01 4274.27 71.88 2.00 106.42 2651.33
   00:43:34.347.27-Apr-2021 3226.01 4274.58 71.88 2.00 106.62 2651.33
   00:43:34.547.27-Apr-2021 3226.01 4274.54 71.87 2.00 106.82 2651.33
   00:43:34.747.27-Apr-2021 3226.01 4274.37 71.87 2.00 107.02 2651.33
   00:43:34.947.27-Apr-2021 3226.01 4274.37 71.87 2.00 107.22 2651.33
   00:43:35.147.27-Apr-2021 3226.01 4274.54 71.87 2.00 107.42 2651.33
   00:43:35.347.27-Apr-2021 3226.01 4274.54 71.87 2.00 107.62 2651.33
   00:43:35.547.27-Apr-2021 3226.01 4274.60 71.87 2.00 107.82 2651.33
   00:43:35.747.27-Apr-2021 3226.01 4274.52 71.87 2.00 108.02 2651.33
   00:43:35.947.27-Apr-2021 3226.01 4274.52 71.87 2.00 108.22 2651.33
   00:43:36.147.27-Apr-2021 3226.01 4274.50 71.87 2.00 108.42 2651.33
   00:43:36.347.27-Apr-2021 3226.01 4274.59 71.87 2.00 108.62 2651.33
   00:43:36.547.27-Apr-2021 3226.01 4274.50 71.87 2.00 108.82 2651.33
   00:43:36.747.27-Apr-2021 3226.01 4274.52 71.87 2.00 109.02 2651.33
   00:43:36.947.27-Apr-2021 3226.01 4274.52 71.87 2.00 109.22 2651.33
   00:43:37.147.27-Apr-2021 3226.01 4274.51 71.87 2.00 109.42 2651.33
   00:43:37.347.27-Apr-2021 3226.01 4274.33 71.87 2.00 109.62 2651.33
   00:43:37.547.27-Apr-2021 3226.01 4274.41 71.87 2.00 109.82 2651.33
   00:43:37.748.27-Apr-2021 3226.01 4274.51 71.86 2.00 110.02 2651.33
   00:43:37.948.27-Apr-2021 3226.01 4274.51 71.86 2.00 110.22 2651.33
   00:43:38.148.27-Apr-2021 3226.01 4274.52 71.86 2.00 110.42 2651.33
   00:43:38.348.27-Apr-2021 3226.01 4274.50 71.86 2.00 110.62 2651.33
   00:43:38.548.27-Apr-2021 3226.01 4274.50 71.86 2.00 110.82 2651.33
   00:43:38.748.27-Apr-2021 3226.01 4274.51 71.86 2.00 111.02 2651.33
   00:43:38.948.27-Apr-2021 3226.01 4274.51 71.86 2.00 111.22 2651.33
   00:43:39.148.27-Apr-2021 3226.01 4274.50 71.86 2.00 111.42 2651.33
   00:43:39.348.27-Apr-2021 3226.01 4274.52 71.86 2.00 111.62 2651.33
   00:43:39.548.27-Apr-2021 3226.01 4274.46 71.86 2.00 111.82 2651.33
   00:43:39.748.27-Apr-2021 3226.01 4274.53 71.86 2.00 112.02 2651.33
   00:43:39.948.27-Apr-2021 3226.01 4274.53 71.86 2.00 112.22 2651.33
   00:43:40.148.27-Apr-2021 3226.01 4274.48 71.86 2.00 112.42 2651.33
   00:43:40.348.27-Apr-2021 3226.01 4274.43 71.86 2.00 112.62 2651.33
   00:43:40.548.27-Apr-2021 3226.01 4274.55 71.86 2.00 112.82 2651.33
   00:43:40.748.27-Apr-2021 3226.01 4274.51 71.86 2.00 113.02 2651.33
   00:43:40.948.27-Apr-2021 3226.01 4274.51 71.86 2.00 113.22 2651.33
   00:43:41.148.27-Apr-2021 3226.01 4274.50 71.85 2.00 113.42 2651.33
   00:43:41.348.27-Apr-2021 3226.01 4274.38 71.85 2.00 113.62 2651.33
   00:43:41.548.27-Apr-2021 3226.01 4274.45 71.85 2.00 113.82 2651.33
   00:43:41.748.27-Apr-2021 3226.01 4274.60 71.85 2.00 114.02 2651.33
   00:43:41.948.27-Apr-2021 3226.01 4274.60 71.85 2.00 114.22 2651.33
   00:43:42.148.27-Apr-2021 3226.01 4274.47 71.85 2.00 114.42 2651.33
   00:43:42.348.27-Apr-2021 3226.01 4274.33 71.85 2.00 114.62 2651.33
   00:43:42.548.27-Apr-2021 3226.01 4274.53 71.85 2.00 114.82 2651.33
