~Version Information
 VERS.                  2.0:   CWLS log ASCII Standard -VERSION 2.0
 WRAP.                   NO:   One line per depth step
~Well Information Block
#MNEM.UNIT     VALUE/NAME     DESCRIPTION
#---------     -----------    ---------------------------
 STRT.S             23:23:54 27-Apr-21: START TIME 23:23:54 27-Apr-21
 STOP.S             23:30:22 27-Apr-21: STOP TIME  23:30:22 27-Apr-21
 STEP.S                   0.00: STEP TIME
 NULL.                 -999.25: NULL VALUE
 DFWT.                        :  DIST FWL TEXT
 DFST.                        :  DIST FSL TEXT
 DMF .             Drill Floor:  DRILL MEAS FROM
 STIM.      02.00.00 12-Apr-21:  START TIME
 DATE.      02.00.00 02-May-21:  END TIME
 SPUD.               09-Apr-21:  SPUD DATE
 NREF.                    Grid:  NORTH REFERENCE
 HPTY.       Minimum Curvature:  HOLE POS TYPE
 DMOD.             Drill Model:  DRILL MOD DESC
 SVYD.                  Survey:  SURVEY DESC
 ILTD.               Lithology:  INTERP LTH DESC
 FTOP.          Formation Tops:  FORM TOPS DESC
 PDAT.          Mean Sea Level:  PERMANENT DATUM
 FLD .                     ACG:  FIELD NAME
 SON .        AZ-XX-0907021034:  JOB NUMBER
 CTRY.              Azerbaijan:  COUNTRY NAME
 WELL.                    E01x:  WELL NAME
 COMP.     BP Exploration (Caspian Sea) LTD.:  COMPANY
 UWI .            /AZE00001403:  UNIQUE WELL IDENTIFIER
 API .            /AZE00001403:  API NUMBER
 WTYP.                Deviated:  WELL TYPE
 MDS .        Operator Entered:  MAG DATA SOURCE
 BASE.              Azerbaijan:  LOGGING EQUIPMENT BASE LOCATION
 REGN.                   EESSA:  REGION
 PROV.                    Baku:  PROVINCE
 STAT.                    Baku:  STATE NAME
 SRVC.          Turan Drilling:  CONTRACTOR
 MWDS.                    Baku:  MWD SHOP
 JOBN.        AZ-XX-0907021034:  JOB TICKET NUMB
 RIG .                     DWG:  RIG NAME
 DOE .                     N/A:  DOE NUMBER
 DCON.         Sperry Drilling:  DIRECTNL CONTR
 UNIT.                     N/A:  LOGGING EQUIPMENT ID
 CNTY.                        :  COUNTY
 LOC .                        :  LOCATION
 LMF .             Drill Floor:  LOG MEASURED FROM
 TVDS.m                  43.16:  TVDSS CORRECTN
 LATI.deg                40.17:  LATITUDE
 LONG.deg                51.17:  LONGITUDE
 WHNS.m                  -5.90:  WELL HEAD N/S
 WHEW.m                  -6.61:  WELL HEAD E/W
 UTMX.m              514337.95:  UTM X
 UTMY.m             4448627.46:  UTM Y
 DFWL.m                   0.00:  DISTANCE FWL
 DFSL.m                   0.00:  DISTANCE FSL
 SDEP.m                2606.87:  START DEPTH
 TDD .m                3618.01:  TOTAL DEPTH (DRILLER)
 VSDR.deg               177.42:  VERT SEC DIRECT
 GVFD.g                   1.00:  GRAVITY FIELD
 MFLD.nT              50399.00:  MAGNETIC FIELD
 MDIP.deg                59.67:  MAGNETIC DIP
 MDEC.deg                 6.56:  MAGNETIC DECL
 GRDC.deg                 0.11:  GRID CORRECTION
 AZTC.deg                 6.45:  AZM TOTAL CORR
 EPD .m                   0.00:  ELEVATION
 EGL .m                   0.00:  GROUND ELEVATION
 WDMS.m                 176.20:  WD ELEV
 APD .m                  43.16:  DEPTH ABOVE PD
 DEP .m                2606.87:  DEPTH
 AGAP.m                  43.16:  AIR GAP
 VSEW.m                  -6.61:  VERT SEC E/W
 VSNS.m                  -5.90:  VERT SEC N/S
 EKB .m                  43.16:  KB ELEVATION
 EDF .m                  43.16:  DF ELEVATION
 TDL .m                 438.00:  TOTAL DEPTH (LOGGER)
 VSC .                       0:  VS TO CLOSURE
 MAGU.                 1855490:  MAGUTM CHECKSUM
~Parameter Information Block
#MNEM.UNIT       Value        Description
#---------     -----------    ---------------------------
 AV  .mps                 2.20:  Ann Velocity 
 AVMX.mps                 2.50:  Max Ann Veloc 
 AZIF.deg               150.21:  Azm, Final 
 BHAT.        Rotary Steerable:  BHA Type 
 BROT.°/30m               0.08:  Build Rotating 
 BS  .in                  6.50:  Bit Size 
 BSZ .in                  6.50:  Bit Size 
 BTPL.psig              108.00:  Bit Press Loss 
 CABU.                     Yes:  Customer Abuse 
 CGEO.           Emin Aliyarli:  Customer Geo 
 COMM.                     HO:  Run Comments 1 
 TCS .hr                 74.20:  Time Ciculation Ended 
 CV  .mps                 3.63:  Crit Velocity 
 CVMX.mps                 3.66:  Max Crit Veloc 
 DD1 .         Intigam Rahimov:  Direct Drillr 1 
 DD2 .          Teymur Aghayev:  Direct Drillr 2 
 DDSV.               Geo-Pilot:  DD Service 
 DEFF.%                  97.00:  % Det Eff 
 DLRX.°/30m               1.63:  Dogleg Rot Max 
 DLSO.°/30m               0.00:  Dogleg Oriented 
 DLSX.°/30m               0.00:  Dogleg Str Max 
 DRET.      20.20.00 28-Apr-21:  Drill End Time 
 DRST.      04.45.00 26-Apr-21:  Drill Start Tim 
 DTIM.hr                 34.30:  Time Drilling 
 EDEP.m                3618.01:  End Depth 
 ENG1.           Amrah Tahirov:  Engineer 1 
 ENG2.         Bahruz Mehdiyev:  Engineer 2 
 ENG3.         Farhad Orujzade:  Engineer 3 
 ETIM.      19.00.00 29-Apr-21:  End Time 
 FLOI.gpm               370.00:  Flow In 
 FLON.gpm               300.00:  Flow In Min 
 FLOS.cptm                0.00:  Fluid Loss 
 FLOX.gpm               410.00:  Flow In Max 
 HFLO.                      No:  High Flow 
 HPRE.                      No:  High Pressure 
 HTEM.                      No:  High Temp 
 HYDO.m                   1.80:  Hydro Offset 
 IFIN.deg                67.19:  Inc, Final 
 IMAX.deg                68.42:  Inc Max 
 IMIN.deg                66.33:  Inc Min 
 IMND.m                3532.79:  Inc Min Depth 
 IMXD.m                3192.15:  Inc Max Depth 
 JARR.                      No:  Jarring 
 LETM.      20.20.00 28-Apr-21:  Log End Time 
 LOST.hr                     0:  Lost Rig Time 
 LSTM.      04.45.00 26-Apr-21:  Log Start Time 
 MDCL.ppm             36500.00:  Mud Chlorides 
 MDES.     Inversion Oil/Synthetic:  Mud Desc 
 DFD .sg                  1.42:  Mud Density 
 MDMN.sg                  1.42:  Dens Mud Min 
 MDMX.sg                  1.42:  Dens Mud Max 
 MOIL.                    55.7:  Run Mud Oil % 
 MOWR.                   71:29:  Run Mud OWR 
 MSND.                     0.1:  Run Mud Sand % 
 MSOL.                    19.9:  Run Mud Solids% 
 DFV .spqt               83.00:  Mud Viscosity 
 MWOD.in                  5.15:  MWD Tool OD 
 MWSI.                      No:  Serv Intrp, MWD 
 OTIM.hr                120.59:  Time Operating 
 PCON.           Look Like New:  Pad Condition 
 PMAX.psia            11292.93:  Press Op, Max 
 PV  .cP                 27.00:  Mud PV 
 RUN .                     400:  Run Number 
 ROPA.m/hr               14.00:  ROP Avg 
 ROPN.m/hr                9.00:  ROP Min 
 ROPX.m/hr               18.00:  ROP Max 
 RPMA.rpm               130.00:  RPM Surface Avg 
 RPMN.rpm               100.00:  RPM Surface Min 
 RPMX.rpm               140.00:  RPM Surface Max 
 RRUN.                    0400:  Rig Run Number 
 RTIM.hr                 38.60:  Time Reaming 
 SAZI.deg               149.55:  Azm, Start 
 SDEP.m                3180.01:  Start Depth 
 SIDD.                      No:  Serv Intrp, DD 
 SINC.deg                68.42:  Inc, Start 
 SPPA.psig             4400.00:  SPP Avg 
 SPPN.psig             3580.00:  SPP Min 
 SPPX.psig             4850.00:  SPP Max 
 STIM.      12.30.00 24-Apr-21:  Start Time 
 SVCS.                 DD, MWD:  Services 
 SVER.                    9.20:  Sperry Version 
 TDAT.m                 438.00:  Tot Depth Attmp 
 TDDF.                      No:  Trip for DD 
 TDLG.m                 438.00:  Tot Depth Loggd 
 TFF .                      No:  Trip for Fail 
 TQAA.f-kp               11.00:  Torque Abs Avg 
 TQAN.f-kp                9.00:  Torque Abs Min 
 TQAX.f-kp               14.00:  Torque Abs Max 
 TRRT.°/30m               0.04:  Turn Rotating 
 MRT .                    HCIM:  Maximum Recorded Temperature 
 TTMX.degC               84.31:  Max Tool Temp 
 VS01.                90521954:  Virtual Str1 SN 
 VS02.                90519327:  Virtual Str2 SN 
 VS03.                90522273:  Virtual Str3 SN 
 VS04.                11108038:  Virtual Str4 SN 
 VS05.                12258760:  Virtual Str5 SN 
 WBMN.klb                 1.00:  WOB Min 
 WITN.           Adil Mammadov:  Customer Rep 
 WITN.         Alex Yadullayev:  Customer Rep 2 
 WOBA.klb                 6.00:  WOB Avg 
 WOBX.klb                 9.00:  WOB Max 
 YP  .lhf2               31.00:  Yield Point 
~Curve Information Block
#MNEM.UNIT                 API CODE     Curve Description
#---------               -----------    ---------------------------
 TIME.HHMMSS            00 000 000 000:  GT Time & Date
 GTDEPTH.m              00 000 000 000:  GT Depth
 GTPQH.psia             00 000 000 000:  GT HR Quartz Pressure
 GTTQ.degC              00 000 000 000:  GT Quartz Temperature
 GTTN.NONE              00 000 000 000:  GT Test Number
 GTET.sec               00 000 000 000:  GT Elapsed Test Time
 GTTVD.m                00 000 000 000:  GT True Vertical Depth
#Other Information
#
#WARRANTY: Halliburton will use its best efforts to furnish customers with 
#accurate information and interpretations that are part of, and incident to, the services 
#provided.  However, Halliburton cannot and does not warrant the accuracy 
#or correctness of such information and interpretations.  Under no circumstances should any 
#such information or interpretation be relied upon as the sole basis for any drilling, 
#completion, production, or financial decision or any procedure involving any risk to the 
#safety of any drilling venture, drilling rig or its crew or any other third party.  The 
#Customer has full responsibility for all drilling, completion and production operation.  
#Halliburton makes no representations or warranties, either expressed or 
#implied, including, but not limited to, the implied warranties of merchantability or fitness 
#for a particular purpose, with respect to the services rendered.  In no event will 
#Halliburton be liable for failure to obtain any particular results or for 
#any damages, including, but not limited to, indirect, special or consequential damages, 
#resulting from the use of any information or interpretation provided by Halliburton.
#
~A           TIME           GTDEPTH  GTPQH  GTTQ  GTTN  GTET   GTTVD  
# ...
   23:28:53.707.27-Apr-2021 3418.01 3572.72 73.46 6.00 299.08 2727.14
   23:28:53.907.27-Apr-2021 3418.01 3572.72 73.46 6.00 299.28 2727.14
   23:28:54.107.27-Apr-2021 3418.01 3572.77 73.46 6.00 299.48 2727.14
   23:28:54.307.27-Apr-2021 3418.01 3572.76 73.46 6.00 299.68 2727.14
   23:28:54.507.27-Apr-2021 3418.01 3572.77 73.46 6.00 299.88 2727.14
   23:28:54.707.27-Apr-2021 3418.01 3572.75 73.46 6.00 300.08 2727.14
   23:28:54.907.27-Apr-2021 3418.01 3572.75 73.46 6.00 300.28 2727.14
   23:28:55.107.27-Apr-2021 3418.01 3572.74 73.46 6.00 300.48 2727.14
   23:28:55.307.27-Apr-2021 3418.01 3572.74 73.46 6.00 300.68 2727.14
   23:28:55.507.27-Apr-2021 3418.01 3572.73 73.46 6.00 300.88 2727.14
   23:28:55.707.27-Apr-2021 3418.01 3572.72 73.46 6.00 301.08 2727.14
   23:28:55.907.27-Apr-2021 3418.01 3572.72 73.46 6.00 301.28 2727.14
   23:28:56.107.27-Apr-2021 3418.01 3572.72 73.46 6.00 301.48 2727.14
   23:28:56.307.27-Apr-2021 3418.01 3572.51 73.46 6.00 301.68 2727.14
   23:28:56.507.27-Apr-2021 3418.01 3572.84 73.46 6.00 301.88 2727.14
   23:28:56.707.27-Apr-2021 3418.01 3572.76 73.46 6.00 302.08 2727.14
   23:28:56.907.27-Apr-2021 3418.01 3572.76 73.46 6.00 302.28 2727.14
   23:28:57.107.27-Apr-2021 3418.01 3572.77 73.45 6.00 302.48 2727.14
   23:28:57.307.27-Apr-2021 3418.01 3572.74 73.45 6.00 302.68 2727.14
   23:28:57.507.27-Apr-2021 3418.01 3572.74 73.45 6.00 302.88 2727.14
   23:28:57.708.27-Apr-2021 3418.01 3572.73 73.45 6.00 303.08 2727.14
   23:28:57.908.27-Apr-2021 3418.01 3572.73 73.45 6.00 303.28 2727.14
   23:28:58.108.27-Apr-2021 3418.01 3572.72 73.45 6.00 303.48 2727.14
   23:28:58.308.27-Apr-2021 3418.01 3572.73 73.45 6.00 303.68 2727.14
   23:28:58.508.27-Apr-2021 3418.01 3572.71 73.45 6.00 303.88 2727.14
   23:28:58.708.27-Apr-2021 3418.01 3572.73 73.45 6.00 304.08 2727.14
   23:28:58.908.27-Apr-2021 3418.01 3572.73 73.45 6.00 304.28 2727.14
   23:28:59.108.27-Apr-2021 3418.01 3572.57 73.45 6.00 304.48 2727.14
   23:28:59.308.27-Apr-2021 3418.01 3572.80 73.45 6.00 304.68 2727.14
   23:28:59.508.27-Apr-2021 3418.01 3572.78 73.45 6.00 304.88 2727.14
   23:28:59.708.27-Apr-2021 3418.01 3572.71 73.45 6.00 305.08 2727.14
   23:28:59.908.27-Apr-2021 3418.01 3572.71 73.45 6.00 305.28 2727.14
   23:29:00.108.27-Apr-2021 3418.01 3572.77 73.45 6.00 305.48 2727.14
   23:29:00.308.27-Apr-2021 3418.01 3572.64 73.45 6.00 305.68 2727.14
   23:29:00.508.27-Apr-2021 3418.01 3572.77 73.45 6.00 305.88 2727.14
   23:29:00.708.27-Apr-2021 3418.01 3572.78 73.45 6.00 306.08 2727.14
   23:29:00.908.27-Apr-2021 3418.01 3572.78 73.45 6.00 306.28 2727.14
   23:29:01.108.27-Apr-2021 3418.01 3572.76 73.45 6.00 306.48 2727.14
   23:29:01.308.27-Apr-2021 3418.01 3572.74 73.45 6.00 306.68 2727.14
   23:29:01.509.27-Apr-2021 3418.01 3572.54 73.45 6.00 306.88 2727.14
   23:29:01.709.27-Apr-2021 3418.01 3572.84 73.45 6.00 307.08 2727.14
   23:29:01.909.27-Apr-2021 3418.01 3572.84 73.45 6.00 307.28 2727.14
   23:29:02.109.27-Apr-2021 3418.01 3572.72 73.44 6.00 307.48 2727.14
   23:29:02.309.27-Apr-2021 3418.01 3572.76 73.44 6.00 307.68 2727.14
   23:29:02.509.27-Apr-2021 3418.01 3572.73 73.44 6.00 307.88 2727.14
   23:29:02.709.27-Apr-2021 3418.01 3572.54 73.44 6.00 308.08 2727.14
   23:29:02.909.27-Apr-2021 3418.01 3572.54 73.44 6.00 308.28 2727.14
   23:29:03.109.27-Apr-2021 3418.01 3572.77 73.44 6.00 308.48 2727.14
   23:29:03.309.27-Apr-2021 3418.01 3572.73 73.44 6.00 308.68 2727.14
   23:29:03.509.27-Apr-2021 3418.01 3572.78 73.44 6.00 308.88 2727.14
   23:29:03.709.27-Apr-2021 3418.01 3572.73 73.44 6.00 309.08 2727.14
   23:29:03.909.27-Apr-2021 3418.01 3572.73 73.44 6.00 309.28 2727.14
   23:29:04.109.27-Apr-2021 3418.01 3572.74 73.44 6.00 309.48 2727.14
   23:29:04.309.27-Apr-2021 3418.01 3572.72 73.44 6.00 309.68 2727.14
   23:29:04.509.27-Apr-2021 3418.01 3572.73 73.44 6.00 309.88 2727.14
   23:29:04.709.27-Apr-2021 3418.01 3572.72 73.44 6.00 310.08 2727.14
   23:29:04.909.27-Apr-2021 3418.01 3572.72 73.44 6.00 310.28 2727.14
   23:29:05.109.27-Apr-2021 3418.01 3572.72 73.44 6.00 310.48 2727.14
   23:29:05.310.27-Apr-2021 3418.01 3572.56 73.44 6.00 310.68 2727.14
   23:29:05.510.27-Apr-2021 3418.01 3572.76 73.44 6.00 310.88 2727.14
   23:29:05.710.27-Apr-2021 3418.01 3572.76 73.44 6.00 311.08 2727.14
   23:29:05.910.27-Apr-2021 3418.01 3572.76 73.44 6.00 311.28 2727.14
   23:29:06.110.27-Apr-2021 3418.01 3572.73 73.44 6.00 311.48 2727.14
   23:29:06.310.27-Apr-2021 3418.01 3572.75 73.44 6.00 311.68 2727.14
   23:29:06.510.27-Apr-2021 3418.01 3572.74 73.44 6.00 311.88 2727.14
   23:29:06.710.27-Apr-2021 3418.01 3572.71 73.44 6.00 312.08 2727.14
   23:29:06.910.27-Apr-2021 3418.01 3572.71 73.44 6.00 312.28 2727.14
   23:29:07.110.27-Apr-2021 3418.01 3572.71 73.43 6.00 312.48 2727.14
   23:29:07.310.27-Apr-2021 3418.01 3572.72 73.43 6.00 312.68 2727.14
   23:29:07.510.27-Apr-2021 3418.01 3572.71 73.43 6.00 312.88 2727.14
   23:29:07.710.27-Apr-2021 3418.01 3572.72 73.43 6.00 313.08 2727.14
   23:29:07.910.27-Apr-2021 3418.01 3572.72 73.43 6.00 313.28 2727.14
   23:29:08.110.27-Apr-2021 3418.01 3572.71 73.43 6.00 313.48 2727.14
   23:29:08.310.27-Apr-2021 3418.01 3572.83 73.43 6.00 313.68 2727.14
   23:29:08.510.27-Apr-2021 3418.01 3572.74 73.43 6.00 313.88 2727.14
   23:29:08.710.27-Apr-2021 3418.01 3572.71 73.43 6.00 314.08 2727.14
   23:29:08.910.27-Apr-2021 3418.01 3572.71 73.43 6.00 314.28 2727.14
   23:29:09.110.27-Apr-2021 3418.01 3572.72 73.43 6.00 314.48 2727.14
   23:29:09.311.27-Apr-2021 3418.01 3572.51 73.43 6.00 314.68 2727.14
   23:29:09.511.27-Apr-2021 3418.01 3572.82 73.43 6.00 314.88 2727.14
   23:29:09.711.27-Apr-2021 3418.01 3572.75 73.43 6.00 315.08 2727.14
   23:29:09.911.27-Apr-2021 3418.01 3572.75 73.43 6.00 315.28 2727.14
   23:29:10.111.27-Apr-2021 3418.01 3572.75 73.43 6.00 315.48 2727.14
   23:29:10.311.27-Apr-2021 3418.01 3572.71 73.43 6.00 315.68 2727.14
   23:29:10.511.27-Apr-2021 3418.01 3572.55 73.43 6.00 315.88 2727.14
   23:29:10.711.27-Apr-2021 3418.01 3572.82 73.43 6.00 316.08 2727.14
   23:29:10.911.27-Apr-2021 3418.01 3572.82 73.43 6.00 316.28 2727.14
   23:29:11.111.27-Apr-2021 3418.01 3572.72 73.43 6.00 316.48 2727.14
   23:29:11.311.27-Apr-2021 3418.01 3572.75 73.43 6.00 316.68 2727.14
   23:29:11.511.27-Apr-2021 3418.01 3572.73 73.43 6.00 316.88 2727.14
   23:29:11.711.27-Apr-2021 3418.01 3572.53 73.43 6.00 317.08 2727.14
   23:29:11.911.27-Apr-2021 3418.01 3572.53 73.43 6.00 317.28 2727.14
   23:29:12.111.27-Apr-2021 3418.01 3572.83 73.42 6.00 317.48 2727.14
   23:29:12.311.27-Apr-2021 3418.01 3572.71 73.42 6.00 317.68 2727.14
   23:29:12.511.27-Apr-2021 3418.01 3572.77 73.42 6.00 317.88 2727.14
   23:29:12.711.27-Apr-2021 3418.01 3572.72 73.42 6.00 318.08 2727.14
   23:29:12.911.27-Apr-2021 3418.01 3572.72 73.42 6.00 318.28 2727.14
   23:29:13.112.27-Apr-2021 3418.01 3572.72 73.42 6.00 318.48 2727.14
   23:29:13.312.27-Apr-2021 3418.01 3572.70 73.42 6.00 318.68 2727.14
   23:29:13.512.27-Apr-2021 3418.01 3572.72 73.42 6.00 318.88 2727.14
   23:29:13.712.27-Apr-2021 3418.01 3572.72 73.42 6.00 319.08 2727.14
   23:29:13.912.27-Apr-2021 3418.01 3572.72 73.42 6.00 319.28 2727.14
   23:29:14.112.27-Apr-2021 3418.01 3572.71 73.42 6.00 319.48 2727.14
   23:29:14.312.27-Apr-2021 3418.01 3572.66 73.42 6.00 319.68 2727.14
   23:29:14.512.27-Apr-2021 3418.01 3572.60 73.42 6.00 319.88 2727.14
   23:29:14.712.27-Apr-2021 3418.01 3572.75 73.42 6.00 320.08 2727.14
   23:29:14.912.27-Apr-2021 3418.01 3572.75 73.42 6.00 320.28 2727.14
   23:29:15.112.27-Apr-2021 3418.01 3572.68 73.42 6.00 320.48 2727.14
   23:29:15.312.27-Apr-2021 3418.01 3572.74 73.42 6.00 320.68 2727.14
   23:29:15.512.27-Apr-2021 3418.01 3572.73 73.42 6.00 320.88 2727.14
   23:29:15.712.27-Apr-2021 3418.01 3572.70 73.42 6.00 321.08 2727.14
   23:29:15.912.27-Apr-2021 3418.01 3572.70 73.42 6.00 321.28 2727.14
   23:29:16.112.27-Apr-2021 3418.01 3572.71 73.42 6.00 321.48 2727.14
   23:29:16.312.27-Apr-2021 3418.01 3572.69 73.42 6.00 321.68 2727.14
   23:29:16.512.27-Apr-2021 3418.01 3572.70 73.42 6.00 321.88 2727.14
