~Version Information
 VERS.                  2.0:   CWLS log ASCII Standard -VERSION 2.0
 WRAP.                   NO:   One line per depth step
~Well Information Block
#MNEM.UNIT     VALUE/NAME     DESCRIPTION
#---------     -----------    ---------------------------
 STRT.S             15:37:44 28-Apr-21: START TIME 15:37:44 28-Apr-21
 STOP.S             15:44:12 28-Apr-21: STOP TIME  15:44:12 28-Apr-21
 STEP.S                   0.00: STEP TIME
 NULL.                 -999.25: NULL VALUE
 DFWT.                        :  DIST FWL TEXT
 DFST.                        :  DIST FSL TEXT
 DMF .             Drill Floor:  DRILL MEAS FROM
 STIM.      02.00.00 12-Apr-21:  START TIME
 DATE.      02.00.00 02-May-21:  END TIME
 SPUD.               09-Apr-21:  SPUD DATE
 NREF.                    Grid:  NORTH REFERENCE
 HPTY.       Minimum Curvature:  HOLE POS TYPE
 DMOD.             Drill Model:  DRILL MOD DESC
 SVYD.                  Survey:  SURVEY DESC
 ILTD.               Lithology:  INTERP LTH DESC
 FTOP.          Formation Tops:  FORM TOPS DESC
 PDAT.          Mean Sea Level:  PERMANENT DATUM
 FLD .                     ACG:  FIELD NAME
 SON .        AZ-XX-0907021034:  JOB NUMBER
 CTRY.              Azerbaijan:  COUNTRY NAME
 WELL.                    E01x:  WELL NAME
 COMP.     BP Exploration (Caspian Sea) LTD.:  COMPANY
 UWI .            /AZE00001403:  UNIQUE WELL IDENTIFIER
 API .            /AZE00001403:  API NUMBER
 WTYP.                Deviated:  WELL TYPE
 MDS .        Operator Entered:  MAG DATA SOURCE
 BASE.              Azerbaijan:  LOGGING EQUIPMENT BASE LOCATION
 REGN.                   EESSA:  REGION
 PROV.                    Baku:  PROVINCE
 STAT.                    Baku:  STATE NAME
 SRVC.          Turan Drilling:  CONTRACTOR
 MWDS.                    Baku:  MWD SHOP
 JOBN.        AZ-XX-0907021034:  JOB TICKET NUMB
 RIG .                     DWG:  RIG NAME
 DOE .                     N/A:  DOE NUMBER
 DCON.         Sperry Drilling:  DIRECTNL CONTR
 UNIT.                     N/A:  LOGGING EQUIPMENT ID
 CNTY.                        :  COUNTY
 LOC .                        :  LOCATION
 LMF .             Drill Floor:  LOG MEASURED FROM
 TVDS.m                  43.16:  TVDSS CORRECTN
 LATI.deg                40.17:  LATITUDE
 LONG.deg                51.17:  LONGITUDE
 WHNS.m                  -5.90:  WELL HEAD N/S
 WHEW.m                  -6.61:  WELL HEAD E/W
 UTMX.m              514337.95:  UTM X
 UTMY.m             4448627.46:  UTM Y
 DFWL.m                   0.00:  DISTANCE FWL
 DFSL.m                   0.00:  DISTANCE FSL
 SDEP.m                2606.87:  START DEPTH
 TDD .m                3618.01:  TOTAL DEPTH (DRILLER)
 VSDR.deg               177.42:  VERT SEC DIRECT
 GVFD.g                   1.00:  GRAVITY FIELD
 MFLD.nT              50399.00:  MAGNETIC FIELD
 MDIP.deg                59.67:  MAGNETIC DIP
 MDEC.deg                 6.56:  MAGNETIC DECL
 GRDC.deg                 0.11:  GRID CORRECTION
 AZTC.deg                 6.45:  AZM TOTAL CORR
 EPD .m                   0.00:  ELEVATION
 EGL .m                   0.00:  GROUND ELEVATION
 WDMS.m                 176.20:  WD ELEV
 APD .m                  43.16:  DEPTH ABOVE PD
 DEP .m                2606.87:  DEPTH
 AGAP.m                  43.16:  AIR GAP
 VSEW.m                  -6.61:  VERT SEC E/W
 VSNS.m                  -5.90:  VERT SEC N/S
 EKB .m                  43.16:  KB ELEVATION
 EDF .m                  43.16:  DF ELEVATION
 TDL .m                 438.00:  TOTAL DEPTH (LOGGER)
 VSC .                       0:  VS TO CLOSURE
 MAGU.                 1855490:  MAGUTM CHECKSUM
~Parameter Information Block
#MNEM.UNIT       Value        Description
#---------     -----------    ---------------------------
 AV  .mps                 2.20:  Ann Velocity 
 AVMX.mps                 2.50:  Max Ann Veloc 
 AZIF.deg               150.21:  Azm, Final 
 BHAT.        Rotary Steerable:  BHA Type 
 BROT.°/30m               0.08:  Build Rotating 
 BS  .in                  6.50:  Bit Size 
 BSZ .in                  6.50:  Bit Size 
 BTPL.psig              108.00:  Bit Press Loss 
 CABU.                     Yes:  Customer Abuse 
 CGEO.           Emin Aliyarli:  Customer Geo 
 COMM.                     ôŸZ:  Run Comments 1 
 TCS .hr                 74.20:  Time Ciculation Ended 
 CV  .mps                 3.63:  Crit Velocity 
 CVMX.mps                 3.66:  Max Crit Veloc 
 DD1 .         Intigam Rahimov:  Direct Drillr 1 
 DD2 .          Teymur Aghayev:  Direct Drillr 2 
 DDSV.               Geo-Pilot:  DD Service 
 DEFF.%                  97.00:  % Det Eff 
 DLRX.°/30m               1.63:  Dogleg Rot Max 
 DLSO.°/30m               0.00:  Dogleg Oriented 
 DLSX.°/30m               0.00:  Dogleg Str Max 
 DRET.      20.20.00 28-Apr-21:  Drill End Time 
 DRST.      04.45.00 26-Apr-21:  Drill Start Tim 
 DTIM.hr                 34.30:  Time Drilling 
 EDEP.m                3618.01:  End Depth 
 ENG1.           Amrah Tahirov:  Engineer 1 
 ENG2.         Bahruz Mehdiyev:  Engineer 2 
 ENG3.         Farhad Orujzade:  Engineer 3 
 ETIM.      19.00.00 29-Apr-21:  End Time 
 FLOI.gpm               370.00:  Flow In 
 FLON.gpm               300.00:  Flow In Min 
 FLOS.cptm                0.00:  Fluid Loss 
 FLOX.gpm               410.00:  Flow In Max 
 HFLO.                      No:  High Flow 
 HPRE.                      No:  High Pressure 
 HTEM.                      No:  High Temp 
 HYDO.m                   1.80:  Hydro Offset 
 IFIN.deg                67.19:  Inc, Final 
 IMAX.deg                68.42:  Inc Max 
 IMIN.deg                66.33:  Inc Min 
 IMND.m                3532.79:  Inc Min Depth 
 IMXD.m                3192.15:  Inc Max Depth 
 JARR.                      No:  Jarring 
 LETM.      20.20.00 28-Apr-21:  Log End Time 
 LOST.hr                     0:  Lost Rig Time 
 LSTM.      04.45.00 26-Apr-21:  Log Start Time 
 MDCL.ppm             36500.00:  Mud Chlorides 
 MDES.     Inversion Oil/Synthetic:  Mud Desc 
 DFD .sg                  1.42:  Mud Density 
 MDMN.sg                  1.42:  Dens Mud Min 
 MDMX.sg                  1.42:  Dens Mud Max 
 MOIL.                    55.7:  Run Mud Oil % 
 MOWR.                   71:29:  Run Mud OWR 
 MSND.                     0.1:  Run Mud Sand % 
 MSOL.                    19.9:  Run Mud Solids% 
 DFV .spqt               83.00:  Mud Viscosity 
 MWOD.in                  5.15:  MWD Tool OD 
 MWSI.                      No:  Serv Intrp, MWD 
 OTIM.hr                120.59:  Time Operating 
 PCON.           Look Like New:  Pad Condition 
 PMAX.psia            11292.93:  Press Op, Max 
 PV  .cP                 27.00:  Mud PV 
 RUN .                     400:  Run Number 
 ROPA.m/hr               14.00:  ROP Avg 
 ROPN.m/hr                9.00:  ROP Min 
 ROPX.m/hr               18.00:  ROP Max 
 RPMA.rpm               130.00:  RPM Surface Avg 
 RPMN.rpm               100.00:  RPM Surface Min 
 RPMX.rpm               140.00:  RPM Surface Max 
 RRUN.                    0400:  Rig Run Number 
 RTIM.hr                 38.60:  Time Reaming 
 SAZI.deg               149.55:  Azm, Start 
 SDEP.m                3180.01:  Start Depth 
 SIDD.                      No:  Serv Intrp, DD 
 SINC.deg                68.42:  Inc, Start 
 SPPA.psig             4400.00:  SPP Avg 
 SPPN.psig             3580.00:  SPP Min 
 SPPX.psig             4850.00:  SPP Max 
 STIM.      12.30.00 24-Apr-21:  Start Time 
 SVCS.                 DD, MWD:  Services 
 SVER.                    9.20:  Sperry Version 
 TDAT.m                 438.00:  Tot Depth Attmp 
 TDDF.                      No:  Trip for DD 
 TDLG.m                 438.00:  Tot Depth Loggd 
 TFF .                      No:  Trip for Fail 
 TQAA.f-kp               11.00:  Torque Abs Avg 
 TQAN.f-kp                9.00:  Torque Abs Min 
 TQAX.f-kp               14.00:  Torque Abs Max 
 TRRT.°/30m               0.04:  Turn Rotating 
 MRT .                    HCIM:  Maximum Recorded Temperature 
 TTMX.degC               84.31:  Max Tool Temp 
 VS01.                90521954:  Virtual Str1 SN 
 VS02.                90519327:  Virtual Str2 SN 
 VS03.                90522273:  Virtual Str3 SN 
 VS04.                11108038:  Virtual Str4 SN 
 VS05.                12258760:  Virtual Str5 SN 
 WBMN.klb                 1.00:  WOB Min 
 WITN.           Adil Mammadov:  Customer Rep 
 WITN.         Alex Yadullayev:  Customer Rep 2 
 WOBA.klb                 6.00:  WOB Avg 
 WOBX.klb                 9.00:  WOB Max 
 YP  .lhf2               31.00:  Yield Point 
~Curve Information Block
#MNEM.UNIT                 API CODE     Curve Description
#---------               -----------    ---------------------------
 TIME.HHMMSS            00 000 000 000:  GT Time & Date
 GTDEPTH.m              00 000 000 000:  GT Depth
 GTPQH.psia             00 000 000 000:  GT HR Quartz Pressure
 GTTQ.degC              00 000 000 000:  GT Quartz Temperature
 GTTN.NONE              00 000 000 000:  GT Test Number
 GTET.sec               00 000 000 000:  GT Elapsed Test Time
 GTTVD.m                00 000 000 000:  GT True Vertical Depth
#Other Information
#
#WARRANTY: Halliburton will use its best efforts to furnish customers with 
#accurate information and interpretations that are part of, and incident to, the services 
#provided.  However, Halliburton cannot and does not warrant the accuracy 
#or correctness of such information and interpretations.  Under no circumstances should any 
#such information or interpretation be relied upon as the sole basis for any drilling, 
#completion, production, or financial decision or any procedure involving any risk to the 
#safety of any drilling venture, drilling rig or its crew or any other third party.  The 
#Customer has full responsibility for all drilling, completion and production operation.  
#Halliburton makes no representations or warranties, either expressed or 
#implied, including, but not limited to, the implied warranties of merchantability or fitness 
#for a particular purpose, with respect to the services rendered.  In no event will 
#Halliburton be liable for failure to obtain any particular results or for 
#any damages, including, but not limited to, indirect, special or consequential damages, 
#resulting from the use of any information or interpretation provided by Halliburton.
#
~A           TIME           GTDEPTH  GTPQH  GTTQ  GTTN   GTET   GTTVD  
# ...
   15:41:53.009.28-Apr-2021 3537.51 4280.84 74.46 10.00 248.69 2773.98
   15:41:53.209.28-Apr-2021 3537.51 4280.92 74.46 10.00 248.89 2773.98
   15:41:53.409.28-Apr-2021 3537.51 4280.90 74.46 10.00 249.10 2773.98
   15:41:53.609.28-Apr-2021 3537.51 4280.90 74.46 10.00 249.30 2773.98
   15:41:53.809.28-Apr-2021 3537.51 4280.94 74.46 10.00 249.50 2773.98
   15:41:54.009.28-Apr-2021 3537.51 4280.74 74.45 10.00 249.70 2773.98
   15:41:54.210.28-Apr-2021 3537.51 4281.21 74.45 10.00 249.90 2773.98
   15:41:54.410.28-Apr-2021 3537.51 4281.12 74.45 10.00 250.10 2773.98
   15:41:54.610.28-Apr-2021 3537.51 4281.12 74.45 10.00 250.30 2773.98
   15:41:54.810.28-Apr-2021 3537.51 4281.02 74.45 10.00 250.50 2773.98
   15:41:55.010.28-Apr-2021 3537.51 4281.04 74.45 10.00 250.70 2773.98
   15:41:55.210.28-Apr-2021 3537.51 4281.05 74.45 10.00 250.90 2773.98
   15:41:55.410.28-Apr-2021 3537.51 4281.16 74.45 10.00 251.10 2773.98
   15:41:55.610.28-Apr-2021 3537.51 4281.16 74.45 10.00 251.30 2773.98
   15:41:55.810.28-Apr-2021 3537.51 4281.09 74.45 10.00 251.50 2773.98
   15:41:56.010.28-Apr-2021 3537.51 4280.84 74.45 10.00 251.70 2773.98
   15:41:56.210.28-Apr-2021 3537.51 4281.30 74.45 10.00 251.90 2773.98
   15:41:56.410.28-Apr-2021 3537.51 4281.22 74.45 10.00 252.10 2773.98
   15:41:56.610.28-Apr-2021 3537.51 4281.22 74.45 10.00 252.30 2773.98
   15:41:56.810.28-Apr-2021 3537.51 4281.10 74.45 10.00 252.50 2773.98
   15:41:57.011.28-Apr-2021 3537.51 4281.13 74.45 10.00 252.70 2773.98
   15:41:57.211.28-Apr-2021 3537.51 4280.90 74.45 10.00 252.90 2773.98
   15:41:57.411.28-Apr-2021 3537.51 4281.31 74.45 10.00 253.10 2773.98
   15:41:57.611.28-Apr-2021 3537.51 4281.31 74.45 10.00 253.30 2773.98
   15:41:57.811.28-Apr-2021 3537.51 4281.14 74.45 10.00 253.50 2773.98
   15:41:58.011.28-Apr-2021 3537.51 4281.11 74.44 10.00 253.70 2773.98
   15:41:58.211.28-Apr-2021 3537.51 4281.15 74.44 10.00 253.90 2773.98
   15:41:58.411.28-Apr-2021 3537.51 4281.16 74.44 10.00 254.10 2773.98
   15:41:58.611.28-Apr-2021 3537.51 4281.16 74.44 10.00 254.30 2773.98
   15:41:58.811.28-Apr-2021 3537.51 4281.13 74.44 10.00 254.50 2773.98
   15:41:59.011.28-Apr-2021 3537.51 4281.10 74.44 10.00 254.70 2773.98
   15:41:59.211.28-Apr-2021 3537.51 4281.16 74.44 10.00 254.90 2773.98
   15:41:59.411.28-Apr-2021 3537.51 4281.11 74.44 10.00 255.10 2773.98
   15:41:59.612.28-Apr-2021 3537.51 4281.11 74.44 10.00 255.30 2773.98
   15:41:59.812.28-Apr-2021 3537.51 4280.89 74.44 10.00 255.50 2773.98
   15:42:00.012.28-Apr-2021 3537.51 4281.26 74.44 10.00 255.70 2773.98
   15:42:00.212.28-Apr-2021 3537.51 4281.19 74.44 10.00 255.90 2773.98
   15:42:00.412.28-Apr-2021 3537.51 4281.13 74.44 10.00 256.10 2773.98
   15:42:00.612.28-Apr-2021 3537.51 4281.13 74.44 10.00 256.30 2773.98
   15:42:00.812.28-Apr-2021 3537.51 4281.08 74.44 10.00 256.50 2773.98
   15:42:01.012.28-Apr-2021 3537.51 4281.15 74.44 10.00 256.70 2773.98
   15:42:01.212.28-Apr-2021 3537.51 4281.14 74.44 10.00 256.90 2773.98
   15:42:01.412.28-Apr-2021 3537.51 4281.11 74.44 10.00 257.10 2773.98
   15:42:01.612.28-Apr-2021 3537.51 4281.11 74.44 10.00 257.30 2773.98
   15:42:01.812.28-Apr-2021 3537.51 4281.09 74.43 10.00 257.50 2773.98
   15:42:02.012.28-Apr-2021 3537.51 4281.15 74.43 10.00 257.70 2773.98
   15:42:02.213.28-Apr-2021 3537.51 4281.10 74.43 10.00 257.90 2773.98
   15:42:02.413.28-Apr-2021 3537.51 4281.12 74.43 10.00 258.10 2773.98
   15:42:02.613.28-Apr-2021 3537.51 4281.12 74.43 10.00 258.30 2773.98
   15:42:02.813.28-Apr-2021 3537.51 4281.28 74.43 10.00 258.50 2773.98
   15:42:03.013.28-Apr-2021 3537.51 4281.21 74.43 10.00 258.70 2773.98
   15:42:03.213.28-Apr-2021 3537.51 4281.11 74.43 10.00 258.90 2773.98
   15:42:03.413.28-Apr-2021 3537.51 4281.14 74.43 10.00 259.10 2773.98
   15:42:03.613.28-Apr-2021 3537.51 4281.14 74.43 10.00 259.30 2773.98
   15:42:03.813.28-Apr-2021 3537.51 4281.07 74.43 10.00 259.50 2773.98
   15:42:04.013.28-Apr-2021 3537.51 4281.19 74.43 10.00 259.70 2773.98
   15:42:04.213.28-Apr-2021 3537.51 4281.16 74.43 10.00 259.90 2773.98
   15:42:04.413.28-Apr-2021 3537.51 4281.14 74.43 10.00 260.10 2773.98
   15:42:04.613.28-Apr-2021 3537.51 4281.14 74.43 10.00 260.30 2773.98
   15:42:04.814.28-Apr-2021 3537.51 4281.36 74.43 10.00 260.50 2773.98
   15:42:05.014.28-Apr-2021 3537.51 4281.18 74.43 10.00 260.70 2773.98
   15:42:05.214.28-Apr-2021 3537.51 4281.17 74.43 10.00 260.90 2773.98
   15:42:05.414.28-Apr-2021 3537.51 4281.10 74.43 10.00 261.10 2773.98
   15:42:05.614.28-Apr-2021 3537.51 4281.10 74.43 10.00 261.30 2773.98
   15:42:05.814.28-Apr-2021 3537.51 4280.92 74.42 10.00 261.50 2773.98
   15:42:06.014.28-Apr-2021 3537.51 4281.30 74.42 10.00 261.70 2773.98
   15:42:06.214.28-Apr-2021 3537.51 4281.20 74.42 10.00 261.90 2773.98
   15:42:06.414.28-Apr-2021 3537.51 4281.11 74.42 10.00 262.10 2773.98
   15:42:06.614.28-Apr-2021 3537.51 4281.11 74.42 10.00 262.30 2773.98
   15:42:06.814.28-Apr-2021 3537.51 4281.13 74.42 10.00 262.50 2773.98
   15:42:07.014.28-Apr-2021 3537.51 4281.16 74.42 10.00 262.70 2773.98
   15:42:07.214.28-Apr-2021 3537.51 4281.15 74.42 10.00 262.90 2773.98
   15:42:07.415.28-Apr-2021 3537.51 4281.10 74.42 10.00 263.10 2773.98
   15:42:07.615.28-Apr-2021 3537.51 4281.10 74.42 10.00 263.30 2773.98
   15:42:07.815.28-Apr-2021 3537.51 4281.11 74.42 10.00 263.50 2773.98
   15:42:08.015.28-Apr-2021 3537.51 4281.15 74.42 10.00 263.70 2773.98
   15:42:08.215.28-Apr-2021 3537.51 4281.11 74.42 10.00 263.90 2773.98
   15:42:08.415.28-Apr-2021 3537.51 4280.89 74.42 10.00 264.10 2773.98
   15:42:08.615.28-Apr-2021 3537.51 4280.89 74.42 10.00 264.30 2773.98
   15:42:08.815.28-Apr-2021 3537.51 4281.13 74.42 10.00 264.50 2773.98
   15:42:09.015.28-Apr-2021 3537.51 4281.15 74.42 10.00 264.70 2773.98
   15:42:09.215.28-Apr-2021 3537.51 4281.12 74.42 10.00 264.90 2773.98
   15:42:09.415.28-Apr-2021 3537.51 4281.10 74.41 10.00 265.10 2773.98
   15:42:09.615.28-Apr-2021 3537.51 4281.10 74.41 10.00 265.30 2773.98
   15:42:09.815.28-Apr-2021 3537.51 4281.12 74.41 10.00 265.50 2773.98
   15:42:10.016.28-Apr-2021 3537.51 4281.14 74.41 10.00 265.70 2773.98
   15:42:10.216.28-Apr-2021 3537.51 4281.09 74.41 10.00 265.90 2773.98
   15:42:10.416.28-Apr-2021 3537.51 4281.13 74.41 10.00 266.10 2773.98
   15:42:10.616.28-Apr-2021 3537.51 4281.13 74.41 10.00 266.30 2773.98
   15:42:10.816.28-Apr-2021 3537.51 4281.13 74.41 10.00 266.50 2773.98
   15:42:11.016.28-Apr-2021 3537.51 4281.10 74.41 10.00 266.70 2773.98
   15:42:11.216.28-Apr-2021 3537.51 4280.85 74.41 10.00 266.90 2773.98
   15:42:11.416.28-Apr-2021 3537.51 4281.29 74.41 10.00 267.10 2773.98
   15:42:11.616.28-Apr-2021 3537.51 4281.29 74.41 10.00 267.30 2773.98
   15:42:11.816.28-Apr-2021 3537.51 4281.14 74.41 10.00 267.50 2773.98
   15:42:12.016.28-Apr-2021 3537.51 4281.09 74.41 10.00 267.70 2773.98
   15:42:12.216.28-Apr-2021 3537.51 4281.12 74.41 10.00 267.90 2773.98
   15:42:12.416.28-Apr-2021 3537.51 4281.00 74.41 10.00 268.10 2773.98
   15:42:12.617.28-Apr-2021 3537.51 4281.00 74.41 10.00 268.30 2773.98
   15:42:12.817.28-Apr-2021 3537.51 4281.00 74.41 10.00 268.50 2773.98
   15:42:13.017.28-Apr-2021 3537.51 4281.12 74.41 10.00 268.70 2773.98
   15:42:13.217.28-Apr-2021 3537.51 4281.15 74.40 10.00 268.90 2773.98
   15:42:13.417.28-Apr-2021 3537.51 4280.82 74.40 10.00 269.10 2773.98
   15:42:13.617.28-Apr-2021 3537.51 4280.82 74.40 10.00 269.30 2773.98
   15:42:13.817.28-Apr-2021 3537.51 4281.19 74.40 10.00 269.50 2773.98
   15:42:14.017.28-Apr-2021 3537.51 4281.11 74.40 10.00 269.70 2773.98
   15:42:14.217.28-Apr-2021 3537.51 4281.10 74.40 10.00 269.90 2773.98
   15:42:14.417.28-Apr-2021 3537.51 4280.98 74.40 10.00 270.10 2773.98
   15:42:14.617.28-Apr-2021 3537.51 4280.98 74.40 10.00 270.30 2773.98
   15:42:14.817.28-Apr-2021 3537.51 4281.13 74.40 10.00 270.50 2773.98
   15:42:15.017.28-Apr-2021 3537.51 4281.17 74.40 10.00 270.70 2773.98
   15:42:15.218.28-Apr-2021 3537.51 4281.10 74.40 10.00 270.90 2773.98
   15:42:15.418.28-Apr-2021 3537.51 4281.09 74.40 10.00 271.10 2773.98
