~Version Information
 VERS.                  2.0:   CWLS log ASCII Standard -VERSION 2.0
 WRAP.                   NO:   One line per depth step
~Well Information Block
#MNEM.UNIT     VALUE/NAME     DESCRIPTION
#---------     -----------    ---------------------------
 STRT.S             18:57:18 28-Apr-21: START TIME 18:57:18 28-Apr-21
 STOP.S             19:03:45 28-Apr-21: STOP TIME  19:03:45 28-Apr-21
 STEP.S                   0.00: STEP TIME
 NULL.                 -999.25: NULL VALUE
 DFWT.                        :  DIST FWL TEXT
 DFST.                        :  DIST FSL TEXT
 DMF .             Drill Floor:  DRILL MEAS FROM
 STIM.      02.00.00 12-Apr-21:  START TIME
 DATE.      02.00.00 02-May-21:  END TIME
 SPUD.               09-Apr-21:  SPUD DATE
 NREF.                    Grid:  NORTH REFERENCE
 HPTY.       Minimum Curvature:  HOLE POS TYPE
 DMOD.             Drill Model:  DRILL MOD DESC
 SVYD.                  Survey:  SURVEY DESC
 ILTD.               Lithology:  INTERP LTH DESC
 FTOP.          Formation Tops:  FORM TOPS DESC
 PDAT.          Mean Sea Level:  PERMANENT DATUM
 FLD .                     ACG:  FIELD NAME
 SON .        AZ-XX-0907021034:  JOB NUMBER
 CTRY.              Azerbaijan:  COUNTRY NAME
 WELL.                    E01x:  WELL NAME
 COMP.     BP Exploration (Caspian Sea) LTD.:  COMPANY
 UWI .            /AZE00001403:  UNIQUE WELL IDENTIFIER
 API .            /AZE00001403:  API NUMBER
 WTYP.                Deviated:  WELL TYPE
 MDS .        Operator Entered:  MAG DATA SOURCE
 BASE.              Azerbaijan:  LOGGING EQUIPMENT BASE LOCATION
 REGN.                   EESSA:  REGION
 PROV.                    Baku:  PROVINCE
 STAT.                    Baku:  STATE NAME
 SRVC.          Turan Drilling:  CONTRACTOR
 MWDS.                    Baku:  MWD SHOP
 JOBN.        AZ-XX-0907021034:  JOB TICKET NUMB
 RIG .                     DWG:  RIG NAME
 DOE .                     N/A:  DOE NUMBER
 DCON.         Sperry Drilling:  DIRECTNL CONTR
 UNIT.                     N/A:  LOGGING EQUIPMENT ID
 CNTY.                        :  COUNTY
 LOC .                        :  LOCATION
 LMF .             Drill Floor:  LOG MEASURED FROM
 TVDS.m                  43.16:  TVDSS CORRECTN
 LATI.deg                40.17:  LATITUDE
 LONG.deg                51.17:  LONGITUDE
 WHNS.m                  -5.90:  WELL HEAD N/S
 WHEW.m                  -6.61:  WELL HEAD E/W
 UTMX.m              514337.95:  UTM X
 UTMY.m             4448627.46:  UTM Y
 DFWL.m                   0.00:  DISTANCE FWL
 DFSL.m                   0.00:  DISTANCE FSL
 SDEP.m                2606.87:  START DEPTH
 TDD .m                3618.01:  TOTAL DEPTH (DRILLER)
 VSDR.deg               177.42:  VERT SEC DIRECT
 GVFD.g                   1.00:  GRAVITY FIELD
 MFLD.nT              50399.00:  MAGNETIC FIELD
 MDIP.deg                59.67:  MAGNETIC DIP
 MDEC.deg                 6.56:  MAGNETIC DECL
 GRDC.deg                 0.11:  GRID CORRECTION
 AZTC.deg                 6.45:  AZM TOTAL CORR
 EPD .m                   0.00:  ELEVATION
 EGL .m                   0.00:  GROUND ELEVATION
 WDMS.m                 176.20:  WD ELEV
 APD .m                  43.16:  DEPTH ABOVE PD
 DEP .m                2606.87:  DEPTH
 AGAP.m                  43.16:  AIR GAP
 VSEW.m                  -6.61:  VERT SEC E/W
 VSNS.m                  -5.90:  VERT SEC N/S
 EKB .m                  43.16:  KB ELEVATION
 EDF .m                  43.16:  DF ELEVATION
 TDL .m                 438.00:  TOTAL DEPTH (LOGGER)
 VSC .                       0:  VS TO CLOSURE
 MAGU.                 1855490:  MAGUTM CHECKSUM
~Parameter Information Block
#MNEM.UNIT       Value        Description
#---------     -----------    ---------------------------
 AV  .mps                 2.20:  Ann Velocity 
 AVMX.mps                 2.50:  Max Ann Veloc 
 AZIF.deg               150.21:  Azm, Final 
 BHAT.        Rotary Steerable:  BHA Type 
 BROT.°/30m               0.08:  Build Rotating 
 BS  .in                  6.50:  Bit Size 
 BSZ .in                  6.50:  Bit Size 
 BTPL.psig              108.00:  Bit Press Loss 
 CABU.                     Yes:  Customer Abuse 
 CGEO.           Emin Aliyarli:  Customer Geo 
 COMM.                     ´âi:  Run Comments 1 
 TCS .hr                 74.20:  Time Ciculation Ended 
 CV  .mps                 3.63:  Crit Velocity 
 CVMX.mps                 3.66:  Max Crit Veloc 
 DD1 .         Intigam Rahimov:  Direct Drillr 1 
 DD2 .          Teymur Aghayev:  Direct Drillr 2 
 DDSV.               Geo-Pilot:  DD Service 
 DEFF.%                  97.00:  % Det Eff 
 DLRX.°/30m               1.63:  Dogleg Rot Max 
 DLSO.°/30m               0.00:  Dogleg Oriented 
 DLSX.°/30m               0.00:  Dogleg Str Max 
 DRET.      20.20.00 28-Apr-21:  Drill End Time 
 DRST.      04.45.00 26-Apr-21:  Drill Start Tim 
 DTIM.hr                 34.30:  Time Drilling 
 EDEP.m                3618.01:  End Depth 
 ENG1.           Amrah Tahirov:  Engineer 1 
 ENG2.         Bahruz Mehdiyev:  Engineer 2 
 ENG3.         Farhad Orujzade:  Engineer 3 
 ETIM.      19.00.00 29-Apr-21:  End Time 
 FLOI.gpm               370.00:  Flow In 
 FLON.gpm               300.00:  Flow In Min 
 FLOS.cptm                0.00:  Fluid Loss 
 FLOX.gpm               410.00:  Flow In Max 
 HFLO.                      No:  High Flow 
 HPRE.                      No:  High Pressure 
 HTEM.                      No:  High Temp 
 HYDO.m                   1.80:  Hydro Offset 
 IFIN.deg                67.19:  Inc, Final 
 IMAX.deg                68.42:  Inc Max 
 IMIN.deg                66.33:  Inc Min 
 IMND.m                3532.79:  Inc Min Depth 
 IMXD.m                3192.15:  Inc Max Depth 
 JARR.                      No:  Jarring 
 LETM.      20.20.00 28-Apr-21:  Log End Time 
 LOST.hr                     0:  Lost Rig Time 
 LSTM.      04.45.00 26-Apr-21:  Log Start Time 
 MDCL.ppm             36500.00:  Mud Chlorides 
 MDES.     Inversion Oil/Synthetic:  Mud Desc 
 DFD .sg                  1.42:  Mud Density 
 MDMN.sg                  1.42:  Dens Mud Min 
 MDMX.sg                  1.42:  Dens Mud Max 
 MOIL.                    55.7:  Run Mud Oil % 
 MOWR.                   71:29:  Run Mud OWR 
 MSND.                     0.1:  Run Mud Sand % 
 MSOL.                    19.9:  Run Mud Solids% 
 DFV .spqt               83.00:  Mud Viscosity 
 MWOD.in                  5.15:  MWD Tool OD 
 MWSI.                      No:  Serv Intrp, MWD 
 OTIM.hr                120.59:  Time Operating 
 PCON.           Look Like New:  Pad Condition 
 PMAX.psia            11292.93:  Press Op, Max 
 PV  .cP                 27.00:  Mud PV 
 RUN .                     400:  Run Number 
 ROPA.m/hr               14.00:  ROP Avg 
 ROPN.m/hr                9.00:  ROP Min 
 ROPX.m/hr               18.00:  ROP Max 
 RPMA.rpm               130.00:  RPM Surface Avg 
 RPMN.rpm               100.00:  RPM Surface Min 
 RPMX.rpm               140.00:  RPM Surface Max 
 RRUN.                    0400:  Rig Run Number 
 RTIM.hr                 38.60:  Time Reaming 
 SAZI.deg               149.55:  Azm, Start 
 SDEP.m                3180.01:  Start Depth 
 SIDD.                      No:  Serv Intrp, DD 
 SINC.deg                68.42:  Inc, Start 
 SPPA.psig             4400.00:  SPP Avg 
 SPPN.psig             3580.00:  SPP Min 
 SPPX.psig             4850.00:  SPP Max 
 STIM.      12.30.00 24-Apr-21:  Start Time 
 SVCS.                 DD, MWD:  Services 
 SVER.                    9.20:  Sperry Version 
 TDAT.m                 438.00:  Tot Depth Attmp 
 TDDF.                      No:  Trip for DD 
 TDLG.m                 438.00:  Tot Depth Loggd 
 TFF .                      No:  Trip for Fail 
 TQAA.f-kp               11.00:  Torque Abs Avg 
 TQAN.f-kp                9.00:  Torque Abs Min 
 TQAX.f-kp               14.00:  Torque Abs Max 
 TRRT.°/30m               0.04:  Turn Rotating 
 MRT .                    HCIM:  Maximum Recorded Temperature 
 TTMX.degC               84.31:  Max Tool Temp 
 VS01.                90521954:  Virtual Str1 SN 
 VS02.                90519327:  Virtual Str2 SN 
 VS03.                90522273:  Virtual Str3 SN 
 VS04.                11108038:  Virtual Str4 SN 
 VS05.                12258760:  Virtual Str5 SN 
 WBMN.klb                 1.00:  WOB Min 
 WITN.           Adil Mammadov:  Customer Rep 
 WITN.         Alex Yadullayev:  Customer Rep 2 
 WOBA.klb                 6.00:  WOB Avg 
 WOBX.klb                 9.00:  WOB Max 
 YP  .lhf2               31.00:  Yield Point 
~Curve Information Block
#MNEM.UNIT                 API CODE     Curve Description
#---------               -----------    ---------------------------
 TIME.HHMMSS            00 000 000 000:  GT Time & Date
 GTDEPTH.m              00 000 000 000:  GT Depth
 GTPQH.psia             00 000 000 000:  GT HR Quartz Pressure
 GTTQ.degC              00 000 000 000:  GT Quartz Temperature
 GTTN.NONE              00 000 000 000:  GT Test Number
 GTET.sec               00 000 000 000:  GT Elapsed Test Time
 GTTVD.m                00 000 000 000:  GT True Vertical Depth
#Other Information
#
#WARRANTY: Halliburton will use its best efforts to furnish customers with 
#accurate information and interpretations that are part of, and incident to, the services 
#provided.  However, Halliburton cannot and does not warrant the accuracy 
#or correctness of such information and interpretations.  Under no circumstances should any 
#such information or interpretation be relied upon as the sole basis for any drilling, 
#completion, production, or financial decision or any procedure involving any risk to the 
#safety of any drilling venture, drilling rig or its crew or any other third party.  The 
#Customer has full responsibility for all drilling, completion and production operation.  
#Halliburton makes no representations or warranties, either expressed or 
#implied, including, but not limited to, the implied warranties of merchantability or fitness 
#for a particular purpose, with respect to the services rendered.  In no event will 
#Halliburton be liable for failure to obtain any particular results or for 
#any damages, including, but not limited to, indirect, special or consequential damages, 
#resulting from the use of any information or interpretation provided by Halliburton.
#
~A           TIME           GTDEPTH  GTPQH  GTTQ  GTTN   GTET   GTTVD  
# ...
   18:58:48.660.28-Apr-2021 3565.01 4084.54 75.37 11.00  90.43 2784.87
   18:58:48.860.28-Apr-2021 3565.01 4084.45 75.37 11.00  90.63 2784.87
   18:58:49.060.28-Apr-2021 3565.01 4084.44 75.37 11.00  90.83 2784.87
   18:58:49.260.28-Apr-2021 3565.01 4084.43 75.36 11.00  91.03 2784.87
   18:58:49.460.28-Apr-2021 3565.01 4084.43 75.36 11.00  91.23 2784.87
   18:58:49.660.28-Apr-2021 3565.01 4084.26 75.36 11.00  91.43 2784.87
   18:58:49.860.28-Apr-2021 3565.01 4084.54 75.36 11.00  91.63 2784.87
   18:58:50.060.28-Apr-2021 3565.01 4084.47 75.36 11.00  91.83 2784.87
   18:58:50.260.28-Apr-2021 3565.01 4084.42 75.36 11.00  92.03 2784.87
   18:58:50.460.28-Apr-2021 3565.01 4084.42 75.36 11.00  92.23 2784.87
   18:58:50.660.28-Apr-2021 3565.01 4084.40 75.36 11.00  92.43 2784.87
   18:58:50.860.28-Apr-2021 3565.01 4084.46 75.36 11.00  92.63 2784.87
   18:58:51.060.28-Apr-2021 3565.01 4084.44 75.36 11.00  92.83 2784.87
   18:58:51.260.28-Apr-2021 3565.01 4084.41 75.36 11.00  93.03 2784.87
   18:58:51.460.28-Apr-2021 3565.01 4084.41 75.36 11.00  93.23 2784.87
   18:58:51.660.28-Apr-2021 3565.01 4084.41 75.36 11.00  93.43 2784.87
   18:58:51.861.28-Apr-2021 3565.01 4084.44 75.36 11.00  93.63 2784.87
   18:58:52.061.28-Apr-2021 3565.01 4084.42 75.36 11.00  93.83 2784.87
   18:58:52.261.28-Apr-2021 3565.01 4084.34 75.36 11.00  94.03 2784.87
   18:58:52.461.28-Apr-2021 3565.01 4084.34 75.36 11.00  94.23 2784.87
   18:58:52.661.28-Apr-2021 3565.01 4084.44 75.35 11.00  94.43 2784.87
   18:58:52.861.28-Apr-2021 3565.01 4084.46 75.35 11.00  94.63 2784.87
   18:58:53.061.28-Apr-2021 3565.01 4084.40 75.35 11.00  94.83 2784.87
   18:58:53.261.28-Apr-2021 3565.01 4084.41 75.35 11.00  95.03 2784.87
   18:58:53.461.28-Apr-2021 3565.01 4084.41 75.35 11.00  95.23 2784.87
   18:58:53.661.28-Apr-2021 3565.01 4084.42 75.35 11.00  95.43 2784.87
   18:58:53.861.28-Apr-2021 3565.01 4084.43 75.35 11.00  95.63 2784.87
   18:58:54.061.28-Apr-2021 3565.01 4084.39 75.35 11.00  95.83 2784.87
   18:58:54.261.28-Apr-2021 3565.01 4084.41 75.35 11.00  96.03 2784.87
   18:58:54.461.28-Apr-2021 3565.01 4084.41 75.35 11.00  96.23 2784.87
   18:58:54.661.28-Apr-2021 3565.01 4084.42 75.35 11.00  96.43 2784.87
   18:58:54.861.28-Apr-2021 3565.01 4084.41 75.35 11.00  96.63 2784.87
   18:58:55.061.28-Apr-2021 3565.01 4084.26 75.35 11.00  96.83 2784.87
   18:58:55.262.28-Apr-2021 3565.01 4084.45 75.35 11.00  97.03 2784.87
   18:58:55.462.28-Apr-2021 3565.01 4084.45 75.35 11.00  97.23 2784.87
   18:58:55.662.28-Apr-2021 3565.01 4084.43 75.35 11.00  97.43 2784.87
   18:58:55.862.28-Apr-2021 3565.01 4084.39 75.35 11.00  97.63 2784.87
   18:58:56.062.28-Apr-2021 3565.01 4084.39 75.34 11.00  97.83 2784.87
   18:58:56.262.28-Apr-2021 3565.01 4084.24 75.34 11.00  98.03 2784.87
   18:58:56.462.28-Apr-2021 3565.01 4084.24 75.34 11.00  98.23 2784.87
   18:58:56.662.28-Apr-2021 3565.01 4084.41 75.34 11.00  98.43 2784.87
   18:58:56.862.28-Apr-2021 3565.01 4084.39 75.34 11.00  98.63 2784.87
   18:58:57.062.28-Apr-2021 3565.01 4084.40 75.34 11.00  98.83 2784.87
   18:58:57.262.28-Apr-2021 3565.01 4084.34 75.34 11.00  99.03 2784.87
   18:58:57.462.28-Apr-2021 3565.01 4084.34 75.34 11.00  99.23 2784.87
   18:58:57.662.28-Apr-2021 3565.01 4084.39 75.34 11.00  99.43 2784.87
   18:58:57.862.28-Apr-2021 3565.01 4084.40 75.34 11.00  99.63 2784.87
   18:58:58.062.28-Apr-2021 3565.01 4084.41 75.34 11.00  99.83 2784.87
   18:58:58.262.28-Apr-2021 3565.01 4084.36 75.34 11.00 100.03 2784.87
   18:58:58.462.28-Apr-2021 3565.01 4084.36 75.34 11.00 100.23 2784.87
   18:58:58.663.28-Apr-2021 3565.01 4084.30 75.34 11.00 100.43 2784.87
   18:58:58.863.28-Apr-2021 3565.01 4084.36 75.34 11.00 100.63 2784.87
   18:58:59.063.28-Apr-2021 3565.01 4084.38 75.34 11.00 100.83 2784.87
   18:58:59.263.28-Apr-2021 3565.01 4084.40 75.34 11.00 101.03 2784.87
   18:58:59.463.28-Apr-2021 3565.01 4084.40 75.34 11.00 101.23 2784.87
   18:58:59.663.28-Apr-2021 3565.01 4084.36 75.33 11.00 101.43 2784.87
   18:58:59.863.28-Apr-2021 3565.01 4084.39 75.33 11.00 101.63 2784.87
   18:59:00.063.28-Apr-2021 3565.01 4084.37 75.33 11.00 101.83 2784.87
   18:59:00.263.28-Apr-2021 3565.01 4084.38 75.33 11.00 102.03 2784.87
   18:59:00.463.28-Apr-2021 3565.01 4084.38 75.33 11.00 102.23 2784.87
   18:59:00.663.28-Apr-2021 3565.01 4084.36 75.33 11.00 102.43 2784.87
   18:59:00.863.28-Apr-2021 3565.01 4084.36 75.33 11.00 102.63 2784.87
   18:59:01.063.28-Apr-2021 3565.01 4084.36 75.33 11.00 102.83 2784.87
   18:59:01.263.28-Apr-2021 3565.01 4084.38 75.33 11.00 103.03 2784.87
   18:59:01.463.28-Apr-2021 3565.01 4084.38 75.33 11.00 103.23 2784.87
   18:59:01.663.28-Apr-2021 3565.01 4084.44 75.33 11.00 103.43 2784.87
   18:59:01.864.28-Apr-2021 3565.01 4084.34 75.33 11.00 103.63 2784.87
   18:59:02.064.28-Apr-2021 3565.01 4084.39 75.33 11.00 103.83 2784.87
   18:59:02.264.28-Apr-2021 3565.01 4084.35 75.33 11.00 104.03 2784.87
   18:59:02.464.28-Apr-2021 3565.01 4084.35 75.33 11.00 104.23 2784.87
   18:59:02.664.28-Apr-2021 3565.01 4084.37 75.33 11.00 104.43 2784.87
   18:59:02.864.28-Apr-2021 3565.01 4084.35 75.33 11.00 104.63 2784.87
   18:59:03.064.28-Apr-2021 3565.01 4084.37 75.32 11.00 104.83 2784.87
   18:59:03.264.28-Apr-2021 3565.01 4084.33 75.32 11.00 105.03 2784.87
   18:59:03.464.28-Apr-2021 3565.01 4084.33 75.32 11.00 105.23 2784.87
   18:59:03.664.28-Apr-2021 3565.01 4084.33 75.32 11.00 105.43 2784.87
   18:59:03.864.28-Apr-2021 3565.01 4084.35 75.32 11.00 105.63 2784.87
   18:59:04.064.28-Apr-2021 3565.01 4084.37 75.32 11.00 105.83 2784.87
   18:59:04.264.28-Apr-2021 3565.01 4084.13 75.32 11.00 106.03 2784.87
   18:59:04.464.28-Apr-2021 3565.01 4084.13 75.32 11.00 106.23 2784.87
   18:59:04.664.28-Apr-2021 3565.01 4084.35 75.32 11.00 106.43 2784.87
   18:59:04.864.28-Apr-2021 3565.01 4084.36 75.32 11.00 106.63 2784.87
   18:59:05.064.28-Apr-2021 3565.01 4084.34 75.32 11.00 106.83 2784.87
   18:59:05.265.28-Apr-2021 3565.01 4084.30 75.32 11.00 107.03 2784.87
   18:59:05.465.28-Apr-2021 3565.01 4084.30 75.32 11.00 107.23 2784.87
   18:59:05.665.28-Apr-2021 3565.01 4084.42 75.32 11.00 107.43 2784.87
   18:59:05.865.28-Apr-2021 3565.01 4084.40 75.32 11.00 107.63 2784.87
   18:59:06.065.28-Apr-2021 3565.01 4084.32 75.32 11.00 107.83 2784.87
   18:59:06.265.28-Apr-2021 3565.01 4084.34 75.32 11.00 108.03 2784.87
   18:59:06.465.28-Apr-2021 3565.01 4084.34 75.32 11.00 108.23 2784.87
   18:59:06.665.28-Apr-2021 3565.01 4084.34 75.32 11.00 108.43 2784.87
   18:59:06.865.28-Apr-2021 3565.01 4084.41 75.31 11.00 108.63 2784.87
   18:59:07.065.28-Apr-2021 3565.01 4084.31 75.31 11.00 108.83 2784.87
   18:59:07.265.28-Apr-2021 3565.01 4084.35 75.31 11.00 109.03 2784.87
   18:59:07.465.28-Apr-2021 3565.01 4084.35 75.31 11.00 109.23 2784.87
   18:59:07.665.28-Apr-2021 3565.01 4084.31 75.31 11.00 109.43 2784.87
   18:59:07.865.28-Apr-2021 3565.01 4084.22 75.31 11.00 109.63 2784.87
   18:59:08.065.28-Apr-2021 3565.01 4084.38 75.31 11.00 109.83 2784.87
   18:59:08.265.28-Apr-2021 3565.01 4084.32 75.31 11.00 110.03 2784.87
   18:59:08.465.28-Apr-2021 3565.01 4084.32 75.31 11.00 110.23 2784.87
   18:59:08.666.28-Apr-2021 3565.01 4084.32 75.31 11.00 110.43 2784.87
   18:59:08.866.28-Apr-2021 3565.01 4084.29 75.31 11.00 110.63 2784.87
   18:59:09.066.28-Apr-2021 3565.01 4084.35 75.31 11.00 110.83 2784.87
   18:59:09.266.28-Apr-2021 3565.01 4084.32 75.31 11.00 111.03 2784.87
   18:59:09.466.28-Apr-2021 3565.01 4084.32 75.31 11.00 111.23 2784.87
   18:59:09.666.28-Apr-2021 3565.01 4084.31 75.31 11.00 111.43 2784.87
   18:59:09.866.28-Apr-2021 3565.01 4084.29 75.31 11.00 111.63 2784.87
   18:59:10.066.28-Apr-2021 3565.01 4084.34 75.30 11.00 111.83 2784.87
   18:59:10.266.28-Apr-2021 3565.01 4084.30 75.30 11.00 112.03 2784.87
   18:59:10.466.28-Apr-2021 3565.01 4084.30 75.30 11.00 112.23 2784.87
   18:59:10.666.28-Apr-2021 3565.01 4084.11 75.30 11.00 112.43 2784.87
   18:59:10.866.28-Apr-2021 3565.01 4084.41 75.30 11.00 112.63 2784.87
   18:59:11.066.28-Apr-2021 3565.01 4084.34 75.30 11.00 112.83 2784.87
