~Version Information
 VERS.                  2.0:   CWLS log ASCII Standard -VERSION 2.0
 WRAP.                   NO:   One line per depth step
~Well Information Block
#MNEM.UNIT     VALUE/NAME     DESCRIPTION
#---------     -----------    ---------------------------
 STRT.S             06:54:29 28-Apr-21: START TIME 06:54:29 28-Apr-21
 STOP.S             07:00:57 28-Apr-21: STOP TIME  07:00:57 28-Apr-21
 STEP.S                   0.00: STEP TIME
 NULL.                 -999.25: NULL VALUE
 DFWT.                        :  DIST FWL TEXT
 DFST.                        :  DIST FSL TEXT
 DMF .             Drill Floor:  DRILL MEAS FROM
 STIM.      02.00.00 12-Apr-21:  START TIME
 DATE.      02.00.00 02-May-21:  END TIME
 SPUD.               09-Apr-21:  SPUD DATE
 NREF.                    Grid:  NORTH REFERENCE
 HPTY.       Minimum Curvature:  HOLE POS TYPE
 DMOD.             Drill Model:  DRILL MOD DESC
 SVYD.                  Survey:  SURVEY DESC
 ILTD.               Lithology:  INTERP LTH DESC
 FTOP.          Formation Tops:  FORM TOPS DESC
 PDAT.          Mean Sea Level:  PERMANENT DATUM
 FLD .                     ACG:  FIELD NAME
 SON .        AZ-XX-0907021034:  JOB NUMBER
 CTRY.              Azerbaijan:  COUNTRY NAME
 WELL.                    E01x:  WELL NAME
 COMP.     BP Exploration (Caspian Sea) LTD.:  COMPANY
 UWI .            /AZE00001403:  UNIQUE WELL IDENTIFIER
 API .            /AZE00001403:  API NUMBER
 WTYP.                Deviated:  WELL TYPE
 MDS .        Operator Entered:  MAG DATA SOURCE
 BASE.              Azerbaijan:  LOGGING EQUIPMENT BASE LOCATION
 REGN.                   EESSA:  REGION
 PROV.                    Baku:  PROVINCE
 STAT.                    Baku:  STATE NAME
 SRVC.          Turan Drilling:  CONTRACTOR
 MWDS.                    Baku:  MWD SHOP
 JOBN.        AZ-XX-0907021034:  JOB TICKET NUMB
 RIG .                     DWG:  RIG NAME
 DOE .                     N/A:  DOE NUMBER
 DCON.         Sperry Drilling:  DIRECTNL CONTR
 UNIT.                     N/A:  LOGGING EQUIPMENT ID
 CNTY.                        :  COUNTY
 LOC .                        :  LOCATION
 LMF .             Drill Floor:  LOG MEASURED FROM
 TVDS.m                  43.16:  TVDSS CORRECTN
 LATI.deg                40.17:  LATITUDE
 LONG.deg                51.17:  LONGITUDE
 WHNS.m                  -5.90:  WELL HEAD N/S
 WHEW.m                  -6.61:  WELL HEAD E/W
 UTMX.m              514337.95:  UTM X
 UTMY.m             4448627.46:  UTM Y
 DFWL.m                   0.00:  DISTANCE FWL
 DFSL.m                   0.00:  DISTANCE FSL
 SDEP.m                2606.87:  START DEPTH
 TDD .m                3618.01:  TOTAL DEPTH (DRILLER)
 VSDR.deg               177.42:  VERT SEC DIRECT
 GVFD.g                   1.00:  GRAVITY FIELD
 MFLD.nT              50399.00:  MAGNETIC FIELD
 MDIP.deg                59.67:  MAGNETIC DIP
 MDEC.deg                 6.56:  MAGNETIC DECL
 GRDC.deg                 0.11:  GRID CORRECTION
 AZTC.deg                 6.45:  AZM TOTAL CORR
 EPD .m                   0.00:  ELEVATION
 EGL .m                   0.00:  GROUND ELEVATION
 WDMS.m                 176.20:  WD ELEV
 APD .m                  43.16:  DEPTH ABOVE PD
 DEP .m                2606.87:  DEPTH
 AGAP.m                  43.16:  AIR GAP
 VSEW.m                  -6.61:  VERT SEC E/W
 VSNS.m                  -5.90:  VERT SEC N/S
 EKB .m                  43.16:  KB ELEVATION
 EDF .m                  43.16:  DF ELEVATION
 TDL .m                 438.00:  TOTAL DEPTH (LOGGER)
 VSC .                       0:  VS TO CLOSURE
 MAGU.                 1855490:  MAGUTM CHECKSUM
~Parameter Information Block
#MNEM.UNIT       Value        Description
#---------     -----------    ---------------------------
 AV  .mps                 2.20:  Ann Velocity 
 AVMX.mps                 2.50:  Max Ann Veloc 
 AZIF.deg               150.21:  Azm, Final 
 BHAT.        Rotary Steerable:  BHA Type 
 BROT.°/30m               0.08:  Build Rotating 
 BS  .in                  6.50:  Bit Size 
 BSZ .in                  6.50:  Bit Size 
 BTPL.psig              108.00:  Bit Press Loss 
 CABU.                     Yes:  Customer Abuse 
 CGEO.           Emin Aliyarli:  Customer Geo 
 COMM.                     Ô8c:  Run Comments 1 
 TCS .hr                 74.20:  Time Ciculation Ended 
 CV  .mps                 3.63:  Crit Velocity 
 CVMX.mps                 3.66:  Max Crit Veloc 
 DD1 .         Intigam Rahimov:  Direct Drillr 1 
 DD2 .          Teymur Aghayev:  Direct Drillr 2 
 DDSV.               Geo-Pilot:  DD Service 
 DEFF.%                  97.00:  % Det Eff 
 DLRX.°/30m               1.63:  Dogleg Rot Max 
 DLSO.°/30m               0.00:  Dogleg Oriented 
 DLSX.°/30m               0.00:  Dogleg Str Max 
 DRET.      20.20.00 28-Apr-21:  Drill End Time 
 DRST.      04.45.00 26-Apr-21:  Drill Start Tim 
 DTIM.hr                 34.30:  Time Drilling 
 EDEP.m                3618.01:  End Depth 
 ENG1.           Amrah Tahirov:  Engineer 1 
 ENG2.         Bahruz Mehdiyev:  Engineer 2 
 ENG3.         Farhad Orujzade:  Engineer 3 
 ETIM.      19.00.00 29-Apr-21:  End Time 
 FLOI.gpm               370.00:  Flow In 
 FLON.gpm               300.00:  Flow In Min 
 FLOS.cptm                0.00:  Fluid Loss 
 FLOX.gpm               410.00:  Flow In Max 
 HFLO.                      No:  High Flow 
 HPRE.                      No:  High Pressure 
 HTEM.                      No:  High Temp 
 HYDO.m                   1.80:  Hydro Offset 
 IFIN.deg                67.19:  Inc, Final 
 IMAX.deg                68.42:  Inc Max 
 IMIN.deg                66.33:  Inc Min 
 IMND.m                3532.79:  Inc Min Depth 
 IMXD.m                3192.15:  Inc Max Depth 
 JARR.                      No:  Jarring 
 LETM.      20.20.00 28-Apr-21:  Log End Time 
 LOST.hr                     0:  Lost Rig Time 
 LSTM.      04.45.00 26-Apr-21:  Log Start Time 
 MDCL.ppm             36500.00:  Mud Chlorides 
 MDES.     Inversion Oil/Synthetic:  Mud Desc 
 DFD .sg                  1.42:  Mud Density 
 MDMN.sg                  1.42:  Dens Mud Min 
 MDMX.sg                  1.42:  Dens Mud Max 
 MOIL.                    55.7:  Run Mud Oil % 
 MOWR.                   71:29:  Run Mud OWR 
 MSND.                     0.1:  Run Mud Sand % 
 MSOL.                    19.9:  Run Mud Solids% 
 DFV .spqt               83.00:  Mud Viscosity 
 MWOD.in                  5.15:  MWD Tool OD 
 MWSI.                      No:  Serv Intrp, MWD 
 OTIM.hr                120.59:  Time Operating 
 PCON.           Look Like New:  Pad Condition 
 PMAX.psia            11292.93:  Press Op, Max 
 PV  .cP                 27.00:  Mud PV 
 RUN .                     400:  Run Number 
 ROPA.m/hr               14.00:  ROP Avg 
 ROPN.m/hr                9.00:  ROP Min 
 ROPX.m/hr               18.00:  ROP Max 
 RPMA.rpm               130.00:  RPM Surface Avg 
 RPMN.rpm               100.00:  RPM Surface Min 
 RPMX.rpm               140.00:  RPM Surface Max 
 RRUN.                    0400:  Rig Run Number 
 RTIM.hr                 38.60:  Time Reaming 
 SAZI.deg               149.55:  Azm, Start 
 SDEP.m                3180.01:  Start Depth 
 SIDD.                      No:  Serv Intrp, DD 
 SINC.deg                68.42:  Inc, Start 
 SPPA.psig             4400.00:  SPP Avg 
 SPPN.psig             3580.00:  SPP Min 
 SPPX.psig             4850.00:  SPP Max 
 STIM.      12.30.00 24-Apr-21:  Start Time 
 SVCS.                 DD, MWD:  Services 
 SVER.                    9.20:  Sperry Version 
 TDAT.m                 438.00:  Tot Depth Attmp 
 TDDF.                      No:  Trip for DD 
 TDLG.m                 438.00:  Tot Depth Loggd 
 TFF .                      No:  Trip for Fail 
 TQAA.f-kp               11.00:  Torque Abs Avg 
 TQAN.f-kp                9.00:  Torque Abs Min 
 TQAX.f-kp               14.00:  Torque Abs Max 
 TRRT.°/30m               0.04:  Turn Rotating 
 MRT .                    HCIM:  Maximum Recorded Temperature 
 TTMX.degC               84.31:  Max Tool Temp 
 VS01.                90521954:  Virtual Str1 SN 
 VS02.                90519327:  Virtual Str2 SN 
 VS03.                90522273:  Virtual Str3 SN 
 VS04.                11108038:  Virtual Str4 SN 
 VS05.                12258760:  Virtual Str5 SN 
 WBMN.klb                 1.00:  WOB Min 
 WITN.           Adil Mammadov:  Customer Rep 
 WITN.         Alex Yadullayev:  Customer Rep 2 
 WOBA.klb                 6.00:  WOB Avg 
 WOBX.klb                 9.00:  WOB Max 
 YP  .lhf2               31.00:  Yield Point 
~Curve Information Block
#MNEM.UNIT                 API CODE     Curve Description
#---------               -----------    ---------------------------
 TIME.HHMMSS            00 000 000 000:  GT Time & Date
 GTDEPTH.m              00 000 000 000:  GT Depth
 GTPQH.psia             00 000 000 000:  GT HR Quartz Pressure
 GTTQ.degC              00 000 000 000:  GT Quartz Temperature
 GTTN.NONE              00 000 000 000:  GT Test Number
 GTET.sec               00 000 000 000:  GT Elapsed Test Time
 GTTVD.m                00 000 000 000:  GT True Vertical Depth
#Other Information
#
#WARRANTY: Halliburton will use its best efforts to furnish customers with 
#accurate information and interpretations that are part of, and incident to, the services 
#provided.  However, Halliburton cannot and does not warrant the accuracy 
#or correctness of such information and interpretations.  Under no circumstances should any 
#such information or interpretation be relied upon as the sole basis for any drilling, 
#completion, production, or financial decision or any procedure involving any risk to the 
#safety of any drilling venture, drilling rig or its crew or any other third party.  The 
#Customer has full responsibility for all drilling, completion and production operation.  
#Halliburton makes no representations or warranties, either expressed or 
#implied, including, but not limited to, the implied warranties of merchantability or fitness 
#for a particular purpose, with respect to the services rendered.  In no event will 
#Halliburton be liable for failure to obtain any particular results or for 
#any damages, including, but not limited to, indirect, special or consequential damages, 
#resulting from the use of any information or interpretation provided by Halliburton.
#
~A           TIME           GTDEPTH  GTPQH  GTTQ  GTTN  GTET   GTTVD  
# ...
   07:00:37.826.28-Apr-2021 3473.01 6053.74 72.34 8.00 368.05 2748.71
   07:00:38.026.28-Apr-2021 3473.01 6053.74 72.34 8.00 368.25 2748.71
   07:00:38.226.28-Apr-2021 3473.01 6053.18 72.34 8.00 368.45 2748.71
   07:00:38.426.28-Apr-2021 3473.01 6060.21 72.34 8.00 368.65 2748.71
   07:00:38.626.28-Apr-2021 3473.01 6057.64 72.34 8.00 368.85 2748.71
   07:00:38.826.28-Apr-2021 3473.01 6052.86 72.34 8.00 369.05 2748.71
   07:00:39.026.28-Apr-2021 3473.01 6052.86 72.34 8.00 369.25 2748.71
   07:00:39.226.28-Apr-2021 3473.01 6056.57 72.34 8.00 369.45 2748.71
   07:00:39.426.28-Apr-2021 3473.01 6059.07 72.34 8.00 369.65 2748.71
   07:00:39.626.28-Apr-2021 3473.01 6056.74 72.34 8.00 369.85 2748.71
   07:00:39.826.28-Apr-2021 3473.01 6057.97 72.34 8.00 370.05 2748.71
   07:00:40.026.28-Apr-2021 3473.01 6057.97 72.34 8.00 370.25 2748.71
   07:00:40.226.28-Apr-2021 3473.01 6059.03 72.34 8.00 370.45 2748.71
   07:00:40.426.28-Apr-2021 3473.01 6058.61 72.34 8.00 370.65 2748.71
   07:00:40.626.28-Apr-2021 3473.01 6057.55 72.34 8.00 370.85 2748.71
   07:00:40.826.28-Apr-2021 3473.01 6047.79 72.34 8.00 371.05 2748.71
   07:00:41.026.28-Apr-2021 3473.01 6047.79 72.34 8.00 371.25 2748.71
   07:00:41.226.28-Apr-2021 3473.01 6057.64 72.34 8.00 371.45 2748.71
   07:00:41.426.28-Apr-2021 3473.01 6056.65 72.34 8.00 371.65 2748.71
   07:00:41.626.28-Apr-2021 3473.01 6053.34 72.34 8.00 371.85 2748.71
   07:00:41.826.28-Apr-2021 3473.01 6058.25 72.34 8.00 372.05 2748.71
   07:00:42.026.28-Apr-2021 3473.01 6058.25 72.34 8.00 372.25 2748.71
   07:00:42.226.28-Apr-2021 3473.01 6056.58 72.33 8.00 372.45 2748.71
   07:00:42.426.28-Apr-2021 3473.01 6056.57 72.33 8.00 372.65 2748.71
   07:00:42.626.28-Apr-2021 3473.01 6057.11 72.33 8.00 372.85 2748.71
   07:00:42.826.28-Apr-2021 3473.01 6060.62 72.33 8.00 373.05 2748.71
   07:00:43.026.28-Apr-2021 3473.01 6060.62 72.33 8.00 373.25 2748.71
   07:00:43.226.28-Apr-2021 3473.01 6059.44 72.33 8.00 373.46 2748.71
   07:00:43.426.28-Apr-2021 3473.01 6058.20 72.33 8.00 373.66 2748.71
   07:00:43.626.28-Apr-2021 3473.01 6050.02 72.33 8.00 373.86 2748.71
   07:00:43.826.28-Apr-2021 3473.01 6058.02 72.33 8.00 374.06 2748.71
   07:00:44.027.28-Apr-2021 3473.01 6058.02 72.33 8.00 374.26 2748.71
   07:00:44.227.28-Apr-2021 3473.01 6060.18 72.33 8.00 374.46 2748.71
   07:00:44.427.28-Apr-2021 3473.01 6053.08 72.33 8.00 374.66 2748.71
   07:00:44.627.28-Apr-2021 3473.01 6059.44 72.33 8.00 374.86 2748.71
   07:00:44.827.28-Apr-2021 3473.01 6056.36 72.33 8.00 375.06 2748.71
   07:00:45.027.28-Apr-2021 3473.01 6056.36 72.33 8.00 375.26 2748.71
   07:00:45.227.28-Apr-2021 3473.01 6058.94 72.33 8.00 375.46 2748.71
   07:00:45.427.28-Apr-2021 3473.01 6057.22 72.33 8.00 375.66 2748.71
   07:00:45.627.28-Apr-2021 3473.01 6048.57 72.33 8.00 375.86 2748.71
   07:00:45.827.28-Apr-2021 3473.01 6056.94 72.33 8.00 376.06 2748.71
   07:00:46.027.28-Apr-2021 3473.01 6056.94 72.33 8.00 376.26 2748.71
   07:00:46.227.28-Apr-2021 3473.01 6059.90 72.33 8.00 376.46 2748.71
   07:00:46.427.28-Apr-2021 3473.01 6051.55 72.33 8.00 376.66 2748.71
   07:00:46.627.28-Apr-2021 3473.01 6057.59 72.33 8.00 376.86 2748.71
   07:00:46.827.28-Apr-2021 3473.01 6045.85 72.33 8.00 377.06 2748.71
   07:00:47.027.28-Apr-2021 3473.01 6045.85 72.33 8.00 377.26 2748.71
   07:00:47.227.28-Apr-2021 3473.01 6057.00 72.33 8.00 377.46 2748.71
   07:00:47.427.28-Apr-2021 3473.01 6054.70 72.32 8.00 377.66 2748.71
   07:00:47.627.28-Apr-2021 3473.01 6056.89 72.32 8.00 377.86 2748.71
   07:00:47.827.28-Apr-2021 3473.01 6057.70 72.32 8.00 378.06 2748.71
   07:00:48.027.28-Apr-2021 3473.01 6057.70 72.32 8.00 378.26 2748.71
   07:00:48.227.28-Apr-2021 3473.01 6057.33 72.32 8.00 378.46 2748.71
   07:00:48.427.28-Apr-2021 3473.01 6057.96 72.32 8.00 378.66 2748.71
   07:00:48.627.28-Apr-2021 3473.01 6057.96 72.32 8.00 378.86 2748.71
   07:00:48.827.28-Apr-2021 3473.01 6059.32 72.32 8.00 379.06 2748.71
   07:00:49.027.28-Apr-2021 3473.01 6059.32 72.32 8.00 379.26 2748.71
   07:00:49.227.28-Apr-2021 3473.01 6057.45 72.32 8.00 379.46 2748.71
   07:00:49.427.28-Apr-2021 3473.01 6047.55 72.32 8.00 379.66 2748.71
   07:00:49.627.28-Apr-2021 3473.01 6059.02 72.32 8.00 379.86 2748.71
   07:00:49.827.28-Apr-2021 3473.01 6057.33 72.32 8.00 380.06 2748.71
   07:00:50.027.28-Apr-2021 3473.01 6057.33 72.32 8.00 380.26 2748.71
   07:00:50.227.28-Apr-2021 3473.01 6052.07 72.32 8.00 380.46 2748.71
   07:00:50.427.28-Apr-2021 3473.01 6058.12 72.32 8.00 380.66 2748.71
   07:00:50.627.28-Apr-2021 3473.01 6056.50 72.32 8.00 380.86 2748.71
   07:00:50.828.28-Apr-2021 3473.01 6057.25 72.32 8.00 381.06 2748.71
   07:00:51.028.28-Apr-2021 3473.01 6057.25 72.32 8.00 381.26 2748.71
   07:00:51.228.28-Apr-2021 3473.01 6056.72 72.32 8.00 381.46 2748.71
   07:00:51.428.28-Apr-2021 3473.01 6060.42 72.32 8.00 381.66 2748.71
   07:00:51.628.28-Apr-2021 3473.01 6056.29 72.32 8.00 381.86 2748.71
   07:00:51.828.28-Apr-2021 3473.01 6058.80 72.32 8.00 382.06 2748.71
   07:00:52.028.28-Apr-2021 3473.01 6058.80 72.32 8.00 382.26 2748.71
   07:00:52.228.28-Apr-2021 3473.01 6057.38 72.32 8.00 382.46 2748.71
   07:00:52.428.28-Apr-2021 3473.01 6050.19 72.31 8.00 382.66 2748.71
   07:00:52.628.28-Apr-2021 3473.01 6057.95 72.31 8.00 382.86 2748.71
   07:00:52.828.28-Apr-2021 3473.01 6059.91 72.31 8.00 383.06 2748.71
   07:00:53.028.28-Apr-2021 3473.01 6059.91 72.31 8.00 383.26 2748.71
   07:00:53.228.28-Apr-2021 3473.01 6058.79 72.31 8.00 383.46 2748.71
   07:00:53.428.28-Apr-2021 3473.01 6057.86 72.31 8.00 383.66 2748.71
   07:00:53.628.28-Apr-2021 3473.01 6047.31 72.31 8.00 383.86 2748.71
   07:00:53.828.28-Apr-2021 3473.01 6060.05 72.31 8.00 384.06 2748.71
   07:00:54.028.28-Apr-2021 3473.01 6060.05 72.31 8.00 384.26 2748.71
   07:00:54.228.28-Apr-2021 3473.01 6057.01 72.31 8.00 384.46 2748.71
   07:00:54.428.28-Apr-2021 3473.01 6048.39 72.31 8.00 384.66 2748.71
   07:00:54.628.28-Apr-2021 3473.01 6058.81 72.31 8.00 384.86 2748.71
   07:00:54.828.28-Apr-2021 3473.01 6059.87 72.31 8.00 385.06 2748.71
   07:00:55.028.28-Apr-2021 3473.01 6059.87 72.31 8.00 385.26 2748.71
   07:00:55.228.28-Apr-2021 3473.01 6056.60 72.31 8.00 385.46 2748.71
   07:00:55.428.28-Apr-2021 3473.01 6043.97 72.31 8.00 385.66 2748.71
   07:00:55.628.28-Apr-2021 3473.01 6062.63 72.31 8.00 385.86 2748.71
   07:00:55.828.28-Apr-2021 3473.01 6056.75 72.31 8.00 386.06 2748.71
   07:00:56.028.28-Apr-2021 3473.01 6056.75 72.31 8.00 386.26 2748.71
   07:00:56.228.28-Apr-2021 3473.01 6054.05 72.31 8.00 386.46 2748.71
   07:00:56.428.28-Apr-2021 3473.01 6058.53 72.31 8.00 386.66 2748.71
   07:00:56.628.28-Apr-2021 3473.01 6057.87 72.31 8.00 386.86 2748.71
   07:00:56.828.28-Apr-2021 3473.01 6057.58 72.31 8.00 387.06 2748.71
   07:00:57.028.28-Apr-2021 3473.01 6057.58 72.31 8.00 387.26 2748.71
   07:00:57.228.28-Apr-2021 3473.01 6057.60 72.31 8.00 387.46 2748.71
   07:00:57.428.28-Apr-2021 3473.01 6058.86 72.30 8.00 387.66 2748.71
   07:00:57.629.28-Apr-2021 3473.01 6059.60 72.30 8.00 387.86 2748.71
