~Version Information
 VERS.                  2.0:   CWLS log ASCII Standard -VERSION 2.0
 WRAP.                   NO:   One line per depth step
~Well Information Block
#MNEM.UNIT     VALUE/NAME     DESCRIPTION
#---------     -----------    ---------------------------
 STRT.S             00:41:47 27-Apr-21: START TIME 00:41:47 27-Apr-21
 STOP.S             00:48:15 27-Apr-21: STOP TIME  00:48:15 27-Apr-21
 STEP.S                   0.00: STEP TIME
 NULL.                 -999.25: NULL VALUE
 DFWT.                        :  DIST FWL TEXT
 DFST.                        :  DIST FSL TEXT
 DMF .             Drill Floor:  DRILL MEAS FROM
 STIM.      02.00.00 12-Apr-21:  START TIME
 DATE.      02.00.00 02-May-21:  END TIME
 SPUD.               09-Apr-21:  SPUD DATE
 NREF.                    Grid:  NORTH REFERENCE
 HPTY.       Minimum Curvature:  HOLE POS TYPE
 DMOD.             Drill Model:  DRILL MOD DESC
 SVYD.                  Survey:  SURVEY DESC
 ILTD.               Lithology:  INTERP LTH DESC
 FTOP.          Formation Tops:  FORM TOPS DESC
 PDAT.          Mean Sea Level:  PERMANENT DATUM
 FLD .                     ACG:  FIELD NAME
 SON .        AZ-XX-0907021034:  JOB NUMBER
 CTRY.              Azerbaijan:  COUNTRY NAME
 WELL.                    E01x:  WELL NAME
 COMP.     BP Exploration (Caspian Sea) LTD.:  COMPANY
 UWI .            /AZE00001403:  UNIQUE WELL IDENTIFIER
 API .            /AZE00001403:  API NUMBER
 WTYP.                Deviated:  WELL TYPE
 MDS .        Operator Entered:  MAG DATA SOURCE
 BASE.              Azerbaijan:  LOGGING EQUIPMENT BASE LOCATION
 REGN.                   EESSA:  REGION
 PROV.                    Baku:  PROVINCE
 STAT.                    Baku:  STATE NAME
 SRVC.          Turan Drilling:  CONTRACTOR
 MWDS.                    Baku:  MWD SHOP
 JOBN.        AZ-XX-0907021034:  JOB TICKET NUMB
 RIG .                     DWG:  RIG NAME
 DOE .                     N/A:  DOE NUMBER
 DCON.         Sperry Drilling:  DIRECTNL CONTR
 UNIT.                     N/A:  LOGGING EQUIPMENT ID
 CNTY.                        :  COUNTY
 LOC .                        :  LOCATION
 LMF .             Drill Floor:  LOG MEASURED FROM
 TVDS.m                  43.16:  TVDSS CORRECTN
 LATI.deg                40.17:  LATITUDE
 LONG.deg                51.17:  LONGITUDE
 WHNS.m                  -5.90:  WELL HEAD N/S
 WHEW.m                  -6.61:  WELL HEAD E/W
 UTMX.m              514337.95:  UTM X
 UTMY.m             4448627.46:  UTM Y
 DFWL.m                   0.00:  DISTANCE FWL
 DFSL.m                   0.00:  DISTANCE FSL
 SDEP.m                2606.87:  START DEPTH
 TDD .m                3618.01:  TOTAL DEPTH (DRILLER)
 VSDR.deg               177.42:  VERT SEC DIRECT
 GVFD.g                   1.00:  GRAVITY FIELD
 MFLD.nT              50399.00:  MAGNETIC FIELD
 MDIP.deg                59.67:  MAGNETIC DIP
 MDEC.deg                 6.56:  MAGNETIC DECL
 GRDC.deg                 0.11:  GRID CORRECTION
 AZTC.deg                 6.45:  AZM TOTAL CORR
 EPD .m                   0.00:  ELEVATION
 EGL .m                   0.00:  GROUND ELEVATION
 WDMS.m                 176.20:  WD ELEV
 APD .m                  43.16:  DEPTH ABOVE PD
 DEP .m                2606.87:  DEPTH
 AGAP.m                  43.16:  AIR GAP
 VSEW.m                  -6.61:  VERT SEC E/W
 VSNS.m                  -5.90:  VERT SEC N/S
 EKB .m                  43.16:  KB ELEVATION
 EDF .m                  43.16:  DF ELEVATION
 TDL .m                 438.00:  TOTAL DEPTH (LOGGER)
 VSC .                       0:  VS TO CLOSURE
 MAGU.                 1855490:  MAGUTM CHECKSUM
~Parameter Information Block
#MNEM.UNIT       Value        Description
#---------     -----------    ---------------------------
 AV  .mps                 2.20:  Ann Velocity 
 AVMX.mps                 2.50:  Max Ann Veloc 
 AZIF.deg               150.21:  Azm, Final 
 BHAT.        Rotary Steerable:  BHA Type 
 BROT.°/30m               0.08:  Build Rotating 
 BS  .in                  6.50:  Bit Size 
 BSZ .in                  6.50:  Bit Size 
 BTPL.psig              108.00:  Bit Press Loss 
 CABU.                     Yes:  Customer Abuse 
 CGEO.           Emin Aliyarli:  Customer Geo 
 COMM.                     lJm:  Run Comments 1 
 TCS .hr                 74.20:  Time Ciculation Ended 
 CV  .mps                 3.63:  Crit Velocity 
 CVMX.mps                 3.66:  Max Crit Veloc 
 DD1 .         Intigam Rahimov:  Direct Drillr 1 
 DD2 .          Teymur Aghayev:  Direct Drillr 2 
 DDSV.               Geo-Pilot:  DD Service 
 DEFF.%                  97.00:  % Det Eff 
 DLRX.°/30m               1.63:  Dogleg Rot Max 
 DLSO.°/30m               0.00:  Dogleg Oriented 
 DLSX.°/30m               0.00:  Dogleg Str Max 
 DRET.      20.20.00 28-Apr-21:  Drill End Time 
 DRST.      04.45.00 26-Apr-21:  Drill Start Tim 
 DTIM.hr                 34.30:  Time Drilling 
 EDEP.m                3618.01:  End Depth 
 ENG1.           Amrah Tahirov:  Engineer 1 
 ENG2.         Bahruz Mehdiyev:  Engineer 2 
 ENG3.         Farhad Orujzade:  Engineer 3 
 ETIM.      19.00.00 29-Apr-21:  End Time 
 FLOI.gpm               370.00:  Flow In 
 FLON.gpm               300.00:  Flow In Min 
 FLOS.cptm                0.00:  Fluid Loss 
 FLOX.gpm               410.00:  Flow In Max 
 HFLO.                      No:  High Flow 
 HPRE.                      No:  High Pressure 
 HTEM.                      No:  High Temp 
 HYDO.m                   1.80:  Hydro Offset 
 IFIN.deg                67.19:  Inc, Final 
 IMAX.deg                68.42:  Inc Max 
 IMIN.deg                66.33:  Inc Min 
 IMND.m                3532.79:  Inc Min Depth 
 IMXD.m                3192.15:  Inc Max Depth 
 JARR.                      No:  Jarring 
 LETM.      20.20.00 28-Apr-21:  Log End Time 
 LOST.hr                     0:  Lost Rig Time 
 LSTM.      04.45.00 26-Apr-21:  Log Start Time 
 MDCL.ppm             36500.00:  Mud Chlorides 
 MDES.     Inversion Oil/Synthetic:  Mud Desc 
 DFD .sg                  1.42:  Mud Density 
 MDMN.sg                  1.42:  Dens Mud Min 
 MDMX.sg                  1.42:  Dens Mud Max 
 MOIL.                    55.7:  Run Mud Oil % 
 MOWR.                   71:29:  Run Mud OWR 
 MSND.                     0.1:  Run Mud Sand % 
 MSOL.                    19.9:  Run Mud Solids% 
 DFV .spqt               83.00:  Mud Viscosity 
 MWOD.in                  5.15:  MWD Tool OD 
 MWSI.                      No:  Serv Intrp, MWD 
 OTIM.hr                120.59:  Time Operating 
 PCON.           Look Like New:  Pad Condition 
 PMAX.psia            11292.93:  Press Op, Max 
 PV  .cP                 27.00:  Mud PV 
 RUN .                     400:  Run Number 
 ROPA.m/hr               14.00:  ROP Avg 
 ROPN.m/hr                9.00:  ROP Min 
 ROPX.m/hr               18.00:  ROP Max 
 RPMA.rpm               130.00:  RPM Surface Avg 
 RPMN.rpm               100.00:  RPM Surface Min 
 RPMX.rpm               140.00:  RPM Surface Max 
 RRUN.                    0400:  Rig Run Number 
 RTIM.hr                 38.60:  Time Reaming 
 SAZI.deg               149.55:  Azm, Start 
 SDEP.m                3180.01:  Start Depth 
 SIDD.                      No:  Serv Intrp, DD 
 SINC.deg                68.42:  Inc, Start 
 SPPA.psig             4400.00:  SPP Avg 
 SPPN.psig             3580.00:  SPP Min 
 SPPX.psig             4850.00:  SPP Max 
 STIM.      12.30.00 24-Apr-21:  Start Time 
 SVCS.                 DD, MWD:  Services 
 SVER.                    9.20:  Sperry Version 
 TDAT.m                 438.00:  Tot Depth Attmp 
 TDDF.                      No:  Trip for DD 
 TDLG.m                 438.00:  Tot Depth Loggd 
 TFF .                      No:  Trip for Fail 
 TQAA.f-kp               11.00:  Torque Abs Avg 
 TQAN.f-kp                9.00:  Torque Abs Min 
 TQAX.f-kp               14.00:  Torque Abs Max 
 TRRT.°/30m               0.04:  Turn Rotating 
 MRT .                    HCIM:  Maximum Recorded Temperature 
 TTMX.degC               84.31:  Max Tool Temp 
 VS01.                90521954:  Virtual Str1 SN 
 VS02.                90519327:  Virtual Str2 SN 
 VS03.                90522273:  Virtual Str3 SN 
 VS04.                11108038:  Virtual Str4 SN 
 VS05.                12258760:  Virtual Str5 SN 
 WBMN.klb                 1.00:  WOB Min 
 WITN.           Adil Mammadov:  Customer Rep 
 WITN.         Alex Yadullayev:  Customer Rep 2 
 WOBA.klb                 6.00:  WOB Avg 
 WOBX.klb                 9.00:  WOB Max 
 YP  .lhf2               31.00:  Yield Point 
~Curve Information Block
#MNEM.UNIT                 API CODE     Curve Description
#---------               -----------    ---------------------------
 TIME.HHMMSS            00 000 000 000:  GT Time & Date
 GTDEPTH.m              00 000 000 000:  GT Depth
 GTPQH.psia             00 000 000 000:  GT HR Quartz Pressure
 GTTQ.degC              00 000 000 000:  GT Quartz Temperature
 GTTN.NONE              00 000 000 000:  GT Test Number
 GTET.sec               00 000 000 000:  GT Elapsed Test Time
 GTTVD.m                00 000 000 000:  GT True Vertical Depth
#Other Information
#
#WARRANTY: Halliburton will use its best efforts to furnish customers with 
#accurate information and interpretations that are part of, and incident to, the services 
#provided.  However, Halliburton cannot and does not warrant the accuracy 
#or correctness of such information and interpretations.  Under no circumstances should any 
#such information or interpretation be relied upon as the sole basis for any drilling, 
#completion, production, or financial decision or any procedure involving any risk to the 
#safety of any drilling venture, drilling rig or its crew or any other third party.  The 
#Customer has full responsibility for all drilling, completion and production operation.  
#Halliburton makes no representations or warranties, either expressed or 
#implied, including, but not limited to, the implied warranties of merchantability or fitness 
#for a particular purpose, with respect to the services rendered.  In no event will 
#Halliburton be liable for failure to obtain any particular results or for 
#any damages, including, but not limited to, indirect, special or consequential damages, 
#resulting from the use of any information or interpretation provided by Halliburton.
#
~A           TIME           GTDEPTH  GTPQH  GTTQ  GTTN  GTET   GTTVD  
# ...
   00:46:23.780.27-Apr-2021 3226.01 4273.97 71.40 2.00 276.05 2651.33
   00:46:23.980.27-Apr-2021 3226.01 4273.97 71.40 2.00 276.25 2651.33
   00:46:24.180.27-Apr-2021 3226.01 4273.86 71.40 2.00 276.45 2651.33
   00:46:24.381.27-Apr-2021 3226.01 4274.03 71.40 2.00 276.65 2651.33
   00:46:24.581.27-Apr-2021 3226.01 4274.04 71.40 2.00 276.85 2651.33
   00:46:24.781.27-Apr-2021 3226.01 4274.02 71.40 2.00 277.05 2651.33
   00:46:24.981.27-Apr-2021 3226.01 4274.02 71.40 2.00 277.25 2651.33
   00:46:25.181.27-Apr-2021 3226.01 4274.01 71.39 2.00 277.45 2651.33
   00:46:25.381.27-Apr-2021 3226.01 4274.02 71.39 2.00 277.66 2651.33
   00:46:25.581.27-Apr-2021 3226.01 4274.06 71.39 2.00 277.86 2651.33
   00:46:25.781.27-Apr-2021 3226.01 4274.04 71.39 2.00 278.06 2651.33
   00:46:25.981.27-Apr-2021 3226.01 4274.04 71.39 2.00 278.26 2651.33
   00:46:26.181.27-Apr-2021 3226.01 4273.99 71.39 2.00 278.46 2651.33
   00:46:26.381.27-Apr-2021 3226.01 4273.99 71.39 2.00 278.66 2651.33
   00:46:26.581.27-Apr-2021 3226.01 4274.02 71.39 2.00 278.86 2651.33
   00:46:26.781.27-Apr-2021 3226.01 4273.85 71.39 2.00 279.06 2651.33
   00:46:26.981.27-Apr-2021 3226.01 4273.85 71.39 2.00 279.26 2651.33
   00:46:27.181.27-Apr-2021 3226.01 4274.04 71.39 2.00 279.46 2651.33
   00:46:27.381.27-Apr-2021 3226.01 4274.08 71.39 2.00 279.66 2651.33
   00:46:27.581.27-Apr-2021 3226.01 4274.04 71.39 2.00 279.86 2651.33
   00:46:27.781.27-Apr-2021 3226.01 4274.05 71.39 2.00 280.06 2651.33
   00:46:27.981.27-Apr-2021 3226.01 4274.05 71.39 2.00 280.26 2651.33
   00:46:28.181.27-Apr-2021 3226.01 4273.87 71.39 2.00 280.46 2651.33
   00:46:28.381.27-Apr-2021 3226.01 4274.13 71.39 2.00 280.66 2651.33
   00:46:28.581.27-Apr-2021 3226.01 4274.11 71.39 2.00 280.86 2651.33
   00:46:28.781.27-Apr-2021 3226.01 4274.04 71.39 2.00 281.06 2651.33
   00:46:28.981.27-Apr-2021 3226.01 4274.04 71.39 2.00 281.26 2651.33
   00:46:29.181.27-Apr-2021 3226.01 4274.08 71.38 2.00 281.46 2651.33
   00:46:29.382.27-Apr-2021 3226.01 4274.11 71.38 2.00 281.66 2651.33
   00:46:29.582.27-Apr-2021 3226.01 4274.06 71.38 2.00 281.86 2651.33
   00:46:29.782.27-Apr-2021 3226.01 4273.87 71.38 2.00 282.06 2651.33
   00:46:29.982.27-Apr-2021 3226.01 4273.87 71.38 2.00 282.26 2651.33
   00:46:30.182.27-Apr-2021 3226.01 4274.08 71.38 2.00 282.46 2651.33
   00:46:30.382.27-Apr-2021 3226.01 4274.11 71.38 2.00 282.66 2651.33
   00:46:30.582.27-Apr-2021 3226.01 4274.10 71.38 2.00 282.86 2651.33
   00:46:30.782.27-Apr-2021 3226.01 4274.08 71.38 2.00 283.06 2651.33
   00:46:30.982.27-Apr-2021 3226.01 4274.08 71.38 2.00 283.26 2651.33
   00:46:31.182.27-Apr-2021 3226.01 4274.08 71.38 2.00 283.46 2651.33
   00:46:31.382.27-Apr-2021 3226.01 4274.08 71.38 2.00 283.66 2651.33
   00:46:31.582.27-Apr-2021 3226.01 4274.04 71.38 2.00 283.86 2651.33
   00:46:31.782.27-Apr-2021 3226.01 4274.02 71.38 2.00 284.06 2651.33
   00:46:31.982.27-Apr-2021 3226.01 4274.02 71.38 2.00 284.26 2651.33
   00:46:32.182.27-Apr-2021 3226.01 4274.02 71.38 2.00 284.46 2651.33
   00:46:32.382.27-Apr-2021 3226.01 4273.78 71.38 2.00 284.66 2651.33
   00:46:32.582.27-Apr-2021 3226.01 4274.07 71.38 2.00 284.86 2651.33
   00:46:32.782.27-Apr-2021 3226.01 4274.11 71.38 2.00 285.06 2651.33
   00:46:32.982.27-Apr-2021 3226.01 4274.11 71.38 2.00 285.26 2651.33
   00:46:33.182.27-Apr-2021 3226.01 4274.07 71.37 2.00 285.46 2651.33
   00:46:33.382.27-Apr-2021 3226.01 4274.05 71.37 2.00 285.66 2651.33
   00:46:33.582.27-Apr-2021 3226.01 4274.06 71.37 2.00 285.86 2651.33
   00:46:33.782.27-Apr-2021 3226.01 4274.09 71.37 2.00 286.06 2651.33
   00:46:33.982.27-Apr-2021 3226.01 4274.09 71.37 2.00 286.26 2651.33
   00:46:34.182.27-Apr-2021 3226.01 4274.05 71.37 2.00 286.46 2651.33
   00:46:34.383.27-Apr-2021 3226.01 4274.04 71.37 2.00 286.66 2651.33
   00:46:34.583.27-Apr-2021 3226.01 4274.02 71.37 2.00 286.86 2651.33
   00:46:34.783.27-Apr-2021 3226.01 4274.07 71.37 2.00 287.06 2651.33
   00:46:34.983.27-Apr-2021 3226.01 4274.07 71.37 2.00 287.26 2651.33
   00:46:35.183.27-Apr-2021 3226.01 4273.85 71.37 2.00 287.46 2651.33
   00:46:35.383.27-Apr-2021 3226.01 4274.08 71.37 2.00 287.66 2651.33
   00:46:35.583.27-Apr-2021 3226.01 4274.11 71.37 2.00 287.86 2651.33
   00:46:35.783.27-Apr-2021 3226.01 4274.09 71.37 2.00 288.06 2651.33
   00:46:35.983.27-Apr-2021 3226.01 4274.09 71.37 2.00 288.26 2651.33
   00:46:36.183.27-Apr-2021 3226.01 4274.08 71.37 2.00 288.46 2651.33
   00:46:36.383.27-Apr-2021 3226.01 4273.83 71.37 2.00 288.66 2651.33
   00:46:36.583.27-Apr-2021 3226.01 4274.17 71.37 2.00 288.86 2651.33
   00:46:36.783.27-Apr-2021 3226.01 4274.16 71.37 2.00 289.06 2651.33
   00:46:36.983.27-Apr-2021 3226.01 4274.16 71.37 2.00 289.26 2651.33
   00:46:37.183.27-Apr-2021 3226.01 4273.86 71.36 2.00 289.46 2651.33
   00:46:37.383.27-Apr-2021 3226.01 4274.08 71.36 2.00 289.66 2651.33
   00:46:37.583.27-Apr-2021 3226.01 4274.12 71.36 2.00 289.86 2651.33
   00:46:37.783.27-Apr-2021 3226.01 4274.13 71.36 2.00 290.06 2651.33
   00:46:37.983.27-Apr-2021 3226.01 4274.13 71.36 2.00 290.26 2651.33
   00:46:38.183.27-Apr-2021 3226.01 4273.98 71.36 2.00 290.46 2651.33
   00:46:38.383.27-Apr-2021 3226.01 4274.10 71.36 2.00 290.66 2651.33
   00:46:38.583.27-Apr-2021 3226.01 4274.14 71.36 2.00 290.86 2651.33
   00:46:38.783.27-Apr-2021 3226.01 4274.15 71.36 2.00 291.06 2651.33
   00:46:38.983.27-Apr-2021 3226.01 4274.15 71.36 2.00 291.26 2651.33
   00:46:39.183.27-Apr-2021 3226.01 4274.10 71.36 2.00 291.46 2651.33
   00:46:39.384.27-Apr-2021 3226.01 4274.08 71.36 2.00 291.66 2651.33
   00:46:39.584.27-Apr-2021 3226.01 4274.13 71.36 2.00 291.86 2651.33
   00:46:39.784.27-Apr-2021 3226.01 4274.10 71.36 2.00 292.06 2651.33
   00:46:39.984.27-Apr-2021 3226.01 4274.10 71.36 2.00 292.26 2651.33
   00:46:40.184.27-Apr-2021 3226.01 4274.06 71.36 2.00 292.46 2651.33
   00:46:40.384.27-Apr-2021 3226.01 4274.04 71.36 2.00 292.66 2651.33
   00:46:40.584.27-Apr-2021 3226.01 4273.93 71.36 2.00 292.86 2651.33
   00:46:40.784.27-Apr-2021 3226.01 4273.94 71.36 2.00 293.06 2651.33
   00:46:40.984.27-Apr-2021 3226.01 4273.94 71.36 2.00 293.26 2651.33
   00:46:41.184.27-Apr-2021 3226.01 4274.11 71.35 2.00 293.46 2651.33
   00:46:41.384.27-Apr-2021 3226.01 4274.09 71.35 2.00 293.66 2651.33
   00:46:41.584.27-Apr-2021 3226.01 4274.10 71.35 2.00 293.86 2651.33
   00:46:41.784.27-Apr-2021 3226.01 4274.07 71.35 2.00 294.06 2651.33
   00:46:41.984.27-Apr-2021 3226.01 4274.07 71.35 2.00 294.26 2651.33
   00:46:42.184.27-Apr-2021 3226.01 4274.14 71.35 2.00 294.46 2651.33
   00:46:42.384.27-Apr-2021 3226.01 4274.10 71.35 2.00 294.66 2651.33
   00:46:42.584.27-Apr-2021 3226.01 4274.06 71.35 2.00 294.86 2651.33
   00:46:42.784.27-Apr-2021 3226.01 4274.06 71.35 2.00 295.06 2651.33
   00:46:42.984.27-Apr-2021 3226.01 4274.06 71.35 2.00 295.26 2651.33
   00:46:43.184.27-Apr-2021 3226.01 4274.08 71.35 2.00 295.46 2651.33
   00:46:43.384.27-Apr-2021 3226.01 4273.92 71.35 2.00 295.66 2651.33
   00:46:43.584.27-Apr-2021 3226.01 4273.97 71.35 2.00 295.86 2651.33
   00:46:43.784.27-Apr-2021 3226.01 4274.11 71.35 2.00 296.06 2651.33
   00:46:43.984.27-Apr-2021 3226.01 4274.11 71.35 2.00 296.26 2651.33
   00:46:44.184.27-Apr-2021 3226.01 4274.15 71.35 2.00 296.46 2651.33
   00:46:44.384.27-Apr-2021 3226.01 4274.12 71.35 2.00 296.66 2651.33
   00:46:44.585.27-Apr-2021 3226.01 4273.98 71.35 2.00 296.86 2651.33
   00:46:44.785.27-Apr-2021 3226.01 4273.99 71.35 2.00 297.06 2651.33
   00:46:44.985.27-Apr-2021 3226.01 4273.99 71.35 2.00 297.26 2651.33
   00:46:45.185.27-Apr-2021 3226.01 4274.18 71.34 2.00 297.46 2651.33
   00:46:45.385.27-Apr-2021 3226.01 4274.11 71.34 2.00 297.66 2651.33
   00:46:45.585.27-Apr-2021 3226.01 4273.87 71.34 2.00 297.86 2651.33
   00:46:45.785.27-Apr-2021 3226.01 4274.15 71.34 2.00 298.06 2651.33
   00:46:45.985.27-Apr-2021 3226.01 4274.15 71.34 2.00 298.26 2651.33
   00:46:46.185.27-Apr-2021 3226.01 4274.16 71.34 2.00 298.46 2651.33
   00:46:46.385.27-Apr-2021 3226.01 4273.90 71.34 2.00 298.66 2651.33
   00:46:46.585.27-Apr-2021 3226.01 4274.11 71.34 2.00 298.86 2651.33
