~Version Information
 VERS.                  2.0:   CWLS log ASCII Standard -VERSION 2.0
 WRAP.                   NO:   One line per depth step
~Well Information Block
#MNEM.UNIT     VALUE/NAME     DESCRIPTION
#---------     -----------    ---------------------------
 STRT.S             19:03:38 27-Apr-21: START TIME 19:03:38 27-Apr-21
 STOP.S             19:10:06 27-Apr-21: STOP TIME  19:10:06 27-Apr-21
 STEP.S                   0.00: STEP TIME
 NULL.                 -999.25: NULL VALUE
 DFWT.                        :  DIST FWL TEXT
 DFST.                        :  DIST FSL TEXT
 DMF .             Drill Floor:  DRILL MEAS FROM
 STIM.      02.00.00 12-Apr-21:  START TIME
 DATE.      02.00.00 02-May-21:  END TIME
 SPUD.               09-Apr-21:  SPUD DATE
 NREF.                    Grid:  NORTH REFERENCE
 HPTY.       Minimum Curvature:  HOLE POS TYPE
 DMOD.             Drill Model:  DRILL MOD DESC
 SVYD.                  Survey:  SURVEY DESC
 ILTD.               Lithology:  INTERP LTH DESC
 FTOP.          Formation Tops:  FORM TOPS DESC
 PDAT.          Mean Sea Level:  PERMANENT DATUM
 FLD .                     ACG:  FIELD NAME
 SON .        AZ-XX-0907021034:  JOB NUMBER
 CTRY.              Azerbaijan:  COUNTRY NAME
 WELL.                    E01x:  WELL NAME
 COMP.     BP Exploration (Caspian Sea) LTD.:  COMPANY
 UWI .            /AZE00001403:  UNIQUE WELL IDENTIFIER
 API .            /AZE00001403:  API NUMBER
 WTYP.                Deviated:  WELL TYPE
 MDS .        Operator Entered:  MAG DATA SOURCE
 BASE.              Azerbaijan:  LOGGING EQUIPMENT BASE LOCATION
 REGN.                   EESSA:  REGION
 PROV.                    Baku:  PROVINCE
 STAT.                    Baku:  STATE NAME
 SRVC.          Turan Drilling:  CONTRACTOR
 MWDS.                    Baku:  MWD SHOP
 JOBN.        AZ-XX-0907021034:  JOB TICKET NUMB
 RIG .                     DWG:  RIG NAME
 DOE .                     N/A:  DOE NUMBER
 DCON.         Sperry Drilling:  DIRECTNL CONTR
 UNIT.                     N/A:  LOGGING EQUIPMENT ID
 CNTY.                        :  COUNTY
 LOC .                        :  LOCATION
 LMF .             Drill Floor:  LOG MEASURED FROM
 TVDS.m                  43.16:  TVDSS CORRECTN
 LATI.deg                40.17:  LATITUDE
 LONG.deg                51.17:  LONGITUDE
 WHNS.m                  -5.90:  WELL HEAD N/S
 WHEW.m                  -6.61:  WELL HEAD E/W
 UTMX.m              514337.95:  UTM X
 UTMY.m             4448627.46:  UTM Y
 DFWL.m                   0.00:  DISTANCE FWL
 DFSL.m                   0.00:  DISTANCE FSL
 SDEP.m                2606.87:  START DEPTH
 TDD .m                3618.01:  TOTAL DEPTH (DRILLER)
 VSDR.deg               177.42:  VERT SEC DIRECT
 GVFD.g                   1.00:  GRAVITY FIELD
 MFLD.nT              50399.00:  MAGNETIC FIELD
 MDIP.deg                59.67:  MAGNETIC DIP
 MDEC.deg                 6.56:  MAGNETIC DECL
 GRDC.deg                 0.11:  GRID CORRECTION
 AZTC.deg                 6.45:  AZM TOTAL CORR
 EPD .m                   0.00:  ELEVATION
 EGL .m                   0.00:  GROUND ELEVATION
 WDMS.m                 176.20:  WD ELEV
 APD .m                  43.16:  DEPTH ABOVE PD
 DEP .m                2606.87:  DEPTH
 AGAP.m                  43.16:  AIR GAP
 VSEW.m                  -6.61:  VERT SEC E/W
 VSNS.m                  -5.90:  VERT SEC N/S
 EKB .m                  43.16:  KB ELEVATION
 EDF .m                  43.16:  DF ELEVATION
 TDL .m                 438.00:  TOTAL DEPTH (LOGGER)
 VSC .                       0:  VS TO CLOSURE
 MAGU.                 1855490:  MAGUTM CHECKSUM
~Parameter Information Block
#MNEM.UNIT       Value        Description
#---------     -----------    ---------------------------
 AV  .mps                 2.20:  Ann Velocity 
 AVMX.mps                 2.50:  Max Ann Veloc 
 AZIF.deg               150.21:  Azm, Final 
 BHAT.        Rotary Steerable:  BHA Type 
 BROT.°/30m               0.08:  Build Rotating 
 BS  .in                  6.50:  Bit Size 
 BSZ .in                  6.50:  Bit Size 
 BTPL.psig              108.00:  Bit Press Loss 
 CABU.                     Yes:  Customer Abuse 
 CGEO.           Emin Aliyarli:  Customer Geo 
 COMM.                     LÊS:  Run Comments 1 
 TCS .hr                 74.20:  Time Ciculation Ended 
 CV  .mps                 3.63:  Crit Velocity 
 CVMX.mps                 3.66:  Max Crit Veloc 
 DD1 .         Intigam Rahimov:  Direct Drillr 1 
 DD2 .          Teymur Aghayev:  Direct Drillr 2 
 DDSV.               Geo-Pilot:  DD Service 
 DEFF.%                  97.00:  % Det Eff 
 DLRX.°/30m               1.63:  Dogleg Rot Max 
 DLSO.°/30m               0.00:  Dogleg Oriented 
 DLSX.°/30m               0.00:  Dogleg Str Max 
 DRET.      20.20.00 28-Apr-21:  Drill End Time 
 DRST.      04.45.00 26-Apr-21:  Drill Start Tim 
 DTIM.hr                 34.30:  Time Drilling 
 EDEP.m                3618.01:  End Depth 
 ENG1.           Amrah Tahirov:  Engineer 1 
 ENG2.         Bahruz Mehdiyev:  Engineer 2 
 ENG3.         Farhad Orujzade:  Engineer 3 
 ETIM.      19.00.00 29-Apr-21:  End Time 
 FLOI.gpm               370.00:  Flow In 
 FLON.gpm               300.00:  Flow In Min 
 FLOS.cptm                0.00:  Fluid Loss 
 FLOX.gpm               410.00:  Flow In Max 
 HFLO.                      No:  High Flow 
 HPRE.                      No:  High Pressure 
 HTEM.                      No:  High Temp 
 HYDO.m                   1.80:  Hydro Offset 
 IFIN.deg                67.19:  Inc, Final 
 IMAX.deg                68.42:  Inc Max 
 IMIN.deg                66.33:  Inc Min 
 IMND.m                3532.79:  Inc Min Depth 
 IMXD.m                3192.15:  Inc Max Depth 
 JARR.                      No:  Jarring 
 LETM.      20.20.00 28-Apr-21:  Log End Time 
 LOST.hr                     0:  Lost Rig Time 
 LSTM.      04.45.00 26-Apr-21:  Log Start Time 
 MDCL.ppm             36500.00:  Mud Chlorides 
 MDES.     Inversion Oil/Synthetic:  Mud Desc 
 DFD .sg                  1.42:  Mud Density 
 MDMN.sg                  1.42:  Dens Mud Min 
 MDMX.sg                  1.42:  Dens Mud Max 
 MOIL.                    55.7:  Run Mud Oil % 
 MOWR.                   71:29:  Run Mud OWR 
 MSND.                     0.1:  Run Mud Sand % 
 MSOL.                    19.9:  Run Mud Solids% 
 DFV .spqt               83.00:  Mud Viscosity 
 MWOD.in                  5.15:  MWD Tool OD 
 MWSI.                      No:  Serv Intrp, MWD 
 OTIM.hr                120.59:  Time Operating 
 PCON.           Look Like New:  Pad Condition 
 PMAX.psia            11292.93:  Press Op, Max 
 PV  .cP                 27.00:  Mud PV 
 RUN .                     400:  Run Number 
 ROPA.m/hr               14.00:  ROP Avg 
 ROPN.m/hr                9.00:  ROP Min 
 ROPX.m/hr               18.00:  ROP Max 
 RPMA.rpm               130.00:  RPM Surface Avg 
 RPMN.rpm               100.00:  RPM Surface Min 
 RPMX.rpm               140.00:  RPM Surface Max 
 RRUN.                    0400:  Rig Run Number 
 RTIM.hr                 38.60:  Time Reaming 
 SAZI.deg               149.55:  Azm, Start 
 SDEP.m                3180.01:  Start Depth 
 SIDD.                      No:  Serv Intrp, DD 
 SINC.deg                68.42:  Inc, Start 
 SPPA.psig             4400.00:  SPP Avg 
 SPPN.psig             3580.00:  SPP Min 
 SPPX.psig             4850.00:  SPP Max 
 STIM.      12.30.00 24-Apr-21:  Start Time 
 SVCS.                 DD, MWD:  Services 
 SVER.                    9.20:  Sperry Version 
 TDAT.m                 438.00:  Tot Depth Attmp 
 TDDF.                      No:  Trip for DD 
 TDLG.m                 438.00:  Tot Depth Loggd 
 TFF .                      No:  Trip for Fail 
 TQAA.f-kp               11.00:  Torque Abs Avg 
 TQAN.f-kp                9.00:  Torque Abs Min 
 TQAX.f-kp               14.00:  Torque Abs Max 
 TRRT.°/30m               0.04:  Turn Rotating 
 MRT .                    HCIM:  Maximum Recorded Temperature 
 TTMX.degC               84.31:  Max Tool Temp 
 VS01.                90521954:  Virtual Str1 SN 
 VS02.                90519327:  Virtual Str2 SN 
 VS03.                90522273:  Virtual Str3 SN 
 VS04.                11108038:  Virtual Str4 SN 
 VS05.                12258760:  Virtual Str5 SN 
 WBMN.klb                 1.00:  WOB Min 
 WITN.           Adil Mammadov:  Customer Rep 
 WITN.         Alex Yadullayev:  Customer Rep 2 
 WOBA.klb                 6.00:  WOB Avg 
 WOBX.klb                 9.00:  WOB Max 
 YP  .lhf2               31.00:  Yield Point 
~Curve Information Block
#MNEM.UNIT                 API CODE     Curve Description
#---------               -----------    ---------------------------
 TIME.HHMMSS            00 000 000 000:  GT Time & Date
 GTDEPTH.m              00 000 000 000:  GT Depth
 GTPQH.psia             00 000 000 000:  GT HR Quartz Pressure
 GTTQ.degC              00 000 000 000:  GT Quartz Temperature
 GTTN.NONE              00 000 000 000:  GT Test Number
 GTET.sec               00 000 000 000:  GT Elapsed Test Time
 GTTVD.m                00 000 000 000:  GT True Vertical Depth
#Other Information
#
#WARRANTY: Halliburton will use its best efforts to furnish customers with 
#accurate information and interpretations that are part of, and incident to, the services 
#provided.  However, Halliburton cannot and does not warrant the accuracy 
#or correctness of such information and interpretations.  Under no circumstances should any 
#such information or interpretation be relied upon as the sole basis for any drilling, 
#completion, production, or financial decision or any procedure involving any risk to the 
#safety of any drilling venture, drilling rig or its crew or any other third party.  The 
#Customer has full responsibility for all drilling, completion and production operation.  
#Halliburton makes no representations or warranties, either expressed or 
#implied, including, but not limited to, the implied warranties of merchantability or fitness 
#for a particular purpose, with respect to the services rendered.  In no event will 
#Halliburton be liable for failure to obtain any particular results or for 
#any damages, including, but not limited to, indirect, special or consequential damages, 
#resulting from the use of any information or interpretation provided by Halliburton.
#
~A           TIME           GTDEPTH  GTPQH  GTTQ  GTTN  GTET   GTTVD  
# ...
   19:06:19.666.27-Apr-2021 3392.01 3473.79 73.03 5.00 161.04 2716.87
   19:06:19.866.27-Apr-2021 3392.01 3473.79 73.03 5.00 161.24 2716.87
   19:06:20.066.27-Apr-2021 3392.01 3473.57 73.03 5.00 161.44 2716.87
   19:06:20.266.27-Apr-2021 3392.01 3473.80 73.03 5.00 161.64 2716.87
   19:06:20.466.27-Apr-2021 3392.01 3473.81 73.03 5.00 161.84 2716.87
   19:06:20.666.27-Apr-2021 3392.01 3473.72 73.03 5.00 162.04 2716.87
   19:06:20.866.27-Apr-2021 3392.01 3473.72 73.03 5.00 162.24 2716.87
   19:06:21.067.27-Apr-2021 3392.01 3473.56 73.03 5.00 162.44 2716.87
   19:06:21.267.27-Apr-2021 3392.01 3473.84 73.03 5.00 162.64 2716.87
   19:06:21.467.27-Apr-2021 3392.01 3473.80 73.03 5.00 162.84 2716.87
   19:06:21.667.27-Apr-2021 3392.01 3473.68 73.03 5.00 163.04 2716.87
   19:06:21.867.27-Apr-2021 3392.01 3473.68 73.03 5.00 163.24 2716.87
   19:06:22.067.27-Apr-2021 3392.01 3473.75 73.03 5.00 163.44 2716.87
   19:06:22.267.27-Apr-2021 3392.01 3473.75 73.03 5.00 163.64 2716.87
   19:06:22.467.27-Apr-2021 3392.01 3473.73 73.03 5.00 163.84 2716.87
   19:06:22.667.27-Apr-2021 3392.01 3473.77 73.03 5.00 164.04 2716.87
   19:06:22.867.27-Apr-2021 3392.01 3473.77 73.03 5.00 164.24 2716.87
   19:06:23.067.27-Apr-2021 3392.01 3473.55 73.03 5.00 164.44 2716.87
   19:06:23.267.27-Apr-2021 3392.01 3473.84 73.03 5.00 164.64 2716.87
   19:06:23.467.27-Apr-2021 3392.01 3473.78 73.03 5.00 164.84 2716.87
   19:06:23.667.27-Apr-2021 3392.01 3473.72 73.02 5.00 165.04 2716.87
   19:06:23.867.27-Apr-2021 3392.01 3473.72 73.02 5.00 165.24 2716.87
   19:06:24.067.27-Apr-2021 3392.01 3473.76 73.02 5.00 165.44 2716.87
   19:06:24.267.27-Apr-2021 3392.01 3473.70 73.02 5.00 165.64 2716.87
   19:06:24.467.27-Apr-2021 3392.01 3473.78 73.02 5.00 165.84 2716.87
   19:06:24.667.27-Apr-2021 3392.01 3473.70 73.02 5.00 166.04 2716.87
   19:06:24.867.27-Apr-2021 3392.01 3473.70 73.02 5.00 166.24 2716.87
   19:06:25.067.27-Apr-2021 3392.01 3473.74 73.02 5.00 166.44 2716.87
   19:06:25.268.27-Apr-2021 3392.01 3473.70 73.02 5.00 166.64 2716.87
   19:06:25.468.27-Apr-2021 3392.01 3473.74 73.02 5.00 166.84 2716.87
   19:06:25.668.27-Apr-2021 3392.01 3473.65 73.02 5.00 167.04 2716.87
   19:06:25.868.27-Apr-2021 3392.01 3473.65 73.02 5.00 167.24 2716.87
   19:06:26.068.27-Apr-2021 3392.01 3473.71 73.02 5.00 167.44 2716.87
   19:06:26.268.27-Apr-2021 3392.01 3473.75 73.02 5.00 167.64 2716.87
   19:06:26.468.27-Apr-2021 3392.01 3473.72 73.02 5.00 167.84 2716.87
   19:06:26.668.27-Apr-2021 3392.01 3473.74 73.02 5.00 168.04 2716.87
   19:06:26.868.27-Apr-2021 3392.01 3473.74 73.02 5.00 168.24 2716.87
   19:06:27.068.27-Apr-2021 3392.01 3473.72 73.02 5.00 168.44 2716.87
   19:06:27.268.27-Apr-2021 3392.01 3473.74 73.02 5.00 168.64 2716.87
   19:06:27.468.27-Apr-2021 3392.01 3473.70 73.02 5.00 168.84 2716.87
   19:06:27.668.27-Apr-2021 3392.01 3473.75 73.02 5.00 169.04 2716.87
   19:06:27.868.27-Apr-2021 3392.01 3473.75 73.02 5.00 169.24 2716.87
   19:06:28.068.27-Apr-2021 3392.01 3473.74 73.01 5.00 169.44 2716.87
   19:06:28.268.27-Apr-2021 3392.01 3473.71 73.01 5.00 169.64 2716.87
   19:06:28.468.27-Apr-2021 3392.01 3473.58 73.01 5.00 169.84 2716.87
   19:06:28.668.27-Apr-2021 3392.01 3473.77 73.01 5.00 170.04 2716.87
   19:06:28.868.27-Apr-2021 3392.01 3473.77 73.01 5.00 170.24 2716.87
   19:06:29.068.27-Apr-2021 3392.01 3473.70 73.01 5.00 170.44 2716.87
   19:06:29.269.27-Apr-2021 3392.01 3473.74 73.01 5.00 170.64 2716.87
   19:06:29.469.27-Apr-2021 3392.01 3473.62 73.01 5.00 170.84 2716.87
   19:06:29.669.27-Apr-2021 3392.01 3473.73 73.01 5.00 171.04 2716.87
   19:06:29.869.27-Apr-2021 3392.01 3473.73 73.01 5.00 171.24 2716.87
   19:06:30.069.27-Apr-2021 3392.01 3473.67 73.01 5.00 171.44 2716.87
   19:06:30.269.27-Apr-2021 3392.01 3473.79 73.01 5.00 171.64 2716.87
   19:06:30.469.27-Apr-2021 3392.01 3473.52 73.01 5.00 171.84 2716.87
   19:06:30.669.27-Apr-2021 3392.01 3473.79 73.01 5.00 172.04 2716.87
   19:06:30.869.27-Apr-2021 3392.01 3473.79 73.01 5.00 172.24 2716.87
   19:06:31.069.27-Apr-2021 3392.01 3473.70 73.01 5.00 172.44 2716.87
   19:06:31.269.27-Apr-2021 3392.01 3473.73 73.01 5.00 172.64 2716.87
   19:06:31.469.27-Apr-2021 3392.01 3473.60 73.01 5.00 172.84 2716.87
   19:06:31.669.27-Apr-2021 3392.01 3473.76 73.01 5.00 173.04 2716.87
   19:06:31.869.27-Apr-2021 3392.01 3473.76 73.01 5.00 173.24 2716.87
   19:06:32.069.27-Apr-2021 3392.01 3473.73 73.01 5.00 173.44 2716.87
   19:06:32.269.27-Apr-2021 3392.01 3473.72 73.00 5.00 173.64 2716.87
   19:06:32.469.27-Apr-2021 3392.01 3473.74 73.00 5.00 173.84 2716.87
   19:06:32.669.27-Apr-2021 3392.01 3473.69 73.00 5.00 174.04 2716.87
   19:06:32.869.27-Apr-2021 3392.01 3473.69 73.00 5.00 174.24 2716.87
   19:06:33.069.27-Apr-2021 3392.01 3473.71 73.00 5.00 174.44 2716.87
   19:06:33.269.27-Apr-2021 3392.01 3473.68 73.00 5.00 174.64 2716.87
   19:06:33.470.27-Apr-2021 3392.01 3473.74 73.00 5.00 174.84 2716.87
   19:06:33.670.27-Apr-2021 3392.01 3473.67 73.00 5.00 175.04 2716.87
   19:06:33.870.27-Apr-2021 3392.01 3473.67 73.00 5.00 175.24 2716.87
   19:06:34.070.27-Apr-2021 3392.01 3473.68 73.00 5.00 175.44 2716.87
   19:06:34.270.27-Apr-2021 3392.01 3473.51 73.00 5.00 175.64 2716.87
   19:06:34.470.27-Apr-2021 3392.01 3473.76 73.00 5.00 175.84 2716.87
   19:06:34.670.27-Apr-2021 3392.01 3473.77 73.00 5.00 176.04 2716.87
   19:06:34.870.27-Apr-2021 3392.01 3473.77 73.00 5.00 176.24 2716.87
   19:06:35.070.27-Apr-2021 3392.01 3473.71 73.00 5.00 176.44 2716.87
   19:06:35.270.27-Apr-2021 3392.01 3473.71 73.00 5.00 176.64 2716.87
   19:06:35.470.27-Apr-2021 3392.01 3473.68 73.00 5.00 176.84 2716.87
   19:06:35.670.27-Apr-2021 3392.01 3473.73 73.00 5.00 177.04 2716.87
   19:06:35.870.27-Apr-2021 3392.01 3473.73 73.00 5.00 177.24 2716.87
   19:06:36.070.27-Apr-2021 3392.01 3473.73 73.00 5.00 177.44 2716.87
   19:06:36.270.27-Apr-2021 3392.01 3473.67 73.00 5.00 177.64 2716.87
   19:06:36.470.27-Apr-2021 3392.01 3473.68 73.00 5.00 177.84 2716.87
   19:06:36.670.27-Apr-2021 3392.01 3473.70 72.99 5.00 178.04 2716.87
   19:06:36.870.27-Apr-2021 3392.01 3473.70 72.99 5.00 178.24 2716.87
   19:06:37.070.27-Apr-2021 3392.01 3473.65 72.99 5.00 178.44 2716.87
   19:06:37.270.27-Apr-2021 3392.01 3473.69 72.99 5.00 178.64 2716.87
   19:06:37.471.27-Apr-2021 3392.01 3473.70 72.99 5.00 178.84 2716.87
   19:06:37.671.27-Apr-2021 3392.01 3473.69 72.99 5.00 179.04 2716.87
   19:06:37.871.27-Apr-2021 3392.01 3473.69 72.99 5.00 179.24 2716.87
   19:06:38.071.27-Apr-2021 3392.01 3473.60 72.99 5.00 179.44 2716.87
   19:06:38.271.27-Apr-2021 3392.01 3473.73 72.99 5.00 179.64 2716.87
   19:06:38.471.27-Apr-2021 3392.01 3473.67 72.99 5.00 179.84 2716.87
   19:06:38.671.27-Apr-2021 3392.01 3473.70 72.99 5.00 180.04 2716.87
   19:06:38.871.27-Apr-2021 3392.01 3473.70 72.99 5.00 180.24 2716.87
   19:06:39.071.27-Apr-2021 3392.01 3473.78 72.99 5.00 180.44 2716.87
   19:06:39.271.27-Apr-2021 3392.01 3473.71 72.99 5.00 180.64 2716.87
   19:06:39.471.27-Apr-2021 3392.01 3473.65 72.99 5.00 180.84 2716.87
   19:06:39.671.27-Apr-2021 3392.01 3473.73 72.99 5.00 181.04 2716.87
   19:06:39.871.27-Apr-2021 3392.01 3473.73 72.99 5.00 181.24 2716.87
   19:06:40.071.27-Apr-2021 3392.01 3473.63 72.99 5.00 181.44 2716.87
   19:06:40.271.27-Apr-2021 3392.01 3473.68 72.99 5.00 181.64 2716.87
   19:06:40.471.27-Apr-2021 3392.01 3473.73 72.99 5.00 181.84 2716.87
   19:06:40.671.27-Apr-2021 3392.01 3473.68 72.99 5.00 182.04 2716.87
   19:06:40.871.27-Apr-2021 3392.01 3473.68 72.99 5.00 182.24 2716.87
   19:06:41.071.27-Apr-2021 3392.01 3473.68 72.98 5.00 182.44 2716.87
   19:06:41.271.27-Apr-2021 3392.01 3473.68 72.98 5.00 182.64 2716.87
   19:06:41.471.27-Apr-2021 3392.01 3473.70 72.98 5.00 182.84 2716.87
   19:06:41.672.27-Apr-2021 3392.01 3473.65 72.98 5.00 183.04 2716.87
   19:06:41.872.27-Apr-2021 3392.01 3473.65 72.98 5.00 183.24 2716.87
   19:06:42.072.27-Apr-2021 3392.01 3473.64 72.98 5.00 183.44 2716.87
   19:06:42.272.27-Apr-2021 3392.01 3473.68 72.98 5.00 183.64 2716.87
   19:06:42.472.27-Apr-2021 3392.01 3473.67 72.98 5.00 183.84 2716.87
