~Version Information
 VERS.                  2.0:   CWLS log ASCII Standard -VERSION 2.0
 WRAP.                   NO:   One line per depth step
~Well Information Block
#MNEM.UNIT     VALUE/NAME     DESCRIPTION
#---------     -----------    ---------------------------
 STRT.S             23:23:54 27-Apr-21: START TIME 23:23:54 27-Apr-21
 STOP.S             23:30:22 27-Apr-21: STOP TIME  23:30:22 27-Apr-21
 STEP.S                   0.00: STEP TIME
 NULL.                 -999.25: NULL VALUE
 DFWT.                        :  DIST FWL TEXT
 DFST.                        :  DIST FSL TEXT
 DMF .             Drill Floor:  DRILL MEAS FROM
 STIM.      02.00.00 12-Apr-21:  START TIME
 DATE.      02.00.00 02-May-21:  END TIME
 SPUD.               09-Apr-21:  SPUD DATE
 NREF.                    Grid:  NORTH REFERENCE
 HPTY.       Minimum Curvature:  HOLE POS TYPE
 DMOD.             Drill Model:  DRILL MOD DESC
 SVYD.                  Survey:  SURVEY DESC
 ILTD.               Lithology:  INTERP LTH DESC
 FTOP.          Formation Tops:  FORM TOPS DESC
 PDAT.          Mean Sea Level:  PERMANENT DATUM
 FLD .                     ACG:  FIELD NAME
 SON .        AZ-XX-0907021034:  JOB NUMBER
 CTRY.              Azerbaijan:  COUNTRY NAME
 WELL.                    E01x:  WELL NAME
 COMP.     BP Exploration (Caspian Sea) LTD.:  COMPANY
 UWI .            /AZE00001403:  UNIQUE WELL IDENTIFIER
 API .            /AZE00001403:  API NUMBER
 WTYP.                Deviated:  WELL TYPE
 MDS .        Operator Entered:  MAG DATA SOURCE
 BASE.              Azerbaijan:  LOGGING EQUIPMENT BASE LOCATION
 REGN.                   EESSA:  REGION
 PROV.                    Baku:  PROVINCE
 STAT.                    Baku:  STATE NAME
 SRVC.          Turan Drilling:  CONTRACTOR
 MWDS.                    Baku:  MWD SHOP
 JOBN.        AZ-XX-0907021034:  JOB TICKET NUMB
 RIG .                     DWG:  RIG NAME
 DOE .                     N/A:  DOE NUMBER
 DCON.         Sperry Drilling:  DIRECTNL CONTR
 UNIT.                     N/A:  LOGGING EQUIPMENT ID
 CNTY.                        :  COUNTY
 LOC .                        :  LOCATION
 LMF .             Drill Floor:  LOG MEASURED FROM
 TVDS.m                  43.16:  TVDSS CORRECTN
 LATI.deg                40.17:  LATITUDE
 LONG.deg                51.17:  LONGITUDE
 WHNS.m                  -5.90:  WELL HEAD N/S
 WHEW.m                  -6.61:  WELL HEAD E/W
 UTMX.m              514337.95:  UTM X
 UTMY.m             4448627.46:  UTM Y
 DFWL.m                   0.00:  DISTANCE FWL
 DFSL.m                   0.00:  DISTANCE FSL
 SDEP.m                2606.87:  START DEPTH
 TDD .m                3618.01:  TOTAL DEPTH (DRILLER)
 VSDR.deg               177.42:  VERT SEC DIRECT
 GVFD.g                   1.00:  GRAVITY FIELD
 MFLD.nT              50399.00:  MAGNETIC FIELD
 MDIP.deg                59.67:  MAGNETIC DIP
 MDEC.deg                 6.56:  MAGNETIC DECL
 GRDC.deg                 0.11:  GRID CORRECTION
 AZTC.deg                 6.45:  AZM TOTAL CORR
 EPD .m                   0.00:  ELEVATION
 EGL .m                   0.00:  GROUND ELEVATION
 WDMS.m                 176.20:  WD ELEV
 APD .m                  43.16:  DEPTH ABOVE PD
 DEP .m                2606.87:  DEPTH
 AGAP.m                  43.16:  AIR GAP
 VSEW.m                  -6.61:  VERT SEC E/W
 VSNS.m                  -5.90:  VERT SEC N/S
 EKB .m                  43.16:  KB ELEVATION
 EDF .m                  43.16:  DF ELEVATION
 TDL .m                 438.00:  TOTAL DEPTH (LOGGER)
 VSC .                       0:  VS TO CLOSURE
 MAGU.                 1855490:  MAGUTM CHECKSUM
~Parameter Information Block
#MNEM.UNIT       Value        Description
#---------     -----------    ---------------------------
 AV  .mps                 2.20:  Ann Velocity 
 AVMX.mps                 2.50:  Max Ann Veloc 
 AZIF.deg               150.21:  Azm, Final 
 BHAT.        Rotary Steerable:  BHA Type 
 BROT.°/30m               0.08:  Build Rotating 
 BS  .in                  6.50:  Bit Size 
 BSZ .in                  6.50:  Bit Size 
 BTPL.psig              108.00:  Bit Press Loss 
 CABU.                     Yes:  Customer Abuse 
 CGEO.           Emin Aliyarli:  Customer Geo 
 COMM.                     HO:  Run Comments 1 
 TCS .hr                 74.20:  Time Ciculation Ended 
 CV  .mps                 3.63:  Crit Velocity 
 CVMX.mps                 3.66:  Max Crit Veloc 
 DD1 .         Intigam Rahimov:  Direct Drillr 1 
 DD2 .          Teymur Aghayev:  Direct Drillr 2 
 DDSV.               Geo-Pilot:  DD Service 
 DEFF.%                  97.00:  % Det Eff 
 DLRX.°/30m               1.63:  Dogleg Rot Max 
 DLSO.°/30m               0.00:  Dogleg Oriented 
 DLSX.°/30m               0.00:  Dogleg Str Max 
 DRET.      20.20.00 28-Apr-21:  Drill End Time 
 DRST.      04.45.00 26-Apr-21:  Drill Start Tim 
 DTIM.hr                 34.30:  Time Drilling 
 EDEP.m                3618.01:  End Depth 
 ENG1.           Amrah Tahirov:  Engineer 1 
 ENG2.         Bahruz Mehdiyev:  Engineer 2 
 ENG3.         Farhad Orujzade:  Engineer 3 
 ETIM.      19.00.00 29-Apr-21:  End Time 
 FLOI.gpm               370.00:  Flow In 
 FLON.gpm               300.00:  Flow In Min 
 FLOS.cptm                0.00:  Fluid Loss 
 FLOX.gpm               410.00:  Flow In Max 
 HFLO.                      No:  High Flow 
 HPRE.                      No:  High Pressure 
 HTEM.                      No:  High Temp 
 HYDO.m                   1.80:  Hydro Offset 
 IFIN.deg                67.19:  Inc, Final 
 IMAX.deg                68.42:  Inc Max 
 IMIN.deg                66.33:  Inc Min 
 IMND.m                3532.79:  Inc Min Depth 
 IMXD.m                3192.15:  Inc Max Depth 
 JARR.                      No:  Jarring 
 LETM.      20.20.00 28-Apr-21:  Log End Time 
 LOST.hr                     0:  Lost Rig Time 
 LSTM.      04.45.00 26-Apr-21:  Log Start Time 
 MDCL.ppm             36500.00:  Mud Chlorides 
 MDES.     Inversion Oil/Synthetic:  Mud Desc 
 DFD .sg                  1.42:  Mud Density 
 MDMN.sg                  1.42:  Dens Mud Min 
 MDMX.sg                  1.42:  Dens Mud Max 
 MOIL.                    55.7:  Run Mud Oil % 
 MOWR.                   71:29:  Run Mud OWR 
 MSND.                     0.1:  Run Mud Sand % 
 MSOL.                    19.9:  Run Mud Solids% 
 DFV .spqt               83.00:  Mud Viscosity 
 MWOD.in                  5.15:  MWD Tool OD 
 MWSI.                      No:  Serv Intrp, MWD 
 OTIM.hr                120.59:  Time Operating 
 PCON.           Look Like New:  Pad Condition 
 PMAX.psia            11292.93:  Press Op, Max 
 PV  .cP                 27.00:  Mud PV 
 RUN .                     400:  Run Number 
 ROPA.m/hr               14.00:  ROP Avg 
 ROPN.m/hr                9.00:  ROP Min 
 ROPX.m/hr               18.00:  ROP Max 
 RPMA.rpm               130.00:  RPM Surface Avg 
 RPMN.rpm               100.00:  RPM Surface Min 
 RPMX.rpm               140.00:  RPM Surface Max 
 RRUN.                    0400:  Rig Run Number 
 RTIM.hr                 38.60:  Time Reaming 
 SAZI.deg               149.55:  Azm, Start 
 SDEP.m                3180.01:  Start Depth 
 SIDD.                      No:  Serv Intrp, DD 
 SINC.deg                68.42:  Inc, Start 
 SPPA.psig             4400.00:  SPP Avg 
 SPPN.psig             3580.00:  SPP Min 
 SPPX.psig             4850.00:  SPP Max 
 STIM.      12.30.00 24-Apr-21:  Start Time 
 SVCS.                 DD, MWD:  Services 
 SVER.                    9.20:  Sperry Version 
 TDAT.m                 438.00:  Tot Depth Attmp 
 TDDF.                      No:  Trip for DD 
 TDLG.m                 438.00:  Tot Depth Loggd 
 TFF .                      No:  Trip for Fail 
 TQAA.f-kp               11.00:  Torque Abs Avg 
 TQAN.f-kp                9.00:  Torque Abs Min 
 TQAX.f-kp               14.00:  Torque Abs Max 
 TRRT.°/30m               0.04:  Turn Rotating 
 MRT .                    HCIM:  Maximum Recorded Temperature 
 TTMX.degC               84.31:  Max Tool Temp 
 VS01.                90521954:  Virtual Str1 SN 
 VS02.                90519327:  Virtual Str2 SN 
 VS03.                90522273:  Virtual Str3 SN 
 VS04.                11108038:  Virtual Str4 SN 
 VS05.                12258760:  Virtual Str5 SN 
 WBMN.klb                 1.00:  WOB Min 
 WITN.           Adil Mammadov:  Customer Rep 
 WITN.         Alex Yadullayev:  Customer Rep 2 
 WOBA.klb                 6.00:  WOB Avg 
 WOBX.klb                 9.00:  WOB Max 
 YP  .lhf2               31.00:  Yield Point 
~Curve Information Block
#MNEM.UNIT                 API CODE     Curve Description
#---------               -----------    ---------------------------
 TIME.HHMMSS            00 000 000 000:  GT Time & Date
 GTDEPTH.m              00 000 000 000:  GT Depth
 GTPQH.psia             00 000 000 000:  GT HR Quartz Pressure
 GTTQ.degC              00 000 000 000:  GT Quartz Temperature
 GTTN.NONE              00 000 000 000:  GT Test Number
 GTET.sec               00 000 000 000:  GT Elapsed Test Time
 GTTVD.m                00 000 000 000:  GT True Vertical Depth
#Other Information
#
#WARRANTY: Halliburton will use its best efforts to furnish customers with 
#accurate information and interpretations that are part of, and incident to, the services 
#provided.  However, Halliburton cannot and does not warrant the accuracy 
#or correctness of such information and interpretations.  Under no circumstances should any 
#such information or interpretation be relied upon as the sole basis for any drilling, 
#completion, production, or financial decision or any procedure involving any risk to the 
#safety of any drilling venture, drilling rig or its crew or any other third party.  The 
#Customer has full responsibility for all drilling, completion and production operation.  
#Halliburton makes no representations or warranties, either expressed or 
#implied, including, but not limited to, the implied warranties of merchantability or fitness 
#for a particular purpose, with respect to the services rendered.  In no event will 
#Halliburton be liable for failure to obtain any particular results or for 
#any damages, including, but not limited to, indirect, special or consequential damages, 
#resulting from the use of any information or interpretation provided by Halliburton.
#
~A           TIME           GTDEPTH  GTPQH  GTTQ  GTTN  GTET   GTTVD  
# ...
   23:27:44.689.27-Apr-2021 3418.01 3572.90 73.60 6.00 230.06 2727.14
   23:27:44.889.27-Apr-2021 3418.01 3572.90 73.60 6.00 230.26 2727.14
   23:27:45.089.27-Apr-2021 3418.01 3572.89 73.60 6.00 230.46 2727.14
   23:27:45.289.27-Apr-2021 3418.01 3572.88 73.60 6.00 230.66 2727.14
   23:27:45.489.27-Apr-2021 3418.01 3572.85 73.60 6.00 230.86 2727.14
   23:27:45.689.27-Apr-2021 3418.01 3572.86 73.60 6.00 231.06 2727.14
   23:27:45.889.27-Apr-2021 3418.01 3572.86 73.60 6.00 231.26 2727.14
   23:27:46.089.27-Apr-2021 3418.01 3572.84 73.60 6.00 231.46 2727.14
   23:27:46.289.27-Apr-2021 3418.01 3572.86 73.60 6.00 231.66 2727.14
   23:27:46.489.27-Apr-2021 3418.01 3572.84 73.60 6.00 231.86 2727.14
   23:27:46.689.27-Apr-2021 3418.01 3572.85 73.60 6.00 232.06 2727.14
   23:27:46.889.27-Apr-2021 3418.01 3572.85 73.60 6.00 232.26 2727.14
   23:27:47.089.27-Apr-2021 3418.01 3572.90 73.60 6.00 232.46 2727.14
   23:27:47.289.27-Apr-2021 3418.01 3572.86 73.60 6.00 232.66 2727.14
   23:27:47.489.27-Apr-2021 3418.01 3572.86 73.60 6.00 232.86 2727.14
   23:27:47.690.27-Apr-2021 3418.01 3572.87 73.60 6.00 233.06 2727.14
   23:27:47.890.27-Apr-2021 3418.01 3572.87 73.60 6.00 233.26 2727.14
   23:27:48.090.27-Apr-2021 3418.01 3572.86 73.60 6.00 233.46 2727.14
   23:27:48.290.27-Apr-2021 3418.01 3572.93 73.59 6.00 233.66 2727.14
   23:27:48.490.27-Apr-2021 3418.01 3572.87 73.59 6.00 233.86 2727.14
   23:27:48.690.27-Apr-2021 3418.01 3572.85 73.59 6.00 234.06 2727.14
   23:27:48.890.27-Apr-2021 3418.01 3572.85 73.59 6.00 234.26 2727.14
   23:27:49.090.27-Apr-2021 3418.01 3572.85 73.59 6.00 234.46 2727.14
   23:27:49.290.27-Apr-2021 3418.01 3572.81 73.59 6.00 234.66 2727.14
   23:27:49.490.27-Apr-2021 3418.01 3572.80 73.59 6.00 234.86 2727.14
   23:27:49.690.27-Apr-2021 3418.01 3572.88 73.59 6.00 235.06 2727.14
   23:27:49.890.27-Apr-2021 3418.01 3572.88 73.59 6.00 235.26 2727.14
   23:27:50.090.27-Apr-2021 3418.01 3572.86 73.59 6.00 235.46 2727.14
   23:27:50.290.27-Apr-2021 3418.01 3572.85 73.59 6.00 235.66 2727.14
   23:27:50.490.27-Apr-2021 3418.01 3572.77 73.59 6.00 235.86 2727.14
   23:27:50.690.27-Apr-2021 3418.01 3572.86 73.59 6.00 236.06 2727.14
   23:27:50.890.27-Apr-2021 3418.01 3572.86 73.59 6.00 236.26 2727.14
   23:27:51.090.27-Apr-2021 3418.01 3572.86 73.59 6.00 236.46 2727.14
   23:27:51.290.27-Apr-2021 3418.01 3572.86 73.59 6.00 236.66 2727.14
   23:27:51.490.27-Apr-2021 3418.01 3572.87 73.59 6.00 236.86 2727.14
   23:27:51.691.27-Apr-2021 3418.01 3572.86 73.59 6.00 237.06 2727.14
   23:27:51.891.27-Apr-2021 3418.01 3572.86 73.59 6.00 237.26 2727.14
   23:27:52.091.27-Apr-2021 3418.01 3572.85 73.59 6.00 237.46 2727.14
   23:27:52.291.27-Apr-2021 3418.01 3572.84 73.59 6.00 237.66 2727.14
   23:27:52.491.27-Apr-2021 3418.01 3572.84 73.59 6.00 237.86 2727.14
   23:27:52.691.27-Apr-2021 3418.01 3557.79 73.59 6.00 238.06 2727.14
   23:27:52.891.27-Apr-2021 3418.01 3557.79 73.59 6.00 238.26 2727.14
   23:27:53.091.27-Apr-2021 3418.01 3555.87 73.58 6.00 238.46 2727.14
   23:27:53.291.27-Apr-2021 3418.01 3555.16 73.58 6.00 238.66 2727.14
   23:27:53.491.27-Apr-2021 3418.01 3556.16 73.58 6.00 238.86 2727.14
   23:27:53.691.27-Apr-2021 3418.01 3555.69 73.58 6.00 239.06 2727.14
   23:27:53.891.27-Apr-2021 3418.01 3555.69 73.58 6.00 239.26 2727.14
   23:27:54.091.27-Apr-2021 3418.01 3555.72 73.58 6.00 239.46 2727.14
   23:27:54.291.27-Apr-2021 3418.01 3555.63 73.58 6.00 239.66 2727.14
   23:27:54.491.27-Apr-2021 3418.01 3555.57 73.58 6.00 239.86 2727.14
   23:27:54.691.27-Apr-2021 3418.01 3555.63 73.58 6.00 240.06 2727.14
   23:27:54.891.27-Apr-2021 3418.01 3555.63 73.58 6.00 240.26 2727.14
   23:27:55.091.27-Apr-2021 3418.01 3555.62 73.58 6.00 240.46 2727.14
   23:27:55.291.27-Apr-2021 3418.01 3555.58 73.58 6.00 240.66 2727.14
   23:27:55.492.27-Apr-2021 3418.01 3555.56 73.58 6.00 240.86 2727.14
   23:27:55.692.27-Apr-2021 3418.01 3555.56 73.58 6.00 241.06 2727.14
   23:27:55.892.27-Apr-2021 3418.01 3555.56 73.58 6.00 241.26 2727.14
   23:27:56.092.27-Apr-2021 3418.01 3555.36 73.58 6.00 241.46 2727.14
   23:27:56.292.27-Apr-2021 3418.01 3555.82 73.58 6.00 241.66 2727.14
   23:27:56.492.27-Apr-2021 3418.01 3555.65 73.58 6.00 241.86 2727.14
   23:27:56.692.27-Apr-2021 3418.01 3555.36 73.58 6.00 242.06 2727.14
   23:27:56.892.27-Apr-2021 3418.01 3555.36 73.58 6.00 242.26 2727.14
   23:27:57.092.27-Apr-2021 3418.01 3555.46 73.58 6.00 242.46 2727.14
   23:27:57.292.27-Apr-2021 3418.01 3555.35 73.58 6.00 242.66 2727.14
   23:27:57.492.27-Apr-2021 3418.01 3555.76 73.58 6.00 242.86 2727.14
   23:27:57.692.27-Apr-2021 3418.01 3555.66 73.58 6.00 243.06 2727.14
   23:27:57.892.27-Apr-2021 3418.01 3555.66 73.58 6.00 243.26 2727.14
   23:27:58.092.27-Apr-2021 3418.01 3555.60 73.57 6.00 243.46 2727.14
   23:27:58.292.27-Apr-2021 3418.01 3555.50 73.57 6.00 243.66 2727.14
   23:27:58.492.27-Apr-2021 3418.01 3554.91 73.57 6.00 243.86 2727.14
   23:27:58.692.27-Apr-2021 3418.01 3556.01 73.57 6.00 244.06 2727.14
   23:27:58.892.27-Apr-2021 3418.01 3556.01 73.57 6.00 244.26 2727.14
   23:27:59.092.27-Apr-2021 3418.01 3555.38 73.57 6.00 244.46 2727.14
   23:27:59.292.27-Apr-2021 3418.01 3555.61 73.57 6.00 244.66 2727.14
   23:27:59.493.27-Apr-2021 3418.01 3555.49 73.57 6.00 244.86 2727.14
   23:27:59.693.27-Apr-2021 3418.01 3554.84 73.57 6.00 245.06 2727.14
   23:27:59.893.27-Apr-2021 3418.01 3554.84 73.57 6.00 245.26 2727.14
   23:28:00.093.27-Apr-2021 3418.01 3555.87 73.57 6.00 245.46 2727.14
   23:28:00.293.27-Apr-2021 3418.01 3555.42 73.57 6.00 245.66 2727.14
   23:28:00.493.27-Apr-2021 3418.01 3555.71 73.57 6.00 245.86 2727.14
   23:28:00.693.27-Apr-2021 3418.01 3555.52 73.57 6.00 246.06 2727.14
   23:28:00.893.27-Apr-2021 3418.01 3555.52 73.57 6.00 246.26 2727.14
   23:28:01.093.27-Apr-2021 3418.01 3555.50 73.57 6.00 246.46 2727.14
   23:28:01.293.27-Apr-2021 3418.01 3555.51 73.57 6.00 246.66 2727.14
   23:28:01.493.27-Apr-2021 3418.01 3555.70 73.57 6.00 246.86 2727.14
   23:28:01.693.27-Apr-2021 3418.01 3555.46 73.57 6.00 247.06 2727.14
   23:28:01.893.27-Apr-2021 3418.01 3555.46 73.57 6.00 247.26 2727.14
   23:28:02.093.27-Apr-2021 3418.01 3555.60 73.57 6.00 247.46 2727.14
   23:28:02.293.27-Apr-2021 3418.01 3555.23 73.57 6.00 247.66 2727.14
   23:28:02.493.27-Apr-2021 3418.01 3555.51 73.57 6.00 247.86 2727.14
   23:28:02.693.27-Apr-2021 3418.01 3555.68 73.56 6.00 248.06 2727.14
   23:28:02.893.27-Apr-2021 3418.01 3555.68 73.56 6.00 248.26 2727.14
   23:28:03.093.27-Apr-2021 3418.01 3572.30 73.56 6.00 248.46 2727.14
   23:28:03.294.27-Apr-2021 3418.01 3572.48 73.56 6.00 248.66 2727.14
   23:28:03.494.27-Apr-2021 3418.01 3572.53 73.56 6.00 248.86 2727.14
   23:28:03.694.27-Apr-2021 3418.01 3572.54 73.56 6.00 249.06 2727.14
   23:28:03.894.27-Apr-2021 3418.01 3572.54 73.56 6.00 249.26 2727.14
   23:28:04.094.27-Apr-2021 3418.01 3572.58 73.56 6.00 249.46 2727.14
   23:28:04.294.27-Apr-2021 3418.01 3572.63 73.56 6.00 249.66 2727.14
   23:28:04.494.27-Apr-2021 3418.01 3572.62 73.56 6.00 249.86 2727.14
   23:28:04.694.27-Apr-2021 3418.01 3572.66 73.56 6.00 250.06 2727.14
   23:28:04.894.27-Apr-2021 3418.01 3572.66 73.56 6.00 250.26 2727.14
   23:28:05.094.27-Apr-2021 3418.01 3572.50 73.56 6.00 250.46 2727.14
   23:28:05.294.27-Apr-2021 3418.01 3572.85 73.56 6.00 250.66 2727.14
   23:28:05.494.27-Apr-2021 3418.01 3572.80 73.56 6.00 250.86 2727.14
   23:28:05.694.27-Apr-2021 3418.01 3572.74 73.56 6.00 251.06 2727.14
   23:28:05.894.27-Apr-2021 3418.01 3572.74 73.56 6.00 251.26 2727.14
   23:28:06.094.27-Apr-2021 3418.01 3572.76 73.56 6.00 251.46 2727.14
   23:28:06.294.27-Apr-2021 3418.01 3572.59 73.56 6.00 251.66 2727.14
   23:28:06.494.27-Apr-2021 3418.01 3572.89 73.56 6.00 251.86 2727.14
   23:28:06.694.27-Apr-2021 3418.01 3572.82 73.56 6.00 252.06 2727.14
   23:28:06.894.27-Apr-2021 3418.01 3572.82 73.56 6.00 252.26 2727.14
   23:28:07.095.27-Apr-2021 3418.01 3572.82 73.56 6.00 252.47 2727.14
   23:28:07.295.27-Apr-2021 3418.01 3572.66 73.56 6.00 252.67 2727.14
   23:28:07.495.27-Apr-2021 3418.01 3572.85 73.56 6.00 252.87 2727.14
