~Version Information
 VERS.                  2.0:   CWLS log ASCII Standard -VERSION 2.0
 WRAP.                   NO:   One line per depth step
~Well Information Block
#MNEM.UNIT     VALUE/NAME     DESCRIPTION
#---------     -----------    ---------------------------
 STRT.S             13:09:03 28-Apr-21: START TIME 13:09:03 28-Apr-21
 STOP.S             13:15:31 28-Apr-21: STOP TIME  13:15:31 28-Apr-21
 STEP.S                   0.00: STEP TIME
 NULL.                 -999.25: NULL VALUE
 DFWT.                        :  DIST FWL TEXT
 DFST.                        :  DIST FSL TEXT
 DMF .             Drill Floor:  DRILL MEAS FROM
 STIM.      02.00.00 12-Apr-21:  START TIME
 DATE.      02.00.00 02-May-21:  END TIME
 SPUD.               09-Apr-21:  SPUD DATE
 NREF.                    Grid:  NORTH REFERENCE
 HPTY.       Minimum Curvature:  HOLE POS TYPE
 DMOD.             Drill Model:  DRILL MOD DESC
 SVYD.                  Survey:  SURVEY DESC
 ILTD.               Lithology:  INTERP LTH DESC
 FTOP.          Formation Tops:  FORM TOPS DESC
 PDAT.          Mean Sea Level:  PERMANENT DATUM
 FLD .                     ACG:  FIELD NAME
 SON .        AZ-XX-0907021034:  JOB NUMBER
 CTRY.              Azerbaijan:  COUNTRY NAME
 WELL.                    E01x:  WELL NAME
 COMP.     BP Exploration (Caspian Sea) LTD.:  COMPANY
 UWI .            /AZE00001403:  UNIQUE WELL IDENTIFIER
 API .            /AZE00001403:  API NUMBER
 WTYP.                Deviated:  WELL TYPE
 MDS .        Operator Entered:  MAG DATA SOURCE
 BASE.              Azerbaijan:  LOGGING EQUIPMENT BASE LOCATION
 REGN.                   EESSA:  REGION
 PROV.                    Baku:  PROVINCE
 STAT.                    Baku:  STATE NAME
 SRVC.          Turan Drilling:  CONTRACTOR
 MWDS.                    Baku:  MWD SHOP
 JOBN.        AZ-XX-0907021034:  JOB TICKET NUMB
 RIG .                     DWG:  RIG NAME
 DOE .                     N/A:  DOE NUMBER
 DCON.         Sperry Drilling:  DIRECTNL CONTR
 UNIT.                     N/A:  LOGGING EQUIPMENT ID
 CNTY.                        :  COUNTY
 LOC .                        :  LOCATION
 LMF .             Drill Floor:  LOG MEASURED FROM
 TVDS.m                  43.16:  TVDSS CORRECTN
 LATI.deg                40.17:  LATITUDE
 LONG.deg                51.17:  LONGITUDE
 WHNS.m                  -5.90:  WELL HEAD N/S
 WHEW.m                  -6.61:  WELL HEAD E/W
 UTMX.m              514337.95:  UTM X
 UTMY.m             4448627.46:  UTM Y
 DFWL.m                   0.00:  DISTANCE FWL
 DFSL.m                   0.00:  DISTANCE FSL
 SDEP.m                2606.87:  START DEPTH
 TDD .m                3618.01:  TOTAL DEPTH (DRILLER)
 VSDR.deg               177.42:  VERT SEC DIRECT
 GVFD.g                   1.00:  GRAVITY FIELD
 MFLD.nT              50399.00:  MAGNETIC FIELD
 MDIP.deg                59.67:  MAGNETIC DIP
 MDEC.deg                 6.56:  MAGNETIC DECL
 GRDC.deg                 0.11:  GRID CORRECTION
 AZTC.deg                 6.45:  AZM TOTAL CORR
 EPD .m                   0.00:  ELEVATION
 EGL .m                   0.00:  GROUND ELEVATION
 WDMS.m                 176.20:  WD ELEV
 APD .m                  43.16:  DEPTH ABOVE PD
 DEP .m                2606.87:  DEPTH
 AGAP.m                  43.16:  AIR GAP
 VSEW.m                  -6.61:  VERT SEC E/W
 VSNS.m                  -5.90:  VERT SEC N/S
 EKB .m                  43.16:  KB ELEVATION
 EDF .m                  43.16:  DF ELEVATION
 TDL .m                 438.00:  TOTAL DEPTH (LOGGER)
 VSC .                       0:  VS TO CLOSURE
 MAGU.                 1855490:  MAGUTM CHECKSUM
~Parameter Information Block
#MNEM.UNIT       Value        Description
#---------     -----------    ---------------------------
 AV  .mps                 2.20:  Ann Velocity 
 AVMX.mps                 2.50:  Max Ann Veloc 
 AZIF.deg               150.21:  Azm, Final 
 BHAT.        Rotary Steerable:  BHA Type 
 BROT.∞/30m               0.08:  Build Rotating 
 BS  .in                  6.50:  Bit Size 
 BSZ .in                  6.50:  Bit Size 
 BTPL.psig              108.00:  Bit Press Loss 
 CABU.                     Yes:  Customer Abuse 
 CGEO.           Emin Aliyarli:  Customer Geo 
 COMM.                     ‹Ïq:  Run Comments 1 
 TCS .hr                 74.20:  Time Ciculation Ended 
 CV  .mps                 3.63:  Crit Velocity 
 CVMX.mps                 3.66:  Max Crit Veloc 
 DD1 .         Intigam Rahimov:  Direct Drillr 1 
 DD2 .          Teymur Aghayev:  Direct Drillr 2 
 DDSV.               Geo-Pilot:  DD Service 
 DEFF.%                  97.00:  % Det Eff 
 DLRX.∞/30m               1.63:  Dogleg Rot Max 
 DLSO.∞/30m               0.00:  Dogleg Oriented 
 DLSX.∞/30m               0.00:  Dogleg Str Max 
 DRET.      20.20.00 28-Apr-21:  Drill End Time 
 DRST.      04.45.00 26-Apr-21:  Drill Start Tim 
 DTIM.hr                 34.30:  Time Drilling 
 EDEP.m                3618.01:  End Depth 
 ENG1.           Amrah Tahirov:  Engineer 1 
 ENG2.         Bahruz Mehdiyev:  Engineer 2 
 ENG3.         Farhad Orujzade:  Engineer 3 
 ETIM.      19.00.00 29-Apr-21:  End Time 
 FLOI.gpm               370.00:  Flow In 
 FLON.gpm               300.00:  Flow In Min 
 FLOS.cptm                0.00:  Fluid Loss 
 FLOX.gpm               410.00:  Flow In Max 
 HFLO.                      No:  High Flow 
 HPRE.                      No:  High Pressure 
 HTEM.                      No:  High Temp 
 HYDO.m                   1.80:  Hydro Offset 
 IFIN.deg                67.19:  Inc, Final 
 IMAX.deg                68.42:  Inc Max 
 IMIN.deg                66.33:  Inc Min 
 IMND.m                3532.79:  Inc Min Depth 
 IMXD.m                3192.15:  Inc Max Depth 
 JARR.                      No:  Jarring 
 LETM.      20.20.00 28-Apr-21:  Log End Time 
 LOST.hr                     0:  Lost Rig Time 
 LSTM.      04.45.00 26-Apr-21:  Log Start Time 
 MDCL.ppm             36500.00:  Mud Chlorides 
 MDES.     Inversion Oil/Synthetic:  Mud Desc 
 DFD .sg                  1.42:  Mud Density 
 MDMN.sg                  1.42:  Dens Mud Min 
 MDMX.sg                  1.42:  Dens Mud Max 
 MOIL.                    55.7:  Run Mud Oil % 
 MOWR.                   71:29:  Run Mud OWR 
 MSND.                     0.1:  Run Mud Sand % 
 MSOL.                    19.9:  Run Mud Solids% 
 DFV .spqt               83.00:  Mud Viscosity 
 MWOD.in                  5.15:  MWD Tool OD 
 MWSI.                      No:  Serv Intrp, MWD 
 OTIM.hr                120.59:  Time Operating 
 PCON.           Look Like New:  Pad Condition 
 PMAX.psia            11292.93:  Press Op, Max 
 PV  .cP                 27.00:  Mud PV 
 RUN .                     400:  Run Number 
 ROPA.m/hr               14.00:  ROP Avg 
 ROPN.m/hr                9.00:  ROP Min 
 ROPX.m/hr               18.00:  ROP Max 
 RPMA.rpm               130.00:  RPM Surface Avg 
 RPMN.rpm               100.00:  RPM Surface Min 
 RPMX.rpm               140.00:  RPM Surface Max 
 RRUN.                    0400:  Rig Run Number 
 RTIM.hr                 38.60:  Time Reaming 
 SAZI.deg               149.55:  Azm, Start 
 SDEP.m                3180.01:  Start Depth 
 SIDD.                      No:  Serv Intrp, DD 
 SINC.deg                68.42:  Inc, Start 
 SPPA.psig             4400.00:  SPP Avg 
 SPPN.psig             3580.00:  SPP Min 
 SPPX.psig             4850.00:  SPP Max 
 STIM.      12.30.00 24-Apr-21:  Start Time 
 SVCS.                 DD, MWD:  Services 
 SVER.                    9.20:  Sperry Version 
 TDAT.m                 438.00:  Tot Depth Attmp 
 TDDF.                      No:  Trip for DD 
 TDLG.m                 438.00:  Tot Depth Loggd 
 TFF .                      No:  Trip for Fail 
 TQAA.f-kp               11.00:  Torque Abs Avg 
 TQAN.f-kp                9.00:  Torque Abs Min 
 TQAX.f-kp               14.00:  Torque Abs Max 
 TRRT.∞/30m               0.04:  Turn Rotating 
 MRT .                    HCIM:  Maximum Recorded Temperature 
 TTMX.degC               84.31:  Max Tool Temp 
 VS01.                90521954:  Virtual Str1 SN 
 VS02.                90519327:  Virtual Str2 SN 
 VS03.                90522273:  Virtual Str3 SN 
 VS04.                11108038:  Virtual Str4 SN 
 VS05.                12258760:  Virtual Str5 SN 
 WBMN.klb                 1.00:  WOB Min 
 WITN.           Adil Mammadov:  Customer Rep 
 WITN.         Alex Yadullayev:  Customer Rep 2 
 WOBA.klb                 6.00:  WOB Avg 
 WOBX.klb                 9.00:  WOB Max 
 YP  .lhf2               31.00:  Yield Point 
~Curve Information Block
#MNEM.UNIT                 API CODE     Curve Description
#---------               -----------    ---------------------------
 TIME.HHMMSS            00 000 000 000:  GT Time & Date
 GTDEPTH.m              00 000 000 000:  GT Depth
 GTPQH.psia             00 000 000 000:  GT HR Quartz Pressure
 GTTQ.degC              00 000 000 000:  GT Quartz Temperature
 GTTN.NONE              00 000 000 000:  GT Test Number
 GTET.sec               00 000 000 000:  GT Elapsed Test Time
 GTTVD.m                00 000 000 000:  GT True Vertical Depth
#Other Information
#
#WARRANTY: Halliburton will use its best efforts to furnish customers with 
#accurate information and interpretations that are part of, and incident to, the services 
#provided.  However, Halliburton cannot and does not warrant the accuracy 
#or correctness of such information and interpretations.  Under no circumstances should any 
#such information or interpretation be relied upon as the sole basis for any drilling, 
#completion, production, or financial decision or any procedure involving any risk to the 
#safety of any drilling venture, drilling rig or its crew or any other third party.  The 
#Customer has full responsibility for all drilling, completion and production operation.  
#Halliburton makes no representations or warranties, either expressed or 
#implied, including, but not limited to, the implied warranties of merchantability or fitness 
#for a particular purpose, with respect to the services rendered.  In no event will 
#Halliburton be liable for failure to obtain any particular results or for 
#any damages, including, but not limited to, indirect, special or consequential damages, 
#resulting from the use of any information or interpretation provided by Halliburton.
#
~A           TIME           GTDEPTH  GTPQH  GTTQ  GTTN  GTET   GTTVD  
# ...
   13:12:53.465.28-Apr-2021 3524.51 4369.24 74.95 9.00 230.04 2768.78
   13:12:53.665.28-Apr-2021 3524.51 4369.24 74.95 9.00 230.24 2768.78
   13:12:53.865.28-Apr-2021 3524.51 4369.20 74.95 9.00 230.44 2768.78
   13:12:54.065.28-Apr-2021 3524.51 4369.22 74.94 9.00 230.64 2768.78
   13:12:54.265.28-Apr-2021 3524.51 4369.25 74.94 9.00 230.84 2768.78
   13:12:54.465.28-Apr-2021 3524.51 4369.22 74.94 9.00 231.04 2768.78
   13:12:54.665.28-Apr-2021 3524.51 4369.22 74.94 9.00 231.24 2768.78
   13:12:54.865.28-Apr-2021 3524.51 4369.09 74.94 9.00 231.44 2768.78
   13:12:55.065.28-Apr-2021 3524.51 4369.30 74.94 9.00 231.64 2768.78
   13:12:55.265.28-Apr-2021 3524.51 4369.27 74.94 9.00 231.84 2768.78
   13:12:55.465.28-Apr-2021 3524.51 4369.24 74.94 9.00 232.04 2768.78
   13:12:55.665.28-Apr-2021 3524.51 4369.24 74.94 9.00 232.24 2768.78
   13:12:55.865.28-Apr-2021 3524.51 4369.25 74.94 9.00 232.44 2768.78
   13:12:56.065.28-Apr-2021 3524.51 4369.26 74.94 9.00 232.64 2768.78
   13:12:56.265.28-Apr-2021 3524.51 4369.21 74.94 9.00 232.84 2768.78
   13:12:56.465.28-Apr-2021 3524.51 4369.22 74.94 9.00 233.04 2768.78
   13:12:56.665.28-Apr-2021 3524.51 4369.22 74.94 9.00 233.24 2768.78
   13:12:56.865.28-Apr-2021 3524.51 4369.22 74.94 9.00 233.44 2768.78
   13:12:57.065.28-Apr-2021 3524.51 4369.22 74.94 9.00 233.64 2768.78
   13:12:57.265.28-Apr-2021 3524.51 4369.20 74.94 9.00 233.84 2768.78
   13:12:57.465.28-Apr-2021 3524.51 4369.16 74.94 9.00 234.04 2768.78
   13:12:57.665.28-Apr-2021 3524.51 4369.16 74.94 9.00 234.24 2768.78
   13:12:57.865.28-Apr-2021 3524.51 4369.32 74.94 9.00 234.44 2768.78
   13:12:58.065.28-Apr-2021 3524.51 4369.29 74.94 9.00 234.64 2768.78
   13:12:58.265.28-Apr-2021 3524.51 4368.99 74.94 9.00 234.84 2768.78
   13:12:58.465.28-Apr-2021 3524.51 4369.30 74.94 9.00 235.04 2768.78
   13:12:58.665.28-Apr-2021 3524.51 4369.30 74.94 9.00 235.24 2768.78
   13:12:58.865.28-Apr-2021 3524.51 4369.26 74.93 9.00 235.44 2768.78
   13:12:59.066.28-Apr-2021 3524.51 4369.18 74.93 9.00 235.64 2768.78
   13:12:59.266.28-Apr-2021 3524.51 4369.05 74.93 9.00 235.84 2768.78
   13:12:59.466.28-Apr-2021 3524.51 4369.33 74.93 9.00 236.04 2768.78
   13:12:59.666.28-Apr-2021 3524.51 4369.33 74.93 9.00 236.24 2768.78
   13:12:59.866.28-Apr-2021 3524.51 4369.26 74.93 9.00 236.44 2768.78
   13:13:00.066.28-Apr-2021 3524.51 4369.17 74.93 9.00 236.64 2768.78
   13:13:00.266.28-Apr-2021 3524.51 4368.97 74.93 9.00 236.84 2768.78
   13:13:00.466.28-Apr-2021 3524.51 4369.43 74.93 9.00 237.04 2768.78
   13:13:00.666.28-Apr-2021 3524.51 4369.43 74.93 9.00 237.24 2768.78
   13:13:00.866.28-Apr-2021 3524.51 4329.99 74.93 9.00 237.44 2768.78
   13:13:01.066.28-Apr-2021 3524.51 4328.58 74.93 9.00 237.64 2768.78
   13:13:01.266.28-Apr-2021 3524.51 4329.06 74.93 9.00 237.84 2768.78
   13:13:01.466.28-Apr-2021 3524.51 4329.27 74.93 9.00 238.04 2768.78
   13:13:01.666.28-Apr-2021 3524.51 4329.27 74.93 9.00 238.24 2768.78
   13:13:01.866.28-Apr-2021 3524.51 4328.67 74.93 9.00 238.44 2768.78
   13:13:02.066.28-Apr-2021 3524.51 4328.37 74.93 9.00 238.64 2768.78
   13:13:02.266.28-Apr-2021 3524.51 4328.86 74.93 9.00 238.84 2768.78
   13:13:02.466.28-Apr-2021 3524.51 4328.84 74.93 9.00 239.04 2768.78
   13:13:02.666.28-Apr-2021 3524.51 4328.84 74.93 9.00 239.24 2768.78
   13:13:02.866.28-Apr-2021 3524.51 4328.08 74.92 9.00 239.44 2768.78
   13:13:03.066.28-Apr-2021 3524.51 4329.19 74.92 9.00 239.64 2768.78
   13:13:03.266.28-Apr-2021 3524.51 4328.75 74.92 9.00 239.84 2768.78
   13:13:03.466.28-Apr-2021 3524.51 4328.64 74.92 9.00 240.04 2768.78
   13:13:03.666.28-Apr-2021 3524.51 4328.64 74.92 9.00 240.24 2768.78
   13:13:03.866.28-Apr-2021 3524.51 4328.91 74.92 9.00 240.44 2768.78
   13:13:04.066.28-Apr-2021 3524.51 4329.01 74.92 9.00 240.64 2768.78
   13:13:04.266.28-Apr-2021 3524.51 4328.70 74.92 9.00 240.84 2768.78
   13:13:04.466.28-Apr-2021 3524.51 4328.71 74.92 9.00 241.04 2768.78
   13:13:04.666.28-Apr-2021 3524.51 4328.71 74.92 9.00 241.24 2768.78
   13:13:04.866.28-Apr-2021 3524.51 4328.71 74.92 9.00 241.44 2768.78
   13:13:05.067.28-Apr-2021 3524.51 4328.99 74.92 9.00 241.64 2768.78
   13:13:05.267.28-Apr-2021 3524.51 4328.80 74.92 9.00 241.84 2768.78
   13:13:05.467.28-Apr-2021 3524.51 4328.90 74.92 9.00 242.04 2768.78
   13:13:05.667.28-Apr-2021 3524.51 4328.90 74.92 9.00 242.24 2768.78
   13:13:05.867.28-Apr-2021 3524.51 4328.90 74.92 9.00 242.44 2768.78
   13:13:06.067.28-Apr-2021 3524.51 4329.11 74.92 9.00 242.64 2768.78
   13:13:06.267.28-Apr-2021 3524.51 4328.63 74.92 9.00 242.84 2768.78
   13:13:06.467.28-Apr-2021 3524.51 4327.54 74.92 9.00 243.04 2768.78
   13:13:06.667.28-Apr-2021 3524.51 4327.54 74.92 9.00 243.24 2768.78
   13:13:06.867.28-Apr-2021 3524.51 4329.13 74.92 9.00 243.44 2768.78
   13:13:07.067.28-Apr-2021 3524.51 4328.74 74.92 9.00 243.64 2768.78
   13:13:07.267.28-Apr-2021 3524.51 4328.15 74.91 9.00 243.84 2768.78
   13:13:07.467.28-Apr-2021 3524.51 4329.19 74.91 9.00 244.04 2768.78
   13:13:07.667.28-Apr-2021 3524.51 4329.19 74.91 9.00 244.24 2768.78
   13:13:07.867.28-Apr-2021 3524.51 4328.27 74.91 9.00 244.44 2768.78
   13:13:08.067.28-Apr-2021 3524.51 4328.46 74.91 9.00 244.64 2768.78
   13:13:08.267.28-Apr-2021 3524.51 4328.23 74.91 9.00 244.84 2768.78
   13:13:08.467.28-Apr-2021 3524.51 4328.50 74.91 9.00 245.04 2768.78
   13:13:08.667.28-Apr-2021 3524.51 4328.50 74.91 9.00 245.24 2768.78
   13:13:08.867.28-Apr-2021 3524.51 4328.92 74.91 9.00 245.44 2768.78
   13:13:09.067.28-Apr-2021 3524.51 4328.87 74.91 9.00 245.64 2768.78
   13:13:09.267.28-Apr-2021 3524.51 4328.46 74.91 9.00 245.84 2768.78
   13:13:09.467.28-Apr-2021 3524.51 4329.41 74.91 9.00 246.04 2768.78
   13:13:09.667.28-Apr-2021 3524.51 4329.41 74.91 9.00 246.24 2768.78
   13:13:09.867.28-Apr-2021 3524.51 4328.98 74.91 9.00 246.44 2768.78
   13:13:10.067.28-Apr-2021 3524.51 4328.77 74.91 9.00 246.64 2768.78
   13:13:10.267.28-Apr-2021 3524.51 4328.51 74.91 9.00 246.84 2768.78
   13:13:10.467.28-Apr-2021 3524.51 4328.73 74.91 9.00 247.04 2768.78
   13:13:10.667.28-Apr-2021 3524.51 4328.73 74.91 9.00 247.24 2768.78
   13:13:10.867.28-Apr-2021 3524.51 4328.35 74.91 9.00 247.44 2768.78
   13:13:11.067.28-Apr-2021 3524.51 4360.86 74.91 9.00 247.64 2768.78
   13:13:11.268.28-Apr-2021 3524.51 4368.80 74.91 9.00 247.84 2768.78
   13:13:11.468.28-Apr-2021 3524.51 4368.81 74.91 9.00 248.04 2768.78
   13:13:11.668.28-Apr-2021 3524.51 4368.81 74.91 9.00 248.24 2768.78
   13:13:11.868.28-Apr-2021 3524.51 4368.73 74.90 9.00 248.44 2768.78
   13:13:12.068.28-Apr-2021 3524.51 4368.85 74.90 9.00 248.64 2768.78
   13:13:12.268.28-Apr-2021 3524.51 4368.88 74.90 9.00 248.84 2768.78
   13:13:12.468.28-Apr-2021 3524.51 4368.87 74.90 9.00 249.04 2768.78
   13:13:12.668.28-Apr-2021 3524.51 4368.87 74.90 9.00 249.24 2768.78
   13:13:12.868.28-Apr-2021 3524.51 4368.92 74.90 9.00 249.44 2768.78
   13:13:13.068.28-Apr-2021 3524.51 4368.94 74.90 9.00 249.64 2768.78
   13:13:13.268.28-Apr-2021 3524.51 4368.96 74.90 9.00 249.84 2768.78
   13:13:13.468.28-Apr-2021 3524.51 4368.98 74.90 9.00 250.04 2768.78
   13:13:13.668.28-Apr-2021 3524.51 4368.98 74.90 9.00 250.24 2768.78
   13:13:13.868.28-Apr-2021 3524.51 4369.11 74.90 9.00 250.44 2768.78
   13:13:14.068.28-Apr-2021 3524.51 4369.18 74.90 9.00 250.64 2768.78
   13:13:14.268.28-Apr-2021 3524.51 4369.21 74.90 9.00 250.84 2768.78
   13:13:14.468.28-Apr-2021 3524.51 4369.14 74.90 9.00 251.04 2768.78
   13:13:14.668.28-Apr-2021 3524.51 4369.14 74.90 9.00 251.24 2768.78
   13:13:14.868.28-Apr-2021 3524.51 4369.16 74.90 9.00 251.44 2768.78
   13:13:15.068.28-Apr-2021 3524.51 4368.92 74.90 9.00 251.64 2768.78
   13:13:15.268.28-Apr-2021 3524.51 4369.34 74.90 9.00 251.84 2768.78
   13:13:15.468.28-Apr-2021 3524.51 4369.24 74.90 9.00 252.04 2768.78
   13:13:15.668.28-Apr-2021 3524.51 4369.24 74.90 9.00 252.24 2768.78
   13:13:15.868.28-Apr-2021 3524.51 4369.16 74.90 9.00 252.44 2768.78
   13:13:16.068.28-Apr-2021 3524.51 4368.87 74.89 9.00 252.64 2768.78
   13:13:16.268.28-Apr-2021 3524.51 4369.42 74.89 9.00 252.84 2768.78
