~Version Information
 VERS.                  2.0:   CWLS log ASCII Standard -VERSION 2.0
 WRAP.                   NO:   One line per depth step
~Well Information Block
#MNEM.UNIT     VALUE/NAME     DESCRIPTION
#---------     -----------    ---------------------------
 STRT.S             15:37:44 28-Apr-21: START TIME 15:37:44 28-Apr-21
 STOP.S             15:44:12 28-Apr-21: STOP TIME  15:44:12 28-Apr-21
 STEP.S                   0.00: STEP TIME
 NULL.                 -999.25: NULL VALUE
 DFWT.                        :  DIST FWL TEXT
 DFST.                        :  DIST FSL TEXT
 DMF .             Drill Floor:  DRILL MEAS FROM
 STIM.      02.00.00 12-Apr-21:  START TIME
 DATE.      02.00.00 02-May-21:  END TIME
 SPUD.               09-Apr-21:  SPUD DATE
 NREF.                    Grid:  NORTH REFERENCE
 HPTY.       Minimum Curvature:  HOLE POS TYPE
 DMOD.             Drill Model:  DRILL MOD DESC
 SVYD.                  Survey:  SURVEY DESC
 ILTD.               Lithology:  INTERP LTH DESC
 FTOP.          Formation Tops:  FORM TOPS DESC
 PDAT.          Mean Sea Level:  PERMANENT DATUM
 FLD .                     ACG:  FIELD NAME
 SON .        AZ-XX-0907021034:  JOB NUMBER
 CTRY.              Azerbaijan:  COUNTRY NAME
 WELL.                    E01x:  WELL NAME
 COMP.     BP Exploration (Caspian Sea) LTD.:  COMPANY
 UWI .            /AZE00001403:  UNIQUE WELL IDENTIFIER
 API .            /AZE00001403:  API NUMBER
 WTYP.                Deviated:  WELL TYPE
 MDS .        Operator Entered:  MAG DATA SOURCE
 BASE.              Azerbaijan:  LOGGING EQUIPMENT BASE LOCATION
 REGN.                   EESSA:  REGION
 PROV.                    Baku:  PROVINCE
 STAT.                    Baku:  STATE NAME
 SRVC.          Turan Drilling:  CONTRACTOR
 MWDS.                    Baku:  MWD SHOP
 JOBN.        AZ-XX-0907021034:  JOB TICKET NUMB
 RIG .                     DWG:  RIG NAME
 DOE .                     N/A:  DOE NUMBER
 DCON.         Sperry Drilling:  DIRECTNL CONTR
 UNIT.                     N/A:  LOGGING EQUIPMENT ID
 CNTY.                        :  COUNTY
 LOC .                        :  LOCATION
 LMF .             Drill Floor:  LOG MEASURED FROM
 TVDS.m                  43.16:  TVDSS CORRECTN
 LATI.deg                40.17:  LATITUDE
 LONG.deg                51.17:  LONGITUDE
 WHNS.m                  -5.90:  WELL HEAD N/S
 WHEW.m                  -6.61:  WELL HEAD E/W
 UTMX.m              514337.95:  UTM X
 UTMY.m             4448627.46:  UTM Y
 DFWL.m                   0.00:  DISTANCE FWL
 DFSL.m                   0.00:  DISTANCE FSL
 SDEP.m                2606.87:  START DEPTH
 TDD .m                3618.01:  TOTAL DEPTH (DRILLER)
 VSDR.deg               177.42:  VERT SEC DIRECT
 GVFD.g                   1.00:  GRAVITY FIELD
 MFLD.nT              50399.00:  MAGNETIC FIELD
 MDIP.deg                59.67:  MAGNETIC DIP
 MDEC.deg                 6.56:  MAGNETIC DECL
 GRDC.deg                 0.11:  GRID CORRECTION
 AZTC.deg                 6.45:  AZM TOTAL CORR
 EPD .m                   0.00:  ELEVATION
 EGL .m                   0.00:  GROUND ELEVATION
 WDMS.m                 176.20:  WD ELEV
 APD .m                  43.16:  DEPTH ABOVE PD
 DEP .m                2606.87:  DEPTH
 AGAP.m                  43.16:  AIR GAP
 VSEW.m                  -6.61:  VERT SEC E/W
 VSNS.m                  -5.90:  VERT SEC N/S
 EKB .m                  43.16:  KB ELEVATION
 EDF .m                  43.16:  DF ELEVATION
 TDL .m                 438.00:  TOTAL DEPTH (LOGGER)
 VSC .                       0:  VS TO CLOSURE
 MAGU.                 1855490:  MAGUTM CHECKSUM
~Parameter Information Block
#MNEM.UNIT       Value        Description
#---------     -----------    ---------------------------
 AV  .mps                 2.20:  Ann Velocity 
 AVMX.mps                 2.50:  Max Ann Veloc 
 AZIF.deg               150.21:  Azm, Final 
 BHAT.        Rotary Steerable:  BHA Type 
 BROT.°/30m               0.08:  Build Rotating 
 BS  .in                  6.50:  Bit Size 
 BSZ .in                  6.50:  Bit Size 
 BTPL.psig              108.00:  Bit Press Loss 
 CABU.                     Yes:  Customer Abuse 
 CGEO.           Emin Aliyarli:  Customer Geo 
 COMM.                     ôŸZ:  Run Comments 1 
 TCS .hr                 74.20:  Time Ciculation Ended 
 CV  .mps                 3.63:  Crit Velocity 
 CVMX.mps                 3.66:  Max Crit Veloc 
 DD1 .         Intigam Rahimov:  Direct Drillr 1 
 DD2 .          Teymur Aghayev:  Direct Drillr 2 
 DDSV.               Geo-Pilot:  DD Service 
 DEFF.%                  97.00:  % Det Eff 
 DLRX.°/30m               1.63:  Dogleg Rot Max 
 DLSO.°/30m               0.00:  Dogleg Oriented 
 DLSX.°/30m               0.00:  Dogleg Str Max 
 DRET.      20.20.00 28-Apr-21:  Drill End Time 
 DRST.      04.45.00 26-Apr-21:  Drill Start Tim 
 DTIM.hr                 34.30:  Time Drilling 
 EDEP.m                3618.01:  End Depth 
 ENG1.           Amrah Tahirov:  Engineer 1 
 ENG2.         Bahruz Mehdiyev:  Engineer 2 
 ENG3.         Farhad Orujzade:  Engineer 3 
 ETIM.      19.00.00 29-Apr-21:  End Time 
 FLOI.gpm               370.00:  Flow In 
 FLON.gpm               300.00:  Flow In Min 
 FLOS.cptm                0.00:  Fluid Loss 
 FLOX.gpm               410.00:  Flow In Max 
 HFLO.                      No:  High Flow 
 HPRE.                      No:  High Pressure 
 HTEM.                      No:  High Temp 
 HYDO.m                   1.80:  Hydro Offset 
 IFIN.deg                67.19:  Inc, Final 
 IMAX.deg                68.42:  Inc Max 
 IMIN.deg                66.33:  Inc Min 
 IMND.m                3532.79:  Inc Min Depth 
 IMXD.m                3192.15:  Inc Max Depth 
 JARR.                      No:  Jarring 
 LETM.      20.20.00 28-Apr-21:  Log End Time 
 LOST.hr                     0:  Lost Rig Time 
 LSTM.      04.45.00 26-Apr-21:  Log Start Time 
 MDCL.ppm             36500.00:  Mud Chlorides 
 MDES.     Inversion Oil/Synthetic:  Mud Desc 
 DFD .sg                  1.42:  Mud Density 
 MDMN.sg                  1.42:  Dens Mud Min 
 MDMX.sg                  1.42:  Dens Mud Max 
 MOIL.                    55.7:  Run Mud Oil % 
 MOWR.                   71:29:  Run Mud OWR 
 MSND.                     0.1:  Run Mud Sand % 
 MSOL.                    19.9:  Run Mud Solids% 
 DFV .spqt               83.00:  Mud Viscosity 
 MWOD.in                  5.15:  MWD Tool OD 
 MWSI.                      No:  Serv Intrp, MWD 
 OTIM.hr                120.59:  Time Operating 
 PCON.           Look Like New:  Pad Condition 
 PMAX.psia            11292.93:  Press Op, Max 
 PV  .cP                 27.00:  Mud PV 
 RUN .                     400:  Run Number 
 ROPA.m/hr               14.00:  ROP Avg 
 ROPN.m/hr                9.00:  ROP Min 
 ROPX.m/hr               18.00:  ROP Max 
 RPMA.rpm               130.00:  RPM Surface Avg 
 RPMN.rpm               100.00:  RPM Surface Min 
 RPMX.rpm               140.00:  RPM Surface Max 
 RRUN.                    0400:  Rig Run Number 
 RTIM.hr                 38.60:  Time Reaming 
 SAZI.deg               149.55:  Azm, Start 
 SDEP.m                3180.01:  Start Depth 
 SIDD.                      No:  Serv Intrp, DD 
 SINC.deg                68.42:  Inc, Start 
 SPPA.psig             4400.00:  SPP Avg 
 SPPN.psig             3580.00:  SPP Min 
 SPPX.psig             4850.00:  SPP Max 
 STIM.      12.30.00 24-Apr-21:  Start Time 
 SVCS.                 DD, MWD:  Services 
 SVER.                    9.20:  Sperry Version 
 TDAT.m                 438.00:  Tot Depth Attmp 
 TDDF.                      No:  Trip for DD 
 TDLG.m                 438.00:  Tot Depth Loggd 
 TFF .                      No:  Trip for Fail 
 TQAA.f-kp               11.00:  Torque Abs Avg 
 TQAN.f-kp                9.00:  Torque Abs Min 
 TQAX.f-kp               14.00:  Torque Abs Max 
 TRRT.°/30m               0.04:  Turn Rotating 
 MRT .                    HCIM:  Maximum Recorded Temperature 
 TTMX.degC               84.31:  Max Tool Temp 
 VS01.                90521954:  Virtual Str1 SN 
 VS02.                90519327:  Virtual Str2 SN 
 VS03.                90522273:  Virtual Str3 SN 
 VS04.                11108038:  Virtual Str4 SN 
 VS05.                12258760:  Virtual Str5 SN 
 WBMN.klb                 1.00:  WOB Min 
 WITN.           Adil Mammadov:  Customer Rep 
 WITN.         Alex Yadullayev:  Customer Rep 2 
 WOBA.klb                 6.00:  WOB Avg 
 WOBX.klb                 9.00:  WOB Max 
 YP  .lhf2               31.00:  Yield Point 
~Curve Information Block
#MNEM.UNIT                 API CODE     Curve Description
#---------               -----------    ---------------------------
 TIME.HHMMSS            00 000 000 000:  GT Time & Date
 GTDEPTH.m              00 000 000 000:  GT Depth
 GTPQH.psia             00 000 000 000:  GT HR Quartz Pressure
 GTTQ.degC              00 000 000 000:  GT Quartz Temperature
 GTTN.NONE              00 000 000 000:  GT Test Number
 GTET.sec               00 000 000 000:  GT Elapsed Test Time
 GTTVD.m                00 000 000 000:  GT True Vertical Depth
#Other Information
#
#WARRANTY: Halliburton will use its best efforts to furnish customers with 
#accurate information and interpretations that are part of, and incident to, the services 
#provided.  However, Halliburton cannot and does not warrant the accuracy 
#or correctness of such information and interpretations.  Under no circumstances should any 
#such information or interpretation be relied upon as the sole basis for any drilling, 
#completion, production, or financial decision or any procedure involving any risk to the 
#safety of any drilling venture, drilling rig or its crew or any other third party.  The 
#Customer has full responsibility for all drilling, completion and production operation.  
#Halliburton makes no representations or warranties, either expressed or 
#implied, including, but not limited to, the implied warranties of merchantability or fitness 
#for a particular purpose, with respect to the services rendered.  In no event will 
#Halliburton be liable for failure to obtain any particular results or for 
#any damages, including, but not limited to, indirect, special or consequential damages, 
#resulting from the use of any information or interpretation provided by Halliburton.
#
~A           TIME           GTDEPTH  GTPQH  GTTQ  GTTN   GTET   GTTVD  
# ...
   15:42:38.226.28-Apr-2021 3537.51 4281.07 74.34 10.00 293.91 2773.98
   15:42:38.426.28-Apr-2021 3537.51 4280.95 74.34 10.00 294.11 2773.98
   15:42:38.626.28-Apr-2021 3537.51 4280.95 74.34 10.00 294.31 2773.98
   15:42:38.827.28-Apr-2021 3537.51 4281.13 74.34 10.00 294.51 2773.98
   15:42:39.027.28-Apr-2021 3537.51 4281.04 74.34 10.00 294.71 2773.98
   15:42:39.227.28-Apr-2021 3537.51 4281.11 74.34 10.00 294.91 2773.98
   15:42:39.427.28-Apr-2021 3537.51 4280.88 74.34 10.00 295.11 2773.98
   15:42:39.627.28-Apr-2021 3537.51 4280.88 74.34 10.00 295.31 2773.98
   15:42:39.827.28-Apr-2021 3537.51 4281.15 74.34 10.00 295.51 2773.98
   15:42:40.027.28-Apr-2021 3537.51 4281.06 74.33 10.00 295.71 2773.98
   15:42:40.227.28-Apr-2021 3537.51 4281.09 74.33 10.00 295.91 2773.98
   15:42:40.427.28-Apr-2021 3537.51 4280.91 74.33 10.00 296.11 2773.98
   15:42:40.627.28-Apr-2021 3537.51 4280.91 74.33 10.00 296.31 2773.98
   15:42:40.827.28-Apr-2021 3537.51 4281.10 74.33 10.00 296.51 2773.98
   15:42:41.027.28-Apr-2021 3537.51 4281.10 74.33 10.00 296.71 2773.98
   15:42:41.227.28-Apr-2021 3537.51 4281.08 74.33 10.00 296.91 2773.98
   15:42:41.428.28-Apr-2021 3537.51 4281.04 74.33 10.00 297.11 2773.98
   15:42:41.628.28-Apr-2021 3537.51 4281.04 74.33 10.00 297.31 2773.98
   15:42:41.828.28-Apr-2021 3537.51 4281.08 74.33 10.00 297.51 2773.98
   15:42:42.028.28-Apr-2021 3537.51 4281.10 74.33 10.00 297.71 2773.98
   15:42:42.228.28-Apr-2021 3537.51 4281.05 74.33 10.00 297.91 2773.98
   15:42:42.428.28-Apr-2021 3537.51 4281.07 74.33 10.00 298.11 2773.98
   15:42:42.628.28-Apr-2021 3537.51 4281.07 74.33 10.00 298.31 2773.98
   15:42:42.828.28-Apr-2021 3537.51 4281.05 74.33 10.00 298.51 2773.98
   15:42:43.028.28-Apr-2021 3537.51 4280.95 74.33 10.00 298.71 2773.98
   15:42:43.228.28-Apr-2021 3537.51 4281.07 74.33 10.00 298.91 2773.98
   15:42:43.428.28-Apr-2021 3537.51 4281.13 74.33 10.00 299.11 2773.98
   15:42:43.628.28-Apr-2021 3537.51 4281.13 74.33 10.00 299.31 2773.98
   15:42:43.828.28-Apr-2021 3537.51 4281.10 74.33 10.00 299.51 2773.98
   15:42:44.029.28-Apr-2021 3537.51 4281.03 74.32 10.00 299.71 2773.98
   15:42:44.229.28-Apr-2021 3537.51 4281.07 74.32 10.00 299.91 2773.98
   15:42:44.429.28-Apr-2021 3537.51 4281.10 74.32 10.00 300.11 2773.98
   15:42:44.629.28-Apr-2021 3537.51 4281.10 74.32 10.00 300.31 2773.98
   15:42:44.829.28-Apr-2021 3537.51 4281.08 74.32 10.00 300.51 2773.98
   15:42:45.029.28-Apr-2021 3537.51 4281.05 74.32 10.00 300.71 2773.98
   15:42:45.229.28-Apr-2021 3537.51 4281.07 74.32 10.00 300.91 2773.98
   15:42:45.429.28-Apr-2021 3537.51 4281.07 74.32 10.00 301.11 2773.98
   15:42:45.629.28-Apr-2021 3537.51 4281.07 74.32 10.00 301.32 2773.98
   15:42:45.829.28-Apr-2021 3537.51 4280.89 74.32 10.00 301.52 2773.98
   15:42:46.029.28-Apr-2021 3537.51 4281.15 74.32 10.00 301.72 2773.98
   15:42:46.229.28-Apr-2021 3537.51 4281.12 74.32 10.00 301.92 2773.98
   15:42:46.429.28-Apr-2021 3537.51 4281.07 74.32 10.00 302.12 2773.98
   15:42:46.630.28-Apr-2021 3537.51 4281.07 74.32 10.00 302.32 2773.98
   15:42:46.830.28-Apr-2021 3537.51 4281.04 74.32 10.00 302.52 2773.98
   15:42:47.030.28-Apr-2021 3537.51 4281.01 74.32 10.00 302.72 2773.98
   15:42:47.230.28-Apr-2021 3537.51 4281.06 74.32 10.00 302.92 2773.98
   15:42:47.430.28-Apr-2021 3537.51 4281.08 74.32 10.00 303.12 2773.98
   15:42:47.630.28-Apr-2021 3537.51 4281.08 74.32 10.00 303.32 2773.98
   15:42:47.830.28-Apr-2021 3537.51 4281.07 74.31 10.00 303.52 2773.98
   15:42:48.030.28-Apr-2021 3537.51 4280.79 74.31 10.00 303.72 2773.98
   15:42:48.230.28-Apr-2021 3537.51 4281.29 74.31 10.00 303.92 2773.98
   15:42:48.430.28-Apr-2021 3537.51 4281.10 74.31 10.00 304.12 2773.98
   15:42:48.630.28-Apr-2021 3537.51 4281.10 74.31 10.00 304.32 2773.98
   15:42:48.830.28-Apr-2021 3537.51 4281.04 74.31 10.00 304.52 2773.98
   15:42:49.030.28-Apr-2021 3537.51 4281.00 74.31 10.00 304.72 2773.98
   15:42:49.231.28-Apr-2021 3537.51 4281.05 74.31 10.00 304.92 2773.98
   15:42:49.431.28-Apr-2021 3537.51 4281.12 74.31 10.00 305.12 2773.98
   15:42:49.631.28-Apr-2021 3537.51 4281.12 74.31 10.00 305.32 2773.98
   15:42:49.831.28-Apr-2021 3537.51 4281.05 74.31 10.00 305.52 2773.98
   15:42:50.031.28-Apr-2021 3537.51 4281.06 74.31 10.00 305.72 2773.98
   15:42:50.231.28-Apr-2021 3537.51 4281.09 74.31 10.00 305.92 2773.98
   15:42:50.431.28-Apr-2021 3537.51 4281.12 74.31 10.00 306.12 2773.98
   15:42:50.631.28-Apr-2021 3537.51 4281.12 74.31 10.00 306.32 2773.98
   15:42:50.831.28-Apr-2021 3537.51 4281.06 74.31 10.00 306.52 2773.98
   15:42:51.031.28-Apr-2021 3537.51 4281.06 74.31 10.00 306.72 2773.98
   15:42:51.231.28-Apr-2021 3537.51 4281.06 74.31 10.00 306.92 2773.98
   15:42:51.431.28-Apr-2021 3537.51 4281.09 74.31 10.00 307.12 2773.98
   15:42:51.631.28-Apr-2021 3537.51 4281.09 74.31 10.00 307.32 2773.98
   15:42:51.831.28-Apr-2021 3537.51 4280.95 74.30 10.00 307.52 2773.98
   15:42:52.032.28-Apr-2021 3537.51 4281.08 74.30 10.00 307.72 2773.98
   15:42:52.232.28-Apr-2021 3537.51 4281.12 74.30 10.00 307.92 2773.98
   15:42:52.432.28-Apr-2021 3537.51 4281.09 74.30 10.00 308.12 2773.98
   15:42:52.632.28-Apr-2021 3537.51 4281.09 74.30 10.00 308.32 2773.98
   15:42:52.832.28-Apr-2021 3537.51 4281.09 74.30 10.00 308.52 2773.98
   15:42:53.032.28-Apr-2021 3537.51 4281.04 74.30 10.00 308.72 2773.98
   15:42:53.232.28-Apr-2021 3537.51 4281.08 74.30 10.00 308.92 2773.98
   15:42:53.432.28-Apr-2021 3537.51 4281.04 74.30 10.00 309.12 2773.98
   15:42:53.632.28-Apr-2021 3537.51 4281.04 74.30 10.00 309.32 2773.98
   15:42:53.832.28-Apr-2021 3537.51 4281.07 74.30 10.00 309.52 2773.98
   15:42:54.032.28-Apr-2021 3537.51 4281.03 74.30 10.00 309.72 2773.98
   15:42:54.232.28-Apr-2021 3537.51 4281.07 74.30 10.00 309.92 2773.98
   15:42:54.432.28-Apr-2021 3537.51 4280.92 74.30 10.00 310.12 2773.98
   15:42:54.633.28-Apr-2021 3537.51 4280.92 74.30 10.00 310.32 2773.98
   15:42:54.833.28-Apr-2021 3537.51 4281.08 74.30 10.00 310.52 2773.98
   15:42:55.033.28-Apr-2021 3537.51 4281.12 74.30 10.00 310.72 2773.98
   15:42:55.233.28-Apr-2021 3537.51 4281.06 74.30 10.00 310.92 2773.98
   15:42:55.433.28-Apr-2021 3537.51 4281.00 74.29 10.00 311.12 2773.98
   15:42:55.633.28-Apr-2021 3537.51 4281.00 74.29 10.00 311.32 2773.98
   15:42:55.833.28-Apr-2021 3537.51 4280.78 74.29 10.00 311.52 2773.98
   15:42:56.033.28-Apr-2021 3537.51 4281.25 74.29 10.00 311.72 2773.98
   15:42:56.233.28-Apr-2021 3537.51 4281.11 74.29 10.00 311.92 2773.98
   15:42:56.433.28-Apr-2021 3537.51 4281.06 74.29 10.00 312.12 2773.98
   15:42:56.633.28-Apr-2021 3537.51 4281.06 74.29 10.00 312.32 2773.98
   15:42:56.833.28-Apr-2021 3537.51 4281.11 74.29 10.00 312.52 2773.98
   15:42:57.033.28-Apr-2021 3537.51 4281.13 74.29 10.00 312.72 2773.98
   15:42:57.234.28-Apr-2021 3537.51 4281.06 74.29 10.00 312.92 2773.98
   15:42:57.434.28-Apr-2021 3537.51 4281.09 74.29 10.00 313.12 2773.98
   15:42:57.634.28-Apr-2021 3537.51 4281.09 74.29 10.00 313.32 2773.98
   15:42:57.834.28-Apr-2021 3537.51 4280.84 74.29 10.00 313.52 2773.98
   15:42:58.034.28-Apr-2021 3537.51 4281.25 74.29 10.00 313.72 2773.98
   15:42:58.234.28-Apr-2021 3537.51 4281.12 74.29 10.00 313.92 2773.98
   15:42:58.434.28-Apr-2021 3537.51 4281.08 74.29 10.00 314.12 2773.98
   15:42:58.634.28-Apr-2021 3537.51 4281.08 74.29 10.00 314.32 2773.98
   15:42:58.834.28-Apr-2021 3537.51 4281.11 74.29 10.00 314.52 2773.98
   15:42:59.034.28-Apr-2021 3537.51 4281.05 74.29 10.00 314.72 2773.98
   15:42:59.234.28-Apr-2021 3537.51 4281.08 74.28 10.00 314.92 2773.98
   15:42:59.434.28-Apr-2021 3537.51 4281.05 74.28 10.00 315.12 2773.98
   15:42:59.634.28-Apr-2021 3537.51 4281.05 74.28 10.00 315.32 2773.98
   15:42:59.835.28-Apr-2021 3537.51 4281.09 74.28 10.00 315.52 2773.98
   15:43:00.035.28-Apr-2021 3537.51 4281.03 74.28 10.00 315.72 2773.98
   15:43:00.235.28-Apr-2021 3537.51 4281.07 74.28 10.00 315.92 2773.98
   15:43:00.435.28-Apr-2021 3537.51 4280.77 74.28 10.00 316.12 2773.98
   15:43:00.635.28-Apr-2021 3537.51 4280.77 74.28 10.00 316.32 2773.98
