~Version Information
 VERS.                  2.0:   CWLS log ASCII Standard -VERSION 2.0
 WRAP.                   NO:   One line per depth step
~Well Information Block
#MNEM.UNIT     VALUE/NAME     DESCRIPTION
#---------     -----------    ---------------------------
 STRT.S             06:42:00 27-Apr-21: START TIME 06:42:00 27-Apr-21
 STOP.S             06:48:27 27-Apr-21: STOP TIME  06:48:27 27-Apr-21
 STEP.S                   0.00: STEP TIME
 NULL.                 -999.25: NULL VALUE
 DFWT.                        :  DIST FWL TEXT
 DFST.                        :  DIST FSL TEXT
 DMF .             Drill Floor:  DRILL MEAS FROM
 STIM.      02.00.00 12-Apr-21:  START TIME
 DATE.      02.00.00 02-May-21:  END TIME
 SPUD.               09-Apr-21:  SPUD DATE
 NREF.                    Grid:  NORTH REFERENCE
 HPTY.       Minimum Curvature:  HOLE POS TYPE
 DMOD.             Drill Model:  DRILL MOD DESC
 SVYD.                  Survey:  SURVEY DESC
 ILTD.               Lithology:  INTERP LTH DESC
 FTOP.          Formation Tops:  FORM TOPS DESC
 PDAT.          Mean Sea Level:  PERMANENT DATUM
 FLD .                     ACG:  FIELD NAME
 SON .        AZ-XX-0907021034:  JOB NUMBER
 CTRY.              Azerbaijan:  COUNTRY NAME
 WELL.                    E01x:  WELL NAME
 COMP.     BP Exploration (Caspian Sea) LTD.:  COMPANY
 UWI .            /AZE00001403:  UNIQUE WELL IDENTIFIER
 API .            /AZE00001403:  API NUMBER
 WTYP.                Deviated:  WELL TYPE
 MDS .        Operator Entered:  MAG DATA SOURCE
 BASE.              Azerbaijan:  LOGGING EQUIPMENT BASE LOCATION
 REGN.                   EESSA:  REGION
 PROV.                    Baku:  PROVINCE
 STAT.                    Baku:  STATE NAME
 SRVC.          Turan Drilling:  CONTRACTOR
 MWDS.                    Baku:  MWD SHOP
 JOBN.        AZ-XX-0907021034:  JOB TICKET NUMB
 RIG .                     DWG:  RIG NAME
 DOE .                     N/A:  DOE NUMBER
 DCON.         Sperry Drilling:  DIRECTNL CONTR
 UNIT.                     N/A:  LOGGING EQUIPMENT ID
 CNTY.                        :  COUNTY
 LOC .                        :  LOCATION
 LMF .             Drill Floor:  LOG MEASURED FROM
 TVDS.m                  43.16:  TVDSS CORRECTN
 LATI.deg                40.17:  LATITUDE
 LONG.deg                51.17:  LONGITUDE
 WHNS.m                  -5.90:  WELL HEAD N/S
 WHEW.m                  -6.61:  WELL HEAD E/W
 UTMX.m              514337.95:  UTM X
 UTMY.m             4448627.46:  UTM Y
 DFWL.m                   0.00:  DISTANCE FWL
 DFSL.m                   0.00:  DISTANCE FSL
 SDEP.m                2606.87:  START DEPTH
 TDD .m                3618.01:  TOTAL DEPTH (DRILLER)
 VSDR.deg               177.42:  VERT SEC DIRECT
 GVFD.g                   1.00:  GRAVITY FIELD
 MFLD.nT              50399.00:  MAGNETIC FIELD
 MDIP.deg                59.67:  MAGNETIC DIP
 MDEC.deg                 6.56:  MAGNETIC DECL
 GRDC.deg                 0.11:  GRID CORRECTION
 AZTC.deg                 6.45:  AZM TOTAL CORR
 EPD .m                   0.00:  ELEVATION
 EGL .m                   0.00:  GROUND ELEVATION
 WDMS.m                 176.20:  WD ELEV
 APD .m                  43.16:  DEPTH ABOVE PD
 DEP .m                2606.87:  DEPTH
 AGAP.m                  43.16:  AIR GAP
 VSEW.m                  -6.61:  VERT SEC E/W
 VSNS.m                  -5.90:  VERT SEC N/S
 EKB .m                  43.16:  KB ELEVATION
 EDF .m                  43.16:  DF ELEVATION
 TDL .m                 438.00:  TOTAL DEPTH (LOGGER)
 VSC .                       0:  VS TO CLOSURE
 MAGU.                 1855490:  MAGUTM CHECKSUM
~Parameter Information Block
#MNEM.UNIT       Value        Description
#---------     -----------    ---------------------------
 AV  .mps                 2.20:  Ann Velocity 
 AVMX.mps                 2.50:  Max Ann Veloc 
 AZIF.deg               150.21:  Azm, Final 
 BHAT.        Rotary Steerable:  BHA Type 
 BROT.°/30m               0.08:  Build Rotating 
 BS  .in                  6.50:  Bit Size 
 BSZ .in                  6.50:  Bit Size 
 BTPL.psig              108.00:  Bit Press Loss 
 CABU.                     Yes:  Customer Abuse 
 CGEO.           Emin Aliyarli:  Customer Geo 
 COMM.                     )M:  Run Comments 1 
 TCS .hr                 74.20:  Time Ciculation Ended 
 CV  .mps                 3.63:  Crit Velocity 
 CVMX.mps                 3.66:  Max Crit Veloc 
 DD1 .         Intigam Rahimov:  Direct Drillr 1 
 DD2 .          Teymur Aghayev:  Direct Drillr 2 
 DDSV.               Geo-Pilot:  DD Service 
 DEFF.%                  97.00:  % Det Eff 
 DLRX.°/30m               1.63:  Dogleg Rot Max 
 DLSO.°/30m               0.00:  Dogleg Oriented 
 DLSX.°/30m               0.00:  Dogleg Str Max 
 DRET.      20.20.00 28-Apr-21:  Drill End Time 
 DRST.      04.45.00 26-Apr-21:  Drill Start Tim 
 DTIM.hr                 34.30:  Time Drilling 
 EDEP.m                3618.01:  End Depth 
 ENG1.           Amrah Tahirov:  Engineer 1 
 ENG2.         Bahruz Mehdiyev:  Engineer 2 
 ENG3.         Farhad Orujzade:  Engineer 3 
 ETIM.      19.00.00 29-Apr-21:  End Time 
 FLOI.gpm               370.00:  Flow In 
 FLON.gpm               300.00:  Flow In Min 
 FLOS.cptm                0.00:  Fluid Loss 
 FLOX.gpm               410.00:  Flow In Max 
 HFLO.                      No:  High Flow 
 HPRE.                      No:  High Pressure 
 HTEM.                      No:  High Temp 
 HYDO.m                   1.80:  Hydro Offset 
 IFIN.deg                67.19:  Inc, Final 
 IMAX.deg                68.42:  Inc Max 
 IMIN.deg                66.33:  Inc Min 
 IMND.m                3532.79:  Inc Min Depth 
 IMXD.m                3192.15:  Inc Max Depth 
 JARR.                      No:  Jarring 
 LETM.      20.20.00 28-Apr-21:  Log End Time 
 LOST.hr                     0:  Lost Rig Time 
 LSTM.      04.45.00 26-Apr-21:  Log Start Time 
 MDCL.ppm             36500.00:  Mud Chlorides 
 MDES.     Inversion Oil/Synthetic:  Mud Desc 
 DFD .sg                  1.42:  Mud Density 
 MDMN.sg                  1.42:  Dens Mud Min 
 MDMX.sg                  1.42:  Dens Mud Max 
 MOIL.                    55.7:  Run Mud Oil % 
 MOWR.                   71:29:  Run Mud OWR 
 MSND.                     0.1:  Run Mud Sand % 
 MSOL.                    19.9:  Run Mud Solids% 
 DFV .spqt               83.00:  Mud Viscosity 
 MWOD.in                  5.15:  MWD Tool OD 
 MWSI.                      No:  Serv Intrp, MWD 
 OTIM.hr                120.59:  Time Operating 
 PCON.           Look Like New:  Pad Condition 
 PMAX.psia            11292.93:  Press Op, Max 
 PV  .cP                 27.00:  Mud PV 
 RUN .                     400:  Run Number 
 ROPA.m/hr               14.00:  ROP Avg 
 ROPN.m/hr                9.00:  ROP Min 
 ROPX.m/hr               18.00:  ROP Max 
 RPMA.rpm               130.00:  RPM Surface Avg 
 RPMN.rpm               100.00:  RPM Surface Min 
 RPMX.rpm               140.00:  RPM Surface Max 
 RRUN.                    0400:  Rig Run Number 
 RTIM.hr                 38.60:  Time Reaming 
 SAZI.deg               149.55:  Azm, Start 
 SDEP.m                3180.01:  Start Depth 
 SIDD.                      No:  Serv Intrp, DD 
 SINC.deg                68.42:  Inc, Start 
 SPPA.psig             4400.00:  SPP Avg 
 SPPN.psig             3580.00:  SPP Min 
 SPPX.psig             4850.00:  SPP Max 
 STIM.      12.30.00 24-Apr-21:  Start Time 
 SVCS.                 DD, MWD:  Services 
 SVER.                    9.20:  Sperry Version 
 TDAT.m                 438.00:  Tot Depth Attmp 
 TDDF.                      No:  Trip for DD 
 TDLG.m                 438.00:  Tot Depth Loggd 
 TFF .                      No:  Trip for Fail 
 TQAA.f-kp               11.00:  Torque Abs Avg 
 TQAN.f-kp                9.00:  Torque Abs Min 
 TQAX.f-kp               14.00:  Torque Abs Max 
 TRRT.°/30m               0.04:  Turn Rotating 
 MRT .                    HCIM:  Maximum Recorded Temperature 
 TTMX.degC               84.31:  Max Tool Temp 
 VS01.                90521954:  Virtual Str1 SN 
 VS02.                90519327:  Virtual Str2 SN 
 VS03.                90522273:  Virtual Str3 SN 
 VS04.                11108038:  Virtual Str4 SN 
 VS05.                12258760:  Virtual Str5 SN 
 WBMN.klb                 1.00:  WOB Min 
 WITN.           Adil Mammadov:  Customer Rep 
 WITN.         Alex Yadullayev:  Customer Rep 2 
 WOBA.klb                 6.00:  WOB Avg 
 WOBX.klb                 9.00:  WOB Max 
 YP  .lhf2               31.00:  Yield Point 
~Curve Information Block
#MNEM.UNIT                 API CODE     Curve Description
#---------               -----------    ---------------------------
 TIME.HHMMSS            00 000 000 000:  GT Time & Date
 GTDEPTH.m              00 000 000 000:  GT Depth
 GTPQH.psia             00 000 000 000:  GT HR Quartz Pressure
 GTTQ.degC              00 000 000 000:  GT Quartz Temperature
 GTTN.NONE              00 000 000 000:  GT Test Number
 GTET.sec               00 000 000 000:  GT Elapsed Test Time
 GTTVD.m                00 000 000 000:  GT True Vertical Depth
#Other Information
#
#WARRANTY: Halliburton will use its best efforts to furnish customers with 
#accurate information and interpretations that are part of, and incident to, the services 
#provided.  However, Halliburton cannot and does not warrant the accuracy 
#or correctness of such information and interpretations.  Under no circumstances should any 
#such information or interpretation be relied upon as the sole basis for any drilling, 
#completion, production, or financial decision or any procedure involving any risk to the 
#safety of any drilling venture, drilling rig or its crew or any other third party.  The 
#Customer has full responsibility for all drilling, completion and production operation.  
#Halliburton makes no representations or warranties, either expressed or 
#implied, including, but not limited to, the implied warranties of merchantability or fitness 
#for a particular purpose, with respect to the services rendered.  In no event will 
#Halliburton be liable for failure to obtain any particular results or for 
#any damages, including, but not limited to, indirect, special or consequential damages, 
#resulting from the use of any information or interpretation provided by Halliburton.
#
~A           TIME           GTDEPTH  GTPQH  GTTQ  GTTN  GTET   GTTVD  
# ...
   06:42:23.859.27-Apr-2021 3278.01 6465.80 74.33 4.00  23.00 2671.88
   06:42:24.059.27-Apr-2021 3278.01 6465.80 74.33 4.00  23.20 2671.88
   06:42:24.259.27-Apr-2021 3278.01 6468.81 74.33 4.00  23.40 2671.88
   06:42:24.459.27-Apr-2021 3278.01 6472.77 74.33 4.00  23.60 2671.88
   06:42:24.659.27-Apr-2021 3278.01 6474.77 74.33 4.00  23.80 2671.88
   06:42:24.859.27-Apr-2021 3278.01 6249.73 74.33 4.00  24.00 2671.88
   06:42:25.059.27-Apr-2021 3278.01 6249.73 74.33 4.00  24.20 2671.88
   06:42:25.259.27-Apr-2021 3278.01 4621.16 74.33 4.00  24.40 2671.88
   06:42:25.459.27-Apr-2021 3278.01 4013.96 74.33 4.00  24.60 2671.88
   06:42:25.659.27-Apr-2021 3278.01 3822.17 74.33 4.00  24.80 2671.88
   06:42:25.859.27-Apr-2021 3278.01 3763.77 74.33 4.00  25.00 2671.88
   06:42:26.059.27-Apr-2021 3278.01 3763.77 74.33 4.00  25.20 2671.88
   06:42:26.259.27-Apr-2021 3278.01 3733.93 74.32 4.00  25.40 2671.88
   06:42:26.459.27-Apr-2021 3278.01 3737.08 74.32 4.00  25.60 2671.88
   06:42:26.659.27-Apr-2021 3278.01 3739.35 74.32 4.00  25.80 2671.88
   06:42:26.859.27-Apr-2021 3278.01 3743.82 74.32 4.00  26.00 2671.88
   06:42:27.059.27-Apr-2021 3278.01 3743.82 74.32 4.00  26.20 2671.88
   06:42:27.259.27-Apr-2021 3278.01 3742.33 74.32 4.00  26.40 2671.88
   06:42:27.459.27-Apr-2021 3278.01 3743.08 74.32 4.00  26.60 2671.88
   06:42:27.659.27-Apr-2021 3278.01 3738.38 74.32 4.00  26.80 2671.88
   06:42:27.859.27-Apr-2021 3278.01 3739.19 74.31 4.00  27.00 2671.88
   06:42:28.059.27-Apr-2021 3278.01 3739.19 74.31 4.00  27.20 2671.88
   06:42:28.259.27-Apr-2021 3278.01 3738.16 74.31 4.00  27.40 2671.88
   06:42:28.459.27-Apr-2021 3278.01 3735.04 74.31 4.00  27.60 2671.88
   06:42:28.659.27-Apr-2021 3278.01 3737.92 74.31 4.00  27.80 2671.88
   06:42:28.859.27-Apr-2021 3278.01 3740.70 74.31 4.00  28.00 2671.88
   06:42:29.059.27-Apr-2021 3278.01 3740.70 74.31 4.00  28.20 2671.88
   06:42:29.259.27-Apr-2021 3278.01 3739.80 74.31 4.00  28.40 2671.88
   06:42:29.460.27-Apr-2021 3278.01 3737.58 74.30 4.00  28.60 2671.88
   06:42:29.660.27-Apr-2021 3278.01 3742.09 74.30 4.00  28.80 2671.88
   06:42:29.860.27-Apr-2021 3278.01 3744.36 74.30 4.00  29.00 2671.88
   06:42:30.060.27-Apr-2021 3278.01 3744.36 74.30 4.00  29.20 2671.88
   06:42:30.260.27-Apr-2021 3278.01 3738.50 74.30 4.00  29.40 2671.88
   06:42:30.460.27-Apr-2021 3278.01 3740.98 74.30 4.00  29.60 2671.88
   06:42:30.660.27-Apr-2021 3278.01 3740.26 74.30 4.00  29.80 2671.88
   06:42:30.860.27-Apr-2021 3278.01 3737.66 74.29 4.00  30.00 2671.88
   06:42:31.060.27-Apr-2021 3278.01 3737.66 74.29 4.00  30.20 2671.88
   06:42:31.260.27-Apr-2021 3278.01 3737.46 74.29 4.00  30.40 2671.88
   06:42:31.460.27-Apr-2021 3278.01 3740.89 74.29 4.00  30.60 2671.88
   06:42:31.660.27-Apr-2021 3278.01 3740.84 74.29 4.00  30.80 2671.88
   06:42:31.860.27-Apr-2021 3278.01 3736.81 74.29 4.00  31.00 2671.88
   06:42:32.060.27-Apr-2021 3278.01 3736.81 74.29 4.00  31.20 2671.88
   06:42:32.260.27-Apr-2021 3278.01 3736.09 74.29 4.00  31.40 2671.88
   06:42:32.460.27-Apr-2021 3278.01 3737.34 74.28 4.00  31.60 2671.88
   06:42:32.660.27-Apr-2021 3278.01 3735.66 74.28 4.00  31.80 2671.88
   06:42:32.860.27-Apr-2021 3278.01 3736.92 74.28 4.00  32.00 2671.88
   06:42:33.060.27-Apr-2021 3278.01 3736.92 74.28 4.00  32.20 2671.88
   06:42:33.260.27-Apr-2021 3278.01 3734.05 74.28 4.00  32.40 2671.88
   06:42:33.460.27-Apr-2021 3278.01 3734.50 74.28 4.00  32.60 2671.88
   06:42:33.660.27-Apr-2021 3278.01 3734.82 74.28 4.00  32.80 2671.88
   06:42:33.860.27-Apr-2021 3278.01 3734.38 74.28 4.00  33.00 2671.88
   06:42:34.060.27-Apr-2021 3278.01 3734.38 74.28 4.00  33.20 2671.88
   06:42:34.260.27-Apr-2021 3278.01 3729.44 74.27 4.00  33.40 2671.88
   06:42:34.460.27-Apr-2021 3278.01 3729.70 74.27 4.00  33.60 2671.88
   06:42:34.660.27-Apr-2021 3278.01 3723.58 74.27 4.00  33.80 2671.88
   06:42:34.860.27-Apr-2021 3278.01 3731.08 74.27 4.00  34.00 2671.88
   06:42:35.060.27-Apr-2021 3278.01 3731.08 74.27 4.00  34.20 2671.88
   06:42:35.260.27-Apr-2021 3278.01 4201.76 74.27 4.00  34.40 2671.88
   06:42:35.460.27-Apr-2021 3278.01 4277.82 74.27 4.00  34.60 2671.88
   06:42:35.660.27-Apr-2021 3278.01 4308.71 74.27 4.00  34.80 2671.88
   06:42:35.860.27-Apr-2021 3278.01 4322.51 74.27 4.00  35.00 2671.88
   06:42:36.060.27-Apr-2021 3278.01 4322.51 74.27 4.00  35.20 2671.88
   06:42:36.260.27-Apr-2021 3278.01 4335.68 74.27 4.00  35.40 2671.88
   06:42:36.460.27-Apr-2021 3278.01 4339.52 74.26 4.00  35.60 2671.88
   06:42:36.660.27-Apr-2021 3278.01 4342.44 74.26 4.00  35.80 2671.88
   06:42:36.860.27-Apr-2021 3278.01 4344.83 74.26 4.00  36.00 2671.88
   06:42:37.060.27-Apr-2021 3278.01 4344.83 74.26 4.00  36.20 2671.88
   06:42:37.260.27-Apr-2021 3278.01 4348.78 74.26 4.00  36.40 2671.88
   06:42:37.460.27-Apr-2021 3278.01 4349.89 74.26 4.00  36.60 2671.88
   06:42:37.660.27-Apr-2021 3278.01 4351.70 74.26 4.00  36.80 2671.88
   06:42:37.860.27-Apr-2021 3278.01 4353.31 74.26 4.00  37.00 2671.88
   06:42:38.060.27-Apr-2021 3278.01 4353.31 74.26 4.00  37.20 2671.88
   06:42:38.260.27-Apr-2021 3278.01 4355.53 74.26 4.00  37.40 2671.88
   06:42:38.460.27-Apr-2021 3278.01 4356.28 74.26 4.00  37.60 2671.88
   06:42:38.660.27-Apr-2021 3278.01 4357.45 74.26 4.00  37.80 2671.88
   06:42:38.860.27-Apr-2021 3278.01 4358.15 74.26 4.00  38.00 2671.88
   06:42:39.060.27-Apr-2021 3278.01 4358.15 74.26 4.00  38.20 2671.88
   06:42:39.260.27-Apr-2021 3278.01 4359.78 74.25 4.00  38.40 2671.88
   06:42:39.460.27-Apr-2021 3278.01 4360.03 74.25 4.00  38.60 2671.88
   06:42:39.660.27-Apr-2021 3278.01 4361.21 74.25 4.00  38.80 2671.88
   06:42:39.860.27-Apr-2021 3278.01 4361.75 74.25 4.00  39.00 2671.88
   06:42:40.060.27-Apr-2021 3278.01 4361.75 74.25 4.00  39.20 2671.88
   06:42:40.260.27-Apr-2021 3278.01 4362.85 74.25 4.00  39.40 2671.88
   06:42:40.460.27-Apr-2021 3278.01 4362.98 74.25 4.00  39.60 2671.88
   06:42:40.660.27-Apr-2021 3278.01 4363.74 74.25 4.00  39.80 2671.88
   06:42:40.860.27-Apr-2021 3278.01 4363.97 74.25 4.00  40.00 2671.88
   06:42:41.060.27-Apr-2021 3278.01 4363.97 74.25 4.00  40.20 2671.88
   06:42:41.261.27-Apr-2021 3278.01 4365.06 74.25 4.00  40.40 2671.88
   06:42:41.461.27-Apr-2021 3278.01 4365.49 74.25 4.00  40.60 2671.88
   06:42:41.661.27-Apr-2021 3278.01 4365.73 74.25 4.00  40.80 2671.88
   06:42:41.861.27-Apr-2021 3278.01 4366.10 74.25 4.00  41.00 2671.88
   06:42:42.061.27-Apr-2021 3278.01 4366.10 74.25 4.00  41.20 2671.88
   06:42:42.261.27-Apr-2021 3278.01 4366.80 74.25 4.00  41.40 2671.88
   06:42:42.461.27-Apr-2021 3278.01 4367.09 74.24 4.00  41.60 2671.88
   06:42:42.661.27-Apr-2021 3278.01 4367.29 74.24 4.00  41.80 2671.88
   06:42:42.861.27-Apr-2021 3278.01 4367.62 74.24 4.00  42.00 2671.88
   06:42:43.061.27-Apr-2021 3278.01 4367.62 74.24 4.00  42.20 2671.88
   06:42:43.261.27-Apr-2021 3278.01 4368.12 74.24 4.00  42.40 2671.88
   06:42:43.461.27-Apr-2021 3278.01 4368.01 74.24 4.00  42.60 2671.88
   06:42:43.661.27-Apr-2021 3278.01 4368.82 74.24 4.00  42.80 2671.88
   06:42:43.861.27-Apr-2021 3278.01 4368.87 74.24 4.00  43.00 2671.88
   06:42:44.061.27-Apr-2021 3278.01 4368.87 74.24 4.00  43.20 2671.88
   06:42:44.261.27-Apr-2021 3278.01 4369.50 74.24 4.00  43.40 2671.88
   06:42:44.461.27-Apr-2021 3278.01 4369.81 74.24 4.00  43.60 2671.88
   06:42:44.661.27-Apr-2021 3278.01 4369.85 74.24 4.00  43.80 2671.88
   06:42:44.861.27-Apr-2021 3278.01 4370.13 74.24 4.00  44.00 2671.88
   06:42:45.061.27-Apr-2021 3278.01 4370.13 74.24 4.00  44.20 2671.88
   06:42:45.261.27-Apr-2021 3278.01 4370.55 74.24 4.00  44.40 2671.88
   06:42:45.461.27-Apr-2021 3278.01 4370.64 74.24 4.00  44.60 2671.88
   06:42:45.661.27-Apr-2021 3278.01 4370.85 74.23 4.00  44.80 2671.88
   06:42:45.861.27-Apr-2021 3278.01 4370.92 74.23 4.00  45.00 2671.88
   06:42:46.061.27-Apr-2021 3278.01 4370.92 74.23 4.00  45.20 2671.88
   06:42:46.261.27-Apr-2021 3278.01 4371.19 74.23 4.00  45.40 2671.88
   06:42:46.461.27-Apr-2021 3278.01 4371.47 74.23 4.00  45.60 2671.88
   06:42:46.661.27-Apr-2021 3278.01 4371.05 74.23 4.00  45.80 2671.88
