~Version Information
 VERS.                  2.0:   CWLS log ASCII Standard -VERSION 2.0
 WRAP.                   NO:   One line per depth step
~Well Information Block
#MNEM.UNIT     VALUE/NAME     DESCRIPTION
#---------     -----------    ---------------------------
 STRT.S             23:23:54 27-Apr-21: START TIME 23:23:54 27-Apr-21
 STOP.S             23:30:22 27-Apr-21: STOP TIME  23:30:22 27-Apr-21
 STEP.S                   0.00: STEP TIME
 NULL.                 -999.25: NULL VALUE
 DFWT.                        :  DIST FWL TEXT
 DFST.                        :  DIST FSL TEXT
 DMF .             Drill Floor:  DRILL MEAS FROM
 STIM.      02.00.00 12-Apr-21:  START TIME
 DATE.      02.00.00 02-May-21:  END TIME
 SPUD.               09-Apr-21:  SPUD DATE
 NREF.                    Grid:  NORTH REFERENCE
 HPTY.       Minimum Curvature:  HOLE POS TYPE
 DMOD.             Drill Model:  DRILL MOD DESC
 SVYD.                  Survey:  SURVEY DESC
 ILTD.               Lithology:  INTERP LTH DESC
 FTOP.          Formation Tops:  FORM TOPS DESC
 PDAT.          Mean Sea Level:  PERMANENT DATUM
 FLD .                     ACG:  FIELD NAME
 SON .        AZ-XX-0907021034:  JOB NUMBER
 CTRY.              Azerbaijan:  COUNTRY NAME
 WELL.                    E01x:  WELL NAME
 COMP.     BP Exploration (Caspian Sea) LTD.:  COMPANY
 UWI .            /AZE00001403:  UNIQUE WELL IDENTIFIER
 API .            /AZE00001403:  API NUMBER
 WTYP.                Deviated:  WELL TYPE
 MDS .        Operator Entered:  MAG DATA SOURCE
 BASE.              Azerbaijan:  LOGGING EQUIPMENT BASE LOCATION
 REGN.                   EESSA:  REGION
 PROV.                    Baku:  PROVINCE
 STAT.                    Baku:  STATE NAME
 SRVC.          Turan Drilling:  CONTRACTOR
 MWDS.                    Baku:  MWD SHOP
 JOBN.        AZ-XX-0907021034:  JOB TICKET NUMB
 RIG .                     DWG:  RIG NAME
 DOE .                     N/A:  DOE NUMBER
 DCON.         Sperry Drilling:  DIRECTNL CONTR
 UNIT.                     N/A:  LOGGING EQUIPMENT ID
 CNTY.                        :  COUNTY
 LOC .                        :  LOCATION
 LMF .             Drill Floor:  LOG MEASURED FROM
 TVDS.m                  43.16:  TVDSS CORRECTN
 LATI.deg                40.17:  LATITUDE
 LONG.deg                51.17:  LONGITUDE
 WHNS.m                  -5.90:  WELL HEAD N/S
 WHEW.m                  -6.61:  WELL HEAD E/W
 UTMX.m              514337.95:  UTM X
 UTMY.m             4448627.46:  UTM Y
 DFWL.m                   0.00:  DISTANCE FWL
 DFSL.m                   0.00:  DISTANCE FSL
 SDEP.m                2606.87:  START DEPTH
 TDD .m                3618.01:  TOTAL DEPTH (DRILLER)
 VSDR.deg               177.42:  VERT SEC DIRECT
 GVFD.g                   1.00:  GRAVITY FIELD
 MFLD.nT              50399.00:  MAGNETIC FIELD
 MDIP.deg                59.67:  MAGNETIC DIP
 MDEC.deg                 6.56:  MAGNETIC DECL
 GRDC.deg                 0.11:  GRID CORRECTION
 AZTC.deg                 6.45:  AZM TOTAL CORR
 EPD .m                   0.00:  ELEVATION
 EGL .m                   0.00:  GROUND ELEVATION
 WDMS.m                 176.20:  WD ELEV
 APD .m                  43.16:  DEPTH ABOVE PD
 DEP .m                2606.87:  DEPTH
 AGAP.m                  43.16:  AIR GAP
 VSEW.m                  -6.61:  VERT SEC E/W
 VSNS.m                  -5.90:  VERT SEC N/S
 EKB .m                  43.16:  KB ELEVATION
 EDF .m                  43.16:  DF ELEVATION
 TDL .m                 438.00:  TOTAL DEPTH (LOGGER)
 VSC .                       0:  VS TO CLOSURE
 MAGU.                 1855490:  MAGUTM CHECKSUM
~Parameter Information Block
#MNEM.UNIT       Value        Description
#---------     -----------    ---------------------------
 AV  .mps                 2.20:  Ann Velocity 
 AVMX.mps                 2.50:  Max Ann Veloc 
 AZIF.deg               150.21:  Azm, Final 
 BHAT.        Rotary Steerable:  BHA Type 
 BROT.°/30m               0.08:  Build Rotating 
 BS  .in                  6.50:  Bit Size 
 BSZ .in                  6.50:  Bit Size 
 BTPL.psig              108.00:  Bit Press Loss 
 CABU.                     Yes:  Customer Abuse 
 CGEO.           Emin Aliyarli:  Customer Geo 
 COMM.                     HO:  Run Comments 1 
 TCS .hr                 74.20:  Time Ciculation Ended 
 CV  .mps                 3.63:  Crit Velocity 
 CVMX.mps                 3.66:  Max Crit Veloc 
 DD1 .         Intigam Rahimov:  Direct Drillr 1 
 DD2 .          Teymur Aghayev:  Direct Drillr 2 
 DDSV.               Geo-Pilot:  DD Service 
 DEFF.%                  97.00:  % Det Eff 
 DLRX.°/30m               1.63:  Dogleg Rot Max 
 DLSO.°/30m               0.00:  Dogleg Oriented 
 DLSX.°/30m               0.00:  Dogleg Str Max 
 DRET.      20.20.00 28-Apr-21:  Drill End Time 
 DRST.      04.45.00 26-Apr-21:  Drill Start Tim 
 DTIM.hr                 34.30:  Time Drilling 
 EDEP.m                3618.01:  End Depth 
 ENG1.           Amrah Tahirov:  Engineer 1 
 ENG2.         Bahruz Mehdiyev:  Engineer 2 
 ENG3.         Farhad Orujzade:  Engineer 3 
 ETIM.      19.00.00 29-Apr-21:  End Time 
 FLOI.gpm               370.00:  Flow In 
 FLON.gpm               300.00:  Flow In Min 
 FLOS.cptm                0.00:  Fluid Loss 
 FLOX.gpm               410.00:  Flow In Max 
 HFLO.                      No:  High Flow 
 HPRE.                      No:  High Pressure 
 HTEM.                      No:  High Temp 
 HYDO.m                   1.80:  Hydro Offset 
 IFIN.deg                67.19:  Inc, Final 
 IMAX.deg                68.42:  Inc Max 
 IMIN.deg                66.33:  Inc Min 
 IMND.m                3532.79:  Inc Min Depth 
 IMXD.m                3192.15:  Inc Max Depth 
 JARR.                      No:  Jarring 
 LETM.      20.20.00 28-Apr-21:  Log End Time 
 LOST.hr                     0:  Lost Rig Time 
 LSTM.      04.45.00 26-Apr-21:  Log Start Time 
 MDCL.ppm             36500.00:  Mud Chlorides 
 MDES.     Inversion Oil/Synthetic:  Mud Desc 
 DFD .sg                  1.42:  Mud Density 
 MDMN.sg                  1.42:  Dens Mud Min 
 MDMX.sg                  1.42:  Dens Mud Max 
 MOIL.                    55.7:  Run Mud Oil % 
 MOWR.                   71:29:  Run Mud OWR 
 MSND.                     0.1:  Run Mud Sand % 
 MSOL.                    19.9:  Run Mud Solids% 
 DFV .spqt               83.00:  Mud Viscosity 
 MWOD.in                  5.15:  MWD Tool OD 
 MWSI.                      No:  Serv Intrp, MWD 
 OTIM.hr                120.59:  Time Operating 
 PCON.           Look Like New:  Pad Condition 
 PMAX.psia            11292.93:  Press Op, Max 
 PV  .cP                 27.00:  Mud PV 
 RUN .                     400:  Run Number 
 ROPA.m/hr               14.00:  ROP Avg 
 ROPN.m/hr                9.00:  ROP Min 
 ROPX.m/hr               18.00:  ROP Max 
 RPMA.rpm               130.00:  RPM Surface Avg 
 RPMN.rpm               100.00:  RPM Surface Min 
 RPMX.rpm               140.00:  RPM Surface Max 
 RRUN.                    0400:  Rig Run Number 
 RTIM.hr                 38.60:  Time Reaming 
 SAZI.deg               149.55:  Azm, Start 
 SDEP.m                3180.01:  Start Depth 
 SIDD.                      No:  Serv Intrp, DD 
 SINC.deg                68.42:  Inc, Start 
 SPPA.psig             4400.00:  SPP Avg 
 SPPN.psig             3580.00:  SPP Min 
 SPPX.psig             4850.00:  SPP Max 
 STIM.      12.30.00 24-Apr-21:  Start Time 
 SVCS.                 DD, MWD:  Services 
 SVER.                    9.20:  Sperry Version 
 TDAT.m                 438.00:  Tot Depth Attmp 
 TDDF.                      No:  Trip for DD 
 TDLG.m                 438.00:  Tot Depth Loggd 
 TFF .                      No:  Trip for Fail 
 TQAA.f-kp               11.00:  Torque Abs Avg 
 TQAN.f-kp                9.00:  Torque Abs Min 
 TQAX.f-kp               14.00:  Torque Abs Max 
 TRRT.°/30m               0.04:  Turn Rotating 
 MRT .                    HCIM:  Maximum Recorded Temperature 
 TTMX.degC               84.31:  Max Tool Temp 
 VS01.                90521954:  Virtual Str1 SN 
 VS02.                90519327:  Virtual Str2 SN 
 VS03.                90522273:  Virtual Str3 SN 
 VS04.                11108038:  Virtual Str4 SN 
 VS05.                12258760:  Virtual Str5 SN 
 WBMN.klb                 1.00:  WOB Min 
 WITN.           Adil Mammadov:  Customer Rep 
 WITN.         Alex Yadullayev:  Customer Rep 2 
 WOBA.klb                 6.00:  WOB Avg 
 WOBX.klb                 9.00:  WOB Max 
 YP  .lhf2               31.00:  Yield Point 
~Curve Information Block
#MNEM.UNIT                 API CODE     Curve Description
#---------               -----------    ---------------------------
 TIME.HHMMSS            00 000 000 000:  GT Time & Date
 GTDEPTH.m              00 000 000 000:  GT Depth
 GTPQH.psia             00 000 000 000:  GT HR Quartz Pressure
 GTTQ.degC              00 000 000 000:  GT Quartz Temperature
 GTTN.NONE              00 000 000 000:  GT Test Number
 GTET.sec               00 000 000 000:  GT Elapsed Test Time
 GTTVD.m                00 000 000 000:  GT True Vertical Depth
#Other Information
#
#WARRANTY: Halliburton will use its best efforts to furnish customers with 
#accurate information and interpretations that are part of, and incident to, the services 
#provided.  However, Halliburton cannot and does not warrant the accuracy 
#or correctness of such information and interpretations.  Under no circumstances should any 
#such information or interpretation be relied upon as the sole basis for any drilling, 
#completion, production, or financial decision or any procedure involving any risk to the 
#safety of any drilling venture, drilling rig or its crew or any other third party.  The 
#Customer has full responsibility for all drilling, completion and production operation.  
#Halliburton makes no representations or warranties, either expressed or 
#implied, including, but not limited to, the implied warranties of merchantability or fitness 
#for a particular purpose, with respect to the services rendered.  In no event will 
#Halliburton be liable for failure to obtain any particular results or for 
#any damages, including, but not limited to, indirect, special or consequential damages, 
#resulting from the use of any information or interpretation provided by Halliburton.
#
~A           TIME           GTDEPTH  GTPQH  GTTQ  GTTN  GTET   GTTVD  
# ...
   23:28:07.695.27-Apr-2021 3418.01 3572.83 73.55 6.00 253.07 2727.14
   23:28:07.895.27-Apr-2021 3418.01 3572.83 73.55 6.00 253.27 2727.14
   23:28:08.095.27-Apr-2021 3418.01 3572.79 73.55 6.00 253.47 2727.14
   23:28:08.295.27-Apr-2021 3418.01 3572.63 73.55 6.00 253.67 2727.14
   23:28:08.495.27-Apr-2021 3418.01 3572.91 73.55 6.00 253.87 2727.14
   23:28:08.695.27-Apr-2021 3418.01 3572.84 73.55 6.00 254.07 2727.14
   23:28:08.895.27-Apr-2021 3418.01 3572.84 73.55 6.00 254.27 2727.14
   23:28:09.095.27-Apr-2021 3418.01 3572.82 73.55 6.00 254.47 2727.14
   23:28:09.295.27-Apr-2021 3418.01 3572.83 73.55 6.00 254.67 2727.14
   23:28:09.495.27-Apr-2021 3418.01 3572.80 73.55 6.00 254.87 2727.14
   23:28:09.695.27-Apr-2021 3418.01 3572.81 73.55 6.00 255.07 2727.14
   23:28:09.895.27-Apr-2021 3418.01 3572.81 73.55 6.00 255.27 2727.14
   23:28:10.095.27-Apr-2021 3418.01 3572.80 73.55 6.00 255.47 2727.14
   23:28:10.295.27-Apr-2021 3418.01 3572.80 73.55 6.00 255.67 2727.14
   23:28:10.495.27-Apr-2021 3418.01 3572.79 73.55 6.00 255.87 2727.14
   23:28:10.695.27-Apr-2021 3418.01 3572.79 73.55 6.00 256.07 2727.14
   23:28:10.895.27-Apr-2021 3418.01 3572.79 73.55 6.00 256.27 2727.14
   23:28:11.096.27-Apr-2021 3418.01 3572.76 73.55 6.00 256.47 2727.14
   23:28:11.296.27-Apr-2021 3418.01 3572.85 73.55 6.00 256.67 2727.14
   23:28:11.496.27-Apr-2021 3418.01 3572.82 73.55 6.00 256.87 2727.14
   23:28:11.696.27-Apr-2021 3418.01 3572.79 73.55 6.00 257.07 2727.14
   23:28:11.896.27-Apr-2021 3418.01 3572.79 73.55 6.00 257.27 2727.14
   23:28:12.096.27-Apr-2021 3418.01 3572.82 73.55 6.00 257.47 2727.14
   23:28:12.296.27-Apr-2021 3418.01 3572.80 73.55 6.00 257.67 2727.14
   23:28:12.496.27-Apr-2021 3418.01 3572.81 73.54 6.00 257.87 2727.14
   23:28:12.696.27-Apr-2021 3418.01 3572.79 73.54 6.00 258.07 2727.14
   23:28:12.896.27-Apr-2021 3418.01 3572.79 73.54 6.00 258.27 2727.14
   23:28:13.096.27-Apr-2021 3418.01 3572.78 73.54 6.00 258.47 2727.14
   23:28:13.296.27-Apr-2021 3418.01 3572.78 73.54 6.00 258.67 2727.14
   23:28:13.496.27-Apr-2021 3418.01 3572.81 73.54 6.00 258.87 2727.14
   23:28:13.696.27-Apr-2021 3418.01 3572.61 73.54 6.00 259.07 2727.14
   23:28:13.896.27-Apr-2021 3418.01 3572.61 73.54 6.00 259.27 2727.14
   23:28:14.096.27-Apr-2021 3418.01 3572.83 73.54 6.00 259.47 2727.14
   23:28:14.296.27-Apr-2021 3418.01 3572.80 73.54 6.00 259.67 2727.14
   23:28:14.496.27-Apr-2021 3418.01 3572.83 73.54 6.00 259.87 2727.14
   23:28:14.696.27-Apr-2021 3418.01 3572.81 73.54 6.00 260.07 2727.14
   23:28:14.897.27-Apr-2021 3418.01 3572.81 73.54 6.00 260.27 2727.14
   23:28:15.097.27-Apr-2021 3418.01 3572.91 73.54 6.00 260.47 2727.14
   23:28:15.297.27-Apr-2021 3418.01 3572.83 73.54 6.00 260.67 2727.14
   23:28:15.497.27-Apr-2021 3418.01 3572.80 73.54 6.00 260.87 2727.14
   23:28:15.697.27-Apr-2021 3418.01 3572.84 73.54 6.00 261.07 2727.14
   23:28:15.897.27-Apr-2021 3418.01 3572.84 73.54 6.00 261.27 2727.14
   23:28:16.097.27-Apr-2021 3418.01 3572.80 73.54 6.00 261.47 2727.14
   23:28:16.297.27-Apr-2021 3418.01 3572.84 73.54 6.00 261.67 2727.14
   23:28:16.497.27-Apr-2021 3418.01 3572.82 73.54 6.00 261.87 2727.14
   23:28:16.697.27-Apr-2021 3418.01 3572.83 73.54 6.00 262.07 2727.14
   23:28:16.897.27-Apr-2021 3418.01 3572.83 73.54 6.00 262.27 2727.14
   23:28:17.097.27-Apr-2021 3418.01 3572.81 73.54 6.00 262.47 2727.14
   23:28:17.297.27-Apr-2021 3418.01 3572.69 73.54 6.00 262.67 2727.14
   23:28:17.497.27-Apr-2021 3418.01 3572.85 73.53 6.00 262.87 2727.14
   23:28:17.697.27-Apr-2021 3418.01 3572.82 73.53 6.00 263.07 2727.14
   23:28:17.897.27-Apr-2021 3418.01 3572.82 73.53 6.00 263.27 2727.14
   23:28:18.097.27-Apr-2021 3418.01 3572.84 73.53 6.00 263.47 2727.14
   23:28:18.297.27-Apr-2021 3418.01 3572.81 73.53 6.00 263.67 2727.14
   23:28:18.497.27-Apr-2021 3418.01 3572.82 73.53 6.00 263.87 2727.14
   23:28:18.697.27-Apr-2021 3418.01 3572.80 73.53 6.00 264.07 2727.14
   23:28:18.898.27-Apr-2021 3418.01 3572.80 73.53 6.00 264.27 2727.14
   23:28:19.098.27-Apr-2021 3418.01 3572.78 73.53 6.00 264.47 2727.14
   23:28:19.298.27-Apr-2021 3418.01 3572.82 73.53 6.00 264.67 2727.14
   23:28:19.498.27-Apr-2021 3418.01 3572.77 73.53 6.00 264.87 2727.14
   23:28:19.698.27-Apr-2021 3418.01 3572.79 73.53 6.00 265.07 2727.14
   23:28:19.898.27-Apr-2021 3418.01 3572.79 73.53 6.00 265.27 2727.14
   23:28:20.098.27-Apr-2021 3418.01 3572.78 73.53 6.00 265.47 2727.14
   23:28:20.298.27-Apr-2021 3418.01 3572.89 73.53 6.00 265.67 2727.14
   23:28:20.498.27-Apr-2021 3418.01 3572.85 73.53 6.00 265.87 2727.14
   23:28:20.698.27-Apr-2021 3418.01 3572.75 73.53 6.00 266.07 2727.14
   23:28:20.898.27-Apr-2021 3418.01 3572.75 73.53 6.00 266.27 2727.14
   23:28:21.098.27-Apr-2021 3418.01 3572.81 73.53 6.00 266.47 2727.14
   23:28:21.298.27-Apr-2021 3418.01 3572.78 73.53 6.00 266.67 2727.14
   23:28:21.498.27-Apr-2021 3418.01 3572.80 73.53 6.00 266.87 2727.14
   23:28:21.698.27-Apr-2021 3418.01 3572.78 73.53 6.00 267.07 2727.14
   23:28:21.898.27-Apr-2021 3418.01 3572.78 73.53 6.00 267.27 2727.14
   23:28:22.098.27-Apr-2021 3418.01 3572.78 73.53 6.00 267.47 2727.14
   23:28:22.298.27-Apr-2021 3418.01 3572.77 73.52 6.00 267.67 2727.14
   23:28:22.498.27-Apr-2021 3418.01 3572.78 73.52 6.00 267.87 2727.14
   23:28:22.699.27-Apr-2021 3418.01 3572.69 73.52 6.00 268.07 2727.14
   23:28:22.899.27-Apr-2021 3418.01 3572.69 73.52 6.00 268.27 2727.14
   23:28:23.099.27-Apr-2021 3418.01 3572.81 73.52 6.00 268.47 2727.14
   23:28:23.299.27-Apr-2021 3418.01 3572.82 73.52 6.00 268.67 2727.14
   23:28:23.499.27-Apr-2021 3418.01 3572.78 73.52 6.00 268.87 2727.14
   23:28:23.699.27-Apr-2021 3418.01 3572.80 73.52 6.00 269.07 2727.14
   23:28:23.899.27-Apr-2021 3418.01 3572.80 73.52 6.00 269.27 2727.14
   23:28:24.099.27-Apr-2021 3418.01 3572.68 73.52 6.00 269.47 2727.14
   23:28:24.299.27-Apr-2021 3418.01 3572.82 73.52 6.00 269.67 2727.14
   23:28:24.499.27-Apr-2021 3418.01 3572.81 73.52 6.00 269.87 2727.14
   23:28:24.699.27-Apr-2021 3418.01 3572.81 73.52 6.00 270.07 2727.14
   23:28:24.899.27-Apr-2021 3418.01 3572.81 73.52 6.00 270.27 2727.14
   23:28:25.099.27-Apr-2021 3418.01 3572.79 73.52 6.00 270.47 2727.14
   23:28:25.299.27-Apr-2021 3418.01 3572.64 73.52 6.00 270.67 2727.14
   23:28:25.499.27-Apr-2021 3418.01 3572.88 73.52 6.00 270.87 2727.14
   23:28:25.699.27-Apr-2021 3418.01 3572.82 73.52 6.00 271.07 2727.14
   23:28:25.899.27-Apr-2021 3418.01 3572.82 73.52 6.00 271.27 2727.14
   23:28:26.099.27-Apr-2021 3418.01 3572.81 73.52 6.00 271.47 2727.14
   23:28:26.299.27-Apr-2021 3418.01 3572.77 73.52 6.00 271.67 2727.14
   23:28:26.500.27-Apr-2021 3418.01 3572.70 73.52 6.00 271.87 2727.14
   23:28:26.700.27-Apr-2021 3418.01 3572.83 73.52 6.00 272.07 2727.14
   23:28:26.900.27-Apr-2021 3418.01 3572.83 73.52 6.00 272.27 2727.14
   23:28:27.100.27-Apr-2021 3418.01 3572.77 73.52 6.00 272.47 2727.14
   23:28:27.300.27-Apr-2021 3418.01 3572.83 73.51 6.00 272.67 2727.14
   23:28:27.500.27-Apr-2021 3418.01 3572.79 73.51 6.00 272.87 2727.14
   23:28:27.700.27-Apr-2021 3418.01 3572.80 73.51 6.00 273.07 2727.14
   23:28:27.900.27-Apr-2021 3418.01 3572.80 73.51 6.00 273.27 2727.14
   23:28:28.100.27-Apr-2021 3418.01 3572.79 73.51 6.00 273.47 2727.14
   23:28:28.300.27-Apr-2021 3418.01 3572.79 73.51 6.00 273.67 2727.14
   23:28:28.500.27-Apr-2021 3418.01 3572.78 73.51 6.00 273.87 2727.14
   23:28:28.700.27-Apr-2021 3418.01 3572.75 73.51 6.00 274.07 2727.14
   23:28:28.900.27-Apr-2021 3418.01 3572.75 73.51 6.00 274.27 2727.14
   23:28:29.100.27-Apr-2021 3418.01 3572.57 73.51 6.00 274.47 2727.14
   23:28:29.300.27-Apr-2021 3418.01 3572.88 73.51 6.00 274.67 2727.14
   23:28:29.500.27-Apr-2021 3418.01 3572.81 73.51 6.00 274.87 2727.14
   23:28:29.700.27-Apr-2021 3418.01 3572.77 73.51 6.00 275.07 2727.14
   23:28:29.900.27-Apr-2021 3418.01 3572.77 73.51 6.00 275.27 2727.14
   23:28:30.100.27-Apr-2021 3418.01 3572.79 73.51 6.00 275.47 2727.14
   23:28:30.300.27-Apr-2021 3418.01 3572.79 73.51 6.00 275.67 2727.14
   23:28:30.501.27-Apr-2021 3418.01 3572.78 73.51 6.00 275.87 2727.14
