~Version Information
 VERS.                  2.0:   CWLS log ASCII Standard -VERSION 2.0
 WRAP.                   NO:   One line per depth step
~Well Information Block
#MNEM.UNIT     VALUE/NAME     DESCRIPTION
#---------     -----------    ---------------------------
 STRT.S             13:09:03 28-Apr-21: START TIME 13:09:03 28-Apr-21
 STOP.S             13:15:31 28-Apr-21: STOP TIME  13:15:31 28-Apr-21
 STEP.S                   0.00: STEP TIME
 NULL.                 -999.25: NULL VALUE
 DFWT.                        :  DIST FWL TEXT
 DFST.                        :  DIST FSL TEXT
 DMF .             Drill Floor:  DRILL MEAS FROM
 STIM.      02.00.00 12-Apr-21:  START TIME
 DATE.      02.00.00 02-May-21:  END TIME
 SPUD.               09-Apr-21:  SPUD DATE
 NREF.                    Grid:  NORTH REFERENCE
 HPTY.       Minimum Curvature:  HOLE POS TYPE
 DMOD.             Drill Model:  DRILL MOD DESC
 SVYD.                  Survey:  SURVEY DESC
 ILTD.               Lithology:  INTERP LTH DESC
 FTOP.          Formation Tops:  FORM TOPS DESC
 PDAT.          Mean Sea Level:  PERMANENT DATUM
 FLD .                     ACG:  FIELD NAME
 SON .        AZ-XX-0907021034:  JOB NUMBER
 CTRY.              Azerbaijan:  COUNTRY NAME
 WELL.                    E01x:  WELL NAME
 COMP.     BP Exploration (Caspian Sea) LTD.:  COMPANY
 UWI .            /AZE00001403:  UNIQUE WELL IDENTIFIER
 API .            /AZE00001403:  API NUMBER
 WTYP.                Deviated:  WELL TYPE
 MDS .        Operator Entered:  MAG DATA SOURCE
 BASE.              Azerbaijan:  LOGGING EQUIPMENT BASE LOCATION
 REGN.                   EESSA:  REGION
 PROV.                    Baku:  PROVINCE
 STAT.                    Baku:  STATE NAME
 SRVC.          Turan Drilling:  CONTRACTOR
 MWDS.                    Baku:  MWD SHOP
 JOBN.        AZ-XX-0907021034:  JOB TICKET NUMB
 RIG .                     DWG:  RIG NAME
 DOE .                     N/A:  DOE NUMBER
 DCON.         Sperry Drilling:  DIRECTNL CONTR
 UNIT.                     N/A:  LOGGING EQUIPMENT ID
 CNTY.                        :  COUNTY
 LOC .                        :  LOCATION
 LMF .             Drill Floor:  LOG MEASURED FROM
 TVDS.m                  43.16:  TVDSS CORRECTN
 LATI.deg                40.17:  LATITUDE
 LONG.deg                51.17:  LONGITUDE
 WHNS.m                  -5.90:  WELL HEAD N/S
 WHEW.m                  -6.61:  WELL HEAD E/W
 UTMX.m              514337.95:  UTM X
 UTMY.m             4448627.46:  UTM Y
 DFWL.m                   0.00:  DISTANCE FWL
 DFSL.m                   0.00:  DISTANCE FSL
 SDEP.m                2606.87:  START DEPTH
 TDD .m                3618.01:  TOTAL DEPTH (DRILLER)
 VSDR.deg               177.42:  VERT SEC DIRECT
 GVFD.g                   1.00:  GRAVITY FIELD
 MFLD.nT              50399.00:  MAGNETIC FIELD
 MDIP.deg                59.67:  MAGNETIC DIP
 MDEC.deg                 6.56:  MAGNETIC DECL
 GRDC.deg                 0.11:  GRID CORRECTION
 AZTC.deg                 6.45:  AZM TOTAL CORR
 EPD .m                   0.00:  ELEVATION
 EGL .m                   0.00:  GROUND ELEVATION
 WDMS.m                 176.20:  WD ELEV
 APD .m                  43.16:  DEPTH ABOVE PD
 DEP .m                2606.87:  DEPTH
 AGAP.m                  43.16:  AIR GAP
 VSEW.m                  -6.61:  VERT SEC E/W
 VSNS.m                  -5.90:  VERT SEC N/S
 EKB .m                  43.16:  KB ELEVATION
 EDF .m                  43.16:  DF ELEVATION
 TDL .m                 438.00:  TOTAL DEPTH (LOGGER)
 VSC .                       0:  VS TO CLOSURE
 MAGU.                 1855490:  MAGUTM CHECKSUM
~Parameter Information Block
#MNEM.UNIT       Value        Description
#---------     -----------    ---------------------------
 AV  .mps                 2.20:  Ann Velocity 
 AVMX.mps                 2.50:  Max Ann Veloc 
 AZIF.deg               150.21:  Azm, Final 
 BHAT.        Rotary Steerable:  BHA Type 
 BROT.∞/30m               0.08:  Build Rotating 
 BS  .in                  6.50:  Bit Size 
 BSZ .in                  6.50:  Bit Size 
 BTPL.psig              108.00:  Bit Press Loss 
 CABU.                     Yes:  Customer Abuse 
 CGEO.           Emin Aliyarli:  Customer Geo 
 COMM.                     ‹Ïq:  Run Comments 1 
 TCS .hr                 74.20:  Time Ciculation Ended 
 CV  .mps                 3.63:  Crit Velocity 
 CVMX.mps                 3.66:  Max Crit Veloc 
 DD1 .         Intigam Rahimov:  Direct Drillr 1 
 DD2 .          Teymur Aghayev:  Direct Drillr 2 
 DDSV.               Geo-Pilot:  DD Service 
 DEFF.%                  97.00:  % Det Eff 
 DLRX.∞/30m               1.63:  Dogleg Rot Max 
 DLSO.∞/30m               0.00:  Dogleg Oriented 
 DLSX.∞/30m               0.00:  Dogleg Str Max 
 DRET.      20.20.00 28-Apr-21:  Drill End Time 
 DRST.      04.45.00 26-Apr-21:  Drill Start Tim 
 DTIM.hr                 34.30:  Time Drilling 
 EDEP.m                3618.01:  End Depth 
 ENG1.           Amrah Tahirov:  Engineer 1 
 ENG2.         Bahruz Mehdiyev:  Engineer 2 
 ENG3.         Farhad Orujzade:  Engineer 3 
 ETIM.      19.00.00 29-Apr-21:  End Time 
 FLOI.gpm               370.00:  Flow In 
 FLON.gpm               300.00:  Flow In Min 
 FLOS.cptm                0.00:  Fluid Loss 
 FLOX.gpm               410.00:  Flow In Max 
 HFLO.                      No:  High Flow 
 HPRE.                      No:  High Pressure 
 HTEM.                      No:  High Temp 
 HYDO.m                   1.80:  Hydro Offset 
 IFIN.deg                67.19:  Inc, Final 
 IMAX.deg                68.42:  Inc Max 
 IMIN.deg                66.33:  Inc Min 
 IMND.m                3532.79:  Inc Min Depth 
 IMXD.m                3192.15:  Inc Max Depth 
 JARR.                      No:  Jarring 
 LETM.      20.20.00 28-Apr-21:  Log End Time 
 LOST.hr                     0:  Lost Rig Time 
 LSTM.      04.45.00 26-Apr-21:  Log Start Time 
 MDCL.ppm             36500.00:  Mud Chlorides 
 MDES.     Inversion Oil/Synthetic:  Mud Desc 
 DFD .sg                  1.42:  Mud Density 
 MDMN.sg                  1.42:  Dens Mud Min 
 MDMX.sg                  1.42:  Dens Mud Max 
 MOIL.                    55.7:  Run Mud Oil % 
 MOWR.                   71:29:  Run Mud OWR 
 MSND.                     0.1:  Run Mud Sand % 
 MSOL.                    19.9:  Run Mud Solids% 
 DFV .spqt               83.00:  Mud Viscosity 
 MWOD.in                  5.15:  MWD Tool OD 
 MWSI.                      No:  Serv Intrp, MWD 
 OTIM.hr                120.59:  Time Operating 
 PCON.           Look Like New:  Pad Condition 
 PMAX.psia            11292.93:  Press Op, Max 
 PV  .cP                 27.00:  Mud PV 
 RUN .                     400:  Run Number 
 ROPA.m/hr               14.00:  ROP Avg 
 ROPN.m/hr                9.00:  ROP Min 
 ROPX.m/hr               18.00:  ROP Max 
 RPMA.rpm               130.00:  RPM Surface Avg 
 RPMN.rpm               100.00:  RPM Surface Min 
 RPMX.rpm               140.00:  RPM Surface Max 
 RRUN.                    0400:  Rig Run Number 
 RTIM.hr                 38.60:  Time Reaming 
 SAZI.deg               149.55:  Azm, Start 
 SDEP.m                3180.01:  Start Depth 
 SIDD.                      No:  Serv Intrp, DD 
 SINC.deg                68.42:  Inc, Start 
 SPPA.psig             4400.00:  SPP Avg 
 SPPN.psig             3580.00:  SPP Min 
 SPPX.psig             4850.00:  SPP Max 
 STIM.      12.30.00 24-Apr-21:  Start Time 
 SVCS.                 DD, MWD:  Services 
 SVER.                    9.20:  Sperry Version 
 TDAT.m                 438.00:  Tot Depth Attmp 
 TDDF.                      No:  Trip for DD 
 TDLG.m                 438.00:  Tot Depth Loggd 
 TFF .                      No:  Trip for Fail 
 TQAA.f-kp               11.00:  Torque Abs Avg 
 TQAN.f-kp                9.00:  Torque Abs Min 
 TQAX.f-kp               14.00:  Torque Abs Max 
 TRRT.∞/30m               0.04:  Turn Rotating 
 MRT .                    HCIM:  Maximum Recorded Temperature 
 TTMX.degC               84.31:  Max Tool Temp 
 VS01.                90521954:  Virtual Str1 SN 
 VS02.                90519327:  Virtual Str2 SN 
 VS03.                90522273:  Virtual Str3 SN 
 VS04.                11108038:  Virtual Str4 SN 
 VS05.                12258760:  Virtual Str5 SN 
 WBMN.klb                 1.00:  WOB Min 
 WITN.           Adil Mammadov:  Customer Rep 
 WITN.         Alex Yadullayev:  Customer Rep 2 
 WOBA.klb                 6.00:  WOB Avg 
 WOBX.klb                 9.00:  WOB Max 
 YP  .lhf2               31.00:  Yield Point 
~Curve Information Block
#MNEM.UNIT                 API CODE     Curve Description
#---------               -----------    ---------------------------
 TIME.HHMMSS            00 000 000 000:  GT Time & Date
 GTDEPTH.m              00 000 000 000:  GT Depth
 GTPQH.psia             00 000 000 000:  GT HR Quartz Pressure
 GTTQ.degC              00 000 000 000:  GT Quartz Temperature
 GTTN.NONE              00 000 000 000:  GT Test Number
 GTET.sec               00 000 000 000:  GT Elapsed Test Time
 GTTVD.m                00 000 000 000:  GT True Vertical Depth
#Other Information
#
#WARRANTY: Halliburton will use its best efforts to furnish customers with 
#accurate information and interpretations that are part of, and incident to, the services 
#provided.  However, Halliburton cannot and does not warrant the accuracy 
#or correctness of such information and interpretations.  Under no circumstances should any 
#such information or interpretation be relied upon as the sole basis for any drilling, 
#completion, production, or financial decision or any procedure involving any risk to the 
#safety of any drilling venture, drilling rig or its crew or any other third party.  The 
#Customer has full responsibility for all drilling, completion and production operation.  
#Halliburton makes no representations or warranties, either expressed or 
#implied, including, but not limited to, the implied warranties of merchantability or fitness 
#for a particular purpose, with respect to the services rendered.  In no event will 
#Halliburton be liable for failure to obtain any particular results or for 
#any damages, including, but not limited to, indirect, special or consequential damages, 
#resulting from the use of any information or interpretation provided by Halliburton.
#
~A           TIME           GTDEPTH  GTPQH  GTTQ  GTTN  GTET   GTTVD  
# ...
   13:10:12.439.28-Apr-2021 3524.51 4369.86 75.33 9.00  69.01 2768.78
   13:10:12.639.28-Apr-2021 3524.51 4369.86 75.33 9.00  69.21 2768.78
   13:10:12.839.28-Apr-2021 3524.51 4369.76 75.33 9.00  69.41 2768.78
   13:10:13.039.28-Apr-2021 3524.51 4369.89 75.33 9.00  69.61 2768.78
   13:10:13.239.28-Apr-2021 3524.51 4369.86 75.32 9.00  69.81 2768.78
   13:10:13.439.28-Apr-2021 3524.51 4369.84 75.32 9.00  70.01 2768.78
   13:10:13.639.28-Apr-2021 3524.51 4369.84 75.32 9.00  70.21 2768.78
   13:10:13.839.28-Apr-2021 3524.51 4369.83 75.32 9.00  70.41 2768.78
   13:10:14.039.28-Apr-2021 3524.51 4369.89 75.32 9.00  70.61 2768.78
   13:10:14.239.28-Apr-2021 3524.51 4369.82 75.32 9.00  70.81 2768.78
   13:10:14.439.28-Apr-2021 3524.51 4369.88 75.32 9.00  71.01 2768.78
   13:10:14.639.28-Apr-2021 3524.51 4369.88 75.32 9.00  71.21 2768.78
   13:10:14.839.28-Apr-2021 3524.51 4369.72 75.32 9.00  71.41 2768.78
   13:10:15.039.28-Apr-2021 3524.51 4369.90 75.32 9.00  71.61 2768.78
   13:10:15.239.28-Apr-2021 3524.51 4369.86 75.32 9.00  71.81 2768.78
   13:10:15.439.28-Apr-2021 3524.51 4369.64 75.32 9.00  72.01 2768.78
   13:10:15.639.28-Apr-2021 3524.51 4369.64 75.32 9.00  72.21 2768.78
   13:10:15.839.28-Apr-2021 3524.51 4369.91 75.32 9.00  72.41 2768.78
   13:10:16.039.28-Apr-2021 3524.51 4369.83 75.32 9.00  72.61 2768.78
   13:10:16.239.28-Apr-2021 3524.51 4369.78 75.32 9.00  72.81 2768.78
   13:10:16.439.28-Apr-2021 3524.51 4369.68 75.32 9.00  73.01 2768.78
   13:10:16.639.28-Apr-2021 3524.51 4369.68 75.32 9.00  73.21 2768.78
   13:10:16.839.28-Apr-2021 3524.51 4369.93 75.32 9.00  73.41 2768.78
   13:10:17.039.28-Apr-2021 3524.51 4369.81 75.32 9.00  73.61 2768.78
   13:10:17.239.28-Apr-2021 3524.51 4369.79 75.31 9.00  73.81 2768.78
   13:10:17.439.28-Apr-2021 3524.51 4369.56 75.31 9.00  74.01 2768.78
   13:10:17.639.28-Apr-2021 3524.51 4369.56 75.31 9.00  74.21 2768.78
   13:10:17.839.28-Apr-2021 3524.51 4369.86 75.31 9.00  74.41 2768.78
   13:10:18.039.28-Apr-2021 3524.51 4369.79 75.31 9.00  74.61 2768.78
   13:10:18.239.28-Apr-2021 3524.51 4369.78 75.31 9.00  74.81 2768.78
   13:10:18.439.28-Apr-2021 3524.51 4369.82 75.31 9.00  75.01 2768.78
   13:10:18.640.28-Apr-2021 3524.51 4369.82 75.31 9.00  75.21 2768.78
   13:10:18.840.28-Apr-2021 3524.51 4369.80 75.31 9.00  75.41 2768.78
   13:10:19.040.28-Apr-2021 3524.51 4369.82 75.31 9.00  75.61 2768.78
   13:10:19.240.28-Apr-2021 3524.51 4369.79 75.31 9.00  75.81 2768.78
   13:10:19.440.28-Apr-2021 3524.51 4369.83 75.31 9.00  76.01 2768.78
   13:10:19.640.28-Apr-2021 3524.51 4369.83 75.31 9.00  76.21 2768.78
   13:10:19.840.28-Apr-2021 3524.51 4369.79 75.31 9.00  76.41 2768.78
   13:10:20.040.28-Apr-2021 3524.51 4369.55 75.31 9.00  76.61 2768.78
   13:10:20.240.28-Apr-2021 3524.51 4369.94 75.31 9.00  76.81 2768.78
   13:10:20.440.28-Apr-2021 3524.51 4369.85 75.31 9.00  77.01 2768.78
   13:10:20.640.28-Apr-2021 3524.51 4369.85 75.31 9.00  77.21 2768.78
   13:10:20.840.28-Apr-2021 3524.51 4369.75 75.31 9.00  77.41 2768.78
   13:10:21.040.28-Apr-2021 3524.51 4369.82 75.31 9.00  77.61 2768.78
   13:10:21.240.28-Apr-2021 3524.51 4369.79 75.30 9.00  77.81 2768.78
   13:10:21.440.28-Apr-2021 3524.51 4369.84 75.30 9.00  78.01 2768.78
   13:10:21.640.28-Apr-2021 3524.51 4369.84 75.30 9.00  78.21 2768.78
   13:10:21.840.28-Apr-2021 3524.51 4369.80 75.30 9.00  78.41 2768.78
   13:10:22.040.28-Apr-2021 3524.51 4369.81 75.30 9.00  78.61 2768.78
   13:10:22.240.28-Apr-2021 3524.51 4369.79 75.30 9.00  78.81 2768.78
   13:10:22.440.28-Apr-2021 3524.51 4369.82 75.30 9.00  79.01 2768.78
   13:10:22.640.28-Apr-2021 3524.51 4369.82 75.30 9.00  79.21 2768.78
   13:10:22.840.28-Apr-2021 3524.51 4369.59 75.30 9.00  79.41 2768.78
   13:10:23.040.28-Apr-2021 3524.51 4369.90 75.30 9.00  79.61 2768.78
   13:10:23.240.28-Apr-2021 3524.51 4369.82 75.30 9.00  79.81 2768.78
   13:10:23.440.28-Apr-2021 3524.51 4369.77 75.30 9.00  80.01 2768.78
   13:10:23.640.28-Apr-2021 3524.51 4369.77 75.30 9.00  80.21 2768.78
   13:10:23.840.28-Apr-2021 3524.51 4369.86 75.30 9.00  80.41 2768.78
   13:10:24.040.28-Apr-2021 3524.51 4369.83 75.30 9.00  80.61 2768.78
   13:10:24.240.28-Apr-2021 3524.51 4369.82 75.30 9.00  80.81 2768.78
   13:10:24.440.28-Apr-2021 3524.51 4369.50 75.30 9.00  81.01 2768.78
   13:10:24.640.28-Apr-2021 3524.51 4369.50 75.30 9.00  81.21 2768.78
   13:10:24.841.28-Apr-2021 3524.51 4369.81 75.30 9.00  81.41 2768.78
   13:10:25.041.28-Apr-2021 3524.51 4369.80 75.30 9.00  81.61 2768.78
   13:10:25.241.28-Apr-2021 3524.51 4369.75 75.29 9.00  81.81 2768.78
   13:10:25.441.28-Apr-2021 3524.51 4369.66 75.29 9.00  82.01 2768.78
   13:10:25.641.28-Apr-2021 3524.51 4369.66 75.29 9.00  82.21 2768.78
   13:10:25.841.28-Apr-2021 3524.51 4369.80 75.29 9.00  82.41 2768.78
   13:10:26.041.28-Apr-2021 3524.51 4369.81 75.29 9.00  82.61 2768.78
   13:10:26.241.28-Apr-2021 3524.51 4369.75 75.29 9.00  82.81 2768.78
   13:10:26.441.28-Apr-2021 3524.51 4369.71 75.29 9.00  83.01 2768.78
   13:10:26.641.28-Apr-2021 3524.51 4369.71 75.29 9.00  83.21 2768.78
   13:10:26.841.28-Apr-2021 3524.51 4369.75 75.29 9.00  83.41 2768.78
   13:10:27.041.28-Apr-2021 3524.51 4369.78 75.29 9.00  83.61 2768.78
   13:10:27.241.28-Apr-2021 3524.51 4369.71 75.29 9.00  83.81 2768.78
   13:10:27.441.28-Apr-2021 3524.51 4369.78 75.29 9.00  84.01 2768.78
   13:10:27.641.28-Apr-2021 3524.51 4369.78 75.29 9.00  84.21 2768.78
   13:10:27.841.28-Apr-2021 3524.51 4369.75 75.29 9.00  84.41 2768.78
   13:10:28.041.28-Apr-2021 3524.51 4369.73 75.29 9.00  84.61 2768.78
   13:10:28.241.28-Apr-2021 3524.51 4369.62 75.29 9.00  84.81 2768.78
   13:10:28.441.28-Apr-2021 3524.51 4369.82 75.29 9.00  85.01 2768.78
   13:10:28.641.28-Apr-2021 3524.51 4369.82 75.29 9.00  85.21 2768.78
   13:10:28.841.28-Apr-2021 3524.51 4369.78 75.29 9.00  85.41 2768.78
   13:10:29.041.28-Apr-2021 3524.51 4369.68 75.29 9.00  85.61 2768.78
   13:10:29.241.28-Apr-2021 3524.51 4369.77 75.29 9.00  85.81 2768.78
   13:10:29.441.28-Apr-2021 3524.51 4369.79 75.28 9.00  86.01 2768.78
   13:10:29.641.28-Apr-2021 3524.51 4369.79 75.28 9.00  86.21 2768.78
   13:10:29.841.28-Apr-2021 3524.51 4369.77 75.28 9.00  86.41 2768.78
   13:10:30.041.28-Apr-2021 3524.51 4369.71 75.28 9.00  86.61 2768.78
   13:10:30.241.28-Apr-2021 3524.51 4369.79 75.28 9.00  86.81 2768.78
   13:10:30.441.28-Apr-2021 3524.51 4369.74 75.28 9.00  87.01 2768.78
   13:10:30.641.28-Apr-2021 3524.51 4369.74 75.28 9.00  87.21 2768.78
   13:10:30.841.28-Apr-2021 3524.51 4369.71 75.28 9.00  87.41 2768.78
   13:10:31.042.28-Apr-2021 3524.51 4369.58 75.28 9.00  87.61 2768.78
   13:10:31.242.28-Apr-2021 3524.51 4369.83 75.28 9.00  87.81 2768.78
   13:10:31.442.28-Apr-2021 3524.51 4369.76 75.28 9.00  88.01 2768.78
   13:10:31.642.28-Apr-2021 3524.51 4369.76 75.28 9.00  88.21 2768.78
   13:10:31.842.28-Apr-2021 3524.51 4369.80 75.28 9.00  88.41 2768.78
   13:10:32.042.28-Apr-2021 3524.51 4369.80 75.28 9.00  88.61 2768.78
   13:10:32.242.28-Apr-2021 3524.51 4369.77 75.28 9.00  88.81 2768.78
   13:10:32.442.28-Apr-2021 3524.51 4369.66 75.28 9.00  89.01 2768.78
   13:10:32.642.28-Apr-2021 3524.51 4369.66 75.28 9.00  89.21 2768.78
   13:10:32.842.28-Apr-2021 3524.51 4369.76 75.28 9.00  89.41 2768.78
   13:10:33.042.28-Apr-2021 3524.51 4369.82 75.28 9.00  89.61 2768.78
   13:10:33.242.28-Apr-2021 3524.51 4369.74 75.28 9.00  89.81 2768.78
   13:10:33.442.28-Apr-2021 3524.51 4369.66 75.27 9.00  90.01 2768.78
   13:10:33.642.28-Apr-2021 3524.51 4369.66 75.27 9.00  90.21 2768.78
   13:10:33.842.28-Apr-2021 3524.51 4369.91 75.27 9.00  90.41 2768.78
   13:10:34.042.28-Apr-2021 3524.51 4369.79 75.27 9.00  90.61 2768.78
   13:10:34.242.28-Apr-2021 3524.51 4369.69 75.27 9.00  90.81 2768.78
   13:10:34.442.28-Apr-2021 3524.51 4369.68 75.27 9.00  91.01 2768.78
   13:10:34.642.28-Apr-2021 3524.51 4369.68 75.27 9.00  91.21 2768.78
   13:10:34.842.28-Apr-2021 3524.51 4369.72 75.27 9.00  91.41 2768.78
   13:10:35.042.28-Apr-2021 3524.51 4369.75 75.27 9.00  91.61 2768.78
   13:10:35.242.28-Apr-2021 3524.51 4369.67 75.27 9.00  91.81 2768.78
