~Version Information
 VERS.                  2.0:   CWLS log ASCII Standard -VERSION 2.0
 WRAP.                   NO:   One line per depth step
~Well Information Block
#MNEM.UNIT     VALUE/NAME     DESCRIPTION
#---------     -----------    ---------------------------
 STRT.S             19:03:38 27-Apr-21: START TIME 19:03:38 27-Apr-21
 STOP.S             19:10:06 27-Apr-21: STOP TIME  19:10:06 27-Apr-21
 STEP.S                   0.00: STEP TIME
 NULL.                 -999.25: NULL VALUE
 DFWT.                        :  DIST FWL TEXT
 DFST.                        :  DIST FSL TEXT
 DMF .             Drill Floor:  DRILL MEAS FROM
 STIM.      02.00.00 12-Apr-21:  START TIME
 DATE.      02.00.00 02-May-21:  END TIME
 SPUD.               09-Apr-21:  SPUD DATE
 NREF.                    Grid:  NORTH REFERENCE
 HPTY.       Minimum Curvature:  HOLE POS TYPE
 DMOD.             Drill Model:  DRILL MOD DESC
 SVYD.                  Survey:  SURVEY DESC
 ILTD.               Lithology:  INTERP LTH DESC
 FTOP.          Formation Tops:  FORM TOPS DESC
 PDAT.          Mean Sea Level:  PERMANENT DATUM
 FLD .                     ACG:  FIELD NAME
 SON .        AZ-XX-0907021034:  JOB NUMBER
 CTRY.              Azerbaijan:  COUNTRY NAME
 WELL.                    E01x:  WELL NAME
 COMP.     BP Exploration (Caspian Sea) LTD.:  COMPANY
 UWI .            /AZE00001403:  UNIQUE WELL IDENTIFIER
 API .            /AZE00001403:  API NUMBER
 WTYP.                Deviated:  WELL TYPE
 MDS .        Operator Entered:  MAG DATA SOURCE
 BASE.              Azerbaijan:  LOGGING EQUIPMENT BASE LOCATION
 REGN.                   EESSA:  REGION
 PROV.                    Baku:  PROVINCE
 STAT.                    Baku:  STATE NAME
 SRVC.          Turan Drilling:  CONTRACTOR
 MWDS.                    Baku:  MWD SHOP
 JOBN.        AZ-XX-0907021034:  JOB TICKET NUMB
 RIG .                     DWG:  RIG NAME
 DOE .                     N/A:  DOE NUMBER
 DCON.         Sperry Drilling:  DIRECTNL CONTR
 UNIT.                     N/A:  LOGGING EQUIPMENT ID
 CNTY.                        :  COUNTY
 LOC .                        :  LOCATION
 LMF .             Drill Floor:  LOG MEASURED FROM
 TVDS.m                  43.16:  TVDSS CORRECTN
 LATI.deg                40.17:  LATITUDE
 LONG.deg                51.17:  LONGITUDE
 WHNS.m                  -5.90:  WELL HEAD N/S
 WHEW.m                  -6.61:  WELL HEAD E/W
 UTMX.m              514337.95:  UTM X
 UTMY.m             4448627.46:  UTM Y
 DFWL.m                   0.00:  DISTANCE FWL
 DFSL.m                   0.00:  DISTANCE FSL
 SDEP.m                2606.87:  START DEPTH
 TDD .m                3618.01:  TOTAL DEPTH (DRILLER)
 VSDR.deg               177.42:  VERT SEC DIRECT
 GVFD.g                   1.00:  GRAVITY FIELD
 MFLD.nT              50399.00:  MAGNETIC FIELD
 MDIP.deg                59.67:  MAGNETIC DIP
 MDEC.deg                 6.56:  MAGNETIC DECL
 GRDC.deg                 0.11:  GRID CORRECTION
 AZTC.deg                 6.45:  AZM TOTAL CORR
 EPD .m                   0.00:  ELEVATION
 EGL .m                   0.00:  GROUND ELEVATION
 WDMS.m                 176.20:  WD ELEV
 APD .m                  43.16:  DEPTH ABOVE PD
 DEP .m                2606.87:  DEPTH
 AGAP.m                  43.16:  AIR GAP
 VSEW.m                  -6.61:  VERT SEC E/W
 VSNS.m                  -5.90:  VERT SEC N/S
 EKB .m                  43.16:  KB ELEVATION
 EDF .m                  43.16:  DF ELEVATION
 TDL .m                 438.00:  TOTAL DEPTH (LOGGER)
 VSC .                       0:  VS TO CLOSURE
 MAGU.                 1855490:  MAGUTM CHECKSUM
~Parameter Information Block
#MNEM.UNIT       Value        Description
#---------     -----------    ---------------------------
 AV  .mps                 2.20:  Ann Velocity 
 AVMX.mps                 2.50:  Max Ann Veloc 
 AZIF.deg               150.21:  Azm, Final 
 BHAT.        Rotary Steerable:  BHA Type 
 BROT.°/30m               0.08:  Build Rotating 
 BS  .in                  6.50:  Bit Size 
 BSZ .in                  6.50:  Bit Size 
 BTPL.psig              108.00:  Bit Press Loss 
 CABU.                     Yes:  Customer Abuse 
 CGEO.           Emin Aliyarli:  Customer Geo 
 COMM.                     LÊS:  Run Comments 1 
 TCS .hr                 74.20:  Time Ciculation Ended 
 CV  .mps                 3.63:  Crit Velocity 
 CVMX.mps                 3.66:  Max Crit Veloc 
 DD1 .         Intigam Rahimov:  Direct Drillr 1 
 DD2 .          Teymur Aghayev:  Direct Drillr 2 
 DDSV.               Geo-Pilot:  DD Service 
 DEFF.%                  97.00:  % Det Eff 
 DLRX.°/30m               1.63:  Dogleg Rot Max 
 DLSO.°/30m               0.00:  Dogleg Oriented 
 DLSX.°/30m               0.00:  Dogleg Str Max 
 DRET.      20.20.00 28-Apr-21:  Drill End Time 
 DRST.      04.45.00 26-Apr-21:  Drill Start Tim 
 DTIM.hr                 34.30:  Time Drilling 
 EDEP.m                3618.01:  End Depth 
 ENG1.           Amrah Tahirov:  Engineer 1 
 ENG2.         Bahruz Mehdiyev:  Engineer 2 
 ENG3.         Farhad Orujzade:  Engineer 3 
 ETIM.      19.00.00 29-Apr-21:  End Time 
 FLOI.gpm               370.00:  Flow In 
 FLON.gpm               300.00:  Flow In Min 
 FLOS.cptm                0.00:  Fluid Loss 
 FLOX.gpm               410.00:  Flow In Max 
 HFLO.                      No:  High Flow 
 HPRE.                      No:  High Pressure 
 HTEM.                      No:  High Temp 
 HYDO.m                   1.80:  Hydro Offset 
 IFIN.deg                67.19:  Inc, Final 
 IMAX.deg                68.42:  Inc Max 
 IMIN.deg                66.33:  Inc Min 
 IMND.m                3532.79:  Inc Min Depth 
 IMXD.m                3192.15:  Inc Max Depth 
 JARR.                      No:  Jarring 
 LETM.      20.20.00 28-Apr-21:  Log End Time 
 LOST.hr                     0:  Lost Rig Time 
 LSTM.      04.45.00 26-Apr-21:  Log Start Time 
 MDCL.ppm             36500.00:  Mud Chlorides 
 MDES.     Inversion Oil/Synthetic:  Mud Desc 
 DFD .sg                  1.42:  Mud Density 
 MDMN.sg                  1.42:  Dens Mud Min 
 MDMX.sg                  1.42:  Dens Mud Max 
 MOIL.                    55.7:  Run Mud Oil % 
 MOWR.                   71:29:  Run Mud OWR 
 MSND.                     0.1:  Run Mud Sand % 
 MSOL.                    19.9:  Run Mud Solids% 
 DFV .spqt               83.00:  Mud Viscosity 
 MWOD.in                  5.15:  MWD Tool OD 
 MWSI.                      No:  Serv Intrp, MWD 
 OTIM.hr                120.59:  Time Operating 
 PCON.           Look Like New:  Pad Condition 
 PMAX.psia            11292.93:  Press Op, Max 
 PV  .cP                 27.00:  Mud PV 
 RUN .                     400:  Run Number 
 ROPA.m/hr               14.00:  ROP Avg 
 ROPN.m/hr                9.00:  ROP Min 
 ROPX.m/hr               18.00:  ROP Max 
 RPMA.rpm               130.00:  RPM Surface Avg 
 RPMN.rpm               100.00:  RPM Surface Min 
 RPMX.rpm               140.00:  RPM Surface Max 
 RRUN.                    0400:  Rig Run Number 
 RTIM.hr                 38.60:  Time Reaming 
 SAZI.deg               149.55:  Azm, Start 
 SDEP.m                3180.01:  Start Depth 
 SIDD.                      No:  Serv Intrp, DD 
 SINC.deg                68.42:  Inc, Start 
 SPPA.psig             4400.00:  SPP Avg 
 SPPN.psig             3580.00:  SPP Min 
 SPPX.psig             4850.00:  SPP Max 
 STIM.      12.30.00 24-Apr-21:  Start Time 
 SVCS.                 DD, MWD:  Services 
 SVER.                    9.20:  Sperry Version 
 TDAT.m                 438.00:  Tot Depth Attmp 
 TDDF.                      No:  Trip for DD 
 TDLG.m                 438.00:  Tot Depth Loggd 
 TFF .                      No:  Trip for Fail 
 TQAA.f-kp               11.00:  Torque Abs Avg 
 TQAN.f-kp                9.00:  Torque Abs Min 
 TQAX.f-kp               14.00:  Torque Abs Max 
 TRRT.°/30m               0.04:  Turn Rotating 
 MRT .                    HCIM:  Maximum Recorded Temperature 
 TTMX.degC               84.31:  Max Tool Temp 
 VS01.                90521954:  Virtual Str1 SN 
 VS02.                90519327:  Virtual Str2 SN 
 VS03.                90522273:  Virtual Str3 SN 
 VS04.                11108038:  Virtual Str4 SN 
 VS05.                12258760:  Virtual Str5 SN 
 WBMN.klb                 1.00:  WOB Min 
 WITN.           Adil Mammadov:  Customer Rep 
 WITN.         Alex Yadullayev:  Customer Rep 2 
 WOBA.klb                 6.00:  WOB Avg 
 WOBX.klb                 9.00:  WOB Max 
 YP  .lhf2               31.00:  Yield Point 
~Curve Information Block
#MNEM.UNIT                 API CODE     Curve Description
#---------               -----------    ---------------------------
 TIME.HHMMSS            00 000 000 000:  GT Time & Date
 GTDEPTH.m              00 000 000 000:  GT Depth
 GTPQH.psia             00 000 000 000:  GT HR Quartz Pressure
 GTTQ.degC              00 000 000 000:  GT Quartz Temperature
 GTTN.NONE              00 000 000 000:  GT Test Number
 GTET.sec               00 000 000 000:  GT Elapsed Test Time
 GTTVD.m                00 000 000 000:  GT True Vertical Depth
#Other Information
#
#WARRANTY: Halliburton will use its best efforts to furnish customers with 
#accurate information and interpretations that are part of, and incident to, the services 
#provided.  However, Halliburton cannot and does not warrant the accuracy 
#or correctness of such information and interpretations.  Under no circumstances should any 
#such information or interpretation be relied upon as the sole basis for any drilling, 
#completion, production, or financial decision or any procedure involving any risk to the 
#safety of any drilling venture, drilling rig or its crew or any other third party.  The 
#Customer has full responsibility for all drilling, completion and production operation.  
#Halliburton makes no representations or warranties, either expressed or 
#implied, including, but not limited to, the implied warranties of merchantability or fitness 
#for a particular purpose, with respect to the services rendered.  In no event will 
#Halliburton be liable for failure to obtain any particular results or for 
#any damages, including, but not limited to, indirect, special or consequential damages, 
#resulting from the use of any information or interpretation provided by Halliburton.
#
~A           TIME           GTDEPTH  GTPQH  GTTQ  GTTN  GTET   GTTVD  
# ...
   19:04:24.638.27-Apr-2021 3392.01 3474.42 73.33 5.00  46.01 2716.87
   19:04:24.838.27-Apr-2021 3392.01 3474.42 73.33 5.00  46.21 2716.87
   19:04:25.038.27-Apr-2021 3392.01 3474.45 73.33 5.00  46.41 2716.87
   19:04:25.238.27-Apr-2021 3392.01 3474.48 73.33 5.00  46.61 2716.87
   19:04:25.438.27-Apr-2021 3392.01 3474.43 73.33 5.00  46.81 2716.87
   19:04:25.638.27-Apr-2021 3392.01 3474.50 73.33 5.00  47.01 2716.87
   19:04:25.838.27-Apr-2021 3392.01 3474.50 73.33 5.00  47.21 2716.87
   19:04:26.038.27-Apr-2021 3392.01 3474.51 73.33 5.00  47.41 2716.87
   19:04:26.238.27-Apr-2021 3392.01 3474.49 73.33 5.00  47.61 2716.87
   19:04:26.439.27-Apr-2021 3392.01 3474.46 73.33 5.00  47.81 2716.87
   19:04:26.639.27-Apr-2021 3392.01 3474.55 73.32 5.00  48.01 2716.87
   19:04:26.839.27-Apr-2021 3392.01 3474.55 73.32 5.00  48.21 2716.87
   19:04:27.039.27-Apr-2021 3392.01 3474.51 73.32 5.00  48.41 2716.87
   19:04:27.239.27-Apr-2021 3392.01 3474.43 73.32 5.00  48.61 2716.87
   19:04:27.439.27-Apr-2021 3392.01 3474.45 73.32 5.00  48.81 2716.87
   19:04:27.639.27-Apr-2021 3392.01 3474.48 73.32 5.00  49.01 2716.87
   19:04:27.839.27-Apr-2021 3392.01 3474.48 73.32 5.00  49.21 2716.87
   19:04:28.039.27-Apr-2021 3392.01 3474.48 73.32 5.00  49.41 2716.87
   19:04:28.239.27-Apr-2021 3392.01 3474.49 73.32 5.00  49.61 2716.87
   19:04:28.439.27-Apr-2021 3392.01 3474.51 73.32 5.00  49.81 2716.87
   19:04:28.639.27-Apr-2021 3392.01 3474.49 73.32 5.00  50.01 2716.87
   19:04:28.839.27-Apr-2021 3392.01 3474.49 73.32 5.00  50.21 2716.87
   19:04:29.039.27-Apr-2021 3392.01 3474.47 73.32 5.00  50.41 2716.87
   19:04:29.239.27-Apr-2021 3392.01 3474.57 73.32 5.00  50.61 2716.87
   19:04:29.439.27-Apr-2021 3392.01 3474.54 73.32 5.00  50.81 2716.87
   19:04:29.639.27-Apr-2021 3392.01 3474.32 73.32 5.00  51.01 2716.87
   19:04:29.839.27-Apr-2021 3392.01 3474.32 73.32 5.00  51.21 2716.87
   19:04:30.039.27-Apr-2021 3392.01 3474.50 73.32 5.00  51.41 2716.87
   19:04:30.239.27-Apr-2021 3392.01 3474.46 73.31 5.00  51.61 2716.87
   19:04:30.439.27-Apr-2021 3392.01 3474.51 73.31 5.00  51.81 2716.87
   19:04:30.640.27-Apr-2021 3392.01 3474.36 73.31 5.00  52.01 2716.87
   19:04:30.840.27-Apr-2021 3392.01 3474.36 73.31 5.00  52.21 2716.87
   19:04:31.040.27-Apr-2021 3392.01 3474.51 73.31 5.00  52.41 2716.87
   19:04:31.240.27-Apr-2021 3392.01 3474.44 73.31 5.00  52.61 2716.87
   19:04:31.440.27-Apr-2021 3392.01 3474.49 73.31 5.00  52.81 2716.87
   19:04:31.640.27-Apr-2021 3392.01 3474.40 73.31 5.00  53.01 2716.87
   19:04:31.840.27-Apr-2021 3392.01 3474.40 73.31 5.00  53.21 2716.87
   19:04:32.040.27-Apr-2021 3392.01 3474.51 73.31 5.00  53.41 2716.87
   19:04:32.240.27-Apr-2021 3392.01 3474.46 73.31 5.00  53.61 2716.87
   19:04:32.440.27-Apr-2021 3392.01 3474.52 73.31 5.00  53.81 2716.87
   19:04:32.640.27-Apr-2021 3392.01 3474.41 73.31 5.00  54.01 2716.87
   19:04:32.840.27-Apr-2021 3392.01 3474.41 73.31 5.00  54.21 2716.87
   19:04:33.040.27-Apr-2021 3392.01 3474.45 73.31 5.00  54.41 2716.87
   19:04:33.240.27-Apr-2021 3392.01 3474.49 73.31 5.00  54.61 2716.87
   19:04:33.440.27-Apr-2021 3392.01 3474.47 73.30 5.00  54.81 2716.87
   19:04:33.640.27-Apr-2021 3392.01 3474.49 73.30 5.00  55.01 2716.87
   19:04:33.840.27-Apr-2021 3392.01 3474.49 73.30 5.00  55.21 2716.87
   19:04:34.040.27-Apr-2021 3392.01 3474.50 73.30 5.00  55.41 2716.87
   19:04:34.240.27-Apr-2021 3392.01 3474.50 73.30 5.00  55.61 2716.87
   19:04:34.440.27-Apr-2021 3392.01 3474.47 73.30 5.00  55.81 2716.87
   19:04:34.641.27-Apr-2021 3392.01 3474.54 73.30 5.00  56.01 2716.87
   19:04:34.841.27-Apr-2021 3392.01 3474.54 73.30 5.00  56.21 2716.87
   19:04:35.041.27-Apr-2021 3392.01 3474.52 73.30 5.00  56.41 2716.87
   19:04:35.241.27-Apr-2021 3392.01 3474.50 73.30 5.00  56.61 2716.87
   19:04:35.441.27-Apr-2021 3392.01 3474.31 73.30 5.00  56.81 2716.87
   19:04:35.641.27-Apr-2021 3392.01 3474.53 73.30 5.00  57.01 2716.87
   19:04:35.841.27-Apr-2021 3392.01 3474.53 73.30 5.00  57.21 2716.87
   19:04:36.041.27-Apr-2021 3392.01 3474.44 73.30 5.00  57.41 2716.87
   19:04:36.241.27-Apr-2021 3392.01 3474.49 73.30 5.00  57.61 2716.87
   19:04:36.441.27-Apr-2021 3392.01 3474.50 73.30 5.00  57.81 2716.87
   19:04:36.641.27-Apr-2021 3392.01 3474.46 73.30 5.00  58.01 2716.87
   19:04:36.841.27-Apr-2021 3392.01 3474.46 73.30 5.00  58.21 2716.87
   19:04:37.041.27-Apr-2021 3392.01 3474.47 73.29 5.00  58.41 2716.87
   19:04:37.241.27-Apr-2021 3392.01 3474.53 73.29 5.00  58.61 2716.87
   19:04:37.441.27-Apr-2021 3392.01 3474.49 73.29 5.00  58.81 2716.87
   19:04:37.641.27-Apr-2021 3392.01 3474.51 73.29 5.00  59.01 2716.87
   19:04:37.841.27-Apr-2021 3392.01 3474.51 73.29 5.00  59.21 2716.87
   19:04:38.041.27-Apr-2021 3392.01 3474.48 73.29 5.00  59.41 2716.87
   19:04:38.241.27-Apr-2021 3392.01 3474.35 73.29 5.00  59.61 2716.87
   19:04:38.441.27-Apr-2021 3392.01 3474.50 73.29 5.00  59.81 2716.87
   19:04:38.641.27-Apr-2021 3392.01 3474.51 73.29 5.00  60.01 2716.87
   19:04:38.842.27-Apr-2021 3392.01 3474.51 73.29 5.00  60.21 2716.87
   19:04:39.042.27-Apr-2021 3392.01 3474.53 73.29 5.00  60.41 2716.87
   19:04:39.242.27-Apr-2021 3392.01 3474.26 73.29 5.00  60.61 2716.87
   19:04:39.442.27-Apr-2021 3392.01 3474.55 73.29 5.00  60.81 2716.87
   19:04:39.642.27-Apr-2021 3392.01 3474.48 73.29 5.00  61.01 2716.87
   19:04:39.842.27-Apr-2021 3392.01 3474.48 73.29 5.00  61.21 2716.87
   19:04:40.042.27-Apr-2021 3392.01 3474.35 73.29 5.00  61.42 2716.87
   19:04:40.242.27-Apr-2021 3392.01 3474.51 73.29 5.00  61.62 2716.87
   19:04:40.442.27-Apr-2021 3392.01 3474.46 73.29 5.00  61.82 2716.87
   19:04:40.642.27-Apr-2021 3392.01 3474.44 73.28 5.00  62.02 2716.87
   19:04:40.842.27-Apr-2021 3392.01 3474.44 73.28 5.00  62.22 2716.87
   19:04:41.042.27-Apr-2021 3392.01 3474.45 73.28 5.00  62.42 2716.87
   19:04:41.242.27-Apr-2021 3392.01 3474.29 73.28 5.00  62.62 2716.87
   19:04:41.442.27-Apr-2021 3392.01 3474.51 73.28 5.00  62.82 2716.87
   19:04:41.642.27-Apr-2021 3392.01 3474.49 73.28 5.00  63.02 2716.87
   19:04:41.842.27-Apr-2021 3392.01 3474.49 73.28 5.00  63.22 2716.87
   19:04:42.042.27-Apr-2021 3392.01 3474.47 73.28 5.00  63.42 2716.87
   19:04:42.242.27-Apr-2021 3392.01 3474.47 73.28 5.00  63.62 2716.87
   19:04:42.442.27-Apr-2021 3392.01 3474.43 73.28 5.00  63.82 2716.87
   19:04:42.642.27-Apr-2021 3392.01 3474.51 73.28 5.00  64.02 2716.87
   19:04:42.843.27-Apr-2021 3392.01 3474.51 73.28 5.00  64.22 2716.87
   19:04:43.043.27-Apr-2021 3392.01 3474.49 73.28 5.00  64.42 2716.87
   19:04:43.243.27-Apr-2021 3392.01 3474.45 73.28 5.00  64.62 2716.87
   19:04:43.443.27-Apr-2021 3392.01 3474.46 73.28 5.00  64.82 2716.87
   19:04:43.643.27-Apr-2021 3392.01 3474.47 73.28 5.00  65.02 2716.87
   19:04:43.843.27-Apr-2021 3392.01 3474.47 73.28 5.00  65.22 2716.87
   19:04:44.043.27-Apr-2021 3392.01 3474.30 73.28 5.00  65.42 2716.87
   19:04:44.243.27-Apr-2021 3392.01 3474.46 73.27 5.00  65.62 2716.87
   19:04:44.443.27-Apr-2021 3392.01 3474.49 73.27 5.00  65.82 2716.87
   19:04:44.643.27-Apr-2021 3392.01 3474.39 73.27 5.00  66.02 2716.87
   19:04:44.843.27-Apr-2021 3392.01 3474.39 73.27 5.00  66.22 2716.87
   19:04:45.043.27-Apr-2021 3392.01 3474.41 73.27 5.00  66.42 2716.87
   19:04:45.243.27-Apr-2021 3392.01 3474.46 73.27 5.00  66.62 2716.87
   19:04:45.443.27-Apr-2021 3392.01 3474.45 73.27 5.00  66.82 2716.87
   19:04:45.643.27-Apr-2021 3392.01 3474.44 73.27 5.00  67.02 2716.87
   19:04:45.843.27-Apr-2021 3392.01 3474.44 73.27 5.00  67.22 2716.87
   19:04:46.043.27-Apr-2021 3392.01 3474.44 73.27 5.00  67.42 2716.87
   19:04:46.243.27-Apr-2021 3392.01 3474.46 73.27 5.00  67.62 2716.87
   19:04:46.443.27-Apr-2021 3392.01 3474.45 73.27 5.00  67.82 2716.87
   19:04:46.643.27-Apr-2021 3392.01 3474.35 73.27 5.00  68.02 2716.87
   19:04:46.843.27-Apr-2021 3392.01 3474.35 73.27 5.00  68.22 2716.87
   19:04:47.044.27-Apr-2021 3392.01 3474.44 73.27 5.00  68.42 2716.87
   19:04:47.244.27-Apr-2021 3392.01 3474.40 73.27 5.00  68.62 2716.87
   19:04:47.444.27-Apr-2021 3392.01 3474.47 73.27 5.00  68.82 2716.87
