~Version Information
 VERS.                  2.0:   CWLS log ASCII Standard -VERSION 2.0
 WRAP.                   NO:   One line per depth step
~Well Information Block
#MNEM.UNIT     VALUE/NAME     DESCRIPTION
#---------     -----------    ---------------------------
 STRT.S             03:12:46 28-Apr-21: START TIME 03:12:46 28-Apr-21
 STOP.S             03:19:14 28-Apr-21: STOP TIME  03:19:14 28-Apr-21
 STEP.S                   0.00: STEP TIME
 NULL.                 -999.25: NULL VALUE
 DFWT.                        :  DIST FWL TEXT
 DFST.                        :  DIST FSL TEXT
 DMF .             Drill Floor:  DRILL MEAS FROM
 STIM.      02.00.00 12-Apr-21:  START TIME
 DATE.      02.00.00 02-May-21:  END TIME
 SPUD.               09-Apr-21:  SPUD DATE
 NREF.                    Grid:  NORTH REFERENCE
 HPTY.       Minimum Curvature:  HOLE POS TYPE
 DMOD.             Drill Model:  DRILL MOD DESC
 SVYD.                  Survey:  SURVEY DESC
 ILTD.               Lithology:  INTERP LTH DESC
 FTOP.          Formation Tops:  FORM TOPS DESC
 PDAT.          Mean Sea Level:  PERMANENT DATUM
 FLD .                     ACG:  FIELD NAME
 SON .        AZ-XX-0907021034:  JOB NUMBER
 CTRY.              Azerbaijan:  COUNTRY NAME
 WELL.                    E01x:  WELL NAME
 COMP.     BP Exploration (Caspian Sea) LTD.:  COMPANY
 UWI .            /AZE00001403:  UNIQUE WELL IDENTIFIER
 API .            /AZE00001403:  API NUMBER
 WTYP.                Deviated:  WELL TYPE
 MDS .        Operator Entered:  MAG DATA SOURCE
 BASE.              Azerbaijan:  LOGGING EQUIPMENT BASE LOCATION
 REGN.                   EESSA:  REGION
 PROV.                    Baku:  PROVINCE
 STAT.                    Baku:  STATE NAME
 SRVC.          Turan Drilling:  CONTRACTOR
 MWDS.                    Baku:  MWD SHOP
 JOBN.        AZ-XX-0907021034:  JOB TICKET NUMB
 RIG .                     DWG:  RIG NAME
 DOE .                     N/A:  DOE NUMBER
 DCON.         Sperry Drilling:  DIRECTNL CONTR
 UNIT.                     N/A:  LOGGING EQUIPMENT ID
 CNTY.                        :  COUNTY
 LOC .                        :  LOCATION
 LMF .             Drill Floor:  LOG MEASURED FROM
 TVDS.m                  43.16:  TVDSS CORRECTN
 LATI.deg                40.17:  LATITUDE
 LONG.deg                51.17:  LONGITUDE
 WHNS.m                  -5.90:  WELL HEAD N/S
 WHEW.m                  -6.61:  WELL HEAD E/W
 UTMX.m              514337.95:  UTM X
 UTMY.m             4448627.46:  UTM Y
 DFWL.m                   0.00:  DISTANCE FWL
 DFSL.m                   0.00:  DISTANCE FSL
 SDEP.m                2606.87:  START DEPTH
 TDD .m                3618.01:  TOTAL DEPTH (DRILLER)
 VSDR.deg               177.42:  VERT SEC DIRECT
 GVFD.g                   1.00:  GRAVITY FIELD
 MFLD.nT              50399.00:  MAGNETIC FIELD
 MDIP.deg                59.67:  MAGNETIC DIP
 MDEC.deg                 6.56:  MAGNETIC DECL
 GRDC.deg                 0.11:  GRID CORRECTION
 AZTC.deg                 6.45:  AZM TOTAL CORR
 EPD .m                   0.00:  ELEVATION
 EGL .m                   0.00:  GROUND ELEVATION
 WDMS.m                 176.20:  WD ELEV
 APD .m                  43.16:  DEPTH ABOVE PD
 DEP .m                2606.87:  DEPTH
 AGAP.m                  43.16:  AIR GAP
 VSEW.m                  -6.61:  VERT SEC E/W
 VSNS.m                  -5.90:  VERT SEC N/S
 EKB .m                  43.16:  KB ELEVATION
 EDF .m                  43.16:  DF ELEVATION
 TDL .m                 438.00:  TOTAL DEPTH (LOGGER)
 VSC .                       0:  VS TO CLOSURE
 MAGU.                 1855490:  MAGUTM CHECKSUM
~Parameter Information Block
#MNEM.UNIT       Value        Description
#---------     -----------    ---------------------------
 AV  .mps                 2.20:  Ann Velocity 
 AVMX.mps                 2.50:  Max Ann Veloc 
 AZIF.deg               150.21:  Azm, Final 
 BHAT.        Rotary Steerable:  BHA Type 
 BROT.°/30m               0.08:  Build Rotating 
 BS  .in                  6.50:  Bit Size 
 BSZ .in                  6.50:  Bit Size 
 BTPL.psig              108.00:  Bit Press Loss 
 CABU.                     Yes:  Customer Abuse 
 CGEO.           Emin Aliyarli:  Customer Geo 
 COMM.                     ¬¼r:  Run Comments 1 
 TCS .hr                 74.20:  Time Ciculation Ended 
 CV  .mps                 3.63:  Crit Velocity 
 CVMX.mps                 3.66:  Max Crit Veloc 
 DD1 .         Intigam Rahimov:  Direct Drillr 1 
 DD2 .          Teymur Aghayev:  Direct Drillr 2 
 DDSV.               Geo-Pilot:  DD Service 
 DEFF.%                  97.00:  % Det Eff 
 DLRX.°/30m               1.63:  Dogleg Rot Max 
 DLSO.°/30m               0.00:  Dogleg Oriented 
 DLSX.°/30m               0.00:  Dogleg Str Max 
 DRET.      20.20.00 28-Apr-21:  Drill End Time 
 DRST.      04.45.00 26-Apr-21:  Drill Start Tim 
 DTIM.hr                 34.30:  Time Drilling 
 EDEP.m                3618.01:  End Depth 
 ENG1.           Amrah Tahirov:  Engineer 1 
 ENG2.         Bahruz Mehdiyev:  Engineer 2 
 ENG3.         Farhad Orujzade:  Engineer 3 
 ETIM.      19.00.00 29-Apr-21:  End Time 
 FLOI.gpm               370.00:  Flow In 
 FLON.gpm               300.00:  Flow In Min 
 FLOS.cptm                0.00:  Fluid Loss 
 FLOX.gpm               410.00:  Flow In Max 
 HFLO.                      No:  High Flow 
 HPRE.                      No:  High Pressure 
 HTEM.                      No:  High Temp 
 HYDO.m                   1.80:  Hydro Offset 
 IFIN.deg                67.19:  Inc, Final 
 IMAX.deg                68.42:  Inc Max 
 IMIN.deg                66.33:  Inc Min 
 IMND.m                3532.79:  Inc Min Depth 
 IMXD.m                3192.15:  Inc Max Depth 
 JARR.                      No:  Jarring 
 LETM.      20.20.00 28-Apr-21:  Log End Time 
 LOST.hr                     0:  Lost Rig Time 
 LSTM.      04.45.00 26-Apr-21:  Log Start Time 
 MDCL.ppm             36500.00:  Mud Chlorides 
 MDES.     Inversion Oil/Synthetic:  Mud Desc 
 DFD .sg                  1.42:  Mud Density 
 MDMN.sg                  1.42:  Dens Mud Min 
 MDMX.sg                  1.42:  Dens Mud Max 
 MOIL.                    55.7:  Run Mud Oil % 
 MOWR.                   71:29:  Run Mud OWR 
 MSND.                     0.1:  Run Mud Sand % 
 MSOL.                    19.9:  Run Mud Solids% 
 DFV .spqt               83.00:  Mud Viscosity 
 MWOD.in                  5.15:  MWD Tool OD 
 MWSI.                      No:  Serv Intrp, MWD 
 OTIM.hr                120.59:  Time Operating 
 PCON.           Look Like New:  Pad Condition 
 PMAX.psia            11292.93:  Press Op, Max 
 PV  .cP                 27.00:  Mud PV 
 RUN .                     400:  Run Number 
 ROPA.m/hr               14.00:  ROP Avg 
 ROPN.m/hr                9.00:  ROP Min 
 ROPX.m/hr               18.00:  ROP Max 
 RPMA.rpm               130.00:  RPM Surface Avg 
 RPMN.rpm               100.00:  RPM Surface Min 
 RPMX.rpm               140.00:  RPM Surface Max 
 RRUN.                    0400:  Rig Run Number 
 RTIM.hr                 38.60:  Time Reaming 
 SAZI.deg               149.55:  Azm, Start 
 SDEP.m                3180.01:  Start Depth 
 SIDD.                      No:  Serv Intrp, DD 
 SINC.deg                68.42:  Inc, Start 
 SPPA.psig             4400.00:  SPP Avg 
 SPPN.psig             3580.00:  SPP Min 
 SPPX.psig             4850.00:  SPP Max 
 STIM.      12.30.00 24-Apr-21:  Start Time 
 SVCS.                 DD, MWD:  Services 
 SVER.                    9.20:  Sperry Version 
 TDAT.m                 438.00:  Tot Depth Attmp 
 TDDF.                      No:  Trip for DD 
 TDLG.m                 438.00:  Tot Depth Loggd 
 TFF .                      No:  Trip for Fail 
 TQAA.f-kp               11.00:  Torque Abs Avg 
 TQAN.f-kp                9.00:  Torque Abs Min 
 TQAX.f-kp               14.00:  Torque Abs Max 
 TRRT.°/30m               0.04:  Turn Rotating 
 MRT .                    HCIM:  Maximum Recorded Temperature 
 TTMX.degC               84.31:  Max Tool Temp 
 VS01.                90521954:  Virtual Str1 SN 
 VS02.                90519327:  Virtual Str2 SN 
 VS03.                90522273:  Virtual Str3 SN 
 VS04.                11108038:  Virtual Str4 SN 
 VS05.                12258760:  Virtual Str5 SN 
 WBMN.klb                 1.00:  WOB Min 
 WITN.           Adil Mammadov:  Customer Rep 
 WITN.         Alex Yadullayev:  Customer Rep 2 
 WOBA.klb                 6.00:  WOB Avg 
 WOBX.klb                 9.00:  WOB Max 
 YP  .lhf2               31.00:  Yield Point 
~Curve Information Block
#MNEM.UNIT                 API CODE     Curve Description
#---------               -----------    ---------------------------
 TIME.HHMMSS            00 000 000 000:  GT Time & Date
 GTDEPTH.m              00 000 000 000:  GT Depth
 GTPQH.psia             00 000 000 000:  GT HR Quartz Pressure
 GTTQ.degC              00 000 000 000:  GT Quartz Temperature
 GTTN.NONE              00 000 000 000:  GT Test Number
 GTET.sec               00 000 000 000:  GT Elapsed Test Time
 GTTVD.m                00 000 000 000:  GT True Vertical Depth
#Other Information
#
#WARRANTY: Halliburton will use its best efforts to furnish customers with 
#accurate information and interpretations that are part of, and incident to, the services 
#provided.  However, Halliburton cannot and does not warrant the accuracy 
#or correctness of such information and interpretations.  Under no circumstances should any 
#such information or interpretation be relied upon as the sole basis for any drilling, 
#completion, production, or financial decision or any procedure involving any risk to the 
#safety of any drilling venture, drilling rig or its crew or any other third party.  The 
#Customer has full responsibility for all drilling, completion and production operation.  
#Halliburton makes no representations or warranties, either expressed or 
#implied, including, but not limited to, the implied warranties of merchantability or fitness 
#for a particular purpose, with respect to the services rendered.  In no event will 
#Halliburton be liable for failure to obtain any particular results or for 
#any damages, including, but not limited to, indirect, special or consequential damages, 
#resulting from the use of any information or interpretation provided by Halliburton.
#
~A           TIME           GTDEPTH  GTPQH  GTTQ  GTTN  GTET   GTTVD  
   03:12:46.811.28-Apr-2021 3448.01 6035.49 72.47 7.00   0.00 2738.99
   03:12:47.011.28-Apr-2021 3448.01 6035.49 72.47 7.00   0.20 2738.99
   03:12:47.211.28-Apr-2021 3448.01 6025.31 72.47 7.00   0.40 2738.99
   03:12:47.411.28-Apr-2021 3448.01 6039.12 72.47 7.00   0.60 2738.99
   03:12:47.611.28-Apr-2021 3448.01 6039.37 72.47 7.00   0.80 2738.99
   03:12:47.811.28-Apr-2021 3448.01 6033.27 72.47 7.00   1.00 2738.99
   03:12:48.011.28-Apr-2021 3448.01 6033.27 72.47 7.00   1.20 2738.99
   03:12:48.211.28-Apr-2021 3448.01 6038.88 72.47 7.00   1.40 2738.99
   03:12:48.411.28-Apr-2021 3448.01 6038.57 72.47 7.00   1.60 2738.99
   03:12:48.612.28-Apr-2021 3448.01 6030.69 72.47 7.00   1.80 2738.99
   03:12:48.812.28-Apr-2021 3448.01 6039.06 72.46 7.00   2.00 2738.99
   03:12:49.012.28-Apr-2021 3448.01 6039.06 72.46 7.00   2.20 2738.99
   03:12:49.212.28-Apr-2021 3448.01 6036.40 72.46 7.00   2.40 2738.99
   03:12:49.412.28-Apr-2021 3448.01 6038.91 72.46 7.00   2.60 2738.99
   03:12:49.612.28-Apr-2021 3448.01 6039.21 72.46 7.00   2.80 2738.99
   03:12:49.812.28-Apr-2021 3448.01 6039.22 72.46 7.00   3.00 2738.99
   03:12:50.012.28-Apr-2021 3448.01 6039.22 72.46 7.00   3.20 2738.99
   03:12:50.212.28-Apr-2021 3448.01 6025.27 72.46 7.00   3.40 2738.99
   03:12:50.412.28-Apr-2021 3448.01 6040.80 72.46 7.00   3.60 2738.99
   03:12:50.612.28-Apr-2021 3448.01 6039.07 72.46 7.00   3.80 2738.99
   03:12:50.812.28-Apr-2021 3448.01 6033.64 72.46 7.00   4.00 2738.99
   03:12:51.012.28-Apr-2021 3448.01 6033.64 72.46 7.00   4.20 2738.99
   03:12:51.212.28-Apr-2021 3448.01 6036.75 72.46 7.00   4.40 2738.99
   03:12:51.412.28-Apr-2021 3448.01 6034.62 72.46 7.00   4.60 2738.99
   03:12:51.612.28-Apr-2021 3448.01 6034.43 72.46 7.00   4.80 2738.99
   03:12:51.812.28-Apr-2021 3448.01 6034.81 72.46 7.00   5.00 2738.99
   03:12:52.012.28-Apr-2021 3448.01 6034.81 72.46 7.00   5.20 2738.99
   03:12:52.212.28-Apr-2021 3448.01 6037.75 72.46 7.00   5.40 2738.99
   03:12:52.412.28-Apr-2021 3448.01 6036.40 72.45 7.00   5.60 2738.99
   03:12:52.612.28-Apr-2021 3448.01 6037.30 72.45 7.00   5.80 2738.99
   03:12:52.812.28-Apr-2021 3448.01 6037.31 72.45 7.00   6.00 2738.99
   03:12:53.012.28-Apr-2021 3448.01 6037.31 72.45 7.00   6.20 2738.99
   03:12:53.212.28-Apr-2021 3448.01 6037.31 72.45 7.00   6.40 2738.99
   03:12:53.412.28-Apr-2021 3448.01 6040.14 72.45 7.00   6.60 2738.99
   03:12:53.612.28-Apr-2021 3448.01 6039.15 72.45 7.00   6.80 2738.99
   03:12:53.812.28-Apr-2021 3448.01 6035.34 72.45 7.00   7.00 2738.99
   03:12:54.012.28-Apr-2021 3448.01 6035.34 72.45 7.00   7.20 2738.99
   03:12:54.212.28-Apr-2021 3448.01 6037.51 72.45 7.00   7.40 2738.99
   03:12:54.412.28-Apr-2021 3448.01 6039.04 72.45 7.00   7.60 2738.99
   03:12:54.612.28-Apr-2021 3448.01 6037.37 72.45 7.00   7.80 2738.99
   03:12:54.812.28-Apr-2021 3448.01 6039.09 72.45 7.00   8.00 2738.99
   03:12:55.012.28-Apr-2021 3448.01 6039.09 72.45 7.00   8.20 2738.99
   03:12:55.212.28-Apr-2021 3448.01 6040.59 72.45 7.00   8.40 2738.99
   03:12:55.413.28-Apr-2021 3448.01 6040.06 72.45 7.00   8.60 2738.99
   03:12:55.613.28-Apr-2021 3448.01 6038.63 72.45 7.00   8.80 2738.99
   03:12:55.813.28-Apr-2021 3448.01 6040.88 72.45 7.00   9.00 2738.99
   03:12:56.013.28-Apr-2021 3448.01 6040.88 72.45 7.00   9.20 2738.99
   03:12:56.213.28-Apr-2021 3448.01 6038.52 72.44 7.00   9.40 2738.99
   03:12:56.413.28-Apr-2021 3448.01 6029.55 72.44 7.00   9.60 2738.99
   03:12:56.613.28-Apr-2021 3448.01 6039.29 72.44 7.00   9.80 2738.99
   03:12:56.813.28-Apr-2021 3448.01 6038.56 72.44 7.00  10.00 2738.99
   03:12:57.013.28-Apr-2021 3448.01 6038.56 72.44 7.00  10.20 2738.99
   03:12:57.213.28-Apr-2021 3448.01 6033.05 72.44 7.00  10.40 2738.99
   03:12:57.413.28-Apr-2021 3448.01 6012.45 72.44 7.00  10.60 2738.99
   03:12:57.613.28-Apr-2021 3448.01 6017.79 72.44 7.00  10.80 2738.99
   03:12:57.813.28-Apr-2021 3448.01 6009.18 72.44 7.00  11.00 2738.99
   03:12:58.013.28-Apr-2021 3448.01 6009.18 72.44 7.00  11.20 2738.99
   03:12:58.213.28-Apr-2021 3448.01 5978.40 72.44 7.00  11.40 2738.99
   03:12:58.413.28-Apr-2021 3448.01 5946.16 72.44 7.00  11.60 2738.99
   03:12:58.613.28-Apr-2021 3448.01 5931.70 72.44 7.00  11.80 2738.99
   03:12:58.813.28-Apr-2021 3448.01 6007.69 72.44 7.00  12.00 2738.99
   03:12:59.013.28-Apr-2021 3448.01 6007.69 72.44 7.00  12.20 2738.99
   03:12:59.213.28-Apr-2021 3448.01 5920.79 72.44 7.00  12.40 2738.99
   03:12:59.413.28-Apr-2021 3448.01 5913.70 72.44 7.00  12.60 2738.99
   03:12:59.613.28-Apr-2021 3448.01 5886.11 72.44 7.00  12.80 2738.99
   03:12:59.813.28-Apr-2021 3448.01 5901.98 72.43 7.00  13.00 2738.99
   03:13:00.013.28-Apr-2021 3448.01 5901.98 72.43 7.00  13.20 2738.99
   03:13:00.213.28-Apr-2021 3448.01 5903.22 72.43 7.00  13.40 2738.99
   03:13:00.413.28-Apr-2021 3448.01 5938.26 72.43 7.00  13.60 2738.99
   03:13:00.613.28-Apr-2021 3448.01 5921.20 72.43 7.00  13.80 2738.99
   03:13:00.813.28-Apr-2021 3448.01 5897.40 72.43 7.00  14.00 2738.99
   03:13:01.013.28-Apr-2021 3448.01 5897.40 72.43 7.00  14.20 2738.99
   03:13:01.213.28-Apr-2021 3448.01 5714.67 72.43 7.00  14.40 2738.99
   03:13:01.413.28-Apr-2021 3448.01 5652.30 72.43 7.00  14.60 2738.99
   03:13:01.613.28-Apr-2021 3448.01 5550.91 72.43 7.00  14.80 2738.99
   03:13:01.813.28-Apr-2021 3448.01 5467.80 72.43 7.00  15.00 2738.99
   03:13:02.013.28-Apr-2021 3448.01 5467.80 72.43 7.00  15.20 2738.99
   03:13:02.214.28-Apr-2021 3448.01 5335.27 72.43 7.00  15.40 2738.99
   03:13:02.414.28-Apr-2021 3448.01 5254.47 72.43 7.00  15.60 2738.99
   03:13:02.614.28-Apr-2021 3448.01 5179.92 72.43 7.00  15.80 2738.99
   03:13:02.814.28-Apr-2021 3448.01 5101.54 72.43 7.00  16.00 2738.99
   03:13:03.014.28-Apr-2021 3448.01 5101.54 72.43 7.00  16.20 2738.99
   03:13:03.214.28-Apr-2021 3448.01 5102.22 72.42 7.00  16.40 2738.99
   03:13:03.414.28-Apr-2021 3448.01 5094.14 72.42 7.00  16.60 2738.99
   03:13:03.614.28-Apr-2021 3448.01 5081.36 72.42 7.00  16.80 2738.99
   03:13:03.814.28-Apr-2021 3448.01 5114.89 72.42 7.00  17.00 2738.99
   03:13:04.014.28-Apr-2021 3448.01 5114.89 72.42 7.00  17.20 2738.99
   03:13:04.214.28-Apr-2021 3448.01 5163.52 72.42 7.00  17.40 2738.99
   03:13:04.414.28-Apr-2021 3448.01 6075.21 72.42 7.00  17.60 2738.99
   03:13:04.614.28-Apr-2021 3448.01 6568.59 72.42 7.00  17.80 2738.99
   03:13:04.814.28-Apr-2021 3448.01 6893.87 72.42 7.00  18.00 2738.99
   03:13:05.014.28-Apr-2021 3448.01 6893.87 72.42 7.00  18.20 2738.99
   03:13:05.214.28-Apr-2021 3448.01 7057.81 72.42 7.00  18.40 2738.99
   03:13:05.414.28-Apr-2021 3448.01 7089.19 72.42 7.00  18.60 2738.99
   03:13:05.614.28-Apr-2021 3448.01 7082.91 72.42 7.00  18.80 2738.99
   03:13:05.814.28-Apr-2021 3448.01 7053.25 72.42 7.00  19.00 2738.99
   03:13:06.014.28-Apr-2021 3448.01 7053.25 72.42 7.00  19.20 2738.99
   03:13:06.214.28-Apr-2021 3448.01 6873.37 72.41 7.00  19.40 2738.99
   03:13:06.414.28-Apr-2021 3448.01 6944.52 72.41 7.00  19.60 2738.99
   03:13:06.614.28-Apr-2021 3448.01 6992.65 72.41 7.00  19.80 2738.99
   03:13:06.814.28-Apr-2021 3448.01 7016.71 72.41 7.00  20.00 2738.99
   03:13:07.014.28-Apr-2021 3448.01 7016.71 72.41 7.00  20.20 2738.99
   03:13:07.214.28-Apr-2021 3448.01 7043.46 72.41 7.00  20.40 2738.99
   03:13:07.414.28-Apr-2021 3448.01 7046.37 72.41 7.00  20.60 2738.99
   03:13:07.614.28-Apr-2021 3448.01 7054.85 72.41 7.00  20.80 2738.99
   03:13:07.814.28-Apr-2021 3448.01 7061.52 72.41 7.00  21.00 2738.99
   03:13:08.014.28-Apr-2021 3448.01 7061.52 72.41 7.00  21.20 2738.99
   03:13:08.214.28-Apr-2021 3448.01 7067.13 72.41 7.00  21.40 2738.99
   03:13:08.414.28-Apr-2021 3448.01 7073.20 72.41 7.00  21.60 2738.99
   03:13:08.614.28-Apr-2021 3448.01 7076.61 72.41 7.00  21.80 2738.99
   03:13:08.814.28-Apr-2021 3448.01 7078.99 72.41 7.00  22.00 2738.99
   03:13:09.015.28-Apr-2021 3448.01 7078.99 72.41 7.00  22.20 2738.99
   03:13:09.215.28-Apr-2021 3448.01 7083.69 72.41 7.00  22.40 2738.99
   03:13:09.415.28-Apr-2021 3448.01 7087.28 72.41 7.00  22.60 2738.99
   03:13:09.615.28-Apr-2021 3448.01 7087.52 72.41 7.00  22.80 2738.99
