~Version Information
 VERS.                  2.0:   CWLS log ASCII Standard -VERSION 2.0
 WRAP.                   NO:   One line per depth step
~Well Information Block
#MNEM.UNIT     VALUE/NAME     DESCRIPTION
#---------     -----------    ---------------------------
 STRT.S             06:42:00 27-Apr-21: START TIME 06:42:00 27-Apr-21
 STOP.S             06:48:27 27-Apr-21: STOP TIME  06:48:27 27-Apr-21
 STEP.S                   0.00: STEP TIME
 NULL.                 -999.25: NULL VALUE
 DFWT.                        :  DIST FWL TEXT
 DFST.                        :  DIST FSL TEXT
 DMF .             Drill Floor:  DRILL MEAS FROM
 STIM.      02.00.00 12-Apr-21:  START TIME
 DATE.      02.00.00 02-May-21:  END TIME
 SPUD.               09-Apr-21:  SPUD DATE
 NREF.                    Grid:  NORTH REFERENCE
 HPTY.       Minimum Curvature:  HOLE POS TYPE
 DMOD.             Drill Model:  DRILL MOD DESC
 SVYD.                  Survey:  SURVEY DESC
 ILTD.               Lithology:  INTERP LTH DESC
 FTOP.          Formation Tops:  FORM TOPS DESC
 PDAT.          Mean Sea Level:  PERMANENT DATUM
 FLD .                     ACG:  FIELD NAME
 SON .        AZ-XX-0907021034:  JOB NUMBER
 CTRY.              Azerbaijan:  COUNTRY NAME
 WELL.                    E01x:  WELL NAME
 COMP.     BP Exploration (Caspian Sea) LTD.:  COMPANY
 UWI .            /AZE00001403:  UNIQUE WELL IDENTIFIER
 API .            /AZE00001403:  API NUMBER
 WTYP.                Deviated:  WELL TYPE
 MDS .        Operator Entered:  MAG DATA SOURCE
 BASE.              Azerbaijan:  LOGGING EQUIPMENT BASE LOCATION
 REGN.                   EESSA:  REGION
 PROV.                    Baku:  PROVINCE
 STAT.                    Baku:  STATE NAME
 SRVC.          Turan Drilling:  CONTRACTOR
 MWDS.                    Baku:  MWD SHOP
 JOBN.        AZ-XX-0907021034:  JOB TICKET NUMB
 RIG .                     DWG:  RIG NAME
 DOE .                     N/A:  DOE NUMBER
 DCON.         Sperry Drilling:  DIRECTNL CONTR
 UNIT.                     N/A:  LOGGING EQUIPMENT ID
 CNTY.                        :  COUNTY
 LOC .                        :  LOCATION
 LMF .             Drill Floor:  LOG MEASURED FROM
 TVDS.m                  43.16:  TVDSS CORRECTN
 LATI.deg                40.17:  LATITUDE
 LONG.deg                51.17:  LONGITUDE
 WHNS.m                  -5.90:  WELL HEAD N/S
 WHEW.m                  -6.61:  WELL HEAD E/W
 UTMX.m              514337.95:  UTM X
 UTMY.m             4448627.46:  UTM Y
 DFWL.m                   0.00:  DISTANCE FWL
 DFSL.m                   0.00:  DISTANCE FSL
 SDEP.m                2606.87:  START DEPTH
 TDD .m                3618.01:  TOTAL DEPTH (DRILLER)
 VSDR.deg               177.42:  VERT SEC DIRECT
 GVFD.g                   1.00:  GRAVITY FIELD
 MFLD.nT              50399.00:  MAGNETIC FIELD
 MDIP.deg                59.67:  MAGNETIC DIP
 MDEC.deg                 6.56:  MAGNETIC DECL
 GRDC.deg                 0.11:  GRID CORRECTION
 AZTC.deg                 6.45:  AZM TOTAL CORR
 EPD .m                   0.00:  ELEVATION
 EGL .m                   0.00:  GROUND ELEVATION
 WDMS.m                 176.20:  WD ELEV
 APD .m                  43.16:  DEPTH ABOVE PD
 DEP .m                2606.87:  DEPTH
 AGAP.m                  43.16:  AIR GAP
 VSEW.m                  -6.61:  VERT SEC E/W
 VSNS.m                  -5.90:  VERT SEC N/S
 EKB .m                  43.16:  KB ELEVATION
 EDF .m                  43.16:  DF ELEVATION
 TDL .m                 438.00:  TOTAL DEPTH (LOGGER)
 VSC .                       0:  VS TO CLOSURE
 MAGU.                 1855490:  MAGUTM CHECKSUM
~Parameter Information Block
#MNEM.UNIT       Value        Description
#---------     -----------    ---------------------------
 AV  .mps                 2.20:  Ann Velocity 
 AVMX.mps                 2.50:  Max Ann Veloc 
 AZIF.deg               150.21:  Azm, Final 
 BHAT.        Rotary Steerable:  BHA Type 
 BROT.°/30m               0.08:  Build Rotating 
 BS  .in                  6.50:  Bit Size 
 BSZ .in                  6.50:  Bit Size 
 BTPL.psig              108.00:  Bit Press Loss 
 CABU.                     Yes:  Customer Abuse 
 CGEO.           Emin Aliyarli:  Customer Geo 
 COMM.                     )M:  Run Comments 1 
 TCS .hr                 74.20:  Time Ciculation Ended 
 CV  .mps                 3.63:  Crit Velocity 
 CVMX.mps                 3.66:  Max Crit Veloc 
 DD1 .         Intigam Rahimov:  Direct Drillr 1 
 DD2 .          Teymur Aghayev:  Direct Drillr 2 
 DDSV.               Geo-Pilot:  DD Service 
 DEFF.%                  97.00:  % Det Eff 
 DLRX.°/30m               1.63:  Dogleg Rot Max 
 DLSO.°/30m               0.00:  Dogleg Oriented 
 DLSX.°/30m               0.00:  Dogleg Str Max 
 DRET.      20.20.00 28-Apr-21:  Drill End Time 
 DRST.      04.45.00 26-Apr-21:  Drill Start Tim 
 DTIM.hr                 34.30:  Time Drilling 
 EDEP.m                3618.01:  End Depth 
 ENG1.           Amrah Tahirov:  Engineer 1 
 ENG2.         Bahruz Mehdiyev:  Engineer 2 
 ENG3.         Farhad Orujzade:  Engineer 3 
 ETIM.      19.00.00 29-Apr-21:  End Time 
 FLOI.gpm               370.00:  Flow In 
 FLON.gpm               300.00:  Flow In Min 
 FLOS.cptm                0.00:  Fluid Loss 
 FLOX.gpm               410.00:  Flow In Max 
 HFLO.                      No:  High Flow 
 HPRE.                      No:  High Pressure 
 HTEM.                      No:  High Temp 
 HYDO.m                   1.80:  Hydro Offset 
 IFIN.deg                67.19:  Inc, Final 
 IMAX.deg                68.42:  Inc Max 
 IMIN.deg                66.33:  Inc Min 
 IMND.m                3532.79:  Inc Min Depth 
 IMXD.m                3192.15:  Inc Max Depth 
 JARR.                      No:  Jarring 
 LETM.      20.20.00 28-Apr-21:  Log End Time 
 LOST.hr                     0:  Lost Rig Time 
 LSTM.      04.45.00 26-Apr-21:  Log Start Time 
 MDCL.ppm             36500.00:  Mud Chlorides 
 MDES.     Inversion Oil/Synthetic:  Mud Desc 
 DFD .sg                  1.42:  Mud Density 
 MDMN.sg                  1.42:  Dens Mud Min 
 MDMX.sg                  1.42:  Dens Mud Max 
 MOIL.                    55.7:  Run Mud Oil % 
 MOWR.                   71:29:  Run Mud OWR 
 MSND.                     0.1:  Run Mud Sand % 
 MSOL.                    19.9:  Run Mud Solids% 
 DFV .spqt               83.00:  Mud Viscosity 
 MWOD.in                  5.15:  MWD Tool OD 
 MWSI.                      No:  Serv Intrp, MWD 
 OTIM.hr                120.59:  Time Operating 
 PCON.           Look Like New:  Pad Condition 
 PMAX.psia            11292.93:  Press Op, Max 
 PV  .cP                 27.00:  Mud PV 
 RUN .                     400:  Run Number 
 ROPA.m/hr               14.00:  ROP Avg 
 ROPN.m/hr                9.00:  ROP Min 
 ROPX.m/hr               18.00:  ROP Max 
 RPMA.rpm               130.00:  RPM Surface Avg 
 RPMN.rpm               100.00:  RPM Surface Min 
 RPMX.rpm               140.00:  RPM Surface Max 
 RRUN.                    0400:  Rig Run Number 
 RTIM.hr                 38.60:  Time Reaming 
 SAZI.deg               149.55:  Azm, Start 
 SDEP.m                3180.01:  Start Depth 
 SIDD.                      No:  Serv Intrp, DD 
 SINC.deg                68.42:  Inc, Start 
 SPPA.psig             4400.00:  SPP Avg 
 SPPN.psig             3580.00:  SPP Min 
 SPPX.psig             4850.00:  SPP Max 
 STIM.      12.30.00 24-Apr-21:  Start Time 
 SVCS.                 DD, MWD:  Services 
 SVER.                    9.20:  Sperry Version 
 TDAT.m                 438.00:  Tot Depth Attmp 
 TDDF.                      No:  Trip for DD 
 TDLG.m                 438.00:  Tot Depth Loggd 
 TFF .                      No:  Trip for Fail 
 TQAA.f-kp               11.00:  Torque Abs Avg 
 TQAN.f-kp                9.00:  Torque Abs Min 
 TQAX.f-kp               14.00:  Torque Abs Max 
 TRRT.°/30m               0.04:  Turn Rotating 
 MRT .                    HCIM:  Maximum Recorded Temperature 
 TTMX.degC               84.31:  Max Tool Temp 
 VS01.                90521954:  Virtual Str1 SN 
 VS02.                90519327:  Virtual Str2 SN 
 VS03.                90522273:  Virtual Str3 SN 
 VS04.                11108038:  Virtual Str4 SN 
 VS05.                12258760:  Virtual Str5 SN 
 WBMN.klb                 1.00:  WOB Min 
 WITN.           Adil Mammadov:  Customer Rep 
 WITN.         Alex Yadullayev:  Customer Rep 2 
 WOBA.klb                 6.00:  WOB Avg 
 WOBX.klb                 9.00:  WOB Max 
 YP  .lhf2               31.00:  Yield Point 
~Curve Information Block
#MNEM.UNIT                 API CODE     Curve Description
#---------               -----------    ---------------------------
 TIME.HHMMSS            00 000 000 000:  GT Time & Date
 GTDEPTH.m              00 000 000 000:  GT Depth
 GTPQH.psia             00 000 000 000:  GT HR Quartz Pressure
 GTTQ.degC              00 000 000 000:  GT Quartz Temperature
 GTTN.NONE              00 000 000 000:  GT Test Number
 GTET.sec               00 000 000 000:  GT Elapsed Test Time
 GTTVD.m                00 000 000 000:  GT True Vertical Depth
#Other Information
#
#WARRANTY: Halliburton will use its best efforts to furnish customers with 
#accurate information and interpretations that are part of, and incident to, the services 
#provided.  However, Halliburton cannot and does not warrant the accuracy 
#or correctness of such information and interpretations.  Under no circumstances should any 
#such information or interpretation be relied upon as the sole basis for any drilling, 
#completion, production, or financial decision or any procedure involving any risk to the 
#safety of any drilling venture, drilling rig or its crew or any other third party.  The 
#Customer has full responsibility for all drilling, completion and production operation.  
#Halliburton makes no representations or warranties, either expressed or 
#implied, including, but not limited to, the implied warranties of merchantability or fitness 
#for a particular purpose, with respect to the services rendered.  In no event will 
#Halliburton be liable for failure to obtain any particular results or for 
#any damages, including, but not limited to, indirect, special or consequential damages, 
#resulting from the use of any information or interpretation provided by Halliburton.
#
~A           TIME           GTDEPTH  GTPQH  GTTQ  GTTN  GTET   GTTVD  
# ...
   06:45:27.875.27-Apr-2021 3278.01 4380.17 73.77 4.00 207.02 2671.88
   06:45:28.075.27-Apr-2021 3278.01 4380.17 73.77 4.00 207.22 2671.88
   06:45:28.275.27-Apr-2021 3278.01 4380.07 73.77 4.00 207.42 2671.88
   06:45:28.475.27-Apr-2021 3278.01 4379.96 73.77 4.00 207.62 2671.88
   06:45:28.675.27-Apr-2021 3278.01 4379.58 73.77 4.00 207.82 2671.88
   06:45:28.875.27-Apr-2021 3278.01 4379.96 73.77 4.00 208.02 2671.88
   06:45:29.075.27-Apr-2021 3278.01 4379.96 73.77 4.00 208.22 2671.88
   06:45:29.275.27-Apr-2021 3278.01 4380.00 73.77 4.00 208.42 2671.88
   06:45:29.475.27-Apr-2021 3278.01 4380.17 73.77 4.00 208.62 2671.88
   06:45:29.675.27-Apr-2021 3278.01 4380.03 73.77 4.00 208.82 2671.88
   06:45:29.875.27-Apr-2021 3278.01 4380.11 73.77 4.00 209.02 2671.88
   06:45:30.075.27-Apr-2021 3278.01 4380.11 73.77 4.00 209.22 2671.88
   06:45:30.275.27-Apr-2021 3278.01 4380.24 73.77 4.00 209.42 2671.88
   06:45:30.475.27-Apr-2021 3278.01 4380.14 73.77 4.00 209.62 2671.88
   06:45:30.675.27-Apr-2021 3278.01 4380.15 73.77 4.00 209.82 2671.88
   06:45:30.875.27-Apr-2021 3278.01 4380.05 73.77 4.00 210.02 2671.88
   06:45:31.075.27-Apr-2021 3278.01 4380.05 73.77 4.00 210.22 2671.88
   06:45:31.275.27-Apr-2021 3278.01 4380.16 73.77 4.00 210.42 2671.88
   06:45:31.475.27-Apr-2021 3278.01 4379.67 73.77 4.00 210.62 2671.88
   06:45:31.675.27-Apr-2021 3278.01 4380.10 73.76 4.00 210.82 2671.88
   06:45:31.875.27-Apr-2021 3278.01 4379.91 73.76 4.00 211.02 2671.88
   06:45:32.075.27-Apr-2021 3278.01 4379.91 73.76 4.00 211.22 2671.88
   06:45:32.275.27-Apr-2021 3278.01 4379.88 73.76 4.00 211.42 2671.88
   06:45:32.475.27-Apr-2021 3278.01 4380.08 73.76 4.00 211.62 2671.88
   06:45:32.675.27-Apr-2021 3278.01 4379.89 73.76 4.00 211.82 2671.88
   06:45:32.875.27-Apr-2021 3278.01 4380.29 73.76 4.00 212.02 2671.88
   06:45:33.075.27-Apr-2021 3278.01 4380.29 73.76 4.00 212.22 2671.88
   06:45:33.275.27-Apr-2021 3278.01 4379.84 73.76 4.00 212.42 2671.88
   06:45:33.475.27-Apr-2021 3278.01 4380.23 73.76 4.00 212.62 2671.88
   06:45:33.675.27-Apr-2021 3278.01 4380.29 73.76 4.00 212.82 2671.88
   06:45:33.875.27-Apr-2021 3278.01 4380.26 73.76 4.00 213.02 2671.88
   06:45:34.075.27-Apr-2021 3278.01 4380.26 73.76 4.00 213.22 2671.88
   06:45:34.275.27-Apr-2021 3278.01 4380.08 73.76 4.00 213.42 2671.88
   06:45:34.475.27-Apr-2021 3278.01 4380.06 73.76 4.00 213.62 2671.88
   06:45:34.675.27-Apr-2021 3278.01 4380.31 73.76 4.00 213.82 2671.88
   06:45:34.875.27-Apr-2021 3278.01 4380.41 73.76 4.00 214.02 2671.88
   06:45:35.075.27-Apr-2021 3278.01 4380.41 73.76 4.00 214.22 2671.88
   06:45:35.275.27-Apr-2021 3278.01 4380.36 73.76 4.00 214.42 2671.88
   06:45:35.475.27-Apr-2021 3278.01 4380.23 73.76 4.00 214.62 2671.88
   06:45:35.675.27-Apr-2021 3278.01 4380.37 73.75 4.00 214.82 2671.88
   06:45:35.875.27-Apr-2021 3278.01 4380.35 73.75 4.00 215.02 2671.88
   06:45:36.075.27-Apr-2021 3278.01 4380.35 73.75 4.00 215.22 2671.88
   06:45:36.275.27-Apr-2021 3278.01 4380.23 73.75 4.00 215.42 2671.88
   06:45:36.475.27-Apr-2021 3278.01 4380.20 73.75 4.00 215.62 2671.88
   06:45:36.675.27-Apr-2021 3278.01 4380.08 73.75 4.00 215.82 2671.88
   06:45:36.875.27-Apr-2021 3278.01 4379.85 73.75 4.00 216.02 2671.88
   06:45:37.075.27-Apr-2021 3278.01 4379.85 73.75 4.00 216.22 2671.88
   06:45:37.275.27-Apr-2021 3278.01 4380.27 73.75 4.00 216.42 2671.88
   06:45:37.475.27-Apr-2021 3278.01 4380.38 73.75 4.00 216.62 2671.88
   06:45:37.675.27-Apr-2021 3278.01 4380.25 73.75 4.00 216.82 2671.88
   06:45:37.875.27-Apr-2021 3278.01 4380.36 73.75 4.00 217.02 2671.88
   06:45:38.075.27-Apr-2021 3278.01 4380.36 73.75 4.00 217.22 2671.88
   06:45:38.275.27-Apr-2021 3278.01 4380.46 73.75 4.00 217.42 2671.88
   06:45:38.476.27-Apr-2021 3278.01 4380.35 73.75 4.00 217.62 2671.88
   06:45:38.676.27-Apr-2021 3278.01 4380.44 73.75 4.00 217.82 2671.88
   06:45:38.876.27-Apr-2021 3278.01 4380.22 73.75 4.00 218.02 2671.88
   06:45:39.076.27-Apr-2021 3278.01 4380.22 73.75 4.00 218.22 2671.88
   06:45:39.276.27-Apr-2021 3278.01 4380.32 73.75 4.00 218.42 2671.88
   06:45:39.476.27-Apr-2021 3278.01 4380.22 73.75 4.00 218.62 2671.88
   06:45:39.676.27-Apr-2021 3278.01 4379.96 73.74 4.00 218.82 2671.88
   06:45:39.876.27-Apr-2021 3278.01 4380.20 73.74 4.00 219.02 2671.88
   06:45:40.076.27-Apr-2021 3278.01 4380.20 73.74 4.00 219.22 2671.88
   06:45:40.276.27-Apr-2021 3278.01 4380.25 73.74 4.00 219.42 2671.88
   06:45:40.476.27-Apr-2021 3278.01 4380.16 73.74 4.00 219.62 2671.88
   06:45:40.676.27-Apr-2021 3278.01 4380.24 73.74 4.00 219.82 2671.88
   06:45:40.876.27-Apr-2021 3278.01 4380.48 73.74 4.00 220.02 2671.88
   06:45:41.076.27-Apr-2021 3278.01 4380.48 73.74 4.00 220.22 2671.88
   06:45:41.276.27-Apr-2021 3278.01 4380.09 73.74 4.00 220.42 2671.88
   06:45:41.476.27-Apr-2021 3278.01 4380.50 73.74 4.00 220.62 2671.88
   06:45:41.676.27-Apr-2021 3278.01 4380.38 73.74 4.00 220.82 2671.88
   06:45:41.876.27-Apr-2021 3278.01 4380.47 73.74 4.00 221.02 2671.88
   06:45:42.076.27-Apr-2021 3278.01 4380.47 73.74 4.00 221.22 2671.88
   06:45:42.276.27-Apr-2021 3278.01 4379.79 73.74 4.00 221.42 2671.88
   06:45:42.476.27-Apr-2021 3278.01 4380.50 73.74 4.00 221.62 2671.88
   06:45:42.676.27-Apr-2021 3278.01 4380.32 73.74 4.00 221.82 2671.88
   06:45:42.876.27-Apr-2021 3278.01 4380.65 73.74 4.00 222.02 2671.88
   06:45:43.076.27-Apr-2021 3278.01 4380.65 73.74 4.00 222.22 2671.88
   06:45:43.276.27-Apr-2021 3278.01 4380.56 73.74 4.00 222.42 2671.88
   06:45:43.476.27-Apr-2021 3278.01 4380.36 73.73 4.00 222.62 2671.88
   06:45:43.676.27-Apr-2021 3278.01 4380.53 73.73 4.00 222.82 2671.88
   06:45:43.876.27-Apr-2021 3278.01 4380.52 73.73 4.00 223.02 2671.88
   06:45:44.076.27-Apr-2021 3278.01 4380.52 73.73 4.00 223.22 2671.88
   06:45:44.276.27-Apr-2021 3278.01 4380.42 73.73 4.00 223.42 2671.88
   06:45:44.476.27-Apr-2021 3278.01 4380.41 73.73 4.00 223.62 2671.88
   06:45:44.676.27-Apr-2021 3278.01 4380.35 73.73 4.00 223.82 2671.88
   06:45:44.876.27-Apr-2021 3278.01 4379.91 73.73 4.00 224.02 2671.88
   06:45:45.076.27-Apr-2021 3278.01 4379.91 73.73 4.00 224.22 2671.88
   06:45:45.276.27-Apr-2021 3278.01 4380.36 73.73 4.00 224.42 2671.88
   06:45:45.476.27-Apr-2021 3278.01 4380.50 73.73 4.00 224.62 2671.88
   06:45:45.676.27-Apr-2021 3278.01 4380.52 73.73 4.00 224.82 2671.88
   06:45:45.876.27-Apr-2021 3278.01 4380.50 73.73 4.00 225.02 2671.88
   06:45:46.076.27-Apr-2021 3278.01 4380.50 73.73 4.00 225.22 2671.88
   06:45:46.276.27-Apr-2021 3278.01 4380.52 73.73 4.00 225.42 2671.88
   06:45:46.476.27-Apr-2021 3278.01 4380.58 73.73 4.00 225.62 2671.88
   06:45:46.676.27-Apr-2021 3278.01 4380.65 73.73 4.00 225.82 2671.88
   06:45:46.876.27-Apr-2021 3278.01 4380.52 73.73 4.00 226.02 2671.88
   06:45:47.076.27-Apr-2021 3278.01 4380.52 73.73 4.00 226.22 2671.88
   06:45:47.276.27-Apr-2021 3278.01 4380.51 73.73 4.00 226.42 2671.88
   06:45:47.476.27-Apr-2021 3278.01 4380.55 73.72 4.00 226.62 2671.88
   06:45:47.676.27-Apr-2021 3278.01 4380.03 73.72 4.00 226.82 2671.88
   06:45:47.876.27-Apr-2021 3278.01 4380.51 73.72 4.00 227.02 2671.88
   06:45:48.076.27-Apr-2021 3278.01 4380.51 73.72 4.00 227.22 2671.88
   06:45:48.276.27-Apr-2021 3278.01 4380.65 73.72 4.00 227.42 2671.88
   06:45:48.476.27-Apr-2021 3278.01 4379.90 73.72 4.00 227.62 2671.88
   06:45:48.676.27-Apr-2021 3278.01 4380.42 73.72 4.00 227.82 2671.88
   06:45:48.876.27-Apr-2021 3278.01 4380.27 73.72 4.00 228.02 2671.88
   06:45:49.076.27-Apr-2021 3278.01 4380.27 73.72 4.00 228.22 2671.88
   06:45:49.276.27-Apr-2021 3278.01 4380.60 73.72 4.00 228.42 2671.88
   06:45:49.476.27-Apr-2021 3278.01 4380.15 73.72 4.00 228.62 2671.88
   06:45:49.676.27-Apr-2021 3278.01 4380.67 73.72 4.00 228.82 2671.88
   06:45:49.876.27-Apr-2021 3278.01 4380.67 73.72 4.00 229.02 2671.88
   06:45:50.076.27-Apr-2021 3278.01 4380.67 73.72 4.00 229.22 2671.88
   06:45:50.277.27-Apr-2021 3278.01 4380.65 73.72 4.00 229.42 2671.88
   06:45:50.477.27-Apr-2021 3278.01 4380.11 73.72 4.00 229.62 2671.88
   06:45:50.677.27-Apr-2021 3278.01 4380.49 73.72 4.00 229.82 2671.88
