~Version Information
 VERS.                  2.0:   CWLS log ASCII Standard -VERSION 2.0
 WRAP.                   NO:   One line per depth step
~Well Information Block
#MNEM.UNIT     VALUE/NAME     DESCRIPTION
#---------     -----------    ---------------------------
 STRT.S             00:41:47 27-Apr-21: START TIME 00:41:47 27-Apr-21
 STOP.S             00:48:15 27-Apr-21: STOP TIME  00:48:15 27-Apr-21
 STEP.S                   0.00: STEP TIME
 NULL.                 -999.25: NULL VALUE
 DFWT.                        :  DIST FWL TEXT
 DFST.                        :  DIST FSL TEXT
 DMF .             Drill Floor:  DRILL MEAS FROM
 STIM.      02.00.00 12-Apr-21:  START TIME
 DATE.      02.00.00 02-May-21:  END TIME
 SPUD.               09-Apr-21:  SPUD DATE
 NREF.                    Grid:  NORTH REFERENCE
 HPTY.       Minimum Curvature:  HOLE POS TYPE
 DMOD.             Drill Model:  DRILL MOD DESC
 SVYD.                  Survey:  SURVEY DESC
 ILTD.               Lithology:  INTERP LTH DESC
 FTOP.          Formation Tops:  FORM TOPS DESC
 PDAT.          Mean Sea Level:  PERMANENT DATUM
 FLD .                     ACG:  FIELD NAME
 SON .        AZ-XX-0907021034:  JOB NUMBER
 CTRY.              Azerbaijan:  COUNTRY NAME
 WELL.                    E01x:  WELL NAME
 COMP.     BP Exploration (Caspian Sea) LTD.:  COMPANY
 UWI .            /AZE00001403:  UNIQUE WELL IDENTIFIER
 API .            /AZE00001403:  API NUMBER
 WTYP.                Deviated:  WELL TYPE
 MDS .        Operator Entered:  MAG DATA SOURCE
 BASE.              Azerbaijan:  LOGGING EQUIPMENT BASE LOCATION
 REGN.                   EESSA:  REGION
 PROV.                    Baku:  PROVINCE
 STAT.                    Baku:  STATE NAME
 SRVC.          Turan Drilling:  CONTRACTOR
 MWDS.                    Baku:  MWD SHOP
 JOBN.        AZ-XX-0907021034:  JOB TICKET NUMB
 RIG .                     DWG:  RIG NAME
 DOE .                     N/A:  DOE NUMBER
 DCON.         Sperry Drilling:  DIRECTNL CONTR
 UNIT.                     N/A:  LOGGING EQUIPMENT ID
 CNTY.                        :  COUNTY
 LOC .                        :  LOCATION
 LMF .             Drill Floor:  LOG MEASURED FROM
 TVDS.m                  43.16:  TVDSS CORRECTN
 LATI.deg                40.17:  LATITUDE
 LONG.deg                51.17:  LONGITUDE
 WHNS.m                  -5.90:  WELL HEAD N/S
 WHEW.m                  -6.61:  WELL HEAD E/W
 UTMX.m              514337.95:  UTM X
 UTMY.m             4448627.46:  UTM Y
 DFWL.m                   0.00:  DISTANCE FWL
 DFSL.m                   0.00:  DISTANCE FSL
 SDEP.m                2606.87:  START DEPTH
 TDD .m                3618.01:  TOTAL DEPTH (DRILLER)
 VSDR.deg               177.42:  VERT SEC DIRECT
 GVFD.g                   1.00:  GRAVITY FIELD
 MFLD.nT              50399.00:  MAGNETIC FIELD
 MDIP.deg                59.67:  MAGNETIC DIP
 MDEC.deg                 6.56:  MAGNETIC DECL
 GRDC.deg                 0.11:  GRID CORRECTION
 AZTC.deg                 6.45:  AZM TOTAL CORR
 EPD .m                   0.00:  ELEVATION
 EGL .m                   0.00:  GROUND ELEVATION
 WDMS.m                 176.20:  WD ELEV
 APD .m                  43.16:  DEPTH ABOVE PD
 DEP .m                2606.87:  DEPTH
 AGAP.m                  43.16:  AIR GAP
 VSEW.m                  -6.61:  VERT SEC E/W
 VSNS.m                  -5.90:  VERT SEC N/S
 EKB .m                  43.16:  KB ELEVATION
 EDF .m                  43.16:  DF ELEVATION
 TDL .m                 438.00:  TOTAL DEPTH (LOGGER)
 VSC .                       0:  VS TO CLOSURE
 MAGU.                 1855490:  MAGUTM CHECKSUM
~Parameter Information Block
#MNEM.UNIT       Value        Description
#---------     -----------    ---------------------------
 AV  .mps                 2.20:  Ann Velocity 
 AVMX.mps                 2.50:  Max Ann Veloc 
 AZIF.deg               150.21:  Azm, Final 
 BHAT.        Rotary Steerable:  BHA Type 
 BROT.°/30m               0.08:  Build Rotating 
 BS  .in                  6.50:  Bit Size 
 BSZ .in                  6.50:  Bit Size 
 BTPL.psig              108.00:  Bit Press Loss 
 CABU.                     Yes:  Customer Abuse 
 CGEO.           Emin Aliyarli:  Customer Geo 
 COMM.                     lJm:  Run Comments 1 
 TCS .hr                 74.20:  Time Ciculation Ended 
 CV  .mps                 3.63:  Crit Velocity 
 CVMX.mps                 3.66:  Max Crit Veloc 
 DD1 .         Intigam Rahimov:  Direct Drillr 1 
 DD2 .          Teymur Aghayev:  Direct Drillr 2 
 DDSV.               Geo-Pilot:  DD Service 
 DEFF.%                  97.00:  % Det Eff 
 DLRX.°/30m               1.63:  Dogleg Rot Max 
 DLSO.°/30m               0.00:  Dogleg Oriented 
 DLSX.°/30m               0.00:  Dogleg Str Max 
 DRET.      20.20.00 28-Apr-21:  Drill End Time 
 DRST.      04.45.00 26-Apr-21:  Drill Start Tim 
 DTIM.hr                 34.30:  Time Drilling 
 EDEP.m                3618.01:  End Depth 
 ENG1.           Amrah Tahirov:  Engineer 1 
 ENG2.         Bahruz Mehdiyev:  Engineer 2 
 ENG3.         Farhad Orujzade:  Engineer 3 
 ETIM.      19.00.00 29-Apr-21:  End Time 
 FLOI.gpm               370.00:  Flow In 
 FLON.gpm               300.00:  Flow In Min 
 FLOS.cptm                0.00:  Fluid Loss 
 FLOX.gpm               410.00:  Flow In Max 
 HFLO.                      No:  High Flow 
 HPRE.                      No:  High Pressure 
 HTEM.                      No:  High Temp 
 HYDO.m                   1.80:  Hydro Offset 
 IFIN.deg                67.19:  Inc, Final 
 IMAX.deg                68.42:  Inc Max 
 IMIN.deg                66.33:  Inc Min 
 IMND.m                3532.79:  Inc Min Depth 
 IMXD.m                3192.15:  Inc Max Depth 
 JARR.                      No:  Jarring 
 LETM.      20.20.00 28-Apr-21:  Log End Time 
 LOST.hr                     0:  Lost Rig Time 
 LSTM.      04.45.00 26-Apr-21:  Log Start Time 
 MDCL.ppm             36500.00:  Mud Chlorides 
 MDES.     Inversion Oil/Synthetic:  Mud Desc 
 DFD .sg                  1.42:  Mud Density 
 MDMN.sg                  1.42:  Dens Mud Min 
 MDMX.sg                  1.42:  Dens Mud Max 
 MOIL.                    55.7:  Run Mud Oil % 
 MOWR.                   71:29:  Run Mud OWR 
 MSND.                     0.1:  Run Mud Sand % 
 MSOL.                    19.9:  Run Mud Solids% 
 DFV .spqt               83.00:  Mud Viscosity 
 MWOD.in                  5.15:  MWD Tool OD 
 MWSI.                      No:  Serv Intrp, MWD 
 OTIM.hr                120.59:  Time Operating 
 PCON.           Look Like New:  Pad Condition 
 PMAX.psia            11292.93:  Press Op, Max 
 PV  .cP                 27.00:  Mud PV 
 RUN .                     400:  Run Number 
 ROPA.m/hr               14.00:  ROP Avg 
 ROPN.m/hr                9.00:  ROP Min 
 ROPX.m/hr               18.00:  ROP Max 
 RPMA.rpm               130.00:  RPM Surface Avg 
 RPMN.rpm               100.00:  RPM Surface Min 
 RPMX.rpm               140.00:  RPM Surface Max 
 RRUN.                    0400:  Rig Run Number 
 RTIM.hr                 38.60:  Time Reaming 
 SAZI.deg               149.55:  Azm, Start 
 SDEP.m                3180.01:  Start Depth 
 SIDD.                      No:  Serv Intrp, DD 
 SINC.deg                68.42:  Inc, Start 
 SPPA.psig             4400.00:  SPP Avg 
 SPPN.psig             3580.00:  SPP Min 
 SPPX.psig             4850.00:  SPP Max 
 STIM.      12.30.00 24-Apr-21:  Start Time 
 SVCS.                 DD, MWD:  Services 
 SVER.                    9.20:  Sperry Version 
 TDAT.m                 438.00:  Tot Depth Attmp 
 TDDF.                      No:  Trip for DD 
 TDLG.m                 438.00:  Tot Depth Loggd 
 TFF .                      No:  Trip for Fail 
 TQAA.f-kp               11.00:  Torque Abs Avg 
 TQAN.f-kp                9.00:  Torque Abs Min 
 TQAX.f-kp               14.00:  Torque Abs Max 
 TRRT.°/30m               0.04:  Turn Rotating 
 MRT .                    HCIM:  Maximum Recorded Temperature 
 TTMX.degC               84.31:  Max Tool Temp 
 VS01.                90521954:  Virtual Str1 SN 
 VS02.                90519327:  Virtual Str2 SN 
 VS03.                90522273:  Virtual Str3 SN 
 VS04.                11108038:  Virtual Str4 SN 
 VS05.                12258760:  Virtual Str5 SN 
 WBMN.klb                 1.00:  WOB Min 
 WITN.           Adil Mammadov:  Customer Rep 
 WITN.         Alex Yadullayev:  Customer Rep 2 
 WOBA.klb                 6.00:  WOB Avg 
 WOBX.klb                 9.00:  WOB Max 
 YP  .lhf2               31.00:  Yield Point 
~Curve Information Block
#MNEM.UNIT                 API CODE     Curve Description
#---------               -----------    ---------------------------
 TIME.HHMMSS            00 000 000 000:  GT Time & Date
 GTDEPTH.m              00 000 000 000:  GT Depth
 GTPQH.psia             00 000 000 000:  GT HR Quartz Pressure
 GTTQ.degC              00 000 000 000:  GT Quartz Temperature
 GTTN.NONE              00 000 000 000:  GT Test Number
 GTET.sec               00 000 000 000:  GT Elapsed Test Time
 GTTVD.m                00 000 000 000:  GT True Vertical Depth
#Other Information
#
#WARRANTY: Halliburton will use its best efforts to furnish customers with 
#accurate information and interpretations that are part of, and incident to, the services 
#provided.  However, Halliburton cannot and does not warrant the accuracy 
#or correctness of such information and interpretations.  Under no circumstances should any 
#such information or interpretation be relied upon as the sole basis for any drilling, 
#completion, production, or financial decision or any procedure involving any risk to the 
#safety of any drilling venture, drilling rig or its crew or any other third party.  The 
#Customer has full responsibility for all drilling, completion and production operation.  
#Halliburton makes no representations or warranties, either expressed or 
#implied, including, but not limited to, the implied warranties of merchantability or fitness 
#for a particular purpose, with respect to the services rendered.  In no event will 
#Halliburton be liable for failure to obtain any particular results or for 
#any damages, including, but not limited to, indirect, special or consequential damages, 
#resulting from the use of any information or interpretation provided by Halliburton.
#
~A           TIME           GTDEPTH  GTPQH  GTTQ  GTTN  GTET   GTTVD  
# ...
   00:42:10.730.27-Apr-2021 3226.01 6792.89 72.18 2.00  23.00 2651.33
   00:42:10.930.27-Apr-2021 3226.01 6792.89 72.18 2.00  23.20 2651.33
   00:42:11.130.27-Apr-2021 3226.01 6799.08 72.18 2.00  23.40 2651.33
   00:42:11.330.27-Apr-2021 3226.01 6801.50 72.18 2.00  23.60 2651.33
   00:42:11.530.27-Apr-2021 3226.01 6652.55 72.18 2.00  23.80 2651.33
   00:42:11.730.27-Apr-2021 3226.01 5806.65 72.18 2.00  24.00 2651.33
   00:42:11.931.27-Apr-2021 3226.01 5806.65 72.18 2.00  24.20 2651.33
   00:42:12.131.27-Apr-2021 3226.01 5303.50 72.18 2.00  24.40 2651.33
   00:42:12.331.27-Apr-2021 3226.01 4278.59 72.18 2.00  24.60 2651.33
   00:42:12.531.27-Apr-2021 3226.01 4241.06 72.18 2.00  24.80 2651.33
   00:42:12.731.27-Apr-2021 3226.01 4241.53 72.18 2.00  25.00 2651.33
   00:42:12.931.27-Apr-2021 3226.01 4241.53 72.18 2.00  25.20 2651.33
   00:42:13.131.27-Apr-2021 3226.01 4241.33 72.18 2.00  25.41 2651.33
   00:42:13.331.27-Apr-2021 3226.01 4241.05 72.18 2.00  25.61 2651.33
   00:42:13.531.27-Apr-2021 3226.01 4240.61 72.17 2.00  25.81 2651.33
   00:42:13.731.27-Apr-2021 3226.01 4240.42 72.17 2.00  26.01 2651.33
   00:42:13.931.27-Apr-2021 3226.01 4240.42 72.17 2.00  26.21 2651.33
   00:42:14.131.27-Apr-2021 3226.01 4240.47 72.17 2.00  26.41 2651.33
   00:42:14.331.27-Apr-2021 3226.01 4240.24 72.17 2.00  26.61 2651.33
   00:42:14.531.27-Apr-2021 3226.01 4240.50 72.17 2.00  26.81 2651.33
   00:42:14.731.27-Apr-2021 3226.01 4240.19 72.17 2.00  27.01 2651.33
   00:42:14.931.27-Apr-2021 3226.01 4240.19 72.17 2.00  27.21 2651.33
   00:42:15.131.27-Apr-2021 3226.01 4240.92 72.17 2.00  27.41 2651.33
   00:42:15.331.27-Apr-2021 3226.01 4240.81 72.16 2.00  27.61 2651.33
   00:42:15.531.27-Apr-2021 3226.01 4239.99 72.16 2.00  27.81 2651.33
   00:42:15.731.27-Apr-2021 3226.01 4240.75 72.16 2.00  28.01 2651.33
   00:42:15.931.27-Apr-2021 3226.01 4240.75 72.16 2.00  28.21 2651.33
   00:42:16.131.27-Apr-2021 3226.01 4243.15 72.16 2.00  28.41 2651.33
   00:42:16.331.27-Apr-2021 3226.01 4241.25 72.16 2.00  28.61 2651.33
   00:42:16.531.27-Apr-2021 3226.01 4240.67 72.16 2.00  28.81 2651.33
   00:42:16.731.27-Apr-2021 3226.01 4241.48 72.16 2.00  29.01 2651.33
   00:42:16.932.27-Apr-2021 3226.01 4241.48 72.16 2.00  29.21 2651.33
   00:42:17.132.27-Apr-2021 3226.01 4241.78 72.15 2.00  29.41 2651.33
   00:42:17.332.27-Apr-2021 3226.01 4241.85 72.15 2.00  29.61 2651.33
   00:42:17.532.27-Apr-2021 3226.01 4242.05 72.15 2.00  29.81 2651.33
   00:42:17.732.27-Apr-2021 3226.01 4242.11 72.15 2.00  30.01 2651.33
   00:42:17.932.27-Apr-2021 3226.01 4242.11 72.15 2.00  30.21 2651.33
   00:42:18.132.27-Apr-2021 3226.01 4244.51 72.15 2.00  30.41 2651.33
   00:42:18.332.27-Apr-2021 3226.01 4251.81 72.15 2.00  30.61 2651.33
   00:42:18.532.27-Apr-2021 3226.01 4248.07 72.14 2.00  30.81 2651.33
   00:42:18.732.27-Apr-2021 3226.01 4247.41 72.14 2.00  31.01 2651.33
   00:42:18.932.27-Apr-2021 3226.01 4247.41 72.14 2.00  31.21 2651.33
   00:42:19.132.27-Apr-2021 3226.01 4247.85 72.14 2.00  31.41 2651.33
   00:42:19.332.27-Apr-2021 3226.01 4247.78 72.14 2.00  31.61 2651.33
   00:42:19.532.27-Apr-2021 3226.01 4247.53 72.14 2.00  31.81 2651.33
   00:42:19.732.27-Apr-2021 3226.01 4247.62 72.14 2.00  32.01 2651.33
   00:42:19.932.27-Apr-2021 3226.01 4247.62 72.14 2.00  32.21 2651.33
   00:42:20.132.27-Apr-2021 3226.01 4247.45 72.14 2.00  32.41 2651.33
   00:42:20.332.27-Apr-2021 3226.01 4246.94 72.13 2.00  32.61 2651.33
   00:42:20.532.27-Apr-2021 3226.01 4247.53 72.13 2.00  32.81 2651.33
   00:42:20.732.27-Apr-2021 3226.01 4247.36 72.13 2.00  33.01 2651.33
   00:42:20.932.27-Apr-2021 3226.01 4247.36 72.13 2.00  33.21 2651.33
   00:42:21.132.27-Apr-2021 3226.01 4247.32 72.13 2.00  33.41 2651.33
   00:42:21.332.27-Apr-2021 3226.01 4247.36 72.13 2.00  33.61 2651.33
   00:42:21.532.27-Apr-2021 3226.01 4247.57 72.13 2.00  33.81 2651.33
   00:42:21.732.27-Apr-2021 3226.01 4270.14 72.13 2.00  34.01 2651.33
   00:42:21.932.27-Apr-2021 3226.01 4270.14 72.13 2.00  34.21 2651.33
   00:42:22.133.27-Apr-2021 3226.01 4272.51 72.13 2.00  34.41 2651.33
   00:42:22.333.27-Apr-2021 3226.01 4272.62 72.12 2.00  34.61 2651.33
   00:42:22.533.27-Apr-2021 3226.01 4272.80 72.12 2.00  34.81 2651.33
   00:42:22.733.27-Apr-2021 3226.01 4272.89 72.12 2.00  35.01 2651.33
   00:42:22.933.27-Apr-2021 3226.01 4272.89 72.12 2.00  35.21 2651.33
   00:42:23.133.27-Apr-2021 3226.01 4272.85 72.12 2.00  35.41 2651.33
   00:42:23.333.27-Apr-2021 3226.01 4273.24 72.12 2.00  35.61 2651.33
   00:42:23.533.27-Apr-2021 3226.01 4273.33 72.12 2.00  35.81 2651.33
   00:42:23.733.27-Apr-2021 3226.01 4273.36 72.12 2.00  36.01 2651.33
   00:42:23.933.27-Apr-2021 3226.01 4273.36 72.12 2.00  36.21 2651.33
   00:42:24.133.27-Apr-2021 3226.01 4273.41 72.12 2.00  36.41 2651.33
   00:42:24.333.27-Apr-2021 3226.01 4273.30 72.12 2.00  36.61 2651.33
   00:42:24.533.27-Apr-2021 3226.01 4273.56 72.11 2.00  36.81 2651.33
   00:42:24.733.27-Apr-2021 3226.01 4273.67 72.11 2.00  37.01 2651.33
   00:42:24.933.27-Apr-2021 3226.01 4273.67 72.11 2.00  37.21 2651.33
   00:42:25.133.27-Apr-2021 3226.01 4273.66 72.11 2.00  37.41 2651.33
   00:42:25.333.27-Apr-2021 3226.01 4273.44 72.11 2.00  37.61 2651.33
   00:42:25.533.27-Apr-2021 3226.01 4273.73 72.11 2.00  37.81 2651.33
   00:42:25.733.27-Apr-2021 3226.01 4273.75 72.11 2.00  38.01 2651.33
   00:42:25.933.27-Apr-2021 3226.01 4273.75 72.11 2.00  38.21 2651.33
   00:42:26.133.27-Apr-2021 3226.01 4273.70 72.11 2.00  38.41 2651.33
   00:42:26.333.27-Apr-2021 3226.01 4273.83 72.11 2.00  38.61 2651.33
   00:42:26.533.27-Apr-2021 3226.01 4273.77 72.11 2.00  38.81 2651.33
   00:42:26.733.27-Apr-2021 3226.01 4273.94 72.10 2.00  39.01 2651.33
   00:42:26.933.27-Apr-2021 3226.01 4273.94 72.10 2.00  39.21 2651.33
   00:42:27.134.27-Apr-2021 3226.01 4273.92 72.10 2.00  39.41 2651.33
   00:42:27.334.27-Apr-2021 3226.01 4273.90 72.10 2.00  39.61 2651.33
   00:42:27.534.27-Apr-2021 3226.01 4273.98 72.10 2.00  39.81 2651.33
   00:42:27.734.27-Apr-2021 3226.01 4273.94 72.10 2.00  40.01 2651.33
   00:42:27.934.27-Apr-2021 3226.01 4273.94 72.10 2.00  40.21 2651.33
   00:42:28.134.27-Apr-2021 3226.01 4273.98 72.10 2.00  40.41 2651.33
   00:42:28.334.27-Apr-2021 3226.01 4273.99 72.10 2.00  40.61 2651.33
   00:42:28.534.27-Apr-2021 3226.01 4273.98 72.10 2.00  40.81 2651.33
   00:42:28.734.27-Apr-2021 3226.01 4274.00 72.10 2.00  41.01 2651.33
   00:42:28.934.27-Apr-2021 3226.01 4274.00 72.10 2.00  41.21 2651.33
   00:42:29.134.27-Apr-2021 3226.01 4273.98 72.10 2.00  41.41 2651.33
   00:42:29.334.27-Apr-2021 3226.01 4274.06 72.09 2.00  41.61 2651.33
   00:42:29.534.27-Apr-2021 3226.01 4274.05 72.09 2.00  41.81 2651.33
   00:42:29.734.27-Apr-2021 3226.01 4274.10 72.09 2.00  42.01 2651.33
   00:42:29.934.27-Apr-2021 3226.01 4274.10 72.09 2.00  42.21 2651.33
   00:42:30.134.27-Apr-2021 3226.01 4274.15 72.09 2.00  42.41 2651.33
   00:42:30.334.27-Apr-2021 3226.01 4274.12 72.09 2.00  42.61 2651.33
   00:42:30.534.27-Apr-2021 3226.01 4274.21 72.09 2.00  42.81 2651.33
   00:42:30.734.27-Apr-2021 3226.01 4274.12 72.09 2.00  43.01 2651.33
   00:42:30.934.27-Apr-2021 3226.01 4274.12 72.09 2.00  43.21 2651.33
   00:42:31.134.27-Apr-2021 3226.01 4274.14 72.09 2.00  43.41 2651.33
   00:42:31.334.27-Apr-2021 3226.01 4274.23 72.09 2.00  43.61 2651.33
   00:42:31.534.27-Apr-2021 3226.01 4274.14 72.09 2.00  43.81 2651.33
   00:42:31.734.27-Apr-2021 3226.01 4274.21 72.09 2.00  44.01 2651.33
   00:42:31.934.27-Apr-2021 3226.01 4274.21 72.09 2.00  44.21 2651.33
   00:42:32.135.27-Apr-2021 3226.01 4274.16 72.08 2.00  44.41 2651.33
   00:42:32.335.27-Apr-2021 3226.01 4274.19 72.08 2.00  44.61 2651.33
   00:42:32.535.27-Apr-2021 3226.01 4274.26 72.08 2.00  44.81 2651.33
   00:42:32.735.27-Apr-2021 3226.01 4274.22 72.08 2.00  45.01 2651.33
   00:42:32.935.27-Apr-2021 3226.01 4274.22 72.08 2.00  45.21 2651.33
   00:42:33.135.27-Apr-2021 3226.01 4274.00 72.08 2.00  45.41 2651.33
   00:42:33.335.27-Apr-2021 3226.01 4274.26 72.08 2.00  45.61 2651.33
   00:42:33.535.27-Apr-2021 3226.01 4274.32 72.08 2.00  45.81 2651.33
