~Version Information
 VERS.                  2.0:   CWLS log ASCII Standard -VERSION 2.0
 WRAP.                   NO:   One line per depth step
~Well Information Block
#MNEM.UNIT     VALUE/NAME     DESCRIPTION
#---------     -----------    ---------------------------
 STRT.S             06:54:29 28-Apr-21: START TIME 06:54:29 28-Apr-21
 STOP.S             07:00:57 28-Apr-21: STOP TIME  07:00:57 28-Apr-21
 STEP.S                   0.00: STEP TIME
 NULL.                 -999.25: NULL VALUE
 DFWT.                        :  DIST FWL TEXT
 DFST.                        :  DIST FSL TEXT
 DMF .             Drill Floor:  DRILL MEAS FROM
 STIM.      02.00.00 12-Apr-21:  START TIME
 DATE.      02.00.00 02-May-21:  END TIME
 SPUD.               09-Apr-21:  SPUD DATE
 NREF.                    Grid:  NORTH REFERENCE
 HPTY.       Minimum Curvature:  HOLE POS TYPE
 DMOD.             Drill Model:  DRILL MOD DESC
 SVYD.                  Survey:  SURVEY DESC
 ILTD.               Lithology:  INTERP LTH DESC
 FTOP.          Formation Tops:  FORM TOPS DESC
 PDAT.          Mean Sea Level:  PERMANENT DATUM
 FLD .                     ACG:  FIELD NAME
 SON .        AZ-XX-0907021034:  JOB NUMBER
 CTRY.              Azerbaijan:  COUNTRY NAME
 WELL.                    E01x:  WELL NAME
 COMP.     BP Exploration (Caspian Sea) LTD.:  COMPANY
 UWI .            /AZE00001403:  UNIQUE WELL IDENTIFIER
 API .            /AZE00001403:  API NUMBER
 WTYP.                Deviated:  WELL TYPE
 MDS .        Operator Entered:  MAG DATA SOURCE
 BASE.              Azerbaijan:  LOGGING EQUIPMENT BASE LOCATION
 REGN.                   EESSA:  REGION
 PROV.                    Baku:  PROVINCE
 STAT.                    Baku:  STATE NAME
 SRVC.          Turan Drilling:  CONTRACTOR
 MWDS.                    Baku:  MWD SHOP
 JOBN.        AZ-XX-0907021034:  JOB TICKET NUMB
 RIG .                     DWG:  RIG NAME
 DOE .                     N/A:  DOE NUMBER
 DCON.         Sperry Drilling:  DIRECTNL CONTR
 UNIT.                     N/A:  LOGGING EQUIPMENT ID
 CNTY.                        :  COUNTY
 LOC .                        :  LOCATION
 LMF .             Drill Floor:  LOG MEASURED FROM
 TVDS.m                  43.16:  TVDSS CORRECTN
 LATI.deg                40.17:  LATITUDE
 LONG.deg                51.17:  LONGITUDE
 WHNS.m                  -5.90:  WELL HEAD N/S
 WHEW.m                  -6.61:  WELL HEAD E/W
 UTMX.m              514337.95:  UTM X
 UTMY.m             4448627.46:  UTM Y
 DFWL.m                   0.00:  DISTANCE FWL
 DFSL.m                   0.00:  DISTANCE FSL
 SDEP.m                2606.87:  START DEPTH
 TDD .m                3618.01:  TOTAL DEPTH (DRILLER)
 VSDR.deg               177.42:  VERT SEC DIRECT
 GVFD.g                   1.00:  GRAVITY FIELD
 MFLD.nT              50399.00:  MAGNETIC FIELD
 MDIP.deg                59.67:  MAGNETIC DIP
 MDEC.deg                 6.56:  MAGNETIC DECL
 GRDC.deg                 0.11:  GRID CORRECTION
 AZTC.deg                 6.45:  AZM TOTAL CORR
 EPD .m                   0.00:  ELEVATION
 EGL .m                   0.00:  GROUND ELEVATION
 WDMS.m                 176.20:  WD ELEV
 APD .m                  43.16:  DEPTH ABOVE PD
 DEP .m                2606.87:  DEPTH
 AGAP.m                  43.16:  AIR GAP
 VSEW.m                  -6.61:  VERT SEC E/W
 VSNS.m                  -5.90:  VERT SEC N/S
 EKB .m                  43.16:  KB ELEVATION
 EDF .m                  43.16:  DF ELEVATION
 TDL .m                 438.00:  TOTAL DEPTH (LOGGER)
 VSC .                       0:  VS TO CLOSURE
 MAGU.                 1855490:  MAGUTM CHECKSUM
~Parameter Information Block
#MNEM.UNIT       Value        Description
#---------     -----------    ---------------------------
 AV  .mps                 2.20:  Ann Velocity 
 AVMX.mps                 2.50:  Max Ann Veloc 
 AZIF.deg               150.21:  Azm, Final 
 BHAT.        Rotary Steerable:  BHA Type 
 BROT.°/30m               0.08:  Build Rotating 
 BS  .in                  6.50:  Bit Size 
 BSZ .in                  6.50:  Bit Size 
 BTPL.psig              108.00:  Bit Press Loss 
 CABU.                     Yes:  Customer Abuse 
 CGEO.           Emin Aliyarli:  Customer Geo 
 COMM.                     Ô8c:  Run Comments 1 
 TCS .hr                 74.20:  Time Ciculation Ended 
 CV  .mps                 3.63:  Crit Velocity 
 CVMX.mps                 3.66:  Max Crit Veloc 
 DD1 .         Intigam Rahimov:  Direct Drillr 1 
 DD2 .          Teymur Aghayev:  Direct Drillr 2 
 DDSV.               Geo-Pilot:  DD Service 
 DEFF.%                  97.00:  % Det Eff 
 DLRX.°/30m               1.63:  Dogleg Rot Max 
 DLSO.°/30m               0.00:  Dogleg Oriented 
 DLSX.°/30m               0.00:  Dogleg Str Max 
 DRET.      20.20.00 28-Apr-21:  Drill End Time 
 DRST.      04.45.00 26-Apr-21:  Drill Start Tim 
 DTIM.hr                 34.30:  Time Drilling 
 EDEP.m                3618.01:  End Depth 
 ENG1.           Amrah Tahirov:  Engineer 1 
 ENG2.         Bahruz Mehdiyev:  Engineer 2 
 ENG3.         Farhad Orujzade:  Engineer 3 
 ETIM.      19.00.00 29-Apr-21:  End Time 
 FLOI.gpm               370.00:  Flow In 
 FLON.gpm               300.00:  Flow In Min 
 FLOS.cptm                0.00:  Fluid Loss 
 FLOX.gpm               410.00:  Flow In Max 
 HFLO.                      No:  High Flow 
 HPRE.                      No:  High Pressure 
 HTEM.                      No:  High Temp 
 HYDO.m                   1.80:  Hydro Offset 
 IFIN.deg                67.19:  Inc, Final 
 IMAX.deg                68.42:  Inc Max 
 IMIN.deg                66.33:  Inc Min 
 IMND.m                3532.79:  Inc Min Depth 
 IMXD.m                3192.15:  Inc Max Depth 
 JARR.                      No:  Jarring 
 LETM.      20.20.00 28-Apr-21:  Log End Time 
 LOST.hr                     0:  Lost Rig Time 
 LSTM.      04.45.00 26-Apr-21:  Log Start Time 
 MDCL.ppm             36500.00:  Mud Chlorides 
 MDES.     Inversion Oil/Synthetic:  Mud Desc 
 DFD .sg                  1.42:  Mud Density 
 MDMN.sg                  1.42:  Dens Mud Min 
 MDMX.sg                  1.42:  Dens Mud Max 
 MOIL.                    55.7:  Run Mud Oil % 
 MOWR.                   71:29:  Run Mud OWR 
 MSND.                     0.1:  Run Mud Sand % 
 MSOL.                    19.9:  Run Mud Solids% 
 DFV .spqt               83.00:  Mud Viscosity 
 MWOD.in                  5.15:  MWD Tool OD 
 MWSI.                      No:  Serv Intrp, MWD 
 OTIM.hr                120.59:  Time Operating 
 PCON.           Look Like New:  Pad Condition 
 PMAX.psia            11292.93:  Press Op, Max 
 PV  .cP                 27.00:  Mud PV 
 RUN .                     400:  Run Number 
 ROPA.m/hr               14.00:  ROP Avg 
 ROPN.m/hr                9.00:  ROP Min 
 ROPX.m/hr               18.00:  ROP Max 
 RPMA.rpm               130.00:  RPM Surface Avg 
 RPMN.rpm               100.00:  RPM Surface Min 
 RPMX.rpm               140.00:  RPM Surface Max 
 RRUN.                    0400:  Rig Run Number 
 RTIM.hr                 38.60:  Time Reaming 
 SAZI.deg               149.55:  Azm, Start 
 SDEP.m                3180.01:  Start Depth 
 SIDD.                      No:  Serv Intrp, DD 
 SINC.deg                68.42:  Inc, Start 
 SPPA.psig             4400.00:  SPP Avg 
 SPPN.psig             3580.00:  SPP Min 
 SPPX.psig             4850.00:  SPP Max 
 STIM.      12.30.00 24-Apr-21:  Start Time 
 SVCS.                 DD, MWD:  Services 
 SVER.                    9.20:  Sperry Version 
 TDAT.m                 438.00:  Tot Depth Attmp 
 TDDF.                      No:  Trip for DD 
 TDLG.m                 438.00:  Tot Depth Loggd 
 TFF .                      No:  Trip for Fail 
 TQAA.f-kp               11.00:  Torque Abs Avg 
 TQAN.f-kp                9.00:  Torque Abs Min 
 TQAX.f-kp               14.00:  Torque Abs Max 
 TRRT.°/30m               0.04:  Turn Rotating 
 MRT .                    HCIM:  Maximum Recorded Temperature 
 TTMX.degC               84.31:  Max Tool Temp 
 VS01.                90521954:  Virtual Str1 SN 
 VS02.                90519327:  Virtual Str2 SN 
 VS03.                90522273:  Virtual Str3 SN 
 VS04.                11108038:  Virtual Str4 SN 
 VS05.                12258760:  Virtual Str5 SN 
 WBMN.klb                 1.00:  WOB Min 
 WITN.           Adil Mammadov:  Customer Rep 
 WITN.         Alex Yadullayev:  Customer Rep 2 
 WOBA.klb                 6.00:  WOB Avg 
 WOBX.klb                 9.00:  WOB Max 
 YP  .lhf2               31.00:  Yield Point 
~Curve Information Block
#MNEM.UNIT                 API CODE     Curve Description
#---------               -----------    ---------------------------
 TIME.HHMMSS            00 000 000 000:  GT Time & Date
 GTDEPTH.m              00 000 000 000:  GT Depth
 GTPQH.psia             00 000 000 000:  GT HR Quartz Pressure
 GTTQ.degC              00 000 000 000:  GT Quartz Temperature
 GTTN.NONE              00 000 000 000:  GT Test Number
 GTET.sec               00 000 000 000:  GT Elapsed Test Time
 GTTVD.m                00 000 000 000:  GT True Vertical Depth
#Other Information
#
#WARRANTY: Halliburton will use its best efforts to furnish customers with 
#accurate information and interpretations that are part of, and incident to, the services 
#provided.  However, Halliburton cannot and does not warrant the accuracy 
#or correctness of such information and interpretations.  Under no circumstances should any 
#such information or interpretation be relied upon as the sole basis for any drilling, 
#completion, production, or financial decision or any procedure involving any risk to the 
#safety of any drilling venture, drilling rig or its crew or any other third party.  The 
#Customer has full responsibility for all drilling, completion and production operation.  
#Halliburton makes no representations or warranties, either expressed or 
#implied, including, but not limited to, the implied warranties of merchantability or fitness 
#for a particular purpose, with respect to the services rendered.  In no event will 
#Halliburton be liable for failure to obtain any particular results or for 
#any damages, including, but not limited to, indirect, special or consequential damages, 
#resulting from the use of any information or interpretation provided by Halliburton.
#
~A           TIME           GTDEPTH  GTPQH  GTTQ  GTTN  GTET   GTTVD  
# ...
   06:59:28.815.28-Apr-2021 3473.01 3650.73 72.44 8.00 299.04 2748.71
   06:59:29.015.28-Apr-2021 3473.01 3650.73 72.44 8.00 299.24 2748.71
   06:59:29.215.28-Apr-2021 3473.01 3650.94 72.44 8.00 299.44 2748.71
   06:59:29.416.28-Apr-2021 3473.01 3650.74 72.44 8.00 299.64 2748.71
   06:59:29.616.28-Apr-2021 3473.01 3650.73 72.44 8.00 299.84 2748.71
   06:59:29.816.28-Apr-2021 3473.01 3650.71 72.44 8.00 300.04 2748.71
   06:59:30.016.28-Apr-2021 3473.01 3650.71 72.44 8.00 300.24 2748.71
   06:59:30.216.28-Apr-2021 3473.01 3650.52 72.44 8.00 300.44 2748.71
   06:59:30.416.28-Apr-2021 3473.01 3650.81 72.44 8.00 300.64 2748.71
   06:59:30.616.28-Apr-2021 3473.01 3650.75 72.44 8.00 300.84 2748.71
   06:59:30.816.28-Apr-2021 3473.01 3650.75 72.44 8.00 301.04 2748.71
   06:59:31.016.28-Apr-2021 3473.01 3650.75 72.44 8.00 301.24 2748.71
   06:59:31.216.28-Apr-2021 3473.01 3650.75 72.43 8.00 301.44 2748.71
   06:59:31.416.28-Apr-2021 3473.01 3650.70 72.43 8.00 301.64 2748.71
   06:59:31.616.28-Apr-2021 3473.01 3650.74 72.43 8.00 301.84 2748.71
   06:59:31.816.28-Apr-2021 3473.01 3650.67 72.43 8.00 302.04 2748.71
   06:59:32.016.28-Apr-2021 3473.01 3650.67 72.43 8.00 302.24 2748.71
   06:59:32.216.28-Apr-2021 3473.01 3650.72 72.43 8.00 302.44 2748.71
   06:59:32.416.28-Apr-2021 3473.01 3650.65 72.43 8.00 302.64 2748.71
   06:59:32.616.28-Apr-2021 3473.01 3650.72 72.43 8.00 302.84 2748.71
   06:59:32.816.28-Apr-2021 3473.01 3650.63 72.43 8.00 303.04 2748.71
   06:59:33.016.28-Apr-2021 3473.01 3650.63 72.43 8.00 303.24 2748.71
   06:59:33.216.28-Apr-2021 3473.01 3650.85 72.43 8.00 303.44 2748.71
   06:59:33.416.28-Apr-2021 3473.01 3650.73 72.43 8.00 303.64 2748.71
   06:59:33.616.28-Apr-2021 3473.01 3650.75 72.43 8.00 303.84 2748.71
   06:59:33.816.28-Apr-2021 3473.01 3650.65 72.43 8.00 304.04 2748.71
   06:59:34.016.28-Apr-2021 3473.01 3650.65 72.43 8.00 304.24 2748.71
   06:59:34.216.28-Apr-2021 3473.01 3650.68 72.43 8.00 304.44 2748.71
   06:59:34.416.28-Apr-2021 3473.01 3650.71 72.43 8.00 304.64 2748.71
   06:59:34.616.28-Apr-2021 3473.01 3650.68 72.43 8.00 304.84 2748.71
   06:59:34.816.28-Apr-2021 3473.01 3650.66 72.43 8.00 305.04 2748.71
   06:59:35.016.28-Apr-2021 3473.01 3650.66 72.43 8.00 305.24 2748.71
   06:59:35.216.28-Apr-2021 3473.01 3650.62 72.43 8.00 305.45 2748.71
   06:59:35.416.28-Apr-2021 3473.01 3650.72 72.43 8.00 305.65 2748.71
   06:59:35.616.28-Apr-2021 3473.01 3650.48 72.43 8.00 305.85 2748.71
   06:59:35.816.28-Apr-2021 3473.01 3650.74 72.43 8.00 306.05 2748.71
   06:59:36.016.28-Apr-2021 3473.01 3650.74 72.43 8.00 306.25 2748.71
   06:59:36.217.28-Apr-2021 3473.01 3650.69 72.42 8.00 306.45 2748.71
   06:59:36.417.28-Apr-2021 3473.01 3650.45 72.42 8.00 306.65 2748.71
   06:59:36.617.28-Apr-2021 3473.01 3650.86 72.42 8.00 306.85 2748.71
   06:59:36.817.28-Apr-2021 3473.01 3650.77 72.42 8.00 307.05 2748.71
   06:59:37.017.28-Apr-2021 3473.01 3650.77 72.42 8.00 307.25 2748.71
   06:59:37.217.28-Apr-2021 3473.01 3650.66 72.42 8.00 307.45 2748.71
   06:59:37.417.28-Apr-2021 3473.01 3650.54 72.42 8.00 307.65 2748.71
   06:59:37.617.28-Apr-2021 3473.01 3650.82 72.42 8.00 307.85 2748.71
   06:59:37.817.28-Apr-2021 3473.01 3650.78 72.42 8.00 308.05 2748.71
   06:59:38.017.28-Apr-2021 3473.01 3650.78 72.42 8.00 308.25 2748.71
   06:59:38.217.28-Apr-2021 3473.01 3650.69 72.42 8.00 308.45 2748.71
   06:59:38.417.28-Apr-2021 3473.01 3650.75 72.42 8.00 308.65 2748.71
   06:59:38.617.28-Apr-2021 3473.01 3650.56 72.42 8.00 308.85 2748.71
   06:59:38.817.28-Apr-2021 3473.01 3650.70 72.42 8.00 309.05 2748.71
   06:59:39.017.28-Apr-2021 3473.01 3650.70 72.42 8.00 309.25 2748.71
   06:59:39.217.28-Apr-2021 3473.01 3650.77 72.42 8.00 309.45 2748.71
   06:59:39.417.28-Apr-2021 3473.01 3650.69 72.42 8.00 309.65 2748.71
   06:59:39.617.28-Apr-2021 3473.01 3650.71 72.42 8.00 309.85 2748.71
   06:59:39.817.28-Apr-2021 3473.01 3650.73 72.42 8.00 310.05 2748.71
   06:59:40.017.28-Apr-2021 3473.01 3650.73 72.42 8.00 310.25 2748.71
   06:59:40.217.28-Apr-2021 3473.01 3650.72 72.42 8.00 310.45 2748.71
   06:59:40.417.28-Apr-2021 3473.01 3650.64 72.42 8.00 310.65 2748.71
   06:59:40.617.28-Apr-2021 3473.01 3650.70 72.42 8.00 310.85 2748.71
   06:59:40.817.28-Apr-2021 3473.01 3650.68 72.42 8.00 311.05 2748.71
   06:59:41.017.28-Apr-2021 3473.01 3650.68 72.42 8.00 311.25 2748.71
   06:59:41.217.28-Apr-2021 3473.01 3650.70 72.42 8.00 311.45 2748.71
   06:59:41.417.28-Apr-2021 3473.01 3650.43 72.42 8.00 311.65 2748.71
   06:59:41.617.28-Apr-2021 3473.01 3650.82 72.41 8.00 311.85 2748.71
   06:59:41.817.28-Apr-2021 3473.01 3650.69 72.41 8.00 312.05 2748.71
   06:59:42.017.28-Apr-2021 3473.01 3650.69 72.41 8.00 312.25 2748.71
   06:59:42.217.28-Apr-2021 3473.01 3650.68 72.41 8.00 312.45 2748.71
   06:59:42.417.28-Apr-2021 3473.01 3650.67 72.41 8.00 312.65 2748.71
   06:59:42.617.28-Apr-2021 3473.01 3650.73 72.41 8.00 312.85 2748.71
   06:59:42.818.28-Apr-2021 3473.01 3650.66 72.41 8.00 313.05 2748.71
   06:59:43.018.28-Apr-2021 3473.01 3650.66 72.41 8.00 313.25 2748.71
   06:59:43.218.28-Apr-2021 3473.01 3650.66 72.41 8.00 313.45 2748.71
   06:59:43.418.28-Apr-2021 3473.01 3650.65 72.41 8.00 313.65 2748.71
   06:59:43.618.28-Apr-2021 3473.01 3650.68 72.41 8.00 313.85 2748.71
   06:59:43.818.28-Apr-2021 3473.01 3650.63 72.41 8.00 314.05 2748.71
   06:59:44.018.28-Apr-2021 3473.01 3650.63 72.41 8.00 314.25 2748.71
   06:59:44.218.28-Apr-2021 3473.01 3650.51 72.41 8.00 314.45 2748.71
   06:59:44.418.28-Apr-2021 3473.01 3650.79 72.41 8.00 314.65 2748.71
   06:59:44.618.28-Apr-2021 3473.01 3650.73 72.41 8.00 314.85 2748.71
   06:59:44.818.28-Apr-2021 3473.01 3650.49 72.41 8.00 315.05 2748.71
   06:59:45.018.28-Apr-2021 3473.01 3650.49 72.41 8.00 315.25 2748.71
   06:59:45.218.28-Apr-2021 3473.01 3650.72 72.41 8.00 315.45 2748.71
   06:59:45.418.28-Apr-2021 3473.01 3650.74 72.41 8.00 315.65 2748.71
   06:59:45.618.28-Apr-2021 3473.01 3650.66 72.41 8.00 315.85 2748.71
   06:59:45.818.28-Apr-2021 3473.01 3650.58 72.41 8.00 316.05 2748.71
   06:59:46.018.28-Apr-2021 3473.01 3650.58 72.41 8.00 316.25 2748.71
   06:59:46.218.28-Apr-2021 3473.01 3650.74 72.41 8.00 316.45 2748.71
   06:59:46.418.28-Apr-2021 3473.01 3650.74 72.41 8.00 316.65 2748.71
   06:59:46.618.28-Apr-2021 3473.01 3650.65 72.41 8.00 316.85 2748.71
   06:59:46.818.28-Apr-2021 3473.01 3650.73 72.40 8.00 317.05 2748.71
   06:59:47.018.28-Apr-2021 3473.01 3650.73 72.40 8.00 317.25 2748.71
   06:59:47.218.28-Apr-2021 3473.01 3650.45 72.40 8.00 317.45 2748.71
   06:59:47.418.28-Apr-2021 3473.01 3650.85 72.40 8.00 317.65 2748.71
   06:59:47.618.28-Apr-2021 3473.01 3650.71 72.40 8.00 317.85 2748.71
   06:59:47.818.28-Apr-2021 3473.01 3650.73 72.40 8.00 318.05 2748.71
   06:59:48.018.28-Apr-2021 3473.01 3650.73 72.40 8.00 318.25 2748.71
   06:59:48.218.28-Apr-2021 3473.01 3650.68 72.40 8.00 318.45 2748.71
   06:59:48.418.28-Apr-2021 3473.01 3650.73 72.40 8.00 318.65 2748.71
   06:59:48.618.28-Apr-2021 3473.01 3650.64 72.40 8.00 318.85 2748.71
   06:59:48.818.28-Apr-2021 3473.01 3650.69 72.40 8.00 319.05 2748.71
   06:59:49.018.28-Apr-2021 3473.01 3650.69 72.40 8.00 319.25 2748.71
   06:59:49.218.28-Apr-2021 3473.01 3650.70 72.40 8.00 319.45 2748.71
   06:59:49.418.28-Apr-2021 3473.01 3650.62 72.40 8.00 319.65 2748.71
   06:59:49.619.28-Apr-2021 3473.01 3650.64 72.40 8.00 319.85 2748.71
   06:59:49.819.28-Apr-2021 3473.01 3650.55 72.40 8.00 320.05 2748.71
   06:59:50.019.28-Apr-2021 3473.01 3650.55 72.40 8.00 320.25 2748.71
   06:59:50.219.28-Apr-2021 3473.01 3650.74 72.40 8.00 320.45 2748.71
   06:59:50.419.28-Apr-2021 3473.01 3650.69 72.40 8.00 320.65 2748.71
   06:59:50.619.28-Apr-2021 3473.01 3650.68 72.40 8.00 320.85 2748.71
   06:59:50.819.28-Apr-2021 3473.01 3650.68 72.40 8.00 321.05 2748.71
   06:59:51.019.28-Apr-2021 3473.01 3650.68 72.40 8.00 321.25 2748.71
   06:59:51.219.28-Apr-2021 3473.01 3650.71 72.40 8.00 321.45 2748.71
   06:59:51.419.28-Apr-2021 3473.01 3650.63 72.40 8.00 321.65 2748.71
   06:59:51.619.28-Apr-2021 3473.01 3650.68 72.40 8.00 321.85 2748.71
