~Version Information
 VERS.                  2.0:   CWLS log ASCII Standard -VERSION 2.0
 WRAP.                   NO:   One line per depth step
~Well Information Block
#MNEM.UNIT     VALUE/NAME     DESCRIPTION
#---------     -----------    ---------------------------
 STRT.S             19:03:38 27-Apr-21: START TIME 19:03:38 27-Apr-21
 STOP.S             19:10:06 27-Apr-21: STOP TIME  19:10:06 27-Apr-21
 STEP.S                   0.00: STEP TIME
 NULL.                 -999.25: NULL VALUE
 DFWT.                        :  DIST FWL TEXT
 DFST.                        :  DIST FSL TEXT
 DMF .             Drill Floor:  DRILL MEAS FROM
 STIM.      02.00.00 12-Apr-21:  START TIME
 DATE.      02.00.00 02-May-21:  END TIME
 SPUD.               09-Apr-21:  SPUD DATE
 NREF.                    Grid:  NORTH REFERENCE
 HPTY.       Minimum Curvature:  HOLE POS TYPE
 DMOD.             Drill Model:  DRILL MOD DESC
 SVYD.                  Survey:  SURVEY DESC
 ILTD.               Lithology:  INTERP LTH DESC
 FTOP.          Formation Tops:  FORM TOPS DESC
 PDAT.          Mean Sea Level:  PERMANENT DATUM
 FLD .                     ACG:  FIELD NAME
 SON .        AZ-XX-0907021034:  JOB NUMBER
 CTRY.              Azerbaijan:  COUNTRY NAME
 WELL.                    E01x:  WELL NAME
 COMP.     BP Exploration (Caspian Sea) LTD.:  COMPANY
 UWI .            /AZE00001403:  UNIQUE WELL IDENTIFIER
 API .            /AZE00001403:  API NUMBER
 WTYP.                Deviated:  WELL TYPE
 MDS .        Operator Entered:  MAG DATA SOURCE
 BASE.              Azerbaijan:  LOGGING EQUIPMENT BASE LOCATION
 REGN.                   EESSA:  REGION
 PROV.                    Baku:  PROVINCE
 STAT.                    Baku:  STATE NAME
 SRVC.          Turan Drilling:  CONTRACTOR
 MWDS.                    Baku:  MWD SHOP
 JOBN.        AZ-XX-0907021034:  JOB TICKET NUMB
 RIG .                     DWG:  RIG NAME
 DOE .                     N/A:  DOE NUMBER
 DCON.         Sperry Drilling:  DIRECTNL CONTR
 UNIT.                     N/A:  LOGGING EQUIPMENT ID
 CNTY.                        :  COUNTY
 LOC .                        :  LOCATION
 LMF .             Drill Floor:  LOG MEASURED FROM
 TVDS.m                  43.16:  TVDSS CORRECTN
 LATI.deg                40.17:  LATITUDE
 LONG.deg                51.17:  LONGITUDE
 WHNS.m                  -5.90:  WELL HEAD N/S
 WHEW.m                  -6.61:  WELL HEAD E/W
 UTMX.m              514337.95:  UTM X
 UTMY.m             4448627.46:  UTM Y
 DFWL.m                   0.00:  DISTANCE FWL
 DFSL.m                   0.00:  DISTANCE FSL
 SDEP.m                2606.87:  START DEPTH
 TDD .m                3618.01:  TOTAL DEPTH (DRILLER)
 VSDR.deg               177.42:  VERT SEC DIRECT
 GVFD.g                   1.00:  GRAVITY FIELD
 MFLD.nT              50399.00:  MAGNETIC FIELD
 MDIP.deg                59.67:  MAGNETIC DIP
 MDEC.deg                 6.56:  MAGNETIC DECL
 GRDC.deg                 0.11:  GRID CORRECTION
 AZTC.deg                 6.45:  AZM TOTAL CORR
 EPD .m                   0.00:  ELEVATION
 EGL .m                   0.00:  GROUND ELEVATION
 WDMS.m                 176.20:  WD ELEV
 APD .m                  43.16:  DEPTH ABOVE PD
 DEP .m                2606.87:  DEPTH
 AGAP.m                  43.16:  AIR GAP
 VSEW.m                  -6.61:  VERT SEC E/W
 VSNS.m                  -5.90:  VERT SEC N/S
 EKB .m                  43.16:  KB ELEVATION
 EDF .m                  43.16:  DF ELEVATION
 TDL .m                 438.00:  TOTAL DEPTH (LOGGER)
 VSC .                       0:  VS TO CLOSURE
 MAGU.                 1855490:  MAGUTM CHECKSUM
~Parameter Information Block
#MNEM.UNIT       Value        Description
#---------     -----------    ---------------------------
 AV  .mps                 2.20:  Ann Velocity 
 AVMX.mps                 2.50:  Max Ann Veloc 
 AZIF.deg               150.21:  Azm, Final 
 BHAT.        Rotary Steerable:  BHA Type 
 BROT.°/30m               0.08:  Build Rotating 
 BS  .in                  6.50:  Bit Size 
 BSZ .in                  6.50:  Bit Size 
 BTPL.psig              108.00:  Bit Press Loss 
 CABU.                     Yes:  Customer Abuse 
 CGEO.           Emin Aliyarli:  Customer Geo 
 COMM.                     LÊS:  Run Comments 1 
 TCS .hr                 74.20:  Time Ciculation Ended 
 CV  .mps                 3.63:  Crit Velocity 
 CVMX.mps                 3.66:  Max Crit Veloc 
 DD1 .         Intigam Rahimov:  Direct Drillr 1 
 DD2 .          Teymur Aghayev:  Direct Drillr 2 
 DDSV.               Geo-Pilot:  DD Service 
 DEFF.%                  97.00:  % Det Eff 
 DLRX.°/30m               1.63:  Dogleg Rot Max 
 DLSO.°/30m               0.00:  Dogleg Oriented 
 DLSX.°/30m               0.00:  Dogleg Str Max 
 DRET.      20.20.00 28-Apr-21:  Drill End Time 
 DRST.      04.45.00 26-Apr-21:  Drill Start Tim 
 DTIM.hr                 34.30:  Time Drilling 
 EDEP.m                3618.01:  End Depth 
 ENG1.           Amrah Tahirov:  Engineer 1 
 ENG2.         Bahruz Mehdiyev:  Engineer 2 
 ENG3.         Farhad Orujzade:  Engineer 3 
 ETIM.      19.00.00 29-Apr-21:  End Time 
 FLOI.gpm               370.00:  Flow In 
 FLON.gpm               300.00:  Flow In Min 
 FLOS.cptm                0.00:  Fluid Loss 
 FLOX.gpm               410.00:  Flow In Max 
 HFLO.                      No:  High Flow 
 HPRE.                      No:  High Pressure 
 HTEM.                      No:  High Temp 
 HYDO.m                   1.80:  Hydro Offset 
 IFIN.deg                67.19:  Inc, Final 
 IMAX.deg                68.42:  Inc Max 
 IMIN.deg                66.33:  Inc Min 
 IMND.m                3532.79:  Inc Min Depth 
 IMXD.m                3192.15:  Inc Max Depth 
 JARR.                      No:  Jarring 
 LETM.      20.20.00 28-Apr-21:  Log End Time 
 LOST.hr                     0:  Lost Rig Time 
 LSTM.      04.45.00 26-Apr-21:  Log Start Time 
 MDCL.ppm             36500.00:  Mud Chlorides 
 MDES.     Inversion Oil/Synthetic:  Mud Desc 
 DFD .sg                  1.42:  Mud Density 
 MDMN.sg                  1.42:  Dens Mud Min 
 MDMX.sg                  1.42:  Dens Mud Max 
 MOIL.                    55.7:  Run Mud Oil % 
 MOWR.                   71:29:  Run Mud OWR 
 MSND.                     0.1:  Run Mud Sand % 
 MSOL.                    19.9:  Run Mud Solids% 
 DFV .spqt               83.00:  Mud Viscosity 
 MWOD.in                  5.15:  MWD Tool OD 
 MWSI.                      No:  Serv Intrp, MWD 
 OTIM.hr                120.59:  Time Operating 
 PCON.           Look Like New:  Pad Condition 
 PMAX.psia            11292.93:  Press Op, Max 
 PV  .cP                 27.00:  Mud PV 
 RUN .                     400:  Run Number 
 ROPA.m/hr               14.00:  ROP Avg 
 ROPN.m/hr                9.00:  ROP Min 
 ROPX.m/hr               18.00:  ROP Max 
 RPMA.rpm               130.00:  RPM Surface Avg 
 RPMN.rpm               100.00:  RPM Surface Min 
 RPMX.rpm               140.00:  RPM Surface Max 
 RRUN.                    0400:  Rig Run Number 
 RTIM.hr                 38.60:  Time Reaming 
 SAZI.deg               149.55:  Azm, Start 
 SDEP.m                3180.01:  Start Depth 
 SIDD.                      No:  Serv Intrp, DD 
 SINC.deg                68.42:  Inc, Start 
 SPPA.psig             4400.00:  SPP Avg 
 SPPN.psig             3580.00:  SPP Min 
 SPPX.psig             4850.00:  SPP Max 
 STIM.      12.30.00 24-Apr-21:  Start Time 
 SVCS.                 DD, MWD:  Services 
 SVER.                    9.20:  Sperry Version 
 TDAT.m                 438.00:  Tot Depth Attmp 
 TDDF.                      No:  Trip for DD 
 TDLG.m                 438.00:  Tot Depth Loggd 
 TFF .                      No:  Trip for Fail 
 TQAA.f-kp               11.00:  Torque Abs Avg 
 TQAN.f-kp                9.00:  Torque Abs Min 
 TQAX.f-kp               14.00:  Torque Abs Max 
 TRRT.°/30m               0.04:  Turn Rotating 
 MRT .                    HCIM:  Maximum Recorded Temperature 
 TTMX.degC               84.31:  Max Tool Temp 
 VS01.                90521954:  Virtual Str1 SN 
 VS02.                90519327:  Virtual Str2 SN 
 VS03.                90522273:  Virtual Str3 SN 
 VS04.                11108038:  Virtual Str4 SN 
 VS05.                12258760:  Virtual Str5 SN 
 WBMN.klb                 1.00:  WOB Min 
 WITN.           Adil Mammadov:  Customer Rep 
 WITN.         Alex Yadullayev:  Customer Rep 2 
 WOBA.klb                 6.00:  WOB Avg 
 WOBX.klb                 9.00:  WOB Max 
 YP  .lhf2               31.00:  Yield Point 
~Curve Information Block
#MNEM.UNIT                 API CODE     Curve Description
#---------               -----------    ---------------------------
 TIME.HHMMSS            00 000 000 000:  GT Time & Date
 GTDEPTH.m              00 000 000 000:  GT Depth
 GTPQH.psia             00 000 000 000:  GT HR Quartz Pressure
 GTTQ.degC              00 000 000 000:  GT Quartz Temperature
 GTTN.NONE              00 000 000 000:  GT Test Number
 GTET.sec               00 000 000 000:  GT Elapsed Test Time
 GTTVD.m                00 000 000 000:  GT True Vertical Depth
#Other Information
#
#WARRANTY: Halliburton will use its best efforts to furnish customers with 
#accurate information and interpretations that are part of, and incident to, the services 
#provided.  However, Halliburton cannot and does not warrant the accuracy 
#or correctness of such information and interpretations.  Under no circumstances should any 
#such information or interpretation be relied upon as the sole basis for any drilling, 
#completion, production, or financial decision or any procedure involving any risk to the 
#safety of any drilling venture, drilling rig or its crew or any other third party.  The 
#Customer has full responsibility for all drilling, completion and production operation.  
#Halliburton makes no representations or warranties, either expressed or 
#implied, including, but not limited to, the implied warranties of merchantability or fitness 
#for a particular purpose, with respect to the services rendered.  In no event will 
#Halliburton be liable for failure to obtain any particular results or for 
#any damages, including, but not limited to, indirect, special or consequential damages, 
#resulting from the use of any information or interpretation provided by Halliburton.
#
~A           TIME           GTDEPTH  GTPQH  GTTQ  GTTN  GTET   GTTVD  
# ...
   19:05:56.661.27-Apr-2021 3392.01 3457.88 73.09 5.00 138.03 2716.87
   19:05:56.861.27-Apr-2021 3392.01 3457.88 73.09 5.00 138.23 2716.87
   19:05:57.061.27-Apr-2021 3392.01 3457.79 73.09 5.00 138.43 2716.87
   19:05:57.261.27-Apr-2021 3392.01 3458.21 73.09 5.00 138.63 2716.87
   19:05:57.461.27-Apr-2021 3392.01 3458.19 73.09 5.00 138.83 2716.87
   19:05:57.661.27-Apr-2021 3392.01 3458.07 73.09 5.00 139.03 2716.87
   19:05:57.861.27-Apr-2021 3392.01 3458.07 73.09 5.00 139.23 2716.87
   19:05:58.061.27-Apr-2021 3392.01 3457.72 73.09 5.00 139.43 2716.87
   19:05:58.261.27-Apr-2021 3392.01 3458.35 73.09 5.00 139.63 2716.87
   19:05:58.461.27-Apr-2021 3392.01 3458.11 73.08 5.00 139.83 2716.87
   19:05:58.661.27-Apr-2021 3392.01 3457.91 73.08 5.00 140.03 2716.87
   19:05:58.861.27-Apr-2021 3392.01 3457.91 73.08 5.00 140.23 2716.87
   19:05:59.061.27-Apr-2021 3392.01 3458.16 73.08 5.00 140.43 2716.87
   19:05:59.261.27-Apr-2021 3392.01 3459.04 73.08 5.00 140.63 2716.87
   19:05:59.461.27-Apr-2021 3392.01 3472.77 73.08 5.00 140.83 2716.87
   19:05:59.661.27-Apr-2021 3392.01 3473.41 73.08 5.00 141.03 2716.87
   19:05:59.861.27-Apr-2021 3392.01 3473.41 73.08 5.00 141.23 2716.87
   19:06:00.061.27-Apr-2021 3392.01 3473.57 73.08 5.00 141.43 2716.87
   19:06:00.261.27-Apr-2021 3392.01 3473.54 73.08 5.00 141.63 2716.87
   19:06:00.461.27-Apr-2021 3392.01 3473.65 73.08 5.00 141.83 2716.87
   19:06:00.662.27-Apr-2021 3392.01 3473.55 73.08 5.00 142.03 2716.87
   19:06:00.862.27-Apr-2021 3392.01 3473.55 73.08 5.00 142.23 2716.87
   19:06:01.062.27-Apr-2021 3392.01 3473.71 73.08 5.00 142.43 2716.87
   19:06:01.262.27-Apr-2021 3392.01 3473.72 73.08 5.00 142.63 2716.87
   19:06:01.462.27-Apr-2021 3392.01 3473.73 73.08 5.00 142.83 2716.87
   19:06:01.662.27-Apr-2021 3392.01 3473.71 73.08 5.00 143.03 2716.87
   19:06:01.862.27-Apr-2021 3392.01 3473.71 73.08 5.00 143.23 2716.87
   19:06:02.062.27-Apr-2021 3392.01 3473.71 73.08 5.00 143.44 2716.87
   19:06:02.262.27-Apr-2021 3392.01 3473.77 73.08 5.00 143.64 2716.87
   19:06:02.462.27-Apr-2021 3392.01 3473.70 73.08 5.00 143.84 2716.87
   19:06:02.662.27-Apr-2021 3392.01 3473.77 73.07 5.00 144.04 2716.87
   19:06:02.862.27-Apr-2021 3392.01 3473.77 73.07 5.00 144.24 2716.87
   19:06:03.062.27-Apr-2021 3392.01 3473.74 73.07 5.00 144.44 2716.87
   19:06:03.262.27-Apr-2021 3392.01 3473.77 73.07 5.00 144.64 2716.87
   19:06:03.462.27-Apr-2021 3392.01 3473.59 73.07 5.00 144.84 2716.87
   19:06:03.662.27-Apr-2021 3392.01 3473.85 73.07 5.00 145.04 2716.87
   19:06:03.862.27-Apr-2021 3392.01 3473.85 73.07 5.00 145.24 2716.87
   19:06:04.062.27-Apr-2021 3392.01 3473.78 73.07 5.00 145.44 2716.87
   19:06:04.262.27-Apr-2021 3392.01 3473.78 73.07 5.00 145.64 2716.87
   19:06:04.462.27-Apr-2021 3392.01 3473.76 73.07 5.00 145.84 2716.87
   19:06:04.663.27-Apr-2021 3392.01 3473.70 73.07 5.00 146.04 2716.87
   19:06:04.863.27-Apr-2021 3392.01 3473.70 73.07 5.00 146.24 2716.87
   19:06:05.063.27-Apr-2021 3392.01 3473.78 73.07 5.00 146.44 2716.87
   19:06:05.263.27-Apr-2021 3392.01 3473.63 73.07 5.00 146.64 2716.87
   19:06:05.463.27-Apr-2021 3392.01 3473.91 73.07 5.00 146.84 2716.87
   19:06:05.663.27-Apr-2021 3392.01 3473.78 73.07 5.00 147.04 2716.87
   19:06:05.863.27-Apr-2021 3392.01 3473.78 73.07 5.00 147.24 2716.87
   19:06:06.063.27-Apr-2021 3392.01 3473.71 73.07 5.00 147.44 2716.87
   19:06:06.263.27-Apr-2021 3392.01 3473.83 73.07 5.00 147.64 2716.87
   19:06:06.463.27-Apr-2021 3392.01 3473.77 73.07 5.00 147.84 2716.87
   19:06:06.663.27-Apr-2021 3392.01 3473.78 73.07 5.00 148.04 2716.87
   19:06:06.863.27-Apr-2021 3392.01 3473.78 73.07 5.00 148.24 2716.87
   19:06:07.063.27-Apr-2021 3392.01 3473.82 73.06 5.00 148.44 2716.87
   19:06:07.263.27-Apr-2021 3392.01 3473.78 73.06 5.00 148.64 2716.87
   19:06:07.463.27-Apr-2021 3392.01 3473.76 73.06 5.00 148.84 2716.87
   19:06:07.663.27-Apr-2021 3392.01 3473.81 73.06 5.00 149.04 2716.87
   19:06:07.863.27-Apr-2021 3392.01 3473.81 73.06 5.00 149.24 2716.87
   19:06:08.063.27-Apr-2021 3392.01 3473.81 73.06 5.00 149.44 2716.87
   19:06:08.263.27-Apr-2021 3392.01 3473.74 73.06 5.00 149.64 2716.87
   19:06:08.463.27-Apr-2021 3392.01 3473.80 73.06 5.00 149.84 2716.87
   19:06:08.663.27-Apr-2021 3392.01 3473.76 73.06 5.00 150.04 2716.87
   19:06:08.864.27-Apr-2021 3392.01 3473.76 73.06 5.00 150.24 2716.87
   19:06:09.064.27-Apr-2021 3392.01 3473.85 73.06 5.00 150.44 2716.87
   19:06:09.264.27-Apr-2021 3392.01 3473.81 73.06 5.00 150.64 2716.87
   19:06:09.464.27-Apr-2021 3392.01 3473.77 73.06 5.00 150.84 2716.87
   19:06:09.664.27-Apr-2021 3392.01 3473.78 73.06 5.00 151.04 2716.87
   19:06:09.864.27-Apr-2021 3392.01 3473.78 73.06 5.00 151.24 2716.87
   19:06:10.064.27-Apr-2021 3392.01 3473.75 73.06 5.00 151.44 2716.87
   19:06:10.264.27-Apr-2021 3392.01 3473.81 73.06 5.00 151.64 2716.87
   19:06:10.464.27-Apr-2021 3392.01 3473.74 73.06 5.00 151.84 2716.87
   19:06:10.664.27-Apr-2021 3392.01 3473.81 73.06 5.00 152.04 2716.87
   19:06:10.864.27-Apr-2021 3392.01 3473.81 73.06 5.00 152.24 2716.87
   19:06:11.064.27-Apr-2021 3392.01 3473.74 73.05 5.00 152.44 2716.87
   19:06:11.264.27-Apr-2021 3392.01 3473.79 73.05 5.00 152.64 2716.87
   19:06:11.464.27-Apr-2021 3392.01 3473.72 73.05 5.00 152.84 2716.87
   19:06:11.664.27-Apr-2021 3392.01 3473.73 73.05 5.00 153.04 2716.87
   19:06:11.864.27-Apr-2021 3392.01 3473.73 73.05 5.00 153.24 2716.87
   19:06:12.064.27-Apr-2021 3392.01 3473.80 73.05 5.00 153.44 2716.87
   19:06:12.264.27-Apr-2021 3392.01 3473.77 73.05 5.00 153.64 2716.87
   19:06:12.464.27-Apr-2021 3392.01 3473.79 73.05 5.00 153.84 2716.87
   19:06:12.664.27-Apr-2021 3392.01 3473.66 73.05 5.00 154.04 2716.87
   19:06:12.865.27-Apr-2021 3392.01 3473.66 73.05 5.00 154.24 2716.87
   19:06:13.065.27-Apr-2021 3392.01 3473.78 73.05 5.00 154.44 2716.87
   19:06:13.265.27-Apr-2021 3392.01 3473.78 73.05 5.00 154.64 2716.87
   19:06:13.465.27-Apr-2021 3392.01 3473.64 73.05 5.00 154.84 2716.87
   19:06:13.665.27-Apr-2021 3392.01 3473.84 73.05 5.00 155.04 2716.87
   19:06:13.865.27-Apr-2021 3392.01 3473.84 73.05 5.00 155.24 2716.87
   19:06:14.065.27-Apr-2021 3392.01 3473.73 73.05 5.00 155.44 2716.87
   19:06:14.265.27-Apr-2021 3392.01 3473.81 73.05 5.00 155.64 2716.87
   19:06:14.465.27-Apr-2021 3392.01 3473.75 73.05 5.00 155.84 2716.87
   19:06:14.665.27-Apr-2021 3392.01 3473.68 73.05 5.00 156.04 2716.87
   19:06:14.865.27-Apr-2021 3392.01 3473.68 73.05 5.00 156.24 2716.87
   19:06:15.065.27-Apr-2021 3392.01 3473.79 73.05 5.00 156.44 2716.87
   19:06:15.265.27-Apr-2021 3392.01 3473.77 73.04 5.00 156.64 2716.87
   19:06:15.465.27-Apr-2021 3392.01 3473.76 73.04 5.00 156.84 2716.87
   19:06:15.665.27-Apr-2021 3392.01 3473.77 73.04 5.00 157.04 2716.87
   19:06:15.865.27-Apr-2021 3392.01 3473.77 73.04 5.00 157.24 2716.87
   19:06:16.065.27-Apr-2021 3392.01 3473.79 73.04 5.00 157.44 2716.87
   19:06:16.265.27-Apr-2021 3392.01 3473.72 73.04 5.00 157.64 2716.87
   19:06:16.465.27-Apr-2021 3392.01 3473.80 73.04 5.00 157.84 2716.87
   19:06:16.665.27-Apr-2021 3392.01 3473.73 73.04 5.00 158.04 2716.87
   19:06:16.865.27-Apr-2021 3392.01 3473.73 73.04 5.00 158.24 2716.87
   19:06:17.066.27-Apr-2021 3392.01 3473.76 73.04 5.00 158.44 2716.87
   19:06:17.266.27-Apr-2021 3392.01 3473.57 73.04 5.00 158.64 2716.87
   19:06:17.466.27-Apr-2021 3392.01 3473.84 73.04 5.00 158.84 2716.87
   19:06:17.666.27-Apr-2021 3392.01 3473.75 73.04 5.00 159.04 2716.87
   19:06:17.866.27-Apr-2021 3392.01 3473.75 73.04 5.00 159.24 2716.87
   19:06:18.066.27-Apr-2021 3392.01 3473.75 73.04 5.00 159.44 2716.87
   19:06:18.266.27-Apr-2021 3392.01 3473.78 73.04 5.00 159.64 2716.87
   19:06:18.466.27-Apr-2021 3392.01 3473.72 73.04 5.00 159.84 2716.87
   19:06:18.666.27-Apr-2021 3392.01 3473.77 73.04 5.00 160.04 2716.87
   19:06:18.866.27-Apr-2021 3392.01 3473.77 73.04 5.00 160.24 2716.87
   19:06:19.066.27-Apr-2021 3392.01 3473.74 73.04 5.00 160.44 2716.87
   19:06:19.266.27-Apr-2021 3392.01 3473.76 73.04 5.00 160.64 2716.87
   19:06:19.466.27-Apr-2021 3392.01 3473.72 73.04 5.00 160.84 2716.87
