~Version Information
 VERS.                  2.0:   CWLS log ASCII Standard -VERSION 2.0
 WRAP.                   NO:   One line per depth step
~Well Information Block
#MNEM.UNIT     VALUE/NAME     DESCRIPTION
#---------     -----------    ---------------------------
 STRT.S             06:42:00 27-Apr-21: START TIME 06:42:00 27-Apr-21
 STOP.S             06:48:27 27-Apr-21: STOP TIME  06:48:27 27-Apr-21
 STEP.S                   0.00: STEP TIME
 NULL.                 -999.25: NULL VALUE
 DFWT.                        :  DIST FWL TEXT
 DFST.                        :  DIST FSL TEXT
 DMF .             Drill Floor:  DRILL MEAS FROM
 STIM.      02.00.00 12-Apr-21:  START TIME
 DATE.      02.00.00 02-May-21:  END TIME
 SPUD.               09-Apr-21:  SPUD DATE
 NREF.                    Grid:  NORTH REFERENCE
 HPTY.       Minimum Curvature:  HOLE POS TYPE
 DMOD.             Drill Model:  DRILL MOD DESC
 SVYD.                  Survey:  SURVEY DESC
 ILTD.               Lithology:  INTERP LTH DESC
 FTOP.          Formation Tops:  FORM TOPS DESC
 PDAT.          Mean Sea Level:  PERMANENT DATUM
 FLD .                     ACG:  FIELD NAME
 SON .        AZ-XX-0907021034:  JOB NUMBER
 CTRY.              Azerbaijan:  COUNTRY NAME
 WELL.                    E01x:  WELL NAME
 COMP.     BP Exploration (Caspian Sea) LTD.:  COMPANY
 UWI .            /AZE00001403:  UNIQUE WELL IDENTIFIER
 API .            /AZE00001403:  API NUMBER
 WTYP.                Deviated:  WELL TYPE
 MDS .        Operator Entered:  MAG DATA SOURCE
 BASE.              Azerbaijan:  LOGGING EQUIPMENT BASE LOCATION
 REGN.                   EESSA:  REGION
 PROV.                    Baku:  PROVINCE
 STAT.                    Baku:  STATE NAME
 SRVC.          Turan Drilling:  CONTRACTOR
 MWDS.                    Baku:  MWD SHOP
 JOBN.        AZ-XX-0907021034:  JOB TICKET NUMB
 RIG .                     DWG:  RIG NAME
 DOE .                     N/A:  DOE NUMBER
 DCON.         Sperry Drilling:  DIRECTNL CONTR
 UNIT.                     N/A:  LOGGING EQUIPMENT ID
 CNTY.                        :  COUNTY
 LOC .                        :  LOCATION
 LMF .             Drill Floor:  LOG MEASURED FROM
 TVDS.m                  43.16:  TVDSS CORRECTN
 LATI.deg                40.17:  LATITUDE
 LONG.deg                51.17:  LONGITUDE
 WHNS.m                  -5.90:  WELL HEAD N/S
 WHEW.m                  -6.61:  WELL HEAD E/W
 UTMX.m              514337.95:  UTM X
 UTMY.m             4448627.46:  UTM Y
 DFWL.m                   0.00:  DISTANCE FWL
 DFSL.m                   0.00:  DISTANCE FSL
 SDEP.m                2606.87:  START DEPTH
 TDD .m                3618.01:  TOTAL DEPTH (DRILLER)
 VSDR.deg               177.42:  VERT SEC DIRECT
 GVFD.g                   1.00:  GRAVITY FIELD
 MFLD.nT              50399.00:  MAGNETIC FIELD
 MDIP.deg                59.67:  MAGNETIC DIP
 MDEC.deg                 6.56:  MAGNETIC DECL
 GRDC.deg                 0.11:  GRID CORRECTION
 AZTC.deg                 6.45:  AZM TOTAL CORR
 EPD .m                   0.00:  ELEVATION
 EGL .m                   0.00:  GROUND ELEVATION
 WDMS.m                 176.20:  WD ELEV
 APD .m                  43.16:  DEPTH ABOVE PD
 DEP .m                2606.87:  DEPTH
 AGAP.m                  43.16:  AIR GAP
 VSEW.m                  -6.61:  VERT SEC E/W
 VSNS.m                  -5.90:  VERT SEC N/S
 EKB .m                  43.16:  KB ELEVATION
 EDF .m                  43.16:  DF ELEVATION
 TDL .m                 438.00:  TOTAL DEPTH (LOGGER)
 VSC .                       0:  VS TO CLOSURE
 MAGU.                 1855490:  MAGUTM CHECKSUM
~Parameter Information Block
#MNEM.UNIT       Value        Description
#---------     -----------    ---------------------------
 AV  .mps                 2.20:  Ann Velocity 
 AVMX.mps                 2.50:  Max Ann Veloc 
 AZIF.deg               150.21:  Azm, Final 
 BHAT.        Rotary Steerable:  BHA Type 
 BROT.°/30m               0.08:  Build Rotating 
 BS  .in                  6.50:  Bit Size 
 BSZ .in                  6.50:  Bit Size 
 BTPL.psig              108.00:  Bit Press Loss 
 CABU.                     Yes:  Customer Abuse 
 CGEO.           Emin Aliyarli:  Customer Geo 
 COMM.                     )M:  Run Comments 1 
 TCS .hr                 74.20:  Time Ciculation Ended 
 CV  .mps                 3.63:  Crit Velocity 
 CVMX.mps                 3.66:  Max Crit Veloc 
 DD1 .         Intigam Rahimov:  Direct Drillr 1 
 DD2 .          Teymur Aghayev:  Direct Drillr 2 
 DDSV.               Geo-Pilot:  DD Service 
 DEFF.%                  97.00:  % Det Eff 
 DLRX.°/30m               1.63:  Dogleg Rot Max 
 DLSO.°/30m               0.00:  Dogleg Oriented 
 DLSX.°/30m               0.00:  Dogleg Str Max 
 DRET.      20.20.00 28-Apr-21:  Drill End Time 
 DRST.      04.45.00 26-Apr-21:  Drill Start Tim 
 DTIM.hr                 34.30:  Time Drilling 
 EDEP.m                3618.01:  End Depth 
 ENG1.           Amrah Tahirov:  Engineer 1 
 ENG2.         Bahruz Mehdiyev:  Engineer 2 
 ENG3.         Farhad Orujzade:  Engineer 3 
 ETIM.      19.00.00 29-Apr-21:  End Time 
 FLOI.gpm               370.00:  Flow In 
 FLON.gpm               300.00:  Flow In Min 
 FLOS.cptm                0.00:  Fluid Loss 
 FLOX.gpm               410.00:  Flow In Max 
 HFLO.                      No:  High Flow 
 HPRE.                      No:  High Pressure 
 HTEM.                      No:  High Temp 
 HYDO.m                   1.80:  Hydro Offset 
 IFIN.deg                67.19:  Inc, Final 
 IMAX.deg                68.42:  Inc Max 
 IMIN.deg                66.33:  Inc Min 
 IMND.m                3532.79:  Inc Min Depth 
 IMXD.m                3192.15:  Inc Max Depth 
 JARR.                      No:  Jarring 
 LETM.      20.20.00 28-Apr-21:  Log End Time 
 LOST.hr                     0:  Lost Rig Time 
 LSTM.      04.45.00 26-Apr-21:  Log Start Time 
 MDCL.ppm             36500.00:  Mud Chlorides 
 MDES.     Inversion Oil/Synthetic:  Mud Desc 
 DFD .sg                  1.42:  Mud Density 
 MDMN.sg                  1.42:  Dens Mud Min 
 MDMX.sg                  1.42:  Dens Mud Max 
 MOIL.                    55.7:  Run Mud Oil % 
 MOWR.                   71:29:  Run Mud OWR 
 MSND.                     0.1:  Run Mud Sand % 
 MSOL.                    19.9:  Run Mud Solids% 
 DFV .spqt               83.00:  Mud Viscosity 
 MWOD.in                  5.15:  MWD Tool OD 
 MWSI.                      No:  Serv Intrp, MWD 
 OTIM.hr                120.59:  Time Operating 
 PCON.           Look Like New:  Pad Condition 
 PMAX.psia            11292.93:  Press Op, Max 
 PV  .cP                 27.00:  Mud PV 
 RUN .                     400:  Run Number 
 ROPA.m/hr               14.00:  ROP Avg 
 ROPN.m/hr                9.00:  ROP Min 
 ROPX.m/hr               18.00:  ROP Max 
 RPMA.rpm               130.00:  RPM Surface Avg 
 RPMN.rpm               100.00:  RPM Surface Min 
 RPMX.rpm               140.00:  RPM Surface Max 
 RRUN.                    0400:  Rig Run Number 
 RTIM.hr                 38.60:  Time Reaming 
 SAZI.deg               149.55:  Azm, Start 
 SDEP.m                3180.01:  Start Depth 
 SIDD.                      No:  Serv Intrp, DD 
 SINC.deg                68.42:  Inc, Start 
 SPPA.psig             4400.00:  SPP Avg 
 SPPN.psig             3580.00:  SPP Min 
 SPPX.psig             4850.00:  SPP Max 
 STIM.      12.30.00 24-Apr-21:  Start Time 
 SVCS.                 DD, MWD:  Services 
 SVER.                    9.20:  Sperry Version 
 TDAT.m                 438.00:  Tot Depth Attmp 
 TDDF.                      No:  Trip for DD 
 TDLG.m                 438.00:  Tot Depth Loggd 
 TFF .                      No:  Trip for Fail 
 TQAA.f-kp               11.00:  Torque Abs Avg 
 TQAN.f-kp                9.00:  Torque Abs Min 
 TQAX.f-kp               14.00:  Torque Abs Max 
 TRRT.°/30m               0.04:  Turn Rotating 
 MRT .                    HCIM:  Maximum Recorded Temperature 
 TTMX.degC               84.31:  Max Tool Temp 
 VS01.                90521954:  Virtual Str1 SN 
 VS02.                90519327:  Virtual Str2 SN 
 VS03.                90522273:  Virtual Str3 SN 
 VS04.                11108038:  Virtual Str4 SN 
 VS05.                12258760:  Virtual Str5 SN 
 WBMN.klb                 1.00:  WOB Min 
 WITN.           Adil Mammadov:  Customer Rep 
 WITN.         Alex Yadullayev:  Customer Rep 2 
 WOBA.klb                 6.00:  WOB Avg 
 WOBX.klb                 9.00:  WOB Max 
 YP  .lhf2               31.00:  Yield Point 
~Curve Information Block
#MNEM.UNIT                 API CODE     Curve Description
#---------               -----------    ---------------------------
 TIME.HHMMSS            00 000 000 000:  GT Time & Date
 GTDEPTH.m              00 000 000 000:  GT Depth
 GTPQH.psia             00 000 000 000:  GT HR Quartz Pressure
 GTTQ.degC              00 000 000 000:  GT Quartz Temperature
 GTTN.NONE              00 000 000 000:  GT Test Number
 GTET.sec               00 000 000 000:  GT Elapsed Test Time
 GTTVD.m                00 000 000 000:  GT True Vertical Depth
#Other Information
#
#WARRANTY: Halliburton will use its best efforts to furnish customers with 
#accurate information and interpretations that are part of, and incident to, the services 
#provided.  However, Halliburton cannot and does not warrant the accuracy 
#or correctness of such information and interpretations.  Under no circumstances should any 
#such information or interpretation be relied upon as the sole basis for any drilling, 
#completion, production, or financial decision or any procedure involving any risk to the 
#safety of any drilling venture, drilling rig or its crew or any other third party.  The 
#Customer has full responsibility for all drilling, completion and production operation.  
#Halliburton makes no representations or warranties, either expressed or 
#implied, including, but not limited to, the implied warranties of merchantability or fitness 
#for a particular purpose, with respect to the services rendered.  In no event will 
#Halliburton be liable for failure to obtain any particular results or for 
#any damages, including, but not limited to, indirect, special or consequential damages, 
#resulting from the use of any information or interpretation provided by Halliburton.
#
~A           TIME           GTDEPTH  GTPQH  GTTQ  GTTN  GTET   GTTVD  
# ...
   06:48:08.888.27-Apr-2021 3278.01 5862.47 73.41 4.00 368.03 2671.88
   06:48:09.088.27-Apr-2021 3278.01 5862.47 73.41 4.00 368.23 2671.88
   06:48:09.288.27-Apr-2021 3278.01 5861.31 73.41 4.00 368.43 2671.88
   06:48:09.488.27-Apr-2021 3278.01 5859.04 73.41 4.00 368.63 2671.88
   06:48:09.688.27-Apr-2021 3278.01 5853.84 73.41 4.00 368.83 2671.88
   06:48:09.888.27-Apr-2021 3278.01 5855.54 73.41 4.00 369.03 2671.88
   06:48:10.088.27-Apr-2021 3278.01 5855.54 73.41 4.00 369.23 2671.88
   06:48:10.288.27-Apr-2021 3278.01 5863.59 73.41 4.00 369.43 2671.88
   06:48:10.488.27-Apr-2021 3278.01 5862.10 73.41 4.00 369.63 2671.88
   06:48:10.688.27-Apr-2021 3278.01 5863.31 73.41 4.00 369.83 2671.88
   06:48:10.888.27-Apr-2021 3278.01 5861.93 73.41 4.00 370.03 2671.88
   06:48:11.088.27-Apr-2021 3278.01 5861.93 73.41 4.00 370.23 2671.88
   06:48:11.288.27-Apr-2021 3278.01 5864.26 73.40 4.00 370.43 2671.88
   06:48:11.488.27-Apr-2021 3278.01 5863.94 73.40 4.00 370.63 2671.88
   06:48:11.688.27-Apr-2021 3278.01 5861.53 73.40 4.00 370.83 2671.88
   06:48:11.888.27-Apr-2021 3278.01 5860.70 73.40 4.00 371.03 2671.88
   06:48:12.089.27-Apr-2021 3278.01 5860.70 73.40 4.00 371.23 2671.88
   06:48:12.289.27-Apr-2021 3278.01 5849.60 73.40 4.00 371.43 2671.88
   06:48:12.489.27-Apr-2021 3278.01 5855.92 73.40 4.00 371.63 2671.88
   06:48:12.689.27-Apr-2021 3278.01 5859.02 73.40 4.00 371.83 2671.88
   06:48:12.889.27-Apr-2021 3278.01 5858.19 73.40 4.00 372.03 2671.88
   06:48:13.089.27-Apr-2021 3278.01 5858.19 73.40 4.00 372.23 2671.88
   06:48:13.289.27-Apr-2021 3278.01 5861.86 73.40 4.00 372.43 2671.88
   06:48:13.489.27-Apr-2021 3278.01 5861.30 73.40 4.00 372.63 2671.88
   06:48:13.689.27-Apr-2021 3278.01 5862.72 73.40 4.00 372.83 2671.88
   06:48:13.889.27-Apr-2021 3278.01 5864.01 73.40 4.00 373.03 2671.88
   06:48:14.089.27-Apr-2021 3278.01 5864.01 73.40 4.00 373.23 2671.88
   06:48:14.289.27-Apr-2021 3278.01 5864.51 73.40 4.00 373.43 2671.88
   06:48:14.489.27-Apr-2021 3278.01 5864.27 73.40 4.00 373.63 2671.88
   06:48:14.689.27-Apr-2021 3278.01 5864.07 73.40 4.00 373.83 2671.88
   06:48:14.889.27-Apr-2021 3278.01 5863.35 73.40 4.00 374.03 2671.88
   06:48:15.089.27-Apr-2021 3278.01 5863.35 73.40 4.00 374.23 2671.88
   06:48:15.289.27-Apr-2021 3278.01 5862.49 73.40 4.00 374.43 2671.88
   06:48:15.489.27-Apr-2021 3278.01 5859.49 73.39 4.00 374.63 2671.88
   06:48:15.689.27-Apr-2021 3278.01 5861.54 73.39 4.00 374.83 2671.88
   06:48:15.889.27-Apr-2021 3278.01 5862.84 73.39 4.00 375.03 2671.88
   06:48:16.089.27-Apr-2021 3278.01 5862.84 73.39 4.00 375.23 2671.88
   06:48:16.289.27-Apr-2021 3278.01 5852.42 73.39 4.00 375.43 2671.88
   06:48:16.489.27-Apr-2021 3278.01 5861.88 73.39 4.00 375.63 2671.88
   06:48:16.689.27-Apr-2021 3278.01 5861.45 73.39 4.00 375.83 2671.88
   06:48:16.889.27-Apr-2021 3278.01 5863.66 73.39 4.00 376.03 2671.88
   06:48:17.089.27-Apr-2021 3278.01 5863.66 73.39 4.00 376.23 2671.88
   06:48:17.289.27-Apr-2021 3278.01 5860.74 73.39 4.00 376.43 2671.88
   06:48:17.489.27-Apr-2021 3278.01 5856.58 73.39 4.00 376.63 2671.88
   06:48:17.689.27-Apr-2021 3278.01 5853.38 73.39 4.00 376.83 2671.88
   06:48:17.889.27-Apr-2021 3278.01 5862.87 73.39 4.00 377.03 2671.88
   06:48:18.089.27-Apr-2021 3278.01 5862.87 73.39 4.00 377.23 2671.88
   06:48:18.289.27-Apr-2021 3278.01 5862.00 73.39 4.00 377.43 2671.88
   06:48:18.489.27-Apr-2021 3278.01 5860.28 73.39 4.00 377.63 2671.88
   06:48:18.689.27-Apr-2021 3278.01 5848.84 73.39 4.00 377.83 2671.88
   06:48:18.889.27-Apr-2021 3278.01 5861.21 73.39 4.00 378.03 2671.88
   06:48:19.089.27-Apr-2021 3278.01 5861.21 73.39 4.00 378.23 2671.88
   06:48:19.289.27-Apr-2021 3278.01 5862.17 73.39 4.00 378.43 2671.88
   06:48:19.489.27-Apr-2021 3278.01 5864.17 73.39 4.00 378.63 2671.88
   06:48:19.689.27-Apr-2021 3278.01 5863.31 73.39 4.00 378.83 2671.88
   06:48:19.889.27-Apr-2021 3278.01 5863.92 73.38 4.00 379.03 2671.88
   06:48:20.089.27-Apr-2021 3278.01 5863.92 73.38 4.00 379.23 2671.88
   06:48:20.289.27-Apr-2021 3278.01 5865.38 73.38 4.00 379.43 2671.88
   06:48:20.489.27-Apr-2021 3278.01 5863.13 73.38 4.00 379.63 2671.88
   06:48:20.689.27-Apr-2021 3278.01 5863.13 73.38 4.00 379.83 2671.88
   06:48:20.889.27-Apr-2021 3278.01 5860.72 73.38 4.00 380.03 2671.88
   06:48:21.089.27-Apr-2021 3278.01 5860.72 73.38 4.00 380.23 2671.88
   06:48:21.289.27-Apr-2021 3278.01 5852.95 73.38 4.00 380.43 2671.88
   06:48:21.489.27-Apr-2021 3278.01 5857.91 73.38 4.00 380.63 2671.88
   06:48:21.689.27-Apr-2021 3278.01 5853.30 73.38 4.00 380.83 2671.88
   06:48:21.889.27-Apr-2021 3278.01 5858.06 73.38 4.00 381.03 2671.88
   06:48:22.089.27-Apr-2021 3278.01 5858.06 73.38 4.00 381.23 2671.88
   06:48:22.289.27-Apr-2021 3278.01 5861.17 73.38 4.00 381.43 2671.88
   06:48:22.489.27-Apr-2021 3278.01 5861.90 73.38 4.00 381.63 2671.88
   06:48:22.689.27-Apr-2021 3278.01 5861.28 73.38 4.00 381.83 2671.88
   06:48:22.889.27-Apr-2021 3278.01 5864.01 73.38 4.00 382.03 2671.88
   06:48:23.089.27-Apr-2021 3278.01 5864.01 73.38 4.00 382.23 2671.88
   06:48:23.289.27-Apr-2021 3278.01 5865.68 73.38 4.00 382.43 2671.88
   06:48:23.489.27-Apr-2021 3278.01 5864.64 73.38 4.00 382.63 2671.88
   06:48:23.689.27-Apr-2021 3278.01 5865.16 73.38 4.00 382.83 2671.88
   06:48:23.889.27-Apr-2021 3278.01 5863.77 73.38 4.00 383.03 2671.88
   06:48:24.090.27-Apr-2021 3278.01 5863.77 73.38 4.00 383.23 2671.88
   06:48:24.290.27-Apr-2021 3278.01 5853.92 73.37 4.00 383.43 2671.88
   06:48:24.490.27-Apr-2021 3278.01 5856.43 73.37 4.00 383.63 2671.88
   06:48:24.690.27-Apr-2021 3278.01 5862.63 73.37 4.00 383.83 2671.88
   06:48:24.890.27-Apr-2021 3278.01 5861.43 73.37 4.00 384.03 2671.88
   06:48:25.090.27-Apr-2021 3278.01 5861.43 73.37 4.00 384.23 2671.88
   06:48:25.290.27-Apr-2021 3278.01 5860.07 73.37 4.00 384.43 2671.88
   06:48:25.490.27-Apr-2021 3278.01 5854.97 73.37 4.00 384.63 2671.88
   06:48:25.690.27-Apr-2021 3278.01 5857.48 73.37 4.00 384.83 2671.88
   06:48:25.890.27-Apr-2021 3278.01 5864.76 73.37 4.00 385.03 2671.88
   06:48:26.090.27-Apr-2021 3278.01 5864.76 73.37 4.00 385.23 2671.88
   06:48:26.290.27-Apr-2021 3278.01 5863.35 73.37 4.00 385.43 2671.88
   06:48:26.490.27-Apr-2021 3278.01 5853.36 73.37 4.00 385.63 2671.88
   06:48:26.690.27-Apr-2021 3278.01 5860.84 73.37 4.00 385.83 2671.88
   06:48:26.890.27-Apr-2021 3278.01 5858.65 73.37 4.00 386.03 2671.88
   06:48:27.090.27-Apr-2021 3278.01 5858.65 73.37 4.00 386.23 2671.88
   06:48:27.290.27-Apr-2021 3278.01 5863.32 73.37 4.00 386.43 2671.88
   06:48:27.490.27-Apr-2021 3278.01 5861.49 73.37 4.00 386.63 2671.88
   06:48:27.690.27-Apr-2021 3278.01 5861.57 73.37 4.00 386.83 2671.88
