~Version Information
 VERS.                  2.0:   CWLS log ASCII Standard -VERSION 2.0
 WRAP.                   NO:   One line per depth step
~Well Information Block
#MNEM.UNIT     VALUE/NAME     DESCRIPTION
#---------     -----------    ---------------------------
 STRT.S             19:03:38 27-Apr-21: START TIME 19:03:38 27-Apr-21
 STOP.S             19:10:06 27-Apr-21: STOP TIME  19:10:06 27-Apr-21
 STEP.S                   0.00: STEP TIME
 NULL.                 -999.25: NULL VALUE
 DFWT.                        :  DIST FWL TEXT
 DFST.                        :  DIST FSL TEXT
 DMF .             Drill Floor:  DRILL MEAS FROM
 STIM.      02.00.00 12-Apr-21:  START TIME
 DATE.      02.00.00 02-May-21:  END TIME
 SPUD.               09-Apr-21:  SPUD DATE
 NREF.                    Grid:  NORTH REFERENCE
 HPTY.       Minimum Curvature:  HOLE POS TYPE
 DMOD.             Drill Model:  DRILL MOD DESC
 SVYD.                  Survey:  SURVEY DESC
 ILTD.               Lithology:  INTERP LTH DESC
 FTOP.          Formation Tops:  FORM TOPS DESC
 PDAT.          Mean Sea Level:  PERMANENT DATUM
 FLD .                     ACG:  FIELD NAME
 SON .        AZ-XX-0907021034:  JOB NUMBER
 CTRY.              Azerbaijan:  COUNTRY NAME
 WELL.                    E01x:  WELL NAME
 COMP.     BP Exploration (Caspian Sea) LTD.:  COMPANY
 UWI .            /AZE00001403:  UNIQUE WELL IDENTIFIER
 API .            /AZE00001403:  API NUMBER
 WTYP.                Deviated:  WELL TYPE
 MDS .        Operator Entered:  MAG DATA SOURCE
 BASE.              Azerbaijan:  LOGGING EQUIPMENT BASE LOCATION
 REGN.                   EESSA:  REGION
 PROV.                    Baku:  PROVINCE
 STAT.                    Baku:  STATE NAME
 SRVC.          Turan Drilling:  CONTRACTOR
 MWDS.                    Baku:  MWD SHOP
 JOBN.        AZ-XX-0907021034:  JOB TICKET NUMB
 RIG .                     DWG:  RIG NAME
 DOE .                     N/A:  DOE NUMBER
 DCON.         Sperry Drilling:  DIRECTNL CONTR
 UNIT.                     N/A:  LOGGING EQUIPMENT ID
 CNTY.                        :  COUNTY
 LOC .                        :  LOCATION
 LMF .             Drill Floor:  LOG MEASURED FROM
 TVDS.m                  43.16:  TVDSS CORRECTN
 LATI.deg                40.17:  LATITUDE
 LONG.deg                51.17:  LONGITUDE
 WHNS.m                  -5.90:  WELL HEAD N/S
 WHEW.m                  -6.61:  WELL HEAD E/W
 UTMX.m              514337.95:  UTM X
 UTMY.m             4448627.46:  UTM Y
 DFWL.m                   0.00:  DISTANCE FWL
 DFSL.m                   0.00:  DISTANCE FSL
 SDEP.m                2606.87:  START DEPTH
 TDD .m                3618.01:  TOTAL DEPTH (DRILLER)
 VSDR.deg               177.42:  VERT SEC DIRECT
 GVFD.g                   1.00:  GRAVITY FIELD
 MFLD.nT              50399.00:  MAGNETIC FIELD
 MDIP.deg                59.67:  MAGNETIC DIP
 MDEC.deg                 6.56:  MAGNETIC DECL
 GRDC.deg                 0.11:  GRID CORRECTION
 AZTC.deg                 6.45:  AZM TOTAL CORR
 EPD .m                   0.00:  ELEVATION
 EGL .m                   0.00:  GROUND ELEVATION
 WDMS.m                 176.20:  WD ELEV
 APD .m                  43.16:  DEPTH ABOVE PD
 DEP .m                2606.87:  DEPTH
 AGAP.m                  43.16:  AIR GAP
 VSEW.m                  -6.61:  VERT SEC E/W
 VSNS.m                  -5.90:  VERT SEC N/S
 EKB .m                  43.16:  KB ELEVATION
 EDF .m                  43.16:  DF ELEVATION
 TDL .m                 438.00:  TOTAL DEPTH (LOGGER)
 VSC .                       0:  VS TO CLOSURE
 MAGU.                 1855490:  MAGUTM CHECKSUM
~Parameter Information Block
#MNEM.UNIT       Value        Description
#---------     -----------    ---------------------------
 AV  .mps                 2.20:  Ann Velocity 
 AVMX.mps                 2.50:  Max Ann Veloc 
 AZIF.deg               150.21:  Azm, Final 
 BHAT.        Rotary Steerable:  BHA Type 
 BROT.°/30m               0.08:  Build Rotating 
 BS  .in                  6.50:  Bit Size 
 BSZ .in                  6.50:  Bit Size 
 BTPL.psig              108.00:  Bit Press Loss 
 CABU.                     Yes:  Customer Abuse 
 CGEO.           Emin Aliyarli:  Customer Geo 
 COMM.                     LÊS:  Run Comments 1 
 TCS .hr                 74.20:  Time Ciculation Ended 
 CV  .mps                 3.63:  Crit Velocity 
 CVMX.mps                 3.66:  Max Crit Veloc 
 DD1 .         Intigam Rahimov:  Direct Drillr 1 
 DD2 .          Teymur Aghayev:  Direct Drillr 2 
 DDSV.               Geo-Pilot:  DD Service 
 DEFF.%                  97.00:  % Det Eff 
 DLRX.°/30m               1.63:  Dogleg Rot Max 
 DLSO.°/30m               0.00:  Dogleg Oriented 
 DLSX.°/30m               0.00:  Dogleg Str Max 
 DRET.      20.20.00 28-Apr-21:  Drill End Time 
 DRST.      04.45.00 26-Apr-21:  Drill Start Tim 
 DTIM.hr                 34.30:  Time Drilling 
 EDEP.m                3618.01:  End Depth 
 ENG1.           Amrah Tahirov:  Engineer 1 
 ENG2.         Bahruz Mehdiyev:  Engineer 2 
 ENG3.         Farhad Orujzade:  Engineer 3 
 ETIM.      19.00.00 29-Apr-21:  End Time 
 FLOI.gpm               370.00:  Flow In 
 FLON.gpm               300.00:  Flow In Min 
 FLOS.cptm                0.00:  Fluid Loss 
 FLOX.gpm               410.00:  Flow In Max 
 HFLO.                      No:  High Flow 
 HPRE.                      No:  High Pressure 
 HTEM.                      No:  High Temp 
 HYDO.m                   1.80:  Hydro Offset 
 IFIN.deg                67.19:  Inc, Final 
 IMAX.deg                68.42:  Inc Max 
 IMIN.deg                66.33:  Inc Min 
 IMND.m                3532.79:  Inc Min Depth 
 IMXD.m                3192.15:  Inc Max Depth 
 JARR.                      No:  Jarring 
 LETM.      20.20.00 28-Apr-21:  Log End Time 
 LOST.hr                     0:  Lost Rig Time 
 LSTM.      04.45.00 26-Apr-21:  Log Start Time 
 MDCL.ppm             36500.00:  Mud Chlorides 
 MDES.     Inversion Oil/Synthetic:  Mud Desc 
 DFD .sg                  1.42:  Mud Density 
 MDMN.sg                  1.42:  Dens Mud Min 
 MDMX.sg                  1.42:  Dens Mud Max 
 MOIL.                    55.7:  Run Mud Oil % 
 MOWR.                   71:29:  Run Mud OWR 
 MSND.                     0.1:  Run Mud Sand % 
 MSOL.                    19.9:  Run Mud Solids% 
 DFV .spqt               83.00:  Mud Viscosity 
 MWOD.in                  5.15:  MWD Tool OD 
 MWSI.                      No:  Serv Intrp, MWD 
 OTIM.hr                120.59:  Time Operating 
 PCON.           Look Like New:  Pad Condition 
 PMAX.psia            11292.93:  Press Op, Max 
 PV  .cP                 27.00:  Mud PV 
 RUN .                     400:  Run Number 
 ROPA.m/hr               14.00:  ROP Avg 
 ROPN.m/hr                9.00:  ROP Min 
 ROPX.m/hr               18.00:  ROP Max 
 RPMA.rpm               130.00:  RPM Surface Avg 
 RPMN.rpm               100.00:  RPM Surface Min 
 RPMX.rpm               140.00:  RPM Surface Max 
 RRUN.                    0400:  Rig Run Number 
 RTIM.hr                 38.60:  Time Reaming 
 SAZI.deg               149.55:  Azm, Start 
 SDEP.m                3180.01:  Start Depth 
 SIDD.                      No:  Serv Intrp, DD 
 SINC.deg                68.42:  Inc, Start 
 SPPA.psig             4400.00:  SPP Avg 
 SPPN.psig             3580.00:  SPP Min 
 SPPX.psig             4850.00:  SPP Max 
 STIM.      12.30.00 24-Apr-21:  Start Time 
 SVCS.                 DD, MWD:  Services 
 SVER.                    9.20:  Sperry Version 
 TDAT.m                 438.00:  Tot Depth Attmp 
 TDDF.                      No:  Trip for DD 
 TDLG.m                 438.00:  Tot Depth Loggd 
 TFF .                      No:  Trip for Fail 
 TQAA.f-kp               11.00:  Torque Abs Avg 
 TQAN.f-kp                9.00:  Torque Abs Min 
 TQAX.f-kp               14.00:  Torque Abs Max 
 TRRT.°/30m               0.04:  Turn Rotating 
 MRT .                    HCIM:  Maximum Recorded Temperature 
 TTMX.degC               84.31:  Max Tool Temp 
 VS01.                90521954:  Virtual Str1 SN 
 VS02.                90519327:  Virtual Str2 SN 
 VS03.                90522273:  Virtual Str3 SN 
 VS04.                11108038:  Virtual Str4 SN 
 VS05.                12258760:  Virtual Str5 SN 
 WBMN.klb                 1.00:  WOB Min 
 WITN.           Adil Mammadov:  Customer Rep 
 WITN.         Alex Yadullayev:  Customer Rep 2 
 WOBA.klb                 6.00:  WOB Avg 
 WOBX.klb                 9.00:  WOB Max 
 YP  .lhf2               31.00:  Yield Point 
~Curve Information Block
#MNEM.UNIT                 API CODE     Curve Description
#---------               -----------    ---------------------------
 TIME.HHMMSS            00 000 000 000:  GT Time & Date
 GTDEPTH.m              00 000 000 000:  GT Depth
 GTPQH.psia             00 000 000 000:  GT HR Quartz Pressure
 GTTQ.degC              00 000 000 000:  GT Quartz Temperature
 GTTN.NONE              00 000 000 000:  GT Test Number
 GTET.sec               00 000 000 000:  GT Elapsed Test Time
 GTTVD.m                00 000 000 000:  GT True Vertical Depth
#Other Information
#
#WARRANTY: Halliburton will use its best efforts to furnish customers with 
#accurate information and interpretations that are part of, and incident to, the services 
#provided.  However, Halliburton cannot and does not warrant the accuracy 
#or correctness of such information and interpretations.  Under no circumstances should any 
#such information or interpretation be relied upon as the sole basis for any drilling, 
#completion, production, or financial decision or any procedure involving any risk to the 
#safety of any drilling venture, drilling rig or its crew or any other third party.  The 
#Customer has full responsibility for all drilling, completion and production operation.  
#Halliburton makes no representations or warranties, either expressed or 
#implied, including, but not limited to, the implied warranties of merchantability or fitness 
#for a particular purpose, with respect to the services rendered.  In no event will 
#Halliburton be liable for failure to obtain any particular results or for 
#any damages, including, but not limited to, indirect, special or consequential damages, 
#resulting from the use of any information or interpretation provided by Halliburton.
#
~A           TIME           GTDEPTH  GTPQH  GTTQ  GTTN  GTET   GTTVD  
# ...
   19:04:01.632.27-Apr-2021 3392.01 6818.08 73.44 5.00  23.01 2716.87
   19:04:01.832.27-Apr-2021 3392.01 6818.08 73.44 5.00  23.21 2716.87
   19:04:02.033.27-Apr-2021 3392.01 6401.69 73.44 5.00  23.41 2716.87
   19:04:02.233.27-Apr-2021 3392.01 5502.60 73.44 5.00  23.61 2716.87
   19:04:02.433.27-Apr-2021 3392.01 4753.86 73.44 5.00  23.81 2716.87
   19:04:02.633.27-Apr-2021 3392.01 4017.10 73.44 5.00  24.01 2716.87
   19:04:02.833.27-Apr-2021 3392.01 4017.10 73.44 5.00  24.21 2716.87
   19:04:03.033.27-Apr-2021 3392.01 3460.04 73.43 5.00  24.41 2716.87
   19:04:03.233.27-Apr-2021 3392.01 3466.23 73.43 5.00  24.61 2716.87
   19:04:03.433.27-Apr-2021 3392.01 3475.55 73.43 5.00  24.81 2716.87
   19:04:03.633.27-Apr-2021 3392.01 3472.22 73.43 5.00  25.01 2716.87
   19:04:03.833.27-Apr-2021 3392.01 3472.22 73.43 5.00  25.21 2716.87
   19:04:04.033.27-Apr-2021 3392.01 3469.74 73.43 5.00  25.41 2716.87
   19:04:04.233.27-Apr-2021 3392.01 3467.00 73.43 5.00  25.61 2716.87
   19:04:04.433.27-Apr-2021 3392.01 3467.00 73.43 5.00  25.81 2716.87
   19:04:04.633.27-Apr-2021 3392.01 3465.15 73.43 5.00  26.01 2716.87
   19:04:04.833.27-Apr-2021 3392.01 3465.15 73.43 5.00  26.21 2716.87
   19:04:05.033.27-Apr-2021 3392.01 3464.09 73.42 5.00  26.41 2716.87
   19:04:05.233.27-Apr-2021 3392.01 3464.52 73.42 5.00  26.61 2716.87
   19:04:05.433.27-Apr-2021 3392.01 3464.54 73.42 5.00  26.81 2716.87
   19:04:05.633.27-Apr-2021 3392.01 3463.67 73.42 5.00  27.01 2716.87
   19:04:05.833.27-Apr-2021 3392.01 3463.67 73.42 5.00  27.21 2716.87
   19:04:06.034.27-Apr-2021 3392.01 3462.58 73.42 5.00  27.41 2716.87
   19:04:06.234.27-Apr-2021 3392.01 3462.31 73.41 5.00  27.61 2716.87
   19:04:06.434.27-Apr-2021 3392.01 3462.13 73.41 5.00  27.81 2716.87
   19:04:06.634.27-Apr-2021 3392.01 3462.39 73.41 5.00  28.01 2716.87
   19:04:06.834.27-Apr-2021 3392.01 3462.39 73.41 5.00  28.21 2716.87
   19:04:07.034.27-Apr-2021 3392.01 3461.33 73.41 5.00  28.41 2716.87
   19:04:07.234.27-Apr-2021 3392.01 3460.60 73.41 5.00  28.61 2716.87
   19:04:07.434.27-Apr-2021 3392.01 3460.29 73.41 5.00  28.81 2716.87
   19:04:07.634.27-Apr-2021 3392.01 3459.92 73.41 5.00  29.01 2716.87
   19:04:07.834.27-Apr-2021 3392.01 3459.92 73.41 5.00  29.21 2716.87
   19:04:08.034.27-Apr-2021 3392.01 3459.83 73.40 5.00  29.41 2716.87
   19:04:08.234.27-Apr-2021 3392.01 3459.64 73.40 5.00  29.61 2716.87
   19:04:08.434.27-Apr-2021 3392.01 3459.83 73.40 5.00  29.81 2716.87
   19:04:08.634.27-Apr-2021 3392.01 3459.68 73.40 5.00  30.01 2716.87
   19:04:08.834.27-Apr-2021 3392.01 3459.68 73.40 5.00  30.21 2716.87
   19:04:09.034.27-Apr-2021 3392.01 3459.56 73.40 5.00  30.41 2716.87
   19:04:09.234.27-Apr-2021 3392.01 3459.65 73.39 5.00  30.61 2716.87
   19:04:09.434.27-Apr-2021 3392.01 3459.44 73.39 5.00  30.81 2716.87
   19:04:09.634.27-Apr-2021 3392.01 3459.62 73.39 5.00  31.01 2716.87
   19:04:09.834.27-Apr-2021 3392.01 3459.62 73.39 5.00  31.21 2716.87
   19:04:10.034.27-Apr-2021 3392.01 3459.30 73.39 5.00  31.41 2716.87
   19:04:10.235.27-Apr-2021 3392.01 3459.45 73.39 5.00  31.61 2716.87
   19:04:10.435.27-Apr-2021 3392.01 3459.24 73.39 5.00  31.81 2716.87
   19:04:10.635.27-Apr-2021 3392.01 3459.44 73.39 5.00  32.01 2716.87
   19:04:10.835.27-Apr-2021 3392.01 3459.44 73.39 5.00  32.21 2716.87
   19:04:11.035.27-Apr-2021 3392.01 3459.40 73.38 5.00  32.41 2716.87
   19:04:11.235.27-Apr-2021 3392.01 3459.43 73.38 5.00  32.61 2716.87
   19:04:11.435.27-Apr-2021 3392.01 3459.02 73.38 5.00  32.81 2716.87
   19:04:11.635.27-Apr-2021 3392.01 3459.50 73.38 5.00  33.01 2716.87
   19:04:11.835.27-Apr-2021 3392.01 3459.50 73.38 5.00  33.21 2716.87
   19:04:12.035.27-Apr-2021 3392.01 3461.05 73.38 5.00  33.41 2716.87
   19:04:12.235.27-Apr-2021 3392.01 3473.21 73.38 5.00  33.61 2716.87
   19:04:12.435.27-Apr-2021 3392.01 3473.46 73.38 5.00  33.81 2716.87
   19:04:12.635.27-Apr-2021 3392.01 3473.74 73.38 5.00  34.01 2716.87
   19:04:12.835.27-Apr-2021 3392.01 3473.74 73.38 5.00  34.21 2716.87
   19:04:13.035.27-Apr-2021 3392.01 3473.84 73.37 5.00  34.41 2716.87
   19:04:13.235.27-Apr-2021 3392.01 3473.96 73.37 5.00  34.61 2716.87
   19:04:13.435.27-Apr-2021 3392.01 3473.93 73.37 5.00  34.81 2716.87
   19:04:13.635.27-Apr-2021 3392.01 3473.98 73.37 5.00  35.01 2716.87
   19:04:13.835.27-Apr-2021 3392.01 3473.98 73.37 5.00  35.21 2716.87
   19:04:14.035.27-Apr-2021 3392.01 3474.04 73.37 5.00  35.41 2716.87
   19:04:14.236.27-Apr-2021 3392.01 3474.06 73.37 5.00  35.61 2716.87
   19:04:14.436.27-Apr-2021 3392.01 3474.08 73.37 5.00  35.81 2716.87
   19:04:14.636.27-Apr-2021 3392.01 3474.13 73.37 5.00  36.01 2716.87
   19:04:14.836.27-Apr-2021 3392.01 3474.13 73.37 5.00  36.21 2716.87
   19:04:15.036.27-Apr-2021 3392.01 3474.20 73.36 5.00  36.41 2716.87
   19:04:15.236.27-Apr-2021 3392.01 3474.16 73.36 5.00  36.61 2716.87
   19:04:15.436.27-Apr-2021 3392.01 3474.23 73.36 5.00  36.81 2716.87
   19:04:15.636.27-Apr-2021 3392.01 3474.22 73.36 5.00  37.01 2716.87
   19:04:15.836.27-Apr-2021 3392.01 3474.22 73.36 5.00  37.21 2716.87
   19:04:16.036.27-Apr-2021 3392.01 3474.24 73.36 5.00  37.41 2716.87
   19:04:16.236.27-Apr-2021 3392.01 3474.27 73.36 5.00  37.61 2716.87
   19:04:16.436.27-Apr-2021 3392.01 3474.30 73.36 5.00  37.81 2716.87
   19:04:16.636.27-Apr-2021 3392.01 3474.25 73.36 5.00  38.01 2716.87
   19:04:16.836.27-Apr-2021 3392.01 3474.25 73.36 5.00  38.21 2716.87
   19:04:17.036.27-Apr-2021 3392.01 3474.22 73.36 5.00  38.41 2716.87
   19:04:17.236.27-Apr-2021 3392.01 3474.29 73.36 5.00  38.61 2716.87
   19:04:17.436.27-Apr-2021 3392.01 3474.25 73.36 5.00  38.81 2716.87
   19:04:17.636.27-Apr-2021 3392.01 3474.34 73.35 5.00  39.01 2716.87
   19:04:17.836.27-Apr-2021 3392.01 3474.34 73.35 5.00  39.21 2716.87
   19:04:18.036.27-Apr-2021 3392.01 3474.36 73.35 5.00  39.41 2716.87
   19:04:18.236.27-Apr-2021 3392.01 3474.37 73.35 5.00  39.61 2716.87
   19:04:18.437.27-Apr-2021 3392.01 3474.36 73.35 5.00  39.81 2716.87
   19:04:18.637.27-Apr-2021 3392.01 3474.44 73.35 5.00  40.01 2716.87
   19:04:18.837.27-Apr-2021 3392.01 3474.44 73.35 5.00  40.21 2716.87
   19:04:19.037.27-Apr-2021 3392.01 3474.43 73.35 5.00  40.41 2716.87
   19:04:19.237.27-Apr-2021 3392.01 3474.40 73.35 5.00  40.61 2716.87
   19:04:19.437.27-Apr-2021 3392.01 3474.44 73.35 5.00  40.81 2716.87
   19:04:19.637.27-Apr-2021 3392.01 3474.41 73.35 5.00  41.01 2716.87
   19:04:19.837.27-Apr-2021 3392.01 3474.41 73.35 5.00  41.21 2716.87
   19:04:20.037.27-Apr-2021 3392.01 3474.40 73.35 5.00  41.41 2716.87
   19:04:20.237.27-Apr-2021 3392.01 3474.34 73.35 5.00  41.61 2716.87
   19:04:20.437.27-Apr-2021 3392.01 3474.39 73.34 5.00  41.81 2716.87
   19:04:20.637.27-Apr-2021 3392.01 3474.39 73.34 5.00  42.01 2716.87
   19:04:20.837.27-Apr-2021 3392.01 3474.39 73.34 5.00  42.21 2716.87
   19:04:21.037.27-Apr-2021 3392.01 3474.36 73.34 5.00  42.41 2716.87
   19:04:21.237.27-Apr-2021 3392.01 3474.41 73.34 5.00  42.61 2716.87
   19:04:21.437.27-Apr-2021 3392.01 3474.36 73.34 5.00  42.81 2716.87
   19:04:21.637.27-Apr-2021 3392.01 3474.37 73.34 5.00  43.01 2716.87
   19:04:21.837.27-Apr-2021 3392.01 3474.37 73.34 5.00  43.21 2716.87
   19:04:22.037.27-Apr-2021 3392.01 3474.39 73.34 5.00  43.41 2716.87
   19:04:22.237.27-Apr-2021 3392.01 3474.42 73.34 5.00  43.61 2716.87
   19:04:22.438.27-Apr-2021 3392.01 3474.21 73.34 5.00  43.81 2716.87
   19:04:22.638.27-Apr-2021 3392.01 3474.48 73.34 5.00  44.01 2716.87
   19:04:22.838.27-Apr-2021 3392.01 3474.48 73.34 5.00  44.21 2716.87
   19:04:23.038.27-Apr-2021 3392.01 3474.40 73.34 5.00  44.41 2716.87
   19:04:23.238.27-Apr-2021 3392.01 3474.27 73.34 5.00  44.61 2716.87
   19:04:23.438.27-Apr-2021 3392.01 3474.48 73.33 5.00  44.81 2716.87
   19:04:23.638.27-Apr-2021 3392.01 3474.43 73.33 5.00  45.01 2716.87
   19:04:23.838.27-Apr-2021 3392.01 3474.43 73.33 5.00  45.21 2716.87
   19:04:24.038.27-Apr-2021 3392.01 3474.45 73.33 5.00  45.41 2716.87
   19:04:24.238.27-Apr-2021 3392.01 3474.24 73.33 5.00  45.61 2716.87
   19:04:24.438.27-Apr-2021 3392.01 3474.49 73.33 5.00  45.81 2716.87
