~Version Information
 VERS.                  2.0:   CWLS log ASCII Standard -VERSION 2.0
 WRAP.                   NO:   One line per depth step
~Well Information Block
#MNEM.UNIT     VALUE/NAME     DESCRIPTION
#---------     -----------    ---------------------------
 STRT.S             13:09:03 28-Apr-21: START TIME 13:09:03 28-Apr-21
 STOP.S             13:15:31 28-Apr-21: STOP TIME  13:15:31 28-Apr-21
 STEP.S                   0.00: STEP TIME
 NULL.                 -999.25: NULL VALUE
 DFWT.                        :  DIST FWL TEXT
 DFST.                        :  DIST FSL TEXT
 DMF .             Drill Floor:  DRILL MEAS FROM
 STIM.      02.00.00 12-Apr-21:  START TIME
 DATE.      02.00.00 02-May-21:  END TIME
 SPUD.               09-Apr-21:  SPUD DATE
 NREF.                    Grid:  NORTH REFERENCE
 HPTY.       Minimum Curvature:  HOLE POS TYPE
 DMOD.             Drill Model:  DRILL MOD DESC
 SVYD.                  Survey:  SURVEY DESC
 ILTD.               Lithology:  INTERP LTH DESC
 FTOP.          Formation Tops:  FORM TOPS DESC
 PDAT.          Mean Sea Level:  PERMANENT DATUM
 FLD .                     ACG:  FIELD NAME
 SON .        AZ-XX-0907021034:  JOB NUMBER
 CTRY.              Azerbaijan:  COUNTRY NAME
 WELL.                    E01x:  WELL NAME
 COMP.     BP Exploration (Caspian Sea) LTD.:  COMPANY
 UWI .            /AZE00001403:  UNIQUE WELL IDENTIFIER
 API .            /AZE00001403:  API NUMBER
 WTYP.                Deviated:  WELL TYPE
 MDS .        Operator Entered:  MAG DATA SOURCE
 BASE.              Azerbaijan:  LOGGING EQUIPMENT BASE LOCATION
 REGN.                   EESSA:  REGION
 PROV.                    Baku:  PROVINCE
 STAT.                    Baku:  STATE NAME
 SRVC.          Turan Drilling:  CONTRACTOR
 MWDS.                    Baku:  MWD SHOP
 JOBN.        AZ-XX-0907021034:  JOB TICKET NUMB
 RIG .                     DWG:  RIG NAME
 DOE .                     N/A:  DOE NUMBER
 DCON.         Sperry Drilling:  DIRECTNL CONTR
 UNIT.                     N/A:  LOGGING EQUIPMENT ID
 CNTY.                        :  COUNTY
 LOC .                        :  LOCATION
 LMF .             Drill Floor:  LOG MEASURED FROM
 TVDS.m                  43.16:  TVDSS CORRECTN
 LATI.deg                40.17:  LATITUDE
 LONG.deg                51.17:  LONGITUDE
 WHNS.m                  -5.90:  WELL HEAD N/S
 WHEW.m                  -6.61:  WELL HEAD E/W
 UTMX.m              514337.95:  UTM X
 UTMY.m             4448627.46:  UTM Y
 DFWL.m                   0.00:  DISTANCE FWL
 DFSL.m                   0.00:  DISTANCE FSL
 SDEP.m                2606.87:  START DEPTH
 TDD .m                3618.01:  TOTAL DEPTH (DRILLER)
 VSDR.deg               177.42:  VERT SEC DIRECT
 GVFD.g                   1.00:  GRAVITY FIELD
 MFLD.nT              50399.00:  MAGNETIC FIELD
 MDIP.deg                59.67:  MAGNETIC DIP
 MDEC.deg                 6.56:  MAGNETIC DECL
 GRDC.deg                 0.11:  GRID CORRECTION
 AZTC.deg                 6.45:  AZM TOTAL CORR
 EPD .m                   0.00:  ELEVATION
 EGL .m                   0.00:  GROUND ELEVATION
 WDMS.m                 176.20:  WD ELEV
 APD .m                  43.16:  DEPTH ABOVE PD
 DEP .m                2606.87:  DEPTH
 AGAP.m                  43.16:  AIR GAP
 VSEW.m                  -6.61:  VERT SEC E/W
 VSNS.m                  -5.90:  VERT SEC N/S
 EKB .m                  43.16:  KB ELEVATION
 EDF .m                  43.16:  DF ELEVATION
 TDL .m                 438.00:  TOTAL DEPTH (LOGGER)
 VSC .                       0:  VS TO CLOSURE
 MAGU.                 1855490:  MAGUTM CHECKSUM
~Parameter Information Block
#MNEM.UNIT       Value        Description
#---------     -----------    ---------------------------
 AV  .mps                 2.20:  Ann Velocity 
 AVMX.mps                 2.50:  Max Ann Veloc 
 AZIF.deg               150.21:  Azm, Final 
 BHAT.        Rotary Steerable:  BHA Type 
 BROT.∞/30m               0.08:  Build Rotating 
 BS  .in                  6.50:  Bit Size 
 BSZ .in                  6.50:  Bit Size 
 BTPL.psig              108.00:  Bit Press Loss 
 CABU.                     Yes:  Customer Abuse 
 CGEO.           Emin Aliyarli:  Customer Geo 
 COMM.                     ‹Ïq:  Run Comments 1 
 TCS .hr                 74.20:  Time Ciculation Ended 
 CV  .mps                 3.63:  Crit Velocity 
 CVMX.mps                 3.66:  Max Crit Veloc 
 DD1 .         Intigam Rahimov:  Direct Drillr 1 
 DD2 .          Teymur Aghayev:  Direct Drillr 2 
 DDSV.               Geo-Pilot:  DD Service 
 DEFF.%                  97.00:  % Det Eff 
 DLRX.∞/30m               1.63:  Dogleg Rot Max 
 DLSO.∞/30m               0.00:  Dogleg Oriented 
 DLSX.∞/30m               0.00:  Dogleg Str Max 
 DRET.      20.20.00 28-Apr-21:  Drill End Time 
 DRST.      04.45.00 26-Apr-21:  Drill Start Tim 
 DTIM.hr                 34.30:  Time Drilling 
 EDEP.m                3618.01:  End Depth 
 ENG1.           Amrah Tahirov:  Engineer 1 
 ENG2.         Bahruz Mehdiyev:  Engineer 2 
 ENG3.         Farhad Orujzade:  Engineer 3 
 ETIM.      19.00.00 29-Apr-21:  End Time 
 FLOI.gpm               370.00:  Flow In 
 FLON.gpm               300.00:  Flow In Min 
 FLOS.cptm                0.00:  Fluid Loss 
 FLOX.gpm               410.00:  Flow In Max 
 HFLO.                      No:  High Flow 
 HPRE.                      No:  High Pressure 
 HTEM.                      No:  High Temp 
 HYDO.m                   1.80:  Hydro Offset 
 IFIN.deg                67.19:  Inc, Final 
 IMAX.deg                68.42:  Inc Max 
 IMIN.deg                66.33:  Inc Min 
 IMND.m                3532.79:  Inc Min Depth 
 IMXD.m                3192.15:  Inc Max Depth 
 JARR.                      No:  Jarring 
 LETM.      20.20.00 28-Apr-21:  Log End Time 
 LOST.hr                     0:  Lost Rig Time 
 LSTM.      04.45.00 26-Apr-21:  Log Start Time 
 MDCL.ppm             36500.00:  Mud Chlorides 
 MDES.     Inversion Oil/Synthetic:  Mud Desc 
 DFD .sg                  1.42:  Mud Density 
 MDMN.sg                  1.42:  Dens Mud Min 
 MDMX.sg                  1.42:  Dens Mud Max 
 MOIL.                    55.7:  Run Mud Oil % 
 MOWR.                   71:29:  Run Mud OWR 
 MSND.                     0.1:  Run Mud Sand % 
 MSOL.                    19.9:  Run Mud Solids% 
 DFV .spqt               83.00:  Mud Viscosity 
 MWOD.in                  5.15:  MWD Tool OD 
 MWSI.                      No:  Serv Intrp, MWD 
 OTIM.hr                120.59:  Time Operating 
 PCON.           Look Like New:  Pad Condition 
 PMAX.psia            11292.93:  Press Op, Max 
 PV  .cP                 27.00:  Mud PV 
 RUN .                     400:  Run Number 
 ROPA.m/hr               14.00:  ROP Avg 
 ROPN.m/hr                9.00:  ROP Min 
 ROPX.m/hr               18.00:  ROP Max 
 RPMA.rpm               130.00:  RPM Surface Avg 
 RPMN.rpm               100.00:  RPM Surface Min 
 RPMX.rpm               140.00:  RPM Surface Max 
 RRUN.                    0400:  Rig Run Number 
 RTIM.hr                 38.60:  Time Reaming 
 SAZI.deg               149.55:  Azm, Start 
 SDEP.m                3180.01:  Start Depth 
 SIDD.                      No:  Serv Intrp, DD 
 SINC.deg                68.42:  Inc, Start 
 SPPA.psig             4400.00:  SPP Avg 
 SPPN.psig             3580.00:  SPP Min 
 SPPX.psig             4850.00:  SPP Max 
 STIM.      12.30.00 24-Apr-21:  Start Time 
 SVCS.                 DD, MWD:  Services 
 SVER.                    9.20:  Sperry Version 
 TDAT.m                 438.00:  Tot Depth Attmp 
 TDDF.                      No:  Trip for DD 
 TDLG.m                 438.00:  Tot Depth Loggd 
 TFF .                      No:  Trip for Fail 
 TQAA.f-kp               11.00:  Torque Abs Avg 
 TQAN.f-kp                9.00:  Torque Abs Min 
 TQAX.f-kp               14.00:  Torque Abs Max 
 TRRT.∞/30m               0.04:  Turn Rotating 
 MRT .                    HCIM:  Maximum Recorded Temperature 
 TTMX.degC               84.31:  Max Tool Temp 
 VS01.                90521954:  Virtual Str1 SN 
 VS02.                90519327:  Virtual Str2 SN 
 VS03.                90522273:  Virtual Str3 SN 
 VS04.                11108038:  Virtual Str4 SN 
 VS05.                12258760:  Virtual Str5 SN 
 WBMN.klb                 1.00:  WOB Min 
 WITN.           Adil Mammadov:  Customer Rep 
 WITN.         Alex Yadullayev:  Customer Rep 2 
 WOBA.klb                 6.00:  WOB Avg 
 WOBX.klb                 9.00:  WOB Max 
 YP  .lhf2               31.00:  Yield Point 
~Curve Information Block
#MNEM.UNIT                 API CODE     Curve Description
#---------               -----------    ---------------------------
 TIME.HHMMSS            00 000 000 000:  GT Time & Date
 GTDEPTH.m              00 000 000 000:  GT Depth
 GTPQH.psia             00 000 000 000:  GT HR Quartz Pressure
 GTTQ.degC              00 000 000 000:  GT Quartz Temperature
 GTTN.NONE              00 000 000 000:  GT Test Number
 GTET.sec               00 000 000 000:  GT Elapsed Test Time
 GTTVD.m                00 000 000 000:  GT True Vertical Depth
#Other Information
#
#WARRANTY: Halliburton will use its best efforts to furnish customers with 
#accurate information and interpretations that are part of, and incident to, the services 
#provided.  However, Halliburton cannot and does not warrant the accuracy 
#or correctness of such information and interpretations.  Under no circumstances should any 
#such information or interpretation be relied upon as the sole basis for any drilling, 
#completion, production, or financial decision or any procedure involving any risk to the 
#safety of any drilling venture, drilling rig or its crew or any other third party.  The 
#Customer has full responsibility for all drilling, completion and production operation.  
#Halliburton makes no representations or warranties, either expressed or 
#implied, including, but not limited to, the implied warranties of merchantability or fitness 
#for a particular purpose, with respect to the services rendered.  In no event will 
#Halliburton be liable for failure to obtain any particular results or for 
#any damages, including, but not limited to, indirect, special or consequential damages, 
#resulting from the use of any information or interpretation provided by Halliburton.
#
~A           TIME           GTDEPTH  GTPQH  GTTQ  GTTN  GTET   GTTVD  
# ...
   13:15:11.487.28-Apr-2021 3524.51 6084.80 74.66 9.00 368.06 2768.78
   13:15:11.687.28-Apr-2021 3524.51 6084.80 74.66 9.00 368.26 2768.78
   13:15:11.887.28-Apr-2021 3524.51 6080.11 74.66 9.00 368.46 2768.78
   13:15:12.087.28-Apr-2021 3524.51 6083.41 74.66 9.00 368.66 2768.78
   13:15:12.287.28-Apr-2021 3524.51 6083.25 74.66 9.00 368.86 2768.78
   13:15:12.487.28-Apr-2021 3524.51 6082.94 74.66 9.00 369.06 2768.78
   13:15:12.687.28-Apr-2021 3524.51 6082.94 74.66 9.00 369.26 2768.78
   13:15:12.887.28-Apr-2021 3524.51 6083.62 74.66 9.00 369.46 2768.78
   13:15:13.087.28-Apr-2021 3524.51 6083.41 74.65 9.00 369.66 2768.78
   13:15:13.287.28-Apr-2021 3524.51 6084.09 74.65 9.00 369.86 2768.78
   13:15:13.487.28-Apr-2021 3524.51 6070.52 74.65 9.00 370.06 2768.78
   13:15:13.687.28-Apr-2021 3524.51 6070.52 74.65 9.00 370.26 2768.78
   13:15:13.887.28-Apr-2021 3524.51 6084.11 74.65 9.00 370.46 2768.78
   13:15:14.087.28-Apr-2021 3524.51 6082.81 74.65 9.00 370.66 2768.78
   13:15:14.287.28-Apr-2021 3524.51 6079.04 74.65 9.00 370.86 2768.78
   13:15:14.487.28-Apr-2021 3524.51 6080.08 74.65 9.00 371.06 2768.78
   13:15:14.688.28-Apr-2021 3524.51 6080.08 74.65 9.00 371.26 2768.78
   13:15:14.888.28-Apr-2021 3524.51 6081.72 74.65 9.00 371.46 2768.78
   13:15:15.088.28-Apr-2021 3524.51 6081.02 74.65 9.00 371.66 2768.78
   13:15:15.288.28-Apr-2021 3524.51 6079.98 74.65 9.00 371.86 2768.78
   13:15:15.488.28-Apr-2021 3524.51 6082.40 74.65 9.00 372.06 2768.78
   13:15:15.688.28-Apr-2021 3524.51 6082.40 74.65 9.00 372.26 2768.78
   13:15:15.888.28-Apr-2021 3524.51 6082.74 74.65 9.00 372.46 2768.78
   13:15:16.088.28-Apr-2021 3524.51 6081.94 74.65 9.00 372.66 2768.78
   13:15:16.288.28-Apr-2021 3524.51 6075.95 74.65 9.00 372.86 2768.78
   13:15:16.488.28-Apr-2021 3524.51 6078.05 74.65 9.00 373.06 2768.78
   13:15:16.688.28-Apr-2021 3524.51 6078.05 74.65 9.00 373.26 2768.78
   13:15:16.888.28-Apr-2021 3524.51 6082.80 74.65 9.00 373.46 2768.78
   13:15:17.088.28-Apr-2021 3524.51 6082.47 74.65 9.00 373.66 2768.78
   13:15:17.288.28-Apr-2021 3524.51 6078.20 74.65 9.00 373.86 2768.78
   13:15:17.488.28-Apr-2021 3524.51 6083.29 74.64 9.00 374.06 2768.78
   13:15:17.688.28-Apr-2021 3524.51 6083.29 74.64 9.00 374.26 2768.78
   13:15:17.888.28-Apr-2021 3524.51 6083.29 74.64 9.00 374.46 2768.78
   13:15:18.088.28-Apr-2021 3524.51 6082.96 74.64 9.00 374.66 2768.78
   13:15:18.288.28-Apr-2021 3524.51 6082.66 74.64 9.00 374.86 2768.78
   13:15:18.488.28-Apr-2021 3524.51 6080.89 74.64 9.00 375.06 2768.78
   13:15:18.688.28-Apr-2021 3524.51 6080.89 74.64 9.00 375.26 2768.78
   13:15:18.888.28-Apr-2021 3524.51 6083.43 74.64 9.00 375.46 2768.78
   13:15:19.088.28-Apr-2021 3524.51 6082.79 74.64 9.00 375.66 2768.78
   13:15:19.288.28-Apr-2021 3524.51 6070.85 74.64 9.00 375.86 2768.78
   13:15:19.488.28-Apr-2021 3524.51 6077.71 74.64 9.00 376.06 2768.78
   13:15:19.688.28-Apr-2021 3524.51 6077.71 74.64 9.00 376.26 2768.78
   13:15:19.888.28-Apr-2021 3524.51 6084.05 74.64 9.00 376.46 2768.78
   13:15:20.088.28-Apr-2021 3524.51 6080.52 74.64 9.00 376.66 2768.78
   13:15:20.288.28-Apr-2021 3524.51 6079.22 74.64 9.00 376.86 2768.78
   13:15:20.488.28-Apr-2021 3524.51 6079.82 74.64 9.00 377.06 2768.78
   13:15:20.689.28-Apr-2021 3524.51 6079.82 74.64 9.00 377.26 2768.78
   13:15:20.889.28-Apr-2021 3524.51 6083.07 74.64 9.00 377.46 2768.78
   13:15:21.089.28-Apr-2021 3524.51 6081.98 74.64 9.00 377.66 2768.78
   13:15:21.289.28-Apr-2021 3524.51 6082.26 74.64 9.00 377.86 2768.78
   13:15:21.489.28-Apr-2021 3524.51 6082.71 74.64 9.00 378.06 2768.78
   13:15:21.689.28-Apr-2021 3524.51 6082.71 74.64 9.00 378.26 2768.78
   13:15:21.889.28-Apr-2021 3524.51 6077.72 74.63 9.00 378.46 2768.78
   13:15:22.089.28-Apr-2021 3524.51 6076.25 74.63 9.00 378.66 2768.78
   13:15:22.289.28-Apr-2021 3524.51 6081.18 74.63 9.00 378.86 2768.78
   13:15:22.489.28-Apr-2021 3524.51 6082.20 74.63 9.00 379.06 2768.78
   13:15:22.689.28-Apr-2021 3524.51 6082.20 74.63 9.00 379.26 2768.78
   13:15:22.889.28-Apr-2021 3524.51 6077.55 74.63 9.00 379.46 2768.78
   13:15:23.089.28-Apr-2021 3524.51 6081.06 74.63 9.00 379.66 2768.78
   13:15:23.289.28-Apr-2021 3524.51 6081.32 74.63 9.00 379.86 2768.78
   13:15:23.489.28-Apr-2021 3524.51 6081.79 74.63 9.00 380.06 2768.78
   13:15:23.689.28-Apr-2021 3524.51 6081.79 74.63 9.00 380.26 2768.78
   13:15:23.889.28-Apr-2021 3524.51 6080.35 74.63 9.00 380.46 2768.78
   13:15:24.089.28-Apr-2021 3524.51 6083.59 74.63 9.00 380.66 2768.78
   13:15:24.289.28-Apr-2021 3524.51 6082.79 74.63 9.00 380.86 2768.78
   13:15:24.489.28-Apr-2021 3524.51 6082.99 74.63 9.00 381.06 2768.78
   13:15:24.689.28-Apr-2021 3524.51 6082.99 74.63 9.00 381.26 2768.78
   13:15:24.889.28-Apr-2021 3524.51 6070.12 74.63 9.00 381.46 2768.78
   13:15:25.089.28-Apr-2021 3524.51 6083.18 74.63 9.00 381.66 2768.78
   13:15:25.289.28-Apr-2021 3524.51 6084.03 74.63 9.00 381.86 2768.78
   13:15:25.489.28-Apr-2021 3524.51 6083.09 74.63 9.00 382.06 2768.78
   13:15:25.689.28-Apr-2021 3524.51 6083.09 74.63 9.00 382.26 2768.78
   13:15:25.889.28-Apr-2021 3524.51 6069.80 74.62 9.00 382.46 2768.78
   13:15:26.089.28-Apr-2021 3524.51 6082.85 74.62 9.00 382.66 2768.78
   13:15:26.289.28-Apr-2021 3524.51 6084.52 74.62 9.00 382.86 2768.78
   13:15:26.489.28-Apr-2021 3524.51 6082.54 74.62 9.00 383.06 2768.78
   13:15:26.689.28-Apr-2021 3524.51 6082.54 74.62 9.00 383.26 2768.78
   13:15:26.890.28-Apr-2021 3524.51 6079.61 74.62 9.00 383.46 2768.78
   13:15:27.090.28-Apr-2021 3524.51 6076.64 74.62 9.00 383.66 2768.78
   13:15:27.290.28-Apr-2021 3524.51 6083.91 74.62 9.00 383.86 2768.78
   13:15:27.490.28-Apr-2021 3524.51 6082.77 74.62 9.00 384.06 2768.78
   13:15:27.690.28-Apr-2021 3524.51 6082.77 74.62 9.00 384.26 2768.78
   13:15:27.890.28-Apr-2021 3524.51 6066.90 74.62 9.00 384.46 2768.78
   13:15:28.090.28-Apr-2021 3524.51 6082.96 74.62 9.00 384.66 2768.78
   13:15:28.290.28-Apr-2021 3524.51 6085.34 74.62 9.00 384.86 2768.78
   13:15:28.490.28-Apr-2021 3524.51 6082.98 74.62 9.00 385.06 2768.78
   13:15:28.690.28-Apr-2021 3524.51 6082.98 74.62 9.00 385.26 2768.78
   13:15:28.890.28-Apr-2021 3524.51 6079.19 74.62 9.00 385.46 2768.78
   13:15:29.090.28-Apr-2021 3524.51 6083.31 74.62 9.00 385.66 2768.78
   13:15:29.290.28-Apr-2021 3524.51 6082.64 74.62 9.00 385.86 2768.78
   13:15:29.490.28-Apr-2021 3524.51 6082.12 74.62 9.00 386.06 2768.78
   13:15:29.690.28-Apr-2021 3524.51 6082.12 74.62 9.00 386.26 2768.78
   13:15:29.890.28-Apr-2021 3524.51 6081.96 74.62 9.00 386.46 2768.78
   13:15:30.090.28-Apr-2021 3524.51 6083.84 74.62 9.00 386.66 2768.78
   13:15:30.290.28-Apr-2021 3524.51 6082.74 74.61 9.00 386.86 2768.78
   13:15:30.490.28-Apr-2021 3524.51 6070.03 74.61 9.00 387.06 2768.78
   13:15:30.690.28-Apr-2021 3524.51 6070.03 74.61 9.00 387.26 2768.78
   13:15:30.890.28-Apr-2021 3524.51 6082.33 74.61 9.00 387.46 2768.78
   13:15:31.090.28-Apr-2021 3524.51 6082.29 74.61 9.00 387.66 2768.78
   13:15:31.290.28-Apr-2021 3524.51 6078.82 74.61 9.00 387.86 2768.78
