~Version Information
 VERS.                  2.0:   CWLS log ASCII Standard -VERSION 2.0
 WRAP.                   NO:   One line per depth step
~Well Information Block
#MNEM.UNIT     VALUE/NAME     DESCRIPTION
#---------     -----------    ---------------------------
 STRT.S             06:54:29 28-Apr-21: START TIME 06:54:29 28-Apr-21
 STOP.S             07:00:57 28-Apr-21: STOP TIME  07:00:57 28-Apr-21
 STEP.S                   0.00: STEP TIME
 NULL.                 -999.25: NULL VALUE
 DFWT.                        :  DIST FWL TEXT
 DFST.                        :  DIST FSL TEXT
 DMF .             Drill Floor:  DRILL MEAS FROM
 STIM.      02.00.00 12-Apr-21:  START TIME
 DATE.      02.00.00 02-May-21:  END TIME
 SPUD.               09-Apr-21:  SPUD DATE
 NREF.                    Grid:  NORTH REFERENCE
 HPTY.       Minimum Curvature:  HOLE POS TYPE
 DMOD.             Drill Model:  DRILL MOD DESC
 SVYD.                  Survey:  SURVEY DESC
 ILTD.               Lithology:  INTERP LTH DESC
 FTOP.          Formation Tops:  FORM TOPS DESC
 PDAT.          Mean Sea Level:  PERMANENT DATUM
 FLD .                     ACG:  FIELD NAME
 SON .        AZ-XX-0907021034:  JOB NUMBER
 CTRY.              Azerbaijan:  COUNTRY NAME
 WELL.                    E01x:  WELL NAME
 COMP.     BP Exploration (Caspian Sea) LTD.:  COMPANY
 UWI .            /AZE00001403:  UNIQUE WELL IDENTIFIER
 API .            /AZE00001403:  API NUMBER
 WTYP.                Deviated:  WELL TYPE
 MDS .        Operator Entered:  MAG DATA SOURCE
 BASE.              Azerbaijan:  LOGGING EQUIPMENT BASE LOCATION
 REGN.                   EESSA:  REGION
 PROV.                    Baku:  PROVINCE
 STAT.                    Baku:  STATE NAME
 SRVC.          Turan Drilling:  CONTRACTOR
 MWDS.                    Baku:  MWD SHOP
 JOBN.        AZ-XX-0907021034:  JOB TICKET NUMB
 RIG .                     DWG:  RIG NAME
 DOE .                     N/A:  DOE NUMBER
 DCON.         Sperry Drilling:  DIRECTNL CONTR
 UNIT.                     N/A:  LOGGING EQUIPMENT ID
 CNTY.                        :  COUNTY
 LOC .                        :  LOCATION
 LMF .             Drill Floor:  LOG MEASURED FROM
 TVDS.m                  43.16:  TVDSS CORRECTN
 LATI.deg                40.17:  LATITUDE
 LONG.deg                51.17:  LONGITUDE
 WHNS.m                  -5.90:  WELL HEAD N/S
 WHEW.m                  -6.61:  WELL HEAD E/W
 UTMX.m              514337.95:  UTM X
 UTMY.m             4448627.46:  UTM Y
 DFWL.m                   0.00:  DISTANCE FWL
 DFSL.m                   0.00:  DISTANCE FSL
 SDEP.m                2606.87:  START DEPTH
 TDD .m                3618.01:  TOTAL DEPTH (DRILLER)
 VSDR.deg               177.42:  VERT SEC DIRECT
 GVFD.g                   1.00:  GRAVITY FIELD
 MFLD.nT              50399.00:  MAGNETIC FIELD
 MDIP.deg                59.67:  MAGNETIC DIP
 MDEC.deg                 6.56:  MAGNETIC DECL
 GRDC.deg                 0.11:  GRID CORRECTION
 AZTC.deg                 6.45:  AZM TOTAL CORR
 EPD .m                   0.00:  ELEVATION
 EGL .m                   0.00:  GROUND ELEVATION
 WDMS.m                 176.20:  WD ELEV
 APD .m                  43.16:  DEPTH ABOVE PD
 DEP .m                2606.87:  DEPTH
 AGAP.m                  43.16:  AIR GAP
 VSEW.m                  -6.61:  VERT SEC E/W
 VSNS.m                  -5.90:  VERT SEC N/S
 EKB .m                  43.16:  KB ELEVATION
 EDF .m                  43.16:  DF ELEVATION
 TDL .m                 438.00:  TOTAL DEPTH (LOGGER)
 VSC .                       0:  VS TO CLOSURE
 MAGU.                 1855490:  MAGUTM CHECKSUM
~Parameter Information Block
#MNEM.UNIT       Value        Description
#---------     -----------    ---------------------------
 AV  .mps                 2.20:  Ann Velocity 
 AVMX.mps                 2.50:  Max Ann Veloc 
 AZIF.deg               150.21:  Azm, Final 
 BHAT.        Rotary Steerable:  BHA Type 
 BROT.°/30m               0.08:  Build Rotating 
 BS  .in                  6.50:  Bit Size 
 BSZ .in                  6.50:  Bit Size 
 BTPL.psig              108.00:  Bit Press Loss 
 CABU.                     Yes:  Customer Abuse 
 CGEO.           Emin Aliyarli:  Customer Geo 
 COMM.                     Ô8c:  Run Comments 1 
 TCS .hr                 74.20:  Time Ciculation Ended 
 CV  .mps                 3.63:  Crit Velocity 
 CVMX.mps                 3.66:  Max Crit Veloc 
 DD1 .         Intigam Rahimov:  Direct Drillr 1 
 DD2 .          Teymur Aghayev:  Direct Drillr 2 
 DDSV.               Geo-Pilot:  DD Service 
 DEFF.%                  97.00:  % Det Eff 
 DLRX.°/30m               1.63:  Dogleg Rot Max 
 DLSO.°/30m               0.00:  Dogleg Oriented 
 DLSX.°/30m               0.00:  Dogleg Str Max 
 DRET.      20.20.00 28-Apr-21:  Drill End Time 
 DRST.      04.45.00 26-Apr-21:  Drill Start Tim 
 DTIM.hr                 34.30:  Time Drilling 
 EDEP.m                3618.01:  End Depth 
 ENG1.           Amrah Tahirov:  Engineer 1 
 ENG2.         Bahruz Mehdiyev:  Engineer 2 
 ENG3.         Farhad Orujzade:  Engineer 3 
 ETIM.      19.00.00 29-Apr-21:  End Time 
 FLOI.gpm               370.00:  Flow In 
 FLON.gpm               300.00:  Flow In Min 
 FLOS.cptm                0.00:  Fluid Loss 
 FLOX.gpm               410.00:  Flow In Max 
 HFLO.                      No:  High Flow 
 HPRE.                      No:  High Pressure 
 HTEM.                      No:  High Temp 
 HYDO.m                   1.80:  Hydro Offset 
 IFIN.deg                67.19:  Inc, Final 
 IMAX.deg                68.42:  Inc Max 
 IMIN.deg                66.33:  Inc Min 
 IMND.m                3532.79:  Inc Min Depth 
 IMXD.m                3192.15:  Inc Max Depth 
 JARR.                      No:  Jarring 
 LETM.      20.20.00 28-Apr-21:  Log End Time 
 LOST.hr                     0:  Lost Rig Time 
 LSTM.      04.45.00 26-Apr-21:  Log Start Time 
 MDCL.ppm             36500.00:  Mud Chlorides 
 MDES.     Inversion Oil/Synthetic:  Mud Desc 
 DFD .sg                  1.42:  Mud Density 
 MDMN.sg                  1.42:  Dens Mud Min 
 MDMX.sg                  1.42:  Dens Mud Max 
 MOIL.                    55.7:  Run Mud Oil % 
 MOWR.                   71:29:  Run Mud OWR 
 MSND.                     0.1:  Run Mud Sand % 
 MSOL.                    19.9:  Run Mud Solids% 
 DFV .spqt               83.00:  Mud Viscosity 
 MWOD.in                  5.15:  MWD Tool OD 
 MWSI.                      No:  Serv Intrp, MWD 
 OTIM.hr                120.59:  Time Operating 
 PCON.           Look Like New:  Pad Condition 
 PMAX.psia            11292.93:  Press Op, Max 
 PV  .cP                 27.00:  Mud PV 
 RUN .                     400:  Run Number 
 ROPA.m/hr               14.00:  ROP Avg 
 ROPN.m/hr                9.00:  ROP Min 
 ROPX.m/hr               18.00:  ROP Max 
 RPMA.rpm               130.00:  RPM Surface Avg 
 RPMN.rpm               100.00:  RPM Surface Min 
 RPMX.rpm               140.00:  RPM Surface Max 
 RRUN.                    0400:  Rig Run Number 
 RTIM.hr                 38.60:  Time Reaming 
 SAZI.deg               149.55:  Azm, Start 
 SDEP.m                3180.01:  Start Depth 
 SIDD.                      No:  Serv Intrp, DD 
 SINC.deg                68.42:  Inc, Start 
 SPPA.psig             4400.00:  SPP Avg 
 SPPN.psig             3580.00:  SPP Min 
 SPPX.psig             4850.00:  SPP Max 
 STIM.      12.30.00 24-Apr-21:  Start Time 
 SVCS.                 DD, MWD:  Services 
 SVER.                    9.20:  Sperry Version 
 TDAT.m                 438.00:  Tot Depth Attmp 
 TDDF.                      No:  Trip for DD 
 TDLG.m                 438.00:  Tot Depth Loggd 
 TFF .                      No:  Trip for Fail 
 TQAA.f-kp               11.00:  Torque Abs Avg 
 TQAN.f-kp                9.00:  Torque Abs Min 
 TQAX.f-kp               14.00:  Torque Abs Max 
 TRRT.°/30m               0.04:  Turn Rotating 
 MRT .                    HCIM:  Maximum Recorded Temperature 
 TTMX.degC               84.31:  Max Tool Temp 
 VS01.                90521954:  Virtual Str1 SN 
 VS02.                90519327:  Virtual Str2 SN 
 VS03.                90522273:  Virtual Str3 SN 
 VS04.                11108038:  Virtual Str4 SN 
 VS05.                12258760:  Virtual Str5 SN 
 WBMN.klb                 1.00:  WOB Min 
 WITN.           Adil Mammadov:  Customer Rep 
 WITN.         Alex Yadullayev:  Customer Rep 2 
 WOBA.klb                 6.00:  WOB Avg 
 WOBX.klb                 9.00:  WOB Max 
 YP  .lhf2               31.00:  Yield Point 
~Curve Information Block
#MNEM.UNIT                 API CODE     Curve Description
#---------               -----------    ---------------------------
 TIME.HHMMSS            00 000 000 000:  GT Time & Date
 GTDEPTH.m              00 000 000 000:  GT Depth
 GTPQH.psia             00 000 000 000:  GT HR Quartz Pressure
 GTTQ.degC              00 000 000 000:  GT Quartz Temperature
 GTTN.NONE              00 000 000 000:  GT Test Number
 GTET.sec               00 000 000 000:  GT Elapsed Test Time
 GTTVD.m                00 000 000 000:  GT True Vertical Depth
#Other Information
#
#WARRANTY: Halliburton will use its best efforts to furnish customers with 
#accurate information and interpretations that are part of, and incident to, the services 
#provided.  However, Halliburton cannot and does not warrant the accuracy 
#or correctness of such information and interpretations.  Under no circumstances should any 
#such information or interpretation be relied upon as the sole basis for any drilling, 
#completion, production, or financial decision or any procedure involving any risk to the 
#safety of any drilling venture, drilling rig or its crew or any other third party.  The 
#Customer has full responsibility for all drilling, completion and production operation.  
#Halliburton makes no representations or warranties, either expressed or 
#implied, including, but not limited to, the implied warranties of merchantability or fitness 
#for a particular purpose, with respect to the services rendered.  In no event will 
#Halliburton be liable for failure to obtain any particular results or for 
#any damages, including, but not limited to, indirect, special or consequential damages, 
#resulting from the use of any information or interpretation provided by Halliburton.
#
~A           TIME           GTDEPTH  GTPQH  GTTQ  GTTN  GTET   GTTVD  
# ...
   06:56:24.788.28-Apr-2021 3473.01 3651.39 72.83 8.00 115.02 2748.71
   06:56:24.988.28-Apr-2021 3473.01 3651.39 72.83 8.00 115.22 2748.71
   06:56:25.188.28-Apr-2021 3473.01 3651.41 72.83 8.00 115.42 2748.71
   06:56:25.388.28-Apr-2021 3473.01 3651.33 72.83 8.00 115.62 2748.71
   06:56:25.588.28-Apr-2021 3473.01 3651.42 72.83 8.00 115.82 2748.71
   06:56:25.788.28-Apr-2021 3473.01 3651.35 72.83 8.00 116.02 2748.71
   06:56:25.988.28-Apr-2021 3473.01 3651.35 72.83 8.00 116.22 2748.71
   06:56:26.189.28-Apr-2021 3473.01 3651.37 72.83 8.00 116.42 2748.71
   06:56:26.389.28-Apr-2021 3473.01 3651.35 72.83 8.00 116.62 2748.71
   06:56:26.589.28-Apr-2021 3473.01 3651.38 72.83 8.00 116.82 2748.71
   06:56:26.789.28-Apr-2021 3473.01 3651.35 72.83 8.00 117.02 2748.71
   06:56:26.989.28-Apr-2021 3473.01 3651.35 72.83 8.00 117.22 2748.71
   06:56:27.189.28-Apr-2021 3473.01 3651.36 72.83 8.00 117.42 2748.71
   06:56:27.389.28-Apr-2021 3473.01 3651.11 72.83 8.00 117.62 2748.71
   06:56:27.589.28-Apr-2021 3473.01 3651.48 72.83 8.00 117.82 2748.71
   06:56:27.789.28-Apr-2021 3473.01 3651.35 72.83 8.00 118.02 2748.71
   06:56:27.989.28-Apr-2021 3473.01 3651.35 72.83 8.00 118.22 2748.71
   06:56:28.189.28-Apr-2021 3473.01 3651.29 72.82 8.00 118.42 2748.71
   06:56:28.389.28-Apr-2021 3473.01 3651.37 72.82 8.00 118.62 2748.71
   06:56:28.589.28-Apr-2021 3473.01 3651.36 72.82 8.00 118.82 2748.71
   06:56:28.789.28-Apr-2021 3473.01 3651.34 72.82 8.00 119.02 2748.71
   06:56:28.989.28-Apr-2021 3473.01 3651.34 72.82 8.00 119.22 2748.71
   06:56:29.189.28-Apr-2021 3473.01 3651.31 72.82 8.00 119.42 2748.71
   06:56:29.389.28-Apr-2021 3473.01 3651.36 72.82 8.00 119.62 2748.71
   06:56:29.589.28-Apr-2021 3473.01 3651.32 72.82 8.00 119.82 2748.71
   06:56:29.789.28-Apr-2021 3473.01 3651.34 72.82 8.00 120.02 2748.71
   06:56:29.989.28-Apr-2021 3473.01 3651.34 72.82 8.00 120.22 2748.71
   06:56:30.189.28-Apr-2021 3473.01 3651.24 72.82 8.00 120.42 2748.71
   06:56:30.389.28-Apr-2021 3473.01 3651.41 72.82 8.00 120.62 2748.71
   06:56:30.589.28-Apr-2021 3473.01 3651.34 72.82 8.00 120.82 2748.71
   06:56:30.789.28-Apr-2021 3473.01 3651.14 72.82 8.00 121.02 2748.71
   06:56:30.989.28-Apr-2021 3473.01 3651.14 72.82 8.00 121.22 2748.71
   06:56:31.189.28-Apr-2021 3473.01 3651.34 72.82 8.00 121.42 2748.71
   06:56:31.389.28-Apr-2021 3473.01 3651.37 72.82 8.00 121.62 2748.71
   06:56:31.589.28-Apr-2021 3473.01 3651.26 72.82 8.00 121.82 2748.71
   06:56:31.789.28-Apr-2021 3473.01 3651.30 72.82 8.00 122.02 2748.71
   06:56:31.989.28-Apr-2021 3473.01 3651.30 72.82 8.00 122.22 2748.71
   06:56:32.189.28-Apr-2021 3473.01 3651.40 72.82 8.00 122.42 2748.71
   06:56:32.389.28-Apr-2021 3473.01 3651.35 72.81 8.00 122.62 2748.71
   06:56:32.589.28-Apr-2021 3473.01 3651.28 72.81 8.00 122.82 2748.71
   06:56:32.790.28-Apr-2021 3473.01 3651.37 72.81 8.00 123.02 2748.71
   06:56:32.990.28-Apr-2021 3473.01 3651.37 72.81 8.00 123.22 2748.71
   06:56:33.190.28-Apr-2021 3473.01 3651.28 72.81 8.00 123.42 2748.71
   06:56:33.390.28-Apr-2021 3473.01 3651.34 72.81 8.00 123.62 2748.71
   06:56:33.590.28-Apr-2021 3473.01 3651.33 72.81 8.00 123.82 2748.71
   06:56:33.790.28-Apr-2021 3473.01 3651.32 72.81 8.00 124.02 2748.71
   06:56:33.990.28-Apr-2021 3473.01 3651.32 72.81 8.00 124.22 2748.71
   06:56:34.190.28-Apr-2021 3473.01 3651.33 72.81 8.00 124.42 2748.71
   06:56:34.390.28-Apr-2021 3473.01 3651.32 72.81 8.00 124.62 2748.71
   06:56:34.590.28-Apr-2021 3473.01 3651.30 72.81 8.00 124.82 2748.71
   06:56:34.790.28-Apr-2021 3473.01 3651.31 72.81 8.00 125.02 2748.71
   06:56:34.990.28-Apr-2021 3473.01 3651.31 72.81 8.00 125.22 2748.71
   06:56:35.190.28-Apr-2021 3473.01 3651.34 72.81 8.00 125.42 2748.71
   06:56:35.390.28-Apr-2021 3473.01 3651.25 72.81 8.00 125.62 2748.71
   06:56:35.590.28-Apr-2021 3473.01 3651.32 72.81 8.00 125.82 2748.71
   06:56:35.790.28-Apr-2021 3473.01 3651.10 72.81 8.00 126.02 2748.71
   06:56:35.990.28-Apr-2021 3473.01 3651.10 72.81 8.00 126.22 2748.71
   06:56:36.190.28-Apr-2021 3473.01 3651.32 72.81 8.00 126.42 2748.71
   06:56:36.390.28-Apr-2021 3473.01 3651.28 72.80 8.00 126.62 2748.71
   06:56:36.590.28-Apr-2021 3473.01 3651.29 72.80 8.00 126.82 2748.71
   06:56:36.790.28-Apr-2021 3473.01 3651.28 72.80 8.00 127.02 2748.71
   06:56:36.990.28-Apr-2021 3473.01 3651.28 72.80 8.00 127.22 2748.71
   06:56:37.190.28-Apr-2021 3473.01 3651.30 72.80 8.00 127.42 2748.71
   06:56:37.390.28-Apr-2021 3473.01 3651.28 72.80 8.00 127.62 2748.71
   06:56:37.590.28-Apr-2021 3473.01 3651.30 72.80 8.00 127.82 2748.71
   06:56:37.790.28-Apr-2021 3473.01 3651.26 72.80 8.00 128.02 2748.71
   06:56:37.990.28-Apr-2021 3473.01 3651.26 72.80 8.00 128.22 2748.71
   06:56:38.190.28-Apr-2021 3473.01 3651.26 72.80 8.00 128.42 2748.71
   06:56:38.390.28-Apr-2021 3473.01 3651.27 72.80 8.00 128.62 2748.71
   06:56:38.590.28-Apr-2021 3473.01 3651.11 72.80 8.00 128.82 2748.71
   06:56:38.790.28-Apr-2021 3473.01 3651.34 72.80 8.00 129.02 2748.71
   06:56:38.990.28-Apr-2021 3473.01 3651.34 72.80 8.00 129.22 2748.71
   06:56:39.190.28-Apr-2021 3473.01 3651.13 72.80 8.00 129.42 2748.71
   06:56:39.390.28-Apr-2021 3473.01 3651.29 72.80 8.00 129.62 2748.71
   06:56:39.591.28-Apr-2021 3473.01 3651.32 72.80 8.00 129.82 2748.71
   06:56:39.791.28-Apr-2021 3473.01 3651.28 72.80 8.00 130.02 2748.71
   06:56:39.991.28-Apr-2021 3473.01 3651.28 72.80 8.00 130.22 2748.71
   06:56:40.191.28-Apr-2021 3473.01 3651.24 72.80 8.00 130.42 2748.71
   06:56:40.391.28-Apr-2021 3473.01 3651.14 72.80 8.00 130.62 2748.71
   06:56:40.591.28-Apr-2021 3473.01 3631.06 72.80 8.00 130.82 2748.71
   06:56:40.791.28-Apr-2021 3473.01 3619.76 72.79 8.00 131.02 2748.71
   06:56:40.991.28-Apr-2021 3473.01 3619.76 72.79 8.00 131.22 2748.71
   06:56:41.191.28-Apr-2021 3473.01 3619.75 72.79 8.00 131.42 2748.71
   06:56:41.391.28-Apr-2021 3473.01 3620.00 72.79 8.00 131.62 2748.71
   06:56:41.591.28-Apr-2021 3473.01 3619.36 72.79 8.00 131.82 2748.71
   06:56:41.791.28-Apr-2021 3473.01 3620.39 72.79 8.00 132.02 2748.71
   06:56:41.991.28-Apr-2021 3473.01 3620.39 72.79 8.00 132.22 2748.71
   06:56:42.191.28-Apr-2021 3473.01 3619.74 72.79 8.00 132.42 2748.71
   06:56:42.391.28-Apr-2021 3473.01 3619.98 72.79 8.00 132.62 2748.71
   06:56:42.591.28-Apr-2021 3473.01 3619.69 72.79 8.00 132.82 2748.71
   06:56:42.791.28-Apr-2021 3473.01 3620.11 72.79 8.00 133.02 2748.71
   06:56:42.991.28-Apr-2021 3473.01 3620.11 72.79 8.00 133.22 2748.71
   06:56:43.191.28-Apr-2021 3473.01 3619.72 72.79 8.00 133.42 2748.71
   06:56:43.391.28-Apr-2021 3473.01 3619.66 72.79 8.00 133.62 2748.71
   06:56:43.591.28-Apr-2021 3473.01 3619.68 72.79 8.00 133.82 2748.71
   06:56:43.791.28-Apr-2021 3473.01 3619.58 72.79 8.00 134.02 2748.71
   06:56:43.991.28-Apr-2021 3473.01 3619.58 72.79 8.00 134.22 2748.71
   06:56:44.191.28-Apr-2021 3473.01 3619.37 72.79 8.00 134.42 2748.71
   06:56:44.391.28-Apr-2021 3473.01 3619.68 72.79 8.00 134.62 2748.71
   06:56:44.591.28-Apr-2021 3473.01 3619.84 72.79 8.00 134.82 2748.71
   06:56:44.791.28-Apr-2021 3473.01 3619.73 72.79 8.00 135.02 2748.71
   06:56:44.991.28-Apr-2021 3473.01 3619.73 72.79 8.00 135.22 2748.71
   06:56:45.191.28-Apr-2021 3473.01 3619.90 72.78 8.00 135.42 2748.71
   06:56:45.391.28-Apr-2021 3473.01 3619.56 72.78 8.00 135.62 2748.71
   06:56:45.591.28-Apr-2021 3473.01 3619.77 72.78 8.00 135.82 2748.71
   06:56:45.791.28-Apr-2021 3473.01 3619.74 72.78 8.00 136.02 2748.71
   06:56:45.991.28-Apr-2021 3473.01 3619.74 72.78 8.00 136.22 2748.71
   06:56:46.191.28-Apr-2021 3473.01 3619.96 72.78 8.00 136.42 2748.71
   06:56:46.392.28-Apr-2021 3473.01 3619.61 72.78 8.00 136.62 2748.71
   06:56:46.592.28-Apr-2021 3473.01 3619.86 72.78 8.00 136.82 2748.71
   06:56:46.792.28-Apr-2021 3473.01 3619.83 72.78 8.00 137.02 2748.71
   06:56:46.992.28-Apr-2021 3473.01 3619.83 72.78 8.00 137.22 2748.71
   06:56:47.192.28-Apr-2021 3473.01 3620.53 72.78 8.00 137.42 2748.71
   06:56:47.392.28-Apr-2021 3473.01 3619.94 72.78 8.00 137.62 2748.71
   06:56:47.592.28-Apr-2021 3473.01 3619.76 72.78 8.00 137.82 2748.71
