~Version Information
 VERS.                  2.0:   CWLS log ASCII Standard -VERSION 2.0
 WRAP.                   NO:   One line per depth step
~Well Information Block
#MNEM.UNIT     VALUE/NAME     DESCRIPTION
#---------     -----------    ---------------------------
 STRT.S             13:09:03 28-Apr-21: START TIME 13:09:03 28-Apr-21
 STOP.S             13:15:31 28-Apr-21: STOP TIME  13:15:31 28-Apr-21
 STEP.S                   0.00: STEP TIME
 NULL.                 -999.25: NULL VALUE
 DFWT.                        :  DIST FWL TEXT
 DFST.                        :  DIST FSL TEXT
 DMF .             Drill Floor:  DRILL MEAS FROM
 STIM.      02.00.00 12-Apr-21:  START TIME
 DATE.      02.00.00 02-May-21:  END TIME
 SPUD.               09-Apr-21:  SPUD DATE
 NREF.                    Grid:  NORTH REFERENCE
 HPTY.       Minimum Curvature:  HOLE POS TYPE
 DMOD.             Drill Model:  DRILL MOD DESC
 SVYD.                  Survey:  SURVEY DESC
 ILTD.               Lithology:  INTERP LTH DESC
 FTOP.          Formation Tops:  FORM TOPS DESC
 PDAT.          Mean Sea Level:  PERMANENT DATUM
 FLD .                     ACG:  FIELD NAME
 SON .        AZ-XX-0907021034:  JOB NUMBER
 CTRY.              Azerbaijan:  COUNTRY NAME
 WELL.                    E01x:  WELL NAME
 COMP.     BP Exploration (Caspian Sea) LTD.:  COMPANY
 UWI .            /AZE00001403:  UNIQUE WELL IDENTIFIER
 API .            /AZE00001403:  API NUMBER
 WTYP.                Deviated:  WELL TYPE
 MDS .        Operator Entered:  MAG DATA SOURCE
 BASE.              Azerbaijan:  LOGGING EQUIPMENT BASE LOCATION
 REGN.                   EESSA:  REGION
 PROV.                    Baku:  PROVINCE
 STAT.                    Baku:  STATE NAME
 SRVC.          Turan Drilling:  CONTRACTOR
 MWDS.                    Baku:  MWD SHOP
 JOBN.        AZ-XX-0907021034:  JOB TICKET NUMB
 RIG .                     DWG:  RIG NAME
 DOE .                     N/A:  DOE NUMBER
 DCON.         Sperry Drilling:  DIRECTNL CONTR
 UNIT.                     N/A:  LOGGING EQUIPMENT ID
 CNTY.                        :  COUNTY
 LOC .                        :  LOCATION
 LMF .             Drill Floor:  LOG MEASURED FROM
 TVDS.m                  43.16:  TVDSS CORRECTN
 LATI.deg                40.17:  LATITUDE
 LONG.deg                51.17:  LONGITUDE
 WHNS.m                  -5.90:  WELL HEAD N/S
 WHEW.m                  -6.61:  WELL HEAD E/W
 UTMX.m              514337.95:  UTM X
 UTMY.m             4448627.46:  UTM Y
 DFWL.m                   0.00:  DISTANCE FWL
 DFSL.m                   0.00:  DISTANCE FSL
 SDEP.m                2606.87:  START DEPTH
 TDD .m                3618.01:  TOTAL DEPTH (DRILLER)
 VSDR.deg               177.42:  VERT SEC DIRECT
 GVFD.g                   1.00:  GRAVITY FIELD
 MFLD.nT              50399.00:  MAGNETIC FIELD
 MDIP.deg                59.67:  MAGNETIC DIP
 MDEC.deg                 6.56:  MAGNETIC DECL
 GRDC.deg                 0.11:  GRID CORRECTION
 AZTC.deg                 6.45:  AZM TOTAL CORR
 EPD .m                   0.00:  ELEVATION
 EGL .m                   0.00:  GROUND ELEVATION
 WDMS.m                 176.20:  WD ELEV
 APD .m                  43.16:  DEPTH ABOVE PD
 DEP .m                2606.87:  DEPTH
 AGAP.m                  43.16:  AIR GAP
 VSEW.m                  -6.61:  VERT SEC E/W
 VSNS.m                  -5.90:  VERT SEC N/S
 EKB .m                  43.16:  KB ELEVATION
 EDF .m                  43.16:  DF ELEVATION
 TDL .m                 438.00:  TOTAL DEPTH (LOGGER)
 VSC .                       0:  VS TO CLOSURE
 MAGU.                 1855490:  MAGUTM CHECKSUM
~Parameter Information Block
#MNEM.UNIT       Value        Description
#---------     -----------    ---------------------------
 AV  .mps                 2.20:  Ann Velocity 
 AVMX.mps                 2.50:  Max Ann Veloc 
 AZIF.deg               150.21:  Azm, Final 
 BHAT.        Rotary Steerable:  BHA Type 
 BROT.∞/30m               0.08:  Build Rotating 
 BS  .in                  6.50:  Bit Size 
 BSZ .in                  6.50:  Bit Size 
 BTPL.psig              108.00:  Bit Press Loss 
 CABU.                     Yes:  Customer Abuse 
 CGEO.           Emin Aliyarli:  Customer Geo 
 COMM.                     ‹Ïq:  Run Comments 1 
 TCS .hr                 74.20:  Time Ciculation Ended 
 CV  .mps                 3.63:  Crit Velocity 
 CVMX.mps                 3.66:  Max Crit Veloc 
 DD1 .         Intigam Rahimov:  Direct Drillr 1 
 DD2 .          Teymur Aghayev:  Direct Drillr 2 
 DDSV.               Geo-Pilot:  DD Service 
 DEFF.%                  97.00:  % Det Eff 
 DLRX.∞/30m               1.63:  Dogleg Rot Max 
 DLSO.∞/30m               0.00:  Dogleg Oriented 
 DLSX.∞/30m               0.00:  Dogleg Str Max 
 DRET.      20.20.00 28-Apr-21:  Drill End Time 
 DRST.      04.45.00 26-Apr-21:  Drill Start Tim 
 DTIM.hr                 34.30:  Time Drilling 
 EDEP.m                3618.01:  End Depth 
 ENG1.           Amrah Tahirov:  Engineer 1 
 ENG2.         Bahruz Mehdiyev:  Engineer 2 
 ENG3.         Farhad Orujzade:  Engineer 3 
 ETIM.      19.00.00 29-Apr-21:  End Time 
 FLOI.gpm               370.00:  Flow In 
 FLON.gpm               300.00:  Flow In Min 
 FLOS.cptm                0.00:  Fluid Loss 
 FLOX.gpm               410.00:  Flow In Max 
 HFLO.                      No:  High Flow 
 HPRE.                      No:  High Pressure 
 HTEM.                      No:  High Temp 
 HYDO.m                   1.80:  Hydro Offset 
 IFIN.deg                67.19:  Inc, Final 
 IMAX.deg                68.42:  Inc Max 
 IMIN.deg                66.33:  Inc Min 
 IMND.m                3532.79:  Inc Min Depth 
 IMXD.m                3192.15:  Inc Max Depth 
 JARR.                      No:  Jarring 
 LETM.      20.20.00 28-Apr-21:  Log End Time 
 LOST.hr                     0:  Lost Rig Time 
 LSTM.      04.45.00 26-Apr-21:  Log Start Time 
 MDCL.ppm             36500.00:  Mud Chlorides 
 MDES.     Inversion Oil/Synthetic:  Mud Desc 
 DFD .sg                  1.42:  Mud Density 
 MDMN.sg                  1.42:  Dens Mud Min 
 MDMX.sg                  1.42:  Dens Mud Max 
 MOIL.                    55.7:  Run Mud Oil % 
 MOWR.                   71:29:  Run Mud OWR 
 MSND.                     0.1:  Run Mud Sand % 
 MSOL.                    19.9:  Run Mud Solids% 
 DFV .spqt               83.00:  Mud Viscosity 
 MWOD.in                  5.15:  MWD Tool OD 
 MWSI.                      No:  Serv Intrp, MWD 
 OTIM.hr                120.59:  Time Operating 
 PCON.           Look Like New:  Pad Condition 
 PMAX.psia            11292.93:  Press Op, Max 
 PV  .cP                 27.00:  Mud PV 
 RUN .                     400:  Run Number 
 ROPA.m/hr               14.00:  ROP Avg 
 ROPN.m/hr                9.00:  ROP Min 
 ROPX.m/hr               18.00:  ROP Max 
 RPMA.rpm               130.00:  RPM Surface Avg 
 RPMN.rpm               100.00:  RPM Surface Min 
 RPMX.rpm               140.00:  RPM Surface Max 
 RRUN.                    0400:  Rig Run Number 
 RTIM.hr                 38.60:  Time Reaming 
 SAZI.deg               149.55:  Azm, Start 
 SDEP.m                3180.01:  Start Depth 
 SIDD.                      No:  Serv Intrp, DD 
 SINC.deg                68.42:  Inc, Start 
 SPPA.psig             4400.00:  SPP Avg 
 SPPN.psig             3580.00:  SPP Min 
 SPPX.psig             4850.00:  SPP Max 
 STIM.      12.30.00 24-Apr-21:  Start Time 
 SVCS.                 DD, MWD:  Services 
 SVER.                    9.20:  Sperry Version 
 TDAT.m                 438.00:  Tot Depth Attmp 
 TDDF.                      No:  Trip for DD 
 TDLG.m                 438.00:  Tot Depth Loggd 
 TFF .                      No:  Trip for Fail 
 TQAA.f-kp               11.00:  Torque Abs Avg 
 TQAN.f-kp                9.00:  Torque Abs Min 
 TQAX.f-kp               14.00:  Torque Abs Max 
 TRRT.∞/30m               0.04:  Turn Rotating 
 MRT .                    HCIM:  Maximum Recorded Temperature 
 TTMX.degC               84.31:  Max Tool Temp 
 VS01.                90521954:  Virtual Str1 SN 
 VS02.                90519327:  Virtual Str2 SN 
 VS03.                90522273:  Virtual Str3 SN 
 VS04.                11108038:  Virtual Str4 SN 
 VS05.                12258760:  Virtual Str5 SN 
 WBMN.klb                 1.00:  WOB Min 
 WITN.           Adil Mammadov:  Customer Rep 
 WITN.         Alex Yadullayev:  Customer Rep 2 
 WOBA.klb                 6.00:  WOB Avg 
 WOBX.klb                 9.00:  WOB Max 
 YP  .lhf2               31.00:  Yield Point 
~Curve Information Block
#MNEM.UNIT                 API CODE     Curve Description
#---------               -----------    ---------------------------
 TIME.HHMMSS            00 000 000 000:  GT Time & Date
 GTDEPTH.m              00 000 000 000:  GT Depth
 GTPQH.psia             00 000 000 000:  GT HR Quartz Pressure
 GTTQ.degC              00 000 000 000:  GT Quartz Temperature
 GTTN.NONE              00 000 000 000:  GT Test Number
 GTET.sec               00 000 000 000:  GT Elapsed Test Time
 GTTVD.m                00 000 000 000:  GT True Vertical Depth
#Other Information
#
#WARRANTY: Halliburton will use its best efforts to furnish customers with 
#accurate information and interpretations that are part of, and incident to, the services 
#provided.  However, Halliburton cannot and does not warrant the accuracy 
#or correctness of such information and interpretations.  Under no circumstances should any 
#such information or interpretation be relied upon as the sole basis for any drilling, 
#completion, production, or financial decision or any procedure involving any risk to the 
#safety of any drilling venture, drilling rig or its crew or any other third party.  The 
#Customer has full responsibility for all drilling, completion and production operation.  
#Halliburton makes no representations or warranties, either expressed or 
#implied, including, but not limited to, the implied warranties of merchantability or fitness 
#for a particular purpose, with respect to the services rendered.  In no event will 
#Halliburton be liable for failure to obtain any particular results or for 
#any damages, including, but not limited to, indirect, special or consequential damages, 
#resulting from the use of any information or interpretation provided by Halliburton.
#
~A           TIME           GTDEPTH  GTPQH  GTTQ  GTTN  GTET   GTTVD  
   13:09:03.427.28-Apr-2021 3524.51 6085.81 75.54 9.00   0.00 2768.78
   13:09:03.627.28-Apr-2021 3524.51 6085.81 75.54 9.00   0.20 2768.78
   13:09:03.827.28-Apr-2021 3524.51 6087.00 75.54 9.00   0.40 2768.78
   13:09:04.027.28-Apr-2021 3524.51 6080.32 75.54 9.00   0.60 2768.78
   13:09:04.227.28-Apr-2021 3524.51 6085.42 75.54 9.00   0.80 2768.78
   13:09:04.427.28-Apr-2021 3524.51 6081.14 75.54 9.00   1.00 2768.78
   13:09:04.628.28-Apr-2021 3524.51 6081.14 75.54 9.00   1.20 2768.78
   13:09:04.828.28-Apr-2021 3524.51 6086.73 75.54 9.00   1.40 2768.78
   13:09:05.028.28-Apr-2021 3524.51 6086.05 75.54 9.00   1.60 2768.78
   13:09:05.228.28-Apr-2021 3524.51 6085.50 75.54 9.00   1.80 2768.78
   13:09:05.428.28-Apr-2021 3524.51 6087.03 75.54 9.00   2.00 2768.78
   13:09:05.628.28-Apr-2021 3524.51 6087.03 75.54 9.00   2.20 2768.78
   13:09:05.828.28-Apr-2021 3524.51 6085.14 75.54 9.00   2.40 2768.78
   13:09:06.028.28-Apr-2021 3524.51 6085.10 75.54 9.00   2.60 2768.78
   13:09:06.228.28-Apr-2021 3524.51 6084.75 75.53 9.00   2.80 2768.78
   13:09:06.428.28-Apr-2021 3524.51 6086.67 75.53 9.00   3.00 2768.78
   13:09:06.628.28-Apr-2021 3524.51 6086.67 75.53 9.00   3.20 2768.78
   13:09:06.828.28-Apr-2021 3524.51 6084.08 75.53 9.00   3.40 2768.78
   13:09:07.028.28-Apr-2021 3524.51 6085.71 75.53 9.00   3.60 2768.78
   13:09:07.228.28-Apr-2021 3524.51 6082.60 75.53 9.00   3.80 2768.78
   13:09:07.428.28-Apr-2021 3524.51 6083.08 75.53 9.00   4.00 2768.78
   13:09:07.628.28-Apr-2021 3524.51 6083.08 75.53 9.00   4.20 2768.78
   13:09:07.828.28-Apr-2021 3524.51 6084.23 75.53 9.00   4.40 2768.78
   13:09:08.028.28-Apr-2021 3524.51 6085.00 75.53 9.00   4.60 2768.78
   13:09:08.228.28-Apr-2021 3524.51 6082.70 75.53 9.00   4.80 2768.78
   13:09:08.428.28-Apr-2021 3524.51 6081.16 75.53 9.00   5.00 2768.78
   13:09:08.628.28-Apr-2021 3524.51 6081.16 75.53 9.00   5.20 2768.78
   13:09:08.828.28-Apr-2021 3524.51 6078.53 75.53 9.00   5.40 2768.78
   13:09:09.028.28-Apr-2021 3524.51 6084.51 75.53 9.00   5.60 2768.78
   13:09:09.228.28-Apr-2021 3524.51 6086.05 75.53 9.00   5.80 2768.78
   13:09:09.428.28-Apr-2021 3524.51 6084.58 75.53 9.00   6.00 2768.78
   13:09:09.628.28-Apr-2021 3524.51 6084.58 75.53 9.00   6.20 2768.78
   13:09:09.828.28-Apr-2021 3524.51 6084.58 75.53 9.00   6.40 2768.78
   13:09:10.028.28-Apr-2021 3524.51 6086.47 75.52 9.00   6.60 2768.78
   13:09:10.228.28-Apr-2021 3524.51 6089.21 75.52 9.00   6.80 2768.78
   13:09:10.428.28-Apr-2021 3524.51 6083.51 75.52 9.00   7.00 2768.78
   13:09:10.628.28-Apr-2021 3524.51 6083.51 75.52 9.00   7.20 2768.78
   13:09:10.829.28-Apr-2021 3524.51 6086.99 75.52 9.00   7.40 2768.78
   13:09:11.029.28-Apr-2021 3524.51 6087.60 75.52 9.00   7.60 2768.78
   13:09:11.229.28-Apr-2021 3524.51 6088.79 75.52 9.00   7.80 2768.78
   13:09:11.429.28-Apr-2021 3524.51 6080.48 75.52 9.00   8.00 2768.78
   13:09:11.629.28-Apr-2021 3524.51 6080.48 75.52 9.00   8.20 2768.78
   13:09:11.829.28-Apr-2021 3524.51 6078.06 75.52 9.00   8.40 2768.78
   13:09:12.029.28-Apr-2021 3524.51 6088.33 75.52 9.00   8.60 2768.78
   13:09:12.229.28-Apr-2021 3524.51 6088.38 75.52 9.00   8.80 2768.78
   13:09:12.429.28-Apr-2021 3524.51 6083.80 75.52 9.00   9.00 2768.78
   13:09:12.629.28-Apr-2021 3524.51 6083.80 75.52 9.00   9.20 2768.78
   13:09:12.829.28-Apr-2021 3524.51 6084.01 75.51 9.00   9.40 2768.78
   13:09:13.029.28-Apr-2021 3524.51 6088.48 75.51 9.00   9.60 2768.78
   13:09:13.229.28-Apr-2021 3524.51 6085.44 75.51 9.00   9.80 2768.78
   13:09:13.429.28-Apr-2021 3524.51 6079.45 75.51 9.00  10.00 2768.78
   13:09:13.629.28-Apr-2021 3524.51 6079.45 75.51 9.00  10.20 2768.78
   13:09:13.829.28-Apr-2021 3524.51 6078.08 75.51 9.00  10.40 2768.78
   13:09:14.029.28-Apr-2021 3524.51 6080.83 75.51 9.00  10.60 2768.78
   13:09:14.229.28-Apr-2021 3524.51 6070.91 75.51 9.00  10.80 2768.78
   13:09:14.429.28-Apr-2021 3524.51 6045.89 75.51 9.00  11.00 2768.78
   13:09:14.629.28-Apr-2021 3524.51 6045.89 75.51 9.00  11.20 2768.78
   13:09:14.829.28-Apr-2021 3524.51 6022.34 75.51 9.00  11.40 2768.78
   13:09:15.029.28-Apr-2021 3524.51 6019.14 75.51 9.00  11.60 2768.78
   13:09:15.229.28-Apr-2021 3524.51 6016.26 75.51 9.00  11.80 2768.78
   13:09:15.429.28-Apr-2021 3524.51 6001.67 75.51 9.00  12.00 2768.78
   13:09:15.629.28-Apr-2021 3524.51 6001.67 75.51 9.00  12.20 2768.78
   13:09:15.829.28-Apr-2021 3524.51 6006.13 75.51 9.00  12.40 2768.78
   13:09:16.029.28-Apr-2021 3524.51 6015.34 75.51 9.00  12.60 2768.78
   13:09:16.229.28-Apr-2021 3524.51 6011.36 75.50 9.00  12.80 2768.78
   13:09:16.429.28-Apr-2021 3524.51 6012.32 75.50 9.00  13.00 2768.78
   13:09:16.629.28-Apr-2021 3524.51 6012.32 75.50 9.00  13.20 2768.78
   13:09:16.829.28-Apr-2021 3524.51 5929.30 75.50 9.00  13.40 2768.78
   13:09:17.030.28-Apr-2021 3524.51 5895.03 75.50 9.00  13.60 2768.78
   13:09:17.230.28-Apr-2021 3524.51 5854.75 75.50 9.00  13.80 2768.78
   13:09:17.430.28-Apr-2021 3524.51 5813.14 75.50 9.00  14.00 2768.78
   13:09:17.630.28-Apr-2021 3524.51 5813.14 75.50 9.00  14.20 2768.78
   13:09:17.830.28-Apr-2021 3524.51 5697.67 75.50 9.00  14.40 2768.78
   13:09:18.030.28-Apr-2021 3524.51 5660.20 75.50 9.00  14.60 2768.78
   13:09:18.230.28-Apr-2021 3524.51 5611.16 75.50 9.00  14.80 2768.78
   13:09:18.430.28-Apr-2021 3524.51 5570.02 75.50 9.00  15.00 2768.78
   13:09:18.630.28-Apr-2021 3524.51 5570.02 75.50 9.00  15.20 2768.78
   13:09:18.830.28-Apr-2021 3524.51 5539.51 75.50 9.00  15.40 2768.78
   13:09:19.030.28-Apr-2021 3524.51 5494.91 75.50 9.00  15.60 2768.78
   13:09:19.230.28-Apr-2021 3524.51 5431.17 75.50 9.00  15.80 2768.78
   13:09:19.430.28-Apr-2021 3524.51 5428.09 75.49 9.00  16.00 2768.78
   13:09:19.630.28-Apr-2021 3524.51 5428.09 75.49 9.00  16.20 2768.78
   13:09:19.830.28-Apr-2021 3524.51 5314.20 75.49 9.00  16.40 2768.78
   13:09:20.030.28-Apr-2021 3524.51 5298.17 75.49 9.00  16.60 2768.78
   13:09:20.230.28-Apr-2021 3524.51 5769.70 75.49 9.00  16.80 2768.78
   13:09:20.430.28-Apr-2021 3524.51 5983.09 75.49 9.00  17.00 2768.78
   13:09:20.630.28-Apr-2021 3524.51 5983.09 75.49 9.00  17.20 2768.78
   13:09:20.830.28-Apr-2021 3524.51 6237.80 75.49 9.00  17.40 2768.78
   13:09:21.030.28-Apr-2021 3524.51 6411.39 75.49 9.00  17.60 2768.78
   13:09:21.230.28-Apr-2021 3524.51 6622.34 75.49 9.00  17.80 2768.78
   13:09:21.430.28-Apr-2021 3524.51 6817.19 75.49 9.00  18.00 2768.78
   13:09:21.630.28-Apr-2021 3524.51 6817.19 75.49 9.00  18.20 2768.78
   13:09:21.830.28-Apr-2021 3524.51 7051.33 75.49 9.00  18.40 2768.78
   13:09:22.030.28-Apr-2021 3524.51 7075.55 75.49 9.00  18.60 2768.78
   13:09:22.230.28-Apr-2021 3524.51 7067.80 75.49 9.00  18.80 2768.78
   13:09:22.430.28-Apr-2021 3524.51 7061.55 75.49 9.00  19.00 2768.78
   13:09:22.630.28-Apr-2021 3524.51 7061.55 75.49 9.00  19.20 2768.78
   13:09:22.830.28-Apr-2021 3524.51 7035.12 75.48 9.00  19.40 2768.78
   13:09:23.030.28-Apr-2021 3524.51 7039.28 75.48 9.00  19.60 2768.78
   13:09:23.231.28-Apr-2021 3524.51 6968.40 75.48 9.00  19.80 2768.78
   13:09:23.431.28-Apr-2021 3524.51 7007.80 75.48 9.00  20.00 2768.78
   13:09:23.631.28-Apr-2021 3524.51 7007.80 75.48 9.00  20.20 2768.78
   13:09:23.831.28-Apr-2021 3524.51 7048.04 75.48 9.00  20.40 2768.78
   13:09:24.031.28-Apr-2021 3524.51 7054.52 75.48 9.00  20.60 2768.78
   13:09:24.231.28-Apr-2021 3524.51 7064.08 75.48 9.00  20.80 2768.78
   13:09:24.431.28-Apr-2021 3524.51 7070.83 75.48 9.00  21.00 2768.78
   13:09:24.631.28-Apr-2021 3524.51 7070.83 75.48 9.00  21.20 2768.78
   13:09:24.831.28-Apr-2021 3524.51 7073.20 75.48 9.00  21.40 2768.78
   13:09:25.031.28-Apr-2021 3524.51 7072.58 75.48 9.00  21.60 2768.78
   13:09:25.231.28-Apr-2021 3524.51 7078.61 75.48 9.00  21.80 2768.78
   13:09:25.431.28-Apr-2021 3524.51 7082.85 75.48 9.00  22.00 2768.78
   13:09:25.631.28-Apr-2021 3524.51 7082.85 75.48 9.00  22.20 2768.78
   13:09:25.831.28-Apr-2021 3524.51 6971.20 75.48 9.00  22.40 2768.78
   13:09:26.031.28-Apr-2021 3524.51 6983.83 75.48 9.00  22.60 2768.78
   13:09:26.231.28-Apr-2021 3524.51 6991.89 75.48 9.00  22.80 2768.78
