~Version Information
 VERS.                  2.0:   CWLS log ASCII Standard -VERSION 2.0
 WRAP.                   NO:   One line per depth step
~Well Information Block
#MNEM.UNIT     VALUE/NAME     DESCRIPTION
#---------     -----------    ---------------------------
 STRT.S             15:37:44 28-Apr-21: START TIME 15:37:44 28-Apr-21
 STOP.S             15:44:12 28-Apr-21: STOP TIME  15:44:12 28-Apr-21
 STEP.S                   0.00: STEP TIME
 NULL.                 -999.25: NULL VALUE
 DFWT.                        :  DIST FWL TEXT
 DFST.                        :  DIST FSL TEXT
 DMF .             Drill Floor:  DRILL MEAS FROM
 STIM.      02.00.00 12-Apr-21:  START TIME
 DATE.      02.00.00 02-May-21:  END TIME
 SPUD.               09-Apr-21:  SPUD DATE
 NREF.                    Grid:  NORTH REFERENCE
 HPTY.       Minimum Curvature:  HOLE POS TYPE
 DMOD.             Drill Model:  DRILL MOD DESC
 SVYD.                  Survey:  SURVEY DESC
 ILTD.               Lithology:  INTERP LTH DESC
 FTOP.          Formation Tops:  FORM TOPS DESC
 PDAT.          Mean Sea Level:  PERMANENT DATUM
 FLD .                     ACG:  FIELD NAME
 SON .        AZ-XX-0907021034:  JOB NUMBER
 CTRY.              Azerbaijan:  COUNTRY NAME
 WELL.                    E01x:  WELL NAME
 COMP.     BP Exploration (Caspian Sea) LTD.:  COMPANY
 UWI .            /AZE00001403:  UNIQUE WELL IDENTIFIER
 API .            /AZE00001403:  API NUMBER
 WTYP.                Deviated:  WELL TYPE
 MDS .        Operator Entered:  MAG DATA SOURCE
 BASE.              Azerbaijan:  LOGGING EQUIPMENT BASE LOCATION
 REGN.                   EESSA:  REGION
 PROV.                    Baku:  PROVINCE
 STAT.                    Baku:  STATE NAME
 SRVC.          Turan Drilling:  CONTRACTOR
 MWDS.                    Baku:  MWD SHOP
 JOBN.        AZ-XX-0907021034:  JOB TICKET NUMB
 RIG .                     DWG:  RIG NAME
 DOE .                     N/A:  DOE NUMBER
 DCON.         Sperry Drilling:  DIRECTNL CONTR
 UNIT.                     N/A:  LOGGING EQUIPMENT ID
 CNTY.                        :  COUNTY
 LOC .                        :  LOCATION
 LMF .             Drill Floor:  LOG MEASURED FROM
 TVDS.m                  43.16:  TVDSS CORRECTN
 LATI.deg                40.17:  LATITUDE
 LONG.deg                51.17:  LONGITUDE
 WHNS.m                  -5.90:  WELL HEAD N/S
 WHEW.m                  -6.61:  WELL HEAD E/W
 UTMX.m              514337.95:  UTM X
 UTMY.m             4448627.46:  UTM Y
 DFWL.m                   0.00:  DISTANCE FWL
 DFSL.m                   0.00:  DISTANCE FSL
 SDEP.m                2606.87:  START DEPTH
 TDD .m                3618.01:  TOTAL DEPTH (DRILLER)
 VSDR.deg               177.42:  VERT SEC DIRECT
 GVFD.g                   1.00:  GRAVITY FIELD
 MFLD.nT              50399.00:  MAGNETIC FIELD
 MDIP.deg                59.67:  MAGNETIC DIP
 MDEC.deg                 6.56:  MAGNETIC DECL
 GRDC.deg                 0.11:  GRID CORRECTION
 AZTC.deg                 6.45:  AZM TOTAL CORR
 EPD .m                   0.00:  ELEVATION
 EGL .m                   0.00:  GROUND ELEVATION
 WDMS.m                 176.20:  WD ELEV
 APD .m                  43.16:  DEPTH ABOVE PD
 DEP .m                2606.87:  DEPTH
 AGAP.m                  43.16:  AIR GAP
 VSEW.m                  -6.61:  VERT SEC E/W
 VSNS.m                  -5.90:  VERT SEC N/S
 EKB .m                  43.16:  KB ELEVATION
 EDF .m                  43.16:  DF ELEVATION
 TDL .m                 438.00:  TOTAL DEPTH (LOGGER)
 VSC .                       0:  VS TO CLOSURE
 MAGU.                 1855490:  MAGUTM CHECKSUM
~Parameter Information Block
#MNEM.UNIT       Value        Description
#---------     -----------    ---------------------------
 AV  .mps                 2.20:  Ann Velocity 
 AVMX.mps                 2.50:  Max Ann Veloc 
 AZIF.deg               150.21:  Azm, Final 
 BHAT.        Rotary Steerable:  BHA Type 
 BROT.°/30m               0.08:  Build Rotating 
 BS  .in                  6.50:  Bit Size 
 BSZ .in                  6.50:  Bit Size 
 BTPL.psig              108.00:  Bit Press Loss 
 CABU.                     Yes:  Customer Abuse 
 CGEO.           Emin Aliyarli:  Customer Geo 
 COMM.                     ôŸZ:  Run Comments 1 
 TCS .hr                 74.20:  Time Ciculation Ended 
 CV  .mps                 3.63:  Crit Velocity 
 CVMX.mps                 3.66:  Max Crit Veloc 
 DD1 .         Intigam Rahimov:  Direct Drillr 1 
 DD2 .          Teymur Aghayev:  Direct Drillr 2 
 DDSV.               Geo-Pilot:  DD Service 
 DEFF.%                  97.00:  % Det Eff 
 DLRX.°/30m               1.63:  Dogleg Rot Max 
 DLSO.°/30m               0.00:  Dogleg Oriented 
 DLSX.°/30m               0.00:  Dogleg Str Max 
 DRET.      20.20.00 28-Apr-21:  Drill End Time 
 DRST.      04.45.00 26-Apr-21:  Drill Start Tim 
 DTIM.hr                 34.30:  Time Drilling 
 EDEP.m                3618.01:  End Depth 
 ENG1.           Amrah Tahirov:  Engineer 1 
 ENG2.         Bahruz Mehdiyev:  Engineer 2 
 ENG3.         Farhad Orujzade:  Engineer 3 
 ETIM.      19.00.00 29-Apr-21:  End Time 
 FLOI.gpm               370.00:  Flow In 
 FLON.gpm               300.00:  Flow In Min 
 FLOS.cptm                0.00:  Fluid Loss 
 FLOX.gpm               410.00:  Flow In Max 
 HFLO.                      No:  High Flow 
 HPRE.                      No:  High Pressure 
 HTEM.                      No:  High Temp 
 HYDO.m                   1.80:  Hydro Offset 
 IFIN.deg                67.19:  Inc, Final 
 IMAX.deg                68.42:  Inc Max 
 IMIN.deg                66.33:  Inc Min 
 IMND.m                3532.79:  Inc Min Depth 
 IMXD.m                3192.15:  Inc Max Depth 
 JARR.                      No:  Jarring 
 LETM.      20.20.00 28-Apr-21:  Log End Time 
 LOST.hr                     0:  Lost Rig Time 
 LSTM.      04.45.00 26-Apr-21:  Log Start Time 
 MDCL.ppm             36500.00:  Mud Chlorides 
 MDES.     Inversion Oil/Synthetic:  Mud Desc 
 DFD .sg                  1.42:  Mud Density 
 MDMN.sg                  1.42:  Dens Mud Min 
 MDMX.sg                  1.42:  Dens Mud Max 
 MOIL.                    55.7:  Run Mud Oil % 
 MOWR.                   71:29:  Run Mud OWR 
 MSND.                     0.1:  Run Mud Sand % 
 MSOL.                    19.9:  Run Mud Solids% 
 DFV .spqt               83.00:  Mud Viscosity 
 MWOD.in                  5.15:  MWD Tool OD 
 MWSI.                      No:  Serv Intrp, MWD 
 OTIM.hr                120.59:  Time Operating 
 PCON.           Look Like New:  Pad Condition 
 PMAX.psia            11292.93:  Press Op, Max 
 PV  .cP                 27.00:  Mud PV 
 RUN .                     400:  Run Number 
 ROPA.m/hr               14.00:  ROP Avg 
 ROPN.m/hr                9.00:  ROP Min 
 ROPX.m/hr               18.00:  ROP Max 
 RPMA.rpm               130.00:  RPM Surface Avg 
 RPMN.rpm               100.00:  RPM Surface Min 
 RPMX.rpm               140.00:  RPM Surface Max 
 RRUN.                    0400:  Rig Run Number 
 RTIM.hr                 38.60:  Time Reaming 
 SAZI.deg               149.55:  Azm, Start 
 SDEP.m                3180.01:  Start Depth 
 SIDD.                      No:  Serv Intrp, DD 
 SINC.deg                68.42:  Inc, Start 
 SPPA.psig             4400.00:  SPP Avg 
 SPPN.psig             3580.00:  SPP Min 
 SPPX.psig             4850.00:  SPP Max 
 STIM.      12.30.00 24-Apr-21:  Start Time 
 SVCS.                 DD, MWD:  Services 
 SVER.                    9.20:  Sperry Version 
 TDAT.m                 438.00:  Tot Depth Attmp 
 TDDF.                      No:  Trip for DD 
 TDLG.m                 438.00:  Tot Depth Loggd 
 TFF .                      No:  Trip for Fail 
 TQAA.f-kp               11.00:  Torque Abs Avg 
 TQAN.f-kp                9.00:  Torque Abs Min 
 TQAX.f-kp               14.00:  Torque Abs Max 
 TRRT.°/30m               0.04:  Turn Rotating 
 MRT .                    HCIM:  Maximum Recorded Temperature 
 TTMX.degC               84.31:  Max Tool Temp 
 VS01.                90521954:  Virtual Str1 SN 
 VS02.                90519327:  Virtual Str2 SN 
 VS03.                90522273:  Virtual Str3 SN 
 VS04.                11108038:  Virtual Str4 SN 
 VS05.                12258760:  Virtual Str5 SN 
 WBMN.klb                 1.00:  WOB Min 
 WITN.           Adil Mammadov:  Customer Rep 
 WITN.         Alex Yadullayev:  Customer Rep 2 
 WOBA.klb                 6.00:  WOB Avg 
 WOBX.klb                 9.00:  WOB Max 
 YP  .lhf2               31.00:  Yield Point 
~Curve Information Block
#MNEM.UNIT                 API CODE     Curve Description
#---------               -----------    ---------------------------
 TIME.HHMMSS            00 000 000 000:  GT Time & Date
 GTDEPTH.m              00 000 000 000:  GT Depth
 GTPQH.psia             00 000 000 000:  GT HR Quartz Pressure
 GTTQ.degC              00 000 000 000:  GT Quartz Temperature
 GTTN.NONE              00 000 000 000:  GT Test Number
 GTET.sec               00 000 000 000:  GT Elapsed Test Time
 GTTVD.m                00 000 000 000:  GT True Vertical Depth
#Other Information
#
#WARRANTY: Halliburton will use its best efforts to furnish customers with 
#accurate information and interpretations that are part of, and incident to, the services 
#provided.  However, Halliburton cannot and does not warrant the accuracy 
#or correctness of such information and interpretations.  Under no circumstances should any 
#such information or interpretation be relied upon as the sole basis for any drilling, 
#completion, production, or financial decision or any procedure involving any risk to the 
#safety of any drilling venture, drilling rig or its crew or any other third party.  The 
#Customer has full responsibility for all drilling, completion and production operation.  
#Halliburton makes no representations or warranties, either expressed or 
#implied, including, but not limited to, the implied warranties of merchantability or fitness 
#for a particular purpose, with respect to the services rendered.  In no event will 
#Halliburton be liable for failure to obtain any particular results or for 
#any damages, including, but not limited to, indirect, special or consequential damages, 
#resulting from the use of any information or interpretation provided by Halliburton.
#
~A           TIME           GTDEPTH  GTPQH  GTTQ  GTTN   GTET   GTTVD  
# ...
   15:40:22.575.28-Apr-2021 3537.51 4281.42 74.70 10.00 158.26 2773.98
   15:40:22.775.28-Apr-2021 3537.51 4281.31 74.70 10.00 158.46 2773.98
   15:40:22.975.28-Apr-2021 3537.51 4281.35 74.70 10.00 158.66 2773.98
   15:40:23.175.28-Apr-2021 3537.51 4281.35 74.70 10.00 158.86 2773.98
   15:40:23.375.28-Apr-2021 3537.51 4281.35 74.70 10.00 159.06 2773.98
   15:40:23.575.28-Apr-2021 3537.51 4281.35 74.70 10.00 159.26 2773.98
   15:40:23.775.28-Apr-2021 3537.51 4281.33 74.70 10.00 159.46 2773.98
   15:40:23.975.28-Apr-2021 3537.51 4281.32 74.70 10.00 159.66 2773.98
   15:40:24.175.28-Apr-2021 3537.51 4281.34 74.69 10.00 159.86 2773.98
   15:40:24.375.28-Apr-2021 3537.51 4281.32 74.69 10.00 160.06 2773.98
   15:40:24.575.28-Apr-2021 3537.51 4281.32 74.69 10.00 160.26 2773.98
   15:40:24.775.28-Apr-2021 3537.51 4281.45 74.69 10.00 160.46 2773.98
   15:40:24.975.28-Apr-2021 3537.51 4281.37 74.69 10.00 160.66 2773.98
   15:40:25.176.28-Apr-2021 3537.51 4281.36 74.69 10.00 160.86 2773.98
   15:40:25.376.28-Apr-2021 3537.51 4281.28 74.69 10.00 161.06 2773.98
   15:40:25.576.28-Apr-2021 3537.51 4281.28 74.69 10.00 161.26 2773.98
   15:40:25.776.28-Apr-2021 3537.51 4281.32 74.69 10.00 161.46 2773.98
   15:40:25.976.28-Apr-2021 3537.51 4281.33 74.69 10.00 161.66 2773.98
   15:40:26.176.28-Apr-2021 3537.51 4281.32 74.69 10.00 161.86 2773.98
   15:40:26.376.28-Apr-2021 3537.51 4281.30 74.69 10.00 162.06 2773.98
   15:40:26.576.28-Apr-2021 3537.51 4281.30 74.69 10.00 162.26 2773.98
   15:40:26.776.28-Apr-2021 3537.51 4281.29 74.69 10.00 162.46 2773.98
   15:40:26.976.28-Apr-2021 3537.51 4281.33 74.69 10.00 162.66 2773.98
   15:40:27.176.28-Apr-2021 3537.51 4281.28 74.69 10.00 162.86 2773.98
   15:40:27.376.28-Apr-2021 3537.51 4281.08 74.69 10.00 163.06 2773.98
   15:40:27.576.28-Apr-2021 3537.51 4281.08 74.69 10.00 163.26 2773.98
   15:40:27.777.28-Apr-2021 3537.51 4281.37 74.69 10.00 163.46 2773.98
   15:40:27.977.28-Apr-2021 3537.51 4281.33 74.68 10.00 163.66 2773.98
   15:40:28.177.28-Apr-2021 3537.51 4281.26 74.68 10.00 163.86 2773.98
   15:40:28.377.28-Apr-2021 3537.51 4281.34 74.68 10.00 164.06 2773.98
   15:40:28.577.28-Apr-2021 3537.51 4281.34 74.68 10.00 164.26 2773.98
   15:40:28.777.28-Apr-2021 3537.51 4281.46 74.68 10.00 164.46 2773.98
   15:40:28.977.28-Apr-2021 3537.51 4281.34 74.68 10.00 164.66 2773.98
   15:40:29.177.28-Apr-2021 3537.51 4281.28 74.68 10.00 164.86 2773.98
   15:40:29.377.28-Apr-2021 3537.51 4281.31 74.68 10.00 165.06 2773.98
   15:40:29.577.28-Apr-2021 3537.51 4281.31 74.68 10.00 165.26 2773.98
   15:40:29.777.28-Apr-2021 3537.51 4281.38 74.68 10.00 165.46 2773.98
   15:40:29.977.28-Apr-2021 3537.51 4281.34 74.68 10.00 165.66 2773.98
   15:40:30.177.28-Apr-2021 3537.51 4281.31 74.68 10.00 165.86 2773.98
   15:40:30.378.28-Apr-2021 3537.51 4281.27 74.68 10.00 166.06 2773.98
   15:40:30.578.28-Apr-2021 3537.51 4281.27 74.68 10.00 166.26 2773.98
   15:40:30.778.28-Apr-2021 3537.51 4281.47 74.68 10.00 166.46 2773.98
   15:40:30.978.28-Apr-2021 3537.51 4281.34 74.68 10.00 166.66 2773.98
   15:40:31.178.28-Apr-2021 3537.51 4281.32 74.68 10.00 166.86 2773.98
   15:40:31.378.28-Apr-2021 3537.51 4281.28 74.68 10.00 167.06 2773.98
   15:40:31.578.28-Apr-2021 3537.51 4281.28 74.68 10.00 167.26 2773.98
   15:40:31.778.28-Apr-2021 3537.51 4281.33 74.67 10.00 167.46 2773.98
   15:40:31.978.28-Apr-2021 3537.51 4281.33 74.67 10.00 167.66 2773.98
   15:40:32.178.28-Apr-2021 3537.51 4281.31 74.67 10.00 167.86 2773.98
   15:40:32.378.28-Apr-2021 3537.51 4281.27 74.67 10.00 168.06 2773.98
   15:40:32.578.28-Apr-2021 3537.51 4281.27 74.67 10.00 168.26 2773.98
   15:40:32.778.28-Apr-2021 3537.51 4281.27 74.67 10.00 168.46 2773.98
   15:40:32.979.28-Apr-2021 3537.51 4281.31 74.67 10.00 168.66 2773.98
   15:40:33.179.28-Apr-2021 3537.51 4281.12 74.67 10.00 168.86 2773.98
   15:40:33.379.28-Apr-2021 3537.51 4281.38 74.67 10.00 169.06 2773.98
   15:40:33.579.28-Apr-2021 3537.51 4281.38 74.67 10.00 169.26 2773.98
   15:40:33.779.28-Apr-2021 3537.51 4281.29 74.67 10.00 169.46 2773.98
   15:40:33.979.28-Apr-2021 3537.51 4281.33 74.67 10.00 169.66 2773.98
   15:40:34.179.28-Apr-2021 3537.51 4281.24 74.67 10.00 169.86 2773.98
   15:40:34.379.28-Apr-2021 3537.51 4281.33 74.67 10.00 170.06 2773.98
   15:40:34.579.28-Apr-2021 3537.51 4281.33 74.67 10.00 170.26 2773.98
   15:40:34.779.28-Apr-2021 3537.51 4281.28 74.67 10.00 170.47 2773.98
   15:40:34.979.28-Apr-2021 3537.51 4281.30 74.67 10.00 170.67 2773.98
   15:40:35.179.28-Apr-2021 3537.51 4281.28 74.66 10.00 170.87 2773.98
   15:40:35.379.28-Apr-2021 3537.51 4281.31 74.66 10.00 171.07 2773.98
   15:40:35.579.28-Apr-2021 3537.51 4281.31 74.66 10.00 171.27 2773.98
   15:40:35.780.28-Apr-2021 3537.51 4281.30 74.66 10.00 171.47 2773.98
   15:40:35.980.28-Apr-2021 3537.51 4281.05 74.66 10.00 171.67 2773.98
   15:40:36.180.28-Apr-2021 3537.51 4281.43 74.66 10.00 171.87 2773.98
   15:40:36.380.28-Apr-2021 3537.51 4281.32 74.66 10.00 172.07 2773.98
   15:40:36.580.28-Apr-2021 3537.51 4281.32 74.66 10.00 172.27 2773.98
   15:40:36.780.28-Apr-2021 3537.51 4281.29 74.66 10.00 172.47 2773.98
   15:40:36.980.28-Apr-2021 3537.51 4281.25 74.66 10.00 172.67 2773.98
   15:40:37.180.28-Apr-2021 3537.51 4281.21 74.66 10.00 172.87 2773.98
   15:40:37.380.28-Apr-2021 3537.51 4281.30 74.66 10.00 173.07 2773.98
   15:40:37.580.28-Apr-2021 3537.51 4281.30 74.66 10.00 173.27 2773.98
   15:40:37.780.28-Apr-2021 3537.51 4281.31 74.66 10.00 173.47 2773.98
   15:40:37.980.28-Apr-2021 3537.51 4281.29 74.66 10.00 173.67 2773.98
   15:40:38.180.28-Apr-2021 3537.51 4281.02 74.66 10.00 173.87 2773.98
   15:40:38.381.28-Apr-2021 3537.51 4281.45 74.66 10.00 174.07 2773.98
   15:40:38.581.28-Apr-2021 3537.51 4281.45 74.66 10.00 174.27 2773.98
   15:40:38.781.28-Apr-2021 3537.51 4281.27 74.66 10.00 174.47 2773.98
   15:40:38.981.28-Apr-2021 3537.51 4281.27 74.65 10.00 174.67 2773.98
   15:40:39.181.28-Apr-2021 3537.51 4281.19 74.65 10.00 174.87 2773.98
   15:40:39.381.28-Apr-2021 3537.51 4281.32 74.65 10.00 175.07 2773.98
   15:40:39.581.28-Apr-2021 3537.51 4281.32 74.65 10.00 175.27 2773.98
   15:40:39.781.28-Apr-2021 3537.51 4281.30 74.65 10.00 175.47 2773.98
   15:40:39.981.28-Apr-2021 3537.51 4281.28 74.65 10.00 175.67 2773.98
   15:40:40.181.28-Apr-2021 3537.51 4281.24 74.65 10.00 175.87 2773.98
   15:40:40.381.28-Apr-2021 3537.51 4281.33 74.65 10.00 176.07 2773.98
   15:40:40.581.28-Apr-2021 3537.51 4281.33 74.65 10.00 176.27 2773.98
   15:40:40.781.28-Apr-2021 3537.51 4281.28 74.65 10.00 176.47 2773.98
   15:40:40.982.28-Apr-2021 3537.51 4281.28 74.65 10.00 176.67 2773.98
   15:40:41.182.28-Apr-2021 3537.51 4281.25 74.65 10.00 176.87 2773.98
   15:40:41.382.28-Apr-2021 3537.51 4281.31 74.65 10.00 177.07 2773.98
   15:40:41.582.28-Apr-2021 3537.51 4281.31 74.65 10.00 177.27 2773.98
   15:40:41.782.28-Apr-2021 3537.51 4281.19 74.65 10.00 177.47 2773.98
   15:40:41.982.28-Apr-2021 3537.51 4281.24 74.65 10.00 177.67 2773.98
   15:40:42.182.28-Apr-2021 3537.51 4281.28 74.65 10.00 177.87 2773.98
   15:40:42.382.28-Apr-2021 3537.51 4281.34 74.65 10.00 178.07 2773.98
   15:40:42.582.28-Apr-2021 3537.51 4281.34 74.65 10.00 178.27 2773.98
   15:40:42.782.28-Apr-2021 3537.51 4281.23 74.64 10.00 178.47 2773.98
   15:40:42.982.28-Apr-2021 3537.51 4281.29 74.64 10.00 178.67 2773.98
   15:40:43.182.28-Apr-2021 3537.51 4281.28 74.64 10.00 178.87 2773.98
   15:40:43.382.28-Apr-2021 3537.51 4281.27 74.64 10.00 179.07 2773.98
   15:40:43.583.28-Apr-2021 3537.51 4281.27 74.64 10.00 179.27 2773.98
   15:40:43.783.28-Apr-2021 3537.51 4281.28 74.64 10.00 179.47 2773.98
   15:40:43.983.28-Apr-2021 3537.51 4281.26 74.64 10.00 179.67 2773.98
   15:40:44.183.28-Apr-2021 3537.51 4281.26 74.64 10.00 179.87 2773.98
   15:40:44.383.28-Apr-2021 3537.51 4281.26 74.64 10.00 180.07 2773.98
   15:40:44.583.28-Apr-2021 3537.51 4281.26 74.64 10.00 180.27 2773.98
   15:40:44.783.28-Apr-2021 3537.51 4281.27 74.64 10.00 180.47 2773.98
   15:40:44.983.28-Apr-2021 3537.51 4281.28 74.64 10.00 180.67 2773.98
