~Version Information
 VERS.                  2.0:   CWLS log ASCII Standard -VERSION 2.0
 WRAP.                   NO:   One line per depth step
~Well Information Block
#MNEM.UNIT     VALUE/NAME     DESCRIPTION
#---------     -----------    ---------------------------
 STRT.S             13:09:03 28-Apr-21: START TIME 13:09:03 28-Apr-21
 STOP.S             13:15:31 28-Apr-21: STOP TIME  13:15:31 28-Apr-21
 STEP.S                   0.00: STEP TIME
 NULL.                 -999.25: NULL VALUE
 DFWT.                        :  DIST FWL TEXT
 DFST.                        :  DIST FSL TEXT
 DMF .             Drill Floor:  DRILL MEAS FROM
 STIM.      02.00.00 12-Apr-21:  START TIME
 DATE.      02.00.00 02-May-21:  END TIME
 SPUD.               09-Apr-21:  SPUD DATE
 NREF.                    Grid:  NORTH REFERENCE
 HPTY.       Minimum Curvature:  HOLE POS TYPE
 DMOD.             Drill Model:  DRILL MOD DESC
 SVYD.                  Survey:  SURVEY DESC
 ILTD.               Lithology:  INTERP LTH DESC
 FTOP.          Formation Tops:  FORM TOPS DESC
 PDAT.          Mean Sea Level:  PERMANENT DATUM
 FLD .                     ACG:  FIELD NAME
 SON .        AZ-XX-0907021034:  JOB NUMBER
 CTRY.              Azerbaijan:  COUNTRY NAME
 WELL.                    E01x:  WELL NAME
 COMP.     BP Exploration (Caspian Sea) LTD.:  COMPANY
 UWI .            /AZE00001403:  UNIQUE WELL IDENTIFIER
 API .            /AZE00001403:  API NUMBER
 WTYP.                Deviated:  WELL TYPE
 MDS .        Operator Entered:  MAG DATA SOURCE
 BASE.              Azerbaijan:  LOGGING EQUIPMENT BASE LOCATION
 REGN.                   EESSA:  REGION
 PROV.                    Baku:  PROVINCE
 STAT.                    Baku:  STATE NAME
 SRVC.          Turan Drilling:  CONTRACTOR
 MWDS.                    Baku:  MWD SHOP
 JOBN.        AZ-XX-0907021034:  JOB TICKET NUMB
 RIG .                     DWG:  RIG NAME
 DOE .                     N/A:  DOE NUMBER
 DCON.         Sperry Drilling:  DIRECTNL CONTR
 UNIT.                     N/A:  LOGGING EQUIPMENT ID
 CNTY.                        :  COUNTY
 LOC .                        :  LOCATION
 LMF .             Drill Floor:  LOG MEASURED FROM
 TVDS.m                  43.16:  TVDSS CORRECTN
 LATI.deg                40.17:  LATITUDE
 LONG.deg                51.17:  LONGITUDE
 WHNS.m                  -5.90:  WELL HEAD N/S
 WHEW.m                  -6.61:  WELL HEAD E/W
 UTMX.m              514337.95:  UTM X
 UTMY.m             4448627.46:  UTM Y
 DFWL.m                   0.00:  DISTANCE FWL
 DFSL.m                   0.00:  DISTANCE FSL
 SDEP.m                2606.87:  START DEPTH
 TDD .m                3618.01:  TOTAL DEPTH (DRILLER)
 VSDR.deg               177.42:  VERT SEC DIRECT
 GVFD.g                   1.00:  GRAVITY FIELD
 MFLD.nT              50399.00:  MAGNETIC FIELD
 MDIP.deg                59.67:  MAGNETIC DIP
 MDEC.deg                 6.56:  MAGNETIC DECL
 GRDC.deg                 0.11:  GRID CORRECTION
 AZTC.deg                 6.45:  AZM TOTAL CORR
 EPD .m                   0.00:  ELEVATION
 EGL .m                   0.00:  GROUND ELEVATION
 WDMS.m                 176.20:  WD ELEV
 APD .m                  43.16:  DEPTH ABOVE PD
 DEP .m                2606.87:  DEPTH
 AGAP.m                  43.16:  AIR GAP
 VSEW.m                  -6.61:  VERT SEC E/W
 VSNS.m                  -5.90:  VERT SEC N/S
 EKB .m                  43.16:  KB ELEVATION
 EDF .m                  43.16:  DF ELEVATION
 TDL .m                 438.00:  TOTAL DEPTH (LOGGER)
 VSC .                       0:  VS TO CLOSURE
 MAGU.                 1855490:  MAGUTM CHECKSUM
~Parameter Information Block
#MNEM.UNIT       Value        Description
#---------     -----------    ---------------------------
 AV  .mps                 2.20:  Ann Velocity 
 AVMX.mps                 2.50:  Max Ann Veloc 
 AZIF.deg               150.21:  Azm, Final 
 BHAT.        Rotary Steerable:  BHA Type 
 BROT.∞/30m               0.08:  Build Rotating 
 BS  .in                  6.50:  Bit Size 
 BSZ .in                  6.50:  Bit Size 
 BTPL.psig              108.00:  Bit Press Loss 
 CABU.                     Yes:  Customer Abuse 
 CGEO.           Emin Aliyarli:  Customer Geo 
 COMM.                     ‹Ïq:  Run Comments 1 
 TCS .hr                 74.20:  Time Ciculation Ended 
 CV  .mps                 3.63:  Crit Velocity 
 CVMX.mps                 3.66:  Max Crit Veloc 
 DD1 .         Intigam Rahimov:  Direct Drillr 1 
 DD2 .          Teymur Aghayev:  Direct Drillr 2 
 DDSV.               Geo-Pilot:  DD Service 
 DEFF.%                  97.00:  % Det Eff 
 DLRX.∞/30m               1.63:  Dogleg Rot Max 
 DLSO.∞/30m               0.00:  Dogleg Oriented 
 DLSX.∞/30m               0.00:  Dogleg Str Max 
 DRET.      20.20.00 28-Apr-21:  Drill End Time 
 DRST.      04.45.00 26-Apr-21:  Drill Start Tim 
 DTIM.hr                 34.30:  Time Drilling 
 EDEP.m                3618.01:  End Depth 
 ENG1.           Amrah Tahirov:  Engineer 1 
 ENG2.         Bahruz Mehdiyev:  Engineer 2 
 ENG3.         Farhad Orujzade:  Engineer 3 
 ETIM.      19.00.00 29-Apr-21:  End Time 
 FLOI.gpm               370.00:  Flow In 
 FLON.gpm               300.00:  Flow In Min 
 FLOS.cptm                0.00:  Fluid Loss 
 FLOX.gpm               410.00:  Flow In Max 
 HFLO.                      No:  High Flow 
 HPRE.                      No:  High Pressure 
 HTEM.                      No:  High Temp 
 HYDO.m                   1.80:  Hydro Offset 
 IFIN.deg                67.19:  Inc, Final 
 IMAX.deg                68.42:  Inc Max 
 IMIN.deg                66.33:  Inc Min 
 IMND.m                3532.79:  Inc Min Depth 
 IMXD.m                3192.15:  Inc Max Depth 
 JARR.                      No:  Jarring 
 LETM.      20.20.00 28-Apr-21:  Log End Time 
 LOST.hr                     0:  Lost Rig Time 
 LSTM.      04.45.00 26-Apr-21:  Log Start Time 
 MDCL.ppm             36500.00:  Mud Chlorides 
 MDES.     Inversion Oil/Synthetic:  Mud Desc 
 DFD .sg                  1.42:  Mud Density 
 MDMN.sg                  1.42:  Dens Mud Min 
 MDMX.sg                  1.42:  Dens Mud Max 
 MOIL.                    55.7:  Run Mud Oil % 
 MOWR.                   71:29:  Run Mud OWR 
 MSND.                     0.1:  Run Mud Sand % 
 MSOL.                    19.9:  Run Mud Solids% 
 DFV .spqt               83.00:  Mud Viscosity 
 MWOD.in                  5.15:  MWD Tool OD 
 MWSI.                      No:  Serv Intrp, MWD 
 OTIM.hr                120.59:  Time Operating 
 PCON.           Look Like New:  Pad Condition 
 PMAX.psia            11292.93:  Press Op, Max 
 PV  .cP                 27.00:  Mud PV 
 RUN .                     400:  Run Number 
 ROPA.m/hr               14.00:  ROP Avg 
 ROPN.m/hr                9.00:  ROP Min 
 ROPX.m/hr               18.00:  ROP Max 
 RPMA.rpm               130.00:  RPM Surface Avg 
 RPMN.rpm               100.00:  RPM Surface Min 
 RPMX.rpm               140.00:  RPM Surface Max 
 RRUN.                    0400:  Rig Run Number 
 RTIM.hr                 38.60:  Time Reaming 
 SAZI.deg               149.55:  Azm, Start 
 SDEP.m                3180.01:  Start Depth 
 SIDD.                      No:  Serv Intrp, DD 
 SINC.deg                68.42:  Inc, Start 
 SPPA.psig             4400.00:  SPP Avg 
 SPPN.psig             3580.00:  SPP Min 
 SPPX.psig             4850.00:  SPP Max 
 STIM.      12.30.00 24-Apr-21:  Start Time 
 SVCS.                 DD, MWD:  Services 
 SVER.                    9.20:  Sperry Version 
 TDAT.m                 438.00:  Tot Depth Attmp 
 TDDF.                      No:  Trip for DD 
 TDLG.m                 438.00:  Tot Depth Loggd 
 TFF .                      No:  Trip for Fail 
 TQAA.f-kp               11.00:  Torque Abs Avg 
 TQAN.f-kp                9.00:  Torque Abs Min 
 TQAX.f-kp               14.00:  Torque Abs Max 
 TRRT.∞/30m               0.04:  Turn Rotating 
 MRT .                    HCIM:  Maximum Recorded Temperature 
 TTMX.degC               84.31:  Max Tool Temp 
 VS01.                90521954:  Virtual Str1 SN 
 VS02.                90519327:  Virtual Str2 SN 
 VS03.                90522273:  Virtual Str3 SN 
 VS04.                11108038:  Virtual Str4 SN 
 VS05.                12258760:  Virtual Str5 SN 
 WBMN.klb                 1.00:  WOB Min 
 WITN.           Adil Mammadov:  Customer Rep 
 WITN.         Alex Yadullayev:  Customer Rep 2 
 WOBA.klb                 6.00:  WOB Avg 
 WOBX.klb                 9.00:  WOB Max 
 YP  .lhf2               31.00:  Yield Point 
~Curve Information Block
#MNEM.UNIT                 API CODE     Curve Description
#---------               -----------    ---------------------------
 TIME.HHMMSS            00 000 000 000:  GT Time & Date
 GTDEPTH.m              00 000 000 000:  GT Depth
 GTPQH.psia             00 000 000 000:  GT HR Quartz Pressure
 GTTQ.degC              00 000 000 000:  GT Quartz Temperature
 GTTN.NONE              00 000 000 000:  GT Test Number
 GTET.sec               00 000 000 000:  GT Elapsed Test Time
 GTTVD.m                00 000 000 000:  GT True Vertical Depth
#Other Information
#
#WARRANTY: Halliburton will use its best efforts to furnish customers with 
#accurate information and interpretations that are part of, and incident to, the services 
#provided.  However, Halliburton cannot and does not warrant the accuracy 
#or correctness of such information and interpretations.  Under no circumstances should any 
#such information or interpretation be relied upon as the sole basis for any drilling, 
#completion, production, or financial decision or any procedure involving any risk to the 
#safety of any drilling venture, drilling rig or its crew or any other third party.  The 
#Customer has full responsibility for all drilling, completion and production operation.  
#Halliburton makes no representations or warranties, either expressed or 
#implied, including, but not limited to, the implied warranties of merchantability or fitness 
#for a particular purpose, with respect to the services rendered.  In no event will 
#Halliburton be liable for failure to obtain any particular results or for 
#any damages, including, but not limited to, indirect, special or consequential damages, 
#resulting from the use of any information or interpretation provided by Halliburton.
#
~A           TIME           GTDEPTH  GTPQH  GTTQ  GTTN  GTET   GTTVD  
# ...
   13:11:44.453.28-Apr-2021 3524.51 4369.34 75.10 9.00 161.03 2768.78
   13:11:44.653.28-Apr-2021 3524.51 4369.34 75.10 9.00 161.23 2768.78
   13:11:44.853.28-Apr-2021 3524.51 4369.51 75.10 9.00 161.43 2768.78
   13:11:45.054.28-Apr-2021 3524.51 4369.39 75.10 9.00 161.63 2768.78
   13:11:45.254.28-Apr-2021 3524.51 4369.37 75.10 9.00 161.83 2768.78
   13:11:45.454.28-Apr-2021 3524.51 4369.16 75.10 9.00 162.03 2768.78
   13:11:45.654.28-Apr-2021 3524.51 4369.16 75.10 9.00 162.23 2768.78
   13:11:45.854.28-Apr-2021 3524.51 4369.47 75.10 9.00 162.43 2768.78
   13:11:46.054.28-Apr-2021 3524.51 4369.38 75.10 9.00 162.63 2768.78
   13:11:46.254.28-Apr-2021 3524.51 4369.13 75.10 9.00 162.83 2768.78
   13:11:46.454.28-Apr-2021 3524.51 4369.48 75.10 9.00 163.03 2768.78
   13:11:46.654.28-Apr-2021 3524.51 4369.48 75.10 9.00 163.23 2768.78
   13:11:46.854.28-Apr-2021 3524.51 4369.40 75.10 9.00 163.43 2768.78
   13:11:47.054.28-Apr-2021 3524.51 4369.36 75.10 9.00 163.63 2768.78
   13:11:47.254.28-Apr-2021 3524.51 4369.26 75.10 9.00 163.83 2768.78
   13:11:47.454.28-Apr-2021 3524.51 4369.33 75.10 9.00 164.03 2768.78
   13:11:47.654.28-Apr-2021 3524.51 4369.33 75.10 9.00 164.23 2768.78
   13:11:47.854.28-Apr-2021 3524.51 4369.39 75.10 9.00 164.43 2768.78
   13:11:48.054.28-Apr-2021 3524.51 4369.38 75.10 9.00 164.63 2768.78
   13:11:48.254.28-Apr-2021 3524.51 4369.30 75.10 9.00 164.83 2768.78
   13:11:48.454.28-Apr-2021 3524.51 4369.43 75.10 9.00 165.03 2768.78
   13:11:48.654.28-Apr-2021 3524.51 4369.43 75.10 9.00 165.23 2768.78
   13:11:48.854.28-Apr-2021 3524.51 4369.35 75.09 9.00 165.43 2768.78
   13:11:49.054.28-Apr-2021 3524.51 4369.33 75.09 9.00 165.63 2768.78
   13:11:49.254.28-Apr-2021 3524.51 4369.33 75.09 9.00 165.83 2768.78
   13:11:49.454.28-Apr-2021 3524.51 4369.39 75.09 9.00 166.03 2768.78
   13:11:49.654.28-Apr-2021 3524.51 4369.39 75.09 9.00 166.23 2768.78
   13:11:49.854.28-Apr-2021 3524.51 4369.27 75.09 9.00 166.43 2768.78
   13:11:50.054.28-Apr-2021 3524.51 4369.23 75.09 9.00 166.63 2768.78
   13:11:50.254.28-Apr-2021 3524.51 4369.42 75.09 9.00 166.83 2768.78
   13:11:50.454.28-Apr-2021 3524.51 4369.42 75.09 9.00 167.03 2768.78
   13:11:50.654.28-Apr-2021 3524.51 4369.42 75.09 9.00 167.23 2768.78
   13:11:50.854.28-Apr-2021 3524.51 4369.32 75.09 9.00 167.43 2768.78
   13:11:51.054.28-Apr-2021 3524.51 4369.36 75.09 9.00 167.63 2768.78
   13:11:51.255.28-Apr-2021 3524.51 4369.39 75.09 9.00 167.83 2768.78
   13:11:51.455.28-Apr-2021 3524.51 4369.34 75.09 9.00 168.03 2768.78
   13:11:51.655.28-Apr-2021 3524.51 4369.34 75.09 9.00 168.23 2768.78
   13:11:51.855.28-Apr-2021 3524.51 4369.35 75.09 9.00 168.43 2768.78
   13:11:52.055.28-Apr-2021 3524.51 4369.34 75.09 9.00 168.63 2768.78
   13:11:52.255.28-Apr-2021 3524.51 4369.35 75.09 9.00 168.83 2768.78
   13:11:52.455.28-Apr-2021 3524.51 4369.33 75.09 9.00 169.03 2768.78
   13:11:52.655.28-Apr-2021 3524.51 4369.33 75.09 9.00 169.23 2768.78
   13:11:52.855.28-Apr-2021 3524.51 4369.17 75.09 9.00 169.43 2768.78
   13:11:53.055.28-Apr-2021 3524.51 4369.44 75.08 9.00 169.63 2768.78
   13:11:53.255.28-Apr-2021 3524.51 4369.42 75.08 9.00 169.83 2768.78
   13:11:53.455.28-Apr-2021 3524.51 4369.11 75.08 9.00 170.03 2768.78
   13:11:53.655.28-Apr-2021 3524.51 4369.11 75.08 9.00 170.23 2768.78
   13:11:53.855.28-Apr-2021 3524.51 4369.41 75.08 9.00 170.43 2768.78
   13:11:54.055.28-Apr-2021 3524.51 4369.39 75.08 9.00 170.63 2768.78
   13:11:54.255.28-Apr-2021 3524.51 4369.32 75.08 9.00 170.83 2768.78
   13:11:54.455.28-Apr-2021 3524.51 4369.13 75.08 9.00 171.03 2768.78
   13:11:54.655.28-Apr-2021 3524.51 4369.13 75.08 9.00 171.23 2768.78
   13:11:54.855.28-Apr-2021 3524.51 4369.43 75.08 9.00 171.43 2768.78
   13:11:55.055.28-Apr-2021 3524.51 4369.39 75.08 9.00 171.63 2768.78
   13:11:55.255.28-Apr-2021 3524.51 4369.28 75.08 9.00 171.83 2768.78
   13:11:55.455.28-Apr-2021 3524.51 4369.08 75.08 9.00 172.03 2768.78
   13:11:55.655.28-Apr-2021 3524.51 4369.08 75.08 9.00 172.23 2768.78
   13:11:55.855.28-Apr-2021 3524.51 4369.41 75.08 9.00 172.43 2768.78
   13:11:56.055.28-Apr-2021 3524.51 4369.37 75.08 9.00 172.63 2768.78
   13:11:56.255.28-Apr-2021 3524.51 4369.28 75.08 9.00 172.83 2768.78
   13:11:56.455.28-Apr-2021 3524.51 4369.40 75.08 9.00 173.03 2768.78
   13:11:56.655.28-Apr-2021 3524.51 4369.40 75.08 9.00 173.23 2768.78
   13:11:56.855.28-Apr-2021 3524.51 4369.37 75.08 9.00 173.43 2768.78
   13:11:57.055.28-Apr-2021 3524.51 4369.33 75.08 9.00 173.63 2768.78
   13:11:57.256.28-Apr-2021 3524.51 4369.29 75.08 9.00 173.83 2768.78
   13:11:57.456.28-Apr-2021 3524.51 4369.37 75.07 9.00 174.03 2768.78
   13:11:57.656.28-Apr-2021 3524.51 4369.37 75.07 9.00 174.23 2768.78
   13:11:57.856.28-Apr-2021 3524.51 4369.35 75.07 9.00 174.43 2768.78
   13:11:58.056.28-Apr-2021 3524.51 4369.03 75.07 9.00 174.63 2768.78
   13:11:58.256.28-Apr-2021 3524.51 4369.49 75.07 9.00 174.83 2768.78
   13:11:58.456.28-Apr-2021 3524.51 4369.38 75.07 9.00 175.03 2768.78
   13:11:58.656.28-Apr-2021 3524.51 4369.38 75.07 9.00 175.23 2768.78
   13:11:58.856.28-Apr-2021 3524.51 4369.30 75.07 9.00 175.43 2768.78
   13:11:59.056.28-Apr-2021 3524.51 4369.31 75.07 9.00 175.63 2768.78
   13:11:59.256.28-Apr-2021 3524.51 4369.37 75.07 9.00 175.83 2768.78
   13:11:59.456.28-Apr-2021 3524.51 4369.32 75.07 9.00 176.03 2768.78
   13:11:59.656.28-Apr-2021 3524.51 4369.32 75.07 9.00 176.23 2768.78
   13:11:59.856.28-Apr-2021 3524.51 4369.31 75.07 9.00 176.43 2768.78
   13:12:00.056.28-Apr-2021 3524.51 4369.33 75.07 9.00 176.63 2768.78
   13:12:00.256.28-Apr-2021 3524.51 4369.33 75.07 9.00 176.83 2768.78
   13:12:00.456.28-Apr-2021 3524.51 4369.29 75.07 9.00 177.03 2768.78
   13:12:00.656.28-Apr-2021 3524.51 4369.29 75.07 9.00 177.23 2768.78
   13:12:00.856.28-Apr-2021 3524.51 4369.08 75.07 9.00 177.43 2768.78
   13:12:01.056.28-Apr-2021 3524.51 4369.45 75.07 9.00 177.63 2768.78
   13:12:01.256.28-Apr-2021 3524.51 4369.37 75.07 9.00 177.83 2768.78
   13:12:01.456.28-Apr-2021 3524.51 4369.30 75.07 9.00 178.03 2768.78
   13:12:01.656.28-Apr-2021 3524.51 4369.30 75.07 9.00 178.23 2768.78
   13:12:01.856.28-Apr-2021 3524.51 4369.40 75.06 9.00 178.43 2768.78
   13:12:02.056.28-Apr-2021 3524.51 4369.42 75.06 9.00 178.63 2768.78
   13:12:02.256.28-Apr-2021 3524.51 4369.36 75.06 9.00 178.83 2768.78
   13:12:02.456.28-Apr-2021 3524.51 4369.07 75.06 9.00 179.03 2768.78
   13:12:02.656.28-Apr-2021 3524.51 4369.07 75.06 9.00 179.23 2768.78
   13:12:02.856.28-Apr-2021 3524.51 4369.38 75.06 9.00 179.43 2768.78
   13:12:03.056.28-Apr-2021 3524.51 4369.40 75.06 9.00 179.63 2768.78
   13:12:03.256.28-Apr-2021 3524.51 4369.30 75.06 9.00 179.83 2768.78
   13:12:03.457.28-Apr-2021 3524.51 4369.23 75.06 9.00 180.03 2768.78
   13:12:03.657.28-Apr-2021 3524.51 4369.23 75.06 9.00 180.23 2768.78
   13:12:03.857.28-Apr-2021 3524.51 4369.41 75.06 9.00 180.43 2768.78
   13:12:04.057.28-Apr-2021 3524.51 4369.38 75.06 9.00 180.63 2768.78
   13:12:04.257.28-Apr-2021 3524.51 4369.32 75.06 9.00 180.83 2768.78
   13:12:04.457.28-Apr-2021 3524.51 4369.29 75.06 9.00 181.03 2768.78
   13:12:04.657.28-Apr-2021 3524.51 4369.29 75.06 9.00 181.23 2768.78
   13:12:04.857.28-Apr-2021 3524.51 4369.36 75.06 9.00 181.43 2768.78
   13:12:05.057.28-Apr-2021 3524.51 4369.31 75.06 9.00 181.63 2768.78
   13:12:05.257.28-Apr-2021 3524.51 4369.30 75.06 9.00 181.83 2768.78
   13:12:05.457.28-Apr-2021 3524.51 4369.30 75.06 9.00 182.03 2768.78
   13:12:05.657.28-Apr-2021 3524.51 4369.30 75.06 9.00 182.23 2768.78
   13:12:05.857.28-Apr-2021 3524.51 4369.31 75.05 9.00 182.43 2768.78
   13:12:06.057.28-Apr-2021 3524.51 4369.22 75.05 9.00 182.63 2768.78
   13:12:06.257.28-Apr-2021 3524.51 4369.19 75.05 9.00 182.83 2768.78
   13:12:06.457.28-Apr-2021 3524.51 4369.37 75.05 9.00 183.03 2768.78
   13:12:06.657.28-Apr-2021 3524.51 4369.37 75.05 9.00 183.23 2768.78
   13:12:06.857.28-Apr-2021 3524.51 4369.33 75.05 9.00 183.43 2768.78
   13:12:07.057.28-Apr-2021 3524.51 4369.26 75.05 9.00 183.63 2768.78
   13:12:07.257.28-Apr-2021 3524.51 4369.34 75.05 9.00 183.83 2768.78
