~Version Information
 VERS.                  2.0:   CWLS log ASCII Standard -VERSION 2.0
 WRAP.                   NO:   One line per depth step
~Well Information Block
#MNEM.UNIT     VALUE/NAME     DESCRIPTION
#---------     -----------    ---------------------------
 STRT.S             15:37:44 28-Apr-21: START TIME 15:37:44 28-Apr-21
 STOP.S             15:44:12 28-Apr-21: STOP TIME  15:44:12 28-Apr-21
 STEP.S                   0.00: STEP TIME
 NULL.                 -999.25: NULL VALUE
 DFWT.                        :  DIST FWL TEXT
 DFST.                        :  DIST FSL TEXT
 DMF .             Drill Floor:  DRILL MEAS FROM
 STIM.      02.00.00 12-Apr-21:  START TIME
 DATE.      02.00.00 02-May-21:  END TIME
 SPUD.               09-Apr-21:  SPUD DATE
 NREF.                    Grid:  NORTH REFERENCE
 HPTY.       Minimum Curvature:  HOLE POS TYPE
 DMOD.             Drill Model:  DRILL MOD DESC
 SVYD.                  Survey:  SURVEY DESC
 ILTD.               Lithology:  INTERP LTH DESC
 FTOP.          Formation Tops:  FORM TOPS DESC
 PDAT.          Mean Sea Level:  PERMANENT DATUM
 FLD .                     ACG:  FIELD NAME
 SON .        AZ-XX-0907021034:  JOB NUMBER
 CTRY.              Azerbaijan:  COUNTRY NAME
 WELL.                    E01x:  WELL NAME
 COMP.     BP Exploration (Caspian Sea) LTD.:  COMPANY
 UWI .            /AZE00001403:  UNIQUE WELL IDENTIFIER
 API .            /AZE00001403:  API NUMBER
 WTYP.                Deviated:  WELL TYPE
 MDS .        Operator Entered:  MAG DATA SOURCE
 BASE.              Azerbaijan:  LOGGING EQUIPMENT BASE LOCATION
 REGN.                   EESSA:  REGION
 PROV.                    Baku:  PROVINCE
 STAT.                    Baku:  STATE NAME
 SRVC.          Turan Drilling:  CONTRACTOR
 MWDS.                    Baku:  MWD SHOP
 JOBN.        AZ-XX-0907021034:  JOB TICKET NUMB
 RIG .                     DWG:  RIG NAME
 DOE .                     N/A:  DOE NUMBER
 DCON.         Sperry Drilling:  DIRECTNL CONTR
 UNIT.                     N/A:  LOGGING EQUIPMENT ID
 CNTY.                        :  COUNTY
 LOC .                        :  LOCATION
 LMF .             Drill Floor:  LOG MEASURED FROM
 TVDS.m                  43.16:  TVDSS CORRECTN
 LATI.deg                40.17:  LATITUDE
 LONG.deg                51.17:  LONGITUDE
 WHNS.m                  -5.90:  WELL HEAD N/S
 WHEW.m                  -6.61:  WELL HEAD E/W
 UTMX.m              514337.95:  UTM X
 UTMY.m             4448627.46:  UTM Y
 DFWL.m                   0.00:  DISTANCE FWL
 DFSL.m                   0.00:  DISTANCE FSL
 SDEP.m                2606.87:  START DEPTH
 TDD .m                3618.01:  TOTAL DEPTH (DRILLER)
 VSDR.deg               177.42:  VERT SEC DIRECT
 GVFD.g                   1.00:  GRAVITY FIELD
 MFLD.nT              50399.00:  MAGNETIC FIELD
 MDIP.deg                59.67:  MAGNETIC DIP
 MDEC.deg                 6.56:  MAGNETIC DECL
 GRDC.deg                 0.11:  GRID CORRECTION
 AZTC.deg                 6.45:  AZM TOTAL CORR
 EPD .m                   0.00:  ELEVATION
 EGL .m                   0.00:  GROUND ELEVATION
 WDMS.m                 176.20:  WD ELEV
 APD .m                  43.16:  DEPTH ABOVE PD
 DEP .m                2606.87:  DEPTH
 AGAP.m                  43.16:  AIR GAP
 VSEW.m                  -6.61:  VERT SEC E/W
 VSNS.m                  -5.90:  VERT SEC N/S
 EKB .m                  43.16:  KB ELEVATION
 EDF .m                  43.16:  DF ELEVATION
 TDL .m                 438.00:  TOTAL DEPTH (LOGGER)
 VSC .                       0:  VS TO CLOSURE
 MAGU.                 1855490:  MAGUTM CHECKSUM
~Parameter Information Block
#MNEM.UNIT       Value        Description
#---------     -----------    ---------------------------
 AV  .mps                 2.20:  Ann Velocity 
 AVMX.mps                 2.50:  Max Ann Veloc 
 AZIF.deg               150.21:  Azm, Final 
 BHAT.        Rotary Steerable:  BHA Type 
 BROT.°/30m               0.08:  Build Rotating 
 BS  .in                  6.50:  Bit Size 
 BSZ .in                  6.50:  Bit Size 
 BTPL.psig              108.00:  Bit Press Loss 
 CABU.                     Yes:  Customer Abuse 
 CGEO.           Emin Aliyarli:  Customer Geo 
 COMM.                     ôŸZ:  Run Comments 1 
 TCS .hr                 74.20:  Time Ciculation Ended 
 CV  .mps                 3.63:  Crit Velocity 
 CVMX.mps                 3.66:  Max Crit Veloc 
 DD1 .         Intigam Rahimov:  Direct Drillr 1 
 DD2 .          Teymur Aghayev:  Direct Drillr 2 
 DDSV.               Geo-Pilot:  DD Service 
 DEFF.%                  97.00:  % Det Eff 
 DLRX.°/30m               1.63:  Dogleg Rot Max 
 DLSO.°/30m               0.00:  Dogleg Oriented 
 DLSX.°/30m               0.00:  Dogleg Str Max 
 DRET.      20.20.00 28-Apr-21:  Drill End Time 
 DRST.      04.45.00 26-Apr-21:  Drill Start Tim 
 DTIM.hr                 34.30:  Time Drilling 
 EDEP.m                3618.01:  End Depth 
 ENG1.           Amrah Tahirov:  Engineer 1 
 ENG2.         Bahruz Mehdiyev:  Engineer 2 
 ENG3.         Farhad Orujzade:  Engineer 3 
 ETIM.      19.00.00 29-Apr-21:  End Time 
 FLOI.gpm               370.00:  Flow In 
 FLON.gpm               300.00:  Flow In Min 
 FLOS.cptm                0.00:  Fluid Loss 
 FLOX.gpm               410.00:  Flow In Max 
 HFLO.                      No:  High Flow 
 HPRE.                      No:  High Pressure 
 HTEM.                      No:  High Temp 
 HYDO.m                   1.80:  Hydro Offset 
 IFIN.deg                67.19:  Inc, Final 
 IMAX.deg                68.42:  Inc Max 
 IMIN.deg                66.33:  Inc Min 
 IMND.m                3532.79:  Inc Min Depth 
 IMXD.m                3192.15:  Inc Max Depth 
 JARR.                      No:  Jarring 
 LETM.      20.20.00 28-Apr-21:  Log End Time 
 LOST.hr                     0:  Lost Rig Time 
 LSTM.      04.45.00 26-Apr-21:  Log Start Time 
 MDCL.ppm             36500.00:  Mud Chlorides 
 MDES.     Inversion Oil/Synthetic:  Mud Desc 
 DFD .sg                  1.42:  Mud Density 
 MDMN.sg                  1.42:  Dens Mud Min 
 MDMX.sg                  1.42:  Dens Mud Max 
 MOIL.                    55.7:  Run Mud Oil % 
 MOWR.                   71:29:  Run Mud OWR 
 MSND.                     0.1:  Run Mud Sand % 
 MSOL.                    19.9:  Run Mud Solids% 
 DFV .spqt               83.00:  Mud Viscosity 
 MWOD.in                  5.15:  MWD Tool OD 
 MWSI.                      No:  Serv Intrp, MWD 
 OTIM.hr                120.59:  Time Operating 
 PCON.           Look Like New:  Pad Condition 
 PMAX.psia            11292.93:  Press Op, Max 
 PV  .cP                 27.00:  Mud PV 
 RUN .                     400:  Run Number 
 ROPA.m/hr               14.00:  ROP Avg 
 ROPN.m/hr                9.00:  ROP Min 
 ROPX.m/hr               18.00:  ROP Max 
 RPMA.rpm               130.00:  RPM Surface Avg 
 RPMN.rpm               100.00:  RPM Surface Min 
 RPMX.rpm               140.00:  RPM Surface Max 
 RRUN.                    0400:  Rig Run Number 
 RTIM.hr                 38.60:  Time Reaming 
 SAZI.deg               149.55:  Azm, Start 
 SDEP.m                3180.01:  Start Depth 
 SIDD.                      No:  Serv Intrp, DD 
 SINC.deg                68.42:  Inc, Start 
 SPPA.psig             4400.00:  SPP Avg 
 SPPN.psig             3580.00:  SPP Min 
 SPPX.psig             4850.00:  SPP Max 
 STIM.      12.30.00 24-Apr-21:  Start Time 
 SVCS.                 DD, MWD:  Services 
 SVER.                    9.20:  Sperry Version 
 TDAT.m                 438.00:  Tot Depth Attmp 
 TDDF.                      No:  Trip for DD 
 TDLG.m                 438.00:  Tot Depth Loggd 
 TFF .                      No:  Trip for Fail 
 TQAA.f-kp               11.00:  Torque Abs Avg 
 TQAN.f-kp                9.00:  Torque Abs Min 
 TQAX.f-kp               14.00:  Torque Abs Max 
 TRRT.°/30m               0.04:  Turn Rotating 
 MRT .                    HCIM:  Maximum Recorded Temperature 
 TTMX.degC               84.31:  Max Tool Temp 
 VS01.                90521954:  Virtual Str1 SN 
 VS02.                90519327:  Virtual Str2 SN 
 VS03.                90522273:  Virtual Str3 SN 
 VS04.                11108038:  Virtual Str4 SN 
 VS05.                12258760:  Virtual Str5 SN 
 WBMN.klb                 1.00:  WOB Min 
 WITN.           Adil Mammadov:  Customer Rep 
 WITN.         Alex Yadullayev:  Customer Rep 2 
 WOBA.klb                 6.00:  WOB Avg 
 WOBX.klb                 9.00:  WOB Max 
 YP  .lhf2               31.00:  Yield Point 
~Curve Information Block
#MNEM.UNIT                 API CODE     Curve Description
#---------               -----------    ---------------------------
 TIME.HHMMSS            00 000 000 000:  GT Time & Date
 GTDEPTH.m              00 000 000 000:  GT Depth
 GTPQH.psia             00 000 000 000:  GT HR Quartz Pressure
 GTTQ.degC              00 000 000 000:  GT Quartz Temperature
 GTTN.NONE              00 000 000 000:  GT Test Number
 GTET.sec               00 000 000 000:  GT Elapsed Test Time
 GTTVD.m                00 000 000 000:  GT True Vertical Depth
#Other Information
#
#WARRANTY: Halliburton will use its best efforts to furnish customers with 
#accurate information and interpretations that are part of, and incident to, the services 
#provided.  However, Halliburton cannot and does not warrant the accuracy 
#or correctness of such information and interpretations.  Under no circumstances should any 
#such information or interpretation be relied upon as the sole basis for any drilling, 
#completion, production, or financial decision or any procedure involving any risk to the 
#safety of any drilling venture, drilling rig or its crew or any other third party.  The 
#Customer has full responsibility for all drilling, completion and production operation.  
#Halliburton makes no representations or warranties, either expressed or 
#implied, including, but not limited to, the implied warranties of merchantability or fitness 
#for a particular purpose, with respect to the services rendered.  In no event will 
#Halliburton be liable for failure to obtain any particular results or for 
#any damages, including, but not limited to, indirect, special or consequential damages, 
#resulting from the use of any information or interpretation provided by Halliburton.
#
~A           TIME           GTDEPTH  GTPQH  GTTQ  GTTN   GTET   GTTVD  
   15:37:44.314.28-Apr-2021 3537.51 6086.99 75.21 10.00   0.00 2773.98
   15:37:44.514.28-Apr-2021 3537.51 6086.99 75.21 10.00   0.20 2773.98
   15:37:44.714.28-Apr-2021 3537.51 6085.61 75.20 10.00   0.40 2773.98
   15:37:44.914.28-Apr-2021 3537.51 6087.08 75.20 10.00   0.60 2773.98
   15:37:45.114.28-Apr-2021 3537.51 6079.26 75.20 10.00   0.80 2773.98
   15:37:45.315.28-Apr-2021 3537.51 6084.80 75.20 10.00   1.00 2773.98
   15:37:45.515.28-Apr-2021 3537.51 6084.80 75.20 10.00   1.20 2773.98
   15:37:45.715.28-Apr-2021 3537.51 6086.97 75.20 10.00   1.40 2773.98
   15:37:45.915.28-Apr-2021 3537.51 6087.70 75.20 10.00   1.60 2773.98
   15:37:46.115.28-Apr-2021 3537.51 6083.94 75.20 10.00   1.80 2773.98
   15:37:46.315.28-Apr-2021 3537.51 6074.12 75.20 10.00   2.00 2773.98
   15:37:46.515.28-Apr-2021 3537.51 6074.12 75.20 10.00   2.20 2773.98
   15:37:46.715.28-Apr-2021 3537.51 6086.00 75.20 10.00   2.40 2773.98
   15:37:46.915.28-Apr-2021 3537.51 6085.22 75.20 10.00   2.60 2773.98
   15:37:47.115.28-Apr-2021 3537.51 6083.48 75.20 10.00   2.80 2773.98
   15:37:47.315.28-Apr-2021 3537.51 6071.92 75.20 10.00   3.00 2773.98
   15:37:47.515.28-Apr-2021 3537.51 6071.92 75.20 10.00   3.20 2773.98
   15:37:47.715.28-Apr-2021 3537.51 6087.17 75.19 10.00   3.40 2773.98
   15:37:47.915.28-Apr-2021 3537.51 6084.93 75.19 10.00   3.60 2773.98
   15:37:48.116.28-Apr-2021 3537.51 6082.76 75.19 10.00   3.80 2773.98
   15:37:48.316.28-Apr-2021 3537.51 6070.98 75.19 10.00   4.00 2773.98
   15:37:48.516.28-Apr-2021 3537.51 6070.98 75.19 10.00   4.20 2773.98
   15:37:48.716.28-Apr-2021 3537.51 6087.79 75.19 10.00   4.40 2773.98
   15:37:48.916.28-Apr-2021 3537.51 6085.67 75.19 10.00   4.60 2773.98
   15:37:49.116.28-Apr-2021 3537.51 6072.14 75.19 10.00   4.80 2773.98
   15:37:49.316.28-Apr-2021 3537.51 6081.41 75.19 10.00   5.00 2773.98
   15:37:49.516.28-Apr-2021 3537.51 6081.41 75.19 10.00   5.20 2773.98
   15:37:49.716.28-Apr-2021 3537.51 6076.37 75.19 10.00   5.40 2773.98
   15:37:49.916.28-Apr-2021 3537.51 6082.15 75.19 10.00   5.60 2773.98
   15:37:50.116.28-Apr-2021 3537.51 6082.81 75.19 10.00   5.80 2773.98
   15:37:50.316.28-Apr-2021 3537.51 6085.32 75.18 10.00   6.00 2773.98
   15:37:50.516.28-Apr-2021 3537.51 6085.32 75.18 10.00   6.20 2773.98
   15:37:50.717.28-Apr-2021 3537.51 6083.02 75.18 10.00   6.40 2773.98
   15:37:50.917.28-Apr-2021 3537.51 6083.62 75.18 10.00   6.60 2773.98
   15:37:51.117.28-Apr-2021 3537.51 6075.76 75.18 10.00   6.80 2773.98
   15:37:51.317.28-Apr-2021 3537.51 6086.11 75.18 10.00   7.00 2773.98
   15:37:51.517.28-Apr-2021 3537.51 6086.11 75.18 10.00   7.20 2773.98
   15:37:51.717.28-Apr-2021 3537.51 6086.11 75.18 10.00   7.40 2773.98
   15:37:51.917.28-Apr-2021 3537.51 6083.14 75.18 10.00   7.60 2773.98
   15:37:52.117.28-Apr-2021 3537.51 6085.57 75.18 10.00   7.80 2773.98
   15:37:52.317.28-Apr-2021 3537.51 6087.76 75.18 10.00   8.00 2773.98
   15:37:52.517.28-Apr-2021 3537.51 6087.76 75.18 10.00   8.20 2773.98
   15:37:52.717.28-Apr-2021 3537.51 6087.76 75.18 10.00   8.40 2773.98
   15:37:52.917.28-Apr-2021 3537.51 6086.44 75.18 10.00   8.60 2773.98
   15:37:53.117.28-Apr-2021 3537.51 6087.99 75.17 10.00   8.80 2773.98
   15:37:53.318.28-Apr-2021 3537.51 6088.61 75.17 10.00   9.00 2773.98
   15:37:53.518.28-Apr-2021 3537.51 6088.61 75.17 10.00   9.20 2773.98
   15:37:53.718.28-Apr-2021 3537.51 6087.37 75.17 10.00   9.40 2773.98
   15:37:53.918.28-Apr-2021 3537.51 6086.68 75.17 10.00   9.60 2773.98
   15:37:54.118.28-Apr-2021 3537.51 6079.76 75.17 10.00   9.80 2773.98
   15:37:54.318.28-Apr-2021 3537.51 6086.81 75.17 10.00  10.00 2773.98
   15:37:54.518.28-Apr-2021 3537.51 6086.81 75.17 10.00  10.20 2773.98
   15:37:54.718.28-Apr-2021 3537.51 6086.95 75.17 10.00  10.40 2773.98
   15:37:54.918.28-Apr-2021 3537.51 6080.85 75.17 10.00  10.60 2773.98
   15:37:55.118.28-Apr-2021 3537.51 6078.84 75.17 10.00  10.80 2773.98
   15:37:55.318.28-Apr-2021 3537.51 6066.42 75.17 10.00  11.00 2773.98
   15:37:55.518.28-Apr-2021 3537.51 6066.42 75.17 10.00  11.20 2773.98
   15:37:55.718.28-Apr-2021 3537.51 6027.18 75.17 10.00  11.40 2773.98
   15:37:55.919.28-Apr-2021 3537.51 6011.76 75.16 10.00  11.60 2773.98
   15:37:56.119.28-Apr-2021 3537.51 6000.52 75.16 10.00  11.80 2773.98
   15:37:56.319.28-Apr-2021 3537.51 6001.29 75.16 10.00  12.00 2773.98
   15:37:56.519.28-Apr-2021 3537.51 6001.29 75.16 10.00  12.20 2773.98
   15:37:56.719.28-Apr-2021 3537.51 6027.26 75.16 10.00  12.40 2773.98
   15:37:56.919.28-Apr-2021 3537.51 5992.38 75.16 10.00  12.60 2773.98
   15:37:57.119.28-Apr-2021 3537.51 5975.88 75.16 10.00  12.80 2773.98
   15:37:57.319.28-Apr-2021 3537.51 5988.10 75.16 10.00  13.00 2773.98
   15:37:57.519.28-Apr-2021 3537.51 5988.10 75.16 10.00  13.21 2773.98
   15:37:57.719.28-Apr-2021 3537.51 5869.33 75.16 10.00  13.41 2773.98
   15:37:57.919.28-Apr-2021 3537.51 5829.99 75.16 10.00  13.61 2773.98
   15:37:58.119.28-Apr-2021 3537.51 5749.37 75.16 10.00  13.81 2773.98
   15:37:58.319.28-Apr-2021 3537.51 5671.07 75.16 10.00  14.01 2773.98
   15:37:58.520.28-Apr-2021 3537.51 5671.07 75.16 10.00  14.21 2773.98
   15:37:58.720.28-Apr-2021 3537.51 5601.02 75.15 10.00  14.41 2773.98
   15:37:58.920.28-Apr-2021 3537.51 5520.52 75.15 10.00  14.61 2773.98
   15:37:59.120.28-Apr-2021 3537.51 5424.51 75.15 10.00  14.81 2773.98
   15:37:59.320.28-Apr-2021 3537.51 5362.96 75.15 10.00  15.01 2773.98
   15:37:59.520.28-Apr-2021 3537.51 5362.96 75.15 10.00  15.21 2773.98
   15:37:59.720.28-Apr-2021 3537.51 5224.34 75.15 10.00  15.41 2773.98
   15:37:59.920.28-Apr-2021 3537.51 5150.34 75.15 10.00  15.61 2773.98
   15:38:00.120.28-Apr-2021 3537.51 5090.31 75.15 10.00  15.81 2773.98
   15:38:00.320.28-Apr-2021 3537.51 5070.31 75.15 10.00  16.01 2773.98
   15:38:00.520.28-Apr-2021 3537.51 5070.31 75.15 10.00  16.21 2773.98
   15:38:00.720.28-Apr-2021 3537.51 4996.54 75.15 10.00  16.41 2773.98
   15:38:00.920.28-Apr-2021 3537.51 4947.27 75.15 10.00  16.61 2773.98
   15:38:01.121.28-Apr-2021 3537.51 4926.44 75.14 10.00  16.81 2773.98
   15:38:01.321.28-Apr-2021 3537.51 4928.46 75.14 10.00  17.01 2773.98
   15:38:01.521.28-Apr-2021 3537.51 4928.46 75.14 10.00  17.21 2773.98
   15:38:01.721.28-Apr-2021 3537.51 4892.19 75.14 10.00  17.41 2773.98
   15:38:01.921.28-Apr-2021 3537.51 5946.20 75.14 10.00  17.61 2773.98
   15:38:02.121.28-Apr-2021 3537.51 6408.03 75.14 10.00  17.81 2773.98
   15:38:02.321.28-Apr-2021 3537.51 6595.68 75.14 10.00  18.01 2773.98
   15:38:02.521.28-Apr-2021 3537.51 6595.68 75.14 10.00  18.21 2773.98
   15:38:02.721.28-Apr-2021 3537.51 6962.37 75.14 10.00  18.41 2773.98
   15:38:02.921.28-Apr-2021 3537.51 7173.15 75.14 10.00  18.61 2773.98
   15:38:03.121.28-Apr-2021 3537.51 7430.83 75.14 10.00  18.81 2773.98
   15:38:03.321.28-Apr-2021 3537.51 7612.21 75.13 10.00  19.01 2773.98
   15:38:03.521.28-Apr-2021 3537.51 7612.21 75.13 10.00  19.21 2773.98
   15:38:03.722.28-Apr-2021 3537.51 7814.27 75.13 10.00  19.41 2773.98
   15:38:03.922.28-Apr-2021 3537.51 7869.83 75.13 10.00  19.61 2773.98
   15:38:04.122.28-Apr-2021 3537.51 7909.00 75.13 10.00  19.81 2773.98
   15:38:04.322.28-Apr-2021 3537.51 7992.60 75.13 10.00  20.01 2773.98
   15:38:04.522.28-Apr-2021 3537.51 7992.60 75.13 10.00  20.21 2773.98
   15:38:04.722.28-Apr-2021 3537.51 8043.59 75.13 10.00  20.41 2773.98
   15:38:04.922.28-Apr-2021 3537.51 8038.73 75.13 10.00  20.61 2773.98
   15:38:05.122.28-Apr-2021 3537.51 8041.88 75.13 10.00  20.81 2773.98
   15:38:05.322.28-Apr-2021 3537.51 8039.08 75.13 10.00  21.01 2773.98
   15:38:05.522.28-Apr-2021 3537.51 8039.08 75.13 10.00  21.21 2773.98
   15:38:05.722.28-Apr-2021 3537.51 8027.74 75.13 10.00  21.41 2773.98
   15:38:05.922.28-Apr-2021 3537.51 8005.50 75.13 10.00  21.61 2773.98
   15:38:06.122.28-Apr-2021 3537.51 8013.72 75.13 10.00  21.81 2773.98
   15:38:06.323.28-Apr-2021 3537.51 8000.86 75.13 10.00  22.01 2773.98
   15:38:06.523.28-Apr-2021 3537.51 8000.86 75.13 10.00  22.21 2773.98
   15:38:06.723.28-Apr-2021 3537.51 8012.63 75.13 10.00  22.41 2773.98
