~Version Information
 VERS.                  2.0:   CWLS log ASCII Standard -VERSION 2.0
 WRAP.                   NO:   One line per depth step
~Well Information Block
#MNEM.UNIT     VALUE/NAME     DESCRIPTION
#---------     -----------    ---------------------------
 STRT.S             06:42:00 27-Apr-21: START TIME 06:42:00 27-Apr-21
 STOP.S             06:48:27 27-Apr-21: STOP TIME  06:48:27 27-Apr-21
 STEP.S                   0.00: STEP TIME
 NULL.                 -999.25: NULL VALUE
 DFWT.                        :  DIST FWL TEXT
 DFST.                        :  DIST FSL TEXT
 DMF .             Drill Floor:  DRILL MEAS FROM
 STIM.      02.00.00 12-Apr-21:  START TIME
 DATE.      02.00.00 02-May-21:  END TIME
 SPUD.               09-Apr-21:  SPUD DATE
 NREF.                    Grid:  NORTH REFERENCE
 HPTY.       Minimum Curvature:  HOLE POS TYPE
 DMOD.             Drill Model:  DRILL MOD DESC
 SVYD.                  Survey:  SURVEY DESC
 ILTD.               Lithology:  INTERP LTH DESC
 FTOP.          Formation Tops:  FORM TOPS DESC
 PDAT.          Mean Sea Level:  PERMANENT DATUM
 FLD .                     ACG:  FIELD NAME
 SON .        AZ-XX-0907021034:  JOB NUMBER
 CTRY.              Azerbaijan:  COUNTRY NAME
 WELL.                    E01x:  WELL NAME
 COMP.     BP Exploration (Caspian Sea) LTD.:  COMPANY
 UWI .            /AZE00001403:  UNIQUE WELL IDENTIFIER
 API .            /AZE00001403:  API NUMBER
 WTYP.                Deviated:  WELL TYPE
 MDS .        Operator Entered:  MAG DATA SOURCE
 BASE.              Azerbaijan:  LOGGING EQUIPMENT BASE LOCATION
 REGN.                   EESSA:  REGION
 PROV.                    Baku:  PROVINCE
 STAT.                    Baku:  STATE NAME
 SRVC.          Turan Drilling:  CONTRACTOR
 MWDS.                    Baku:  MWD SHOP
 JOBN.        AZ-XX-0907021034:  JOB TICKET NUMB
 RIG .                     DWG:  RIG NAME
 DOE .                     N/A:  DOE NUMBER
 DCON.         Sperry Drilling:  DIRECTNL CONTR
 UNIT.                     N/A:  LOGGING EQUIPMENT ID
 CNTY.                        :  COUNTY
 LOC .                        :  LOCATION
 LMF .             Drill Floor:  LOG MEASURED FROM
 TVDS.m                  43.16:  TVDSS CORRECTN
 LATI.deg                40.17:  LATITUDE
 LONG.deg                51.17:  LONGITUDE
 WHNS.m                  -5.90:  WELL HEAD N/S
 WHEW.m                  -6.61:  WELL HEAD E/W
 UTMX.m              514337.95:  UTM X
 UTMY.m             4448627.46:  UTM Y
 DFWL.m                   0.00:  DISTANCE FWL
 DFSL.m                   0.00:  DISTANCE FSL
 SDEP.m                2606.87:  START DEPTH
 TDD .m                3618.01:  TOTAL DEPTH (DRILLER)
 VSDR.deg               177.42:  VERT SEC DIRECT
 GVFD.g                   1.00:  GRAVITY FIELD
 MFLD.nT              50399.00:  MAGNETIC FIELD
 MDIP.deg                59.67:  MAGNETIC DIP
 MDEC.deg                 6.56:  MAGNETIC DECL
 GRDC.deg                 0.11:  GRID CORRECTION
 AZTC.deg                 6.45:  AZM TOTAL CORR
 EPD .m                   0.00:  ELEVATION
 EGL .m                   0.00:  GROUND ELEVATION
 WDMS.m                 176.20:  WD ELEV
 APD .m                  43.16:  DEPTH ABOVE PD
 DEP .m                2606.87:  DEPTH
 AGAP.m                  43.16:  AIR GAP
 VSEW.m                  -6.61:  VERT SEC E/W
 VSNS.m                  -5.90:  VERT SEC N/S
 EKB .m                  43.16:  KB ELEVATION
 EDF .m                  43.16:  DF ELEVATION
 TDL .m                 438.00:  TOTAL DEPTH (LOGGER)
 VSC .                       0:  VS TO CLOSURE
 MAGU.                 1855490:  MAGUTM CHECKSUM
~Parameter Information Block
#MNEM.UNIT       Value        Description
#---------     -----------    ---------------------------
 AV  .mps                 2.20:  Ann Velocity 
 AVMX.mps                 2.50:  Max Ann Veloc 
 AZIF.deg               150.21:  Azm, Final 
 BHAT.        Rotary Steerable:  BHA Type 
 BROT.°/30m               0.08:  Build Rotating 
 BS  .in                  6.50:  Bit Size 
 BSZ .in                  6.50:  Bit Size 
 BTPL.psig              108.00:  Bit Press Loss 
 CABU.                     Yes:  Customer Abuse 
 CGEO.           Emin Aliyarli:  Customer Geo 
 COMM.                     )M:  Run Comments 1 
 TCS .hr                 74.20:  Time Ciculation Ended 
 CV  .mps                 3.63:  Crit Velocity 
 CVMX.mps                 3.66:  Max Crit Veloc 
 DD1 .         Intigam Rahimov:  Direct Drillr 1 
 DD2 .          Teymur Aghayev:  Direct Drillr 2 
 DDSV.               Geo-Pilot:  DD Service 
 DEFF.%                  97.00:  % Det Eff 
 DLRX.°/30m               1.63:  Dogleg Rot Max 
 DLSO.°/30m               0.00:  Dogleg Oriented 
 DLSX.°/30m               0.00:  Dogleg Str Max 
 DRET.      20.20.00 28-Apr-21:  Drill End Time 
 DRST.      04.45.00 26-Apr-21:  Drill Start Tim 
 DTIM.hr                 34.30:  Time Drilling 
 EDEP.m                3618.01:  End Depth 
 ENG1.           Amrah Tahirov:  Engineer 1 
 ENG2.         Bahruz Mehdiyev:  Engineer 2 
 ENG3.         Farhad Orujzade:  Engineer 3 
 ETIM.      19.00.00 29-Apr-21:  End Time 
 FLOI.gpm               370.00:  Flow In 
 FLON.gpm               300.00:  Flow In Min 
 FLOS.cptm                0.00:  Fluid Loss 
 FLOX.gpm               410.00:  Flow In Max 
 HFLO.                      No:  High Flow 
 HPRE.                      No:  High Pressure 
 HTEM.                      No:  High Temp 
 HYDO.m                   1.80:  Hydro Offset 
 IFIN.deg                67.19:  Inc, Final 
 IMAX.deg                68.42:  Inc Max 
 IMIN.deg                66.33:  Inc Min 
 IMND.m                3532.79:  Inc Min Depth 
 IMXD.m                3192.15:  Inc Max Depth 
 JARR.                      No:  Jarring 
 LETM.      20.20.00 28-Apr-21:  Log End Time 
 LOST.hr                     0:  Lost Rig Time 
 LSTM.      04.45.00 26-Apr-21:  Log Start Time 
 MDCL.ppm             36500.00:  Mud Chlorides 
 MDES.     Inversion Oil/Synthetic:  Mud Desc 
 DFD .sg                  1.42:  Mud Density 
 MDMN.sg                  1.42:  Dens Mud Min 
 MDMX.sg                  1.42:  Dens Mud Max 
 MOIL.                    55.7:  Run Mud Oil % 
 MOWR.                   71:29:  Run Mud OWR 
 MSND.                     0.1:  Run Mud Sand % 
 MSOL.                    19.9:  Run Mud Solids% 
 DFV .spqt               83.00:  Mud Viscosity 
 MWOD.in                  5.15:  MWD Tool OD 
 MWSI.                      No:  Serv Intrp, MWD 
 OTIM.hr                120.59:  Time Operating 
 PCON.           Look Like New:  Pad Condition 
 PMAX.psia            11292.93:  Press Op, Max 
 PV  .cP                 27.00:  Mud PV 
 RUN .                     400:  Run Number 
 ROPA.m/hr               14.00:  ROP Avg 
 ROPN.m/hr                9.00:  ROP Min 
 ROPX.m/hr               18.00:  ROP Max 
 RPMA.rpm               130.00:  RPM Surface Avg 
 RPMN.rpm               100.00:  RPM Surface Min 
 RPMX.rpm               140.00:  RPM Surface Max 
 RRUN.                    0400:  Rig Run Number 
 RTIM.hr                 38.60:  Time Reaming 
 SAZI.deg               149.55:  Azm, Start 
 SDEP.m                3180.01:  Start Depth 
 SIDD.                      No:  Serv Intrp, DD 
 SINC.deg                68.42:  Inc, Start 
 SPPA.psig             4400.00:  SPP Avg 
 SPPN.psig             3580.00:  SPP Min 
 SPPX.psig             4850.00:  SPP Max 
 STIM.      12.30.00 24-Apr-21:  Start Time 
 SVCS.                 DD, MWD:  Services 
 SVER.                    9.20:  Sperry Version 
 TDAT.m                 438.00:  Tot Depth Attmp 
 TDDF.                      No:  Trip for DD 
 TDLG.m                 438.00:  Tot Depth Loggd 
 TFF .                      No:  Trip for Fail 
 TQAA.f-kp               11.00:  Torque Abs Avg 
 TQAN.f-kp                9.00:  Torque Abs Min 
 TQAX.f-kp               14.00:  Torque Abs Max 
 TRRT.°/30m               0.04:  Turn Rotating 
 MRT .                    HCIM:  Maximum Recorded Temperature 
 TTMX.degC               84.31:  Max Tool Temp 
 VS01.                90521954:  Virtual Str1 SN 
 VS02.                90519327:  Virtual Str2 SN 
 VS03.                90522273:  Virtual Str3 SN 
 VS04.                11108038:  Virtual Str4 SN 
 VS05.                12258760:  Virtual Str5 SN 
 WBMN.klb                 1.00:  WOB Min 
 WITN.           Adil Mammadov:  Customer Rep 
 WITN.         Alex Yadullayev:  Customer Rep 2 
 WOBA.klb                 6.00:  WOB Avg 
 WOBX.klb                 9.00:  WOB Max 
 YP  .lhf2               31.00:  Yield Point 
~Curve Information Block
#MNEM.UNIT                 API CODE     Curve Description
#---------               -----------    ---------------------------
 TIME.HHMMSS            00 000 000 000:  GT Time & Date
 GTDEPTH.m              00 000 000 000:  GT Depth
 GTPQH.psia             00 000 000 000:  GT HR Quartz Pressure
 GTTQ.degC              00 000 000 000:  GT Quartz Temperature
 GTTN.NONE              00 000 000 000:  GT Test Number
 GTET.sec               00 000 000 000:  GT Elapsed Test Time
 GTTVD.m                00 000 000 000:  GT True Vertical Depth
#Other Information
#
#WARRANTY: Halliburton will use its best efforts to furnish customers with 
#accurate information and interpretations that are part of, and incident to, the services 
#provided.  However, Halliburton cannot and does not warrant the accuracy 
#or correctness of such information and interpretations.  Under no circumstances should any 
#such information or interpretation be relied upon as the sole basis for any drilling, 
#completion, production, or financial decision or any procedure involving any risk to the 
#safety of any drilling venture, drilling rig or its crew or any other third party.  The 
#Customer has full responsibility for all drilling, completion and production operation.  
#Halliburton makes no representations or warranties, either expressed or 
#implied, including, but not limited to, the implied warranties of merchantability or fitness 
#for a particular purpose, with respect to the services rendered.  In no event will 
#Halliburton be liable for failure to obtain any particular results or for 
#any damages, including, but not limited to, indirect, special or consequential damages, 
#resulting from the use of any information or interpretation provided by Halliburton.
#
~A           TIME           GTDEPTH  GTPQH  GTTQ  GTTN  GTET   GTTVD  
# ...
   06:46:59.882.27-Apr-2021 3278.01 4379.47 73.55 4.00 299.03 2671.88
   06:47:00.082.27-Apr-2021 3278.01 4379.47 73.55 4.00 299.23 2671.88
   06:47:00.282.27-Apr-2021 3278.01 4379.46 73.55 4.00 299.43 2671.88
   06:47:00.482.27-Apr-2021 3278.01 4379.25 73.55 4.00 299.63 2671.88
   06:47:00.682.27-Apr-2021 3278.01 4379.04 73.55 4.00 299.83 2671.88
   06:47:00.882.27-Apr-2021 3278.01 4379.24 73.54 4.00 300.03 2671.88
   06:47:01.082.27-Apr-2021 3278.01 4379.24 73.54 4.00 300.23 2671.88
   06:47:01.283.27-Apr-2021 3278.01 4379.37 73.54 4.00 300.43 2671.88
   06:47:01.483.27-Apr-2021 3278.01 4379.19 73.54 4.00 300.63 2671.88
   06:47:01.683.27-Apr-2021 3278.01 4379.45 73.54 4.00 300.83 2671.88
   06:47:01.883.27-Apr-2021 3278.01 4379.75 73.54 4.00 301.03 2671.88
   06:47:02.083.27-Apr-2021 3278.01 4379.75 73.54 4.00 301.23 2671.88
   06:47:02.283.27-Apr-2021 3278.01 4379.18 73.54 4.00 301.43 2671.88
   06:47:02.483.27-Apr-2021 3278.01 4379.79 73.54 4.00 301.63 2671.88
   06:47:02.683.27-Apr-2021 3278.01 4379.70 73.54 4.00 301.83 2671.88
   06:47:02.883.27-Apr-2021 3278.01 4379.68 73.54 4.00 302.03 2671.88
   06:47:03.083.27-Apr-2021 3278.01 4379.68 73.54 4.00 302.23 2671.88
   06:47:03.283.27-Apr-2021 3278.01 4379.06 73.54 4.00 302.43 2671.88
   06:47:03.483.27-Apr-2021 3278.01 4379.64 73.54 4.00 302.63 2671.88
   06:47:03.683.27-Apr-2021 3278.01 4379.66 73.54 4.00 302.83 2671.88
   06:47:03.883.27-Apr-2021 3278.01 4379.78 73.54 4.00 303.03 2671.88
   06:47:04.083.27-Apr-2021 3278.01 4379.78 73.54 4.00 303.23 2671.88
   06:47:04.283.27-Apr-2021 3278.01 4379.70 73.54 4.00 303.43 2671.88
   06:47:04.483.27-Apr-2021 3278.01 4379.67 73.54 4.00 303.63 2671.88
   06:47:04.683.27-Apr-2021 3278.01 4379.71 73.54 4.00 303.83 2671.88
   06:47:04.883.27-Apr-2021 3278.01 4379.83 73.54 4.00 304.03 2671.88
   06:47:05.083.27-Apr-2021 3278.01 4379.83 73.54 4.00 304.23 2671.88
   06:47:05.283.27-Apr-2021 3278.01 4379.73 73.53 4.00 304.43 2671.88
   06:47:05.483.27-Apr-2021 3278.01 4379.61 73.53 4.00 304.63 2671.88
   06:47:05.683.27-Apr-2021 3278.01 4379.73 73.53 4.00 304.83 2671.88
   06:47:05.883.27-Apr-2021 3278.01 4378.84 73.53 4.00 305.03 2671.88
   06:47:06.083.27-Apr-2021 3278.01 4378.84 73.53 4.00 305.23 2671.88
   06:47:06.283.27-Apr-2021 3278.01 4379.58 73.53 4.00 305.43 2671.88
   06:47:06.483.27-Apr-2021 3278.01 4379.71 73.53 4.00 305.63 2671.88
   06:47:06.683.27-Apr-2021 3278.01 4379.76 73.53 4.00 305.83 2671.88
   06:47:06.883.27-Apr-2021 3278.01 4379.81 73.53 4.00 306.03 2671.88
   06:47:07.083.27-Apr-2021 3278.01 4379.81 73.53 4.00 306.23 2671.88
   06:47:07.283.27-Apr-2021 3278.01 4379.79 73.53 4.00 306.43 2671.88
   06:47:07.483.27-Apr-2021 3278.01 4379.91 73.53 4.00 306.63 2671.88
   06:47:07.683.27-Apr-2021 3278.01 4379.93 73.53 4.00 306.83 2671.88
   06:47:07.883.27-Apr-2021 3278.01 4379.82 73.53 4.00 307.03 2671.88
   06:47:08.083.27-Apr-2021 3278.01 4379.82 73.53 4.00 307.23 2671.88
   06:47:08.283.27-Apr-2021 3278.01 4379.82 73.53 4.00 307.43 2671.88
   06:47:08.483.27-Apr-2021 3278.01 4379.81 73.53 4.00 307.63 2671.88
   06:47:08.683.27-Apr-2021 3278.01 4379.25 73.53 4.00 307.83 2671.88
   06:47:08.883.27-Apr-2021 3278.01 4379.82 73.53 4.00 308.03 2671.88
   06:47:09.083.27-Apr-2021 3278.01 4379.82 73.53 4.00 308.23 2671.88
   06:47:09.283.27-Apr-2021 3278.01 4379.90 73.53 4.00 308.43 2671.88
   06:47:09.483.27-Apr-2021 3278.01 4379.53 73.52 4.00 308.63 2671.88
   06:47:09.683.27-Apr-2021 3278.01 4379.86 73.52 4.00 308.83 2671.88
   06:47:09.883.27-Apr-2021 3278.01 4379.78 73.52 4.00 309.03 2671.88
   06:47:10.083.27-Apr-2021 3278.01 4379.78 73.52 4.00 309.23 2671.88
   06:47:10.283.27-Apr-2021 3278.01 4380.06 73.52 4.00 309.43 2671.88
   06:47:10.483.27-Apr-2021 3278.01 4379.55 73.52 4.00 309.63 2671.88
   06:47:10.683.27-Apr-2021 3278.01 4379.95 73.52 4.00 309.83 2671.88
   06:47:10.883.27-Apr-2021 3278.01 4379.95 73.52 4.00 310.03 2671.88
   06:47:11.083.27-Apr-2021 3278.01 4379.95 73.52 4.00 310.23 2671.88
   06:47:11.283.27-Apr-2021 3278.01 4379.54 73.52 4.00 310.43 2671.88
   06:47:11.483.27-Apr-2021 3278.01 4379.98 73.52 4.00 310.63 2671.88
   06:47:11.683.27-Apr-2021 3278.01 4379.70 73.52 4.00 310.83 2671.88
   06:47:11.883.27-Apr-2021 3278.01 4380.07 73.52 4.00 311.03 2671.88
   06:47:12.083.27-Apr-2021 3278.01 4380.07 73.52 4.00 311.23 2671.88
   06:47:12.283.27-Apr-2021 3278.01 4380.13 73.52 4.00 311.43 2671.88
   06:47:12.483.27-Apr-2021 3278.01 4380.03 73.52 4.00 311.63 2671.88
   06:47:12.683.27-Apr-2021 3278.01 4379.98 73.52 4.00 311.83 2671.88
   06:47:12.883.27-Apr-2021 3278.01 4380.10 73.52 4.00 312.03 2671.88
   06:47:13.084.27-Apr-2021 3278.01 4380.10 73.52 4.00 312.23 2671.88
   06:47:13.284.27-Apr-2021 3278.01 4380.07 73.52 4.00 312.43 2671.88
   06:47:13.484.27-Apr-2021 3278.01 4379.99 73.52 4.00 312.63 2671.88
   06:47:13.684.27-Apr-2021 3278.01 4380.02 73.51 4.00 312.83 2671.88
   06:47:13.884.27-Apr-2021 3278.01 4379.59 73.51 4.00 313.03 2671.88
   06:47:14.084.27-Apr-2021 3278.01 4379.59 73.51 4.00 313.23 2671.88
   06:47:14.284.27-Apr-2021 3278.01 4379.67 73.51 4.00 313.43 2671.88
   06:47:14.484.27-Apr-2021 3278.01 4380.03 73.51 4.00 313.63 2671.88
   06:47:14.684.27-Apr-2021 3278.01 4380.05 73.51 4.00 313.83 2671.88
   06:47:14.884.27-Apr-2021 3278.01 4380.07 73.51 4.00 314.03 2671.88
   06:47:15.084.27-Apr-2021 3278.01 4380.07 73.51 4.00 314.23 2671.88
   06:47:15.284.27-Apr-2021 3278.01 4380.05 73.51 4.00 314.43 2671.88
   06:47:15.484.27-Apr-2021 3278.01 4380.12 73.51 4.00 314.63 2671.88
   06:47:15.684.27-Apr-2021 3278.01 4380.20 73.51 4.00 314.83 2671.88
   06:47:15.884.27-Apr-2021 3278.01 4380.09 73.51 4.00 315.03 2671.88
   06:47:16.084.27-Apr-2021 3278.01 4380.09 73.51 4.00 315.23 2671.88
   06:47:16.284.27-Apr-2021 3278.01 4380.04 73.51 4.00 315.43 2671.88
   06:47:16.484.27-Apr-2021 3278.01 4380.13 73.51 4.00 315.63 2671.88
   06:47:16.684.27-Apr-2021 3278.01 4379.76 73.51 4.00 315.83 2671.88
   06:47:16.884.27-Apr-2021 3278.01 4379.78 73.51 4.00 316.03 2671.88
   06:47:17.084.27-Apr-2021 3278.01 4379.78 73.51 4.00 316.23 2671.88
   06:47:17.284.27-Apr-2021 3278.01 4380.23 73.51 4.00 316.43 2671.88
   06:47:17.484.27-Apr-2021 3278.01 4379.99 73.51 4.00 316.63 2671.88
   06:47:17.684.27-Apr-2021 3278.01 4379.89 73.51 4.00 316.83 2671.88
   06:47:17.884.27-Apr-2021 3278.01 4379.95 73.50 4.00 317.03 2671.88
   06:47:18.084.27-Apr-2021 3278.01 4379.95 73.50 4.00 317.23 2671.88
   06:47:18.284.27-Apr-2021 3278.01 4380.29 73.50 4.00 317.43 2671.88
   06:47:18.484.27-Apr-2021 3278.01 4379.69 73.50 4.00 317.63 2671.88
   06:47:18.684.27-Apr-2021 3278.01 4380.41 73.50 4.00 317.83 2671.88
   06:47:18.884.27-Apr-2021 3278.01 4380.21 73.50 4.00 318.03 2671.88
   06:47:19.084.27-Apr-2021 3278.01 4380.21 73.50 4.00 318.23 2671.88
   06:47:19.284.27-Apr-2021 3278.01 4380.18 73.50 4.00 318.43 2671.88
   06:47:19.484.27-Apr-2021 3278.01 4379.98 73.50 4.00 318.63 2671.88
   06:47:19.684.27-Apr-2021 3278.01 4379.97 73.50 4.00 318.83 2671.88
   06:47:19.884.27-Apr-2021 3278.01 4380.38 73.50 4.00 319.03 2671.88
   06:47:20.084.27-Apr-2021 3278.01 4380.38 73.50 4.00 319.23 2671.88
   06:47:20.284.27-Apr-2021 3278.01 4380.39 73.50 4.00 319.43 2671.88
   06:47:20.484.27-Apr-2021 3278.01 4380.26 73.50 4.00 319.63 2671.88
   06:47:20.684.27-Apr-2021 3278.01 4380.26 73.50 4.00 319.83 2671.88
   06:47:20.884.27-Apr-2021 3278.01 4380.33 73.50 4.00 320.03 2671.88
   06:47:21.084.27-Apr-2021 3278.01 4380.33 73.50 4.00 320.23 2671.88
   06:47:21.284.27-Apr-2021 3278.01 4380.27 73.50 4.00 320.43 2671.88
   06:47:21.484.27-Apr-2021 3278.01 4380.29 73.50 4.00 320.63 2671.88
   06:47:21.684.27-Apr-2021 3278.01 4380.15 73.50 4.00 320.83 2671.88
   06:47:21.884.27-Apr-2021 3278.01 4380.09 73.50 4.00 321.03 2671.88
   06:47:22.084.27-Apr-2021 3278.01 4380.09 73.50 4.00 321.23 2671.88
   06:47:22.284.27-Apr-2021 3278.01 4379.98 73.49 4.00 321.43 2671.88
   06:47:22.484.27-Apr-2021 3278.01 4380.24 73.49 4.00 321.63 2671.88
   06:47:22.684.27-Apr-2021 3278.01 4380.29 73.49 4.00 321.83 2671.88
