~Version Information
 VERS.                  2.0:   CWLS log ASCII Standard -VERSION 2.0
 WRAP.                   NO:   One line per depth step
~Well Information Block
#MNEM.UNIT     VALUE/NAME     DESCRIPTION
#---------     -----------    ---------------------------
 STRT.S             23:23:54 27-Apr-21: START TIME 23:23:54 27-Apr-21
 STOP.S             23:30:22 27-Apr-21: STOP TIME  23:30:22 27-Apr-21
 STEP.S                   0.00: STEP TIME
 NULL.                 -999.25: NULL VALUE
 DFWT.                        :  DIST FWL TEXT
 DFST.                        :  DIST FSL TEXT
 DMF .             Drill Floor:  DRILL MEAS FROM
 STIM.      02.00.00 12-Apr-21:  START TIME
 DATE.      02.00.00 02-May-21:  END TIME
 SPUD.               09-Apr-21:  SPUD DATE
 NREF.                    Grid:  NORTH REFERENCE
 HPTY.       Minimum Curvature:  HOLE POS TYPE
 DMOD.             Drill Model:  DRILL MOD DESC
 SVYD.                  Survey:  SURVEY DESC
 ILTD.               Lithology:  INTERP LTH DESC
 FTOP.          Formation Tops:  FORM TOPS DESC
 PDAT.          Mean Sea Level:  PERMANENT DATUM
 FLD .                     ACG:  FIELD NAME
 SON .        AZ-XX-0907021034:  JOB NUMBER
 CTRY.              Azerbaijan:  COUNTRY NAME
 WELL.                    E01x:  WELL NAME
 COMP.     BP Exploration (Caspian Sea) LTD.:  COMPANY
 UWI .            /AZE00001403:  UNIQUE WELL IDENTIFIER
 API .            /AZE00001403:  API NUMBER
 WTYP.                Deviated:  WELL TYPE
 MDS .        Operator Entered:  MAG DATA SOURCE
 BASE.              Azerbaijan:  LOGGING EQUIPMENT BASE LOCATION
 REGN.                   EESSA:  REGION
 PROV.                    Baku:  PROVINCE
 STAT.                    Baku:  STATE NAME
 SRVC.          Turan Drilling:  CONTRACTOR
 MWDS.                    Baku:  MWD SHOP
 JOBN.        AZ-XX-0907021034:  JOB TICKET NUMB
 RIG .                     DWG:  RIG NAME
 DOE .                     N/A:  DOE NUMBER
 DCON.         Sperry Drilling:  DIRECTNL CONTR
 UNIT.                     N/A:  LOGGING EQUIPMENT ID
 CNTY.                        :  COUNTY
 LOC .                        :  LOCATION
 LMF .             Drill Floor:  LOG MEASURED FROM
 TVDS.m                  43.16:  TVDSS CORRECTN
 LATI.deg                40.17:  LATITUDE
 LONG.deg                51.17:  LONGITUDE
 WHNS.m                  -5.90:  WELL HEAD N/S
 WHEW.m                  -6.61:  WELL HEAD E/W
 UTMX.m              514337.95:  UTM X
 UTMY.m             4448627.46:  UTM Y
 DFWL.m                   0.00:  DISTANCE FWL
 DFSL.m                   0.00:  DISTANCE FSL
 SDEP.m                2606.87:  START DEPTH
 TDD .m                3618.01:  TOTAL DEPTH (DRILLER)
 VSDR.deg               177.42:  VERT SEC DIRECT
 GVFD.g                   1.00:  GRAVITY FIELD
 MFLD.nT              50399.00:  MAGNETIC FIELD
 MDIP.deg                59.67:  MAGNETIC DIP
 MDEC.deg                 6.56:  MAGNETIC DECL
 GRDC.deg                 0.11:  GRID CORRECTION
 AZTC.deg                 6.45:  AZM TOTAL CORR
 EPD .m                   0.00:  ELEVATION
 EGL .m                   0.00:  GROUND ELEVATION
 WDMS.m                 176.20:  WD ELEV
 APD .m                  43.16:  DEPTH ABOVE PD
 DEP .m                2606.87:  DEPTH
 AGAP.m                  43.16:  AIR GAP
 VSEW.m                  -6.61:  VERT SEC E/W
 VSNS.m                  -5.90:  VERT SEC N/S
 EKB .m                  43.16:  KB ELEVATION
 EDF .m                  43.16:  DF ELEVATION
 TDL .m                 438.00:  TOTAL DEPTH (LOGGER)
 VSC .                       0:  VS TO CLOSURE
 MAGU.                 1855490:  MAGUTM CHECKSUM
~Parameter Information Block
#MNEM.UNIT       Value        Description
#---------     -----------    ---------------------------
 AV  .mps                 2.20:  Ann Velocity 
 AVMX.mps                 2.50:  Max Ann Veloc 
 AZIF.deg               150.21:  Azm, Final 
 BHAT.        Rotary Steerable:  BHA Type 
 BROT.°/30m               0.08:  Build Rotating 
 BS  .in                  6.50:  Bit Size 
 BSZ .in                  6.50:  Bit Size 
 BTPL.psig              108.00:  Bit Press Loss 
 CABU.                     Yes:  Customer Abuse 
 CGEO.           Emin Aliyarli:  Customer Geo 
 COMM.                     HO:  Run Comments 1 
 TCS .hr                 74.20:  Time Ciculation Ended 
 CV  .mps                 3.63:  Crit Velocity 
 CVMX.mps                 3.66:  Max Crit Veloc 
 DD1 .         Intigam Rahimov:  Direct Drillr 1 
 DD2 .          Teymur Aghayev:  Direct Drillr 2 
 DDSV.               Geo-Pilot:  DD Service 
 DEFF.%                  97.00:  % Det Eff 
 DLRX.°/30m               1.63:  Dogleg Rot Max 
 DLSO.°/30m               0.00:  Dogleg Oriented 
 DLSX.°/30m               0.00:  Dogleg Str Max 
 DRET.      20.20.00 28-Apr-21:  Drill End Time 
 DRST.      04.45.00 26-Apr-21:  Drill Start Tim 
 DTIM.hr                 34.30:  Time Drilling 
 EDEP.m                3618.01:  End Depth 
 ENG1.           Amrah Tahirov:  Engineer 1 
 ENG2.         Bahruz Mehdiyev:  Engineer 2 
 ENG3.         Farhad Orujzade:  Engineer 3 
 ETIM.      19.00.00 29-Apr-21:  End Time 
 FLOI.gpm               370.00:  Flow In 
 FLON.gpm               300.00:  Flow In Min 
 FLOS.cptm                0.00:  Fluid Loss 
 FLOX.gpm               410.00:  Flow In Max 
 HFLO.                      No:  High Flow 
 HPRE.                      No:  High Pressure 
 HTEM.                      No:  High Temp 
 HYDO.m                   1.80:  Hydro Offset 
 IFIN.deg                67.19:  Inc, Final 
 IMAX.deg                68.42:  Inc Max 
 IMIN.deg                66.33:  Inc Min 
 IMND.m                3532.79:  Inc Min Depth 
 IMXD.m                3192.15:  Inc Max Depth 
 JARR.                      No:  Jarring 
 LETM.      20.20.00 28-Apr-21:  Log End Time 
 LOST.hr                     0:  Lost Rig Time 
 LSTM.      04.45.00 26-Apr-21:  Log Start Time 
 MDCL.ppm             36500.00:  Mud Chlorides 
 MDES.     Inversion Oil/Synthetic:  Mud Desc 
 DFD .sg                  1.42:  Mud Density 
 MDMN.sg                  1.42:  Dens Mud Min 
 MDMX.sg                  1.42:  Dens Mud Max 
 MOIL.                    55.7:  Run Mud Oil % 
 MOWR.                   71:29:  Run Mud OWR 
 MSND.                     0.1:  Run Mud Sand % 
 MSOL.                    19.9:  Run Mud Solids% 
 DFV .spqt               83.00:  Mud Viscosity 
 MWOD.in                  5.15:  MWD Tool OD 
 MWSI.                      No:  Serv Intrp, MWD 
 OTIM.hr                120.59:  Time Operating 
 PCON.           Look Like New:  Pad Condition 
 PMAX.psia            11292.93:  Press Op, Max 
 PV  .cP                 27.00:  Mud PV 
 RUN .                     400:  Run Number 
 ROPA.m/hr               14.00:  ROP Avg 
 ROPN.m/hr                9.00:  ROP Min 
 ROPX.m/hr               18.00:  ROP Max 
 RPMA.rpm               130.00:  RPM Surface Avg 
 RPMN.rpm               100.00:  RPM Surface Min 
 RPMX.rpm               140.00:  RPM Surface Max 
 RRUN.                    0400:  Rig Run Number 
 RTIM.hr                 38.60:  Time Reaming 
 SAZI.deg               149.55:  Azm, Start 
 SDEP.m                3180.01:  Start Depth 
 SIDD.                      No:  Serv Intrp, DD 
 SINC.deg                68.42:  Inc, Start 
 SPPA.psig             4400.00:  SPP Avg 
 SPPN.psig             3580.00:  SPP Min 
 SPPX.psig             4850.00:  SPP Max 
 STIM.      12.30.00 24-Apr-21:  Start Time 
 SVCS.                 DD, MWD:  Services 
 SVER.                    9.20:  Sperry Version 
 TDAT.m                 438.00:  Tot Depth Attmp 
 TDDF.                      No:  Trip for DD 
 TDLG.m                 438.00:  Tot Depth Loggd 
 TFF .                      No:  Trip for Fail 
 TQAA.f-kp               11.00:  Torque Abs Avg 
 TQAN.f-kp                9.00:  Torque Abs Min 
 TQAX.f-kp               14.00:  Torque Abs Max 
 TRRT.°/30m               0.04:  Turn Rotating 
 MRT .                    HCIM:  Maximum Recorded Temperature 
 TTMX.degC               84.31:  Max Tool Temp 
 VS01.                90521954:  Virtual Str1 SN 
 VS02.                90519327:  Virtual Str2 SN 
 VS03.                90522273:  Virtual Str3 SN 
 VS04.                11108038:  Virtual Str4 SN 
 VS05.                12258760:  Virtual Str5 SN 
 WBMN.klb                 1.00:  WOB Min 
 WITN.           Adil Mammadov:  Customer Rep 
 WITN.         Alex Yadullayev:  Customer Rep 2 
 WOBA.klb                 6.00:  WOB Avg 
 WOBX.klb                 9.00:  WOB Max 
 YP  .lhf2               31.00:  Yield Point 
~Curve Information Block
#MNEM.UNIT                 API CODE     Curve Description
#---------               -----------    ---------------------------
 TIME.HHMMSS            00 000 000 000:  GT Time & Date
 GTDEPTH.m              00 000 000 000:  GT Depth
 GTPQH.psia             00 000 000 000:  GT HR Quartz Pressure
 GTTQ.degC              00 000 000 000:  GT Quartz Temperature
 GTTN.NONE              00 000 000 000:  GT Test Number
 GTET.sec               00 000 000 000:  GT Elapsed Test Time
 GTTVD.m                00 000 000 000:  GT True Vertical Depth
#Other Information
#
#WARRANTY: Halliburton will use its best efforts to furnish customers with 
#accurate information and interpretations that are part of, and incident to, the services 
#provided.  However, Halliburton cannot and does not warrant the accuracy 
#or correctness of such information and interpretations.  Under no circumstances should any 
#such information or interpretation be relied upon as the sole basis for any drilling, 
#completion, production, or financial decision or any procedure involving any risk to the 
#safety of any drilling venture, drilling rig or its crew or any other third party.  The 
#Customer has full responsibility for all drilling, completion and production operation.  
#Halliburton makes no representations or warranties, either expressed or 
#implied, including, but not limited to, the implied warranties of merchantability or fitness 
#for a particular purpose, with respect to the services rendered.  In no event will 
#Halliburton be liable for failure to obtain any particular results or for 
#any damages, including, but not limited to, indirect, special or consequential damages, 
#resulting from the use of any information or interpretation provided by Halliburton.
#
~A           TIME           GTDEPTH  GTPQH  GTTQ  GTTN  GTET   GTTVD  
# ...
   23:29:16.712.27-Apr-2021 3418.01 3572.69 73.42 6.00 322.08 2727.14
   23:29:16.912.27-Apr-2021 3418.01 3572.69 73.42 6.00 322.28 2727.14
   23:29:17.113.27-Apr-2021 3418.01 3572.53 73.41 6.00 322.48 2727.14
   23:29:17.313.27-Apr-2021 3418.01 3572.75 73.41 6.00 322.68 2727.14
   23:29:17.513.27-Apr-2021 3418.01 3572.72 73.41 6.00 322.88 2727.14
   23:29:17.713.27-Apr-2021 3418.01 3572.72 73.41 6.00 323.08 2727.14
   23:29:17.913.27-Apr-2021 3418.01 3572.72 73.41 6.00 323.28 2727.14
   23:29:18.113.27-Apr-2021 3418.01 3572.71 73.41 6.00 323.48 2727.14
   23:29:18.313.27-Apr-2021 3418.01 3572.54 73.41 6.00 323.68 2727.14
   23:29:18.513.27-Apr-2021 3418.01 3572.80 73.41 6.00 323.88 2727.14
   23:29:18.713.27-Apr-2021 3418.01 3572.73 73.41 6.00 324.08 2727.14
   23:29:18.913.27-Apr-2021 3418.01 3572.73 73.41 6.00 324.28 2727.14
   23:29:19.113.27-Apr-2021 3418.01 3572.75 73.41 6.00 324.48 2727.14
   23:29:19.313.27-Apr-2021 3418.01 3572.71 73.41 6.00 324.68 2727.14
   23:29:19.513.27-Apr-2021 3418.01 3572.63 73.41 6.00 324.88 2727.14
   23:29:19.713.27-Apr-2021 3418.01 3572.69 73.41 6.00 325.08 2727.14
   23:29:19.913.27-Apr-2021 3418.01 3572.69 73.41 6.00 325.28 2727.14
   23:29:20.113.27-Apr-2021 3418.01 3572.74 73.41 6.00 325.48 2727.14
   23:29:20.313.27-Apr-2021 3418.01 3572.72 73.41 6.00 325.68 2727.14
   23:29:20.513.27-Apr-2021 3418.01 3572.72 73.41 6.00 325.88 2727.14
   23:29:20.713.27-Apr-2021 3418.01 3572.61 73.41 6.00 326.08 2727.14
   23:29:20.914.27-Apr-2021 3418.01 3572.61 73.41 6.00 326.28 2727.14
   23:29:21.114.27-Apr-2021 3418.01 3572.74 73.41 6.00 326.48 2727.14
   23:29:21.314.27-Apr-2021 3418.01 3572.72 73.41 6.00 326.68 2727.14
   23:29:21.514.27-Apr-2021 3418.01 3572.73 73.41 6.00 326.88 2727.14
   23:29:21.714.27-Apr-2021 3418.01 3572.72 73.41 6.00 327.08 2727.14
   23:29:21.914.27-Apr-2021 3418.01 3572.72 73.41 6.00 327.28 2727.14
   23:29:22.114.27-Apr-2021 3418.01 3572.72 73.40 6.00 327.48 2727.14
   23:29:22.314.27-Apr-2021 3418.01 3572.71 73.40 6.00 327.68 2727.14
   23:29:22.514.27-Apr-2021 3418.01 3572.70 73.40 6.00 327.88 2727.14
   23:29:22.714.27-Apr-2021 3418.01 3572.71 73.40 6.00 328.08 2727.14
   23:29:22.914.27-Apr-2021 3418.01 3572.71 73.40 6.00 328.28 2727.14
   23:29:23.114.27-Apr-2021 3418.01 3572.68 73.40 6.00 328.48 2727.14
   23:29:23.314.27-Apr-2021 3418.01 3572.71 73.40 6.00 328.68 2727.14
   23:29:23.514.27-Apr-2021 3418.01 3572.48 73.40 6.00 328.88 2727.14
   23:29:23.714.27-Apr-2021 3418.01 3572.80 73.40 6.00 329.08 2727.14
   23:29:23.914.27-Apr-2021 3418.01 3572.80 73.40 6.00 329.28 2727.14
   23:29:24.114.27-Apr-2021 3418.01 3572.74 73.40 6.00 329.48 2727.14
   23:29:24.314.27-Apr-2021 3418.01 3572.72 73.40 6.00 329.68 2727.14
   23:29:24.514.27-Apr-2021 3418.01 3572.71 73.40 6.00 329.88 2727.14
   23:29:24.715.27-Apr-2021 3418.01 3572.69 73.40 6.00 330.09 2727.14
   23:29:24.915.27-Apr-2021 3418.01 3572.69 73.40 6.00 330.29 2727.14
   23:29:25.115.27-Apr-2021 3418.01 3572.68 73.40 6.00 330.49 2727.14
   23:29:25.315.27-Apr-2021 3418.01 3572.69 73.40 6.00 330.69 2727.14
   23:29:25.515.27-Apr-2021 3418.01 3572.68 73.40 6.00 330.89 2727.14
   23:29:25.715.27-Apr-2021 3418.01 3572.68 73.40 6.00 331.09 2727.14
   23:29:25.915.27-Apr-2021 3418.01 3572.68 73.40 6.00 331.29 2727.14
   23:29:26.115.27-Apr-2021 3418.01 3572.63 73.40 6.00 331.49 2727.14
   23:29:26.315.27-Apr-2021 3418.01 3572.60 73.40 6.00 331.69 2727.14
   23:29:26.515.27-Apr-2021 3418.01 3572.74 73.40 6.00 331.89 2727.14
   23:29:26.715.27-Apr-2021 3418.01 3572.74 73.40 6.00 332.09 2727.14
   23:29:26.915.27-Apr-2021 3418.01 3572.74 73.40 6.00 332.29 2727.14
   23:29:27.115.27-Apr-2021 3418.01 3572.71 73.39 6.00 332.49 2727.14
   23:29:27.315.27-Apr-2021 3418.01 3572.61 73.39 6.00 332.69 2727.14
   23:29:27.515.27-Apr-2021 3418.01 3572.68 73.39 6.00 332.89 2727.14
   23:29:27.715.27-Apr-2021 3418.01 3572.73 73.39 6.00 333.09 2727.14
   23:29:27.915.27-Apr-2021 3418.01 3572.73 73.39 6.00 333.29 2727.14
   23:29:28.115.27-Apr-2021 3418.01 3572.72 73.39 6.00 333.49 2727.14
   23:29:28.315.27-Apr-2021 3418.01 3572.72 73.39 6.00 333.69 2727.14
   23:29:28.515.27-Apr-2021 3418.01 3572.69 73.39 6.00 333.89 2727.14
   23:29:28.716.27-Apr-2021 3418.01 3572.52 73.39 6.00 334.09 2727.14
   23:29:28.916.27-Apr-2021 3418.01 3572.52 73.39 6.00 334.29 2727.14
   23:29:29.116.27-Apr-2021 3418.01 3572.75 73.39 6.00 334.49 2727.14
   23:29:29.316.27-Apr-2021 3418.01 3572.69 73.39 6.00 334.69 2727.14
   23:29:29.516.27-Apr-2021 3418.01 3572.73 73.39 6.00 334.89 2727.14
   23:29:29.716.27-Apr-2021 3418.01 3572.69 73.39 6.00 335.09 2727.14
   23:29:29.916.27-Apr-2021 3418.01 3572.69 73.39 6.00 335.29 2727.14
   23:29:30.116.27-Apr-2021 3418.01 3572.78 73.39 6.00 335.49 2727.14
   23:29:30.316.27-Apr-2021 3418.01 3572.74 73.39 6.00 335.69 2727.14
   23:29:30.516.27-Apr-2021 3418.01 3572.69 73.39 6.00 335.89 2727.14
   23:29:30.716.27-Apr-2021 3418.01 3572.74 73.39 6.00 336.09 2727.14
   23:29:30.916.27-Apr-2021 3418.01 3572.74 73.39 6.00 336.29 2727.14
   23:29:31.116.27-Apr-2021 3418.01 3572.71 73.39 6.00 336.49 2727.14
   23:29:31.316.27-Apr-2021 3418.01 3572.70 73.39 6.00 336.69 2727.14
   23:29:31.516.27-Apr-2021 3418.01 3572.68 73.39 6.00 336.89 2727.14
   23:29:31.716.27-Apr-2021 3418.01 3572.70 73.39 6.00 337.09 2727.14
   23:29:31.916.27-Apr-2021 3418.01 3572.70 73.39 6.00 337.29 2727.14
   23:29:32.116.27-Apr-2021 3418.01 3572.69 73.38 6.00 337.49 2727.14
   23:29:32.316.27-Apr-2021 3418.01 3572.69 73.38 6.00 337.69 2727.14
   23:29:32.517.27-Apr-2021 3418.01 3572.49 73.38 6.00 337.89 2727.14
   23:29:32.717.27-Apr-2021 3418.01 3572.78 73.38 6.00 338.09 2727.14
   23:29:32.917.27-Apr-2021 3418.01 3572.78 73.38 6.00 338.29 2727.14
   23:29:33.117.27-Apr-2021 3418.01 3572.68 73.38 6.00 338.49 2727.14
   23:29:33.317.27-Apr-2021 3418.01 3572.71 73.38 6.00 338.69 2727.14
   23:29:33.517.27-Apr-2021 3418.01 3572.70 73.38 6.00 338.89 2727.14
   23:29:33.717.27-Apr-2021 3418.01 3572.71 73.38 6.00 339.09 2727.14
   23:29:33.917.27-Apr-2021 3418.01 3572.71 73.38 6.00 339.29 2727.14
   23:29:34.117.27-Apr-2021 3418.01 3572.69 73.38 6.00 339.49 2727.14
   23:29:34.317.27-Apr-2021 3418.01 3572.68 73.38 6.00 339.69 2727.14
   23:29:34.517.27-Apr-2021 3418.01 3572.69 73.38 6.00 339.89 2727.14
   23:29:34.717.27-Apr-2021 3418.01 3572.67 73.38 6.00 340.09 2727.14
   23:29:34.917.27-Apr-2021 3418.01 3572.67 73.38 6.00 340.29 2727.14
   23:29:35.117.27-Apr-2021 3418.01 3572.67 73.38 6.00 340.49 2727.14
   23:29:35.317.27-Apr-2021 3418.01 3572.47 73.38 6.00 340.69 2727.14
   23:29:35.517.27-Apr-2021 3418.01 3572.78 73.38 6.00 340.89 2727.14
   23:29:35.717.27-Apr-2021 3418.01 3572.72 73.38 6.00 341.09 2727.14
   23:29:35.917.27-Apr-2021 3418.01 3572.72 73.38 6.00 341.29 2727.14
   23:29:36.117.27-Apr-2021 3418.01 3572.66 73.38 6.00 341.49 2727.14
   23:29:36.317.27-Apr-2021 3418.01 3572.68 73.38 6.00 341.69 2727.14
   23:29:36.518.27-Apr-2021 3418.01 3572.49 73.38 6.00 341.89 2727.14
   23:29:36.718.27-Apr-2021 3418.01 3572.79 73.38 6.00 342.09 2727.14
   23:29:36.918.27-Apr-2021 3418.01 3572.79 73.38 6.00 342.29 2727.14
   23:29:37.118.27-Apr-2021 3418.01 3572.68 73.37 6.00 342.49 2727.14
   23:29:37.318.27-Apr-2021 3418.01 3572.73 73.37 6.00 342.69 2727.14
   23:29:37.518.27-Apr-2021 3418.01 3572.68 73.37 6.00 342.89 2727.14
   23:29:37.718.27-Apr-2021 3418.01 3572.49 73.37 6.00 343.09 2727.14
   23:29:37.918.27-Apr-2021 3418.01 3572.49 73.37 6.00 343.29 2727.14
   23:29:38.118.27-Apr-2021 3418.01 3572.71 73.37 6.00 343.49 2727.14
   23:29:38.318.27-Apr-2021 3418.01 3572.69 73.37 6.00 343.69 2727.14
   23:29:38.518.27-Apr-2021 3418.01 3572.72 73.37 6.00 343.89 2727.14
   23:29:38.718.27-Apr-2021 3418.01 3572.69 73.37 6.00 344.09 2727.14
   23:29:38.918.27-Apr-2021 3418.01 3572.69 73.37 6.00 344.29 2727.14
   23:29:39.118.27-Apr-2021 3418.01 3572.81 73.37 6.00 344.49 2727.14
   23:29:39.318.27-Apr-2021 3418.01 3572.71 73.37 6.00 344.69 2727.14
   23:29:39.518.27-Apr-2021 3418.01 3572.69 73.37 6.00 344.89 2727.14
