~Version Information
 VERS.                  2.0:   CWLS log ASCII Standard -VERSION 2.0
 WRAP.                   NO:   One line per depth step
~Well Information Block
#MNEM.UNIT     VALUE/NAME     DESCRIPTION
#---------     -----------    ---------------------------
 STRT.S             03:12:46 28-Apr-21: START TIME 03:12:46 28-Apr-21
 STOP.S             03:19:14 28-Apr-21: STOP TIME  03:19:14 28-Apr-21
 STEP.S                   0.00: STEP TIME
 NULL.                 -999.25: NULL VALUE
 DFWT.                        :  DIST FWL TEXT
 DFST.                        :  DIST FSL TEXT
 DMF .             Drill Floor:  DRILL MEAS FROM
 STIM.      02.00.00 12-Apr-21:  START TIME
 DATE.      02.00.00 02-May-21:  END TIME
 SPUD.               09-Apr-21:  SPUD DATE
 NREF.                    Grid:  NORTH REFERENCE
 HPTY.       Minimum Curvature:  HOLE POS TYPE
 DMOD.             Drill Model:  DRILL MOD DESC
 SVYD.                  Survey:  SURVEY DESC
 ILTD.               Lithology:  INTERP LTH DESC
 FTOP.          Formation Tops:  FORM TOPS DESC
 PDAT.          Mean Sea Level:  PERMANENT DATUM
 FLD .                     ACG:  FIELD NAME
 SON .        AZ-XX-0907021034:  JOB NUMBER
 CTRY.              Azerbaijan:  COUNTRY NAME
 WELL.                    E01x:  WELL NAME
 COMP.     BP Exploration (Caspian Sea) LTD.:  COMPANY
 UWI .            /AZE00001403:  UNIQUE WELL IDENTIFIER
 API .            /AZE00001403:  API NUMBER
 WTYP.                Deviated:  WELL TYPE
 MDS .        Operator Entered:  MAG DATA SOURCE
 BASE.              Azerbaijan:  LOGGING EQUIPMENT BASE LOCATION
 REGN.                   EESSA:  REGION
 PROV.                    Baku:  PROVINCE
 STAT.                    Baku:  STATE NAME
 SRVC.          Turan Drilling:  CONTRACTOR
 MWDS.                    Baku:  MWD SHOP
 JOBN.        AZ-XX-0907021034:  JOB TICKET NUMB
 RIG .                     DWG:  RIG NAME
 DOE .                     N/A:  DOE NUMBER
 DCON.         Sperry Drilling:  DIRECTNL CONTR
 UNIT.                     N/A:  LOGGING EQUIPMENT ID
 CNTY.                        :  COUNTY
 LOC .                        :  LOCATION
 LMF .             Drill Floor:  LOG MEASURED FROM
 TVDS.m                  43.16:  TVDSS CORRECTN
 LATI.deg                40.17:  LATITUDE
 LONG.deg                51.17:  LONGITUDE
 WHNS.m                  -5.90:  WELL HEAD N/S
 WHEW.m                  -6.61:  WELL HEAD E/W
 UTMX.m              514337.95:  UTM X
 UTMY.m             4448627.46:  UTM Y
 DFWL.m                   0.00:  DISTANCE FWL
 DFSL.m                   0.00:  DISTANCE FSL
 SDEP.m                2606.87:  START DEPTH
 TDD .m                3618.01:  TOTAL DEPTH (DRILLER)
 VSDR.deg               177.42:  VERT SEC DIRECT
 GVFD.g                   1.00:  GRAVITY FIELD
 MFLD.nT              50399.00:  MAGNETIC FIELD
 MDIP.deg                59.67:  MAGNETIC DIP
 MDEC.deg                 6.56:  MAGNETIC DECL
 GRDC.deg                 0.11:  GRID CORRECTION
 AZTC.deg                 6.45:  AZM TOTAL CORR
 EPD .m                   0.00:  ELEVATION
 EGL .m                   0.00:  GROUND ELEVATION
 WDMS.m                 176.20:  WD ELEV
 APD .m                  43.16:  DEPTH ABOVE PD
 DEP .m                2606.87:  DEPTH
 AGAP.m                  43.16:  AIR GAP
 VSEW.m                  -6.61:  VERT SEC E/W
 VSNS.m                  -5.90:  VERT SEC N/S
 EKB .m                  43.16:  KB ELEVATION
 EDF .m                  43.16:  DF ELEVATION
 TDL .m                 438.00:  TOTAL DEPTH (LOGGER)
 VSC .                       0:  VS TO CLOSURE
 MAGU.                 1855490:  MAGUTM CHECKSUM
~Parameter Information Block
#MNEM.UNIT       Value        Description
#---------     -----------    ---------------------------
 AV  .mps                 2.20:  Ann Velocity 
 AVMX.mps                 2.50:  Max Ann Veloc 
 AZIF.deg               150.21:  Azm, Final 
 BHAT.        Rotary Steerable:  BHA Type 
 BROT.°/30m               0.08:  Build Rotating 
 BS  .in                  6.50:  Bit Size 
 BSZ .in                  6.50:  Bit Size 
 BTPL.psig              108.00:  Bit Press Loss 
 CABU.                     Yes:  Customer Abuse 
 CGEO.           Emin Aliyarli:  Customer Geo 
 COMM.                     ¬¼r:  Run Comments 1 
 TCS .hr                 74.20:  Time Ciculation Ended 
 CV  .mps                 3.63:  Crit Velocity 
 CVMX.mps                 3.66:  Max Crit Veloc 
 DD1 .         Intigam Rahimov:  Direct Drillr 1 
 DD2 .          Teymur Aghayev:  Direct Drillr 2 
 DDSV.               Geo-Pilot:  DD Service 
 DEFF.%                  97.00:  % Det Eff 
 DLRX.°/30m               1.63:  Dogleg Rot Max 
 DLSO.°/30m               0.00:  Dogleg Oriented 
 DLSX.°/30m               0.00:  Dogleg Str Max 
 DRET.      20.20.00 28-Apr-21:  Drill End Time 
 DRST.      04.45.00 26-Apr-21:  Drill Start Tim 
 DTIM.hr                 34.30:  Time Drilling 
 EDEP.m                3618.01:  End Depth 
 ENG1.           Amrah Tahirov:  Engineer 1 
 ENG2.         Bahruz Mehdiyev:  Engineer 2 
 ENG3.         Farhad Orujzade:  Engineer 3 
 ETIM.      19.00.00 29-Apr-21:  End Time 
 FLOI.gpm               370.00:  Flow In 
 FLON.gpm               300.00:  Flow In Min 
 FLOS.cptm                0.00:  Fluid Loss 
 FLOX.gpm               410.00:  Flow In Max 
 HFLO.                      No:  High Flow 
 HPRE.                      No:  High Pressure 
 HTEM.                      No:  High Temp 
 HYDO.m                   1.80:  Hydro Offset 
 IFIN.deg                67.19:  Inc, Final 
 IMAX.deg                68.42:  Inc Max 
 IMIN.deg                66.33:  Inc Min 
 IMND.m                3532.79:  Inc Min Depth 
 IMXD.m                3192.15:  Inc Max Depth 
 JARR.                      No:  Jarring 
 LETM.      20.20.00 28-Apr-21:  Log End Time 
 LOST.hr                     0:  Lost Rig Time 
 LSTM.      04.45.00 26-Apr-21:  Log Start Time 
 MDCL.ppm             36500.00:  Mud Chlorides 
 MDES.     Inversion Oil/Synthetic:  Mud Desc 
 DFD .sg                  1.42:  Mud Density 
 MDMN.sg                  1.42:  Dens Mud Min 
 MDMX.sg                  1.42:  Dens Mud Max 
 MOIL.                    55.7:  Run Mud Oil % 
 MOWR.                   71:29:  Run Mud OWR 
 MSND.                     0.1:  Run Mud Sand % 
 MSOL.                    19.9:  Run Mud Solids% 
 DFV .spqt               83.00:  Mud Viscosity 
 MWOD.in                  5.15:  MWD Tool OD 
 MWSI.                      No:  Serv Intrp, MWD 
 OTIM.hr                120.59:  Time Operating 
 PCON.           Look Like New:  Pad Condition 
 PMAX.psia            11292.93:  Press Op, Max 
 PV  .cP                 27.00:  Mud PV 
 RUN .                     400:  Run Number 
 ROPA.m/hr               14.00:  ROP Avg 
 ROPN.m/hr                9.00:  ROP Min 
 ROPX.m/hr               18.00:  ROP Max 
 RPMA.rpm               130.00:  RPM Surface Avg 
 RPMN.rpm               100.00:  RPM Surface Min 
 RPMX.rpm               140.00:  RPM Surface Max 
 RRUN.                    0400:  Rig Run Number 
 RTIM.hr                 38.60:  Time Reaming 
 SAZI.deg               149.55:  Azm, Start 
 SDEP.m                3180.01:  Start Depth 
 SIDD.                      No:  Serv Intrp, DD 
 SINC.deg                68.42:  Inc, Start 
 SPPA.psig             4400.00:  SPP Avg 
 SPPN.psig             3580.00:  SPP Min 
 SPPX.psig             4850.00:  SPP Max 
 STIM.      12.30.00 24-Apr-21:  Start Time 
 SVCS.                 DD, MWD:  Services 
 SVER.                    9.20:  Sperry Version 
 TDAT.m                 438.00:  Tot Depth Attmp 
 TDDF.                      No:  Trip for DD 
 TDLG.m                 438.00:  Tot Depth Loggd 
 TFF .                      No:  Trip for Fail 
 TQAA.f-kp               11.00:  Torque Abs Avg 
 TQAN.f-kp                9.00:  Torque Abs Min 
 TQAX.f-kp               14.00:  Torque Abs Max 
 TRRT.°/30m               0.04:  Turn Rotating 
 MRT .                    HCIM:  Maximum Recorded Temperature 
 TTMX.degC               84.31:  Max Tool Temp 
 VS01.                90521954:  Virtual Str1 SN 
 VS02.                90519327:  Virtual Str2 SN 
 VS03.                90522273:  Virtual Str3 SN 
 VS04.                11108038:  Virtual Str4 SN 
 VS05.                12258760:  Virtual Str5 SN 
 WBMN.klb                 1.00:  WOB Min 
 WITN.           Adil Mammadov:  Customer Rep 
 WITN.         Alex Yadullayev:  Customer Rep 2 
 WOBA.klb                 6.00:  WOB Avg 
 WOBX.klb                 9.00:  WOB Max 
 YP  .lhf2               31.00:  Yield Point 
~Curve Information Block
#MNEM.UNIT                 API CODE     Curve Description
#---------               -----------    ---------------------------
 TIME.HHMMSS            00 000 000 000:  GT Time & Date
 GTDEPTH.m              00 000 000 000:  GT Depth
 GTPQH.psia             00 000 000 000:  GT HR Quartz Pressure
 GTTQ.degC              00 000 000 000:  GT Quartz Temperature
 GTTN.NONE              00 000 000 000:  GT Test Number
 GTET.sec               00 000 000 000:  GT Elapsed Test Time
 GTTVD.m                00 000 000 000:  GT True Vertical Depth
#Other Information
#
#WARRANTY: Halliburton will use its best efforts to furnish customers with 
#accurate information and interpretations that are part of, and incident to, the services 
#provided.  However, Halliburton cannot and does not warrant the accuracy 
#or correctness of such information and interpretations.  Under no circumstances should any 
#such information or interpretation be relied upon as the sole basis for any drilling, 
#completion, production, or financial decision or any procedure involving any risk to the 
#safety of any drilling venture, drilling rig or its crew or any other third party.  The 
#Customer has full responsibility for all drilling, completion and production operation.  
#Halliburton makes no representations or warranties, either expressed or 
#implied, including, but not limited to, the implied warranties of merchantability or fitness 
#for a particular purpose, with respect to the services rendered.  In no event will 
#Halliburton be liable for failure to obtain any particular results or for 
#any damages, including, but not limited to, indirect, special or consequential damages, 
#resulting from the use of any information or interpretation provided by Halliburton.
#
~A           TIME           GTDEPTH  GTPQH  GTTQ  GTTN  GTET   GTTVD  
# ...
   03:18:31.862.28-Apr-2021 3448.01 4413.74 71.78 7.00 345.05 2738.99
   03:18:32.062.28-Apr-2021 3448.01 4413.74 71.78 7.00 345.25 2738.99
   03:18:32.262.28-Apr-2021 3448.01 6034.45 71.78 7.00 345.45 2738.99
   03:18:32.462.28-Apr-2021 3448.01 6035.11 71.78 7.00 345.65 2738.99
   03:18:32.662.28-Apr-2021 3448.01 6027.12 71.78 7.00 345.85 2738.99
   03:18:32.862.28-Apr-2021 3448.01 6034.54 71.78 7.00 346.05 2738.99
   03:18:33.062.28-Apr-2021 3448.01 6034.54 71.78 7.00 346.25 2738.99
   03:18:33.262.28-Apr-2021 3448.01 6036.87 71.78 7.00 346.45 2738.99
   03:18:33.462.28-Apr-2021 3448.01 6035.67 71.78 7.00 346.65 2738.99
   03:18:33.662.28-Apr-2021 3448.01 6038.86 71.78 7.00 346.85 2738.99
   03:18:33.862.28-Apr-2021 3448.01 6032.98 71.78 7.00 347.05 2738.99
   03:18:34.062.28-Apr-2021 3448.01 6032.98 71.78 7.00 347.25 2738.99
   03:18:34.262.28-Apr-2021 3448.01 6040.95 71.78 7.00 347.45 2738.99
   03:18:34.462.28-Apr-2021 3448.01 6042.20 71.78 7.00 347.65 2738.99
   03:18:34.662.28-Apr-2021 3448.01 6031.09 71.78 7.00 347.85 2738.99
   03:18:34.863.28-Apr-2021 3448.01 6041.19 71.78 7.00 348.05 2738.99
   03:18:35.063.28-Apr-2021 3448.01 6041.19 71.78 7.00 348.25 2738.99
   03:18:35.263.28-Apr-2021 3448.01 6042.32 71.78 7.00 348.45 2738.99
   03:18:35.463.28-Apr-2021 3448.01 6036.92 71.78 7.00 348.65 2738.99
   03:18:35.663.28-Apr-2021 3448.01 6039.79 71.78 7.00 348.85 2738.99
   03:18:35.863.28-Apr-2021 3448.01 6044.35 71.78 7.00 349.05 2738.99
   03:18:36.063.28-Apr-2021 3448.01 6044.35 71.78 7.00 349.25 2738.99
   03:18:36.263.28-Apr-2021 3448.01 6042.43 71.78 7.00 349.45 2738.99
   03:18:36.463.28-Apr-2021 3448.01 6041.07 71.78 7.00 349.65 2738.99
   03:18:36.663.28-Apr-2021 3448.01 6045.38 71.78 7.00 349.85 2738.99
   03:18:36.863.28-Apr-2021 3448.01 6042.78 71.78 7.00 350.05 2738.99
   03:18:37.063.28-Apr-2021 3448.01 6042.78 71.78 7.00 350.25 2738.99
   03:18:37.263.28-Apr-2021 3448.01 6044.89 71.78 7.00 350.45 2738.99
   03:18:37.463.28-Apr-2021 3448.01 6028.42 71.78 7.00 350.65 2738.99
   03:18:37.663.28-Apr-2021 3448.01 6045.65 71.78 7.00 350.85 2738.99
   03:18:37.863.28-Apr-2021 3448.01 6041.50 71.78 7.00 351.05 2738.99
   03:18:38.063.28-Apr-2021 3448.01 6041.50 71.78 7.00 351.25 2738.99
   03:18:38.263.28-Apr-2021 3448.01 6039.84 71.78 7.00 351.45 2738.99
   03:18:38.463.28-Apr-2021 3448.01 6040.68 71.78 7.00 351.65 2738.99
   03:18:38.663.28-Apr-2021 3448.01 6042.20 71.78 7.00 351.85 2738.99
   03:18:38.863.28-Apr-2021 3448.01 6039.73 71.78 7.00 352.05 2738.99
   03:18:39.063.28-Apr-2021 3448.01 6039.73 71.78 7.00 352.25 2738.99
   03:18:39.263.28-Apr-2021 3448.01 6040.71 71.79 7.00 352.45 2738.99
   03:18:39.463.28-Apr-2021 3448.01 6045.19 71.79 7.00 352.65 2738.99
   03:18:39.663.28-Apr-2021 3448.01 6042.10 71.79 7.00 352.85 2738.99
   03:18:39.863.28-Apr-2021 3448.01 6041.85 71.79 7.00 353.05 2738.99
   03:18:40.063.28-Apr-2021 3448.01 6041.85 71.79 7.00 353.25 2738.99
   03:18:40.263.28-Apr-2021 3448.01 6034.47 71.79 7.00 353.45 2738.99
   03:18:40.463.28-Apr-2021 3448.01 6042.38 71.79 7.00 353.65 2738.99
   03:18:40.663.28-Apr-2021 3448.01 6042.59 71.79 7.00 353.85 2738.99
   03:18:40.863.28-Apr-2021 3448.01 6038.63 71.79 7.00 354.05 2738.99
   03:18:41.063.28-Apr-2021 3448.01 6038.63 71.79 7.00 354.25 2738.99
   03:18:41.263.28-Apr-2021 3448.01 6043.88 71.79 7.00 354.45 2738.99
   03:18:41.463.28-Apr-2021 3448.01 6043.79 71.79 7.00 354.65 2738.99
   03:18:41.664.28-Apr-2021 3448.01 6037.49 71.79 7.00 354.85 2738.99
   03:18:41.864.28-Apr-2021 3448.01 6042.21 71.79 7.00 355.05 2738.99
   03:18:42.064.28-Apr-2021 3448.01 6042.21 71.79 7.00 355.25 2738.99
   03:18:42.264.28-Apr-2021 3448.01 6033.89 71.79 7.00 355.45 2738.99
   03:18:42.464.28-Apr-2021 3448.01 6041.90 71.79 7.00 355.65 2738.99
   03:18:42.664.28-Apr-2021 3448.01 6044.08 71.79 7.00 355.85 2738.99
   03:18:42.864.28-Apr-2021 3448.01 6039.87 71.79 7.00 356.05 2738.99
   03:18:43.064.28-Apr-2021 3448.01 6039.87 71.79 7.00 356.25 2738.99
   03:18:43.264.28-Apr-2021 3448.01 6044.24 71.79 7.00 356.45 2738.99
   03:18:43.464.28-Apr-2021 3448.01 6042.14 71.79 7.00 356.65 2738.99
   03:18:43.664.28-Apr-2021 3448.01 6039.06 71.79 7.00 356.85 2738.99
   03:18:43.864.28-Apr-2021 3448.01 6040.18 71.79 7.00 357.05 2738.99
   03:18:44.064.28-Apr-2021 3448.01 6040.18 71.79 7.00 357.25 2738.99
   03:18:44.264.28-Apr-2021 3448.01 6044.42 71.79 7.00 357.45 2738.99
   03:18:44.464.28-Apr-2021 3448.01 6039.64 71.79 7.00 357.65 2738.99
   03:18:44.664.28-Apr-2021 3448.01 6042.96 71.79 7.00 357.85 2738.99
   03:18:44.864.28-Apr-2021 3448.01 6042.16 71.79 7.00 358.05 2738.99
   03:18:45.064.28-Apr-2021 3448.01 6042.16 71.79 7.00 358.25 2738.99
   03:18:45.264.28-Apr-2021 3448.01 6041.38 71.79 7.00 358.45 2738.99
   03:18:45.464.28-Apr-2021 3448.01 6043.05 71.78 7.00 358.65 2738.99
   03:18:45.664.28-Apr-2021 3448.01 6030.97 71.78 7.00 358.85 2738.99
   03:18:45.864.28-Apr-2021 3448.01 6043.32 71.78 7.00 359.05 2738.99
   03:18:46.064.28-Apr-2021 3448.01 6043.32 71.78 7.00 359.25 2738.99
   03:18:46.264.28-Apr-2021 3448.01 6039.21 71.78 7.00 359.45 2738.99
   03:18:46.464.28-Apr-2021 3448.01 6039.87 71.78 7.00 359.65 2738.99
   03:18:46.664.28-Apr-2021 3448.01 6040.59 71.78 7.00 359.85 2738.99
   03:18:46.864.28-Apr-2021 3448.01 6040.53 71.78 7.00 360.05 2738.99
   03:18:47.064.28-Apr-2021 3448.01 6040.53 71.78 7.00 360.25 2738.99
   03:18:47.264.28-Apr-2021 3448.01 6040.17 71.78 7.00 360.45 2738.99
   03:18:47.464.28-Apr-2021 3448.01 6042.41 71.78 7.00 360.65 2738.99
   03:18:47.664.28-Apr-2021 3448.01 6042.32 71.78 7.00 360.85 2738.99
   03:18:47.864.28-Apr-2021 3448.01 6043.22 71.78 7.00 361.05 2738.99
   03:18:48.064.28-Apr-2021 3448.01 6043.22 71.78 7.00 361.25 2738.99
   03:18:48.264.28-Apr-2021 3448.01 6042.88 71.78 7.00 361.45 2738.99
   03:18:48.465.28-Apr-2021 3448.01 6043.14 71.78 7.00 361.65 2738.99
   03:18:48.665.28-Apr-2021 3448.01 6031.45 71.78 7.00 361.85 2738.99
   03:18:48.865.28-Apr-2021 3448.01 6043.58 71.78 7.00 362.05 2738.99
   03:18:49.065.28-Apr-2021 3448.01 6043.58 71.78 7.00 362.25 2738.99
   03:18:49.265.28-Apr-2021 3448.01 6038.82 71.78 7.00 362.45 2738.99
   03:18:49.465.28-Apr-2021 3448.01 6042.19 71.78 7.00 362.65 2738.99
   03:18:49.665.28-Apr-2021 3448.01 6029.40 71.78 7.00 362.85 2738.99
   03:18:49.865.28-Apr-2021 3448.01 6045.68 71.78 7.00 363.05 2738.99
   03:18:50.065.28-Apr-2021 3448.01 6045.68 71.78 7.00 363.25 2738.99
   03:18:50.265.28-Apr-2021 3448.01 6041.45 71.78 7.00 363.45 2738.99
   03:18:50.465.28-Apr-2021 3448.01 6038.92 71.78 7.00 363.65 2738.99
   03:18:50.665.28-Apr-2021 3448.01 6035.32 71.78 7.00 363.85 2738.99
   03:18:50.865.28-Apr-2021 3448.01 6041.57 71.78 7.00 364.05 2738.99
   03:18:51.065.28-Apr-2021 3448.01 6041.57 71.78 7.00 364.25 2738.99
   03:18:51.265.28-Apr-2021 3448.01 6037.92 71.78 7.00 364.45 2738.99
   03:18:51.465.28-Apr-2021 3448.01 6028.64 71.78 7.00 364.65 2738.99
   03:18:51.665.28-Apr-2021 3448.01 6045.22 71.78 7.00 364.85 2738.99
   03:18:51.865.28-Apr-2021 3448.01 6041.75 71.78 7.00 365.05 2738.99
   03:18:52.065.28-Apr-2021 3448.01 6041.75 71.78 7.00 365.25 2738.99
   03:18:52.265.28-Apr-2021 3448.01 6040.27 71.78 7.00 365.45 2738.99
   03:18:52.465.28-Apr-2021 3448.01 6042.62 71.78 7.00 365.65 2738.99
   03:18:52.665.28-Apr-2021 3448.01 6042.98 71.78 7.00 365.85 2738.99
   03:18:52.865.28-Apr-2021 3448.01 6039.90 71.78 7.00 366.05 2738.99
   03:18:53.065.28-Apr-2021 3448.01 6039.90 71.78 7.00 366.25 2738.99
   03:18:53.265.28-Apr-2021 3448.01 6043.41 71.77 7.00 366.45 2738.99
   03:18:53.465.28-Apr-2021 3448.01 6045.81 71.77 7.00 366.65 2738.99
   03:18:53.665.28-Apr-2021 3448.01 6041.95 71.77 7.00 366.85 2738.99
   03:18:53.865.28-Apr-2021 3448.01 6044.58 71.77 7.00 367.05 2738.99
   03:18:54.065.28-Apr-2021 3448.01 6044.58 71.77 7.00 367.25 2738.99
   03:18:54.265.28-Apr-2021 3448.01 6044.34 71.77 7.00 367.45 2738.99
   03:18:54.465.28-Apr-2021 3448.01 6043.72 71.77 7.00 367.65 2738.99
   03:18:54.665.28-Apr-2021 3448.01 6038.99 71.77 7.00 367.85 2738.99
