~Version Information
 VERS.                  2.0:   CWLS log ASCII Standard -VERSION 2.0
 WRAP.                   NO:   One line per depth step
~Well Information Block
#MNEM.UNIT     VALUE/NAME     DESCRIPTION
#---------     -----------    ---------------------------
 STRT.S             02:50:28 27-Apr-21: START TIME 02:50:28 27-Apr-21
 STOP.S             02:56:55 27-Apr-21: STOP TIME  02:56:55 27-Apr-21
 STEP.S                   0.00: STEP TIME
 NULL.                 -999.25: NULL VALUE
 DFWT.                        :  DIST FWL TEXT
 DFST.                        :  DIST FSL TEXT
 DMF .             Drill Floor:  DRILL MEAS FROM
 STIM.      02.00.00 12-Apr-21:  START TIME
 DATE.      02.00.00 02-May-21:  END TIME
 SPUD.               09-Apr-21:  SPUD DATE
 NREF.                    Grid:  NORTH REFERENCE
 HPTY.       Minimum Curvature:  HOLE POS TYPE
 DMOD.             Drill Model:  DRILL MOD DESC
 SVYD.                  Survey:  SURVEY DESC
 ILTD.               Lithology:  INTERP LTH DESC
 FTOP.          Formation Tops:  FORM TOPS DESC
 PDAT.          Mean Sea Level:  PERMANENT DATUM
 FLD .                     ACG:  FIELD NAME
 SON .        AZ-XX-0907021034:  JOB NUMBER
 CTRY.              Azerbaijan:  COUNTRY NAME
 WELL.                    E01x:  WELL NAME
 COMP.     BP Exploration (Caspian Sea) LTD.:  COMPANY
 UWI .            /AZE00001403:  UNIQUE WELL IDENTIFIER
 API .            /AZE00001403:  API NUMBER
 WTYP.                Deviated:  WELL TYPE
 MDS .        Operator Entered:  MAG DATA SOURCE
 BASE.              Azerbaijan:  LOGGING EQUIPMENT BASE LOCATION
 REGN.                   EESSA:  REGION
 PROV.                    Baku:  PROVINCE
 STAT.                    Baku:  STATE NAME
 SRVC.          Turan Drilling:  CONTRACTOR
 MWDS.                    Baku:  MWD SHOP
 JOBN.        AZ-XX-0907021034:  JOB TICKET NUMB
 RIG .                     DWG:  RIG NAME
 DOE .                     N/A:  DOE NUMBER
 DCON.         Sperry Drilling:  DIRECTNL CONTR
 UNIT.                     N/A:  LOGGING EQUIPMENT ID
 CNTY.                        :  COUNTY
 LOC .                        :  LOCATION
 LMF .             Drill Floor:  LOG MEASURED FROM
 TVDS.m                  43.16:  TVDSS CORRECTN
 LATI.deg                40.17:  LATITUDE
 LONG.deg                51.17:  LONGITUDE
 WHNS.m                  -5.90:  WELL HEAD N/S
 WHEW.m                  -6.61:  WELL HEAD E/W
 UTMX.m              514337.95:  UTM X
 UTMY.m             4448627.46:  UTM Y
 DFWL.m                   0.00:  DISTANCE FWL
 DFSL.m                   0.00:  DISTANCE FSL
 SDEP.m                2606.87:  START DEPTH
 TDD .m                3618.01:  TOTAL DEPTH (DRILLER)
 VSDR.deg               177.42:  VERT SEC DIRECT
 GVFD.g                   1.00:  GRAVITY FIELD
 MFLD.nT              50399.00:  MAGNETIC FIELD
 MDIP.deg                59.67:  MAGNETIC DIP
 MDEC.deg                 6.56:  MAGNETIC DECL
 GRDC.deg                 0.11:  GRID CORRECTION
 AZTC.deg                 6.45:  AZM TOTAL CORR
 EPD .m                   0.00:  ELEVATION
 EGL .m                   0.00:  GROUND ELEVATION
 WDMS.m                 176.20:  WD ELEV
 APD .m                  43.16:  DEPTH ABOVE PD
 DEP .m                2606.87:  DEPTH
 AGAP.m                  43.16:  AIR GAP
 VSEW.m                  -6.61:  VERT SEC E/W
 VSNS.m                  -5.90:  VERT SEC N/S
 EKB .m                  43.16:  KB ELEVATION
 EDF .m                  43.16:  DF ELEVATION
 TDL .m                 438.00:  TOTAL DEPTH (LOGGER)
 VSC .                       0:  VS TO CLOSURE
 MAGU.                 1855490:  MAGUTM CHECKSUM
~Parameter Information Block
#MNEM.UNIT       Value        Description
#---------     -----------    ---------------------------
 AV  .mps                 2.20:  Ann Velocity 
 AVMX.mps                 2.50:  Max Ann Veloc 
 AZIF.deg               150.21:  Azm, Final 
 BHAT.        Rotary Steerable:  BHA Type 
 BROT.°/30m               0.08:  Build Rotating 
 BS  .in                  6.50:  Bit Size 
 BSZ .in                  6.50:  Bit Size 
 BTPL.psig              108.00:  Bit Press Loss 
 CABU.                     Yes:  Customer Abuse 
 CGEO.           Emin Aliyarli:  Customer Geo 
 COMM.                     äº~:  Run Comments 1 
 TCS .hr                 74.20:  Time Ciculation Ended 
 CV  .mps                 3.63:  Crit Velocity 
 CVMX.mps                 3.66:  Max Crit Veloc 
 DD1 .         Intigam Rahimov:  Direct Drillr 1 
 DD2 .          Teymur Aghayev:  Direct Drillr 2 
 DDSV.               Geo-Pilot:  DD Service 
 DEFF.%                  97.00:  % Det Eff 
 DLRX.°/30m               1.63:  Dogleg Rot Max 
 DLSO.°/30m               0.00:  Dogleg Oriented 
 DLSX.°/30m               0.00:  Dogleg Str Max 
 DRET.      20.20.00 28-Apr-21:  Drill End Time 
 DRST.      04.45.00 26-Apr-21:  Drill Start Tim 
 DTIM.hr                 34.30:  Time Drilling 
 EDEP.m                3618.01:  End Depth 
 ENG1.           Amrah Tahirov:  Engineer 1 
 ENG2.         Bahruz Mehdiyev:  Engineer 2 
 ENG3.         Farhad Orujzade:  Engineer 3 
 ETIM.      19.00.00 29-Apr-21:  End Time 
 FLOI.gpm               370.00:  Flow In 
 FLON.gpm               300.00:  Flow In Min 
 FLOS.cptm                0.00:  Fluid Loss 
 FLOX.gpm               410.00:  Flow In Max 
 HFLO.                      No:  High Flow 
 HPRE.                      No:  High Pressure 
 HTEM.                      No:  High Temp 
 HYDO.m                   1.80:  Hydro Offset 
 IFIN.deg                67.19:  Inc, Final 
 IMAX.deg                68.42:  Inc Max 
 IMIN.deg                66.33:  Inc Min 
 IMND.m                3532.79:  Inc Min Depth 
 IMXD.m                3192.15:  Inc Max Depth 
 JARR.                      No:  Jarring 
 LETM.      20.20.00 28-Apr-21:  Log End Time 
 LOST.hr                     0:  Lost Rig Time 
 LSTM.      04.45.00 26-Apr-21:  Log Start Time 
 MDCL.ppm             36500.00:  Mud Chlorides 
 MDES.     Inversion Oil/Synthetic:  Mud Desc 
 DFD .sg                  1.42:  Mud Density 
 MDMN.sg                  1.42:  Dens Mud Min 
 MDMX.sg                  1.42:  Dens Mud Max 
 MOIL.                    55.7:  Run Mud Oil % 
 MOWR.                   71:29:  Run Mud OWR 
 MSND.                     0.1:  Run Mud Sand % 
 MSOL.                    19.9:  Run Mud Solids% 
 DFV .spqt               83.00:  Mud Viscosity 
 MWOD.in                  5.15:  MWD Tool OD 
 MWSI.                      No:  Serv Intrp, MWD 
 OTIM.hr                120.59:  Time Operating 
 PCON.           Look Like New:  Pad Condition 
 PMAX.psia            11292.93:  Press Op, Max 
 PV  .cP                 27.00:  Mud PV 
 RUN .                     400:  Run Number 
 ROPA.m/hr               14.00:  ROP Avg 
 ROPN.m/hr                9.00:  ROP Min 
 ROPX.m/hr               18.00:  ROP Max 
 RPMA.rpm               130.00:  RPM Surface Avg 
 RPMN.rpm               100.00:  RPM Surface Min 
 RPMX.rpm               140.00:  RPM Surface Max 
 RRUN.                    0400:  Rig Run Number 
 RTIM.hr                 38.60:  Time Reaming 
 SAZI.deg               149.55:  Azm, Start 
 SDEP.m                3180.01:  Start Depth 
 SIDD.                      No:  Serv Intrp, DD 
 SINC.deg                68.42:  Inc, Start 
 SPPA.psig             4400.00:  SPP Avg 
 SPPN.psig             3580.00:  SPP Min 
 SPPX.psig             4850.00:  SPP Max 
 STIM.      12.30.00 24-Apr-21:  Start Time 
 SVCS.                 DD, MWD:  Services 
 SVER.                    9.20:  Sperry Version 
 TDAT.m                 438.00:  Tot Depth Attmp 
 TDDF.                      No:  Trip for DD 
 TDLG.m                 438.00:  Tot Depth Loggd 
 TFF .                      No:  Trip for Fail 
 TQAA.f-kp               11.00:  Torque Abs Avg 
 TQAN.f-kp                9.00:  Torque Abs Min 
 TQAX.f-kp               14.00:  Torque Abs Max 
 TRRT.°/30m               0.04:  Turn Rotating 
 MRT .                    HCIM:  Maximum Recorded Temperature 
 TTMX.degC               84.31:  Max Tool Temp 
 VS01.                90521954:  Virtual Str1 SN 
 VS02.                90519327:  Virtual Str2 SN 
 VS03.                90522273:  Virtual Str3 SN 
 VS04.                11108038:  Virtual Str4 SN 
 VS05.                12258760:  Virtual Str5 SN 
 WBMN.klb                 1.00:  WOB Min 
 WITN.           Adil Mammadov:  Customer Rep 
 WITN.         Alex Yadullayev:  Customer Rep 2 
 WOBA.klb                 6.00:  WOB Avg 
 WOBX.klb                 9.00:  WOB Max 
 YP  .lhf2               31.00:  Yield Point 
~Curve Information Block
#MNEM.UNIT                 API CODE     Curve Description
#---------               -----------    ---------------------------
 TIME.HHMMSS            00 000 000 000:  GT Time & Date
 GTDEPTH.m              00 000 000 000:  GT Depth
 GTPQH.psia             00 000 000 000:  GT HR Quartz Pressure
 GTTQ.degC              00 000 000 000:  GT Quartz Temperature
 GTTN.NONE              00 000 000 000:  GT Test Number
 GTET.sec               00 000 000 000:  GT Elapsed Test Time
 GTTVD.m                00 000 000 000:  GT True Vertical Depth
#Other Information
#
#WARRANTY: Halliburton will use its best efforts to furnish customers with 
#accurate information and interpretations that are part of, and incident to, the services 
#provided.  However, Halliburton cannot and does not warrant the accuracy 
#or correctness of such information and interpretations.  Under no circumstances should any 
#such information or interpretation be relied upon as the sole basis for any drilling, 
#completion, production, or financial decision or any procedure involving any risk to the 
#safety of any drilling venture, drilling rig or its crew or any other third party.  The 
#Customer has full responsibility for all drilling, completion and production operation.  
#Halliburton makes no representations or warranties, either expressed or 
#implied, including, but not limited to, the implied warranties of merchantability or fitness 
#for a particular purpose, with respect to the services rendered.  In no event will 
#Halliburton be liable for failure to obtain any particular results or for 
#any damages, including, but not limited to, indirect, special or consequential damages, 
#resulting from the use of any information or interpretation provided by Halliburton.
#
~A           TIME           GTDEPTH  GTPQH  GTTQ  GTTN  GTET   GTTVD  
# ...
   02:51:14.264.27-Apr-2021 3242.51 4318.01 72.70 3.00  46.01 2657.85
   02:51:14.464.27-Apr-2021 3242.51 4318.01 72.70 3.00  46.21 2657.85
   02:51:14.664.27-Apr-2021 3242.51 4318.03 72.70 3.00  46.41 2657.85
   02:51:14.864.27-Apr-2021 3242.51 4318.07 72.70 3.00  46.61 2657.85
   02:51:15.065.27-Apr-2021 3242.51 4318.11 72.70 3.00  46.81 2657.85
   02:51:15.265.27-Apr-2021 3242.51 4317.59 72.70 3.00  47.01 2657.85
   02:51:15.465.27-Apr-2021 3242.51 4317.59 72.70 3.00  47.21 2657.85
   02:51:15.665.27-Apr-2021 3242.51 4318.22 72.70 3.00  47.41 2657.85
   02:51:15.865.27-Apr-2021 3242.51 4318.24 72.70 3.00  47.61 2657.85
   02:51:16.065.27-Apr-2021 3242.51 4318.16 72.70 3.00  47.81 2657.85
   02:51:16.265.27-Apr-2021 3242.51 4318.19 72.69 3.00  48.01 2657.85
   02:51:16.465.27-Apr-2021 3242.51 4318.19 72.69 3.00  48.21 2657.85
   02:51:16.665.27-Apr-2021 3242.51 4318.22 72.69 3.00  48.41 2657.85
   02:51:16.865.27-Apr-2021 3242.51 4318.34 72.69 3.00  48.61 2657.85
   02:51:17.065.27-Apr-2021 3242.51 4318.38 72.69 3.00  48.81 2657.85
   02:51:17.265.27-Apr-2021 3242.51 4318.29 72.69 3.00  49.01 2657.85
   02:51:17.465.27-Apr-2021 3242.51 4318.29 72.69 3.00  49.21 2657.85
   02:51:17.665.27-Apr-2021 3242.51 4317.99 72.69 3.00  49.41 2657.85
   02:51:17.865.27-Apr-2021 3242.51 4318.33 72.69 3.00  49.61 2657.85
   02:51:18.065.27-Apr-2021 3242.51 4318.40 72.69 3.00  49.81 2657.85
   02:51:18.265.27-Apr-2021 3242.51 4318.41 72.69 3.00  50.01 2657.85
   02:51:18.465.27-Apr-2021 3242.51 4318.41 72.69 3.00  50.21 2657.85
   02:51:18.665.27-Apr-2021 3242.51 4318.37 72.69 3.00  50.41 2657.85
   02:51:18.865.27-Apr-2021 3242.51 4318.00 72.69 3.00  50.61 2657.85
   02:51:19.065.27-Apr-2021 3242.51 4318.51 72.69 3.00  50.81 2657.85
   02:51:19.265.27-Apr-2021 3242.51 4318.59 72.69 3.00  51.01 2657.85
   02:51:19.465.27-Apr-2021 3242.51 4318.59 72.69 3.00  51.21 2657.85
   02:51:19.665.27-Apr-2021 3242.51 4318.50 72.69 3.00  51.41 2657.85
   02:51:19.865.27-Apr-2021 3242.51 4318.47 72.68 3.00  51.61 2657.85
   02:51:20.066.27-Apr-2021 3242.51 4318.54 72.68 3.00  51.81 2657.85
   02:51:20.266.27-Apr-2021 3242.51 4318.50 72.68 3.00  52.01 2657.85
   02:51:20.466.27-Apr-2021 3242.51 4318.50 72.68 3.00  52.21 2657.85
   02:51:20.666.27-Apr-2021 3242.51 4318.49 72.68 3.00  52.41 2657.85
   02:51:20.866.27-Apr-2021 3242.51 4318.50 72.68 3.00  52.61 2657.85
   02:51:21.066.27-Apr-2021 3242.51 4318.47 72.68 3.00  52.81 2657.85
   02:51:21.266.27-Apr-2021 3242.51 4318.60 72.68 3.00  53.01 2657.85
   02:51:21.466.27-Apr-2021 3242.51 4318.60 72.68 3.00  53.21 2657.85
   02:51:21.666.27-Apr-2021 3242.51 4318.61 72.68 3.00  53.41 2657.85
   02:51:21.866.27-Apr-2021 3242.51 4318.59 72.68 3.00  53.61 2657.85
   02:51:22.066.27-Apr-2021 3242.51 4318.65 72.68 3.00  53.81 2657.85
   02:51:22.266.27-Apr-2021 3242.51 4318.64 72.68 3.00  54.01 2657.85
   02:51:22.466.27-Apr-2021 3242.51 4318.64 72.68 3.00  54.21 2657.85
   02:51:22.666.27-Apr-2021 3242.51 4318.68 72.68 3.00  54.41 2657.85
   02:51:22.866.27-Apr-2021 3242.51 4318.70 72.68 3.00  54.61 2657.85
   02:51:23.066.27-Apr-2021 3242.51 4318.72 72.68 3.00  54.81 2657.85
   02:51:23.266.27-Apr-2021 3242.51 4318.73 72.68 3.00  55.01 2657.85
   02:51:23.466.27-Apr-2021 3242.51 4318.73 72.68 3.00  55.21 2657.85
   02:51:23.666.27-Apr-2021 3242.51 4318.70 72.67 3.00  55.41 2657.85
   02:51:23.866.27-Apr-2021 3242.51 4318.73 72.67 3.00  55.61 2657.85
   02:51:24.066.27-Apr-2021 3242.51 4318.70 72.67 3.00  55.81 2657.85
   02:51:24.266.27-Apr-2021 3242.51 4318.29 72.67 3.00  56.01 2657.85
   02:51:24.466.27-Apr-2021 3242.51 4318.29 72.67 3.00  56.21 2657.85
   02:51:24.666.27-Apr-2021 3242.51 4318.83 72.67 3.00  56.41 2657.85
   02:51:24.866.27-Apr-2021 3242.51 4318.76 72.67 3.00  56.61 2657.85
   02:51:25.067.27-Apr-2021 3242.51 4318.79 72.67 3.00  56.81 2657.85
   02:51:25.267.27-Apr-2021 3242.51 4318.73 72.67 3.00  57.01 2657.85
   02:51:25.467.27-Apr-2021 3242.51 4318.73 72.67 3.00  57.21 2657.85
   02:51:25.667.27-Apr-2021 3242.51 4318.72 72.67 3.00  57.41 2657.85
   02:51:25.867.27-Apr-2021 3242.51 4318.98 72.67 3.00  57.61 2657.85
   02:51:26.067.27-Apr-2021 3242.51 4318.87 72.67 3.00  57.81 2657.85
   02:51:26.267.27-Apr-2021 3242.51 4318.86 72.67 3.00  58.01 2657.85
   02:51:26.467.27-Apr-2021 3242.51 4318.86 72.67 3.00  58.21 2657.85
   02:51:26.667.27-Apr-2021 3242.51 4318.43 72.67 3.00  58.41 2657.85
   02:51:26.867.27-Apr-2021 3242.51 4318.87 72.67 3.00  58.61 2657.85
   02:51:27.067.27-Apr-2021 3242.51 4318.95 72.67 3.00  58.81 2657.85
   02:51:27.267.27-Apr-2021 3242.51 4318.82 72.66 3.00  59.01 2657.85
   02:51:27.467.27-Apr-2021 3242.51 4318.82 72.66 3.00  59.21 2657.85
   02:51:27.667.27-Apr-2021 3242.51 4318.46 72.66 3.00  59.41 2657.85
   02:51:27.867.27-Apr-2021 3242.51 4318.90 72.66 3.00  59.61 2657.85
   02:51:28.067.27-Apr-2021 3242.51 4318.95 72.66 3.00  59.81 2657.85
   02:51:28.267.27-Apr-2021 3242.51 4319.00 72.66 3.00  60.01 2657.85
   02:51:28.467.27-Apr-2021 3242.51 4319.00 72.66 3.00  60.21 2657.85
   02:51:28.667.27-Apr-2021 3242.51 4318.95 72.66 3.00  60.41 2657.85
   02:51:28.867.27-Apr-2021 3242.51 4318.92 72.66 3.00  60.61 2657.85
   02:51:29.067.27-Apr-2021 3242.51 4318.95 72.66 3.00  60.81 2657.85
   02:51:29.267.27-Apr-2021 3242.51 4318.97 72.66 3.00  61.01 2657.85
   02:51:29.467.27-Apr-2021 3242.51 4318.97 72.66 3.00  61.21 2657.85
   02:51:29.667.27-Apr-2021 3242.51 4318.91 72.66 3.00  61.41 2657.85
   02:51:29.867.27-Apr-2021 3242.51 4318.86 72.66 3.00  61.61 2657.85
   02:51:30.067.27-Apr-2021 3242.51 4318.94 72.66 3.00  61.81 2657.85
   02:51:30.268.27-Apr-2021 3242.51 4318.60 72.66 3.00  62.01 2657.85
   02:51:30.468.27-Apr-2021 3242.51 4318.60 72.66 3.00  62.21 2657.85
   02:51:30.668.27-Apr-2021 3242.51 4318.93 72.66 3.00  62.41 2657.85
   02:51:30.868.27-Apr-2021 3242.51 4318.95 72.66 3.00  62.61 2657.85
   02:51:31.068.27-Apr-2021 3242.51 4318.98 72.65 3.00  62.81 2657.85
   02:51:31.268.27-Apr-2021 3242.51 4319.03 72.65 3.00  63.01 2657.85
   02:51:31.468.27-Apr-2021 3242.51 4319.03 72.65 3.00  63.21 2657.85
   02:51:31.668.27-Apr-2021 3242.51 4319.03 72.65 3.00  63.41 2657.85
   02:51:31.868.27-Apr-2021 3242.51 4319.10 72.65 3.00  63.61 2657.85
   02:51:32.068.27-Apr-2021 3242.51 4319.07 72.65 3.00  63.81 2657.85
   02:51:32.268.27-Apr-2021 3242.51 4318.99 72.65 3.00  64.01 2657.85
   02:51:32.468.27-Apr-2021 3242.51 4318.99 72.65 3.00  64.21 2657.85
   02:51:32.668.27-Apr-2021 3242.51 4319.02 72.65 3.00  64.41 2657.85
   02:51:32.868.27-Apr-2021 3242.51 4319.02 72.65 3.00  64.61 2657.85
   02:51:33.068.27-Apr-2021 3242.51 4318.62 72.65 3.00  64.81 2657.85
   02:51:33.268.27-Apr-2021 3242.51 4319.03 72.65 3.00  65.01 2657.85
   02:51:33.468.27-Apr-2021 3242.51 4319.03 72.65 3.00  65.21 2657.85
   02:51:33.668.27-Apr-2021 3242.51 4319.06 72.65 3.00  65.41 2657.85
   02:51:33.868.27-Apr-2021 3242.51 4319.09 72.65 3.00  65.61 2657.85
   02:51:34.068.27-Apr-2021 3242.51 4319.08 72.65 3.00  65.81 2657.85
   02:51:34.268.27-Apr-2021 3242.51 4318.68 72.65 3.00  66.01 2657.85
   02:51:34.468.27-Apr-2021 3242.51 4318.68 72.65 3.00  66.21 2657.85
   02:51:34.668.27-Apr-2021 3242.51 4319.29 72.65 3.00  66.41 2657.85
   02:51:34.868.27-Apr-2021 3242.51 4319.16 72.64 3.00  66.61 2657.85
   02:51:35.068.27-Apr-2021 3242.51 4319.14 72.64 3.00  66.81 2657.85
   02:51:35.269.27-Apr-2021 3242.51 4319.03 72.64 3.00  67.01 2657.85
   02:51:35.469.27-Apr-2021 3242.51 4319.03 72.64 3.00  67.21 2657.85
   02:51:35.669.27-Apr-2021 3242.51 4319.12 72.64 3.00  67.41 2657.85
   02:51:35.869.27-Apr-2021 3242.51 4319.20 72.64 3.00  67.61 2657.85
   02:51:36.069.27-Apr-2021 3242.51 4319.07 72.64 3.00  67.81 2657.85
   02:51:36.269.27-Apr-2021 3242.51 4319.12 72.64 3.00  68.01 2657.85
   02:51:36.469.27-Apr-2021 3242.51 4319.12 72.64 3.00  68.21 2657.85
   02:51:36.669.27-Apr-2021 3242.51 4319.10 72.64 3.00  68.41 2657.85
   02:51:36.869.27-Apr-2021 3242.51 4319.13 72.64 3.00  68.61 2657.85
   02:51:37.069.27-Apr-2021 3242.51 4319.23 72.64 3.00  68.81 2657.85
