~Version Information
 VERS.                  2.0:   CWLS log ASCII Standard -VERSION 2.0
 WRAP.                   NO:   One line per depth step
~Well Information Block
#MNEM.UNIT     VALUE/NAME     DESCRIPTION
#---------     -----------    ---------------------------
 STRT.S             06:42:00 27-Apr-21: START TIME 06:42:00 27-Apr-21
 STOP.S             06:48:27 27-Apr-21: STOP TIME  06:48:27 27-Apr-21
 STEP.S                   0.00: STEP TIME
 NULL.                 -999.25: NULL VALUE
 DFWT.                        :  DIST FWL TEXT
 DFST.                        :  DIST FSL TEXT
 DMF .             Drill Floor:  DRILL MEAS FROM
 STIM.      02.00.00 12-Apr-21:  START TIME
 DATE.      02.00.00 02-May-21:  END TIME
 SPUD.               09-Apr-21:  SPUD DATE
 NREF.                    Grid:  NORTH REFERENCE
 HPTY.       Minimum Curvature:  HOLE POS TYPE
 DMOD.             Drill Model:  DRILL MOD DESC
 SVYD.                  Survey:  SURVEY DESC
 ILTD.               Lithology:  INTERP LTH DESC
 FTOP.          Formation Tops:  FORM TOPS DESC
 PDAT.          Mean Sea Level:  PERMANENT DATUM
 FLD .                     ACG:  FIELD NAME
 SON .        AZ-XX-0907021034:  JOB NUMBER
 CTRY.              Azerbaijan:  COUNTRY NAME
 WELL.                    E01x:  WELL NAME
 COMP.     BP Exploration (Caspian Sea) LTD.:  COMPANY
 UWI .            /AZE00001403:  UNIQUE WELL IDENTIFIER
 API .            /AZE00001403:  API NUMBER
 WTYP.                Deviated:  WELL TYPE
 MDS .        Operator Entered:  MAG DATA SOURCE
 BASE.              Azerbaijan:  LOGGING EQUIPMENT BASE LOCATION
 REGN.                   EESSA:  REGION
 PROV.                    Baku:  PROVINCE
 STAT.                    Baku:  STATE NAME
 SRVC.          Turan Drilling:  CONTRACTOR
 MWDS.                    Baku:  MWD SHOP
 JOBN.        AZ-XX-0907021034:  JOB TICKET NUMB
 RIG .                     DWG:  RIG NAME
 DOE .                     N/A:  DOE NUMBER
 DCON.         Sperry Drilling:  DIRECTNL CONTR
 UNIT.                     N/A:  LOGGING EQUIPMENT ID
 CNTY.                        :  COUNTY
 LOC .                        :  LOCATION
 LMF .             Drill Floor:  LOG MEASURED FROM
 TVDS.m                  43.16:  TVDSS CORRECTN
 LATI.deg                40.17:  LATITUDE
 LONG.deg                51.17:  LONGITUDE
 WHNS.m                  -5.90:  WELL HEAD N/S
 WHEW.m                  -6.61:  WELL HEAD E/W
 UTMX.m              514337.95:  UTM X
 UTMY.m             4448627.46:  UTM Y
 DFWL.m                   0.00:  DISTANCE FWL
 DFSL.m                   0.00:  DISTANCE FSL
 SDEP.m                2606.87:  START DEPTH
 TDD .m                3618.01:  TOTAL DEPTH (DRILLER)
 VSDR.deg               177.42:  VERT SEC DIRECT
 GVFD.g                   1.00:  GRAVITY FIELD
 MFLD.nT              50399.00:  MAGNETIC FIELD
 MDIP.deg                59.67:  MAGNETIC DIP
 MDEC.deg                 6.56:  MAGNETIC DECL
 GRDC.deg                 0.11:  GRID CORRECTION
 AZTC.deg                 6.45:  AZM TOTAL CORR
 EPD .m                   0.00:  ELEVATION
 EGL .m                   0.00:  GROUND ELEVATION
 WDMS.m                 176.20:  WD ELEV
 APD .m                  43.16:  DEPTH ABOVE PD
 DEP .m                2606.87:  DEPTH
 AGAP.m                  43.16:  AIR GAP
 VSEW.m                  -6.61:  VERT SEC E/W
 VSNS.m                  -5.90:  VERT SEC N/S
 EKB .m                  43.16:  KB ELEVATION
 EDF .m                  43.16:  DF ELEVATION
 TDL .m                 438.00:  TOTAL DEPTH (LOGGER)
 VSC .                       0:  VS TO CLOSURE
 MAGU.                 1855490:  MAGUTM CHECKSUM
~Parameter Information Block
#MNEM.UNIT       Value        Description
#---------     -----------    ---------------------------
 AV  .mps                 2.20:  Ann Velocity 
 AVMX.mps                 2.50:  Max Ann Veloc 
 AZIF.deg               150.21:  Azm, Final 
 BHAT.        Rotary Steerable:  BHA Type 
 BROT.°/30m               0.08:  Build Rotating 
 BS  .in                  6.50:  Bit Size 
 BSZ .in                  6.50:  Bit Size 
 BTPL.psig              108.00:  Bit Press Loss 
 CABU.                     Yes:  Customer Abuse 
 CGEO.           Emin Aliyarli:  Customer Geo 
 COMM.                     )M:  Run Comments 1 
 TCS .hr                 74.20:  Time Ciculation Ended 
 CV  .mps                 3.63:  Crit Velocity 
 CVMX.mps                 3.66:  Max Crit Veloc 
 DD1 .         Intigam Rahimov:  Direct Drillr 1 
 DD2 .          Teymur Aghayev:  Direct Drillr 2 
 DDSV.               Geo-Pilot:  DD Service 
 DEFF.%                  97.00:  % Det Eff 
 DLRX.°/30m               1.63:  Dogleg Rot Max 
 DLSO.°/30m               0.00:  Dogleg Oriented 
 DLSX.°/30m               0.00:  Dogleg Str Max 
 DRET.      20.20.00 28-Apr-21:  Drill End Time 
 DRST.      04.45.00 26-Apr-21:  Drill Start Tim 
 DTIM.hr                 34.30:  Time Drilling 
 EDEP.m                3618.01:  End Depth 
 ENG1.           Amrah Tahirov:  Engineer 1 
 ENG2.         Bahruz Mehdiyev:  Engineer 2 
 ENG3.         Farhad Orujzade:  Engineer 3 
 ETIM.      19.00.00 29-Apr-21:  End Time 
 FLOI.gpm               370.00:  Flow In 
 FLON.gpm               300.00:  Flow In Min 
 FLOS.cptm                0.00:  Fluid Loss 
 FLOX.gpm               410.00:  Flow In Max 
 HFLO.                      No:  High Flow 
 HPRE.                      No:  High Pressure 
 HTEM.                      No:  High Temp 
 HYDO.m                   1.80:  Hydro Offset 
 IFIN.deg                67.19:  Inc, Final 
 IMAX.deg                68.42:  Inc Max 
 IMIN.deg                66.33:  Inc Min 
 IMND.m                3532.79:  Inc Min Depth 
 IMXD.m                3192.15:  Inc Max Depth 
 JARR.                      No:  Jarring 
 LETM.      20.20.00 28-Apr-21:  Log End Time 
 LOST.hr                     0:  Lost Rig Time 
 LSTM.      04.45.00 26-Apr-21:  Log Start Time 
 MDCL.ppm             36500.00:  Mud Chlorides 
 MDES.     Inversion Oil/Synthetic:  Mud Desc 
 DFD .sg                  1.42:  Mud Density 
 MDMN.sg                  1.42:  Dens Mud Min 
 MDMX.sg                  1.42:  Dens Mud Max 
 MOIL.                    55.7:  Run Mud Oil % 
 MOWR.                   71:29:  Run Mud OWR 
 MSND.                     0.1:  Run Mud Sand % 
 MSOL.                    19.9:  Run Mud Solids% 
 DFV .spqt               83.00:  Mud Viscosity 
 MWOD.in                  5.15:  MWD Tool OD 
 MWSI.                      No:  Serv Intrp, MWD 
 OTIM.hr                120.59:  Time Operating 
 PCON.           Look Like New:  Pad Condition 
 PMAX.psia            11292.93:  Press Op, Max 
 PV  .cP                 27.00:  Mud PV 
 RUN .                     400:  Run Number 
 ROPA.m/hr               14.00:  ROP Avg 
 ROPN.m/hr                9.00:  ROP Min 
 ROPX.m/hr               18.00:  ROP Max 
 RPMA.rpm               130.00:  RPM Surface Avg 
 RPMN.rpm               100.00:  RPM Surface Min 
 RPMX.rpm               140.00:  RPM Surface Max 
 RRUN.                    0400:  Rig Run Number 
 RTIM.hr                 38.60:  Time Reaming 
 SAZI.deg               149.55:  Azm, Start 
 SDEP.m                3180.01:  Start Depth 
 SIDD.                      No:  Serv Intrp, DD 
 SINC.deg                68.42:  Inc, Start 
 SPPA.psig             4400.00:  SPP Avg 
 SPPN.psig             3580.00:  SPP Min 
 SPPX.psig             4850.00:  SPP Max 
 STIM.      12.30.00 24-Apr-21:  Start Time 
 SVCS.                 DD, MWD:  Services 
 SVER.                    9.20:  Sperry Version 
 TDAT.m                 438.00:  Tot Depth Attmp 
 TDDF.                      No:  Trip for DD 
 TDLG.m                 438.00:  Tot Depth Loggd 
 TFF .                      No:  Trip for Fail 
 TQAA.f-kp               11.00:  Torque Abs Avg 
 TQAN.f-kp                9.00:  Torque Abs Min 
 TQAX.f-kp               14.00:  Torque Abs Max 
 TRRT.°/30m               0.04:  Turn Rotating 
 MRT .                    HCIM:  Maximum Recorded Temperature 
 TTMX.degC               84.31:  Max Tool Temp 
 VS01.                90521954:  Virtual Str1 SN 
 VS02.                90519327:  Virtual Str2 SN 
 VS03.                90522273:  Virtual Str3 SN 
 VS04.                11108038:  Virtual Str4 SN 
 VS05.                12258760:  Virtual Str5 SN 
 WBMN.klb                 1.00:  WOB Min 
 WITN.           Adil Mammadov:  Customer Rep 
 WITN.         Alex Yadullayev:  Customer Rep 2 
 WOBA.klb                 6.00:  WOB Avg 
 WOBX.klb                 9.00:  WOB Max 
 YP  .lhf2               31.00:  Yield Point 
~Curve Information Block
#MNEM.UNIT                 API CODE     Curve Description
#---------               -----------    ---------------------------
 TIME.HHMMSS            00 000 000 000:  GT Time & Date
 GTDEPTH.m              00 000 000 000:  GT Depth
 GTPQH.psia             00 000 000 000:  GT HR Quartz Pressure
 GTTQ.degC              00 000 000 000:  GT Quartz Temperature
 GTTN.NONE              00 000 000 000:  GT Test Number
 GTET.sec               00 000 000 000:  GT Elapsed Test Time
 GTTVD.m                00 000 000 000:  GT True Vertical Depth
#Other Information
#
#WARRANTY: Halliburton will use its best efforts to furnish customers with 
#accurate information and interpretations that are part of, and incident to, the services 
#provided.  However, Halliburton cannot and does not warrant the accuracy 
#or correctness of such information and interpretations.  Under no circumstances should any 
#such information or interpretation be relied upon as the sole basis for any drilling, 
#completion, production, or financial decision or any procedure involving any risk to the 
#safety of any drilling venture, drilling rig or its crew or any other third party.  The 
#Customer has full responsibility for all drilling, completion and production operation.  
#Halliburton makes no representations or warranties, either expressed or 
#implied, including, but not limited to, the implied warranties of merchantability or fitness 
#for a particular purpose, with respect to the services rendered.  In no event will 
#Halliburton be liable for failure to obtain any particular results or for 
#any damages, including, but not limited to, indirect, special or consequential damages, 
#resulting from the use of any information or interpretation provided by Halliburton.
#
~A           TIME           GTDEPTH  GTPQH  GTTQ  GTTN  GTET   GTTVD  
# ...
   06:46:36.880.27-Apr-2021 3278.01 4377.43 73.60 4.00 276.02 2671.88
   06:46:37.080.27-Apr-2021 3278.01 4377.43 73.60 4.00 276.22 2671.88
   06:46:37.280.27-Apr-2021 3278.01 4377.45 73.60 4.00 276.42 2671.88
   06:46:37.480.27-Apr-2021 3278.01 4377.21 73.60 4.00 276.62 2671.88
   06:46:37.681.27-Apr-2021 3278.01 4377.51 73.60 4.00 276.82 2671.88
   06:46:37.881.27-Apr-2021 3278.01 4377.74 73.60 4.00 277.02 2671.88
   06:46:38.081.27-Apr-2021 3278.01 4377.74 73.60 4.00 277.22 2671.88
   06:46:38.281.27-Apr-2021 3278.01 4377.76 73.60 4.00 277.42 2671.88
   06:46:38.481.27-Apr-2021 3278.01 4377.61 73.60 4.00 277.62 2671.88
   06:46:38.681.27-Apr-2021 3278.01 4377.67 73.60 4.00 277.82 2671.88
   06:46:38.881.27-Apr-2021 3278.01 4377.98 73.60 4.00 278.02 2671.88
   06:46:39.081.27-Apr-2021 3278.01 4377.98 73.60 4.00 278.22 2671.88
   06:46:39.281.27-Apr-2021 3278.01 4377.88 73.60 4.00 278.42 2671.88
   06:46:39.481.27-Apr-2021 3278.01 4377.39 73.60 4.00 278.62 2671.88
   06:46:39.681.27-Apr-2021 3278.01 4377.77 73.59 4.00 278.82 2671.88
   06:46:39.881.27-Apr-2021 3278.01 4378.14 73.59 4.00 279.02 2671.88
   06:46:40.081.27-Apr-2021 3278.01 4378.14 73.59 4.00 279.22 2671.88
   06:46:40.281.27-Apr-2021 3278.01 4378.14 73.59 4.00 279.42 2671.88
   06:46:40.481.27-Apr-2021 3278.01 4377.96 73.59 4.00 279.62 2671.88
   06:46:40.681.27-Apr-2021 3278.01 4378.05 73.59 4.00 279.82 2671.88
   06:46:40.881.27-Apr-2021 3278.01 4378.02 73.59 4.00 280.02 2671.88
   06:46:41.081.27-Apr-2021 3278.01 4378.02 73.59 4.00 280.22 2671.88
   06:46:41.281.27-Apr-2021 3278.01 4378.03 73.59 4.00 280.42 2671.88
   06:46:41.481.27-Apr-2021 3278.01 4378.10 73.59 4.00 280.62 2671.88
   06:46:41.681.27-Apr-2021 3278.01 4377.95 73.59 4.00 280.82 2671.88
   06:46:41.881.27-Apr-2021 3278.01 4378.07 73.59 4.00 281.02 2671.88
   06:46:42.081.27-Apr-2021 3278.01 4378.07 73.59 4.00 281.22 2671.88
   06:46:42.281.27-Apr-2021 3278.01 4377.96 73.59 4.00 281.42 2671.88
   06:46:42.481.27-Apr-2021 3278.01 4378.04 73.59 4.00 281.62 2671.88
   06:46:42.681.27-Apr-2021 3278.01 4378.15 73.59 4.00 281.82 2671.88
   06:46:42.881.27-Apr-2021 3278.01 4378.18 73.59 4.00 282.02 2671.88
   06:46:43.081.27-Apr-2021 3278.01 4378.18 73.59 4.00 282.22 2671.88
   06:46:43.281.27-Apr-2021 3278.01 4378.23 73.59 4.00 282.42 2671.88
   06:46:43.481.27-Apr-2021 3278.01 4378.28 73.59 4.00 282.62 2671.88
   06:46:43.681.27-Apr-2021 3278.01 4378.44 73.59 4.00 282.82 2671.88
   06:46:43.881.27-Apr-2021 3278.01 4378.43 73.58 4.00 283.02 2671.88
   06:46:44.081.27-Apr-2021 3278.01 4378.43 73.58 4.00 283.22 2671.88
   06:46:44.281.27-Apr-2021 3278.01 4378.35 73.58 4.00 283.42 2671.88
   06:46:44.481.27-Apr-2021 3278.01 4378.42 73.58 4.00 283.62 2671.88
   06:46:44.681.27-Apr-2021 3278.01 4378.33 73.58 4.00 283.82 2671.88
   06:46:44.881.27-Apr-2021 3278.01 4377.76 73.58 4.00 284.02 2671.88
   06:46:45.081.27-Apr-2021 3278.01 4377.76 73.58 4.00 284.22 2671.88
   06:46:45.281.27-Apr-2021 3278.01 4378.49 73.58 4.00 284.42 2671.88
   06:46:45.481.27-Apr-2021 3278.01 4378.45 73.58 4.00 284.62 2671.88
   06:46:45.681.27-Apr-2021 3278.01 4378.04 73.58 4.00 284.82 2671.88
   06:46:45.881.27-Apr-2021 3278.01 4378.51 73.58 4.00 285.02 2671.88
   06:46:46.081.27-Apr-2021 3278.01 4378.51 73.58 4.00 285.22 2671.88
   06:46:46.281.27-Apr-2021 3278.01 4378.54 73.58 4.00 285.42 2671.88
   06:46:46.481.27-Apr-2021 3278.01 4378.67 73.58 4.00 285.62 2671.88
   06:46:46.681.27-Apr-2021 3278.01 4378.56 73.58 4.00 285.82 2671.88
   06:46:46.881.27-Apr-2021 3278.01 4378.60 73.58 4.00 286.02 2671.88
   06:46:47.081.27-Apr-2021 3278.01 4378.60 73.58 4.00 286.22 2671.88
   06:46:47.281.27-Apr-2021 3278.01 4378.40 73.58 4.00 286.42 2671.88
   06:46:47.481.27-Apr-2021 3278.01 4378.85 73.58 4.00 286.62 2671.88
   06:46:47.681.27-Apr-2021 3278.01 4378.75 73.58 4.00 286.82 2671.88
   06:46:47.881.27-Apr-2021 3278.01 4378.72 73.58 4.00 287.02 2671.88
   06:46:48.081.27-Apr-2021 3278.01 4378.72 73.58 4.00 287.22 2671.88
   06:46:48.281.27-Apr-2021 3278.01 4378.88 73.57 4.00 287.42 2671.88
   06:46:48.481.27-Apr-2021 3278.01 4378.83 73.57 4.00 287.62 2671.88
   06:46:48.681.27-Apr-2021 3278.01 4378.74 73.57 4.00 287.82 2671.88
   06:46:48.881.27-Apr-2021 3278.01 4378.88 73.57 4.00 288.02 2671.88
   06:46:49.081.27-Apr-2021 3278.01 4378.88 73.57 4.00 288.22 2671.88
   06:46:49.281.27-Apr-2021 3278.01 4378.83 73.57 4.00 288.42 2671.88
   06:46:49.482.27-Apr-2021 3278.01 4378.80 73.57 4.00 288.62 2671.88
   06:46:49.682.27-Apr-2021 3278.01 4378.81 73.57 4.00 288.82 2671.88
   06:46:49.882.27-Apr-2021 3278.01 4378.30 73.57 4.00 289.02 2671.88
   06:46:50.082.27-Apr-2021 3278.01 4378.30 73.57 4.00 289.22 2671.88
   06:46:50.282.27-Apr-2021 3278.01 4378.68 73.57 4.00 289.42 2671.88
   06:46:50.482.27-Apr-2021 3278.01 4378.83 73.57 4.00 289.62 2671.88
   06:46:50.682.27-Apr-2021 3278.01 4378.96 73.57 4.00 289.82 2671.88
   06:46:50.882.27-Apr-2021 3278.01 4378.91 73.57 4.00 290.02 2671.88
   06:46:51.082.27-Apr-2021 3278.01 4378.91 73.57 4.00 290.22 2671.88
   06:46:51.282.27-Apr-2021 3278.01 4378.82 73.57 4.00 290.42 2671.88
   06:46:51.482.27-Apr-2021 3278.01 4379.01 73.57 4.00 290.62 2671.88
   06:46:51.682.27-Apr-2021 3278.01 4378.98 73.57 4.00 290.82 2671.88
   06:46:51.882.27-Apr-2021 3278.01 4379.08 73.57 4.00 291.02 2671.88
   06:46:52.082.27-Apr-2021 3278.01 4379.08 73.57 4.00 291.22 2671.88
   06:46:52.282.27-Apr-2021 3278.01 4379.04 73.56 4.00 291.42 2671.88
   06:46:52.482.27-Apr-2021 3278.01 4378.99 73.56 4.00 291.62 2671.88
   06:46:52.682.27-Apr-2021 3278.01 4378.67 73.56 4.00 291.82 2671.88
   06:46:52.882.27-Apr-2021 3278.01 4378.89 73.56 4.00 292.02 2671.88
   06:46:53.082.27-Apr-2021 3278.01 4378.89 73.56 4.00 292.22 2671.88
   06:46:53.282.27-Apr-2021 3278.01 4379.16 73.56 4.00 292.42 2671.88
   06:46:53.482.27-Apr-2021 3278.01 4378.74 73.56 4.00 292.62 2671.88
   06:46:53.682.27-Apr-2021 3278.01 4379.21 73.56 4.00 292.82 2671.88
   06:46:53.882.27-Apr-2021 3278.01 4379.05 73.56 4.00 293.02 2671.88
   06:46:54.082.27-Apr-2021 3278.01 4379.05 73.56 4.00 293.22 2671.88
   06:46:54.282.27-Apr-2021 3278.01 4379.26 73.56 4.00 293.42 2671.88
   06:46:54.482.27-Apr-2021 3278.01 4378.92 73.56 4.00 293.62 2671.88
   06:46:54.682.27-Apr-2021 3278.01 4379.16 73.56 4.00 293.82 2671.88
   06:46:54.882.27-Apr-2021 3278.01 4379.34 73.56 4.00 294.02 2671.88
   06:46:55.082.27-Apr-2021 3278.01 4379.34 73.56 4.00 294.22 2671.88
   06:46:55.282.27-Apr-2021 3278.01 4379.16 73.56 4.00 294.42 2671.88
   06:46:55.482.27-Apr-2021 3278.01 4378.97 73.56 4.00 294.62 2671.88
   06:46:55.682.27-Apr-2021 3278.01 4379.32 73.56 4.00 294.82 2671.88
   06:46:55.882.27-Apr-2021 3278.01 4379.33 73.56 4.00 295.02 2671.88
   06:46:56.082.27-Apr-2021 3278.01 4379.33 73.56 4.00 295.22 2671.88
   06:46:56.282.27-Apr-2021 3278.01 4379.30 73.56 4.00 295.42 2671.88
   06:46:56.482.27-Apr-2021 3278.01 4379.30 73.55 4.00 295.63 2671.88
   06:46:56.682.27-Apr-2021 3278.01 4379.27 73.55 4.00 295.83 2671.88
   06:46:56.882.27-Apr-2021 3278.01 4379.44 73.55 4.00 296.03 2671.88
   06:46:57.082.27-Apr-2021 3278.01 4379.44 73.55 4.00 296.23 2671.88
   06:46:57.282.27-Apr-2021 3278.01 4379.37 73.55 4.00 296.43 2671.88
   06:46:57.482.27-Apr-2021 3278.01 4379.29 73.55 4.00 296.63 2671.88
   06:46:57.682.27-Apr-2021 3278.01 4379.17 73.55 4.00 296.83 2671.88
   06:46:57.882.27-Apr-2021 3278.01 4378.76 73.55 4.00 297.03 2671.88
   06:46:58.082.27-Apr-2021 3278.01 4378.76 73.55 4.00 297.23 2671.88
   06:46:58.282.27-Apr-2021 3278.01 4379.37 73.55 4.00 297.43 2671.88
   06:46:58.482.27-Apr-2021 3278.01 4379.38 73.55 4.00 297.63 2671.88
   06:46:58.682.27-Apr-2021 3278.01 4379.42 73.55 4.00 297.83 2671.88
   06:46:58.882.27-Apr-2021 3278.01 4379.38 73.55 4.00 298.03 2671.88
   06:46:59.082.27-Apr-2021 3278.01 4379.38 73.55 4.00 298.23 2671.88
   06:46:59.282.27-Apr-2021 3278.01 4379.40 73.55 4.00 298.43 2671.88
   06:46:59.482.27-Apr-2021 3278.01 4379.53 73.55 4.00 298.63 2671.88
   06:46:59.682.27-Apr-2021 3278.01 4379.49 73.55 4.00 298.83 2671.88
