~Version Information
 VERS.                  2.0:   CWLS log ASCII Standard -VERSION 2.0
 WRAP.                   NO:   One line per depth step
~Well Information Block
#MNEM.UNIT     VALUE/NAME     DESCRIPTION
#---------     -----------    ---------------------------
 STRT.S             02:50:28 27-Apr-21: START TIME 02:50:28 27-Apr-21
 STOP.S             02:56:55 27-Apr-21: STOP TIME  02:56:55 27-Apr-21
 STEP.S                   0.00: STEP TIME
 NULL.                 -999.25: NULL VALUE
 DFWT.                        :  DIST FWL TEXT
 DFST.                        :  DIST FSL TEXT
 DMF .             Drill Floor:  DRILL MEAS FROM
 STIM.      02.00.00 12-Apr-21:  START TIME
 DATE.      02.00.00 02-May-21:  END TIME
 SPUD.               09-Apr-21:  SPUD DATE
 NREF.                    Grid:  NORTH REFERENCE
 HPTY.       Minimum Curvature:  HOLE POS TYPE
 DMOD.             Drill Model:  DRILL MOD DESC
 SVYD.                  Survey:  SURVEY DESC
 ILTD.               Lithology:  INTERP LTH DESC
 FTOP.          Formation Tops:  FORM TOPS DESC
 PDAT.          Mean Sea Level:  PERMANENT DATUM
 FLD .                     ACG:  FIELD NAME
 SON .        AZ-XX-0907021034:  JOB NUMBER
 CTRY.              Azerbaijan:  COUNTRY NAME
 WELL.                    E01x:  WELL NAME
 COMP.     BP Exploration (Caspian Sea) LTD.:  COMPANY
 UWI .            /AZE00001403:  UNIQUE WELL IDENTIFIER
 API .            /AZE00001403:  API NUMBER
 WTYP.                Deviated:  WELL TYPE
 MDS .        Operator Entered:  MAG DATA SOURCE
 BASE.              Azerbaijan:  LOGGING EQUIPMENT BASE LOCATION
 REGN.                   EESSA:  REGION
 PROV.                    Baku:  PROVINCE
 STAT.                    Baku:  STATE NAME
 SRVC.          Turan Drilling:  CONTRACTOR
 MWDS.                    Baku:  MWD SHOP
 JOBN.        AZ-XX-0907021034:  JOB TICKET NUMB
 RIG .                     DWG:  RIG NAME
 DOE .                     N/A:  DOE NUMBER
 DCON.         Sperry Drilling:  DIRECTNL CONTR
 UNIT.                     N/A:  LOGGING EQUIPMENT ID
 CNTY.                        :  COUNTY
 LOC .                        :  LOCATION
 LMF .             Drill Floor:  LOG MEASURED FROM
 TVDS.m                  43.16:  TVDSS CORRECTN
 LATI.deg                40.17:  LATITUDE
 LONG.deg                51.17:  LONGITUDE
 WHNS.m                  -5.90:  WELL HEAD N/S
 WHEW.m                  -6.61:  WELL HEAD E/W
 UTMX.m              514337.95:  UTM X
 UTMY.m             4448627.46:  UTM Y
 DFWL.m                   0.00:  DISTANCE FWL
 DFSL.m                   0.00:  DISTANCE FSL
 SDEP.m                2606.87:  START DEPTH
 TDD .m                3618.01:  TOTAL DEPTH (DRILLER)
 VSDR.deg               177.42:  VERT SEC DIRECT
 GVFD.g                   1.00:  GRAVITY FIELD
 MFLD.nT              50399.00:  MAGNETIC FIELD
 MDIP.deg                59.67:  MAGNETIC DIP
 MDEC.deg                 6.56:  MAGNETIC DECL
 GRDC.deg                 0.11:  GRID CORRECTION
 AZTC.deg                 6.45:  AZM TOTAL CORR
 EPD .m                   0.00:  ELEVATION
 EGL .m                   0.00:  GROUND ELEVATION
 WDMS.m                 176.20:  WD ELEV
 APD .m                  43.16:  DEPTH ABOVE PD
 DEP .m                2606.87:  DEPTH
 AGAP.m                  43.16:  AIR GAP
 VSEW.m                  -6.61:  VERT SEC E/W
 VSNS.m                  -5.90:  VERT SEC N/S
 EKB .m                  43.16:  KB ELEVATION
 EDF .m                  43.16:  DF ELEVATION
 TDL .m                 438.00:  TOTAL DEPTH (LOGGER)
 VSC .                       0:  VS TO CLOSURE
 MAGU.                 1855490:  MAGUTM CHECKSUM
~Parameter Information Block
#MNEM.UNIT       Value        Description
#---------     -----------    ---------------------------
 AV  .mps                 2.20:  Ann Velocity 
 AVMX.mps                 2.50:  Max Ann Veloc 
 AZIF.deg               150.21:  Azm, Final 
 BHAT.        Rotary Steerable:  BHA Type 
 BROT.°/30m               0.08:  Build Rotating 
 BS  .in                  6.50:  Bit Size 
 BSZ .in                  6.50:  Bit Size 
 BTPL.psig              108.00:  Bit Press Loss 
 CABU.                     Yes:  Customer Abuse 
 CGEO.           Emin Aliyarli:  Customer Geo 
 COMM.                     äº~:  Run Comments 1 
 TCS .hr                 74.20:  Time Ciculation Ended 
 CV  .mps                 3.63:  Crit Velocity 
 CVMX.mps                 3.66:  Max Crit Veloc 
 DD1 .         Intigam Rahimov:  Direct Drillr 1 
 DD2 .          Teymur Aghayev:  Direct Drillr 2 
 DDSV.               Geo-Pilot:  DD Service 
 DEFF.%                  97.00:  % Det Eff 
 DLRX.°/30m               1.63:  Dogleg Rot Max 
 DLSO.°/30m               0.00:  Dogleg Oriented 
 DLSX.°/30m               0.00:  Dogleg Str Max 
 DRET.      20.20.00 28-Apr-21:  Drill End Time 
 DRST.      04.45.00 26-Apr-21:  Drill Start Tim 
 DTIM.hr                 34.30:  Time Drilling 
 EDEP.m                3618.01:  End Depth 
 ENG1.           Amrah Tahirov:  Engineer 1 
 ENG2.         Bahruz Mehdiyev:  Engineer 2 
 ENG3.         Farhad Orujzade:  Engineer 3 
 ETIM.      19.00.00 29-Apr-21:  End Time 
 FLOI.gpm               370.00:  Flow In 
 FLON.gpm               300.00:  Flow In Min 
 FLOS.cptm                0.00:  Fluid Loss 
 FLOX.gpm               410.00:  Flow In Max 
 HFLO.                      No:  High Flow 
 HPRE.                      No:  High Pressure 
 HTEM.                      No:  High Temp 
 HYDO.m                   1.80:  Hydro Offset 
 IFIN.deg                67.19:  Inc, Final 
 IMAX.deg                68.42:  Inc Max 
 IMIN.deg                66.33:  Inc Min 
 IMND.m                3532.79:  Inc Min Depth 
 IMXD.m                3192.15:  Inc Max Depth 
 JARR.                      No:  Jarring 
 LETM.      20.20.00 28-Apr-21:  Log End Time 
 LOST.hr                     0:  Lost Rig Time 
 LSTM.      04.45.00 26-Apr-21:  Log Start Time 
 MDCL.ppm             36500.00:  Mud Chlorides 
 MDES.     Inversion Oil/Synthetic:  Mud Desc 
 DFD .sg                  1.42:  Mud Density 
 MDMN.sg                  1.42:  Dens Mud Min 
 MDMX.sg                  1.42:  Dens Mud Max 
 MOIL.                    55.7:  Run Mud Oil % 
 MOWR.                   71:29:  Run Mud OWR 
 MSND.                     0.1:  Run Mud Sand % 
 MSOL.                    19.9:  Run Mud Solids% 
 DFV .spqt               83.00:  Mud Viscosity 
 MWOD.in                  5.15:  MWD Tool OD 
 MWSI.                      No:  Serv Intrp, MWD 
 OTIM.hr                120.59:  Time Operating 
 PCON.           Look Like New:  Pad Condition 
 PMAX.psia            11292.93:  Press Op, Max 
 PV  .cP                 27.00:  Mud PV 
 RUN .                     400:  Run Number 
 ROPA.m/hr               14.00:  ROP Avg 
 ROPN.m/hr                9.00:  ROP Min 
 ROPX.m/hr               18.00:  ROP Max 
 RPMA.rpm               130.00:  RPM Surface Avg 
 RPMN.rpm               100.00:  RPM Surface Min 
 RPMX.rpm               140.00:  RPM Surface Max 
 RRUN.                    0400:  Rig Run Number 
 RTIM.hr                 38.60:  Time Reaming 
 SAZI.deg               149.55:  Azm, Start 
 SDEP.m                3180.01:  Start Depth 
 SIDD.                      No:  Serv Intrp, DD 
 SINC.deg                68.42:  Inc, Start 
 SPPA.psig             4400.00:  SPP Avg 
 SPPN.psig             3580.00:  SPP Min 
 SPPX.psig             4850.00:  SPP Max 
 STIM.      12.30.00 24-Apr-21:  Start Time 
 SVCS.                 DD, MWD:  Services 
 SVER.                    9.20:  Sperry Version 
 TDAT.m                 438.00:  Tot Depth Attmp 
 TDDF.                      No:  Trip for DD 
 TDLG.m                 438.00:  Tot Depth Loggd 
 TFF .                      No:  Trip for Fail 
 TQAA.f-kp               11.00:  Torque Abs Avg 
 TQAN.f-kp                9.00:  Torque Abs Min 
 TQAX.f-kp               14.00:  Torque Abs Max 
 TRRT.°/30m               0.04:  Turn Rotating 
 MRT .                    HCIM:  Maximum Recorded Temperature 
 TTMX.degC               84.31:  Max Tool Temp 
 VS01.                90521954:  Virtual Str1 SN 
 VS02.                90519327:  Virtual Str2 SN 
 VS03.                90522273:  Virtual Str3 SN 
 VS04.                11108038:  Virtual Str4 SN 
 VS05.                12258760:  Virtual Str5 SN 
 WBMN.klb                 1.00:  WOB Min 
 WITN.           Adil Mammadov:  Customer Rep 
 WITN.         Alex Yadullayev:  Customer Rep 2 
 WOBA.klb                 6.00:  WOB Avg 
 WOBX.klb                 9.00:  WOB Max 
 YP  .lhf2               31.00:  Yield Point 
~Curve Information Block
#MNEM.UNIT                 API CODE     Curve Description
#---------               -----------    ---------------------------
 TIME.HHMMSS            00 000 000 000:  GT Time & Date
 GTDEPTH.m              00 000 000 000:  GT Depth
 GTPQH.psia             00 000 000 000:  GT HR Quartz Pressure
 GTTQ.degC              00 000 000 000:  GT Quartz Temperature
 GTTN.NONE              00 000 000 000:  GT Test Number
 GTET.sec               00 000 000 000:  GT Elapsed Test Time
 GTTVD.m                00 000 000 000:  GT True Vertical Depth
#Other Information
#
#WARRANTY: Halliburton will use its best efforts to furnish customers with 
#accurate information and interpretations that are part of, and incident to, the services 
#provided.  However, Halliburton cannot and does not warrant the accuracy 
#or correctness of such information and interpretations.  Under no circumstances should any 
#such information or interpretation be relied upon as the sole basis for any drilling, 
#completion, production, or financial decision or any procedure involving any risk to the 
#safety of any drilling venture, drilling rig or its crew or any other third party.  The 
#Customer has full responsibility for all drilling, completion and production operation.  
#Halliburton makes no representations or warranties, either expressed or 
#implied, including, but not limited to, the implied warranties of merchantability or fitness 
#for a particular purpose, with respect to the services rendered.  In no event will 
#Halliburton be liable for failure to obtain any particular results or for 
#any damages, including, but not limited to, indirect, special or consequential damages, 
#resulting from the use of any information or interpretation provided by Halliburton.
#
~A           TIME           GTDEPTH  GTPQH  GTTQ  GTTN  GTET   GTTVD  
# ...
   02:51:37.269.27-Apr-2021 3242.51 4319.20 72.64 3.00  69.01 2657.85
   02:51:37.469.27-Apr-2021 3242.51 4319.20 72.64 3.00  69.21 2657.85
   02:51:37.669.27-Apr-2021 3242.51 4319.13 72.64 3.00  69.41 2657.85
   02:51:37.869.27-Apr-2021 3242.51 4319.18 72.64 3.00  69.61 2657.85
   02:51:38.069.27-Apr-2021 3242.51 4319.22 72.64 3.00  69.81 2657.85
   02:51:38.269.27-Apr-2021 3242.51 4319.19 72.64 3.00  70.01 2657.85
   02:51:38.469.27-Apr-2021 3242.51 4319.19 72.64 3.00  70.21 2657.85
   02:51:38.669.27-Apr-2021 3242.51 4319.09 72.63 3.00  70.41 2657.85
   02:51:38.869.27-Apr-2021 3242.51 4319.13 72.63 3.00  70.61 2657.85
   02:51:39.069.27-Apr-2021 3242.51 4318.94 72.63 3.00  70.81 2657.85
   02:51:39.269.27-Apr-2021 3242.51 4319.02 72.63 3.00  71.01 2657.85
   02:51:39.469.27-Apr-2021 3242.51 4319.02 72.63 3.00  71.21 2657.85
   02:51:39.669.27-Apr-2021 3242.51 4319.15 72.63 3.00  71.41 2657.85
   02:51:39.869.27-Apr-2021 3242.51 4319.18 72.63 3.00  71.61 2657.85
   02:51:40.069.27-Apr-2021 3242.51 4319.25 72.63 3.00  71.81 2657.85
   02:51:40.270.27-Apr-2021 3242.51 4319.21 72.63 3.00  72.01 2657.85
   02:51:40.470.27-Apr-2021 3242.51 4319.21 72.63 3.00  72.21 2657.85
   02:51:40.670.27-Apr-2021 3242.51 4319.28 72.63 3.00  72.41 2657.85
   02:51:40.870.27-Apr-2021 3242.51 4319.28 72.63 3.00  72.61 2657.85
   02:51:41.070.27-Apr-2021 3242.51 4319.18 72.63 3.00  72.81 2657.85
   02:51:41.270.27-Apr-2021 3242.51 4319.24 72.63 3.00  73.01 2657.85
   02:51:41.470.27-Apr-2021 3242.51 4319.24 72.63 3.00  73.21 2657.85
   02:51:41.670.27-Apr-2021 3242.51 4319.21 72.63 3.00  73.41 2657.85
   02:51:41.870.27-Apr-2021 3242.51 4318.82 72.63 3.00  73.61 2657.85
   02:51:42.070.27-Apr-2021 3242.51 4319.13 72.63 3.00  73.81 2657.85
   02:51:42.270.27-Apr-2021 3242.51 4319.20 72.63 3.00  74.01 2657.85
   02:51:42.470.27-Apr-2021 3242.51 4319.20 72.63 3.00  74.21 2657.85
   02:51:42.670.27-Apr-2021 3242.51 4319.18 72.62 3.00  74.41 2657.85
   02:51:42.870.27-Apr-2021 3242.51 4319.17 72.62 3.00  74.61 2657.85
   02:51:43.070.27-Apr-2021 3242.51 4318.76 72.62 3.00  74.81 2657.85
   02:51:43.270.27-Apr-2021 3242.51 4319.32 72.62 3.00  75.01 2657.85
   02:51:43.470.27-Apr-2021 3242.51 4319.32 72.62 3.00  75.21 2657.85
   02:51:43.670.27-Apr-2021 3242.51 4319.31 72.62 3.00  75.41 2657.85
   02:51:43.870.27-Apr-2021 3242.51 4319.28 72.62 3.00  75.61 2657.85
   02:51:44.070.27-Apr-2021 3242.51 4319.22 72.62 3.00  75.82 2657.85
   02:51:44.270.27-Apr-2021 3242.51 4319.14 72.62 3.00  76.02 2657.85
   02:51:44.470.27-Apr-2021 3242.51 4319.14 72.62 3.00  76.22 2657.85
   02:51:44.670.27-Apr-2021 3242.51 4319.24 72.62 3.00  76.42 2657.85
   02:51:44.870.27-Apr-2021 3242.51 4319.18 72.62 3.00  76.62 2657.85
   02:51:45.070.27-Apr-2021 3242.51 4319.28 72.62 3.00  76.82 2657.85
   02:51:45.271.27-Apr-2021 3242.51 4319.21 72.62 3.00  77.02 2657.85
   02:51:45.471.27-Apr-2021 3242.51 4319.21 72.62 3.00  77.22 2657.85
   02:51:45.671.27-Apr-2021 3242.51 4319.24 72.62 3.00  77.42 2657.85
   02:51:45.871.27-Apr-2021 3242.51 4319.47 72.62 3.00  77.62 2657.85
   02:51:46.071.27-Apr-2021 3242.51 4319.29 72.62 3.00  77.82 2657.85
   02:51:46.271.27-Apr-2021 3242.51 4319.32 72.62 3.00  78.02 2657.85
   02:51:46.471.27-Apr-2021 3242.51 4319.32 72.62 3.00  78.22 2657.85
   02:51:46.671.27-Apr-2021 3242.51 4319.28 72.61 3.00  78.42 2657.85
   02:51:46.871.27-Apr-2021 3242.51 4319.28 72.61 3.00  78.62 2657.85
   02:51:47.071.27-Apr-2021 3242.51 4319.32 72.61 3.00  78.82 2657.85
   02:51:47.271.27-Apr-2021 3242.51 4319.30 72.61 3.00  79.02 2657.85
   02:51:47.471.27-Apr-2021 3242.51 4319.30 72.61 3.00  79.22 2657.85
   02:51:47.671.27-Apr-2021 3242.51 4319.20 72.61 3.00  79.42 2657.85
   02:51:47.871.27-Apr-2021 3242.51 4319.30 72.61 3.00  79.62 2657.85
   02:51:48.071.27-Apr-2021 3242.51 4318.82 72.61 3.00  79.82 2657.85
   02:51:48.271.27-Apr-2021 3242.51 4319.26 72.61 3.00  80.02 2657.85
   02:51:48.471.27-Apr-2021 3242.51 4319.26 72.61 3.00  80.22 2657.85
   02:51:48.671.27-Apr-2021 3242.51 4319.31 72.61 3.00  80.42 2657.85
   02:51:48.871.27-Apr-2021 3242.51 4319.33 72.61 3.00  80.62 2657.85
   02:51:49.071.27-Apr-2021 3242.51 4319.30 72.61 3.00  80.82 2657.85
   02:51:49.271.27-Apr-2021 3242.51 4319.29 72.61 3.00  81.02 2657.85
   02:51:49.471.27-Apr-2021 3242.51 4319.29 72.61 3.00  81.22 2657.85
   02:51:49.671.27-Apr-2021 3242.51 4319.38 72.61 3.00  81.42 2657.85
   02:51:49.871.27-Apr-2021 3242.51 4319.35 72.61 3.00  81.62 2657.85
   02:51:50.071.27-Apr-2021 3242.51 4319.35 72.61 3.00  81.82 2657.85
   02:51:50.271.27-Apr-2021 3242.51 4319.26 72.61 3.00  82.02 2657.85
   02:51:50.472.27-Apr-2021 3242.51 4319.26 72.61 3.00  82.22 2657.85
   02:51:50.672.27-Apr-2021 3242.51 4319.25 72.60 3.00  82.42 2657.85
   02:51:50.872.27-Apr-2021 3242.51 4318.83 72.60 3.00  82.62 2657.85
   02:51:51.072.27-Apr-2021 3242.51 4319.32 72.60 3.00  82.82 2657.85
   02:51:51.272.27-Apr-2021 3242.51 4319.47 72.60 3.00  83.02 2657.85
   02:51:51.472.27-Apr-2021 3242.51 4319.47 72.60 3.00  83.22 2657.85
   02:51:51.672.27-Apr-2021 3242.51 4319.35 72.60 3.00  83.42 2657.85
   02:51:51.872.27-Apr-2021 3242.51 4319.27 72.60 3.00  83.62 2657.85
   02:51:52.072.27-Apr-2021 3242.51 4319.12 72.60 3.00  83.82 2657.85
   02:51:52.272.27-Apr-2021 3242.51 4319.30 72.60 3.00  84.02 2657.85
   02:51:52.472.27-Apr-2021 3242.51 4319.30 72.60 3.00  84.22 2657.85
   02:51:52.672.27-Apr-2021 3242.51 4319.43 72.60 3.00  84.42 2657.85
   02:51:52.872.27-Apr-2021 3242.51 4319.36 72.60 3.00  84.62 2657.85
   02:51:53.072.27-Apr-2021 3242.51 4319.33 72.60 3.00  84.82 2657.85
   02:51:53.272.27-Apr-2021 3242.51 4318.95 72.60 3.00  85.02 2657.85
   02:51:53.472.27-Apr-2021 3242.51 4318.95 72.60 3.00  85.22 2657.85
   02:51:53.672.27-Apr-2021 3242.51 4319.42 72.60 3.00  85.42 2657.85
   02:51:53.872.27-Apr-2021 3242.51 4319.35 72.60 3.00  85.62 2657.85
   02:51:54.072.27-Apr-2021 3242.51 4319.34 72.60 3.00  85.82 2657.85
   02:51:54.272.27-Apr-2021 3242.51 4319.27 72.59 3.00  86.02 2657.85
   02:51:54.472.27-Apr-2021 3242.51 4319.27 72.59 3.00  86.22 2657.85
   02:51:54.672.27-Apr-2021 3242.51 4319.28 72.59 3.00  86.42 2657.85
   02:51:54.872.27-Apr-2021 3242.51 4319.45 72.59 3.00  86.62 2657.85
   02:51:55.072.27-Apr-2021 3242.51 4319.46 72.59 3.00  86.82 2657.85
   02:51:55.272.27-Apr-2021 3242.51 4319.39 72.59 3.00  87.02 2657.85
   02:51:55.473.27-Apr-2021 3242.51 4319.39 72.59 3.00  87.22 2657.85
   02:51:55.673.27-Apr-2021 3242.51 4319.39 72.59 3.00  87.42 2657.85
   02:51:55.873.27-Apr-2021 3242.51 4319.45 72.59 3.00  87.62 2657.85
   02:51:56.073.27-Apr-2021 3242.51 4319.33 72.59 3.00  87.82 2657.85
   02:51:56.273.27-Apr-2021 3242.51 4319.36 72.59 3.00  88.02 2657.85
   02:51:56.473.27-Apr-2021 3242.51 4319.36 72.59 3.00  88.22 2657.85
   02:51:56.673.27-Apr-2021 3242.51 4319.33 72.59 3.00  88.42 2657.85
   02:51:56.873.27-Apr-2021 3242.51 4319.32 72.59 3.00  88.62 2657.85
   02:51:57.073.27-Apr-2021 3242.51 4319.08 72.59 3.00  88.82 2657.85
   02:51:57.273.27-Apr-2021 3242.51 4319.28 72.59 3.00  89.02 2657.85
   02:51:57.473.27-Apr-2021 3242.51 4319.28 72.59 3.00  89.22 2657.85
   02:51:57.673.27-Apr-2021 3242.51 4319.45 72.59 3.00  89.42 2657.85
   02:51:57.873.27-Apr-2021 3242.51 4319.45 72.59 3.00  89.62 2657.85
   02:51:58.073.27-Apr-2021 3242.51 4319.41 72.59 3.00  89.82 2657.85
   02:51:58.273.27-Apr-2021 3242.51 4319.39 72.58 3.00  90.02 2657.85
   02:51:58.473.27-Apr-2021 3242.51 4319.39 72.58 3.00  90.22 2657.85
   02:51:58.673.27-Apr-2021 3242.51 4319.42 72.58 3.00  90.42 2657.85
   02:51:58.873.27-Apr-2021 3242.51 4319.42 72.58 3.00  90.62 2657.85
   02:51:59.073.27-Apr-2021 3242.51 4319.37 72.58 3.00  90.82 2657.85
   02:51:59.273.27-Apr-2021 3242.51 4319.41 72.58 3.00  91.02 2657.85
   02:51:59.473.27-Apr-2021 3242.51 4319.41 72.58 3.00  91.22 2657.85
   02:51:59.673.27-Apr-2021 3242.51 4319.30 72.58 3.00  91.42 2657.85
   02:51:59.873.27-Apr-2021 3242.51 4319.12 72.58 3.00  91.62 2657.85
   02:52:00.073.27-Apr-2021 3242.51 4319.31 72.58 3.00  91.82 2657.85
