~Version Information
 VERS.                  2.0:   CWLS log ASCII Standard -VERSION 2.0
 WRAP.                   NO:   One line per depth step
~Well Information Block
#MNEM.UNIT     VALUE/NAME     DESCRIPTION
#---------     -----------    ---------------------------
 STRT.S             00:41:47 27-Apr-21: START TIME 00:41:47 27-Apr-21
 STOP.S             00:48:15 27-Apr-21: STOP TIME  00:48:15 27-Apr-21
 STEP.S                   0.00: STEP TIME
 NULL.                 -999.25: NULL VALUE
 DFWT.                        :  DIST FWL TEXT
 DFST.                        :  DIST FSL TEXT
 DMF .             Drill Floor:  DRILL MEAS FROM
 STIM.      02.00.00 12-Apr-21:  START TIME
 DATE.      02.00.00 02-May-21:  END TIME
 SPUD.               09-Apr-21:  SPUD DATE
 NREF.                    Grid:  NORTH REFERENCE
 HPTY.       Minimum Curvature:  HOLE POS TYPE
 DMOD.             Drill Model:  DRILL MOD DESC
 SVYD.                  Survey:  SURVEY DESC
 ILTD.               Lithology:  INTERP LTH DESC
 FTOP.          Formation Tops:  FORM TOPS DESC
 PDAT.          Mean Sea Level:  PERMANENT DATUM
 FLD .                     ACG:  FIELD NAME
 SON .        AZ-XX-0907021034:  JOB NUMBER
 CTRY.              Azerbaijan:  COUNTRY NAME
 WELL.                    E01x:  WELL NAME
 COMP.     BP Exploration (Caspian Sea) LTD.:  COMPANY
 UWI .            /AZE00001403:  UNIQUE WELL IDENTIFIER
 API .            /AZE00001403:  API NUMBER
 WTYP.                Deviated:  WELL TYPE
 MDS .        Operator Entered:  MAG DATA SOURCE
 BASE.              Azerbaijan:  LOGGING EQUIPMENT BASE LOCATION
 REGN.                   EESSA:  REGION
 PROV.                    Baku:  PROVINCE
 STAT.                    Baku:  STATE NAME
 SRVC.          Turan Drilling:  CONTRACTOR
 MWDS.                    Baku:  MWD SHOP
 JOBN.        AZ-XX-0907021034:  JOB TICKET NUMB
 RIG .                     DWG:  RIG NAME
 DOE .                     N/A:  DOE NUMBER
 DCON.         Sperry Drilling:  DIRECTNL CONTR
 UNIT.                     N/A:  LOGGING EQUIPMENT ID
 CNTY.                        :  COUNTY
 LOC .                        :  LOCATION
 LMF .             Drill Floor:  LOG MEASURED FROM
 TVDS.m                  43.16:  TVDSS CORRECTN
 LATI.deg                40.17:  LATITUDE
 LONG.deg                51.17:  LONGITUDE
 WHNS.m                  -5.90:  WELL HEAD N/S
 WHEW.m                  -6.61:  WELL HEAD E/W
 UTMX.m              514337.95:  UTM X
 UTMY.m             4448627.46:  UTM Y
 DFWL.m                   0.00:  DISTANCE FWL
 DFSL.m                   0.00:  DISTANCE FSL
 SDEP.m                2606.87:  START DEPTH
 TDD .m                3618.01:  TOTAL DEPTH (DRILLER)
 VSDR.deg               177.42:  VERT SEC DIRECT
 GVFD.g                   1.00:  GRAVITY FIELD
 MFLD.nT              50399.00:  MAGNETIC FIELD
 MDIP.deg                59.67:  MAGNETIC DIP
 MDEC.deg                 6.56:  MAGNETIC DECL
 GRDC.deg                 0.11:  GRID CORRECTION
 AZTC.deg                 6.45:  AZM TOTAL CORR
 EPD .m                   0.00:  ELEVATION
 EGL .m                   0.00:  GROUND ELEVATION
 WDMS.m                 176.20:  WD ELEV
 APD .m                  43.16:  DEPTH ABOVE PD
 DEP .m                2606.87:  DEPTH
 AGAP.m                  43.16:  AIR GAP
 VSEW.m                  -6.61:  VERT SEC E/W
 VSNS.m                  -5.90:  VERT SEC N/S
 EKB .m                  43.16:  KB ELEVATION
 EDF .m                  43.16:  DF ELEVATION
 TDL .m                 438.00:  TOTAL DEPTH (LOGGER)
 VSC .                       0:  VS TO CLOSURE
 MAGU.                 1855490:  MAGUTM CHECKSUM
~Parameter Information Block
#MNEM.UNIT       Value        Description
#---------     -----------    ---------------------------
 AV  .mps                 2.20:  Ann Velocity 
 AVMX.mps                 2.50:  Max Ann Veloc 
 AZIF.deg               150.21:  Azm, Final 
 BHAT.        Rotary Steerable:  BHA Type 
 BROT.°/30m               0.08:  Build Rotating 
 BS  .in                  6.50:  Bit Size 
 BSZ .in                  6.50:  Bit Size 
 BTPL.psig              108.00:  Bit Press Loss 
 CABU.                     Yes:  Customer Abuse 
 CGEO.           Emin Aliyarli:  Customer Geo 
 COMM.                     lJm:  Run Comments 1 
 TCS .hr                 74.20:  Time Ciculation Ended 
 CV  .mps                 3.63:  Crit Velocity 
 CVMX.mps                 3.66:  Max Crit Veloc 
 DD1 .         Intigam Rahimov:  Direct Drillr 1 
 DD2 .          Teymur Aghayev:  Direct Drillr 2 
 DDSV.               Geo-Pilot:  DD Service 
 DEFF.%                  97.00:  % Det Eff 
 DLRX.°/30m               1.63:  Dogleg Rot Max 
 DLSO.°/30m               0.00:  Dogleg Oriented 
 DLSX.°/30m               0.00:  Dogleg Str Max 
 DRET.      20.20.00 28-Apr-21:  Drill End Time 
 DRST.      04.45.00 26-Apr-21:  Drill Start Tim 
 DTIM.hr                 34.30:  Time Drilling 
 EDEP.m                3618.01:  End Depth 
 ENG1.           Amrah Tahirov:  Engineer 1 
 ENG2.         Bahruz Mehdiyev:  Engineer 2 
 ENG3.         Farhad Orujzade:  Engineer 3 
 ETIM.      19.00.00 29-Apr-21:  End Time 
 FLOI.gpm               370.00:  Flow In 
 FLON.gpm               300.00:  Flow In Min 
 FLOS.cptm                0.00:  Fluid Loss 
 FLOX.gpm               410.00:  Flow In Max 
 HFLO.                      No:  High Flow 
 HPRE.                      No:  High Pressure 
 HTEM.                      No:  High Temp 
 HYDO.m                   1.80:  Hydro Offset 
 IFIN.deg                67.19:  Inc, Final 
 IMAX.deg                68.42:  Inc Max 
 IMIN.deg                66.33:  Inc Min 
 IMND.m                3532.79:  Inc Min Depth 
 IMXD.m                3192.15:  Inc Max Depth 
 JARR.                      No:  Jarring 
 LETM.      20.20.00 28-Apr-21:  Log End Time 
 LOST.hr                     0:  Lost Rig Time 
 LSTM.      04.45.00 26-Apr-21:  Log Start Time 
 MDCL.ppm             36500.00:  Mud Chlorides 
 MDES.     Inversion Oil/Synthetic:  Mud Desc 
 DFD .sg                  1.42:  Mud Density 
 MDMN.sg                  1.42:  Dens Mud Min 
 MDMX.sg                  1.42:  Dens Mud Max 
 MOIL.                    55.7:  Run Mud Oil % 
 MOWR.                   71:29:  Run Mud OWR 
 MSND.                     0.1:  Run Mud Sand % 
 MSOL.                    19.9:  Run Mud Solids% 
 DFV .spqt               83.00:  Mud Viscosity 
 MWOD.in                  5.15:  MWD Tool OD 
 MWSI.                      No:  Serv Intrp, MWD 
 OTIM.hr                120.59:  Time Operating 
 PCON.           Look Like New:  Pad Condition 
 PMAX.psia            11292.93:  Press Op, Max 
 PV  .cP                 27.00:  Mud PV 
 RUN .                     400:  Run Number 
 ROPA.m/hr               14.00:  ROP Avg 
 ROPN.m/hr                9.00:  ROP Min 
 ROPX.m/hr               18.00:  ROP Max 
 RPMA.rpm               130.00:  RPM Surface Avg 
 RPMN.rpm               100.00:  RPM Surface Min 
 RPMX.rpm               140.00:  RPM Surface Max 
 RRUN.                    0400:  Rig Run Number 
 RTIM.hr                 38.60:  Time Reaming 
 SAZI.deg               149.55:  Azm, Start 
 SDEP.m                3180.01:  Start Depth 
 SIDD.                      No:  Serv Intrp, DD 
 SINC.deg                68.42:  Inc, Start 
 SPPA.psig             4400.00:  SPP Avg 
 SPPN.psig             3580.00:  SPP Min 
 SPPX.psig             4850.00:  SPP Max 
 STIM.      12.30.00 24-Apr-21:  Start Time 
 SVCS.                 DD, MWD:  Services 
 SVER.                    9.20:  Sperry Version 
 TDAT.m                 438.00:  Tot Depth Attmp 
 TDDF.                      No:  Trip for DD 
 TDLG.m                 438.00:  Tot Depth Loggd 
 TFF .                      No:  Trip for Fail 
 TQAA.f-kp               11.00:  Torque Abs Avg 
 TQAN.f-kp                9.00:  Torque Abs Min 
 TQAX.f-kp               14.00:  Torque Abs Max 
 TRRT.°/30m               0.04:  Turn Rotating 
 MRT .                    HCIM:  Maximum Recorded Temperature 
 TTMX.degC               84.31:  Max Tool Temp 
 VS01.                90521954:  Virtual Str1 SN 
 VS02.                90519327:  Virtual Str2 SN 
 VS03.                90522273:  Virtual Str3 SN 
 VS04.                11108038:  Virtual Str4 SN 
 VS05.                12258760:  Virtual Str5 SN 
 WBMN.klb                 1.00:  WOB Min 
 WITN.           Adil Mammadov:  Customer Rep 
 WITN.         Alex Yadullayev:  Customer Rep 2 
 WOBA.klb                 6.00:  WOB Avg 
 WOBX.klb                 9.00:  WOB Max 
 YP  .lhf2               31.00:  Yield Point 
~Curve Information Block
#MNEM.UNIT                 API CODE     Curve Description
#---------               -----------    ---------------------------
 TIME.HHMMSS            00 000 000 000:  GT Time & Date
 GTDEPTH.m              00 000 000 000:  GT Depth
 GTPQH.psia             00 000 000 000:  GT HR Quartz Pressure
 GTTQ.degC              00 000 000 000:  GT Quartz Temperature
 GTTN.NONE              00 000 000 000:  GT Test Number
 GTET.sec               00 000 000 000:  GT Elapsed Test Time
 GTTVD.m                00 000 000 000:  GT True Vertical Depth
#Other Information
#
#WARRANTY: Halliburton will use its best efforts to furnish customers with 
#accurate information and interpretations that are part of, and incident to, the services 
#provided.  However, Halliburton cannot and does not warrant the accuracy 
#or correctness of such information and interpretations.  Under no circumstances should any 
#such information or interpretation be relied upon as the sole basis for any drilling, 
#completion, production, or financial decision or any procedure involving any risk to the 
#safety of any drilling venture, drilling rig or its crew or any other third party.  The 
#Customer has full responsibility for all drilling, completion and production operation.  
#Halliburton makes no representations or warranties, either expressed or 
#implied, including, but not limited to, the implied warranties of merchantability or fitness 
#for a particular purpose, with respect to the services rendered.  In no event will 
#Halliburton be liable for failure to obtain any particular results or for 
#any damages, including, but not limited to, indirect, special or consequential damages, 
#resulting from the use of any information or interpretation provided by Halliburton.
#
~A           TIME           GTDEPTH  GTPQH  GTTQ  GTTN  GTET   GTTVD  
# ...
   00:46:00.776.27-Apr-2021 3226.01 4273.48 71.46 2.00 253.05 2651.33
   00:46:00.976.27-Apr-2021 3226.01 4273.48 71.46 2.00 253.25 2651.33
   00:46:01.176.27-Apr-2021 3226.01 4273.46 71.46 2.00 253.45 2651.33
   00:46:01.376.27-Apr-2021 3226.01 4273.45 71.46 2.00 253.65 2651.33
   00:46:01.576.27-Apr-2021 3226.01 4273.52 71.46 2.00 253.85 2651.33
   00:46:01.776.27-Apr-2021 3226.01 4273.41 71.45 2.00 254.05 2651.33
   00:46:01.976.27-Apr-2021 3226.01 4273.41 71.45 2.00 254.25 2651.33
   00:46:02.176.27-Apr-2021 3226.01 4273.58 71.45 2.00 254.45 2651.33
   00:46:02.376.27-Apr-2021 3226.01 4273.66 71.45 2.00 254.65 2651.33
   00:46:02.576.27-Apr-2021 3226.01 4273.61 71.45 2.00 254.85 2651.33
   00:46:02.776.27-Apr-2021 3226.01 4273.63 71.45 2.00 255.05 2651.33
   00:46:02.976.27-Apr-2021 3226.01 4273.63 71.45 2.00 255.25 2651.33
   00:46:03.176.27-Apr-2021 3226.01 4273.64 71.45 2.00 255.45 2651.33
   00:46:03.376.27-Apr-2021 3226.01 4273.75 71.45 2.00 255.65 2651.33
   00:46:03.576.27-Apr-2021 3226.01 4273.73 71.45 2.00 255.85 2651.33
   00:46:03.776.27-Apr-2021 3226.01 4273.58 71.45 2.00 256.05 2651.33
   00:46:03.976.27-Apr-2021 3226.01 4273.58 71.45 2.00 256.25 2651.33
   00:46:04.177.27-Apr-2021 3226.01 4273.58 71.45 2.00 256.45 2651.33
   00:46:04.377.27-Apr-2021 3226.01 4273.77 71.45 2.00 256.65 2651.33
   00:46:04.577.27-Apr-2021 3226.01 4273.75 71.45 2.00 256.85 2651.33
   00:46:04.777.27-Apr-2021 3226.01 4273.70 71.45 2.00 257.05 2651.33
   00:46:04.977.27-Apr-2021 3226.01 4273.70 71.45 2.00 257.25 2651.33
   00:46:05.177.27-Apr-2021 3226.01 4273.74 71.45 2.00 257.45 2651.33
   00:46:05.377.27-Apr-2021 3226.01 4273.84 71.45 2.00 257.65 2651.33
   00:46:05.577.27-Apr-2021 3226.01 4273.78 71.44 2.00 257.85 2651.33
   00:46:05.777.27-Apr-2021 3226.01 4273.77 71.44 2.00 258.05 2651.33
   00:46:05.977.27-Apr-2021 3226.01 4273.77 71.44 2.00 258.25 2651.33
   00:46:06.177.27-Apr-2021 3226.01 4273.76 71.44 2.00 258.45 2651.33
   00:46:06.377.27-Apr-2021 3226.01 4273.78 71.44 2.00 258.65 2651.33
   00:46:06.577.27-Apr-2021 3226.01 4273.78 71.44 2.00 258.85 2651.33
   00:46:06.777.27-Apr-2021 3226.01 4273.73 71.44 2.00 259.05 2651.33
   00:46:06.977.27-Apr-2021 3226.01 4273.73 71.44 2.00 259.25 2651.33
   00:46:07.177.27-Apr-2021 3226.01 4273.71 71.44 2.00 259.45 2651.33
   00:46:07.377.27-Apr-2021 3226.01 4273.74 71.44 2.00 259.65 2651.33
   00:46:07.577.27-Apr-2021 3226.01 4273.50 71.44 2.00 259.85 2651.33
   00:46:07.777.27-Apr-2021 3226.01 4273.83 71.44 2.00 260.05 2651.33
   00:46:07.977.27-Apr-2021 3226.01 4273.83 71.44 2.00 260.25 2651.33
   00:46:08.177.27-Apr-2021 3226.01 4273.83 71.44 2.00 260.45 2651.33
   00:46:08.377.27-Apr-2021 3226.01 4273.80 71.44 2.00 260.65 2651.33
   00:46:08.577.27-Apr-2021 3226.01 4273.83 71.44 2.00 260.85 2651.33
   00:46:08.777.27-Apr-2021 3226.01 4273.81 71.44 2.00 261.05 2651.33
   00:46:08.977.27-Apr-2021 3226.01 4273.81 71.44 2.00 261.25 2651.33
   00:46:09.178.27-Apr-2021 3226.01 4273.83 71.44 2.00 261.45 2651.33
   00:46:09.378.27-Apr-2021 3226.01 4273.83 71.44 2.00 261.65 2651.33
   00:46:09.578.27-Apr-2021 3226.01 4273.80 71.43 2.00 261.85 2651.33
   00:46:09.778.27-Apr-2021 3226.01 4273.82 71.43 2.00 262.05 2651.33
   00:46:09.978.27-Apr-2021 3226.01 4273.82 71.43 2.00 262.25 2651.33
   00:46:10.178.27-Apr-2021 3226.01 4273.78 71.43 2.00 262.45 2651.33
   00:46:10.378.27-Apr-2021 3226.01 4273.61 71.43 2.00 262.65 2651.33
   00:46:10.578.27-Apr-2021 3226.01 4273.88 71.43 2.00 262.85 2651.33
   00:46:10.778.27-Apr-2021 3226.01 4273.93 71.43 2.00 263.05 2651.33
   00:46:10.978.27-Apr-2021 3226.01 4273.93 71.43 2.00 263.25 2651.33
   00:46:11.178.27-Apr-2021 3226.01 4273.88 71.43 2.00 263.45 2651.33
   00:46:11.378.27-Apr-2021 3226.01 4273.82 71.43 2.00 263.65 2651.33
   00:46:11.578.27-Apr-2021 3226.01 4273.69 71.43 2.00 263.85 2651.33
   00:46:11.778.27-Apr-2021 3226.01 4273.97 71.43 2.00 264.05 2651.33
   00:46:11.978.27-Apr-2021 3226.01 4273.97 71.43 2.00 264.25 2651.33
   00:46:12.178.27-Apr-2021 3226.01 4273.91 71.43 2.00 264.45 2651.33
   00:46:12.378.27-Apr-2021 3226.01 4273.72 71.43 2.00 264.65 2651.33
   00:46:12.578.27-Apr-2021 3226.01 4273.88 71.43 2.00 264.85 2651.33
   00:46:12.778.27-Apr-2021 3226.01 4273.95 71.43 2.00 265.05 2651.33
   00:46:12.978.27-Apr-2021 3226.01 4273.95 71.43 2.00 265.25 2651.33
   00:46:13.178.27-Apr-2021 3226.01 4273.72 71.43 2.00 265.45 2651.33
   00:46:13.378.27-Apr-2021 3226.01 4273.92 71.42 2.00 265.65 2651.33
   00:46:13.578.27-Apr-2021 3226.01 4273.95 71.42 2.00 265.85 2651.33
   00:46:13.778.27-Apr-2021 3226.01 4273.94 71.42 2.00 266.05 2651.33
   00:46:13.978.27-Apr-2021 3226.01 4273.94 71.42 2.00 266.25 2651.33
   00:46:14.179.27-Apr-2021 3226.01 4273.94 71.42 2.00 266.45 2651.33
   00:46:14.379.27-Apr-2021 3226.01 4273.93 71.42 2.00 266.65 2651.33
   00:46:14.579.27-Apr-2021 3226.01 4273.93 71.42 2.00 266.85 2651.33
   00:46:14.779.27-Apr-2021 3226.01 4273.98 71.42 2.00 267.05 2651.33
   00:46:14.979.27-Apr-2021 3226.01 4273.98 71.42 2.00 267.25 2651.33
   00:46:15.179.27-Apr-2021 3226.01 4273.91 71.42 2.00 267.45 2651.33
   00:46:15.379.27-Apr-2021 3226.01 4273.88 71.42 2.00 267.65 2651.33
   00:46:15.579.27-Apr-2021 3226.01 4273.90 71.42 2.00 267.85 2651.33
   00:46:15.779.27-Apr-2021 3226.01 4273.71 71.42 2.00 268.05 2651.33
   00:46:15.979.27-Apr-2021 3226.01 4273.71 71.42 2.00 268.25 2651.33
   00:46:16.179.27-Apr-2021 3226.01 4273.89 71.42 2.00 268.45 2651.33
   00:46:16.379.27-Apr-2021 3226.01 4273.94 71.42 2.00 268.65 2651.33
   00:46:16.579.27-Apr-2021 3226.01 4273.95 71.42 2.00 268.85 2651.33
   00:46:16.779.27-Apr-2021 3226.01 4273.94 71.42 2.00 269.05 2651.33
   00:46:16.979.27-Apr-2021 3226.01 4273.94 71.42 2.00 269.25 2651.33
   00:46:17.179.27-Apr-2021 3226.01 4273.94 71.42 2.00 269.45 2651.33
   00:46:17.379.27-Apr-2021 3226.01 4274.00 71.41 2.00 269.65 2651.33
   00:46:17.579.27-Apr-2021 3226.01 4273.95 71.41 2.00 269.85 2651.33
   00:46:17.779.27-Apr-2021 3226.01 4273.94 71.41 2.00 270.05 2651.33
   00:46:17.979.27-Apr-2021 3226.01 4273.94 71.41 2.00 270.25 2651.33
   00:46:18.179.27-Apr-2021 3226.01 4273.94 71.41 2.00 270.45 2651.33
   00:46:18.379.27-Apr-2021 3226.01 4273.94 71.41 2.00 270.65 2651.33
   00:46:18.579.27-Apr-2021 3226.01 4273.72 71.41 2.00 270.85 2651.33
   00:46:18.779.27-Apr-2021 3226.01 4273.95 71.41 2.00 271.05 2651.33
   00:46:18.979.27-Apr-2021 3226.01 4273.95 71.41 2.00 271.25 2651.33
   00:46:19.180.27-Apr-2021 3226.01 4274.00 71.41 2.00 271.45 2651.33
   00:46:19.380.27-Apr-2021 3226.01 4274.00 71.41 2.00 271.65 2651.33
   00:46:19.580.27-Apr-2021 3226.01 4273.98 71.41 2.00 271.85 2651.33
   00:46:19.780.27-Apr-2021 3226.01 4273.74 71.41 2.00 272.05 2651.33
   00:46:19.980.27-Apr-2021 3226.01 4273.74 71.41 2.00 272.25 2651.33
   00:46:20.180.27-Apr-2021 3226.01 4274.02 71.41 2.00 272.45 2651.33
   00:46:20.380.27-Apr-2021 3226.01 4274.03 71.41 2.00 272.65 2651.33
   00:46:20.580.27-Apr-2021 3226.01 4273.90 71.41 2.00 272.85 2651.33
   00:46:20.780.27-Apr-2021 3226.01 4273.86 71.41 2.00 273.05 2651.33
   00:46:20.980.27-Apr-2021 3226.01 4273.86 71.41 2.00 273.25 2651.33
   00:46:21.180.27-Apr-2021 3226.01 4274.07 71.40 2.00 273.45 2651.33
   00:46:21.380.27-Apr-2021 3226.01 4273.91 71.40 2.00 273.65 2651.33
   00:46:21.580.27-Apr-2021 3226.01 4273.91 71.40 2.00 273.85 2651.33
   00:46:21.780.27-Apr-2021 3226.01 4274.03 71.40 2.00 274.05 2651.33
   00:46:21.980.27-Apr-2021 3226.01 4274.03 71.40 2.00 274.25 2651.33
   00:46:22.180.27-Apr-2021 3226.01 4274.08 71.40 2.00 274.45 2651.33
   00:46:22.380.27-Apr-2021 3226.01 4274.04 71.40 2.00 274.65 2651.33
   00:46:22.580.27-Apr-2021 3226.01 4274.02 71.40 2.00 274.85 2651.33
   00:46:22.780.27-Apr-2021 3226.01 4274.01 71.40 2.00 275.05 2651.33
   00:46:22.980.27-Apr-2021 3226.01 4274.01 71.40 2.00 275.25 2651.33
   00:46:23.180.27-Apr-2021 3226.01 4274.03 71.40 2.00 275.45 2651.33
   00:46:23.380.27-Apr-2021 3226.01 4273.98 71.40 2.00 275.65 2651.33
   00:46:23.580.27-Apr-2021 3226.01 4273.97 71.40 2.00 275.85 2651.33
