~Version Information
 VERS.                  2.0:   CWLS log ASCII Standard -VERSION 2.0
 WRAP.                   NO:   One line per depth step
~Well Information Block
#MNEM.UNIT     VALUE/NAME     DESCRIPTION
#---------     -----------    ---------------------------
 STRT.S             23:13:46 26-Apr-21: START TIME 23:13:46 26-Apr-21
 STOP.S             23:20:13 26-Apr-21: STOP TIME  23:20:13 26-Apr-21
 STEP.S                   0.00: STEP TIME
 NULL.                 -999.25: NULL VALUE
 DFWT.                        :  DIST FWL TEXT
 DFST.                        :  DIST FSL TEXT
 DMF .             Drill Floor:  DRILL MEAS FROM
 STIM.      02.00.00 12-Apr-21:  START TIME
 DATE.      02.00.00 02-May-21:  END TIME
 SPUD.               09-Apr-21:  SPUD DATE
 NREF.                    Grid:  NORTH REFERENCE
 HPTY.       Minimum Curvature:  HOLE POS TYPE
 DMOD.             Drill Model:  DRILL MOD DESC
 SVYD.                  Survey:  SURVEY DESC
 ILTD.               Lithology:  INTERP LTH DESC
 FTOP.          Formation Tops:  FORM TOPS DESC
 PDAT.          Mean Sea Level:  PERMANENT DATUM
 FLD .                     ACG:  FIELD NAME
 SON .        AZ-XX-0907021034:  JOB NUMBER
 CTRY.              Azerbaijan:  COUNTRY NAME
 WELL.                    E01x:  WELL NAME
 COMP.     BP Exploration (Caspian Sea) LTD.:  COMPANY
 UWI .            /AZE00001403:  UNIQUE WELL IDENTIFIER
 API .            /AZE00001403:  API NUMBER
 WTYP.                Deviated:  WELL TYPE
 MDS .        Operator Entered:  MAG DATA SOURCE
 BASE.              Azerbaijan:  LOGGING EQUIPMENT BASE LOCATION
 REGN.                   EESSA:  REGION
 PROV.                    Baku:  PROVINCE
 STAT.                    Baku:  STATE NAME
 SRVC.          Turan Drilling:  CONTRACTOR
 MWDS.                    Baku:  MWD SHOP
 JOBN.        AZ-XX-0907021034:  JOB TICKET NUMB
 RIG .                     DWG:  RIG NAME
 DOE .                     N/A:  DOE NUMBER
 DCON.         Sperry Drilling:  DIRECTNL CONTR
 UNIT.                     N/A:  LOGGING EQUIPMENT ID
 CNTY.                        :  COUNTY
 LOC .                        :  LOCATION
 LMF .             Drill Floor:  LOG MEASURED FROM
 TVDS.m                  43.16:  TVDSS CORRECTN
 LATI.deg                40.17:  LATITUDE
 LONG.deg                51.17:  LONGITUDE
 WHNS.m                  -5.90:  WELL HEAD N/S
 WHEW.m                  -6.61:  WELL HEAD E/W
 UTMX.m              514337.95:  UTM X
 UTMY.m             4448627.46:  UTM Y
 DFWL.m                   0.00:  DISTANCE FWL
 DFSL.m                   0.00:  DISTANCE FSL
 SDEP.m                2606.87:  START DEPTH
 TDD .m                3618.01:  TOTAL DEPTH (DRILLER)
 VSDR.deg               177.42:  VERT SEC DIRECT
 GVFD.g                   1.00:  GRAVITY FIELD
 MFLD.nT              50399.00:  MAGNETIC FIELD
 MDIP.deg                59.67:  MAGNETIC DIP
 MDEC.deg                 6.56:  MAGNETIC DECL
 GRDC.deg                 0.11:  GRID CORRECTION
 AZTC.deg                 6.45:  AZM TOTAL CORR
 EPD .m                   0.00:  ELEVATION
 EGL .m                   0.00:  GROUND ELEVATION
 WDMS.m                 176.20:  WD ELEV
 APD .m                  43.16:  DEPTH ABOVE PD
 DEP .m                2606.87:  DEPTH
 AGAP.m                  43.16:  AIR GAP
 VSEW.m                  -6.61:  VERT SEC E/W
 VSNS.m                  -5.90:  VERT SEC N/S
 EKB .m                  43.16:  KB ELEVATION
 EDF .m                  43.16:  DF ELEVATION
 TDL .m                 438.00:  TOTAL DEPTH (LOGGER)
 VSC .                       0:  VS TO CLOSURE
 MAGU.                 1855490:  MAGUTM CHECKSUM
~Parameter Information Block
#MNEM.UNIT       Value        Description
#---------     -----------    ---------------------------
 AV  .mps                 2.20:  Ann Velocity 
 AVMX.mps                 2.50:  Max Ann Veloc 
 AZIF.deg               150.21:  Azm, Final 
 BHAT.        Rotary Steerable:  BHA Type 
 BROT.°/30m               0.08:  Build Rotating 
 BS  .in                  6.50:  Bit Size 
 BSZ .in                  6.50:  Bit Size 
 BTPL.psig              108.00:  Bit Press Loss 
 CABU.                     Yes:  Customer Abuse 
 CGEO.           Emin Aliyarli:  Customer Geo 
 COMM.                     <MW:  Run Comments 1 
 TCS .hr                 74.20:  Time Ciculation Ended 
 CV  .mps                 3.63:  Crit Velocity 
 CVMX.mps                 3.66:  Max Crit Veloc 
 DD1 .         Intigam Rahimov:  Direct Drillr 1 
 DD2 .          Teymur Aghayev:  Direct Drillr 2 
 DDSV.               Geo-Pilot:  DD Service 
 DEFF.%                  97.00:  % Det Eff 
 DLRX.°/30m               1.63:  Dogleg Rot Max 
 DLSO.°/30m               0.00:  Dogleg Oriented 
 DLSX.°/30m               0.00:  Dogleg Str Max 
 DRET.      20.20.00 28-Apr-21:  Drill End Time 
 DRST.      04.45.00 26-Apr-21:  Drill Start Tim 
 DTIM.hr                 34.30:  Time Drilling 
 EDEP.m                3618.01:  End Depth 
 ENG1.           Amrah Tahirov:  Engineer 1 
 ENG2.         Bahruz Mehdiyev:  Engineer 2 
 ENG3.         Farhad Orujzade:  Engineer 3 
 ETIM.      19.00.00 29-Apr-21:  End Time 
 FLOI.gpm               370.00:  Flow In 
 FLON.gpm               300.00:  Flow In Min 
 FLOS.cptm                0.00:  Fluid Loss 
 FLOX.gpm               410.00:  Flow In Max 
 HFLO.                      No:  High Flow 
 HPRE.                      No:  High Pressure 
 HTEM.                      No:  High Temp 
 HYDO.m                   1.80:  Hydro Offset 
 IFIN.deg                67.19:  Inc, Final 
 IMAX.deg                68.42:  Inc Max 
 IMIN.deg                66.33:  Inc Min 
 IMND.m                3532.79:  Inc Min Depth 
 IMXD.m                3192.15:  Inc Max Depth 
 JARR.                      No:  Jarring 
 LETM.      20.20.00 28-Apr-21:  Log End Time 
 LOST.hr                     0:  Lost Rig Time 
 LSTM.      04.45.00 26-Apr-21:  Log Start Time 
 MDCL.ppm             36500.00:  Mud Chlorides 
 MDES.     Inversion Oil/Synthetic:  Mud Desc 
 DFD .sg                  1.42:  Mud Density 
 MDMN.sg                  1.42:  Dens Mud Min 
 MDMX.sg                  1.42:  Dens Mud Max 
 MOIL.                    55.7:  Run Mud Oil % 
 MOWR.                   71:29:  Run Mud OWR 
 MSND.                     0.1:  Run Mud Sand % 
 MSOL.                    19.9:  Run Mud Solids% 
 DFV .spqt               83.00:  Mud Viscosity 
 MWOD.in                  5.15:  MWD Tool OD 
 MWSI.                      No:  Serv Intrp, MWD 
 OTIM.hr                120.59:  Time Operating 
 PCON.           Look Like New:  Pad Condition 
 PMAX.psia            11292.93:  Press Op, Max 
 PV  .cP                 27.00:  Mud PV 
 RUN .                     400:  Run Number 
 ROPA.m/hr               14.00:  ROP Avg 
 ROPN.m/hr                9.00:  ROP Min 
 ROPX.m/hr               18.00:  ROP Max 
 RPMA.rpm               130.00:  RPM Surface Avg 
 RPMN.rpm               100.00:  RPM Surface Min 
 RPMX.rpm               140.00:  RPM Surface Max 
 RRUN.                    0400:  Rig Run Number 
 RTIM.hr                 38.60:  Time Reaming 
 SAZI.deg               149.55:  Azm, Start 
 SDEP.m                3180.01:  Start Depth 
 SIDD.                      No:  Serv Intrp, DD 
 SINC.deg                68.42:  Inc, Start 
 SPPA.psig             4400.00:  SPP Avg 
 SPPN.psig             3580.00:  SPP Min 
 SPPX.psig             4850.00:  SPP Max 
 STIM.      12.30.00 24-Apr-21:  Start Time 
 SVCS.                 DD, MWD:  Services 
 SVER.                    9.20:  Sperry Version 
 TDAT.m                 438.00:  Tot Depth Attmp 
 TDDF.                      No:  Trip for DD 
 TDLG.m                 438.00:  Tot Depth Loggd 
 TFF .                      No:  Trip for Fail 
 TQAA.f-kp               11.00:  Torque Abs Avg 
 TQAN.f-kp                9.00:  Torque Abs Min 
 TQAX.f-kp               14.00:  Torque Abs Max 
 TRRT.°/30m               0.04:  Turn Rotating 
 MRT .                    HCIM:  Maximum Recorded Temperature 
 TTMX.degC               84.31:  Max Tool Temp 
 VS01.                90521954:  Virtual Str1 SN 
 VS02.                90519327:  Virtual Str2 SN 
 VS03.                90522273:  Virtual Str3 SN 
 VS04.                11108038:  Virtual Str4 SN 
 VS05.                12258760:  Virtual Str5 SN 
 WBMN.klb                 1.00:  WOB Min 
 WITN.           Adil Mammadov:  Customer Rep 
 WITN.         Alex Yadullayev:  Customer Rep 2 
 WOBA.klb                 6.00:  WOB Avg 
 WOBX.klb                 9.00:  WOB Max 
 YP  .lhf2               31.00:  Yield Point 
~Curve Information Block
#MNEM.UNIT                 API CODE     Curve Description
#---------               -----------    ---------------------------
 TIME.HHMMSS            00 000 000 000:  GT Time & Date
 GTDEPTH.m              00 000 000 000:  GT Depth
 GTPQH.psia             00 000 000 000:  GT HR Quartz Pressure
 GTTQ.degC              00 000 000 000:  GT Quartz Temperature
 GTTN.NONE              00 000 000 000:  GT Test Number
 GTET.sec               00 000 000 000:  GT Elapsed Test Time
 GTTVD.m                00 000 000 000:  GT True Vertical Depth
#Other Information
#
#WARRANTY: Halliburton will use its best efforts to furnish customers with 
#accurate information and interpretations that are part of, and incident to, the services 
#provided.  However, Halliburton cannot and does not warrant the accuracy 
#or correctness of such information and interpretations.  Under no circumstances should any 
#such information or interpretation be relied upon as the sole basis for any drilling, 
#completion, production, or financial decision or any procedure involving any risk to the 
#safety of any drilling venture, drilling rig or its crew or any other third party.  The 
#Customer has full responsibility for all drilling, completion and production operation.  
#Halliburton makes no representations or warranties, either expressed or 
#implied, including, but not limited to, the implied warranties of merchantability or fitness 
#for a particular purpose, with respect to the services rendered.  In no event will 
#Halliburton be liable for failure to obtain any particular results or for 
#any damages, including, but not limited to, indirect, special or consequential damages, 
#resulting from the use of any information or interpretation provided by Halliburton.
#
~A           TIME           GTDEPTH  GTPQH  GTTQ  GTTN  GTET   GTTVD  
   23:13:46.526.26-Apr-2021 3222.01 -999.25 69.78 1.00   0.00 2649.76
   23:13:46.726.26-Apr-2021 3222.01    0.00 69.78 1.00   0.20 2649.76
   23:13:46.926.26-Apr-2021 3222.01    0.00 69.78 1.00   0.40 2649.76
   23:13:47.126.26-Apr-2021 3222.01 5775.45 69.78 1.00   0.60 2649.76
   23:13:47.326.26-Apr-2021 3222.01 5781.40 69.78 1.00   0.80 2649.76
   23:13:47.526.26-Apr-2021 3222.01 5787.81 69.78 1.00   1.00 2649.76
   23:13:47.726.26-Apr-2021 3222.01 5787.81 69.78 1.00   1.20 2649.76
   23:13:47.926.26-Apr-2021 3222.01 5784.81 69.78 1.00   1.40 2649.76
   23:13:48.126.26-Apr-2021 3222.01 5775.37 69.78 1.00   1.60 2649.76
   23:13:48.326.26-Apr-2021 3222.01 5783.49 69.77 1.00   1.80 2649.76
   23:13:48.526.26-Apr-2021 3222.01 5790.03 69.77 1.00   2.00 2649.76
   23:13:48.726.26-Apr-2021 3222.01 5790.03 69.77 1.00   2.20 2649.76
   23:13:48.926.26-Apr-2021 3222.01 5790.64 69.77 1.00   2.40 2649.76
   23:13:49.126.26-Apr-2021 3222.01 5787.78 69.77 1.00   2.60 2649.76
   23:13:49.327.26-Apr-2021 3222.01 5788.02 69.77 1.00   2.80 2649.76
   23:13:49.527.26-Apr-2021 3222.01 5790.93 69.77 1.00   3.00 2649.76
   23:13:49.727.26-Apr-2021 3222.01 5790.93 69.77 1.00   3.20 2649.76
   23:13:49.927.26-Apr-2021 3222.01 5788.38 69.77 1.00   3.40 2649.76
   23:13:50.127.26-Apr-2021 3222.01 5788.83 69.77 1.00   3.60 2649.76
   23:13:50.327.26-Apr-2021 3222.01 5775.71 69.77 1.00   3.80 2649.76
   23:13:50.527.26-Apr-2021 3222.01 5782.60 69.77 1.00   4.00 2649.76
   23:13:50.727.26-Apr-2021 3222.01 5782.60 69.77 1.00   4.20 2649.76
   23:13:50.927.26-Apr-2021 3222.01 5789.21 69.77 1.00   4.40 2649.76
   23:13:51.127.26-Apr-2021 3222.01 5787.73 69.77 1.00   4.60 2649.76
   23:13:51.327.26-Apr-2021 3222.01 5776.82 69.77 1.00   4.80 2649.76
   23:13:51.527.26-Apr-2021 3222.01 5781.69 69.77 1.00   5.00 2649.76
   23:13:51.727.26-Apr-2021 3222.01 5781.69 69.77 1.00   5.20 2649.76
   23:13:51.927.26-Apr-2021 3222.01 5794.23 69.77 1.00   5.40 2649.76
   23:13:52.127.26-Apr-2021 3222.01 5794.94 69.77 1.00   5.60 2649.76
   23:13:52.327.26-Apr-2021 3222.01 5786.56 69.77 1.00   5.80 2649.76
   23:13:52.527.26-Apr-2021 3222.01 5780.92 69.77 1.00   6.00 2649.76
   23:13:52.728.26-Apr-2021 3222.01 5780.92 69.77 1.00   6.20 2649.76
   23:13:52.928.26-Apr-2021 3222.01 5780.92 69.77 1.00   6.40 2649.76
   23:13:53.128.26-Apr-2021 3222.01 5792.28 69.76 1.00   6.60 2649.76
   23:13:53.328.26-Apr-2021 3222.01 5776.87 69.76 1.00   6.80 2649.76
   23:13:53.528.26-Apr-2021 3222.01 5781.50 69.76 1.00   7.00 2649.76
   23:13:53.728.26-Apr-2021 3222.01 5781.50 69.76 1.00   7.20 2649.76
   23:13:53.928.26-Apr-2021 3222.01 5793.20 69.76 1.00   7.40 2649.76
   23:13:54.128.26-Apr-2021 3222.01 5778.87 69.76 1.00   7.60 2649.76
   23:13:54.328.26-Apr-2021 3222.01 5787.09 69.76 1.00   7.80 2649.76
   23:13:54.528.26-Apr-2021 3222.01 5786.74 69.76 1.00   8.00 2649.76
   23:13:54.728.26-Apr-2021 3222.01 5786.74 69.76 1.00   8.20 2649.76
   23:13:54.928.26-Apr-2021 3222.01 5794.39 69.76 1.00   8.40 2649.76
   23:13:55.128.26-Apr-2021 3222.01 5790.94 69.76 1.00   8.60 2649.76
   23:13:55.328.26-Apr-2021 3222.01 5778.19 69.76 1.00   8.80 2649.76
   23:13:55.528.26-Apr-2021 3222.01 5790.24 69.76 1.00   9.00 2649.76
   23:13:55.728.26-Apr-2021 3222.01 5790.24 69.76 1.00   9.20 2649.76
   23:13:55.928.26-Apr-2021 3222.01 5781.25 69.76 1.00   9.40 2649.76
   23:13:56.129.26-Apr-2021 3222.01 5781.27 69.76 1.00   9.60 2649.76
   23:13:56.329.26-Apr-2021 3222.01 5787.76 69.76 1.00   9.80 2649.76
   23:13:56.529.26-Apr-2021 3222.01 5787.30 69.76 1.00  10.00 2649.76
   23:13:56.729.26-Apr-2021 3222.01 5787.30 69.76 1.00  10.20 2649.76
   23:13:56.929.26-Apr-2021 3222.01 5788.73 69.76 1.00  10.40 2649.76
   23:13:57.129.26-Apr-2021 3222.01 5779.63 69.75 1.00  10.60 2649.76
   23:13:57.329.26-Apr-2021 3222.01 5772.19 69.75 1.00  10.80 2649.76
   23:13:57.529.26-Apr-2021 3222.01 5773.71 69.75 1.00  11.00 2649.76
   23:13:57.729.26-Apr-2021 3222.01 5773.71 69.75 1.00  11.20 2649.76
   23:13:57.929.26-Apr-2021 3222.01 5711.07 69.75 1.00  11.40 2649.76
   23:13:58.129.26-Apr-2021 3222.01 5698.32 69.75 1.00  11.60 2649.76
   23:13:58.329.26-Apr-2021 3222.01 5704.52 69.75 1.00  11.80 2649.76
   23:13:58.529.26-Apr-2021 3222.01 5712.59 69.75 1.00  12.00 2649.76
   23:13:58.729.26-Apr-2021 3222.01 5712.59 69.75 1.00  12.20 2649.76
   23:13:58.929.26-Apr-2021 3222.01 5708.82 69.75 1.00  12.40 2649.76
   23:13:59.129.26-Apr-2021 3222.01 5717.22 69.75 1.00  12.60 2649.76
   23:13:59.329.26-Apr-2021 3222.01 5701.83 69.75 1.00  12.80 2649.76
   23:13:59.529.26-Apr-2021 3222.01 5704.37 69.75 1.00  13.00 2649.76
   23:13:59.730.26-Apr-2021 3222.01 5704.37 69.75 1.00  13.20 2649.76
   23:13:59.930.26-Apr-2021 3222.01 5702.15 69.75 1.00  13.40 2649.76
   23:14:00.130.26-Apr-2021 3222.01 5705.63 69.75 1.00  13.60 2649.76
   23:14:00.330.26-Apr-2021 3222.01 5707.31 69.75 1.00  13.80 2649.76
   23:14:00.530.26-Apr-2021 3222.01 5667.66 69.75 1.00  14.00 2649.76
   23:14:00.730.26-Apr-2021 3222.01 5667.66 69.75 1.00  14.20 2649.76
   23:14:00.930.26-Apr-2021 3222.01 5576.81 69.75 1.00  14.40 2649.76
   23:14:01.130.26-Apr-2021 3222.01 5525.74 69.75 1.00  14.60 2649.76
   23:14:01.330.26-Apr-2021 3222.01 5545.19 69.75 1.00  14.80 2649.76
   23:14:01.530.26-Apr-2021 3222.01 5520.52 69.74 1.00  15.00 2649.76
   23:14:01.730.26-Apr-2021 3222.01 5520.52 69.74 1.00  15.20 2649.76
   23:14:01.930.26-Apr-2021 3222.01 5496.27 69.74 1.00  15.40 2649.76
   23:14:02.130.26-Apr-2021 3222.01 5436.59 69.74 1.00  15.60 2649.76
   23:14:02.330.26-Apr-2021 3222.01 5552.78 69.74 1.00  15.80 2649.76
   23:14:02.530.26-Apr-2021 3222.01 5465.26 69.74 1.00  16.00 2649.76
   23:14:02.730.26-Apr-2021 3222.01 5465.26 69.74 1.00  16.20 2649.76
   23:14:02.930.26-Apr-2021 3222.01 5388.77 69.74 1.00  16.40 2649.76
   23:14:03.131.26-Apr-2021 3222.01 5367.50 69.74 1.00  16.60 2649.76
   23:14:03.331.26-Apr-2021 3222.01 5422.10 69.74 1.00  16.80 2649.76
   23:14:03.531.26-Apr-2021 3222.01 5525.88 69.74 1.00  17.00 2649.76
   23:14:03.731.26-Apr-2021 3222.01 5525.88 69.74 1.00  17.21 2649.76
   23:14:03.931.26-Apr-2021 3222.01 5929.52 69.74 1.00  17.41 2649.76
   23:14:04.131.26-Apr-2021 3222.01 6017.30 69.74 1.00  17.61 2649.76
   23:14:04.331.26-Apr-2021 3222.01 6101.59 69.74 1.00  17.81 2649.76
   23:14:04.531.26-Apr-2021 3222.01 6260.46 69.74 1.00  18.01 2649.76
   23:14:04.731.26-Apr-2021 3222.01 6260.46 69.74 1.00  18.21 2649.76
   23:14:04.931.26-Apr-2021 3222.01 6470.54 69.74 1.00  18.41 2649.76
   23:14:05.131.26-Apr-2021 3222.01 6563.67 69.74 1.00  18.61 2649.76
   23:14:05.331.26-Apr-2021 3222.01 6587.54 69.74 1.00  18.81 2649.76
   23:14:05.531.26-Apr-2021 3222.01 6606.58 69.74 1.00  19.01 2649.76
   23:14:05.731.26-Apr-2021 3222.01 6606.58 69.74 1.00  19.21 2649.76
   23:14:05.931.26-Apr-2021 3222.01 6517.04 69.73 1.00  19.41 2649.76
   23:14:06.131.26-Apr-2021 3222.01 6517.84 69.73 1.00  19.61 2649.76
   23:14:06.331.26-Apr-2021 3222.01 6565.47 69.73 1.00  19.81 2649.76
   23:14:06.532.26-Apr-2021 3222.01 6598.00 69.73 1.00  20.01 2649.76
   23:14:06.732.26-Apr-2021 3222.01 6598.00 69.73 1.00  20.21 2649.76
   23:14:06.932.26-Apr-2021 3222.01 6525.85 69.73 1.00  20.41 2649.76
   23:14:07.132.26-Apr-2021 3222.01 6500.73 69.73 1.00  20.61 2649.76
   23:14:07.332.26-Apr-2021 3222.01 6542.95 69.73 1.00  20.81 2649.76
   23:14:07.532.26-Apr-2021 3222.01 6567.60 69.73 1.00  21.01 2649.76
   23:14:07.732.26-Apr-2021 3222.01 6567.60 69.73 1.00  21.21 2649.76
   23:14:07.932.26-Apr-2021 3222.01 6605.25 69.73 1.00  21.41 2649.76
   23:14:08.132.26-Apr-2021 3222.01 6618.77 69.73 1.00  21.61 2649.76
   23:14:08.332.26-Apr-2021 3222.01 6616.38 69.73 1.00  21.81 2649.76
   23:14:08.532.26-Apr-2021 3222.01 6539.33 69.73 1.00  22.01 2649.76
   23:14:08.732.26-Apr-2021 3222.01 6539.33 69.73 1.00  22.21 2649.76
   23:14:08.932.26-Apr-2021 3222.01 6572.31 69.73 1.00  22.41 2649.76
   23:14:09.132.26-Apr-2021 3222.01 6581.75 69.73 1.00  22.61 2649.76
   23:14:09.332.26-Apr-2021 3222.01 6590.07 69.73 1.00  22.81 2649.76
