~Version Information
 VERS.                  2.0:   CWLS log ASCII Standard -VERSION 2.0
 WRAP.                   NO:   One line per depth step
~Well Information Block
#MNEM.UNIT     VALUE/NAME     DESCRIPTION
#---------     -----------    ---------------------------
 STRT.S             02:50:28 27-Apr-21: START TIME 02:50:28 27-Apr-21
 STOP.S             02:56:55 27-Apr-21: STOP TIME  02:56:55 27-Apr-21
 STEP.S                   0.00: STEP TIME
 NULL.                 -999.25: NULL VALUE
 DFWT.                        :  DIST FWL TEXT
 DFST.                        :  DIST FSL TEXT
 DMF .             Drill Floor:  DRILL MEAS FROM
 STIM.      02.00.00 12-Apr-21:  START TIME
 DATE.      02.00.00 02-May-21:  END TIME
 SPUD.               09-Apr-21:  SPUD DATE
 NREF.                    Grid:  NORTH REFERENCE
 HPTY.       Minimum Curvature:  HOLE POS TYPE
 DMOD.             Drill Model:  DRILL MOD DESC
 SVYD.                  Survey:  SURVEY DESC
 ILTD.               Lithology:  INTERP LTH DESC
 FTOP.          Formation Tops:  FORM TOPS DESC
 PDAT.          Mean Sea Level:  PERMANENT DATUM
 FLD .                     ACG:  FIELD NAME
 SON .        AZ-XX-0907021034:  JOB NUMBER
 CTRY.              Azerbaijan:  COUNTRY NAME
 WELL.                    E01x:  WELL NAME
 COMP.     BP Exploration (Caspian Sea) LTD.:  COMPANY
 UWI .            /AZE00001403:  UNIQUE WELL IDENTIFIER
 API .            /AZE00001403:  API NUMBER
 WTYP.                Deviated:  WELL TYPE
 MDS .        Operator Entered:  MAG DATA SOURCE
 BASE.              Azerbaijan:  LOGGING EQUIPMENT BASE LOCATION
 REGN.                   EESSA:  REGION
 PROV.                    Baku:  PROVINCE
 STAT.                    Baku:  STATE NAME
 SRVC.          Turan Drilling:  CONTRACTOR
 MWDS.                    Baku:  MWD SHOP
 JOBN.        AZ-XX-0907021034:  JOB TICKET NUMB
 RIG .                     DWG:  RIG NAME
 DOE .                     N/A:  DOE NUMBER
 DCON.         Sperry Drilling:  DIRECTNL CONTR
 UNIT.                     N/A:  LOGGING EQUIPMENT ID
 CNTY.                        :  COUNTY
 LOC .                        :  LOCATION
 LMF .             Drill Floor:  LOG MEASURED FROM
 TVDS.m                  43.16:  TVDSS CORRECTN
 LATI.deg                40.17:  LATITUDE
 LONG.deg                51.17:  LONGITUDE
 WHNS.m                  -5.90:  WELL HEAD N/S
 WHEW.m                  -6.61:  WELL HEAD E/W
 UTMX.m              514337.95:  UTM X
 UTMY.m             4448627.46:  UTM Y
 DFWL.m                   0.00:  DISTANCE FWL
 DFSL.m                   0.00:  DISTANCE FSL
 SDEP.m                2606.87:  START DEPTH
 TDD .m                3618.01:  TOTAL DEPTH (DRILLER)
 VSDR.deg               177.42:  VERT SEC DIRECT
 GVFD.g                   1.00:  GRAVITY FIELD
 MFLD.nT              50399.00:  MAGNETIC FIELD
 MDIP.deg                59.67:  MAGNETIC DIP
 MDEC.deg                 6.56:  MAGNETIC DECL
 GRDC.deg                 0.11:  GRID CORRECTION
 AZTC.deg                 6.45:  AZM TOTAL CORR
 EPD .m                   0.00:  ELEVATION
 EGL .m                   0.00:  GROUND ELEVATION
 WDMS.m                 176.20:  WD ELEV
 APD .m                  43.16:  DEPTH ABOVE PD
 DEP .m                2606.87:  DEPTH
 AGAP.m                  43.16:  AIR GAP
 VSEW.m                  -6.61:  VERT SEC E/W
 VSNS.m                  -5.90:  VERT SEC N/S
 EKB .m                  43.16:  KB ELEVATION
 EDF .m                  43.16:  DF ELEVATION
 TDL .m                 438.00:  TOTAL DEPTH (LOGGER)
 VSC .                       0:  VS TO CLOSURE
 MAGU.                 1855490:  MAGUTM CHECKSUM
~Parameter Information Block
#MNEM.UNIT       Value        Description
#---------     -----------    ---------------------------
 AV  .mps                 2.20:  Ann Velocity 
 AVMX.mps                 2.50:  Max Ann Veloc 
 AZIF.deg               150.21:  Azm, Final 
 BHAT.        Rotary Steerable:  BHA Type 
 BROT.°/30m               0.08:  Build Rotating 
 BS  .in                  6.50:  Bit Size 
 BSZ .in                  6.50:  Bit Size 
 BTPL.psig              108.00:  Bit Press Loss 
 CABU.                     Yes:  Customer Abuse 
 CGEO.           Emin Aliyarli:  Customer Geo 
 COMM.                     äº~:  Run Comments 1 
 TCS .hr                 74.20:  Time Ciculation Ended 
 CV  .mps                 3.63:  Crit Velocity 
 CVMX.mps                 3.66:  Max Crit Veloc 
 DD1 .         Intigam Rahimov:  Direct Drillr 1 
 DD2 .          Teymur Aghayev:  Direct Drillr 2 
 DDSV.               Geo-Pilot:  DD Service 
 DEFF.%                  97.00:  % Det Eff 
 DLRX.°/30m               1.63:  Dogleg Rot Max 
 DLSO.°/30m               0.00:  Dogleg Oriented 
 DLSX.°/30m               0.00:  Dogleg Str Max 
 DRET.      20.20.00 28-Apr-21:  Drill End Time 
 DRST.      04.45.00 26-Apr-21:  Drill Start Tim 
 DTIM.hr                 34.30:  Time Drilling 
 EDEP.m                3618.01:  End Depth 
 ENG1.           Amrah Tahirov:  Engineer 1 
 ENG2.         Bahruz Mehdiyev:  Engineer 2 
 ENG3.         Farhad Orujzade:  Engineer 3 
 ETIM.      19.00.00 29-Apr-21:  End Time 
 FLOI.gpm               370.00:  Flow In 
 FLON.gpm               300.00:  Flow In Min 
 FLOS.cptm                0.00:  Fluid Loss 
 FLOX.gpm               410.00:  Flow In Max 
 HFLO.                      No:  High Flow 
 HPRE.                      No:  High Pressure 
 HTEM.                      No:  High Temp 
 HYDO.m                   1.80:  Hydro Offset 
 IFIN.deg                67.19:  Inc, Final 
 IMAX.deg                68.42:  Inc Max 
 IMIN.deg                66.33:  Inc Min 
 IMND.m                3532.79:  Inc Min Depth 
 IMXD.m                3192.15:  Inc Max Depth 
 JARR.                      No:  Jarring 
 LETM.      20.20.00 28-Apr-21:  Log End Time 
 LOST.hr                     0:  Lost Rig Time 
 LSTM.      04.45.00 26-Apr-21:  Log Start Time 
 MDCL.ppm             36500.00:  Mud Chlorides 
 MDES.     Inversion Oil/Synthetic:  Mud Desc 
 DFD .sg                  1.42:  Mud Density 
 MDMN.sg                  1.42:  Dens Mud Min 
 MDMX.sg                  1.42:  Dens Mud Max 
 MOIL.                    55.7:  Run Mud Oil % 
 MOWR.                   71:29:  Run Mud OWR 
 MSND.                     0.1:  Run Mud Sand % 
 MSOL.                    19.9:  Run Mud Solids% 
 DFV .spqt               83.00:  Mud Viscosity 
 MWOD.in                  5.15:  MWD Tool OD 
 MWSI.                      No:  Serv Intrp, MWD 
 OTIM.hr                120.59:  Time Operating 
 PCON.           Look Like New:  Pad Condition 
 PMAX.psia            11292.93:  Press Op, Max 
 PV  .cP                 27.00:  Mud PV 
 RUN .                     400:  Run Number 
 ROPA.m/hr               14.00:  ROP Avg 
 ROPN.m/hr                9.00:  ROP Min 
 ROPX.m/hr               18.00:  ROP Max 
 RPMA.rpm               130.00:  RPM Surface Avg 
 RPMN.rpm               100.00:  RPM Surface Min 
 RPMX.rpm               140.00:  RPM Surface Max 
 RRUN.                    0400:  Rig Run Number 
 RTIM.hr                 38.60:  Time Reaming 
 SAZI.deg               149.55:  Azm, Start 
 SDEP.m                3180.01:  Start Depth 
 SIDD.                      No:  Serv Intrp, DD 
 SINC.deg                68.42:  Inc, Start 
 SPPA.psig             4400.00:  SPP Avg 
 SPPN.psig             3580.00:  SPP Min 
 SPPX.psig             4850.00:  SPP Max 
 STIM.      12.30.00 24-Apr-21:  Start Time 
 SVCS.                 DD, MWD:  Services 
 SVER.                    9.20:  Sperry Version 
 TDAT.m                 438.00:  Tot Depth Attmp 
 TDDF.                      No:  Trip for DD 
 TDLG.m                 438.00:  Tot Depth Loggd 
 TFF .                      No:  Trip for Fail 
 TQAA.f-kp               11.00:  Torque Abs Avg 
 TQAN.f-kp                9.00:  Torque Abs Min 
 TQAX.f-kp               14.00:  Torque Abs Max 
 TRRT.°/30m               0.04:  Turn Rotating 
 MRT .                    HCIM:  Maximum Recorded Temperature 
 TTMX.degC               84.31:  Max Tool Temp 
 VS01.                90521954:  Virtual Str1 SN 
 VS02.                90519327:  Virtual Str2 SN 
 VS03.                90522273:  Virtual Str3 SN 
 VS04.                11108038:  Virtual Str4 SN 
 VS05.                12258760:  Virtual Str5 SN 
 WBMN.klb                 1.00:  WOB Min 
 WITN.           Adil Mammadov:  Customer Rep 
 WITN.         Alex Yadullayev:  Customer Rep 2 
 WOBA.klb                 6.00:  WOB Avg 
 WOBX.klb                 9.00:  WOB Max 
 YP  .lhf2               31.00:  Yield Point 
~Curve Information Block
#MNEM.UNIT                 API CODE     Curve Description
#---------               -----------    ---------------------------
 TIME.HHMMSS            00 000 000 000:  GT Time & Date
 GTDEPTH.m              00 000 000 000:  GT Depth
 GTPQH.psia             00 000 000 000:  GT HR Quartz Pressure
 GTTQ.degC              00 000 000 000:  GT Quartz Temperature
 GTTN.NONE              00 000 000 000:  GT Test Number
 GTET.sec               00 000 000 000:  GT Elapsed Test Time
 GTTVD.m                00 000 000 000:  GT True Vertical Depth
#Other Information
#
#WARRANTY: Halliburton will use its best efforts to furnish customers with 
#accurate information and interpretations that are part of, and incident to, the services 
#provided.  However, Halliburton cannot and does not warrant the accuracy 
#or correctness of such information and interpretations.  Under no circumstances should any 
#such information or interpretation be relied upon as the sole basis for any drilling, 
#completion, production, or financial decision or any procedure involving any risk to the 
#safety of any drilling venture, drilling rig or its crew or any other third party.  The 
#Customer has full responsibility for all drilling, completion and production operation.  
#Halliburton makes no representations or warranties, either expressed or 
#implied, including, but not limited to, the implied warranties of merchantability or fitness 
#for a particular purpose, with respect to the services rendered.  In no event will 
#Halliburton be liable for failure to obtain any particular results or for 
#any damages, including, but not limited to, indirect, special or consequential damages, 
#resulting from the use of any information or interpretation provided by Halliburton.
#
~A           TIME           GTDEPTH  GTPQH  GTTQ  GTTN  GTET   GTTVD  
# ...
   02:52:46.283.27-Apr-2021 3242.51 4253.33 72.47 3.00 138.03 2657.85
   02:52:46.483.27-Apr-2021 3242.51 4253.33 72.47 3.00 138.23 2657.85
   02:52:46.683.27-Apr-2021 3242.51 4252.83 72.47 3.00 138.43 2657.85
   02:52:46.883.27-Apr-2021 3242.51 4252.24 72.47 3.00 138.63 2657.85
   02:52:47.083.27-Apr-2021 3242.51 4253.30 72.47 3.00 138.83 2657.85
   02:52:47.283.27-Apr-2021 3242.51 4253.46 72.47 3.00 139.03 2657.85
   02:52:47.483.27-Apr-2021 3242.51 4253.46 72.47 3.00 139.23 2657.85
   02:52:47.683.27-Apr-2021 3242.51 4252.56 72.47 3.00 139.43 2657.85
   02:52:47.883.27-Apr-2021 3242.51 4252.69 72.46 3.00 139.63 2657.85
   02:52:48.083.27-Apr-2021 3242.51 4250.79 72.46 3.00 139.83 2657.85
   02:52:48.283.27-Apr-2021 3242.51 4253.11 72.46 3.00 140.03 2657.85
   02:52:48.483.27-Apr-2021 3242.51 4253.11 72.46 3.00 140.23 2657.85
   02:52:48.683.27-Apr-2021 3242.51 4253.08 72.46 3.00 140.43 2657.85
   02:52:48.883.27-Apr-2021 3242.51 4295.45 72.46 3.00 140.63 2657.85
   02:52:49.083.27-Apr-2021 3242.51 4309.24 72.46 3.00 140.83 2657.85
   02:52:49.283.27-Apr-2021 3242.51 4310.60 72.46 3.00 141.03 2657.85
   02:52:49.483.27-Apr-2021 3242.51 4310.60 72.46 3.00 141.23 2657.85
   02:52:49.683.27-Apr-2021 3242.51 4312.10 72.46 3.00 141.43 2657.85
   02:52:49.883.27-Apr-2021 3242.51 4312.52 72.46 3.00 141.63 2657.85
   02:52:50.083.27-Apr-2021 3242.51 4312.93 72.46 3.00 141.83 2657.85
   02:52:50.283.27-Apr-2021 3242.51 4313.23 72.46 3.00 142.03 2657.85
   02:52:50.483.27-Apr-2021 3242.51 4313.23 72.46 3.00 142.23 2657.85
   02:52:50.683.27-Apr-2021 3242.51 4313.50 72.46 3.00 142.43 2657.85
   02:52:50.884.27-Apr-2021 3242.51 4314.32 72.46 3.00 142.63 2657.85
   02:52:51.084.27-Apr-2021 3242.51 4314.58 72.46 3.00 142.83 2657.85
   02:52:51.284.27-Apr-2021 3242.51 4314.67 72.46 3.00 143.03 2657.85
   02:52:51.484.27-Apr-2021 3242.51 4314.67 72.46 3.00 143.23 2657.85
   02:52:51.684.27-Apr-2021 3242.51 4314.94 72.46 3.00 143.43 2657.85
   02:52:51.884.27-Apr-2021 3242.51 4315.06 72.46 3.00 143.63 2657.85
   02:52:52.084.27-Apr-2021 3242.51 4315.23 72.46 3.00 143.83 2657.85
   02:52:52.284.27-Apr-2021 3242.51 4315.38 72.45 3.00 144.03 2657.85
   02:52:52.484.27-Apr-2021 3242.51 4315.38 72.45 3.00 144.23 2657.85
   02:52:52.684.27-Apr-2021 3242.51 4315.55 72.45 3.00 144.43 2657.85
   02:52:52.884.27-Apr-2021 3242.51 4315.61 72.45 3.00 144.63 2657.85
   02:52:53.084.27-Apr-2021 3242.51 4315.68 72.45 3.00 144.83 2657.85
   02:52:53.284.27-Apr-2021 3242.51 4315.77 72.45 3.00 145.03 2657.85
   02:52:53.484.27-Apr-2021 3242.51 4315.77 72.45 3.00 145.23 2657.85
   02:52:53.684.27-Apr-2021 3242.51 4316.14 72.45 3.00 145.43 2657.85
   02:52:53.884.27-Apr-2021 3242.51 4316.30 72.45 3.00 145.63 2657.85
   02:52:54.084.27-Apr-2021 3242.51 4316.31 72.45 3.00 145.83 2657.85
   02:52:54.284.27-Apr-2021 3242.51 4316.37 72.45 3.00 146.03 2657.85
   02:52:54.484.27-Apr-2021 3242.51 4316.37 72.45 3.00 146.23 2657.85
   02:52:54.684.27-Apr-2021 3242.51 4316.33 72.45 3.00 146.43 2657.85
   02:52:54.884.27-Apr-2021 3242.51 4316.63 72.45 3.00 146.63 2657.85
   02:52:55.084.27-Apr-2021 3242.51 4316.75 72.45 3.00 146.83 2657.85
   02:52:55.284.27-Apr-2021 3242.51 4316.74 72.45 3.00 147.03 2657.85
   02:52:55.484.27-Apr-2021 3242.51 4316.74 72.45 3.00 147.23 2657.85
   02:52:55.684.27-Apr-2021 3242.51 4316.75 72.45 3.00 147.43 2657.85
   02:52:55.884.27-Apr-2021 3242.51 4316.90 72.45 3.00 147.63 2657.85
   02:52:56.085.27-Apr-2021 3242.51 4316.98 72.45 3.00 147.83 2657.85
   02:52:56.285.27-Apr-2021 3242.51 4316.97 72.45 3.00 148.03 2657.85
   02:52:56.485.27-Apr-2021 3242.51 4316.97 72.45 3.00 148.23 2657.85
   02:52:56.685.27-Apr-2021 3242.51 4316.81 72.44 3.00 148.43 2657.85
   02:52:56.885.27-Apr-2021 3242.51 4317.03 72.44 3.00 148.63 2657.85
   02:52:57.085.27-Apr-2021 3242.51 4317.24 72.44 3.00 148.83 2657.85
   02:52:57.285.27-Apr-2021 3242.51 4317.18 72.44 3.00 149.03 2657.85
   02:52:57.485.27-Apr-2021 3242.51 4317.18 72.44 3.00 149.23 2657.85
   02:52:57.685.27-Apr-2021 3242.51 4317.20 72.44 3.00 149.43 2657.85
   02:52:57.885.27-Apr-2021 3242.51 4317.24 72.44 3.00 149.63 2657.85
   02:52:58.085.27-Apr-2021 3242.51 4317.33 72.44 3.00 149.83 2657.85
   02:52:58.285.27-Apr-2021 3242.51 4317.29 72.44 3.00 150.03 2657.85
   02:52:58.485.27-Apr-2021 3242.51 4317.29 72.44 3.00 150.23 2657.85
   02:52:58.685.27-Apr-2021 3242.51 4317.31 72.44 3.00 150.43 2657.85
   02:52:58.885.27-Apr-2021 3242.51 4317.35 72.44 3.00 150.63 2657.85
   02:52:59.085.27-Apr-2021 3242.51 4317.29 72.44 3.00 150.83 2657.85
   02:52:59.285.27-Apr-2021 3242.51 4317.25 72.44 3.00 151.03 2657.85
   02:52:59.485.27-Apr-2021 3242.51 4317.25 72.44 3.00 151.23 2657.85
   02:52:59.685.27-Apr-2021 3242.51 4317.58 72.44 3.00 151.43 2657.85
   02:52:59.885.27-Apr-2021 3242.51 4317.60 72.44 3.00 151.63 2657.85
   02:53:00.085.27-Apr-2021 3242.51 4317.61 72.44 3.00 151.83 2657.85
   02:53:00.285.27-Apr-2021 3242.51 4317.61 72.44 3.00 152.03 2657.85
   02:53:00.485.27-Apr-2021 3242.51 4317.61 72.44 3.00 152.23 2657.85
   02:53:00.685.27-Apr-2021 3242.51 4317.68 72.44 3.00 152.43 2657.85
   02:53:00.885.27-Apr-2021 3242.51 4317.70 72.44 3.00 152.63 2657.85
   02:53:01.086.27-Apr-2021 3242.51 4317.65 72.44 3.00 152.83 2657.85
   02:53:01.286.27-Apr-2021 3242.51 4317.68 72.43 3.00 153.03 2657.85
   02:53:01.486.27-Apr-2021 3242.51 4317.68 72.43 3.00 153.23 2657.85
   02:53:01.686.27-Apr-2021 3242.51 4317.76 72.43 3.00 153.43 2657.85
   02:53:01.886.27-Apr-2021 3242.51 4317.62 72.43 3.00 153.63 2657.85
   02:53:02.086.27-Apr-2021 3242.51 4317.58 72.43 3.00 153.83 2657.85
   02:53:02.286.27-Apr-2021 3242.51 4317.78 72.43 3.00 154.03 2657.85
   02:53:02.486.27-Apr-2021 3242.51 4317.78 72.43 3.00 154.23 2657.85
   02:53:02.686.27-Apr-2021 3242.51 4317.92 72.43 3.00 154.43 2657.85
   02:53:02.886.27-Apr-2021 3242.51 4317.93 72.43 3.00 154.63 2657.85
   02:53:03.086.27-Apr-2021 3242.51 4317.55 72.43 3.00 154.83 2657.85
   02:53:03.286.27-Apr-2021 3242.51 4317.92 72.43 3.00 155.03 2657.85
   02:53:03.486.27-Apr-2021 3242.51 4317.92 72.43 3.00 155.23 2657.85
   02:53:03.686.27-Apr-2021 3242.51 4318.05 72.43 3.00 155.43 2657.85
   02:53:03.886.27-Apr-2021 3242.51 4318.05 72.43 3.00 155.63 2657.85
   02:53:04.086.27-Apr-2021 3242.51 4318.01 72.43 3.00 155.83 2657.85
   02:53:04.286.27-Apr-2021 3242.51 4317.59 72.43 3.00 156.03 2657.85
   02:53:04.486.27-Apr-2021 3242.51 4317.59 72.43 3.00 156.23 2657.85
   02:53:04.686.27-Apr-2021 3242.51 4318.19 72.43 3.00 156.43 2657.85
   02:53:04.886.27-Apr-2021 3242.51 4318.09 72.43 3.00 156.63 2657.85
   02:53:05.086.27-Apr-2021 3242.51 4318.11 72.43 3.00 156.83 2657.85
   02:53:05.286.27-Apr-2021 3242.51 4318.07 72.43 3.00 157.03 2657.85
   02:53:05.486.27-Apr-2021 3242.51 4318.07 72.43 3.00 157.23 2657.85
   02:53:05.686.27-Apr-2021 3242.51 4318.19 72.42 3.00 157.43 2657.85
   02:53:05.886.27-Apr-2021 3242.51 4318.34 72.42 3.00 157.63 2657.85
   02:53:06.087.27-Apr-2021 3242.51 4318.23 72.42 3.00 157.83 2657.85
   02:53:06.287.27-Apr-2021 3242.51 4318.18 72.42 3.00 158.03 2657.85
   02:53:06.487.27-Apr-2021 3242.51 4318.18 72.42 3.00 158.23 2657.85
   02:53:06.687.27-Apr-2021 3242.51 4318.18 72.42 3.00 158.43 2657.85
   02:53:06.887.27-Apr-2021 3242.51 4318.25 72.42 3.00 158.63 2657.85
   02:53:07.087.27-Apr-2021 3242.51 4318.27 72.42 3.00 158.83 2657.85
   02:53:07.287.27-Apr-2021 3242.51 4318.23 72.42 3.00 159.03 2657.85
   02:53:07.487.27-Apr-2021 3242.51 4318.23 72.42 3.00 159.23 2657.85
   02:53:07.687.27-Apr-2021 3242.51 4318.19 72.42 3.00 159.43 2657.85
   02:53:07.887.27-Apr-2021 3242.51 4318.26 72.42 3.00 159.63 2657.85
   02:53:08.087.27-Apr-2021 3242.51 4317.86 72.42 3.00 159.83 2657.85
   02:53:08.287.27-Apr-2021 3242.51 4318.28 72.42 3.00 160.03 2657.85
   02:53:08.487.27-Apr-2021 3242.51 4318.28 72.42 3.00 160.23 2657.85
   02:53:08.687.27-Apr-2021 3242.51 4318.33 72.42 3.00 160.43 2657.85
   02:53:08.887.27-Apr-2021 3242.51 4318.38 72.42 3.00 160.63 2657.85
   02:53:09.087.27-Apr-2021 3242.51 4318.38 72.42 3.00 160.83 2657.85
