~Version Information
 VERS.                  2.0:   CWLS log ASCII Standard -VERSION 2.0
 WRAP.                   NO:   One line per depth step
~Well Information Block
#MNEM.UNIT     VALUE/NAME     DESCRIPTION
#---------     -----------    ---------------------------
 STRT.S             03:12:46 28-Apr-21: START TIME 03:12:46 28-Apr-21
 STOP.S             03:19:14 28-Apr-21: STOP TIME  03:19:14 28-Apr-21
 STEP.S                   0.00: STEP TIME
 NULL.                 -999.25: NULL VALUE
 DFWT.                        :  DIST FWL TEXT
 DFST.                        :  DIST FSL TEXT
 DMF .             Drill Floor:  DRILL MEAS FROM
 STIM.      02.00.00 12-Apr-21:  START TIME
 DATE.      02.00.00 02-May-21:  END TIME
 SPUD.               09-Apr-21:  SPUD DATE
 NREF.                    Grid:  NORTH REFERENCE
 HPTY.       Minimum Curvature:  HOLE POS TYPE
 DMOD.             Drill Model:  DRILL MOD DESC
 SVYD.                  Survey:  SURVEY DESC
 ILTD.               Lithology:  INTERP LTH DESC
 FTOP.          Formation Tops:  FORM TOPS DESC
 PDAT.          Mean Sea Level:  PERMANENT DATUM
 FLD .                     ACG:  FIELD NAME
 SON .        AZ-XX-0907021034:  JOB NUMBER
 CTRY.              Azerbaijan:  COUNTRY NAME
 WELL.                    E01x:  WELL NAME
 COMP.     BP Exploration (Caspian Sea) LTD.:  COMPANY
 UWI .            /AZE00001403:  UNIQUE WELL IDENTIFIER
 API .            /AZE00001403:  API NUMBER
 WTYP.                Deviated:  WELL TYPE
 MDS .        Operator Entered:  MAG DATA SOURCE
 BASE.              Azerbaijan:  LOGGING EQUIPMENT BASE LOCATION
 REGN.                   EESSA:  REGION
 PROV.                    Baku:  PROVINCE
 STAT.                    Baku:  STATE NAME
 SRVC.          Turan Drilling:  CONTRACTOR
 MWDS.                    Baku:  MWD SHOP
 JOBN.        AZ-XX-0907021034:  JOB TICKET NUMB
 RIG .                     DWG:  RIG NAME
 DOE .                     N/A:  DOE NUMBER
 DCON.         Sperry Drilling:  DIRECTNL CONTR
 UNIT.                     N/A:  LOGGING EQUIPMENT ID
 CNTY.                        :  COUNTY
 LOC .                        :  LOCATION
 LMF .             Drill Floor:  LOG MEASURED FROM
 TVDS.m                  43.16:  TVDSS CORRECTN
 LATI.deg                40.17:  LATITUDE
 LONG.deg                51.17:  LONGITUDE
 WHNS.m                  -5.90:  WELL HEAD N/S
 WHEW.m                  -6.61:  WELL HEAD E/W
 UTMX.m              514337.95:  UTM X
 UTMY.m             4448627.46:  UTM Y
 DFWL.m                   0.00:  DISTANCE FWL
 DFSL.m                   0.00:  DISTANCE FSL
 SDEP.m                2606.87:  START DEPTH
 TDD .m                3618.01:  TOTAL DEPTH (DRILLER)
 VSDR.deg               177.42:  VERT SEC DIRECT
 GVFD.g                   1.00:  GRAVITY FIELD
 MFLD.nT              50399.00:  MAGNETIC FIELD
 MDIP.deg                59.67:  MAGNETIC DIP
 MDEC.deg                 6.56:  MAGNETIC DECL
 GRDC.deg                 0.11:  GRID CORRECTION
 AZTC.deg                 6.45:  AZM TOTAL CORR
 EPD .m                   0.00:  ELEVATION
 EGL .m                   0.00:  GROUND ELEVATION
 WDMS.m                 176.20:  WD ELEV
 APD .m                  43.16:  DEPTH ABOVE PD
 DEP .m                2606.87:  DEPTH
 AGAP.m                  43.16:  AIR GAP
 VSEW.m                  -6.61:  VERT SEC E/W
 VSNS.m                  -5.90:  VERT SEC N/S
 EKB .m                  43.16:  KB ELEVATION
 EDF .m                  43.16:  DF ELEVATION
 TDL .m                 438.00:  TOTAL DEPTH (LOGGER)
 VSC .                       0:  VS TO CLOSURE
 MAGU.                 1855490:  MAGUTM CHECKSUM
~Parameter Information Block
#MNEM.UNIT       Value        Description
#---------     -----------    ---------------------------
 AV  .mps                 2.20:  Ann Velocity 
 AVMX.mps                 2.50:  Max Ann Veloc 
 AZIF.deg               150.21:  Azm, Final 
 BHAT.        Rotary Steerable:  BHA Type 
 BROT.°/30m               0.08:  Build Rotating 
 BS  .in                  6.50:  Bit Size 
 BSZ .in                  6.50:  Bit Size 
 BTPL.psig              108.00:  Bit Press Loss 
 CABU.                     Yes:  Customer Abuse 
 CGEO.           Emin Aliyarli:  Customer Geo 
 COMM.                     ¬¼r:  Run Comments 1 
 TCS .hr                 74.20:  Time Ciculation Ended 
 CV  .mps                 3.63:  Crit Velocity 
 CVMX.mps                 3.66:  Max Crit Veloc 
 DD1 .         Intigam Rahimov:  Direct Drillr 1 
 DD2 .          Teymur Aghayev:  Direct Drillr 2 
 DDSV.               Geo-Pilot:  DD Service 
 DEFF.%                  97.00:  % Det Eff 
 DLRX.°/30m               1.63:  Dogleg Rot Max 
 DLSO.°/30m               0.00:  Dogleg Oriented 
 DLSX.°/30m               0.00:  Dogleg Str Max 
 DRET.      20.20.00 28-Apr-21:  Drill End Time 
 DRST.      04.45.00 26-Apr-21:  Drill Start Tim 
 DTIM.hr                 34.30:  Time Drilling 
 EDEP.m                3618.01:  End Depth 
 ENG1.           Amrah Tahirov:  Engineer 1 
 ENG2.         Bahruz Mehdiyev:  Engineer 2 
 ENG3.         Farhad Orujzade:  Engineer 3 
 ETIM.      19.00.00 29-Apr-21:  End Time 
 FLOI.gpm               370.00:  Flow In 
 FLON.gpm               300.00:  Flow In Min 
 FLOS.cptm                0.00:  Fluid Loss 
 FLOX.gpm               410.00:  Flow In Max 
 HFLO.                      No:  High Flow 
 HPRE.                      No:  High Pressure 
 HTEM.                      No:  High Temp 
 HYDO.m                   1.80:  Hydro Offset 
 IFIN.deg                67.19:  Inc, Final 
 IMAX.deg                68.42:  Inc Max 
 IMIN.deg                66.33:  Inc Min 
 IMND.m                3532.79:  Inc Min Depth 
 IMXD.m                3192.15:  Inc Max Depth 
 JARR.                      No:  Jarring 
 LETM.      20.20.00 28-Apr-21:  Log End Time 
 LOST.hr                     0:  Lost Rig Time 
 LSTM.      04.45.00 26-Apr-21:  Log Start Time 
 MDCL.ppm             36500.00:  Mud Chlorides 
 MDES.     Inversion Oil/Synthetic:  Mud Desc 
 DFD .sg                  1.42:  Mud Density 
 MDMN.sg                  1.42:  Dens Mud Min 
 MDMX.sg                  1.42:  Dens Mud Max 
 MOIL.                    55.7:  Run Mud Oil % 
 MOWR.                   71:29:  Run Mud OWR 
 MSND.                     0.1:  Run Mud Sand % 
 MSOL.                    19.9:  Run Mud Solids% 
 DFV .spqt               83.00:  Mud Viscosity 
 MWOD.in                  5.15:  MWD Tool OD 
 MWSI.                      No:  Serv Intrp, MWD 
 OTIM.hr                120.59:  Time Operating 
 PCON.           Look Like New:  Pad Condition 
 PMAX.psia            11292.93:  Press Op, Max 
 PV  .cP                 27.00:  Mud PV 
 RUN .                     400:  Run Number 
 ROPA.m/hr               14.00:  ROP Avg 
 ROPN.m/hr                9.00:  ROP Min 
 ROPX.m/hr               18.00:  ROP Max 
 RPMA.rpm               130.00:  RPM Surface Avg 
 RPMN.rpm               100.00:  RPM Surface Min 
 RPMX.rpm               140.00:  RPM Surface Max 
 RRUN.                    0400:  Rig Run Number 
 RTIM.hr                 38.60:  Time Reaming 
 SAZI.deg               149.55:  Azm, Start 
 SDEP.m                3180.01:  Start Depth 
 SIDD.                      No:  Serv Intrp, DD 
 SINC.deg                68.42:  Inc, Start 
 SPPA.psig             4400.00:  SPP Avg 
 SPPN.psig             3580.00:  SPP Min 
 SPPX.psig             4850.00:  SPP Max 
 STIM.      12.30.00 24-Apr-21:  Start Time 
 SVCS.                 DD, MWD:  Services 
 SVER.                    9.20:  Sperry Version 
 TDAT.m                 438.00:  Tot Depth Attmp 
 TDDF.                      No:  Trip for DD 
 TDLG.m                 438.00:  Tot Depth Loggd 
 TFF .                      No:  Trip for Fail 
 TQAA.f-kp               11.00:  Torque Abs Avg 
 TQAN.f-kp                9.00:  Torque Abs Min 
 TQAX.f-kp               14.00:  Torque Abs Max 
 TRRT.°/30m               0.04:  Turn Rotating 
 MRT .                    HCIM:  Maximum Recorded Temperature 
 TTMX.degC               84.31:  Max Tool Temp 
 VS01.                90521954:  Virtual Str1 SN 
 VS02.                90519327:  Virtual Str2 SN 
 VS03.                90522273:  Virtual Str3 SN 
 VS04.                11108038:  Virtual Str4 SN 
 VS05.                12258760:  Virtual Str5 SN 
 WBMN.klb                 1.00:  WOB Min 
 WITN.           Adil Mammadov:  Customer Rep 
 WITN.         Alex Yadullayev:  Customer Rep 2 
 WOBA.klb                 6.00:  WOB Avg 
 WOBX.klb                 9.00:  WOB Max 
 YP  .lhf2               31.00:  Yield Point 
~Curve Information Block
#MNEM.UNIT                 API CODE     Curve Description
#---------               -----------    ---------------------------
 TIME.HHMMSS            00 000 000 000:  GT Time & Date
 GTDEPTH.m              00 000 000 000:  GT Depth
 GTPQH.psia             00 000 000 000:  GT HR Quartz Pressure
 GTTQ.degC              00 000 000 000:  GT Quartz Temperature
 GTTN.NONE              00 000 000 000:  GT Test Number
 GTET.sec               00 000 000 000:  GT Elapsed Test Time
 GTTVD.m                00 000 000 000:  GT True Vertical Depth
#Other Information
#
#WARRANTY: Halliburton will use its best efforts to furnish customers with 
#accurate information and interpretations that are part of, and incident to, the services 
#provided.  However, Halliburton cannot and does not warrant the accuracy 
#or correctness of such information and interpretations.  Under no circumstances should any 
#such information or interpretation be relied upon as the sole basis for any drilling, 
#completion, production, or financial decision or any procedure involving any risk to the 
#safety of any drilling venture, drilling rig or its crew or any other third party.  The 
#Customer has full responsibility for all drilling, completion and production operation.  
#Halliburton makes no representations or warranties, either expressed or 
#implied, including, but not limited to, the implied warranties of merchantability or fitness 
#for a particular purpose, with respect to the services rendered.  In no event will 
#Halliburton be liable for failure to obtain any particular results or for 
#any damages, including, but not limited to, indirect, special or consequential damages, 
#resulting from the use of any information or interpretation provided by Halliburton.
#
~A           TIME           GTDEPTH  GTPQH  GTTQ  GTTN  GTET   GTTVD  
# ...
   03:18:54.865.28-Apr-2021 3448.01 6041.64 71.77 7.00 368.05 2738.99
   03:18:55.065.28-Apr-2021 3448.01 6041.64 71.77 7.00 368.25 2738.99
   03:18:55.266.28-Apr-2021 3448.01 6041.31 71.77 7.00 368.45 2738.99
   03:18:55.466.28-Apr-2021 3448.01 6040.49 71.77 7.00 368.65 2738.99
   03:18:55.666.28-Apr-2021 3448.01 6039.62 71.77 7.00 368.85 2738.99
   03:18:55.866.28-Apr-2021 3448.01 6041.98 71.77 7.00 369.05 2738.99
   03:18:56.066.28-Apr-2021 3448.01 6041.98 71.77 7.00 369.25 2738.99
   03:18:56.266.28-Apr-2021 3448.01 6042.45 71.77 7.00 369.45 2738.99
   03:18:56.466.28-Apr-2021 3448.01 6041.20 71.77 7.00 369.65 2738.99
   03:18:56.666.28-Apr-2021 3448.01 6043.01 71.77 7.00 369.85 2738.99
   03:18:56.866.28-Apr-2021 3448.01 6041.06 71.77 7.00 370.05 2738.99
   03:18:57.066.28-Apr-2021 3448.01 6041.06 71.77 7.00 370.25 2738.99
   03:18:57.266.28-Apr-2021 3448.01 6042.51 71.77 7.00 370.45 2738.99
   03:18:57.466.28-Apr-2021 3448.01 6042.53 71.77 7.00 370.65 2738.99
   03:18:57.666.28-Apr-2021 3448.01 6038.77 71.77 7.00 370.85 2738.99
   03:18:57.866.28-Apr-2021 3448.01 6042.31 71.77 7.00 371.05 2738.99
   03:18:58.066.28-Apr-2021 3448.01 6042.31 71.77 7.00 371.25 2738.99
   03:18:58.266.28-Apr-2021 3448.01 6043.17 71.77 7.00 371.45 2738.99
   03:18:58.466.28-Apr-2021 3448.01 6041.29 71.77 7.00 371.65 2738.99
   03:18:58.666.28-Apr-2021 3448.01 6042.19 71.77 7.00 371.85 2738.99
   03:18:58.866.28-Apr-2021 3448.01 6039.14 71.77 7.00 372.05 2738.99
   03:18:59.066.28-Apr-2021 3448.01 6039.14 71.77 7.00 372.25 2738.99
   03:18:59.266.28-Apr-2021 3448.01 6042.34 71.76 7.00 372.45 2738.99
   03:18:59.466.28-Apr-2021 3448.01 6044.20 71.76 7.00 372.65 2738.99
   03:18:59.666.28-Apr-2021 3448.01 6038.07 71.76 7.00 372.85 2738.99
   03:18:59.866.28-Apr-2021 3448.01 6039.06 71.76 7.00 373.05 2738.99
   03:19:00.066.28-Apr-2021 3448.01 6039.06 71.76 7.00 373.25 2738.99
   03:19:00.266.28-Apr-2021 3448.01 6040.95 71.76 7.00 373.46 2738.99
   03:19:00.466.28-Apr-2021 3448.01 6043.57 71.76 7.00 373.66 2738.99
   03:19:00.666.28-Apr-2021 3448.01 6035.21 71.76 7.00 373.86 2738.99
   03:19:00.866.28-Apr-2021 3448.01 6042.97 71.76 7.00 374.06 2738.99
   03:19:01.066.28-Apr-2021 3448.01 6042.97 71.76 7.00 374.26 2738.99
   03:19:01.266.28-Apr-2021 3448.01 6039.86 71.76 7.00 374.46 2738.99
   03:19:01.466.28-Apr-2021 3448.01 6043.54 71.76 7.00 374.66 2738.99
   03:19:01.666.28-Apr-2021 3448.01 6040.96 71.76 7.00 374.86 2738.99
   03:19:01.867.28-Apr-2021 3448.01 6044.06 71.76 7.00 375.06 2738.99
   03:19:02.067.28-Apr-2021 3448.01 6044.06 71.76 7.00 375.26 2738.99
   03:19:02.267.28-Apr-2021 3448.01 6042.25 71.76 7.00 375.46 2738.99
   03:19:02.467.28-Apr-2021 3448.01 6043.25 71.76 7.00 375.66 2738.99
   03:19:02.667.28-Apr-2021 3448.01 6029.68 71.76 7.00 375.86 2738.99
   03:19:02.867.28-Apr-2021 3448.01 6043.57 71.76 7.00 376.06 2738.99
   03:19:03.067.28-Apr-2021 3448.01 6043.57 71.76 7.00 376.26 2738.99
   03:19:03.267.28-Apr-2021 3448.01 6040.29 71.76 7.00 376.46 2738.99
   03:19:03.467.28-Apr-2021 3448.01 6038.64 71.76 7.00 376.66 2738.99
   03:19:03.667.28-Apr-2021 3448.01 6040.84 71.76 7.00 376.86 2738.99
   03:19:03.867.28-Apr-2021 3448.01 6040.94 71.76 7.00 377.06 2738.99
   03:19:04.067.28-Apr-2021 3448.01 6040.94 71.76 7.00 377.26 2738.99
   03:19:04.267.28-Apr-2021 3448.01 6041.52 71.76 7.00 377.46 2738.99
   03:19:04.467.28-Apr-2021 3448.01 6040.92 71.76 7.00 377.66 2738.99
   03:19:04.667.28-Apr-2021 3448.01 6044.29 71.76 7.00 377.86 2738.99
   03:19:04.867.28-Apr-2021 3448.01 6040.14 71.76 7.00 378.06 2738.99
   03:19:05.067.28-Apr-2021 3448.01 6040.14 71.76 7.00 378.26 2738.99
   03:19:05.267.28-Apr-2021 3448.01 6042.91 71.75 7.00 378.46 2738.99
   03:19:05.467.28-Apr-2021 3448.01 6037.97 71.75 7.00 378.66 2738.99
   03:19:05.667.28-Apr-2021 3448.01 6037.92 71.75 7.00 378.86 2738.99
   03:19:05.867.28-Apr-2021 3448.01 6040.23 71.75 7.00 379.06 2738.99
   03:19:06.067.28-Apr-2021 3448.01 6040.23 71.75 7.00 379.26 2738.99
   03:19:06.267.28-Apr-2021 3448.01 6036.87 71.75 7.00 379.46 2738.99
   03:19:06.467.28-Apr-2021 3448.01 6043.42 71.75 7.00 379.66 2738.99
   03:19:06.667.28-Apr-2021 3448.01 6030.10 71.75 7.00 379.86 2738.99
   03:19:06.867.28-Apr-2021 3448.01 6043.26 71.75 7.00 380.06 2738.99
   03:19:07.067.28-Apr-2021 3448.01 6043.26 71.75 7.00 380.26 2738.99
   03:19:07.267.28-Apr-2021 3448.01 6037.52 71.75 7.00 380.46 2738.99
   03:19:07.467.28-Apr-2021 3448.01 6039.73 71.75 7.00 380.66 2738.99
   03:19:07.667.28-Apr-2021 3448.01 6037.53 71.75 7.00 380.86 2738.99
   03:19:07.867.28-Apr-2021 3448.01 6041.52 71.75 7.00 381.06 2738.99
   03:19:08.067.28-Apr-2021 3448.01 6041.52 71.75 7.00 381.26 2738.99
   03:19:08.267.28-Apr-2021 3448.01 6034.81 71.75 7.00 381.46 2738.99
   03:19:08.467.28-Apr-2021 3448.01 6034.41 71.75 7.00 381.66 2738.99
   03:19:08.668.28-Apr-2021 3448.01 6041.63 71.75 7.00 381.86 2738.99
   03:19:08.868.28-Apr-2021 3448.01 6042.98 71.75 7.00 382.06 2738.99
   03:19:09.068.28-Apr-2021 3448.01 6042.98 71.75 7.00 382.26 2738.99
   03:19:09.268.28-Apr-2021 3448.01 6041.92 71.75 7.00 382.46 2738.99
   03:19:09.468.28-Apr-2021 3448.01 6043.01 71.75 7.00 382.66 2738.99
   03:19:09.668.28-Apr-2021 3448.01 6041.10 71.75 7.00 382.86 2738.99
   03:19:09.868.28-Apr-2021 3448.01 6041.64 71.75 7.00 383.06 2738.99
   03:19:10.068.28-Apr-2021 3448.01 6041.64 71.75 7.00 383.26 2738.99
   03:19:10.268.28-Apr-2021 3448.01 6045.06 71.75 7.00 383.46 2738.99
   03:19:10.468.28-Apr-2021 3448.01 6042.13 71.75 7.00 383.66 2738.99
   03:19:10.668.28-Apr-2021 3448.01 6042.47 71.75 7.00 383.86 2738.99
   03:19:10.868.28-Apr-2021 3448.01 6043.20 71.74 7.00 384.06 2738.99
   03:19:11.068.28-Apr-2021 3448.01 6043.20 71.74 7.00 384.26 2738.99
   03:19:11.268.28-Apr-2021 3448.01 6030.19 71.74 7.00 384.46 2738.99
   03:19:11.468.28-Apr-2021 3448.01 6041.10 71.74 7.00 384.66 2738.99
   03:19:11.668.28-Apr-2021 3448.01 6038.94 71.74 7.00 384.86 2738.99
   03:19:11.868.28-Apr-2021 3448.01 6039.94 71.74 7.00 385.06 2738.99
   03:19:12.068.28-Apr-2021 3448.01 6039.94 71.74 7.00 385.26 2738.99
   03:19:12.268.28-Apr-2021 3448.01 6040.16 71.74 7.00 385.46 2738.99
   03:19:12.468.28-Apr-2021 3448.01 6039.34 71.74 7.00 385.66 2738.99
   03:19:12.668.28-Apr-2021 3448.01 6040.58 71.74 7.00 385.86 2738.99
   03:19:12.868.28-Apr-2021 3448.01 6040.18 71.74 7.00 386.06 2738.99
   03:19:13.068.28-Apr-2021 3448.01 6040.18 71.74 7.00 386.26 2738.99
   03:19:13.268.28-Apr-2021 3448.01 6039.71 71.74 7.00 386.46 2738.99
   03:19:13.468.28-Apr-2021 3448.01 6042.79 71.74 7.00 386.66 2738.99
   03:19:13.668.28-Apr-2021 3448.01 6042.33 71.74 7.00 386.86 2738.99
   03:19:13.868.28-Apr-2021 3448.01 6034.28 71.74 7.00 387.06 2738.99
   03:19:14.068.28-Apr-2021 3448.01 6034.28 71.74 7.00 387.26 2738.99
   03:19:14.268.28-Apr-2021 3448.01 6040.42 71.74 7.00 387.46 2738.99
   03:19:14.468.28-Apr-2021 3448.01 6043.67 71.74 7.00 387.66 2738.99
   03:19:14.668.28-Apr-2021 3448.01 6037.19 71.74 7.00 387.86 2738.99
