~Version Information
 VERS.                  2.0:   CWLS log ASCII Standard -VERSION 2.0
 WRAP.                   NO:   One line per depth step
~Well Information Block
#MNEM.UNIT     VALUE/NAME     DESCRIPTION
#---------     -----------    ---------------------------
 STRT.S             13:09:03 28-Apr-21: START TIME 13:09:03 28-Apr-21
 STOP.S             13:15:31 28-Apr-21: STOP TIME  13:15:31 28-Apr-21
 STEP.S                   0.00: STEP TIME
 NULL.                 -999.25: NULL VALUE
 DFWT.                        :  DIST FWL TEXT
 DFST.                        :  DIST FSL TEXT
 DMF .             Drill Floor:  DRILL MEAS FROM
 STIM.      02.00.00 12-Apr-21:  START TIME
 DATE.      02.00.00 02-May-21:  END TIME
 SPUD.               09-Apr-21:  SPUD DATE
 NREF.                    Grid:  NORTH REFERENCE
 HPTY.       Minimum Curvature:  HOLE POS TYPE
 DMOD.             Drill Model:  DRILL MOD DESC
 SVYD.                  Survey:  SURVEY DESC
 ILTD.               Lithology:  INTERP LTH DESC
 FTOP.          Formation Tops:  FORM TOPS DESC
 PDAT.          Mean Sea Level:  PERMANENT DATUM
 FLD .                     ACG:  FIELD NAME
 SON .        AZ-XX-0907021034:  JOB NUMBER
 CTRY.              Azerbaijan:  COUNTRY NAME
 WELL.                    E01x:  WELL NAME
 COMP.     BP Exploration (Caspian Sea) LTD.:  COMPANY
 UWI .            /AZE00001403:  UNIQUE WELL IDENTIFIER
 API .            /AZE00001403:  API NUMBER
 WTYP.                Deviated:  WELL TYPE
 MDS .        Operator Entered:  MAG DATA SOURCE
 BASE.              Azerbaijan:  LOGGING EQUIPMENT BASE LOCATION
 REGN.                   EESSA:  REGION
 PROV.                    Baku:  PROVINCE
 STAT.                    Baku:  STATE NAME
 SRVC.          Turan Drilling:  CONTRACTOR
 MWDS.                    Baku:  MWD SHOP
 JOBN.        AZ-XX-0907021034:  JOB TICKET NUMB
 RIG .                     DWG:  RIG NAME
 DOE .                     N/A:  DOE NUMBER
 DCON.         Sperry Drilling:  DIRECTNL CONTR
 UNIT.                     N/A:  LOGGING EQUIPMENT ID
 CNTY.                        :  COUNTY
 LOC .                        :  LOCATION
 LMF .             Drill Floor:  LOG MEASURED FROM
 TVDS.m                  43.16:  TVDSS CORRECTN
 LATI.deg                40.17:  LATITUDE
 LONG.deg                51.17:  LONGITUDE
 WHNS.m                  -5.90:  WELL HEAD N/S
 WHEW.m                  -6.61:  WELL HEAD E/W
 UTMX.m              514337.95:  UTM X
 UTMY.m             4448627.46:  UTM Y
 DFWL.m                   0.00:  DISTANCE FWL
 DFSL.m                   0.00:  DISTANCE FSL
 SDEP.m                2606.87:  START DEPTH
 TDD .m                3618.01:  TOTAL DEPTH (DRILLER)
 VSDR.deg               177.42:  VERT SEC DIRECT
 GVFD.g                   1.00:  GRAVITY FIELD
 MFLD.nT              50399.00:  MAGNETIC FIELD
 MDIP.deg                59.67:  MAGNETIC DIP
 MDEC.deg                 6.56:  MAGNETIC DECL
 GRDC.deg                 0.11:  GRID CORRECTION
 AZTC.deg                 6.45:  AZM TOTAL CORR
 EPD .m                   0.00:  ELEVATION
 EGL .m                   0.00:  GROUND ELEVATION
 WDMS.m                 176.20:  WD ELEV
 APD .m                  43.16:  DEPTH ABOVE PD
 DEP .m                2606.87:  DEPTH
 AGAP.m                  43.16:  AIR GAP
 VSEW.m                  -6.61:  VERT SEC E/W
 VSNS.m                  -5.90:  VERT SEC N/S
 EKB .m                  43.16:  KB ELEVATION
 EDF .m                  43.16:  DF ELEVATION
 TDL .m                 438.00:  TOTAL DEPTH (LOGGER)
 VSC .                       0:  VS TO CLOSURE
 MAGU.                 1855490:  MAGUTM CHECKSUM
~Parameter Information Block
#MNEM.UNIT       Value        Description
#---------     -----------    ---------------------------
 AV  .mps                 2.20:  Ann Velocity 
 AVMX.mps                 2.50:  Max Ann Veloc 
 AZIF.deg               150.21:  Azm, Final 
 BHAT.        Rotary Steerable:  BHA Type 
 BROT.∞/30m               0.08:  Build Rotating 
 BS  .in                  6.50:  Bit Size 
 BSZ .in                  6.50:  Bit Size 
 BTPL.psig              108.00:  Bit Press Loss 
 CABU.                     Yes:  Customer Abuse 
 CGEO.           Emin Aliyarli:  Customer Geo 
 COMM.                     ‹Ïq:  Run Comments 1 
 TCS .hr                 74.20:  Time Ciculation Ended 
 CV  .mps                 3.63:  Crit Velocity 
 CVMX.mps                 3.66:  Max Crit Veloc 
 DD1 .         Intigam Rahimov:  Direct Drillr 1 
 DD2 .          Teymur Aghayev:  Direct Drillr 2 
 DDSV.               Geo-Pilot:  DD Service 
 DEFF.%                  97.00:  % Det Eff 
 DLRX.∞/30m               1.63:  Dogleg Rot Max 
 DLSO.∞/30m               0.00:  Dogleg Oriented 
 DLSX.∞/30m               0.00:  Dogleg Str Max 
 DRET.      20.20.00 28-Apr-21:  Drill End Time 
 DRST.      04.45.00 26-Apr-21:  Drill Start Tim 
 DTIM.hr                 34.30:  Time Drilling 
 EDEP.m                3618.01:  End Depth 
 ENG1.           Amrah Tahirov:  Engineer 1 
 ENG2.         Bahruz Mehdiyev:  Engineer 2 
 ENG3.         Farhad Orujzade:  Engineer 3 
 ETIM.      19.00.00 29-Apr-21:  End Time 
 FLOI.gpm               370.00:  Flow In 
 FLON.gpm               300.00:  Flow In Min 
 FLOS.cptm                0.00:  Fluid Loss 
 FLOX.gpm               410.00:  Flow In Max 
 HFLO.                      No:  High Flow 
 HPRE.                      No:  High Pressure 
 HTEM.                      No:  High Temp 
 HYDO.m                   1.80:  Hydro Offset 
 IFIN.deg                67.19:  Inc, Final 
 IMAX.deg                68.42:  Inc Max 
 IMIN.deg                66.33:  Inc Min 
 IMND.m                3532.79:  Inc Min Depth 
 IMXD.m                3192.15:  Inc Max Depth 
 JARR.                      No:  Jarring 
 LETM.      20.20.00 28-Apr-21:  Log End Time 
 LOST.hr                     0:  Lost Rig Time 
 LSTM.      04.45.00 26-Apr-21:  Log Start Time 
 MDCL.ppm             36500.00:  Mud Chlorides 
 MDES.     Inversion Oil/Synthetic:  Mud Desc 
 DFD .sg                  1.42:  Mud Density 
 MDMN.sg                  1.42:  Dens Mud Min 
 MDMX.sg                  1.42:  Dens Mud Max 
 MOIL.                    55.7:  Run Mud Oil % 
 MOWR.                   71:29:  Run Mud OWR 
 MSND.                     0.1:  Run Mud Sand % 
 MSOL.                    19.9:  Run Mud Solids% 
 DFV .spqt               83.00:  Mud Viscosity 
 MWOD.in                  5.15:  MWD Tool OD 
 MWSI.                      No:  Serv Intrp, MWD 
 OTIM.hr                120.59:  Time Operating 
 PCON.           Look Like New:  Pad Condition 
 PMAX.psia            11292.93:  Press Op, Max 
 PV  .cP                 27.00:  Mud PV 
 RUN .                     400:  Run Number 
 ROPA.m/hr               14.00:  ROP Avg 
 ROPN.m/hr                9.00:  ROP Min 
 ROPX.m/hr               18.00:  ROP Max 
 RPMA.rpm               130.00:  RPM Surface Avg 
 RPMN.rpm               100.00:  RPM Surface Min 
 RPMX.rpm               140.00:  RPM Surface Max 
 RRUN.                    0400:  Rig Run Number 
 RTIM.hr                 38.60:  Time Reaming 
 SAZI.deg               149.55:  Azm, Start 
 SDEP.m                3180.01:  Start Depth 
 SIDD.                      No:  Serv Intrp, DD 
 SINC.deg                68.42:  Inc, Start 
 SPPA.psig             4400.00:  SPP Avg 
 SPPN.psig             3580.00:  SPP Min 
 SPPX.psig             4850.00:  SPP Max 
 STIM.      12.30.00 24-Apr-21:  Start Time 
 SVCS.                 DD, MWD:  Services 
 SVER.                    9.20:  Sperry Version 
 TDAT.m                 438.00:  Tot Depth Attmp 
 TDDF.                      No:  Trip for DD 
 TDLG.m                 438.00:  Tot Depth Loggd 
 TFF .                      No:  Trip for Fail 
 TQAA.f-kp               11.00:  Torque Abs Avg 
 TQAN.f-kp                9.00:  Torque Abs Min 
 TQAX.f-kp               14.00:  Torque Abs Max 
 TRRT.∞/30m               0.04:  Turn Rotating 
 MRT .                    HCIM:  Maximum Recorded Temperature 
 TTMX.degC               84.31:  Max Tool Temp 
 VS01.                90521954:  Virtual Str1 SN 
 VS02.                90519327:  Virtual Str2 SN 
 VS03.                90522273:  Virtual Str3 SN 
 VS04.                11108038:  Virtual Str4 SN 
 VS05.                12258760:  Virtual Str5 SN 
 WBMN.klb                 1.00:  WOB Min 
 WITN.           Adil Mammadov:  Customer Rep 
 WITN.         Alex Yadullayev:  Customer Rep 2 
 WOBA.klb                 6.00:  WOB Avg 
 WOBX.klb                 9.00:  WOB Max 
 YP  .lhf2               31.00:  Yield Point 
~Curve Information Block
#MNEM.UNIT                 API CODE     Curve Description
#---------               -----------    ---------------------------
 TIME.HHMMSS            00 000 000 000:  GT Time & Date
 GTDEPTH.m              00 000 000 000:  GT Depth
 GTPQH.psia             00 000 000 000:  GT HR Quartz Pressure
 GTTQ.degC              00 000 000 000:  GT Quartz Temperature
 GTTN.NONE              00 000 000 000:  GT Test Number
 GTET.sec               00 000 000 000:  GT Elapsed Test Time
 GTTVD.m                00 000 000 000:  GT True Vertical Depth
#Other Information
#
#WARRANTY: Halliburton will use its best efforts to furnish customers with 
#accurate information and interpretations that are part of, and incident to, the services 
#provided.  However, Halliburton cannot and does not warrant the accuracy 
#or correctness of such information and interpretations.  Under no circumstances should any 
#such information or interpretation be relied upon as the sole basis for any drilling, 
#completion, production, or financial decision or any procedure involving any risk to the 
#safety of any drilling venture, drilling rig or its crew or any other third party.  The 
#Customer has full responsibility for all drilling, completion and production operation.  
#Halliburton makes no representations or warranties, either expressed or 
#implied, including, but not limited to, the implied warranties of merchantability or fitness 
#for a particular purpose, with respect to the services rendered.  In no event will 
#Halliburton be liable for failure to obtain any particular results or for 
#any damages, including, but not limited to, indirect, special or consequential damages, 
#resulting from the use of any information or interpretation provided by Halliburton.
#
~A           TIME           GTDEPTH  GTPQH  GTTQ  GTTN  GTET   GTTVD  
# ...
   13:09:26.431.28-Apr-2021 3524.51 6997.51 75.48 9.00  23.00 2768.78
   13:09:26.631.28-Apr-2021 3524.51 6997.51 75.48 9.00  23.20 2768.78
   13:09:26.831.28-Apr-2021 3524.51 5996.92 75.48 9.00  23.40 2768.78
   13:09:27.031.28-Apr-2021 3524.51 5479.62 75.48 9.00  23.60 2768.78
   13:09:27.231.28-Apr-2021 3524.51 4830.34 75.48 9.00  23.80 2768.78
   13:09:27.431.28-Apr-2021 3524.51 4328.99 75.48 9.00  24.00 2768.78
   13:09:27.631.28-Apr-2021 3524.51 4328.99 75.48 9.00  24.20 2768.78
   13:09:27.831.28-Apr-2021 3524.51 4316.35 75.48 9.00  24.40 2768.78
   13:09:28.031.28-Apr-2021 3524.51 4316.76 75.48 9.00  24.60 2768.78
   13:09:28.231.28-Apr-2021 3524.51 4315.95 75.48 9.00  24.80 2768.78
   13:09:28.431.28-Apr-2021 3524.51 4315.90 75.47 9.00  25.00 2768.78
   13:09:28.631.28-Apr-2021 3524.51 4315.90 75.47 9.00  25.20 2768.78
   13:09:28.831.28-Apr-2021 3524.51 4315.94 75.47 9.00  25.40 2768.78
   13:09:29.031.28-Apr-2021 3524.51 4316.05 75.47 9.00  25.60 2768.78
   13:09:29.231.28-Apr-2021 3524.51 4316.05 75.47 9.00  25.80 2768.78
   13:09:29.432.28-Apr-2021 3524.51 4315.69 75.47 9.00  26.00 2768.78
   13:09:29.632.28-Apr-2021 3524.51 4315.69 75.47 9.00  26.20 2768.78
   13:09:29.832.28-Apr-2021 3524.51 4315.57 75.47 9.00  26.40 2768.78
   13:09:30.032.28-Apr-2021 3524.51 4315.28 75.47 9.00  26.60 2768.78
   13:09:30.232.28-Apr-2021 3524.51 4315.61 75.46 9.00  26.80 2768.78
   13:09:30.432.28-Apr-2021 3524.51 4315.17 75.46 9.00  27.00 2768.78
   13:09:30.632.28-Apr-2021 3524.51 4315.17 75.46 9.00  27.20 2768.78
   13:09:30.832.28-Apr-2021 3524.51 4315.92 75.46 9.00  27.40 2768.78
   13:09:31.032.28-Apr-2021 3524.51 4315.88 75.46 9.00  27.60 2768.78
   13:09:31.232.28-Apr-2021 3524.51 4315.62 75.46 9.00  27.80 2768.78
   13:09:31.432.28-Apr-2021 3524.51 4315.03 75.46 9.00  28.00 2768.78
   13:09:31.632.28-Apr-2021 3524.51 4315.03 75.46 9.00  28.20 2768.78
   13:09:31.832.28-Apr-2021 3524.51 4316.69 75.46 9.00  28.40 2768.78
   13:09:32.032.28-Apr-2021 3524.51 4316.40 75.45 9.00  28.60 2768.78
   13:09:32.232.28-Apr-2021 3524.51 4315.68 75.45 9.00  28.80 2768.78
   13:09:32.432.28-Apr-2021 3524.51 4315.85 75.45 9.00  29.00 2768.78
   13:09:32.632.28-Apr-2021 3524.51 4315.85 75.45 9.00  29.20 2768.78
   13:09:32.832.28-Apr-2021 3524.51 4317.57 75.45 9.00  29.40 2768.78
   13:09:33.032.28-Apr-2021 3524.51 4317.38 75.45 9.00  29.60 2768.78
   13:09:33.232.28-Apr-2021 3524.51 4317.24 75.45 9.00  29.80 2768.78
   13:09:33.432.28-Apr-2021 3524.51 4318.52 75.45 9.00  30.00 2768.78
   13:09:33.632.28-Apr-2021 3524.51 4318.52 75.45 9.00  30.20 2768.78
   13:09:33.832.28-Apr-2021 3524.51 4333.29 75.44 9.00  30.40 2768.78
   13:09:34.032.28-Apr-2021 3524.51 4329.83 75.44 9.00  30.60 2768.78
   13:09:34.232.28-Apr-2021 3524.51 4327.70 75.44 9.00  30.80 2768.78
   13:09:34.432.28-Apr-2021 3524.51 4327.59 75.44 9.00  31.01 2768.78
   13:09:34.632.28-Apr-2021 3524.51 4327.59 75.44 9.00  31.21 2768.78
   13:09:34.832.28-Apr-2021 3524.51 4328.56 75.44 9.00  31.41 2768.78
   13:09:35.032.28-Apr-2021 3524.51 4328.05 75.44 9.00  31.61 2768.78
   13:09:35.232.28-Apr-2021 3524.51 4327.52 75.44 9.00  31.81 2768.78
   13:09:35.432.28-Apr-2021 3524.51 4327.36 75.44 9.00  32.01 2768.78
   13:09:35.633.28-Apr-2021 3524.51 4327.36 75.44 9.00  32.21 2768.78
   13:09:35.833.28-Apr-2021 3524.51 4327.33 75.43 9.00  32.41 2768.78
   13:09:36.033.28-Apr-2021 3524.51 4327.17 75.43 9.00  32.61 2768.78
   13:09:36.233.28-Apr-2021 3524.51 4327.44 75.43 9.00  32.81 2768.78
   13:09:36.433.28-Apr-2021 3524.51 4326.31 75.43 9.00  33.01 2768.78
   13:09:36.633.28-Apr-2021 3524.51 4326.31 75.43 9.00  33.21 2768.78
   13:09:36.833.28-Apr-2021 3524.51 4367.64 75.43 9.00  33.41 2768.78
   13:09:37.033.28-Apr-2021 3524.51 4369.15 75.43 9.00  33.61 2768.78
   13:09:37.233.28-Apr-2021 3524.51 4369.31 75.43 9.00  33.81 2768.78
   13:09:37.433.28-Apr-2021 3524.51 4369.34 75.43 9.00  34.01 2768.78
   13:09:37.633.28-Apr-2021 3524.51 4369.34 75.43 9.00  34.21 2768.78
   13:09:37.833.28-Apr-2021 3524.51 4369.47 75.42 9.00  34.41 2768.78
   13:09:38.033.28-Apr-2021 3524.51 4369.55 75.42 9.00  34.61 2768.78
   13:09:38.233.28-Apr-2021 3524.51 4369.56 75.42 9.00  34.81 2768.78
   13:09:38.433.28-Apr-2021 3524.51 4369.59 75.42 9.00  35.01 2768.78
   13:09:38.633.28-Apr-2021 3524.51 4369.59 75.42 9.00  35.21 2768.78
   13:09:38.833.28-Apr-2021 3524.51 4369.62 75.42 9.00  35.41 2768.78
   13:09:39.033.28-Apr-2021 3524.51 4369.66 75.42 9.00  35.61 2768.78
   13:09:39.233.28-Apr-2021 3524.51 4369.47 75.42 9.00  35.81 2768.78
   13:09:39.433.28-Apr-2021 3524.51 4369.72 75.42 9.00  36.01 2768.78
   13:09:39.633.28-Apr-2021 3524.51 4369.72 75.42 9.00  36.21 2768.78
   13:09:39.833.28-Apr-2021 3524.51 4369.65 75.42 9.00  36.41 2768.78
   13:09:40.033.28-Apr-2021 3524.51 4369.66 75.42 9.00  36.61 2768.78
   13:09:40.233.28-Apr-2021 3524.51 4369.51 75.42 9.00  36.81 2768.78
   13:09:40.433.28-Apr-2021 3524.51 4369.82 75.41 9.00  37.01 2768.78
   13:09:40.633.28-Apr-2021 3524.51 4369.82 75.41 9.00  37.21 2768.78
   13:09:40.833.28-Apr-2021 3524.51 4369.70 75.41 9.00  37.41 2768.78
   13:09:41.033.28-Apr-2021 3524.51 4369.68 75.41 9.00  37.61 2768.78
   13:09:41.233.28-Apr-2021 3524.51 4369.70 75.41 9.00  37.81 2768.78
   13:09:41.433.28-Apr-2021 3524.51 4369.71 75.41 9.00  38.01 2768.78
   13:09:41.634.28-Apr-2021 3524.51 4369.71 75.41 9.00  38.21 2768.78
   13:09:41.834.28-Apr-2021 3524.51 4369.72 75.41 9.00  38.41 2768.78
   13:09:42.034.28-Apr-2021 3524.51 4369.70 75.41 9.00  38.61 2768.78
   13:09:42.234.28-Apr-2021 3524.51 4369.75 75.41 9.00  38.81 2768.78
   13:09:42.434.28-Apr-2021 3524.51 4369.70 75.41 9.00  39.01 2768.78
   13:09:42.634.28-Apr-2021 3524.51 4369.70 75.41 9.00  39.21 2768.78
   13:09:42.834.28-Apr-2021 3524.51 4369.77 75.41 9.00  39.41 2768.78
   13:09:43.034.28-Apr-2021 3524.51 4369.72 75.41 9.00  39.61 2768.78
   13:09:43.234.28-Apr-2021 3524.51 4369.77 75.41 9.00  39.81 2768.78
   13:09:43.434.28-Apr-2021 3524.51 4369.74 75.40 9.00  40.01 2768.78
   13:09:43.634.28-Apr-2021 3524.51 4369.74 75.40 9.00  40.21 2768.78
   13:09:43.834.28-Apr-2021 3524.51 4369.80 75.40 9.00  40.41 2768.78
   13:09:44.034.28-Apr-2021 3524.51 4369.82 75.40 9.00  40.61 2768.78
   13:09:44.234.28-Apr-2021 3524.51 4369.82 75.40 9.00  40.81 2768.78
   13:09:44.434.28-Apr-2021 3524.51 4369.78 75.40 9.00  41.01 2768.78
   13:09:44.634.28-Apr-2021 3524.51 4369.78 75.40 9.00  41.21 2768.78
   13:09:44.834.28-Apr-2021 3524.51 4369.84 75.40 9.00  41.41 2768.78
   13:09:45.034.28-Apr-2021 3524.51 4369.84 75.40 9.00  41.61 2768.78
   13:09:45.234.28-Apr-2021 3524.51 4369.85 75.40 9.00  41.81 2768.78
   13:09:45.434.28-Apr-2021 3524.51 4369.82 75.40 9.00  42.01 2768.78
   13:09:45.634.28-Apr-2021 3524.51 4369.82 75.40 9.00  42.21 2768.78
   13:09:45.834.28-Apr-2021 3524.51 4369.83 75.40 9.00  42.41 2768.78
   13:09:46.034.28-Apr-2021 3524.51 4369.82 75.40 9.00  42.61 2768.78
   13:09:46.234.28-Apr-2021 3524.51 4369.77 75.40 9.00  42.81 2768.78
   13:09:46.434.28-Apr-2021 3524.51 4369.81 75.40 9.00  43.01 2768.78
   13:09:46.634.28-Apr-2021 3524.51 4369.81 75.40 9.00  43.21 2768.78
   13:09:46.834.28-Apr-2021 3524.51 4369.85 75.39 9.00  43.41 2768.78
   13:09:47.034.28-Apr-2021 3524.51 4369.87 75.39 9.00  43.61 2768.78
   13:09:47.234.28-Apr-2021 3524.51 4369.83 75.39 9.00  43.81 2768.78
   13:09:47.434.28-Apr-2021 3524.51 4369.88 75.39 9.00  44.01 2768.78
   13:09:47.634.28-Apr-2021 3524.51 4369.88 75.39 9.00  44.21 2768.78
   13:09:47.835.28-Apr-2021 3524.51 4369.91 75.39 9.00  44.41 2768.78
   13:09:48.035.28-Apr-2021 3524.51 4369.91 75.39 9.00  44.61 2768.78
   13:09:48.235.28-Apr-2021 3524.51 4369.88 75.39 9.00  44.81 2768.78
   13:09:48.435.28-Apr-2021 3524.51 4369.91 75.39 9.00  45.01 2768.78
   13:09:48.635.28-Apr-2021 3524.51 4369.91 75.39 9.00  45.21 2768.78
   13:09:48.835.28-Apr-2021 3524.51 4369.63 75.39 9.00  45.41 2768.78
   13:09:49.035.28-Apr-2021 3524.51 4369.95 75.39 9.00  45.61 2768.78
   13:09:49.235.28-Apr-2021 3524.51 4369.89 75.39 9.00  45.81 2768.78
