~Version Information
 VERS.                  2.0:   CWLS log ASCII Standard -VERSION 2.0
 WRAP.                   NO:   One line per depth step
~Well Information Block
#MNEM.UNIT     VALUE/NAME     DESCRIPTION
#---------     -----------    ---------------------------
 STRT.S             00:41:47 27-Apr-21: START TIME 00:41:47 27-Apr-21
 STOP.S             00:48:15 27-Apr-21: STOP TIME  00:48:15 27-Apr-21
 STEP.S                   0.00: STEP TIME
 NULL.                 -999.25: NULL VALUE
 DFWT.                        :  DIST FWL TEXT
 DFST.                        :  DIST FSL TEXT
 DMF .             Drill Floor:  DRILL MEAS FROM
 STIM.      02.00.00 12-Apr-21:  START TIME
 DATE.      02.00.00 02-May-21:  END TIME
 SPUD.               09-Apr-21:  SPUD DATE
 NREF.                    Grid:  NORTH REFERENCE
 HPTY.       Minimum Curvature:  HOLE POS TYPE
 DMOD.             Drill Model:  DRILL MOD DESC
 SVYD.                  Survey:  SURVEY DESC
 ILTD.               Lithology:  INTERP LTH DESC
 FTOP.          Formation Tops:  FORM TOPS DESC
 PDAT.          Mean Sea Level:  PERMANENT DATUM
 FLD .                     ACG:  FIELD NAME
 SON .        AZ-XX-0907021034:  JOB NUMBER
 CTRY.              Azerbaijan:  COUNTRY NAME
 WELL.                    E01x:  WELL NAME
 COMP.     BP Exploration (Caspian Sea) LTD.:  COMPANY
 UWI .            /AZE00001403:  UNIQUE WELL IDENTIFIER
 API .            /AZE00001403:  API NUMBER
 WTYP.                Deviated:  WELL TYPE
 MDS .        Operator Entered:  MAG DATA SOURCE
 BASE.              Azerbaijan:  LOGGING EQUIPMENT BASE LOCATION
 REGN.                   EESSA:  REGION
 PROV.                    Baku:  PROVINCE
 STAT.                    Baku:  STATE NAME
 SRVC.          Turan Drilling:  CONTRACTOR
 MWDS.                    Baku:  MWD SHOP
 JOBN.        AZ-XX-0907021034:  JOB TICKET NUMB
 RIG .                     DWG:  RIG NAME
 DOE .                     N/A:  DOE NUMBER
 DCON.         Sperry Drilling:  DIRECTNL CONTR
 UNIT.                     N/A:  LOGGING EQUIPMENT ID
 CNTY.                        :  COUNTY
 LOC .                        :  LOCATION
 LMF .             Drill Floor:  LOG MEASURED FROM
 TVDS.m                  43.16:  TVDSS CORRECTN
 LATI.deg                40.17:  LATITUDE
 LONG.deg                51.17:  LONGITUDE
 WHNS.m                  -5.90:  WELL HEAD N/S
 WHEW.m                  -6.61:  WELL HEAD E/W
 UTMX.m              514337.95:  UTM X
 UTMY.m             4448627.46:  UTM Y
 DFWL.m                   0.00:  DISTANCE FWL
 DFSL.m                   0.00:  DISTANCE FSL
 SDEP.m                2606.87:  START DEPTH
 TDD .m                3618.01:  TOTAL DEPTH (DRILLER)
 VSDR.deg               177.42:  VERT SEC DIRECT
 GVFD.g                   1.00:  GRAVITY FIELD
 MFLD.nT              50399.00:  MAGNETIC FIELD
 MDIP.deg                59.67:  MAGNETIC DIP
 MDEC.deg                 6.56:  MAGNETIC DECL
 GRDC.deg                 0.11:  GRID CORRECTION
 AZTC.deg                 6.45:  AZM TOTAL CORR
 EPD .m                   0.00:  ELEVATION
 EGL .m                   0.00:  GROUND ELEVATION
 WDMS.m                 176.20:  WD ELEV
 APD .m                  43.16:  DEPTH ABOVE PD
 DEP .m                2606.87:  DEPTH
 AGAP.m                  43.16:  AIR GAP
 VSEW.m                  -6.61:  VERT SEC E/W
 VSNS.m                  -5.90:  VERT SEC N/S
 EKB .m                  43.16:  KB ELEVATION
 EDF .m                  43.16:  DF ELEVATION
 TDL .m                 438.00:  TOTAL DEPTH (LOGGER)
 VSC .                       0:  VS TO CLOSURE
 MAGU.                 1855490:  MAGUTM CHECKSUM
~Parameter Information Block
#MNEM.UNIT       Value        Description
#---------     -----------    ---------------------------
 AV  .mps                 2.20:  Ann Velocity 
 AVMX.mps                 2.50:  Max Ann Veloc 
 AZIF.deg               150.21:  Azm, Final 
 BHAT.        Rotary Steerable:  BHA Type 
 BROT.°/30m               0.08:  Build Rotating 
 BS  .in                  6.50:  Bit Size 
 BSZ .in                  6.50:  Bit Size 
 BTPL.psig              108.00:  Bit Press Loss 
 CABU.                     Yes:  Customer Abuse 
 CGEO.           Emin Aliyarli:  Customer Geo 
 COMM.                     lJm:  Run Comments 1 
 TCS .hr                 74.20:  Time Ciculation Ended 
 CV  .mps                 3.63:  Crit Velocity 
 CVMX.mps                 3.66:  Max Crit Veloc 
 DD1 .         Intigam Rahimov:  Direct Drillr 1 
 DD2 .          Teymur Aghayev:  Direct Drillr 2 
 DDSV.               Geo-Pilot:  DD Service 
 DEFF.%                  97.00:  % Det Eff 
 DLRX.°/30m               1.63:  Dogleg Rot Max 
 DLSO.°/30m               0.00:  Dogleg Oriented 
 DLSX.°/30m               0.00:  Dogleg Str Max 
 DRET.      20.20.00 28-Apr-21:  Drill End Time 
 DRST.      04.45.00 26-Apr-21:  Drill Start Tim 
 DTIM.hr                 34.30:  Time Drilling 
 EDEP.m                3618.01:  End Depth 
 ENG1.           Amrah Tahirov:  Engineer 1 
 ENG2.         Bahruz Mehdiyev:  Engineer 2 
 ENG3.         Farhad Orujzade:  Engineer 3 
 ETIM.      19.00.00 29-Apr-21:  End Time 
 FLOI.gpm               370.00:  Flow In 
 FLON.gpm               300.00:  Flow In Min 
 FLOS.cptm                0.00:  Fluid Loss 
 FLOX.gpm               410.00:  Flow In Max 
 HFLO.                      No:  High Flow 
 HPRE.                      No:  High Pressure 
 HTEM.                      No:  High Temp 
 HYDO.m                   1.80:  Hydro Offset 
 IFIN.deg                67.19:  Inc, Final 
 IMAX.deg                68.42:  Inc Max 
 IMIN.deg                66.33:  Inc Min 
 IMND.m                3532.79:  Inc Min Depth 
 IMXD.m                3192.15:  Inc Max Depth 
 JARR.                      No:  Jarring 
 LETM.      20.20.00 28-Apr-21:  Log End Time 
 LOST.hr                     0:  Lost Rig Time 
 LSTM.      04.45.00 26-Apr-21:  Log Start Time 
 MDCL.ppm             36500.00:  Mud Chlorides 
 MDES.     Inversion Oil/Synthetic:  Mud Desc 
 DFD .sg                  1.42:  Mud Density 
 MDMN.sg                  1.42:  Dens Mud Min 
 MDMX.sg                  1.42:  Dens Mud Max 
 MOIL.                    55.7:  Run Mud Oil % 
 MOWR.                   71:29:  Run Mud OWR 
 MSND.                     0.1:  Run Mud Sand % 
 MSOL.                    19.9:  Run Mud Solids% 
 DFV .spqt               83.00:  Mud Viscosity 
 MWOD.in                  5.15:  MWD Tool OD 
 MWSI.                      No:  Serv Intrp, MWD 
 OTIM.hr                120.59:  Time Operating 
 PCON.           Look Like New:  Pad Condition 
 PMAX.psia            11292.93:  Press Op, Max 
 PV  .cP                 27.00:  Mud PV 
 RUN .                     400:  Run Number 
 ROPA.m/hr               14.00:  ROP Avg 
 ROPN.m/hr                9.00:  ROP Min 
 ROPX.m/hr               18.00:  ROP Max 
 RPMA.rpm               130.00:  RPM Surface Avg 
 RPMN.rpm               100.00:  RPM Surface Min 
 RPMX.rpm               140.00:  RPM Surface Max 
 RRUN.                    0400:  Rig Run Number 
 RTIM.hr                 38.60:  Time Reaming 
 SAZI.deg               149.55:  Azm, Start 
 SDEP.m                3180.01:  Start Depth 
 SIDD.                      No:  Serv Intrp, DD 
 SINC.deg                68.42:  Inc, Start 
 SPPA.psig             4400.00:  SPP Avg 
 SPPN.psig             3580.00:  SPP Min 
 SPPX.psig             4850.00:  SPP Max 
 STIM.      12.30.00 24-Apr-21:  Start Time 
 SVCS.                 DD, MWD:  Services 
 SVER.                    9.20:  Sperry Version 
 TDAT.m                 438.00:  Tot Depth Attmp 
 TDDF.                      No:  Trip for DD 
 TDLG.m                 438.00:  Tot Depth Loggd 
 TFF .                      No:  Trip for Fail 
 TQAA.f-kp               11.00:  Torque Abs Avg 
 TQAN.f-kp                9.00:  Torque Abs Min 
 TQAX.f-kp               14.00:  Torque Abs Max 
 TRRT.°/30m               0.04:  Turn Rotating 
 MRT .                    HCIM:  Maximum Recorded Temperature 
 TTMX.degC               84.31:  Max Tool Temp 
 VS01.                90521954:  Virtual Str1 SN 
 VS02.                90519327:  Virtual Str2 SN 
 VS03.                90522273:  Virtual Str3 SN 
 VS04.                11108038:  Virtual Str4 SN 
 VS05.                12258760:  Virtual Str5 SN 
 WBMN.klb                 1.00:  WOB Min 
 WITN.           Adil Mammadov:  Customer Rep 
 WITN.         Alex Yadullayev:  Customer Rep 2 
 WOBA.klb                 6.00:  WOB Avg 
 WOBX.klb                 9.00:  WOB Max 
 YP  .lhf2               31.00:  Yield Point 
~Curve Information Block
#MNEM.UNIT                 API CODE     Curve Description
#---------               -----------    ---------------------------
 TIME.HHMMSS            00 000 000 000:  GT Time & Date
 GTDEPTH.m              00 000 000 000:  GT Depth
 GTPQH.psia             00 000 000 000:  GT HR Quartz Pressure
 GTTQ.degC              00 000 000 000:  GT Quartz Temperature
 GTTN.NONE              00 000 000 000:  GT Test Number
 GTET.sec               00 000 000 000:  GT Elapsed Test Time
 GTTVD.m                00 000 000 000:  GT True Vertical Depth
#Other Information
#
#WARRANTY: Halliburton will use its best efforts to furnish customers with 
#accurate information and interpretations that are part of, and incident to, the services 
#provided.  However, Halliburton cannot and does not warrant the accuracy 
#or correctness of such information and interpretations.  Under no circumstances should any 
#such information or interpretation be relied upon as the sole basis for any drilling, 
#completion, production, or financial decision or any procedure involving any risk to the 
#safety of any drilling venture, drilling rig or its crew or any other third party.  The 
#Customer has full responsibility for all drilling, completion and production operation.  
#Halliburton makes no representations or warranties, either expressed or 
#implied, including, but not limited to, the implied warranties of merchantability or fitness 
#for a particular purpose, with respect to the services rendered.  In no event will 
#Halliburton be liable for failure to obtain any particular results or for 
#any damages, including, but not limited to, indirect, special or consequential damages, 
#resulting from the use of any information or interpretation provided by Halliburton.
#
~A           TIME           GTDEPTH  GTPQH  GTTQ  GTTN  GTET   GTTVD  
# ...
   00:45:14.767.27-Apr-2021 3226.01 4274.08 71.58 2.00 207.04 2651.33
   00:45:14.967.27-Apr-2021 3226.01 4274.08 71.58 2.00 207.24 2651.33
   00:45:15.167.27-Apr-2021 3226.01 4274.27 71.58 2.00 207.44 2651.33
   00:45:15.367.27-Apr-2021 3226.01 4274.30 71.58 2.00 207.64 2651.33
   00:45:15.567.27-Apr-2021 3226.01 4274.32 71.58 2.00 207.84 2651.33
   00:45:15.767.27-Apr-2021 3226.01 4274.26 71.58 2.00 208.04 2651.33
   00:45:15.967.27-Apr-2021 3226.01 4274.26 71.58 2.00 208.24 2651.33
   00:45:16.167.27-Apr-2021 3226.01 4274.26 71.58 2.00 208.44 2651.33
   00:45:16.367.27-Apr-2021 3226.01 4274.30 71.58 2.00 208.64 2651.33
   00:45:16.567.27-Apr-2021 3226.01 4274.24 71.58 2.00 208.84 2651.33
   00:45:16.767.27-Apr-2021 3226.01 4274.22 71.58 2.00 209.04 2651.33
   00:45:16.967.27-Apr-2021 3226.01 4274.22 71.58 2.00 209.24 2651.33
   00:45:17.167.27-Apr-2021 3226.01 4274.20 71.57 2.00 209.44 2651.33
   00:45:17.367.27-Apr-2021 3226.01 4274.03 71.57 2.00 209.64 2651.33
   00:45:17.567.27-Apr-2021 3226.01 4274.17 71.57 2.00 209.84 2651.33
   00:45:17.767.27-Apr-2021 3226.01 4274.28 71.57 2.00 210.04 2651.33
   00:45:17.967.27-Apr-2021 3226.01 4274.28 71.57 2.00 210.24 2651.33
   00:45:18.167.27-Apr-2021 3226.01 4274.27 71.57 2.00 210.44 2651.33
   00:45:18.367.27-Apr-2021 3226.01 4274.23 71.57 2.00 210.64 2651.33
   00:45:18.567.27-Apr-2021 3226.01 4274.24 71.57 2.00 210.84 2651.33
   00:45:18.768.27-Apr-2021 3226.01 4274.24 71.57 2.00 211.04 2651.33
   00:45:18.968.27-Apr-2021 3226.01 4274.24 71.57 2.00 211.24 2651.33
   00:45:19.168.27-Apr-2021 3226.01 4274.22 71.57 2.00 211.44 2651.33
   00:45:19.368.27-Apr-2021 3226.01 4274.24 71.57 2.00 211.64 2651.33
   00:45:19.568.27-Apr-2021 3226.01 4274.19 71.57 2.00 211.84 2651.33
   00:45:19.768.27-Apr-2021 3226.01 4274.25 71.57 2.00 212.04 2651.33
   00:45:19.968.27-Apr-2021 3226.01 4274.25 71.57 2.00 212.24 2651.33
   00:45:20.168.27-Apr-2021 3226.01 4274.21 71.57 2.00 212.44 2651.33
   00:45:20.368.27-Apr-2021 3226.01 4274.20 71.57 2.00 212.64 2651.33
   00:45:20.568.27-Apr-2021 3226.01 4274.27 71.56 2.00 212.84 2651.33
   00:45:20.768.27-Apr-2021 3226.01 4274.27 71.56 2.00 213.04 2651.33
   00:45:20.968.27-Apr-2021 3226.01 4274.27 71.56 2.00 213.24 2651.33
   00:45:21.168.27-Apr-2021 3226.01 4274.25 71.56 2.00 213.44 2651.33
   00:45:21.368.27-Apr-2021 3226.01 4274.05 71.56 2.00 213.64 2651.33
   00:45:21.568.27-Apr-2021 3226.01 4274.24 71.56 2.00 213.84 2651.33
   00:45:21.768.27-Apr-2021 3226.01 4274.33 71.56 2.00 214.04 2651.33
   00:45:21.968.27-Apr-2021 3226.01 4274.33 71.56 2.00 214.24 2651.33
   00:45:22.168.27-Apr-2021 3226.01 4274.16 71.56 2.00 214.44 2651.33
   00:45:22.368.27-Apr-2021 3226.01 4274.10 71.56 2.00 214.64 2651.33
   00:45:22.568.27-Apr-2021 3226.01 4274.26 71.56 2.00 214.84 2651.33
   00:45:22.768.27-Apr-2021 3226.01 4274.32 71.56 2.00 215.04 2651.33
   00:45:22.968.27-Apr-2021 3226.01 4274.32 71.56 2.00 215.24 2651.33
   00:45:23.168.27-Apr-2021 3226.01 4274.02 71.56 2.00 215.44 2651.33
   00:45:23.368.27-Apr-2021 3226.01 4274.27 71.56 2.00 215.64 2651.33
   00:45:23.568.27-Apr-2021 3226.01 4274.29 71.56 2.00 215.84 2651.33
   00:45:23.769.27-Apr-2021 3226.01 4274.31 71.56 2.00 216.04 2651.33
   00:45:23.969.27-Apr-2021 3226.01 4274.31 71.56 2.00 216.24 2651.33
   00:45:24.169.27-Apr-2021 3226.01 4274.30 71.56 2.00 216.44 2651.33
   00:45:24.369.27-Apr-2021 3226.01 4274.26 71.55 2.00 216.64 2651.33
   00:45:24.569.27-Apr-2021 3226.01 4274.26 71.55 2.00 216.84 2651.33
   00:45:24.769.27-Apr-2021 3226.01 4274.29 71.55 2.00 217.04 2651.33
   00:45:24.969.27-Apr-2021 3226.01 4274.29 71.55 2.00 217.24 2651.33
   00:45:25.169.27-Apr-2021 3226.01 4274.22 71.55 2.00 217.44 2651.33
   00:45:25.369.27-Apr-2021 3226.01 4274.18 71.55 2.00 217.64 2651.33
   00:45:25.569.27-Apr-2021 3226.01 4274.21 71.55 2.00 217.84 2651.33
   00:45:25.769.27-Apr-2021 3226.01 4273.97 71.55 2.00 218.04 2651.33
   00:45:25.969.27-Apr-2021 3226.01 4273.97 71.55 2.00 218.24 2651.33
   00:45:26.169.27-Apr-2021 3226.01 4274.30 71.55 2.00 218.44 2651.33
   00:45:26.369.27-Apr-2021 3226.01 4274.25 71.55 2.00 218.64 2651.33
   00:45:26.569.27-Apr-2021 3226.01 4274.27 71.55 2.00 218.84 2651.33
   00:45:26.769.27-Apr-2021 3226.01 4274.23 71.55 2.00 219.04 2651.33
   00:45:26.969.27-Apr-2021 3226.01 4274.23 71.55 2.00 219.24 2651.33
   00:45:27.169.27-Apr-2021 3226.01 4274.27 71.55 2.00 219.44 2651.33
   00:45:27.369.27-Apr-2021 3226.01 4274.31 71.55 2.00 219.64 2651.33
   00:45:27.569.27-Apr-2021 3226.01 4274.23 71.55 2.00 219.84 2651.33
   00:45:27.769.27-Apr-2021 3226.01 4274.25 71.55 2.00 220.04 2651.33
   00:45:27.969.27-Apr-2021 3226.01 4274.25 71.55 2.00 220.24 2651.33
   00:45:28.169.27-Apr-2021 3226.01 4274.27 71.54 2.00 220.44 2651.33
   00:45:28.369.27-Apr-2021 3226.01 4274.19 71.54 2.00 220.64 2651.33
   00:45:28.569.27-Apr-2021 3226.01 4273.97 71.54 2.00 220.84 2651.33
   00:45:28.770.27-Apr-2021 3226.01 4274.24 71.54 2.00 221.04 2651.33
   00:45:28.970.27-Apr-2021 3226.01 4274.24 71.54 2.00 221.24 2651.33
   00:45:29.170.27-Apr-2021 3226.01 4274.25 71.54 2.00 221.44 2651.33
   00:45:29.370.27-Apr-2021 3226.01 4274.28 71.54 2.00 221.64 2651.33
   00:45:29.570.27-Apr-2021 3226.01 4274.23 71.54 2.00 221.84 2651.33
   00:45:29.770.27-Apr-2021 3226.01 4274.01 71.54 2.00 222.04 2651.33
   00:45:29.970.27-Apr-2021 3226.01 4274.01 71.54 2.00 222.24 2651.33
   00:45:30.170.27-Apr-2021 3226.01 4274.35 71.54 2.00 222.44 2651.33
   00:45:30.370.27-Apr-2021 3226.01 4274.29 71.54 2.00 222.64 2651.33
   00:45:30.570.27-Apr-2021 3226.01 4274.09 71.54 2.00 222.84 2651.33
   00:45:30.770.27-Apr-2021 3226.01 4274.19 71.54 2.00 223.04 2651.33
   00:45:30.970.27-Apr-2021 3226.01 4274.19 71.54 2.00 223.24 2651.33
   00:45:31.170.27-Apr-2021 3226.01 4274.30 71.54 2.00 223.44 2651.33
   00:45:31.370.27-Apr-2021 3226.01 4274.19 71.54 2.00 223.64 2651.33
   00:45:31.570.27-Apr-2021 3226.01 4274.12 71.53 2.00 223.84 2651.33
   00:45:31.770.27-Apr-2021 3226.01 4274.26 71.53 2.00 224.04 2651.33
   00:45:31.970.27-Apr-2021 3226.01 4274.26 71.53 2.00 224.24 2651.33
   00:45:32.170.27-Apr-2021 3226.01 4274.30 71.53 2.00 224.44 2651.33
   00:45:32.370.27-Apr-2021 3226.01 4274.30 71.53 2.00 224.64 2651.33
   00:45:32.570.27-Apr-2021 3226.01 4274.25 71.53 2.00 224.84 2651.33
   00:45:32.770.27-Apr-2021 3226.01 4274.25 71.53 2.00 225.04 2651.33
   00:45:32.970.27-Apr-2021 3226.01 4274.25 71.53 2.00 225.24 2651.33
   00:45:33.170.27-Apr-2021 3226.01 4274.28 71.53 2.00 225.44 2651.33
   00:45:33.370.27-Apr-2021 3226.01 4274.22 71.53 2.00 225.64 2651.33
   00:45:33.570.27-Apr-2021 3226.01 4274.22 71.53 2.00 225.84 2651.33
   00:45:33.771.27-Apr-2021 3226.01 4274.19 71.53 2.00 226.04 2651.33
   00:45:33.971.27-Apr-2021 3226.01 4274.19 71.53 2.00 226.24 2651.33
   00:45:34.171.27-Apr-2021 3226.01 4274.03 71.53 2.00 226.44 2651.33
   00:45:34.371.27-Apr-2021 3226.01 4274.28 71.53 2.00 226.64 2651.33
   00:45:34.571.27-Apr-2021 3226.01 4274.27 71.53 2.00 226.84 2651.33
   00:45:34.771.27-Apr-2021 3226.01 4274.27 71.53 2.00 227.04 2651.33
   00:45:34.971.27-Apr-2021 3226.01 4274.27 71.53 2.00 227.25 2651.33
   00:45:35.171.27-Apr-2021 3226.01 4274.26 71.53 2.00 227.45 2651.33
   00:45:35.371.27-Apr-2021 3226.01 4274.23 71.52 2.00 227.65 2651.33
   00:45:35.571.27-Apr-2021 3226.01 4274.30 71.52 2.00 227.85 2651.33
   00:45:35.771.27-Apr-2021 3226.01 4274.27 71.52 2.00 228.05 2651.33
   00:45:35.971.27-Apr-2021 3226.01 4274.27 71.52 2.00 228.25 2651.33
   00:45:36.171.27-Apr-2021 3226.01 4274.24 71.52 2.00 228.45 2651.33
   00:45:36.371.27-Apr-2021 3226.01 4274.21 71.52 2.00 228.65 2651.33
   00:45:36.571.27-Apr-2021 3226.01 4274.26 71.52 2.00 228.85 2651.33
   00:45:36.771.27-Apr-2021 3226.01 4274.11 71.52 2.00 229.05 2651.33
   00:45:36.971.27-Apr-2021 3226.01 4274.11 71.52 2.00 229.25 2651.33
   00:45:37.171.27-Apr-2021 3226.01 4274.25 71.52 2.00 229.45 2651.33
   00:45:37.371.27-Apr-2021 3226.01 4274.31 71.52 2.00 229.65 2651.33
   00:45:37.571.27-Apr-2021 3226.01 4274.26 71.52 2.00 229.85 2651.33
