~Version Information
 VERS.                  2.0:   CWLS log ASCII Standard -VERSION 2.0
 WRAP.                   NO:   One line per depth step
~Well Information Block
#MNEM.UNIT     VALUE/NAME     DESCRIPTION
#---------     -----------    ---------------------------
 STRT.S             23:23:54 27-Apr-21: START TIME 23:23:54 27-Apr-21
 STOP.S             23:30:22 27-Apr-21: STOP TIME  23:30:22 27-Apr-21
 STEP.S                   0.00: STEP TIME
 NULL.                 -999.25: NULL VALUE
 DFWT.                        :  DIST FWL TEXT
 DFST.                        :  DIST FSL TEXT
 DMF .             Drill Floor:  DRILL MEAS FROM
 STIM.      02.00.00 12-Apr-21:  START TIME
 DATE.      02.00.00 02-May-21:  END TIME
 SPUD.               09-Apr-21:  SPUD DATE
 NREF.                    Grid:  NORTH REFERENCE
 HPTY.       Minimum Curvature:  HOLE POS TYPE
 DMOD.             Drill Model:  DRILL MOD DESC
 SVYD.                  Survey:  SURVEY DESC
 ILTD.               Lithology:  INTERP LTH DESC
 FTOP.          Formation Tops:  FORM TOPS DESC
 PDAT.          Mean Sea Level:  PERMANENT DATUM
 FLD .                     ACG:  FIELD NAME
 SON .        AZ-XX-0907021034:  JOB NUMBER
 CTRY.              Azerbaijan:  COUNTRY NAME
 WELL.                    E01x:  WELL NAME
 COMP.     BP Exploration (Caspian Sea) LTD.:  COMPANY
 UWI .            /AZE00001403:  UNIQUE WELL IDENTIFIER
 API .            /AZE00001403:  API NUMBER
 WTYP.                Deviated:  WELL TYPE
 MDS .        Operator Entered:  MAG DATA SOURCE
 BASE.              Azerbaijan:  LOGGING EQUIPMENT BASE LOCATION
 REGN.                   EESSA:  REGION
 PROV.                    Baku:  PROVINCE
 STAT.                    Baku:  STATE NAME
 SRVC.          Turan Drilling:  CONTRACTOR
 MWDS.                    Baku:  MWD SHOP
 JOBN.        AZ-XX-0907021034:  JOB TICKET NUMB
 RIG .                     DWG:  RIG NAME
 DOE .                     N/A:  DOE NUMBER
 DCON.         Sperry Drilling:  DIRECTNL CONTR
 UNIT.                     N/A:  LOGGING EQUIPMENT ID
 CNTY.                        :  COUNTY
 LOC .                        :  LOCATION
 LMF .             Drill Floor:  LOG MEASURED FROM
 TVDS.m                  43.16:  TVDSS CORRECTN
 LATI.deg                40.17:  LATITUDE
 LONG.deg                51.17:  LONGITUDE
 WHNS.m                  -5.90:  WELL HEAD N/S
 WHEW.m                  -6.61:  WELL HEAD E/W
 UTMX.m              514337.95:  UTM X
 UTMY.m             4448627.46:  UTM Y
 DFWL.m                   0.00:  DISTANCE FWL
 DFSL.m                   0.00:  DISTANCE FSL
 SDEP.m                2606.87:  START DEPTH
 TDD .m                3618.01:  TOTAL DEPTH (DRILLER)
 VSDR.deg               177.42:  VERT SEC DIRECT
 GVFD.g                   1.00:  GRAVITY FIELD
 MFLD.nT              50399.00:  MAGNETIC FIELD
 MDIP.deg                59.67:  MAGNETIC DIP
 MDEC.deg                 6.56:  MAGNETIC DECL
 GRDC.deg                 0.11:  GRID CORRECTION
 AZTC.deg                 6.45:  AZM TOTAL CORR
 EPD .m                   0.00:  ELEVATION
 EGL .m                   0.00:  GROUND ELEVATION
 WDMS.m                 176.20:  WD ELEV
 APD .m                  43.16:  DEPTH ABOVE PD
 DEP .m                2606.87:  DEPTH
 AGAP.m                  43.16:  AIR GAP
 VSEW.m                  -6.61:  VERT SEC E/W
 VSNS.m                  -5.90:  VERT SEC N/S
 EKB .m                  43.16:  KB ELEVATION
 EDF .m                  43.16:  DF ELEVATION
 TDL .m                 438.00:  TOTAL DEPTH (LOGGER)
 VSC .                       0:  VS TO CLOSURE
 MAGU.                 1855490:  MAGUTM CHECKSUM
~Parameter Information Block
#MNEM.UNIT       Value        Description
#---------     -----------    ---------------------------
 AV  .mps                 2.20:  Ann Velocity 
 AVMX.mps                 2.50:  Max Ann Veloc 
 AZIF.deg               150.21:  Azm, Final 
 BHAT.        Rotary Steerable:  BHA Type 
 BROT.°/30m               0.08:  Build Rotating 
 BS  .in                  6.50:  Bit Size 
 BSZ .in                  6.50:  Bit Size 
 BTPL.psig              108.00:  Bit Press Loss 
 CABU.                     Yes:  Customer Abuse 
 CGEO.           Emin Aliyarli:  Customer Geo 
 COMM.                     HO:  Run Comments 1 
 TCS .hr                 74.20:  Time Ciculation Ended 
 CV  .mps                 3.63:  Crit Velocity 
 CVMX.mps                 3.66:  Max Crit Veloc 
 DD1 .         Intigam Rahimov:  Direct Drillr 1 
 DD2 .          Teymur Aghayev:  Direct Drillr 2 
 DDSV.               Geo-Pilot:  DD Service 
 DEFF.%                  97.00:  % Det Eff 
 DLRX.°/30m               1.63:  Dogleg Rot Max 
 DLSO.°/30m               0.00:  Dogleg Oriented 
 DLSX.°/30m               0.00:  Dogleg Str Max 
 DRET.      20.20.00 28-Apr-21:  Drill End Time 
 DRST.      04.45.00 26-Apr-21:  Drill Start Tim 
 DTIM.hr                 34.30:  Time Drilling 
 EDEP.m                3618.01:  End Depth 
 ENG1.           Amrah Tahirov:  Engineer 1 
 ENG2.         Bahruz Mehdiyev:  Engineer 2 
 ENG3.         Farhad Orujzade:  Engineer 3 
 ETIM.      19.00.00 29-Apr-21:  End Time 
 FLOI.gpm               370.00:  Flow In 
 FLON.gpm               300.00:  Flow In Min 
 FLOS.cptm                0.00:  Fluid Loss 
 FLOX.gpm               410.00:  Flow In Max 
 HFLO.                      No:  High Flow 
 HPRE.                      No:  High Pressure 
 HTEM.                      No:  High Temp 
 HYDO.m                   1.80:  Hydro Offset 
 IFIN.deg                67.19:  Inc, Final 
 IMAX.deg                68.42:  Inc Max 
 IMIN.deg                66.33:  Inc Min 
 IMND.m                3532.79:  Inc Min Depth 
 IMXD.m                3192.15:  Inc Max Depth 
 JARR.                      No:  Jarring 
 LETM.      20.20.00 28-Apr-21:  Log End Time 
 LOST.hr                     0:  Lost Rig Time 
 LSTM.      04.45.00 26-Apr-21:  Log Start Time 
 MDCL.ppm             36500.00:  Mud Chlorides 
 MDES.     Inversion Oil/Synthetic:  Mud Desc 
 DFD .sg                  1.42:  Mud Density 
 MDMN.sg                  1.42:  Dens Mud Min 
 MDMX.sg                  1.42:  Dens Mud Max 
 MOIL.                    55.7:  Run Mud Oil % 
 MOWR.                   71:29:  Run Mud OWR 
 MSND.                     0.1:  Run Mud Sand % 
 MSOL.                    19.9:  Run Mud Solids% 
 DFV .spqt               83.00:  Mud Viscosity 
 MWOD.in                  5.15:  MWD Tool OD 
 MWSI.                      No:  Serv Intrp, MWD 
 OTIM.hr                120.59:  Time Operating 
 PCON.           Look Like New:  Pad Condition 
 PMAX.psia            11292.93:  Press Op, Max 
 PV  .cP                 27.00:  Mud PV 
 RUN .                     400:  Run Number 
 ROPA.m/hr               14.00:  ROP Avg 
 ROPN.m/hr                9.00:  ROP Min 
 ROPX.m/hr               18.00:  ROP Max 
 RPMA.rpm               130.00:  RPM Surface Avg 
 RPMN.rpm               100.00:  RPM Surface Min 
 RPMX.rpm               140.00:  RPM Surface Max 
 RRUN.                    0400:  Rig Run Number 
 RTIM.hr                 38.60:  Time Reaming 
 SAZI.deg               149.55:  Azm, Start 
 SDEP.m                3180.01:  Start Depth 
 SIDD.                      No:  Serv Intrp, DD 
 SINC.deg                68.42:  Inc, Start 
 SPPA.psig             4400.00:  SPP Avg 
 SPPN.psig             3580.00:  SPP Min 
 SPPX.psig             4850.00:  SPP Max 
 STIM.      12.30.00 24-Apr-21:  Start Time 
 SVCS.                 DD, MWD:  Services 
 SVER.                    9.20:  Sperry Version 
 TDAT.m                 438.00:  Tot Depth Attmp 
 TDDF.                      No:  Trip for DD 
 TDLG.m                 438.00:  Tot Depth Loggd 
 TFF .                      No:  Trip for Fail 
 TQAA.f-kp               11.00:  Torque Abs Avg 
 TQAN.f-kp                9.00:  Torque Abs Min 
 TQAX.f-kp               14.00:  Torque Abs Max 
 TRRT.°/30m               0.04:  Turn Rotating 
 MRT .                    HCIM:  Maximum Recorded Temperature 
 TTMX.degC               84.31:  Max Tool Temp 
 VS01.                90521954:  Virtual Str1 SN 
 VS02.                90519327:  Virtual Str2 SN 
 VS03.                90522273:  Virtual Str3 SN 
 VS04.                11108038:  Virtual Str4 SN 
 VS05.                12258760:  Virtual Str5 SN 
 WBMN.klb                 1.00:  WOB Min 
 WITN.           Adil Mammadov:  Customer Rep 
 WITN.         Alex Yadullayev:  Customer Rep 2 
 WOBA.klb                 6.00:  WOB Avg 
 WOBX.klb                 9.00:  WOB Max 
 YP  .lhf2               31.00:  Yield Point 
~Curve Information Block
#MNEM.UNIT                 API CODE     Curve Description
#---------               -----------    ---------------------------
 TIME.HHMMSS            00 000 000 000:  GT Time & Date
 GTDEPTH.m              00 000 000 000:  GT Depth
 GTPQH.psia             00 000 000 000:  GT HR Quartz Pressure
 GTTQ.degC              00 000 000 000:  GT Quartz Temperature
 GTTN.NONE              00 000 000 000:  GT Test Number
 GTET.sec               00 000 000 000:  GT Elapsed Test Time
 GTTVD.m                00 000 000 000:  GT True Vertical Depth
#Other Information
#
#WARRANTY: Halliburton will use its best efforts to furnish customers with 
#accurate information and interpretations that are part of, and incident to, the services 
#provided.  However, Halliburton cannot and does not warrant the accuracy 
#or correctness of such information and interpretations.  Under no circumstances should any 
#such information or interpretation be relied upon as the sole basis for any drilling, 
#completion, production, or financial decision or any procedure involving any risk to the 
#safety of any drilling venture, drilling rig or its crew or any other third party.  The 
#Customer has full responsibility for all drilling, completion and production operation.  
#Halliburton makes no representations or warranties, either expressed or 
#implied, including, but not limited to, the implied warranties of merchantability or fitness 
#for a particular purpose, with respect to the services rendered.  In no event will 
#Halliburton be liable for failure to obtain any particular results or for 
#any damages, including, but not limited to, indirect, special or consequential damages, 
#resulting from the use of any information or interpretation provided by Halliburton.
#
~A           TIME           GTDEPTH  GTPQH  GTTQ  GTTN  GTET   GTTVD  
   23:23:54.629.27-Apr-2021 3418.01 6046.43 74.18 6.00   0.00 2727.14
   23:23:54.830.27-Apr-2021 3418.01 6046.43 74.18 6.00   0.20 2727.14
   23:23:55.030.27-Apr-2021 3418.01 6049.29 74.18 6.00   0.40 2727.14
   23:23:55.230.27-Apr-2021 3418.01 6046.74 74.18 6.00   0.60 2727.14
   23:23:55.430.27-Apr-2021 3418.01 6049.74 74.18 6.00   0.80 2727.14
   23:23:55.630.27-Apr-2021 3418.01 6043.85 74.18 6.00   1.00 2727.14
   23:23:55.830.27-Apr-2021 3418.01 6043.85 74.18 6.00   1.20 2727.14
   23:23:56.030.27-Apr-2021 3418.01 6049.96 74.18 6.00   1.40 2727.14
   23:23:56.230.27-Apr-2021 3418.01 6050.92 74.18 6.00   1.60 2727.14
   23:23:56.430.27-Apr-2021 3418.01 6049.46 74.18 6.00   1.80 2727.14
   23:23:56.630.27-Apr-2021 3418.01 6055.93 74.18 6.00   2.00 2727.14
   23:23:56.830.27-Apr-2021 3418.01 6055.93 74.18 6.00   2.20 2727.14
   23:23:57.030.27-Apr-2021 3418.01 6053.97 74.18 6.00   2.40 2727.14
   23:23:57.230.27-Apr-2021 3418.01 6055.83 74.18 6.00   2.60 2727.14
   23:23:57.430.27-Apr-2021 3418.01 6048.39 74.18 6.00   2.80 2727.14
   23:23:57.630.27-Apr-2021 3418.01 6049.18 74.17 6.00   3.00 2727.14
   23:23:57.830.27-Apr-2021 3418.01 6049.18 74.17 6.00   3.20 2727.14
   23:23:58.030.27-Apr-2021 3418.01 6051.89 74.17 6.00   3.40 2727.14
   23:23:58.230.27-Apr-2021 3418.01 6050.35 74.17 6.00   3.60 2727.14
   23:23:58.430.27-Apr-2021 3418.01 6046.72 74.17 6.00   3.80 2727.14
   23:23:58.630.27-Apr-2021 3418.01 6046.85 74.17 6.00   4.00 2727.14
   23:23:58.831.27-Apr-2021 3418.01 6046.85 74.17 6.00   4.20 2727.14
   23:23:59.031.27-Apr-2021 3418.01 6047.64 74.17 6.00   4.40 2727.14
   23:23:59.231.27-Apr-2021 3418.01 6050.57 74.17 6.00   4.60 2727.14
   23:23:59.431.27-Apr-2021 3418.01 6050.68 74.17 6.00   4.80 2727.14
   23:23:59.631.27-Apr-2021 3418.01 6047.06 74.17 6.00   5.00 2727.14
   23:23:59.831.27-Apr-2021 3418.01 6047.06 74.17 6.00   5.20 2727.14
   23:24:00.031.27-Apr-2021 3418.01 6051.52 74.17 6.00   5.40 2727.14
   23:24:00.231.27-Apr-2021 3418.01 6048.39 74.17 6.00   5.60 2727.14
   23:24:00.431.27-Apr-2021 3418.01 6042.75 74.17 6.00   5.80 2727.14
   23:24:00.631.27-Apr-2021 3418.01 6049.33 74.17 6.00   6.00 2727.14
   23:24:00.831.27-Apr-2021 3418.01 6049.33 74.17 6.00   6.20 2727.14
   23:24:01.031.27-Apr-2021 3418.01 6049.33 74.17 6.00   6.40 2727.14
   23:24:01.231.27-Apr-2021 3418.01 6049.70 74.16 6.00   6.60 2727.14
   23:24:01.431.27-Apr-2021 3418.01 6050.01 74.16 6.00   6.80 2727.14
   23:24:01.631.27-Apr-2021 3418.01 6052.44 74.16 6.00   7.00 2727.14
   23:24:01.831.27-Apr-2021 3418.01 6052.44 74.16 6.00   7.20 2727.14
   23:24:02.031.27-Apr-2021 3418.01 6051.49 74.16 6.00   7.40 2727.14
   23:24:02.231.27-Apr-2021 3418.01 6052.54 74.16 6.00   7.60 2727.14
   23:24:02.431.27-Apr-2021 3418.01 6047.70 74.16 6.00   7.80 2727.14
   23:24:02.632.27-Apr-2021 3418.01 6046.31 74.16 6.00   8.00 2727.14
   23:24:02.832.27-Apr-2021 3418.01 6046.31 74.16 6.00   8.20 2727.14
   23:24:03.032.27-Apr-2021 3418.01 6052.37 74.16 6.00   8.40 2727.14
   23:24:03.232.27-Apr-2021 3418.01 6049.57 74.16 6.00   8.60 2727.14
   23:24:03.432.27-Apr-2021 3418.01 6052.90 74.16 6.00   8.80 2727.14
   23:24:03.632.27-Apr-2021 3418.01 6054.81 74.16 6.00   9.00 2727.14
   23:24:03.832.27-Apr-2021 3418.01 6054.81 74.16 6.00   9.20 2727.14
   23:24:04.032.27-Apr-2021 3418.01 6052.66 74.16 6.00   9.40 2727.14
   23:24:04.232.27-Apr-2021 3418.01 6055.58 74.15 6.00   9.60 2727.14
   23:24:04.432.27-Apr-2021 3418.01 6055.08 74.15 6.00   9.80 2727.14
   23:24:04.632.27-Apr-2021 3418.01 6054.83 74.15 6.00  10.00 2727.14
   23:24:04.832.27-Apr-2021 3418.01 6054.83 74.15 6.00  10.20 2727.14
   23:24:05.032.27-Apr-2021 3418.01 6055.71 74.15 6.00  10.40 2727.14
   23:24:05.232.27-Apr-2021 3418.01 6040.10 74.15 6.00  10.60 2727.14
   23:24:05.432.27-Apr-2021 3418.01 6016.07 74.15 6.00  10.80 2727.14
   23:24:05.632.27-Apr-2021 3418.01 5992.48 74.15 6.00  11.00 2727.14
   23:24:05.832.27-Apr-2021 3418.01 5992.48 74.15 6.00  11.20 2727.14
   23:24:06.032.27-Apr-2021 3418.01 5999.11 74.15 6.00  11.40 2727.14
   23:24:06.232.27-Apr-2021 3418.01 6001.55 74.15 6.00  11.60 2727.14
   23:24:06.433.27-Apr-2021 3418.01 5981.91 74.15 6.00  11.80 2727.14
   23:24:06.633.27-Apr-2021 3418.01 5982.00 74.15 6.00  12.00 2727.14
   23:24:06.833.27-Apr-2021 3418.01 5982.00 74.15 6.00  12.20 2727.14
   23:24:07.033.27-Apr-2021 3418.01 5976.47 74.15 6.00  12.40 2727.14
   23:24:07.233.27-Apr-2021 3418.01 5968.41 74.14 6.00  12.60 2727.14
   23:24:07.433.27-Apr-2021 3418.01 5931.50 74.14 6.00  12.80 2727.14
   23:24:07.633.27-Apr-2021 3418.01 5873.71 74.14 6.00  13.00 2727.14
   23:24:07.833.27-Apr-2021 3418.01 5873.71 74.14 6.00  13.20 2727.14
   23:24:08.033.27-Apr-2021 3418.01 5781.53 74.14 6.00  13.40 2727.14
   23:24:08.233.27-Apr-2021 3418.01 5721.80 74.14 6.00  13.60 2727.14
   23:24:08.433.27-Apr-2021 3418.01 5672.17 74.14 6.00  13.80 2727.14
   23:24:08.633.27-Apr-2021 3418.01 5624.33 74.14 6.00  14.00 2727.14
   23:24:08.833.27-Apr-2021 3418.01 5624.33 74.14 6.00  14.20 2727.14
   23:24:09.033.27-Apr-2021 3418.01 5475.62 74.14 6.00  14.40 2727.14
   23:24:09.233.27-Apr-2021 3418.01 5377.33 74.14 6.00  14.60 2727.14
   23:24:09.433.27-Apr-2021 3418.01 5296.33 74.14 6.00  14.80 2727.14
   23:24:09.633.27-Apr-2021 3418.01 5208.86 74.14 6.00  15.00 2727.14
   23:24:09.833.27-Apr-2021 3418.01 5208.86 74.14 6.00  15.20 2727.14
   23:24:10.033.27-Apr-2021 3418.01 4996.36 74.14 6.00  15.40 2727.14
   23:24:10.233.27-Apr-2021 3418.01 4938.71 74.13 6.00  15.60 2727.14
   23:24:10.434.27-Apr-2021 3418.01 4872.72 74.13 6.00  15.80 2727.14
   23:24:10.634.27-Apr-2021 3418.01 4821.01 74.13 6.00  16.00 2727.14
   23:24:10.834.27-Apr-2021 3418.01 4821.01 74.13 6.00  16.20 2727.14
   23:24:11.034.27-Apr-2021 3418.01 4766.40 74.13 6.00  16.40 2727.14
   23:24:11.234.27-Apr-2021 3418.01 4791.71 74.13 6.00  16.60 2727.14
   23:24:11.434.27-Apr-2021 3418.01 4790.38 74.13 6.00  16.80 2727.14
   23:24:11.634.27-Apr-2021 3418.01 4748.72 74.13 6.00  17.00 2727.14
   23:24:11.834.27-Apr-2021 3418.01 4748.72 74.13 6.00  17.20 2727.14
   23:24:12.034.27-Apr-2021 3418.01 4748.05 74.13 6.00  17.40 2727.14
   23:24:12.234.27-Apr-2021 3418.01 4713.65 74.13 6.00  17.60 2727.14
   23:24:12.434.27-Apr-2021 3418.01 4703.64 74.12 6.00  17.80 2727.14
   23:24:12.634.27-Apr-2021 3418.01 4693.99 74.12 6.00  18.00 2727.14
   23:24:12.834.27-Apr-2021 3418.01 4693.99 74.12 6.00  18.20 2727.14
   23:24:13.034.27-Apr-2021 3418.01 6553.15 74.12 6.00  18.40 2727.14
   23:24:13.234.27-Apr-2021 3418.01 6957.72 74.12 6.00  18.60 2727.14
   23:24:13.434.27-Apr-2021 3418.01 7195.72 74.12 6.00  18.80 2727.14
   23:24:13.634.27-Apr-2021 3418.01 7371.46 74.12 6.00  19.00 2727.14
   23:24:13.834.27-Apr-2021 3418.01 7371.46 74.12 6.00  19.20 2727.14
   23:24:14.034.27-Apr-2021 3418.01 7709.41 74.12 6.00  19.40 2727.14
   23:24:14.235.27-Apr-2021 3418.01 7801.13 74.12 6.00  19.61 2727.14
   23:24:14.435.27-Apr-2021 3418.01 7888.40 74.12 6.00  19.81 2727.14
   23:24:14.635.27-Apr-2021 3418.01 7923.18 74.12 6.00  20.01 2727.14
   23:24:14.835.27-Apr-2021 3418.01 7923.18 74.12 6.00  20.21 2727.14
   23:24:15.035.27-Apr-2021 3418.01 7963.96 74.12 6.00  20.41 2727.14
   23:24:15.235.27-Apr-2021 3418.01 7965.01 74.12 6.00  20.61 2727.14
   23:24:15.435.27-Apr-2021 3418.01 7966.19 74.12 6.00  20.81 2727.14
   23:24:15.635.27-Apr-2021 3418.01 7956.17 74.12 6.00  21.01 2727.14
   23:24:15.835.27-Apr-2021 3418.01 7956.17 74.12 6.00  21.21 2727.14
   23:24:16.035.27-Apr-2021 3418.01 7962.56 74.12 6.00  21.41 2727.14
   23:24:16.235.27-Apr-2021 3418.01 7961.40 74.12 6.00  21.61 2727.14
   23:24:16.435.27-Apr-2021 3418.01 7964.73 74.12 6.00  21.81 2727.14
   23:24:16.635.27-Apr-2021 3418.01 7967.07 74.12 6.00  22.01 2727.14
   23:24:16.835.27-Apr-2021 3418.01 7967.07 74.12 6.00  22.21 2727.14
   23:24:17.035.27-Apr-2021 3418.01 7969.71 74.12 6.00  22.41 2727.14
   23:24:17.235.27-Apr-2021 3418.01 7971.13 74.12 6.00  22.61 2727.14
   23:24:17.435.27-Apr-2021 3418.01 7972.59 74.12 6.00  22.81 2727.14
