~Version Information
 VERS.                  2.0:   CWLS log ASCII Standard -VERSION 2.0
 WRAP.                   NO:   One line per depth step
~Well Information Block
#MNEM.UNIT     VALUE/NAME     DESCRIPTION
#---------     -----------    ---------------------------
 STRT.S             18:57:18 28-Apr-21: START TIME 18:57:18 28-Apr-21
 STOP.S             19:03:45 28-Apr-21: STOP TIME  19:03:45 28-Apr-21
 STEP.S                   0.00: STEP TIME
 NULL.                 -999.25: NULL VALUE
 DFWT.                        :  DIST FWL TEXT
 DFST.                        :  DIST FSL TEXT
 DMF .             Drill Floor:  DRILL MEAS FROM
 STIM.      02.00.00 12-Apr-21:  START TIME
 DATE.      02.00.00 02-May-21:  END TIME
 SPUD.               09-Apr-21:  SPUD DATE
 NREF.                    Grid:  NORTH REFERENCE
 HPTY.       Minimum Curvature:  HOLE POS TYPE
 DMOD.             Drill Model:  DRILL MOD DESC
 SVYD.                  Survey:  SURVEY DESC
 ILTD.               Lithology:  INTERP LTH DESC
 FTOP.          Formation Tops:  FORM TOPS DESC
 PDAT.          Mean Sea Level:  PERMANENT DATUM
 FLD .                     ACG:  FIELD NAME
 SON .        AZ-XX-0907021034:  JOB NUMBER
 CTRY.              Azerbaijan:  COUNTRY NAME
 WELL.                    E01x:  WELL NAME
 COMP.     BP Exploration (Caspian Sea) LTD.:  COMPANY
 UWI .            /AZE00001403:  UNIQUE WELL IDENTIFIER
 API .            /AZE00001403:  API NUMBER
 WTYP.                Deviated:  WELL TYPE
 MDS .        Operator Entered:  MAG DATA SOURCE
 BASE.              Azerbaijan:  LOGGING EQUIPMENT BASE LOCATION
 REGN.                   EESSA:  REGION
 PROV.                    Baku:  PROVINCE
 STAT.                    Baku:  STATE NAME
 SRVC.          Turan Drilling:  CONTRACTOR
 MWDS.                    Baku:  MWD SHOP
 JOBN.        AZ-XX-0907021034:  JOB TICKET NUMB
 RIG .                     DWG:  RIG NAME
 DOE .                     N/A:  DOE NUMBER
 DCON.         Sperry Drilling:  DIRECTNL CONTR
 UNIT.                     N/A:  LOGGING EQUIPMENT ID
 CNTY.                        :  COUNTY
 LOC .                        :  LOCATION
 LMF .             Drill Floor:  LOG MEASURED FROM
 TVDS.m                  43.16:  TVDSS CORRECTN
 LATI.deg                40.17:  LATITUDE
 LONG.deg                51.17:  LONGITUDE
 WHNS.m                  -5.90:  WELL HEAD N/S
 WHEW.m                  -6.61:  WELL HEAD E/W
 UTMX.m              514337.95:  UTM X
 UTMY.m             4448627.46:  UTM Y
 DFWL.m                   0.00:  DISTANCE FWL
 DFSL.m                   0.00:  DISTANCE FSL
 SDEP.m                2606.87:  START DEPTH
 TDD .m                3618.01:  TOTAL DEPTH (DRILLER)
 VSDR.deg               177.42:  VERT SEC DIRECT
 GVFD.g                   1.00:  GRAVITY FIELD
 MFLD.nT              50399.00:  MAGNETIC FIELD
 MDIP.deg                59.67:  MAGNETIC DIP
 MDEC.deg                 6.56:  MAGNETIC DECL
 GRDC.deg                 0.11:  GRID CORRECTION
 AZTC.deg                 6.45:  AZM TOTAL CORR
 EPD .m                   0.00:  ELEVATION
 EGL .m                   0.00:  GROUND ELEVATION
 WDMS.m                 176.20:  WD ELEV
 APD .m                  43.16:  DEPTH ABOVE PD
 DEP .m                2606.87:  DEPTH
 AGAP.m                  43.16:  AIR GAP
 VSEW.m                  -6.61:  VERT SEC E/W
 VSNS.m                  -5.90:  VERT SEC N/S
 EKB .m                  43.16:  KB ELEVATION
 EDF .m                  43.16:  DF ELEVATION
 TDL .m                 438.00:  TOTAL DEPTH (LOGGER)
 VSC .                       0:  VS TO CLOSURE
 MAGU.                 1855490:  MAGUTM CHECKSUM
~Parameter Information Block
#MNEM.UNIT       Value        Description
#---------     -----------    ---------------------------
 AV  .mps                 2.20:  Ann Velocity 
 AVMX.mps                 2.50:  Max Ann Veloc 
 AZIF.deg               150.21:  Azm, Final 
 BHAT.        Rotary Steerable:  BHA Type 
 BROT.°/30m               0.08:  Build Rotating 
 BS  .in                  6.50:  Bit Size 
 BSZ .in                  6.50:  Bit Size 
 BTPL.psig              108.00:  Bit Press Loss 
 CABU.                     Yes:  Customer Abuse 
 CGEO.           Emin Aliyarli:  Customer Geo 
 COMM.                     ´âi:  Run Comments 1 
 TCS .hr                 74.20:  Time Ciculation Ended 
 CV  .mps                 3.63:  Crit Velocity 
 CVMX.mps                 3.66:  Max Crit Veloc 
 DD1 .         Intigam Rahimov:  Direct Drillr 1 
 DD2 .          Teymur Aghayev:  Direct Drillr 2 
 DDSV.               Geo-Pilot:  DD Service 
 DEFF.%                  97.00:  % Det Eff 
 DLRX.°/30m               1.63:  Dogleg Rot Max 
 DLSO.°/30m               0.00:  Dogleg Oriented 
 DLSX.°/30m               0.00:  Dogleg Str Max 
 DRET.      20.20.00 28-Apr-21:  Drill End Time 
 DRST.      04.45.00 26-Apr-21:  Drill Start Tim 
 DTIM.hr                 34.30:  Time Drilling 
 EDEP.m                3618.01:  End Depth 
 ENG1.           Amrah Tahirov:  Engineer 1 
 ENG2.         Bahruz Mehdiyev:  Engineer 2 
 ENG3.         Farhad Orujzade:  Engineer 3 
 ETIM.      19.00.00 29-Apr-21:  End Time 
 FLOI.gpm               370.00:  Flow In 
 FLON.gpm               300.00:  Flow In Min 
 FLOS.cptm                0.00:  Fluid Loss 
 FLOX.gpm               410.00:  Flow In Max 
 HFLO.                      No:  High Flow 
 HPRE.                      No:  High Pressure 
 HTEM.                      No:  High Temp 
 HYDO.m                   1.80:  Hydro Offset 
 IFIN.deg                67.19:  Inc, Final 
 IMAX.deg                68.42:  Inc Max 
 IMIN.deg                66.33:  Inc Min 
 IMND.m                3532.79:  Inc Min Depth 
 IMXD.m                3192.15:  Inc Max Depth 
 JARR.                      No:  Jarring 
 LETM.      20.20.00 28-Apr-21:  Log End Time 
 LOST.hr                     0:  Lost Rig Time 
 LSTM.      04.45.00 26-Apr-21:  Log Start Time 
 MDCL.ppm             36500.00:  Mud Chlorides 
 MDES.     Inversion Oil/Synthetic:  Mud Desc 
 DFD .sg                  1.42:  Mud Density 
 MDMN.sg                  1.42:  Dens Mud Min 
 MDMX.sg                  1.42:  Dens Mud Max 
 MOIL.                    55.7:  Run Mud Oil % 
 MOWR.                   71:29:  Run Mud OWR 
 MSND.                     0.1:  Run Mud Sand % 
 MSOL.                    19.9:  Run Mud Solids% 
 DFV .spqt               83.00:  Mud Viscosity 
 MWOD.in                  5.15:  MWD Tool OD 
 MWSI.                      No:  Serv Intrp, MWD 
 OTIM.hr                120.59:  Time Operating 
 PCON.           Look Like New:  Pad Condition 
 PMAX.psia            11292.93:  Press Op, Max 
 PV  .cP                 27.00:  Mud PV 
 RUN .                     400:  Run Number 
 ROPA.m/hr               14.00:  ROP Avg 
 ROPN.m/hr                9.00:  ROP Min 
 ROPX.m/hr               18.00:  ROP Max 
 RPMA.rpm               130.00:  RPM Surface Avg 
 RPMN.rpm               100.00:  RPM Surface Min 
 RPMX.rpm               140.00:  RPM Surface Max 
 RRUN.                    0400:  Rig Run Number 
 RTIM.hr                 38.60:  Time Reaming 
 SAZI.deg               149.55:  Azm, Start 
 SDEP.m                3180.01:  Start Depth 
 SIDD.                      No:  Serv Intrp, DD 
 SINC.deg                68.42:  Inc, Start 
 SPPA.psig             4400.00:  SPP Avg 
 SPPN.psig             3580.00:  SPP Min 
 SPPX.psig             4850.00:  SPP Max 
 STIM.      12.30.00 24-Apr-21:  Start Time 
 SVCS.                 DD, MWD:  Services 
 SVER.                    9.20:  Sperry Version 
 TDAT.m                 438.00:  Tot Depth Attmp 
 TDDF.                      No:  Trip for DD 
 TDLG.m                 438.00:  Tot Depth Loggd 
 TFF .                      No:  Trip for Fail 
 TQAA.f-kp               11.00:  Torque Abs Avg 
 TQAN.f-kp                9.00:  Torque Abs Min 
 TQAX.f-kp               14.00:  Torque Abs Max 
 TRRT.°/30m               0.04:  Turn Rotating 
 MRT .                    HCIM:  Maximum Recorded Temperature 
 TTMX.degC               84.31:  Max Tool Temp 
 VS01.                90521954:  Virtual Str1 SN 
 VS02.                90519327:  Virtual Str2 SN 
 VS03.                90522273:  Virtual Str3 SN 
 VS04.                11108038:  Virtual Str4 SN 
 VS05.                12258760:  Virtual Str5 SN 
 WBMN.klb                 1.00:  WOB Min 
 WITN.           Adil Mammadov:  Customer Rep 
 WITN.         Alex Yadullayev:  Customer Rep 2 
 WOBA.klb                 6.00:  WOB Avg 
 WOBX.klb                 9.00:  WOB Max 
 YP  .lhf2               31.00:  Yield Point 
~Curve Information Block
#MNEM.UNIT                 API CODE     Curve Description
#---------               -----------    ---------------------------
 TIME.HHMMSS            00 000 000 000:  GT Time & Date
 GTDEPTH.m              00 000 000 000:  GT Depth
 GTPQH.psia             00 000 000 000:  GT HR Quartz Pressure
 GTTQ.degC              00 000 000 000:  GT Quartz Temperature
 GTTN.NONE              00 000 000 000:  GT Test Number
 GTET.sec               00 000 000 000:  GT Elapsed Test Time
 GTTVD.m                00 000 000 000:  GT True Vertical Depth
#Other Information
#
#WARRANTY: Halliburton will use its best efforts to furnish customers with 
#accurate information and interpretations that are part of, and incident to, the services 
#provided.  However, Halliburton cannot and does not warrant the accuracy 
#or correctness of such information and interpretations.  Under no circumstances should any 
#such information or interpretation be relied upon as the sole basis for any drilling, 
#completion, production, or financial decision or any procedure involving any risk to the 
#safety of any drilling venture, drilling rig or its crew or any other third party.  The 
#Customer has full responsibility for all drilling, completion and production operation.  
#Halliburton makes no representations or warranties, either expressed or 
#implied, including, but not limited to, the implied warranties of merchantability or fitness 
#for a particular purpose, with respect to the services rendered.  In no event will 
#Halliburton be liable for failure to obtain any particular results or for 
#any damages, including, but not limited to, indirect, special or consequential damages, 
#resulting from the use of any information or interpretation provided by Halliburton.
#
~A           TIME           GTDEPTH  GTPQH  GTTQ  GTTN   GTET   GTTVD  
# ...
   19:03:19.940.28-Apr-2021 3565.01 6108.37 74.66 11.00 361.71 2784.87
   19:03:20.140.28-Apr-2021 3565.01 6106.39 74.66 11.00 361.91 2784.87
   19:03:20.340.28-Apr-2021 3565.01 6107.57 74.66 11.00 362.11 2784.87
   19:03:20.540.28-Apr-2021 3565.01 6107.57 74.66 11.00 362.31 2784.87
   19:03:20.740.28-Apr-2021 3565.01 6110.75 74.66 11.00 362.51 2784.87
   19:03:20.940.28-Apr-2021 3565.01 6108.58 74.66 11.00 362.71 2784.87
   19:03:21.140.28-Apr-2021 3565.01 6098.04 74.66 11.00 362.91 2784.87
   19:03:21.340.28-Apr-2021 3565.01 6108.20 74.66 11.00 363.11 2784.87
   19:03:21.540.28-Apr-2021 3565.01 6108.20 74.66 11.00 363.31 2784.87
   19:03:21.740.28-Apr-2021 3565.01 6109.35 74.66 11.00 363.51 2784.87
   19:03:21.940.28-Apr-2021 3565.01 6107.29 74.66 11.00 363.71 2784.87
   19:03:22.140.28-Apr-2021 3565.01 6101.55 74.66 11.00 363.91 2784.87
   19:03:22.341.28-Apr-2021 3565.01 6103.13 74.66 11.00 364.11 2784.87
   19:03:22.541.28-Apr-2021 3565.01 6103.13 74.66 11.00 364.31 2784.87
   19:03:22.741.28-Apr-2021 3565.01 6109.87 74.65 11.00 364.51 2784.87
   19:03:22.941.28-Apr-2021 3565.01 6107.70 74.65 11.00 364.71 2784.87
   19:03:23.141.28-Apr-2021 3565.01 6104.93 74.65 11.00 364.91 2784.87
   19:03:23.341.28-Apr-2021 3565.01 6100.91 74.65 11.00 365.11 2784.87
   19:03:23.541.28-Apr-2021 3565.01 6100.91 74.65 11.00 365.31 2784.87
   19:03:23.741.28-Apr-2021 3565.01 6109.35 74.65 11.00 365.51 2784.87
   19:03:23.941.28-Apr-2021 3565.01 6109.50 74.65 11.00 365.71 2784.87
   19:03:24.141.28-Apr-2021 3565.01 6106.91 74.65 11.00 365.91 2784.87
   19:03:24.341.28-Apr-2021 3565.01 6095.71 74.65 11.00 366.11 2784.87
   19:03:24.541.28-Apr-2021 3565.01 6095.71 74.65 11.00 366.31 2784.87
   19:03:24.741.28-Apr-2021 3565.01 6111.19 74.65 11.00 366.51 2784.87
   19:03:24.941.28-Apr-2021 3565.01 6109.05 74.65 11.00 366.71 2784.87
   19:03:25.141.28-Apr-2021 3565.01 6105.03 74.65 11.00 366.91 2784.87
   19:03:25.341.28-Apr-2021 3565.01 6104.06 74.65 11.00 367.11 2784.87
   19:03:25.541.28-Apr-2021 3565.01 6104.06 74.65 11.00 367.31 2784.87
   19:03:25.742.28-Apr-2021 3565.01 6109.80 74.65 11.00 367.51 2784.87
   19:03:25.942.28-Apr-2021 3565.01 6109.79 74.65 11.00 367.71 2784.87
   19:03:26.142.28-Apr-2021 3565.01 6106.59 74.65 11.00 367.91 2784.87
   19:03:26.342.28-Apr-2021 3565.01 6107.18 74.64 11.00 368.11 2784.87
   19:03:26.542.28-Apr-2021 3565.01 6107.18 74.64 11.00 368.31 2784.87
   19:03:26.742.28-Apr-2021 3565.01 6107.18 74.64 11.00 368.51 2784.87
   19:03:26.942.28-Apr-2021 3565.01 6097.56 74.64 11.00 368.71 2784.87
   19:03:27.142.28-Apr-2021 3565.01 6107.12 74.64 11.00 368.91 2784.87
   19:03:27.342.28-Apr-2021 3565.01 6108.23 74.64 11.00 369.11 2784.87
   19:03:27.542.28-Apr-2021 3565.01 6108.23 74.64 11.00 369.31 2784.87
   19:03:27.742.28-Apr-2021 3565.01 6108.50 74.64 11.00 369.51 2784.87
   19:03:27.942.28-Apr-2021 3565.01 6103.55 74.64 11.00 369.71 2784.87
   19:03:28.142.28-Apr-2021 3565.01 6106.44 74.64 11.00 369.91 2784.87
   19:03:28.342.28-Apr-2021 3565.01 6106.64 74.64 11.00 370.11 2784.87
   19:03:28.542.28-Apr-2021 3565.01 6106.64 74.64 11.00 370.31 2784.87
   19:03:28.742.28-Apr-2021 3565.01 6108.02 74.64 11.00 370.51 2784.87
   19:03:28.942.28-Apr-2021 3565.01 6106.36 74.64 11.00 370.71 2784.87
   19:03:29.143.28-Apr-2021 3565.01 6108.22 74.64 11.00 370.91 2784.87
   19:03:29.343.28-Apr-2021 3565.01 6108.88 74.64 11.00 371.11 2784.87
   19:03:29.543.28-Apr-2021 3565.01 6108.88 74.64 11.00 371.31 2784.87
   19:03:29.743.28-Apr-2021 3565.01 6102.47 74.64 11.00 371.51 2784.87
   19:03:29.943.28-Apr-2021 3565.01 6103.23 74.64 11.00 371.71 2784.87
   19:03:30.143.28-Apr-2021 3565.01 6107.35 74.63 11.00 371.91 2784.87
   19:03:30.343.28-Apr-2021 3565.01 6109.24 74.63 11.00 372.11 2784.87
   19:03:30.543.28-Apr-2021 3565.01 6109.24 74.63 11.00 372.31 2784.87
   19:03:30.743.28-Apr-2021 3565.01 6104.34 74.63 11.00 372.51 2784.87
   19:03:30.943.28-Apr-2021 3565.01 6095.67 74.63 11.00 372.71 2784.87
   19:03:31.143.28-Apr-2021 3565.01 6109.08 74.63 11.00 372.91 2784.87
   19:03:31.343.28-Apr-2021 3565.01 6109.01 74.63 11.00 373.11 2784.87
   19:03:31.543.28-Apr-2021 3565.01 6109.01 74.63 11.00 373.31 2784.87
   19:03:31.743.28-Apr-2021 3565.01 6107.09 74.63 11.00 373.51 2784.87
   19:03:31.943.28-Apr-2021 3565.01 6104.50 74.63 11.00 373.71 2784.87
   19:03:32.143.28-Apr-2021 3565.01 6097.68 74.63 11.00 373.91 2784.87
   19:03:32.343.28-Apr-2021 3565.01 6110.92 74.63 11.00 374.11 2784.87
   19:03:32.544.28-Apr-2021 3565.01 6110.92 74.63 11.00 374.31 2784.87
   19:03:32.744.28-Apr-2021 3565.01 6107.32 74.63 11.00 374.51 2784.87
   19:03:32.944.28-Apr-2021 3565.01 6099.52 74.63 11.00 374.71 2784.87
   19:03:33.144.28-Apr-2021 3565.01 6101.99 74.63 11.00 374.91 2784.87
   19:03:33.344.28-Apr-2021 3565.01 6108.05 74.63 11.00 375.11 2784.87
   19:03:33.544.28-Apr-2021 3565.01 6108.05 74.63 11.00 375.31 2784.87
   19:03:33.744.28-Apr-2021 3565.01 6107.82 74.63 11.00 375.51 2784.87
   19:03:33.944.28-Apr-2021 3565.01 6102.71 74.62 11.00 375.71 2784.87
   19:03:34.144.28-Apr-2021 3565.01 6104.80 74.62 11.00 375.91 2784.87
   19:03:34.344.28-Apr-2021 3565.01 6108.22 74.62 11.00 376.11 2784.87
   19:03:34.544.28-Apr-2021 3565.01 6108.22 74.62 11.00 376.31 2784.87
   19:03:34.744.28-Apr-2021 3565.01 6108.67 74.62 11.00 376.51 2784.87
   19:03:34.944.28-Apr-2021 3565.01 6105.78 74.62 11.00 376.71 2784.87
   19:03:35.144.28-Apr-2021 3565.01 6107.34 74.62 11.00 376.91 2784.87
   19:03:35.344.28-Apr-2021 3565.01 6109.18 74.62 11.00 377.11 2784.87
   19:03:35.544.28-Apr-2021 3565.01 6109.18 74.62 11.00 377.31 2784.87
   19:03:35.744.28-Apr-2021 3565.01 6099.04 74.62 11.00 377.51 2784.87
   19:03:35.945.28-Apr-2021 3565.01 6104.99 74.62 11.00 377.71 2784.87
   19:03:36.145.28-Apr-2021 3565.01 6108.43 74.62 11.00 377.91 2784.87
   19:03:36.345.28-Apr-2021 3565.01 6108.59 74.62 11.00 378.11 2784.87
   19:03:36.545.28-Apr-2021 3565.01 6108.59 74.62 11.00 378.31 2784.87
   19:03:36.745.28-Apr-2021 3565.01 6104.49 74.62 11.00 378.51 2784.87
   19:03:36.945.28-Apr-2021 3565.01 6106.05 74.62 11.00 378.71 2784.87
   19:03:37.145.28-Apr-2021 3565.01 6106.65 74.62 11.00 378.91 2784.87
   19:03:37.345.28-Apr-2021 3565.01 6107.20 74.62 11.00 379.11 2784.87
   19:03:37.545.28-Apr-2021 3565.01 6107.20 74.62 11.00 379.31 2784.87
   19:03:37.745.28-Apr-2021 3565.01 6106.59 74.61 11.00 379.51 2784.87
   19:03:37.945.28-Apr-2021 3565.01 6108.37 74.61 11.00 379.71 2784.87
   19:03:38.145.28-Apr-2021 3565.01 6108.66 74.61 11.00 379.91 2784.87
   19:03:38.345.28-Apr-2021 3565.01 6107.20 74.61 11.00 380.11 2784.87
   19:03:38.545.28-Apr-2021 3565.01 6107.20 74.61 11.00 380.31 2784.87
   19:03:38.745.28-Apr-2021 3565.01 6108.74 74.61 11.00 380.51 2784.87
   19:03:38.945.28-Apr-2021 3565.01 6108.56 74.61 11.00 380.71 2784.87
   19:03:39.145.28-Apr-2021 3565.01 6108.46 74.61 11.00 380.91 2784.87
   19:03:39.346.28-Apr-2021 3565.01 6108.48 74.61 11.00 381.11 2784.87
   19:03:39.546.28-Apr-2021 3565.01 6108.48 74.61 11.00 381.31 2784.87
   19:03:39.746.28-Apr-2021 3565.01 6096.27 74.61 11.00 381.51 2784.87
   19:03:39.946.28-Apr-2021 3565.01 6108.60 74.61 11.00 381.71 2784.87
   19:03:40.146.28-Apr-2021 3565.01 6109.60 74.61 11.00 381.91 2784.87
   19:03:40.346.28-Apr-2021 3565.01 6108.26 74.61 11.00 382.11 2784.87
   19:03:40.546.28-Apr-2021 3565.01 6108.26 74.61 11.00 382.31 2784.87
   19:03:40.746.28-Apr-2021 3565.01 6105.26 74.61 11.00 382.51 2784.87
   19:03:40.946.28-Apr-2021 3565.01 6099.62 74.61 11.00 382.71 2784.87
   19:03:41.146.28-Apr-2021 3565.01 6109.41 74.61 11.00 382.91 2784.87
   19:03:41.346.28-Apr-2021 3565.01 6109.50 74.60 11.00 383.11 2784.87
   19:03:41.546.28-Apr-2021 3565.01 6109.50 74.60 11.00 383.31 2784.87
   19:03:41.746.28-Apr-2021 3565.01 6094.50 74.60 11.00 383.51 2784.87
   19:03:41.946.28-Apr-2021 3565.01 6106.80 74.60 11.00 383.71 2784.87
   19:03:42.146.28-Apr-2021 3565.01 6110.14 74.60 11.00 383.91 2784.87
   19:03:42.346.28-Apr-2021 3565.01 6109.21 74.60 11.00 384.11 2784.87
