~Version Information
 VERS.                  2.0:   CWLS log ASCII Standard -VERSION 2.0
 WRAP.                   NO:   One line per depth step
~Well Information Block
#MNEM.UNIT     VALUE/NAME     DESCRIPTION
#---------     -----------    ---------------------------
 STRT.S             23:23:54 27-Apr-21: START TIME 23:23:54 27-Apr-21
 STOP.S             23:30:22 27-Apr-21: STOP TIME  23:30:22 27-Apr-21
 STEP.S                   0.00: STEP TIME
 NULL.                 -999.25: NULL VALUE
 DFWT.                        :  DIST FWL TEXT
 DFST.                        :  DIST FSL TEXT
 DMF .             Drill Floor:  DRILL MEAS FROM
 STIM.      02.00.00 12-Apr-21:  START TIME
 DATE.      02.00.00 02-May-21:  END TIME
 SPUD.               09-Apr-21:  SPUD DATE
 NREF.                    Grid:  NORTH REFERENCE
 HPTY.       Minimum Curvature:  HOLE POS TYPE
 DMOD.             Drill Model:  DRILL MOD DESC
 SVYD.                  Survey:  SURVEY DESC
 ILTD.               Lithology:  INTERP LTH DESC
 FTOP.          Formation Tops:  FORM TOPS DESC
 PDAT.          Mean Sea Level:  PERMANENT DATUM
 FLD .                     ACG:  FIELD NAME
 SON .        AZ-XX-0907021034:  JOB NUMBER
 CTRY.              Azerbaijan:  COUNTRY NAME
 WELL.                    E01x:  WELL NAME
 COMP.     BP Exploration (Caspian Sea) LTD.:  COMPANY
 UWI .            /AZE00001403:  UNIQUE WELL IDENTIFIER
 API .            /AZE00001403:  API NUMBER
 WTYP.                Deviated:  WELL TYPE
 MDS .        Operator Entered:  MAG DATA SOURCE
 BASE.              Azerbaijan:  LOGGING EQUIPMENT BASE LOCATION
 REGN.                   EESSA:  REGION
 PROV.                    Baku:  PROVINCE
 STAT.                    Baku:  STATE NAME
 SRVC.          Turan Drilling:  CONTRACTOR
 MWDS.                    Baku:  MWD SHOP
 JOBN.        AZ-XX-0907021034:  JOB TICKET NUMB
 RIG .                     DWG:  RIG NAME
 DOE .                     N/A:  DOE NUMBER
 DCON.         Sperry Drilling:  DIRECTNL CONTR
 UNIT.                     N/A:  LOGGING EQUIPMENT ID
 CNTY.                        :  COUNTY
 LOC .                        :  LOCATION
 LMF .             Drill Floor:  LOG MEASURED FROM
 TVDS.m                  43.16:  TVDSS CORRECTN
 LATI.deg                40.17:  LATITUDE
 LONG.deg                51.17:  LONGITUDE
 WHNS.m                  -5.90:  WELL HEAD N/S
 WHEW.m                  -6.61:  WELL HEAD E/W
 UTMX.m              514337.95:  UTM X
 UTMY.m             4448627.46:  UTM Y
 DFWL.m                   0.00:  DISTANCE FWL
 DFSL.m                   0.00:  DISTANCE FSL
 SDEP.m                2606.87:  START DEPTH
 TDD .m                3618.01:  TOTAL DEPTH (DRILLER)
 VSDR.deg               177.42:  VERT SEC DIRECT
 GVFD.g                   1.00:  GRAVITY FIELD
 MFLD.nT              50399.00:  MAGNETIC FIELD
 MDIP.deg                59.67:  MAGNETIC DIP
 MDEC.deg                 6.56:  MAGNETIC DECL
 GRDC.deg                 0.11:  GRID CORRECTION
 AZTC.deg                 6.45:  AZM TOTAL CORR
 EPD .m                   0.00:  ELEVATION
 EGL .m                   0.00:  GROUND ELEVATION
 WDMS.m                 176.20:  WD ELEV
 APD .m                  43.16:  DEPTH ABOVE PD
 DEP .m                2606.87:  DEPTH
 AGAP.m                  43.16:  AIR GAP
 VSEW.m                  -6.61:  VERT SEC E/W
 VSNS.m                  -5.90:  VERT SEC N/S
 EKB .m                  43.16:  KB ELEVATION
 EDF .m                  43.16:  DF ELEVATION
 TDL .m                 438.00:  TOTAL DEPTH (LOGGER)
 VSC .                       0:  VS TO CLOSURE
 MAGU.                 1855490:  MAGUTM CHECKSUM
~Parameter Information Block
#MNEM.UNIT       Value        Description
#---------     -----------    ---------------------------
 AV  .mps                 2.20:  Ann Velocity 
 AVMX.mps                 2.50:  Max Ann Veloc 
 AZIF.deg               150.21:  Azm, Final 
 BHAT.        Rotary Steerable:  BHA Type 
 BROT.°/30m               0.08:  Build Rotating 
 BS  .in                  6.50:  Bit Size 
 BSZ .in                  6.50:  Bit Size 
 BTPL.psig              108.00:  Bit Press Loss 
 CABU.                     Yes:  Customer Abuse 
 CGEO.           Emin Aliyarli:  Customer Geo 
 COMM.                     HO:  Run Comments 1 
 TCS .hr                 74.20:  Time Ciculation Ended 
 CV  .mps                 3.63:  Crit Velocity 
 CVMX.mps                 3.66:  Max Crit Veloc 
 DD1 .         Intigam Rahimov:  Direct Drillr 1 
 DD2 .          Teymur Aghayev:  Direct Drillr 2 
 DDSV.               Geo-Pilot:  DD Service 
 DEFF.%                  97.00:  % Det Eff 
 DLRX.°/30m               1.63:  Dogleg Rot Max 
 DLSO.°/30m               0.00:  Dogleg Oriented 
 DLSX.°/30m               0.00:  Dogleg Str Max 
 DRET.      20.20.00 28-Apr-21:  Drill End Time 
 DRST.      04.45.00 26-Apr-21:  Drill Start Tim 
 DTIM.hr                 34.30:  Time Drilling 
 EDEP.m                3618.01:  End Depth 
 ENG1.           Amrah Tahirov:  Engineer 1 
 ENG2.         Bahruz Mehdiyev:  Engineer 2 
 ENG3.         Farhad Orujzade:  Engineer 3 
 ETIM.      19.00.00 29-Apr-21:  End Time 
 FLOI.gpm               370.00:  Flow In 
 FLON.gpm               300.00:  Flow In Min 
 FLOS.cptm                0.00:  Fluid Loss 
 FLOX.gpm               410.00:  Flow In Max 
 HFLO.                      No:  High Flow 
 HPRE.                      No:  High Pressure 
 HTEM.                      No:  High Temp 
 HYDO.m                   1.80:  Hydro Offset 
 IFIN.deg                67.19:  Inc, Final 
 IMAX.deg                68.42:  Inc Max 
 IMIN.deg                66.33:  Inc Min 
 IMND.m                3532.79:  Inc Min Depth 
 IMXD.m                3192.15:  Inc Max Depth 
 JARR.                      No:  Jarring 
 LETM.      20.20.00 28-Apr-21:  Log End Time 
 LOST.hr                     0:  Lost Rig Time 
 LSTM.      04.45.00 26-Apr-21:  Log Start Time 
 MDCL.ppm             36500.00:  Mud Chlorides 
 MDES.     Inversion Oil/Synthetic:  Mud Desc 
 DFD .sg                  1.42:  Mud Density 
 MDMN.sg                  1.42:  Dens Mud Min 
 MDMX.sg                  1.42:  Dens Mud Max 
 MOIL.                    55.7:  Run Mud Oil % 
 MOWR.                   71:29:  Run Mud OWR 
 MSND.                     0.1:  Run Mud Sand % 
 MSOL.                    19.9:  Run Mud Solids% 
 DFV .spqt               83.00:  Mud Viscosity 
 MWOD.in                  5.15:  MWD Tool OD 
 MWSI.                      No:  Serv Intrp, MWD 
 OTIM.hr                120.59:  Time Operating 
 PCON.           Look Like New:  Pad Condition 
 PMAX.psia            11292.93:  Press Op, Max 
 PV  .cP                 27.00:  Mud PV 
 RUN .                     400:  Run Number 
 ROPA.m/hr               14.00:  ROP Avg 
 ROPN.m/hr                9.00:  ROP Min 
 ROPX.m/hr               18.00:  ROP Max 
 RPMA.rpm               130.00:  RPM Surface Avg 
 RPMN.rpm               100.00:  RPM Surface Min 
 RPMX.rpm               140.00:  RPM Surface Max 
 RRUN.                    0400:  Rig Run Number 
 RTIM.hr                 38.60:  Time Reaming 
 SAZI.deg               149.55:  Azm, Start 
 SDEP.m                3180.01:  Start Depth 
 SIDD.                      No:  Serv Intrp, DD 
 SINC.deg                68.42:  Inc, Start 
 SPPA.psig             4400.00:  SPP Avg 
 SPPN.psig             3580.00:  SPP Min 
 SPPX.psig             4850.00:  SPP Max 
 STIM.      12.30.00 24-Apr-21:  Start Time 
 SVCS.                 DD, MWD:  Services 
 SVER.                    9.20:  Sperry Version 
 TDAT.m                 438.00:  Tot Depth Attmp 
 TDDF.                      No:  Trip for DD 
 TDLG.m                 438.00:  Tot Depth Loggd 
 TFF .                      No:  Trip for Fail 
 TQAA.f-kp               11.00:  Torque Abs Avg 
 TQAN.f-kp                9.00:  Torque Abs Min 
 TQAX.f-kp               14.00:  Torque Abs Max 
 TRRT.°/30m               0.04:  Turn Rotating 
 MRT .                    HCIM:  Maximum Recorded Temperature 
 TTMX.degC               84.31:  Max Tool Temp 
 VS01.                90521954:  Virtual Str1 SN 
 VS02.                90519327:  Virtual Str2 SN 
 VS03.                90522273:  Virtual Str3 SN 
 VS04.                11108038:  Virtual Str4 SN 
 VS05.                12258760:  Virtual Str5 SN 
 WBMN.klb                 1.00:  WOB Min 
 WITN.           Adil Mammadov:  Customer Rep 
 WITN.         Alex Yadullayev:  Customer Rep 2 
 WOBA.klb                 6.00:  WOB Avg 
 WOBX.klb                 9.00:  WOB Max 
 YP  .lhf2               31.00:  Yield Point 
~Curve Information Block
#MNEM.UNIT                 API CODE     Curve Description
#---------               -----------    ---------------------------
 TIME.HHMMSS            00 000 000 000:  GT Time & Date
 GTDEPTH.m              00 000 000 000:  GT Depth
 GTPQH.psia             00 000 000 000:  GT HR Quartz Pressure
 GTTQ.degC              00 000 000 000:  GT Quartz Temperature
 GTTN.NONE              00 000 000 000:  GT Test Number
 GTET.sec               00 000 000 000:  GT Elapsed Test Time
 GTTVD.m                00 000 000 000:  GT True Vertical Depth
#Other Information
#
#WARRANTY: Halliburton will use its best efforts to furnish customers with 
#accurate information and interpretations that are part of, and incident to, the services 
#provided.  However, Halliburton cannot and does not warrant the accuracy 
#or correctness of such information and interpretations.  Under no circumstances should any 
#such information or interpretation be relied upon as the sole basis for any drilling, 
#completion, production, or financial decision or any procedure involving any risk to the 
#safety of any drilling venture, drilling rig or its crew or any other third party.  The 
#Customer has full responsibility for all drilling, completion and production operation.  
#Halliburton makes no representations or warranties, either expressed or 
#implied, including, but not limited to, the implied warranties of merchantability or fitness 
#for a particular purpose, with respect to the services rendered.  In no event will 
#Halliburton be liable for failure to obtain any particular results or for 
#any damages, including, but not limited to, indirect, special or consequential damages, 
#resulting from the use of any information or interpretation provided by Halliburton.
#
~A           TIME           GTDEPTH  GTPQH  GTTQ  GTTN  GTET   GTTVD  
# ...
   23:29:39.718.27-Apr-2021 3418.01 3573.11 73.37 6.00 345.09 2727.14
   23:29:39.918.27-Apr-2021 3418.01 3573.11 73.37 6.00 345.29 2727.14
   23:29:40.118.27-Apr-2021 3418.01 3580.07 73.37 6.00 345.49 2727.14
   23:29:40.319.27-Apr-2021 3418.01 5980.11 73.37 6.00 345.69 2727.14
   23:29:40.519.27-Apr-2021 3418.01 6048.33 73.37 6.00 345.89 2727.14
   23:29:40.719.27-Apr-2021 3418.01 6048.23 73.37 6.00 346.09 2727.14
   23:29:40.919.27-Apr-2021 3418.01 6048.23 73.37 6.00 346.29 2727.14
   23:29:41.119.27-Apr-2021 3418.01 6049.08 73.37 6.00 346.49 2727.14
   23:29:41.319.27-Apr-2021 3418.01 6050.84 73.37 6.00 346.69 2727.14
   23:29:41.519.27-Apr-2021 3418.01 6052.45 73.37 6.00 346.89 2727.14
   23:29:41.719.27-Apr-2021 3418.01 6039.82 73.37 6.00 347.09 2727.14
   23:29:41.919.27-Apr-2021 3418.01 6039.82 73.37 6.00 347.29 2727.14
   23:29:42.119.27-Apr-2021 3418.01 6054.45 73.37 6.00 347.49 2727.14
   23:29:42.319.27-Apr-2021 3418.01 6045.69 73.37 6.00 347.69 2727.14
   23:29:42.519.27-Apr-2021 3418.01 6053.21 73.37 6.00 347.89 2727.14
   23:29:42.719.27-Apr-2021 3418.01 6053.89 73.37 6.00 348.09 2727.14
   23:29:42.919.27-Apr-2021 3418.01 6053.89 73.37 6.00 348.29 2727.14
   23:29:43.119.27-Apr-2021 3418.01 6053.96 73.37 6.00 348.49 2727.14
   23:29:43.319.27-Apr-2021 3418.01 6054.02 73.37 6.00 348.69 2727.14
   23:29:43.519.27-Apr-2021 3418.01 6054.74 73.37 6.00 348.89 2727.14
   23:29:43.719.27-Apr-2021 3418.01 6056.85 73.37 6.00 349.09 2727.14
   23:29:43.919.27-Apr-2021 3418.01 6056.85 73.37 6.00 349.29 2727.14
   23:29:44.120.27-Apr-2021 3418.01 6055.46 73.37 6.00 349.49 2727.14
   23:29:44.320.27-Apr-2021 3418.01 6054.75 73.37 6.00 349.69 2727.14
   23:29:44.520.27-Apr-2021 3418.01 6048.05 73.37 6.00 349.89 2727.14
   23:29:44.720.27-Apr-2021 3418.01 6054.05 73.37 6.00 350.09 2727.14
   23:29:44.920.27-Apr-2021 3418.01 6054.05 73.37 6.00 350.29 2727.14
   23:29:45.120.27-Apr-2021 3418.01 6052.96 73.37 6.00 350.49 2727.14
   23:29:45.320.27-Apr-2021 3418.01 6055.37 73.37 6.00 350.69 2727.14
   23:29:45.520.27-Apr-2021 3418.01 6051.25 73.37 6.00 350.89 2727.14
   23:29:45.720.27-Apr-2021 3418.01 6049.63 73.37 6.00 351.09 2727.14
   23:29:45.920.27-Apr-2021 3418.01 6049.63 73.37 6.00 351.29 2727.14
   23:29:46.120.27-Apr-2021 3418.01 6052.56 73.38 6.00 351.49 2727.14
   23:29:46.320.27-Apr-2021 3418.01 6055.41 73.38 6.00 351.69 2727.14
   23:29:46.520.27-Apr-2021 3418.01 6056.12 73.38 6.00 351.89 2727.14
   23:29:46.720.27-Apr-2021 3418.01 6055.78 73.38 6.00 352.09 2727.14
   23:29:46.920.27-Apr-2021 3418.01 6055.78 73.38 6.00 352.29 2727.14
   23:29:47.120.27-Apr-2021 3418.01 6055.66 73.38 6.00 352.49 2727.14
   23:29:47.320.27-Apr-2021 3418.01 6055.02 73.38 6.00 352.69 2727.14
   23:29:47.520.27-Apr-2021 3418.01 6052.92 73.38 6.00 352.89 2727.14
   23:29:47.720.27-Apr-2021 3418.01 6055.59 73.38 6.00 353.09 2727.14
   23:29:47.920.27-Apr-2021 3418.01 6055.59 73.38 6.00 353.29 2727.14
   23:29:48.121.27-Apr-2021 3418.01 6055.16 73.38 6.00 353.49 2727.14
   23:29:48.321.27-Apr-2021 3418.01 6054.86 73.38 6.00 353.69 2727.14
   23:29:48.521.27-Apr-2021 3418.01 6053.11 73.38 6.00 353.89 2727.14
   23:29:48.721.27-Apr-2021 3418.01 6052.69 73.38 6.00 354.09 2727.14
   23:29:48.921.27-Apr-2021 3418.01 6052.69 73.38 6.00 354.29 2727.14
   23:29:49.121.27-Apr-2021 3418.01 6055.32 73.38 6.00 354.49 2727.14
   23:29:49.321.27-Apr-2021 3418.01 6056.25 73.38 6.00 354.69 2727.14
   23:29:49.521.27-Apr-2021 3418.01 6056.18 73.38 6.00 354.89 2727.14
   23:29:49.721.27-Apr-2021 3418.01 6054.73 73.38 6.00 355.09 2727.14
   23:29:49.921.27-Apr-2021 3418.01 6054.73 73.38 6.00 355.29 2727.14
   23:29:50.121.27-Apr-2021 3418.01 6056.96 73.38 6.00 355.49 2727.14
   23:29:50.321.27-Apr-2021 3418.01 6054.83 73.38 6.00 355.69 2727.14
   23:29:50.521.27-Apr-2021 3418.01 6057.32 73.38 6.00 355.89 2727.14
   23:29:50.721.27-Apr-2021 3418.01 6043.24 73.38 6.00 356.09 2727.14
   23:29:50.921.27-Apr-2021 3418.01 6043.24 73.38 6.00 356.29 2727.14
   23:29:51.121.27-Apr-2021 3418.01 6056.05 73.38 6.00 356.49 2727.14
   23:29:51.321.27-Apr-2021 3418.01 6048.71 73.38 6.00 356.69 2727.14
   23:29:51.521.27-Apr-2021 3418.01 6053.48 73.38 6.00 356.89 2727.14
   23:29:51.721.27-Apr-2021 3418.01 6055.31 73.38 6.00 357.09 2727.14
   23:29:51.922.27-Apr-2021 3418.01 6055.31 73.38 6.00 357.29 2727.14
   23:29:52.122.27-Apr-2021 3418.01 6053.31 73.38 6.00 357.49 2727.14
   23:29:52.322.27-Apr-2021 3418.01 6054.02 73.38 6.00 357.69 2727.14
   23:29:52.522.27-Apr-2021 3418.01 6055.66 73.38 6.00 357.89 2727.14
   23:29:52.722.27-Apr-2021 3418.01 6056.13 73.38 6.00 358.09 2727.14
   23:29:52.922.27-Apr-2021 3418.01 6056.13 73.38 6.00 358.29 2727.14
   23:29:53.122.27-Apr-2021 3418.01 6056.90 73.38 6.00 358.49 2727.14
   23:29:53.322.27-Apr-2021 3418.01 6056.62 73.38 6.00 358.69 2727.14
   23:29:53.522.27-Apr-2021 3418.01 6050.96 73.37 6.00 358.89 2727.14
   23:29:53.722.27-Apr-2021 3418.01 6050.69 73.37 6.00 359.09 2727.14
   23:29:53.922.27-Apr-2021 3418.01 6050.69 73.37 6.00 359.29 2727.14
   23:29:54.122.27-Apr-2021 3418.01 6053.97 73.37 6.00 359.49 2727.14
   23:29:54.322.27-Apr-2021 3418.01 6053.25 73.37 6.00 359.69 2727.14
   23:29:54.522.27-Apr-2021 3418.01 6054.84 73.37 6.00 359.89 2727.14
   23:29:54.722.27-Apr-2021 3418.01 6053.49 73.37 6.00 360.09 2727.14
   23:29:54.922.27-Apr-2021 3418.01 6053.49 73.37 6.00 360.29 2727.14
   23:29:55.122.27-Apr-2021 3418.01 6053.77 73.37 6.00 360.49 2727.14
   23:29:55.322.27-Apr-2021 3418.01 6053.81 73.37 6.00 360.69 2727.14
   23:29:55.522.27-Apr-2021 3418.01 6049.69 73.37 6.00 360.89 2727.14
   23:29:55.722.27-Apr-2021 3418.01 6051.06 73.37 6.00 361.09 2727.14
   23:29:55.923.27-Apr-2021 3418.01 6051.06 73.37 6.00 361.29 2727.14
   23:29:56.123.27-Apr-2021 3418.01 6054.91 73.37 6.00 361.49 2727.14
   23:29:56.323.27-Apr-2021 3418.01 6040.44 73.37 6.00 361.69 2727.14
   23:29:56.523.27-Apr-2021 3418.01 6054.66 73.37 6.00 361.89 2727.14
   23:29:56.723.27-Apr-2021 3418.01 6058.03 73.37 6.00 362.09 2727.14
   23:29:56.923.27-Apr-2021 3418.01 6058.03 73.37 6.00 362.29 2727.14
   23:29:57.123.27-Apr-2021 3418.01 6053.97 73.37 6.00 362.49 2727.14
   23:29:57.323.27-Apr-2021 3418.01 6055.30 73.37 6.00 362.69 2727.14
   23:29:57.523.27-Apr-2021 3418.01 6056.03 73.37 6.00 362.89 2727.14
   23:29:57.723.27-Apr-2021 3418.01 6053.88 73.37 6.00 363.09 2727.14
   23:29:57.923.27-Apr-2021 3418.01 6053.88 73.37 6.00 363.29 2727.14
   23:29:58.123.27-Apr-2021 3418.01 6057.57 73.37 6.00 363.49 2727.14
   23:29:58.323.27-Apr-2021 3418.01 6057.12 73.37 6.00 363.69 2727.14
   23:29:58.523.27-Apr-2021 3418.01 6054.67 73.37 6.00 363.89 2727.14
   23:29:58.723.27-Apr-2021 3418.01 6057.08 73.37 6.00 364.09 2727.14
   23:29:58.923.27-Apr-2021 3418.01 6057.08 73.37 6.00 364.29 2727.14
   23:29:59.123.27-Apr-2021 3418.01 6055.03 73.37 6.00 364.49 2727.14
   23:29:59.323.27-Apr-2021 3418.01 6054.27 73.37 6.00 364.69 2727.14
   23:29:59.523.27-Apr-2021 3418.01 6050.81 73.37 6.00 364.89 2727.14
   23:29:59.724.27-Apr-2021 3418.01 6053.36 73.37 6.00 365.09 2727.14
   23:29:59.924.27-Apr-2021 3418.01 6053.36 73.37 6.00 365.29 2727.14
   23:30:00.124.27-Apr-2021 3418.01 6053.37 73.37 6.00 365.49 2727.14
   23:30:00.324.27-Apr-2021 3418.01 6053.16 73.36 6.00 365.69 2727.14
   23:30:00.524.27-Apr-2021 3418.01 6052.58 73.36 6.00 365.89 2727.14
   23:30:00.724.27-Apr-2021 3418.01 6053.22 73.36 6.00 366.09 2727.14
   23:30:00.924.27-Apr-2021 3418.01 6053.22 73.36 6.00 366.29 2727.14
   23:30:01.124.27-Apr-2021 3418.01 6054.67 73.36 6.00 366.49 2727.14
   23:30:01.324.27-Apr-2021 3418.01 6056.37 73.36 6.00 366.69 2727.14
   23:30:01.524.27-Apr-2021 3418.01 6056.95 73.36 6.00 366.89 2727.14
   23:30:01.724.27-Apr-2021 3418.01 6055.89 73.36 6.00 367.09 2727.14
   23:30:01.924.27-Apr-2021 3418.01 6055.89 73.36 6.00 367.29 2727.14
   23:30:02.124.27-Apr-2021 3418.01 6057.01 73.36 6.00 367.49 2727.14
   23:30:02.324.27-Apr-2021 3418.01 6056.64 73.36 6.00 367.69 2727.14
   23:30:02.524.27-Apr-2021 3418.01 6052.14 73.36 6.00 367.89 2727.14
