~Version Information
 VERS.                  2.0:   CWLS log ASCII Standard -VERSION 2.0
 WRAP.                   NO:   One line per depth step
~Well Information Block
#MNEM.UNIT     VALUE/NAME     DESCRIPTION
#---------     -----------    ---------------------------
 STRT.S             19:03:38 27-Apr-21: START TIME 19:03:38 27-Apr-21
 STOP.S             19:10:06 27-Apr-21: STOP TIME  19:10:06 27-Apr-21
 STEP.S                   0.00: STEP TIME
 NULL.                 -999.25: NULL VALUE
 DFWT.                        :  DIST FWL TEXT
 DFST.                        :  DIST FSL TEXT
 DMF .             Drill Floor:  DRILL MEAS FROM
 STIM.      02.00.00 12-Apr-21:  START TIME
 DATE.      02.00.00 02-May-21:  END TIME
 SPUD.               09-Apr-21:  SPUD DATE
 NREF.                    Grid:  NORTH REFERENCE
 HPTY.       Minimum Curvature:  HOLE POS TYPE
 DMOD.             Drill Model:  DRILL MOD DESC
 SVYD.                  Survey:  SURVEY DESC
 ILTD.               Lithology:  INTERP LTH DESC
 FTOP.          Formation Tops:  FORM TOPS DESC
 PDAT.          Mean Sea Level:  PERMANENT DATUM
 FLD .                     ACG:  FIELD NAME
 SON .        AZ-XX-0907021034:  JOB NUMBER
 CTRY.              Azerbaijan:  COUNTRY NAME
 WELL.                    E01x:  WELL NAME
 COMP.     BP Exploration (Caspian Sea) LTD.:  COMPANY
 UWI .            /AZE00001403:  UNIQUE WELL IDENTIFIER
 API .            /AZE00001403:  API NUMBER
 WTYP.                Deviated:  WELL TYPE
 MDS .        Operator Entered:  MAG DATA SOURCE
 BASE.              Azerbaijan:  LOGGING EQUIPMENT BASE LOCATION
 REGN.                   EESSA:  REGION
 PROV.                    Baku:  PROVINCE
 STAT.                    Baku:  STATE NAME
 SRVC.          Turan Drilling:  CONTRACTOR
 MWDS.                    Baku:  MWD SHOP
 JOBN.        AZ-XX-0907021034:  JOB TICKET NUMB
 RIG .                     DWG:  RIG NAME
 DOE .                     N/A:  DOE NUMBER
 DCON.         Sperry Drilling:  DIRECTNL CONTR
 UNIT.                     N/A:  LOGGING EQUIPMENT ID
 CNTY.                        :  COUNTY
 LOC .                        :  LOCATION
 LMF .             Drill Floor:  LOG MEASURED FROM
 TVDS.m                  43.16:  TVDSS CORRECTN
 LATI.deg                40.17:  LATITUDE
 LONG.deg                51.17:  LONGITUDE
 WHNS.m                  -5.90:  WELL HEAD N/S
 WHEW.m                  -6.61:  WELL HEAD E/W
 UTMX.m              514337.95:  UTM X
 UTMY.m             4448627.46:  UTM Y
 DFWL.m                   0.00:  DISTANCE FWL
 DFSL.m                   0.00:  DISTANCE FSL
 SDEP.m                2606.87:  START DEPTH
 TDD .m                3618.01:  TOTAL DEPTH (DRILLER)
 VSDR.deg               177.42:  VERT SEC DIRECT
 GVFD.g                   1.00:  GRAVITY FIELD
 MFLD.nT              50399.00:  MAGNETIC FIELD
 MDIP.deg                59.67:  MAGNETIC DIP
 MDEC.deg                 6.56:  MAGNETIC DECL
 GRDC.deg                 0.11:  GRID CORRECTION
 AZTC.deg                 6.45:  AZM TOTAL CORR
 EPD .m                   0.00:  ELEVATION
 EGL .m                   0.00:  GROUND ELEVATION
 WDMS.m                 176.20:  WD ELEV
 APD .m                  43.16:  DEPTH ABOVE PD
 DEP .m                2606.87:  DEPTH
 AGAP.m                  43.16:  AIR GAP
 VSEW.m                  -6.61:  VERT SEC E/W
 VSNS.m                  -5.90:  VERT SEC N/S
 EKB .m                  43.16:  KB ELEVATION
 EDF .m                  43.16:  DF ELEVATION
 TDL .m                 438.00:  TOTAL DEPTH (LOGGER)
 VSC .                       0:  VS TO CLOSURE
 MAGU.                 1855490:  MAGUTM CHECKSUM
~Parameter Information Block
#MNEM.UNIT       Value        Description
#---------     -----------    ---------------------------
 AV  .mps                 2.20:  Ann Velocity 
 AVMX.mps                 2.50:  Max Ann Veloc 
 AZIF.deg               150.21:  Azm, Final 
 BHAT.        Rotary Steerable:  BHA Type 
 BROT.°/30m               0.08:  Build Rotating 
 BS  .in                  6.50:  Bit Size 
 BSZ .in                  6.50:  Bit Size 
 BTPL.psig              108.00:  Bit Press Loss 
 CABU.                     Yes:  Customer Abuse 
 CGEO.           Emin Aliyarli:  Customer Geo 
 COMM.                     LÊS:  Run Comments 1 
 TCS .hr                 74.20:  Time Ciculation Ended 
 CV  .mps                 3.63:  Crit Velocity 
 CVMX.mps                 3.66:  Max Crit Veloc 
 DD1 .         Intigam Rahimov:  Direct Drillr 1 
 DD2 .          Teymur Aghayev:  Direct Drillr 2 
 DDSV.               Geo-Pilot:  DD Service 
 DEFF.%                  97.00:  % Det Eff 
 DLRX.°/30m               1.63:  Dogleg Rot Max 
 DLSO.°/30m               0.00:  Dogleg Oriented 
 DLSX.°/30m               0.00:  Dogleg Str Max 
 DRET.      20.20.00 28-Apr-21:  Drill End Time 
 DRST.      04.45.00 26-Apr-21:  Drill Start Tim 
 DTIM.hr                 34.30:  Time Drilling 
 EDEP.m                3618.01:  End Depth 
 ENG1.           Amrah Tahirov:  Engineer 1 
 ENG2.         Bahruz Mehdiyev:  Engineer 2 
 ENG3.         Farhad Orujzade:  Engineer 3 
 ETIM.      19.00.00 29-Apr-21:  End Time 
 FLOI.gpm               370.00:  Flow In 
 FLON.gpm               300.00:  Flow In Min 
 FLOS.cptm                0.00:  Fluid Loss 
 FLOX.gpm               410.00:  Flow In Max 
 HFLO.                      No:  High Flow 
 HPRE.                      No:  High Pressure 
 HTEM.                      No:  High Temp 
 HYDO.m                   1.80:  Hydro Offset 
 IFIN.deg                67.19:  Inc, Final 
 IMAX.deg                68.42:  Inc Max 
 IMIN.deg                66.33:  Inc Min 
 IMND.m                3532.79:  Inc Min Depth 
 IMXD.m                3192.15:  Inc Max Depth 
 JARR.                      No:  Jarring 
 LETM.      20.20.00 28-Apr-21:  Log End Time 
 LOST.hr                     0:  Lost Rig Time 
 LSTM.      04.45.00 26-Apr-21:  Log Start Time 
 MDCL.ppm             36500.00:  Mud Chlorides 
 MDES.     Inversion Oil/Synthetic:  Mud Desc 
 DFD .sg                  1.42:  Mud Density 
 MDMN.sg                  1.42:  Dens Mud Min 
 MDMX.sg                  1.42:  Dens Mud Max 
 MOIL.                    55.7:  Run Mud Oil % 
 MOWR.                   71:29:  Run Mud OWR 
 MSND.                     0.1:  Run Mud Sand % 
 MSOL.                    19.9:  Run Mud Solids% 
 DFV .spqt               83.00:  Mud Viscosity 
 MWOD.in                  5.15:  MWD Tool OD 
 MWSI.                      No:  Serv Intrp, MWD 
 OTIM.hr                120.59:  Time Operating 
 PCON.           Look Like New:  Pad Condition 
 PMAX.psia            11292.93:  Press Op, Max 
 PV  .cP                 27.00:  Mud PV 
 RUN .                     400:  Run Number 
 ROPA.m/hr               14.00:  ROP Avg 
 ROPN.m/hr                9.00:  ROP Min 
 ROPX.m/hr               18.00:  ROP Max 
 RPMA.rpm               130.00:  RPM Surface Avg 
 RPMN.rpm               100.00:  RPM Surface Min 
 RPMX.rpm               140.00:  RPM Surface Max 
 RRUN.                    0400:  Rig Run Number 
 RTIM.hr                 38.60:  Time Reaming 
 SAZI.deg               149.55:  Azm, Start 
 SDEP.m                3180.01:  Start Depth 
 SIDD.                      No:  Serv Intrp, DD 
 SINC.deg                68.42:  Inc, Start 
 SPPA.psig             4400.00:  SPP Avg 
 SPPN.psig             3580.00:  SPP Min 
 SPPX.psig             4850.00:  SPP Max 
 STIM.      12.30.00 24-Apr-21:  Start Time 
 SVCS.                 DD, MWD:  Services 
 SVER.                    9.20:  Sperry Version 
 TDAT.m                 438.00:  Tot Depth Attmp 
 TDDF.                      No:  Trip for DD 
 TDLG.m                 438.00:  Tot Depth Loggd 
 TFF .                      No:  Trip for Fail 
 TQAA.f-kp               11.00:  Torque Abs Avg 
 TQAN.f-kp                9.00:  Torque Abs Min 
 TQAX.f-kp               14.00:  Torque Abs Max 
 TRRT.°/30m               0.04:  Turn Rotating 
 MRT .                    HCIM:  Maximum Recorded Temperature 
 TTMX.degC               84.31:  Max Tool Temp 
 VS01.                90521954:  Virtual Str1 SN 
 VS02.                90519327:  Virtual Str2 SN 
 VS03.                90522273:  Virtual Str3 SN 
 VS04.                11108038:  Virtual Str4 SN 
 VS05.                12258760:  Virtual Str5 SN 
 WBMN.klb                 1.00:  WOB Min 
 WITN.           Adil Mammadov:  Customer Rep 
 WITN.         Alex Yadullayev:  Customer Rep 2 
 WOBA.klb                 6.00:  WOB Avg 
 WOBX.klb                 9.00:  WOB Max 
 YP  .lhf2               31.00:  Yield Point 
~Curve Information Block
#MNEM.UNIT                 API CODE     Curve Description
#---------               -----------    ---------------------------
 TIME.HHMMSS            00 000 000 000:  GT Time & Date
 GTDEPTH.m              00 000 000 000:  GT Depth
 GTPQH.psia             00 000 000 000:  GT HR Quartz Pressure
 GTTQ.degC              00 000 000 000:  GT Quartz Temperature
 GTTN.NONE              00 000 000 000:  GT Test Number
 GTET.sec               00 000 000 000:  GT Elapsed Test Time
 GTTVD.m                00 000 000 000:  GT True Vertical Depth
#Other Information
#
#WARRANTY: Halliburton will use its best efforts to furnish customers with 
#accurate information and interpretations that are part of, and incident to, the services 
#provided.  However, Halliburton cannot and does not warrant the accuracy 
#or correctness of such information and interpretations.  Under no circumstances should any 
#such information or interpretation be relied upon as the sole basis for any drilling, 
#completion, production, or financial decision or any procedure involving any risk to the 
#safety of any drilling venture, drilling rig or its crew or any other third party.  The 
#Customer has full responsibility for all drilling, completion and production operation.  
#Halliburton makes no representations or warranties, either expressed or 
#implied, including, but not limited to, the implied warranties of merchantability or fitness 
#for a particular purpose, with respect to the services rendered.  In no event will 
#Halliburton be liable for failure to obtain any particular results or for 
#any damages, including, but not limited to, indirect, special or consequential damages, 
#resulting from the use of any information or interpretation provided by Halliburton.
#
~A           TIME           GTDEPTH  GTPQH  GTTQ  GTTN  GTET   GTTVD  
# ...
   19:08:37.700.27-Apr-2021 3392.01 3473.43 72.73 5.00 299.07 2716.87
   19:08:37.900.27-Apr-2021 3392.01 3473.43 72.73 5.00 299.27 2716.87
   19:08:38.100.27-Apr-2021 3392.01 3473.45 72.72 5.00 299.47 2716.87
   19:08:38.300.27-Apr-2021 3392.01 3473.43 72.72 5.00 299.67 2716.87
   19:08:38.500.27-Apr-2021 3392.01 3473.44 72.72 5.00 299.87 2716.87
   19:08:38.700.27-Apr-2021 3392.01 3473.45 72.72 5.00 300.07 2716.87
   19:08:38.900.27-Apr-2021 3392.01 3473.45 72.72 5.00 300.27 2716.87
   19:08:39.100.27-Apr-2021 3392.01 3473.39 72.72 5.00 300.47 2716.87
   19:08:39.300.27-Apr-2021 3392.01 3473.46 72.72 5.00 300.67 2716.87
   19:08:39.500.27-Apr-2021 3392.01 3473.41 72.72 5.00 300.87 2716.87
   19:08:39.700.27-Apr-2021 3392.01 3473.42 72.72 5.00 301.07 2716.87
   19:08:39.900.27-Apr-2021 3392.01 3473.42 72.72 5.00 301.27 2716.87
   19:08:40.100.27-Apr-2021 3392.01 3473.40 72.72 5.00 301.47 2716.87
   19:08:40.301.27-Apr-2021 3392.01 3473.41 72.72 5.00 301.67 2716.87
   19:08:40.501.27-Apr-2021 3392.01 3473.40 72.72 5.00 301.87 2716.87
   19:08:40.701.27-Apr-2021 3392.01 3473.20 72.72 5.00 302.07 2716.87
   19:08:40.901.27-Apr-2021 3392.01 3473.20 72.72 5.00 302.27 2716.87
   19:08:41.101.27-Apr-2021 3392.01 3473.49 72.72 5.00 302.47 2716.87
   19:08:41.301.27-Apr-2021 3392.01 3473.38 72.72 5.00 302.67 2716.87
   19:08:41.501.27-Apr-2021 3392.01 3473.44 72.72 5.00 302.87 2716.87
   19:08:41.701.27-Apr-2021 3392.01 3473.42 72.72 5.00 303.07 2716.87
   19:08:41.901.27-Apr-2021 3392.01 3473.42 72.72 5.00 303.27 2716.87
   19:08:42.101.27-Apr-2021 3392.01 3473.43 72.72 5.00 303.47 2716.87
   19:08:42.301.27-Apr-2021 3392.01 3473.40 72.72 5.00 303.67 2716.87
   19:08:42.501.27-Apr-2021 3392.01 3473.43 72.71 5.00 303.87 2716.87
   19:08:42.701.27-Apr-2021 3392.01 3473.38 72.71 5.00 304.07 2716.87
   19:08:42.901.27-Apr-2021 3392.01 3473.38 72.71 5.00 304.27 2716.87
   19:08:43.101.27-Apr-2021 3392.01 3473.40 72.71 5.00 304.47 2716.87
   19:08:43.301.27-Apr-2021 3392.01 3473.37 72.71 5.00 304.67 2716.87
   19:08:43.501.27-Apr-2021 3392.01 3473.32 72.71 5.00 304.87 2716.87
   19:08:43.701.27-Apr-2021 3392.01 3473.44 72.71 5.00 305.07 2716.87
   19:08:43.901.27-Apr-2021 3392.01 3473.44 72.71 5.00 305.27 2716.87
   19:08:44.101.27-Apr-2021 3392.01 3473.42 72.71 5.00 305.47 2716.87
   19:08:44.302.27-Apr-2021 3392.01 3473.43 72.71 5.00 305.67 2716.87
   19:08:44.502.27-Apr-2021 3392.01 3473.28 72.71 5.00 305.87 2716.87
   19:08:44.702.27-Apr-2021 3392.01 3473.49 72.71 5.00 306.07 2716.87
   19:08:44.902.27-Apr-2021 3392.01 3473.49 72.71 5.00 306.27 2716.87
   19:08:45.102.27-Apr-2021 3392.01 3473.44 72.71 5.00 306.47 2716.87
   19:08:45.302.27-Apr-2021 3392.01 3473.26 72.71 5.00 306.67 2716.87
   19:08:45.502.27-Apr-2021 3392.01 3473.52 72.71 5.00 306.87 2716.87
   19:08:45.702.27-Apr-2021 3392.01 3473.41 72.71 5.00 307.08 2716.87
   19:08:45.902.27-Apr-2021 3392.01 3473.41 72.71 5.00 307.28 2716.87
   19:08:46.102.27-Apr-2021 3392.01 3473.44 72.71 5.00 307.48 2716.87
   19:08:46.302.27-Apr-2021 3392.01 3473.40 72.71 5.00 307.68 2716.87
   19:08:46.502.27-Apr-2021 3392.01 3473.33 72.71 5.00 307.88 2716.87
   19:08:46.702.27-Apr-2021 3392.01 3473.44 72.71 5.00 308.08 2716.87
   19:08:46.902.27-Apr-2021 3392.01 3473.44 72.71 5.00 308.28 2716.87
   19:08:47.102.27-Apr-2021 3392.01 3473.39 72.70 5.00 308.48 2716.87
   19:08:47.302.27-Apr-2021 3392.01 3473.45 72.70 5.00 308.68 2716.87
   19:08:47.502.27-Apr-2021 3392.01 3473.41 72.70 5.00 308.88 2716.87
   19:08:47.702.27-Apr-2021 3392.01 3473.43 72.70 5.00 309.08 2716.87
   19:08:47.902.27-Apr-2021 3392.01 3473.43 72.70 5.00 309.28 2716.87
   19:08:48.102.27-Apr-2021 3392.01 3473.38 72.70 5.00 309.48 2716.87
   19:08:48.302.27-Apr-2021 3392.01 3473.44 72.70 5.00 309.68 2716.87
   19:08:48.503.27-Apr-2021 3392.01 3473.38 72.70 5.00 309.88 2716.87
   19:08:48.703.27-Apr-2021 3392.01 3473.41 72.70 5.00 310.08 2716.87
   19:08:48.903.27-Apr-2021 3392.01 3473.41 72.70 5.00 310.28 2716.87
   19:08:49.103.27-Apr-2021 3392.01 3473.23 72.70 5.00 310.48 2716.87
   19:08:49.303.27-Apr-2021 3392.01 3473.48 72.70 5.00 310.68 2716.87
   19:08:49.503.27-Apr-2021 3392.01 3473.44 72.70 5.00 310.88 2716.87
   19:08:49.703.27-Apr-2021 3392.01 3473.38 72.70 5.00 311.08 2716.87
   19:08:49.903.27-Apr-2021 3392.01 3473.38 72.70 5.00 311.28 2716.87
   19:08:50.103.27-Apr-2021 3392.01 3473.42 72.70 5.00 311.48 2716.87
   19:08:50.303.27-Apr-2021 3392.01 3473.38 72.70 5.00 311.68 2716.87
   19:08:50.503.27-Apr-2021 3392.01 3473.42 72.70 5.00 311.88 2716.87
   19:08:50.703.27-Apr-2021 3392.01 3473.39 72.70 5.00 312.08 2716.87
   19:08:50.903.27-Apr-2021 3392.01 3473.39 72.70 5.00 312.28 2716.87
   19:08:51.103.27-Apr-2021 3392.01 3473.38 72.70 5.00 312.48 2716.87
   19:08:51.303.27-Apr-2021 3392.01 3473.40 72.70 5.00 312.68 2716.87
   19:08:51.503.27-Apr-2021 3392.01 3473.39 72.70 5.00 312.88 2716.87
   19:08:51.703.27-Apr-2021 3392.01 3473.39 72.69 5.00 313.08 2716.87
   19:08:51.903.27-Apr-2021 3392.01 3473.39 72.69 5.00 313.28 2716.87
   19:08:52.103.27-Apr-2021 3392.01 3473.48 72.69 5.00 313.48 2716.87
   19:08:52.303.27-Apr-2021 3392.01 3473.46 72.69 5.00 313.68 2716.87
   19:08:52.504.27-Apr-2021 3392.01 3473.36 72.69 5.00 313.88 2716.87
   19:08:52.704.27-Apr-2021 3392.01 3473.45 72.69 5.00 314.08 2716.87
   19:08:52.904.27-Apr-2021 3392.01 3473.45 72.69 5.00 314.28 2716.87
   19:08:53.104.27-Apr-2021 3392.01 3473.54 72.69 5.00 314.48 2716.87
   19:08:53.304.27-Apr-2021 3392.01 3473.42 72.69 5.00 314.68 2716.87
   19:08:53.504.27-Apr-2021 3392.01 3473.38 72.69 5.00 314.88 2716.87
   19:08:53.704.27-Apr-2021 3392.01 3473.38 72.69 5.00 315.08 2716.87
   19:08:53.904.27-Apr-2021 3392.01 3473.38 72.69 5.00 315.28 2716.87
   19:08:54.104.27-Apr-2021 3392.01 3473.40 72.69 5.00 315.48 2716.87
   19:08:54.304.27-Apr-2021 3392.01 3473.40 72.69 5.00 315.68 2716.87
   19:08:54.504.27-Apr-2021 3392.01 3473.44 72.69 5.00 315.88 2716.87
   19:08:54.704.27-Apr-2021 3392.01 3473.38 72.69 5.00 316.08 2716.87
   19:08:54.904.27-Apr-2021 3392.01 3473.38 72.69 5.00 316.28 2716.87
   19:08:55.104.27-Apr-2021 3392.01 3473.49 72.69 5.00 316.48 2716.87
   19:08:55.304.27-Apr-2021 3392.01 3473.48 72.69 5.00 316.68 2716.87
   19:08:55.504.27-Apr-2021 3392.01 3473.36 72.69 5.00 316.88 2716.87
   19:08:55.704.27-Apr-2021 3392.01 3473.45 72.69 5.00 317.08 2716.87
   19:08:55.904.27-Apr-2021 3392.01 3473.45 72.69 5.00 317.28 2716.87
   19:08:56.104.27-Apr-2021 3392.01 3473.39 72.69 5.00 317.48 2716.87
   19:08:56.304.27-Apr-2021 3392.01 3473.44 72.68 5.00 317.68 2716.87
   19:08:56.504.27-Apr-2021 3392.01 3473.36 72.68 5.00 317.88 2716.87
   19:08:56.705.27-Apr-2021 3392.01 3473.43 72.68 5.00 318.08 2716.87
   19:08:56.905.27-Apr-2021 3392.01 3473.43 72.68 5.00 318.28 2716.87
   19:08:57.105.27-Apr-2021 3392.01 3473.40 72.68 5.00 318.48 2716.87
   19:08:57.305.27-Apr-2021 3392.01 3473.38 72.68 5.00 318.68 2716.87
   19:08:57.505.27-Apr-2021 3392.01 3473.32 72.68 5.00 318.88 2716.87
   19:08:57.705.27-Apr-2021 3392.01 3473.34 72.68 5.00 319.08 2716.87
   19:08:57.905.27-Apr-2021 3392.01 3473.34 72.68 5.00 319.28 2716.87
   19:08:58.105.27-Apr-2021 3392.01 3473.41 72.68 5.00 319.48 2716.87
   19:08:58.305.27-Apr-2021 3392.01 3473.39 72.68 5.00 319.68 2716.87
   19:08:58.505.27-Apr-2021 3392.01 3473.42 72.68 5.00 319.88 2716.87
   19:08:58.705.27-Apr-2021 3392.01 3473.36 72.68 5.00 320.08 2716.87
   19:08:58.905.27-Apr-2021 3392.01 3473.36 72.68 5.00 320.28 2716.87
   19:08:59.105.27-Apr-2021 3392.01 3473.38 72.68 5.00 320.48 2716.87
   19:08:59.305.27-Apr-2021 3392.01 3473.39 72.68 5.00 320.68 2716.87
   19:08:59.505.27-Apr-2021 3392.01 3473.38 72.68 5.00 320.88 2716.87
   19:08:59.705.27-Apr-2021 3392.01 3473.38 72.68 5.00 321.08 2716.87
   19:08:59.905.27-Apr-2021 3392.01 3473.38 72.68 5.00 321.28 2716.87
   19:09:00.105.27-Apr-2021 3392.01 3473.38 72.68 5.00 321.48 2716.87
   19:09:00.305.27-Apr-2021 3392.01 3473.20 72.68 5.00 321.68 2716.87
   19:09:00.505.27-Apr-2021 3392.01 3473.47 72.68 5.00 321.88 2716.87
