~Version Information
 VERS.                  2.0:   CWLS log ASCII Standard -VERSION 2.0
 WRAP.                   NO:   One line per depth step
~Well Information Block
#MNEM.UNIT     VALUE/NAME     DESCRIPTION
#---------     -----------    ---------------------------
 STRT.S             23:13:46 26-Apr-21: START TIME 23:13:46 26-Apr-21
 STOP.S             23:20:13 26-Apr-21: STOP TIME  23:20:13 26-Apr-21
 STEP.S                   0.00: STEP TIME
 NULL.                 -999.25: NULL VALUE
 DFWT.                        :  DIST FWL TEXT
 DFST.                        :  DIST FSL TEXT
 DMF .             Drill Floor:  DRILL MEAS FROM
 STIM.      02.00.00 12-Apr-21:  START TIME
 DATE.      02.00.00 02-May-21:  END TIME
 SPUD.               09-Apr-21:  SPUD DATE
 NREF.                    Grid:  NORTH REFERENCE
 HPTY.       Minimum Curvature:  HOLE POS TYPE
 DMOD.             Drill Model:  DRILL MOD DESC
 SVYD.                  Survey:  SURVEY DESC
 ILTD.               Lithology:  INTERP LTH DESC
 FTOP.          Formation Tops:  FORM TOPS DESC
 PDAT.          Mean Sea Level:  PERMANENT DATUM
 FLD .                     ACG:  FIELD NAME
 SON .        AZ-XX-0907021034:  JOB NUMBER
 CTRY.              Azerbaijan:  COUNTRY NAME
 WELL.                    E01x:  WELL NAME
 COMP.     BP Exploration (Caspian Sea) LTD.:  COMPANY
 UWI .            /AZE00001403:  UNIQUE WELL IDENTIFIER
 API .            /AZE00001403:  API NUMBER
 WTYP.                Deviated:  WELL TYPE
 MDS .        Operator Entered:  MAG DATA SOURCE
 BASE.              Azerbaijan:  LOGGING EQUIPMENT BASE LOCATION
 REGN.                   EESSA:  REGION
 PROV.                    Baku:  PROVINCE
 STAT.                    Baku:  STATE NAME
 SRVC.          Turan Drilling:  CONTRACTOR
 MWDS.                    Baku:  MWD SHOP
 JOBN.        AZ-XX-0907021034:  JOB TICKET NUMB
 RIG .                     DWG:  RIG NAME
 DOE .                     N/A:  DOE NUMBER
 DCON.         Sperry Drilling:  DIRECTNL CONTR
 UNIT.                     N/A:  LOGGING EQUIPMENT ID
 CNTY.                        :  COUNTY
 LOC .                        :  LOCATION
 LMF .             Drill Floor:  LOG MEASURED FROM
 TVDS.m                  43.16:  TVDSS CORRECTN
 LATI.deg                40.17:  LATITUDE
 LONG.deg                51.17:  LONGITUDE
 WHNS.m                  -5.90:  WELL HEAD N/S
 WHEW.m                  -6.61:  WELL HEAD E/W
 UTMX.m              514337.95:  UTM X
 UTMY.m             4448627.46:  UTM Y
 DFWL.m                   0.00:  DISTANCE FWL
 DFSL.m                   0.00:  DISTANCE FSL
 SDEP.m                2606.87:  START DEPTH
 TDD .m                3618.01:  TOTAL DEPTH (DRILLER)
 VSDR.deg               177.42:  VERT SEC DIRECT
 GVFD.g                   1.00:  GRAVITY FIELD
 MFLD.nT              50399.00:  MAGNETIC FIELD
 MDIP.deg                59.67:  MAGNETIC DIP
 MDEC.deg                 6.56:  MAGNETIC DECL
 GRDC.deg                 0.11:  GRID CORRECTION
 AZTC.deg                 6.45:  AZM TOTAL CORR
 EPD .m                   0.00:  ELEVATION
 EGL .m                   0.00:  GROUND ELEVATION
 WDMS.m                 176.20:  WD ELEV
 APD .m                  43.16:  DEPTH ABOVE PD
 DEP .m                2606.87:  DEPTH
 AGAP.m                  43.16:  AIR GAP
 VSEW.m                  -6.61:  VERT SEC E/W
 VSNS.m                  -5.90:  VERT SEC N/S
 EKB .m                  43.16:  KB ELEVATION
 EDF .m                  43.16:  DF ELEVATION
 TDL .m                 438.00:  TOTAL DEPTH (LOGGER)
 VSC .                       0:  VS TO CLOSURE
 MAGU.                 1855490:  MAGUTM CHECKSUM
~Parameter Information Block
#MNEM.UNIT       Value        Description
#---------     -----------    ---------------------------
 AV  .mps                 2.20:  Ann Velocity 
 AVMX.mps                 2.50:  Max Ann Veloc 
 AZIF.deg               150.21:  Azm, Final 
 BHAT.        Rotary Steerable:  BHA Type 
 BROT.°/30m               0.08:  Build Rotating 
 BS  .in                  6.50:  Bit Size 
 BSZ .in                  6.50:  Bit Size 
 BTPL.psig              108.00:  Bit Press Loss 
 CABU.                     Yes:  Customer Abuse 
 CGEO.           Emin Aliyarli:  Customer Geo 
 COMM.                     <MW:  Run Comments 1 
 TCS .hr                 74.20:  Time Ciculation Ended 
 CV  .mps                 3.63:  Crit Velocity 
 CVMX.mps                 3.66:  Max Crit Veloc 
 DD1 .         Intigam Rahimov:  Direct Drillr 1 
 DD2 .          Teymur Aghayev:  Direct Drillr 2 
 DDSV.               Geo-Pilot:  DD Service 
 DEFF.%                  97.00:  % Det Eff 
 DLRX.°/30m               1.63:  Dogleg Rot Max 
 DLSO.°/30m               0.00:  Dogleg Oriented 
 DLSX.°/30m               0.00:  Dogleg Str Max 
 DRET.      20.20.00 28-Apr-21:  Drill End Time 
 DRST.      04.45.00 26-Apr-21:  Drill Start Tim 
 DTIM.hr                 34.30:  Time Drilling 
 EDEP.m                3618.01:  End Depth 
 ENG1.           Amrah Tahirov:  Engineer 1 
 ENG2.         Bahruz Mehdiyev:  Engineer 2 
 ENG3.         Farhad Orujzade:  Engineer 3 
 ETIM.      19.00.00 29-Apr-21:  End Time 
 FLOI.gpm               370.00:  Flow In 
 FLON.gpm               300.00:  Flow In Min 
 FLOS.cptm                0.00:  Fluid Loss 
 FLOX.gpm               410.00:  Flow In Max 
 HFLO.                      No:  High Flow 
 HPRE.                      No:  High Pressure 
 HTEM.                      No:  High Temp 
 HYDO.m                   1.80:  Hydro Offset 
 IFIN.deg                67.19:  Inc, Final 
 IMAX.deg                68.42:  Inc Max 
 IMIN.deg                66.33:  Inc Min 
 IMND.m                3532.79:  Inc Min Depth 
 IMXD.m                3192.15:  Inc Max Depth 
 JARR.                      No:  Jarring 
 LETM.      20.20.00 28-Apr-21:  Log End Time 
 LOST.hr                     0:  Lost Rig Time 
 LSTM.      04.45.00 26-Apr-21:  Log Start Time 
 MDCL.ppm             36500.00:  Mud Chlorides 
 MDES.     Inversion Oil/Synthetic:  Mud Desc 
 DFD .sg                  1.42:  Mud Density 
 MDMN.sg                  1.42:  Dens Mud Min 
 MDMX.sg                  1.42:  Dens Mud Max 
 MOIL.                    55.7:  Run Mud Oil % 
 MOWR.                   71:29:  Run Mud OWR 
 MSND.                     0.1:  Run Mud Sand % 
 MSOL.                    19.9:  Run Mud Solids% 
 DFV .spqt               83.00:  Mud Viscosity 
 MWOD.in                  5.15:  MWD Tool OD 
 MWSI.                      No:  Serv Intrp, MWD 
 OTIM.hr                120.59:  Time Operating 
 PCON.           Look Like New:  Pad Condition 
 PMAX.psia            11292.93:  Press Op, Max 
 PV  .cP                 27.00:  Mud PV 
 RUN .                     400:  Run Number 
 ROPA.m/hr               14.00:  ROP Avg 
 ROPN.m/hr                9.00:  ROP Min 
 ROPX.m/hr               18.00:  ROP Max 
 RPMA.rpm               130.00:  RPM Surface Avg 
 RPMN.rpm               100.00:  RPM Surface Min 
 RPMX.rpm               140.00:  RPM Surface Max 
 RRUN.                    0400:  Rig Run Number 
 RTIM.hr                 38.60:  Time Reaming 
 SAZI.deg               149.55:  Azm, Start 
 SDEP.m                3180.01:  Start Depth 
 SIDD.                      No:  Serv Intrp, DD 
 SINC.deg                68.42:  Inc, Start 
 SPPA.psig             4400.00:  SPP Avg 
 SPPN.psig             3580.00:  SPP Min 
 SPPX.psig             4850.00:  SPP Max 
 STIM.      12.30.00 24-Apr-21:  Start Time 
 SVCS.                 DD, MWD:  Services 
 SVER.                    9.20:  Sperry Version 
 TDAT.m                 438.00:  Tot Depth Attmp 
 TDDF.                      No:  Trip for DD 
 TDLG.m                 438.00:  Tot Depth Loggd 
 TFF .                      No:  Trip for Fail 
 TQAA.f-kp               11.00:  Torque Abs Avg 
 TQAN.f-kp                9.00:  Torque Abs Min 
 TQAX.f-kp               14.00:  Torque Abs Max 
 TRRT.°/30m               0.04:  Turn Rotating 
 MRT .                    HCIM:  Maximum Recorded Temperature 
 TTMX.degC               84.31:  Max Tool Temp 
 VS01.                90521954:  Virtual Str1 SN 
 VS02.                90519327:  Virtual Str2 SN 
 VS03.                90522273:  Virtual Str3 SN 
 VS04.                11108038:  Virtual Str4 SN 
 VS05.                12258760:  Virtual Str5 SN 
 WBMN.klb                 1.00:  WOB Min 
 WITN.           Adil Mammadov:  Customer Rep 
 WITN.         Alex Yadullayev:  Customer Rep 2 
 WOBA.klb                 6.00:  WOB Avg 
 WOBX.klb                 9.00:  WOB Max 
 YP  .lhf2               31.00:  Yield Point 
~Curve Information Block
#MNEM.UNIT                 API CODE     Curve Description
#---------               -----------    ---------------------------
 TIME.HHMMSS            00 000 000 000:  GT Time & Date
 GTDEPTH.m              00 000 000 000:  GT Depth
 GTPQH.psia             00 000 000 000:  GT HR Quartz Pressure
 GTTQ.degC              00 000 000 000:  GT Quartz Temperature
 GTTN.NONE              00 000 000 000:  GT Test Number
 GTET.sec               00 000 000 000:  GT Elapsed Test Time
 GTTVD.m                00 000 000 000:  GT True Vertical Depth
#Other Information
#
#WARRANTY: Halliburton will use its best efforts to furnish customers with 
#accurate information and interpretations that are part of, and incident to, the services 
#provided.  However, Halliburton cannot and does not warrant the accuracy 
#or correctness of such information and interpretations.  Under no circumstances should any 
#such information or interpretation be relied upon as the sole basis for any drilling, 
#completion, production, or financial decision or any procedure involving any risk to the 
#safety of any drilling venture, drilling rig or its crew or any other third party.  The 
#Customer has full responsibility for all drilling, completion and production operation.  
#Halliburton makes no representations or warranties, either expressed or 
#implied, including, but not limited to, the implied warranties of merchantability or fitness 
#for a particular purpose, with respect to the services rendered.  In no event will 
#Halliburton be liable for failure to obtain any particular results or for 
#any damages, including, but not limited to, indirect, special or consequential damages, 
#resulting from the use of any information or interpretation provided by Halliburton.
#
~A           TIME           GTDEPTH  GTPQH  GTTQ  GTTN  GTET   GTTVD  
# ...
   23:19:31.627.26-Apr-2021 3222.01 5794.10 69.31 1.00 345.10 2649.76
   23:19:31.827.26-Apr-2021 3222.01 5794.10 69.31 1.00 345.30 2649.76
   23:19:32.027.26-Apr-2021 3222.01 5792.23 69.31 1.00 345.50 2649.76
   23:19:32.227.26-Apr-2021 3222.01 5795.31 69.31 1.00 345.70 2649.76
   23:19:32.427.26-Apr-2021 3222.01 5793.89 69.31 1.00 345.90 2649.76
   23:19:32.627.26-Apr-2021 3222.01 5781.20 69.31 1.00 346.10 2649.76
   23:19:32.827.26-Apr-2021 3222.01 5781.20 69.31 1.00 346.30 2649.76
   23:19:33.027.26-Apr-2021 3222.01 5793.88 69.31 1.00 346.50 2649.76
   23:19:33.227.26-Apr-2021 3222.01 5794.20 69.31 1.00 346.70 2649.76
   23:19:33.427.26-Apr-2021 3222.01 5797.13 69.31 1.00 346.90 2649.76
   23:19:33.627.26-Apr-2021 3222.01 5794.65 69.31 1.00 347.10 2649.76
   23:19:33.828.26-Apr-2021 3222.01 5794.65 69.31 1.00 347.30 2649.76
   23:19:34.028.26-Apr-2021 3222.01 5793.45 69.31 1.00 347.50 2649.76
   23:19:34.228.26-Apr-2021 3222.01 5800.62 69.31 1.00 347.70 2649.76
   23:19:34.428.26-Apr-2021 3222.01 5797.82 69.31 1.00 347.90 2649.76
   23:19:34.628.26-Apr-2021 3222.01 5798.31 69.31 1.00 348.10 2649.76
   23:19:34.828.26-Apr-2021 3222.01 5798.31 69.31 1.00 348.30 2649.76
   23:19:35.028.26-Apr-2021 3222.01 5790.33 69.31 1.00 348.50 2649.76
   23:19:35.228.26-Apr-2021 3222.01 5795.59 69.31 1.00 348.70 2649.76
   23:19:35.428.26-Apr-2021 3222.01 5797.39 69.31 1.00 348.90 2649.76
   23:19:35.628.26-Apr-2021 3222.01 5781.83 69.31 1.00 349.10 2649.76
   23:19:35.828.26-Apr-2021 3222.01 5781.83 69.31 1.00 349.30 2649.76
   23:19:36.028.26-Apr-2021 3222.01 5792.27 69.31 1.00 349.50 2649.76
   23:19:36.228.26-Apr-2021 3222.01 5799.10 69.31 1.00 349.70 2649.76
   23:19:36.428.26-Apr-2021 3222.01 5799.92 69.31 1.00 349.90 2649.76
   23:19:36.628.26-Apr-2021 3222.01 5798.52 69.31 1.00 350.10 2649.76
   23:19:36.828.26-Apr-2021 3222.01 5798.52 69.31 1.00 350.30 2649.76
   23:19:37.028.26-Apr-2021 3222.01 5800.02 69.31 1.00 350.50 2649.76
   23:19:37.229.26-Apr-2021 3222.01 5801.51 69.31 1.00 350.70 2649.76
   23:19:37.429.26-Apr-2021 3222.01 5797.77 69.32 1.00 350.90 2649.76
   23:19:37.629.26-Apr-2021 3222.01 5797.47 69.32 1.00 351.10 2649.76
   23:19:37.829.26-Apr-2021 3222.01 5797.47 69.32 1.00 351.30 2649.76
   23:19:38.029.26-Apr-2021 3222.01 5795.65 69.32 1.00 351.50 2649.76
   23:19:38.229.26-Apr-2021 3222.01 5779.62 69.32 1.00 351.70 2649.76
   23:19:38.429.26-Apr-2021 3222.01 5788.79 69.32 1.00 351.90 2649.76
   23:19:38.629.26-Apr-2021 3222.01 5790.55 69.32 1.00 352.10 2649.76
   23:19:38.829.26-Apr-2021 3222.01 5790.55 69.32 1.00 352.30 2649.76
   23:19:39.029.26-Apr-2021 3222.01 5792.35 69.32 1.00 352.50 2649.76
   23:19:39.229.26-Apr-2021 3222.01 5795.17 69.32 1.00 352.70 2649.76
   23:19:39.429.26-Apr-2021 3222.01 5794.18 69.32 1.00 352.90 2649.76
   23:19:39.629.26-Apr-2021 3222.01 5800.54 69.32 1.00 353.10 2649.76
   23:19:39.829.26-Apr-2021 3222.01 5800.54 69.32 1.00 353.30 2649.76
   23:19:40.029.26-Apr-2021 3222.01 5799.02 69.32 1.00 353.50 2649.76
   23:19:40.229.26-Apr-2021 3222.01 5795.80 69.32 1.00 353.70 2649.76
   23:19:40.429.26-Apr-2021 3222.01 5795.82 69.32 1.00 353.90 2649.76
   23:19:40.630.26-Apr-2021 3222.01 5797.54 69.32 1.00 354.10 2649.76
   23:19:40.830.26-Apr-2021 3222.01 5797.54 69.32 1.00 354.30 2649.76
   23:19:41.030.26-Apr-2021 3222.01 5781.87 69.32 1.00 354.50 2649.76
   23:19:41.230.26-Apr-2021 3222.01 5789.54 69.32 1.00 354.70 2649.76
   23:19:41.430.26-Apr-2021 3222.01 5794.74 69.32 1.00 354.90 2649.76
   23:19:41.630.26-Apr-2021 3222.01 5796.07 69.32 1.00 355.10 2649.76
   23:19:41.830.26-Apr-2021 3222.01 5796.07 69.32 1.00 355.30 2649.76
   23:19:42.030.26-Apr-2021 3222.01 5787.46 69.32 1.00 355.50 2649.76
   23:19:42.230.26-Apr-2021 3222.01 5788.91 69.32 1.00 355.70 2649.76
   23:19:42.430.26-Apr-2021 3222.01 5798.24 69.32 1.00 355.90 2649.76
   23:19:42.630.26-Apr-2021 3222.01 5801.17 69.32 1.00 356.10 2649.76
   23:19:42.830.26-Apr-2021 3222.01 5801.17 69.32 1.00 356.30 2649.76
   23:19:43.030.26-Apr-2021 3222.01 5791.62 69.32 1.00 356.50 2649.76
   23:19:43.230.26-Apr-2021 3222.01 5784.25 69.32 1.00 356.70 2649.76
   23:19:43.430.26-Apr-2021 3222.01 5795.72 69.32 1.00 356.90 2649.76
   23:19:43.630.26-Apr-2021 3222.01 5796.04 69.32 1.00 357.10 2649.76
   23:19:43.830.26-Apr-2021 3222.01 5796.04 69.32 1.00 357.30 2649.76
   23:19:44.031.26-Apr-2021 3222.01 5787.91 69.32 1.00 357.50 2649.76
   23:19:44.231.26-Apr-2021 3222.01 5792.87 69.32 1.00 357.70 2649.76
   23:19:44.431.26-Apr-2021 3222.01 5794.21 69.32 1.00 357.90 2649.76
   23:19:44.631.26-Apr-2021 3222.01 5800.02 69.32 1.00 358.11 2649.76
   23:19:44.831.26-Apr-2021 3222.01 5800.02 69.32 1.00 358.31 2649.76
   23:19:45.031.26-Apr-2021 3222.01 5797.72 69.32 1.00 358.51 2649.76
   23:19:45.231.26-Apr-2021 3222.01 5799.48 69.32 1.00 358.71 2649.76
   23:19:45.431.26-Apr-2021 3222.01 5800.90 69.32 1.00 358.91 2649.76
   23:19:45.631.26-Apr-2021 3222.01 5798.97 69.32 1.00 359.11 2649.76
   23:19:45.831.26-Apr-2021 3222.01 5798.97 69.32 1.00 359.31 2649.76
   23:19:46.031.26-Apr-2021 3222.01 5795.28 69.32 1.00 359.51 2649.76
   23:19:46.231.26-Apr-2021 3222.01 5795.77 69.32 1.00 359.71 2649.76
   23:19:46.431.26-Apr-2021 3222.01 5783.31 69.32 1.00 359.91 2649.76
   23:19:46.631.26-Apr-2021 3222.01 5786.52 69.32 1.00 360.11 2649.76
   23:19:46.831.26-Apr-2021 3222.01 5786.52 69.32 1.00 360.31 2649.76
   23:19:47.031.26-Apr-2021 3222.01 5792.38 69.32 1.00 360.51 2649.76
   23:19:47.231.26-Apr-2021 3222.01 5794.77 69.32 1.00 360.71 2649.76
   23:19:47.432.26-Apr-2021 3222.01 5793.39 69.32 1.00 360.91 2649.76
   23:19:47.632.26-Apr-2021 3222.01 5795.24 69.32 1.00 361.11 2649.76
   23:19:47.832.26-Apr-2021 3222.01 5795.24 69.32 1.00 361.31 2649.76
   23:19:48.032.26-Apr-2021 3222.01 5801.83 69.32 1.00 361.51 2649.76
   23:19:48.232.26-Apr-2021 3222.01 5798.32 69.32 1.00 361.71 2649.76
   23:19:48.432.26-Apr-2021 3222.01 5799.09 69.32 1.00 361.91 2649.76
   23:19:48.632.26-Apr-2021 3222.01 5794.67 69.31 1.00 362.11 2649.76
   23:19:48.832.26-Apr-2021 3222.01 5794.67 69.31 1.00 362.31 2649.76
   23:19:49.032.26-Apr-2021 3222.01 5796.76 69.31 1.00 362.51 2649.76
   23:19:49.232.26-Apr-2021 3222.01 5792.92 69.31 1.00 362.71 2649.76
   23:19:49.432.26-Apr-2021 3222.01 5782.27 69.31 1.00 362.91 2649.76
   23:19:49.632.26-Apr-2021 3222.01 5792.06 69.31 1.00 363.11 2649.76
   23:19:49.832.26-Apr-2021 3222.01 5792.06 69.31 1.00 363.31 2649.76
   23:19:50.032.26-Apr-2021 3222.01 5796.90 69.31 1.00 363.51 2649.76
   23:19:50.232.26-Apr-2021 3222.01 5795.67 69.31 1.00 363.71 2649.76
   23:19:50.432.26-Apr-2021 3222.01 5784.31 69.31 1.00 363.91 2649.76
   23:19:50.632.26-Apr-2021 3222.01 5791.23 69.31 1.00 364.11 2649.76
   23:19:50.833.26-Apr-2021 3222.01 5791.23 69.31 1.00 364.31 2649.76
   23:19:51.033.26-Apr-2021 3222.01 5799.78 69.31 1.00 364.51 2649.76
   23:19:51.233.26-Apr-2021 3222.01 5797.54 69.31 1.00 364.71 2649.76
   23:19:51.433.26-Apr-2021 3222.01 5782.79 69.31 1.00 364.91 2649.76
   23:19:51.633.26-Apr-2021 3222.01 5790.33 69.31 1.00 365.11 2649.76
   23:19:51.833.26-Apr-2021 3222.01 5790.33 69.31 1.00 365.31 2649.76
   23:19:52.033.26-Apr-2021 3222.01 5797.93 69.31 1.00 365.51 2649.76
   23:19:52.233.26-Apr-2021 3222.01 5797.40 69.31 1.00 365.71 2649.76
   23:19:52.433.26-Apr-2021 3222.01 5794.26 69.31 1.00 365.91 2649.76
   23:19:52.633.26-Apr-2021 3222.01 5782.01 69.31 1.00 366.11 2649.76
   23:19:52.833.26-Apr-2021 3222.01 5782.01 69.31 1.00 366.31 2649.76
   23:19:53.033.26-Apr-2021 3222.01 5799.72 69.31 1.00 366.51 2649.76
   23:19:53.233.26-Apr-2021 3222.01 5797.26 69.31 1.00 366.71 2649.76
   23:19:53.433.26-Apr-2021 3222.01 5799.10 69.31 1.00 366.91 2649.76
   23:19:53.633.26-Apr-2021 3222.01 5795.46 69.31 1.00 367.11 2649.76
   23:19:53.833.26-Apr-2021 3222.01 5795.46 69.31 1.00 367.31 2649.76
   23:19:54.033.26-Apr-2021 3222.01 5799.02 69.31 1.00 367.51 2649.76
   23:19:54.234.26-Apr-2021 3222.01 5800.10 69.31 1.00 367.71 2649.76
   23:19:54.434.26-Apr-2021 3222.01 5795.89 69.31 1.00 367.91 2649.76
