~Version Information
 VERS.                  2.0:   CWLS log ASCII Standard -VERSION 2.0
 WRAP.                   NO:   One line per depth step
~Well Information Block
#MNEM.UNIT     VALUE/NAME     DESCRIPTION
#---------     -----------    ---------------------------
 STRT.S             00:41:47 27-Apr-21: START TIME 00:41:47 27-Apr-21
 STOP.S             00:48:15 27-Apr-21: STOP TIME  00:48:15 27-Apr-21
 STEP.S                   0.00: STEP TIME
 NULL.                 -999.25: NULL VALUE
 DFWT.                        :  DIST FWL TEXT
 DFST.                        :  DIST FSL TEXT
 DMF .             Drill Floor:  DRILL MEAS FROM
 STIM.      02.00.00 12-Apr-21:  START TIME
 DATE.      02.00.00 02-May-21:  END TIME
 SPUD.               09-Apr-21:  SPUD DATE
 NREF.                    Grid:  NORTH REFERENCE
 HPTY.       Minimum Curvature:  HOLE POS TYPE
 DMOD.             Drill Model:  DRILL MOD DESC
 SVYD.                  Survey:  SURVEY DESC
 ILTD.               Lithology:  INTERP LTH DESC
 FTOP.          Formation Tops:  FORM TOPS DESC
 PDAT.          Mean Sea Level:  PERMANENT DATUM
 FLD .                     ACG:  FIELD NAME
 SON .        AZ-XX-0907021034:  JOB NUMBER
 CTRY.              Azerbaijan:  COUNTRY NAME
 WELL.                    E01x:  WELL NAME
 COMP.     BP Exploration (Caspian Sea) LTD.:  COMPANY
 UWI .            /AZE00001403:  UNIQUE WELL IDENTIFIER
 API .            /AZE00001403:  API NUMBER
 WTYP.                Deviated:  WELL TYPE
 MDS .        Operator Entered:  MAG DATA SOURCE
 BASE.              Azerbaijan:  LOGGING EQUIPMENT BASE LOCATION
 REGN.                   EESSA:  REGION
 PROV.                    Baku:  PROVINCE
 STAT.                    Baku:  STATE NAME
 SRVC.          Turan Drilling:  CONTRACTOR
 MWDS.                    Baku:  MWD SHOP
 JOBN.        AZ-XX-0907021034:  JOB TICKET NUMB
 RIG .                     DWG:  RIG NAME
 DOE .                     N/A:  DOE NUMBER
 DCON.         Sperry Drilling:  DIRECTNL CONTR
 UNIT.                     N/A:  LOGGING EQUIPMENT ID
 CNTY.                        :  COUNTY
 LOC .                        :  LOCATION
 LMF .             Drill Floor:  LOG MEASURED FROM
 TVDS.m                  43.16:  TVDSS CORRECTN
 LATI.deg                40.17:  LATITUDE
 LONG.deg                51.17:  LONGITUDE
 WHNS.m                  -5.90:  WELL HEAD N/S
 WHEW.m                  -6.61:  WELL HEAD E/W
 UTMX.m              514337.95:  UTM X
 UTMY.m             4448627.46:  UTM Y
 DFWL.m                   0.00:  DISTANCE FWL
 DFSL.m                   0.00:  DISTANCE FSL
 SDEP.m                2606.87:  START DEPTH
 TDD .m                3618.01:  TOTAL DEPTH (DRILLER)
 VSDR.deg               177.42:  VERT SEC DIRECT
 GVFD.g                   1.00:  GRAVITY FIELD
 MFLD.nT              50399.00:  MAGNETIC FIELD
 MDIP.deg                59.67:  MAGNETIC DIP
 MDEC.deg                 6.56:  MAGNETIC DECL
 GRDC.deg                 0.11:  GRID CORRECTION
 AZTC.deg                 6.45:  AZM TOTAL CORR
 EPD .m                   0.00:  ELEVATION
 EGL .m                   0.00:  GROUND ELEVATION
 WDMS.m                 176.20:  WD ELEV
 APD .m                  43.16:  DEPTH ABOVE PD
 DEP .m                2606.87:  DEPTH
 AGAP.m                  43.16:  AIR GAP
 VSEW.m                  -6.61:  VERT SEC E/W
 VSNS.m                  -5.90:  VERT SEC N/S
 EKB .m                  43.16:  KB ELEVATION
 EDF .m                  43.16:  DF ELEVATION
 TDL .m                 438.00:  TOTAL DEPTH (LOGGER)
 VSC .                       0:  VS TO CLOSURE
 MAGU.                 1855490:  MAGUTM CHECKSUM
~Parameter Information Block
#MNEM.UNIT       Value        Description
#---------     -----------    ---------------------------
 AV  .mps                 2.20:  Ann Velocity 
 AVMX.mps                 2.50:  Max Ann Veloc 
 AZIF.deg               150.21:  Azm, Final 
 BHAT.        Rotary Steerable:  BHA Type 
 BROT.°/30m               0.08:  Build Rotating 
 BS  .in                  6.50:  Bit Size 
 BSZ .in                  6.50:  Bit Size 
 BTPL.psig              108.00:  Bit Press Loss 
 CABU.                     Yes:  Customer Abuse 
 CGEO.           Emin Aliyarli:  Customer Geo 
 COMM.                     lJm:  Run Comments 1 
 TCS .hr                 74.20:  Time Ciculation Ended 
 CV  .mps                 3.63:  Crit Velocity 
 CVMX.mps                 3.66:  Max Crit Veloc 
 DD1 .         Intigam Rahimov:  Direct Drillr 1 
 DD2 .          Teymur Aghayev:  Direct Drillr 2 
 DDSV.               Geo-Pilot:  DD Service 
 DEFF.%                  97.00:  % Det Eff 
 DLRX.°/30m               1.63:  Dogleg Rot Max 
 DLSO.°/30m               0.00:  Dogleg Oriented 
 DLSX.°/30m               0.00:  Dogleg Str Max 
 DRET.      20.20.00 28-Apr-21:  Drill End Time 
 DRST.      04.45.00 26-Apr-21:  Drill Start Tim 
 DTIM.hr                 34.30:  Time Drilling 
 EDEP.m                3618.01:  End Depth 
 ENG1.           Amrah Tahirov:  Engineer 1 
 ENG2.         Bahruz Mehdiyev:  Engineer 2 
 ENG3.         Farhad Orujzade:  Engineer 3 
 ETIM.      19.00.00 29-Apr-21:  End Time 
 FLOI.gpm               370.00:  Flow In 
 FLON.gpm               300.00:  Flow In Min 
 FLOS.cptm                0.00:  Fluid Loss 
 FLOX.gpm               410.00:  Flow In Max 
 HFLO.                      No:  High Flow 
 HPRE.                      No:  High Pressure 
 HTEM.                      No:  High Temp 
 HYDO.m                   1.80:  Hydro Offset 
 IFIN.deg                67.19:  Inc, Final 
 IMAX.deg                68.42:  Inc Max 
 IMIN.deg                66.33:  Inc Min 
 IMND.m                3532.79:  Inc Min Depth 
 IMXD.m                3192.15:  Inc Max Depth 
 JARR.                      No:  Jarring 
 LETM.      20.20.00 28-Apr-21:  Log End Time 
 LOST.hr                     0:  Lost Rig Time 
 LSTM.      04.45.00 26-Apr-21:  Log Start Time 
 MDCL.ppm             36500.00:  Mud Chlorides 
 MDES.     Inversion Oil/Synthetic:  Mud Desc 
 DFD .sg                  1.42:  Mud Density 
 MDMN.sg                  1.42:  Dens Mud Min 
 MDMX.sg                  1.42:  Dens Mud Max 
 MOIL.                    55.7:  Run Mud Oil % 
 MOWR.                   71:29:  Run Mud OWR 
 MSND.                     0.1:  Run Mud Sand % 
 MSOL.                    19.9:  Run Mud Solids% 
 DFV .spqt               83.00:  Mud Viscosity 
 MWOD.in                  5.15:  MWD Tool OD 
 MWSI.                      No:  Serv Intrp, MWD 
 OTIM.hr                120.59:  Time Operating 
 PCON.           Look Like New:  Pad Condition 
 PMAX.psia            11292.93:  Press Op, Max 
 PV  .cP                 27.00:  Mud PV 
 RUN .                     400:  Run Number 
 ROPA.m/hr               14.00:  ROP Avg 
 ROPN.m/hr                9.00:  ROP Min 
 ROPX.m/hr               18.00:  ROP Max 
 RPMA.rpm               130.00:  RPM Surface Avg 
 RPMN.rpm               100.00:  RPM Surface Min 
 RPMX.rpm               140.00:  RPM Surface Max 
 RRUN.                    0400:  Rig Run Number 
 RTIM.hr                 38.60:  Time Reaming 
 SAZI.deg               149.55:  Azm, Start 
 SDEP.m                3180.01:  Start Depth 
 SIDD.                      No:  Serv Intrp, DD 
 SINC.deg                68.42:  Inc, Start 
 SPPA.psig             4400.00:  SPP Avg 
 SPPN.psig             3580.00:  SPP Min 
 SPPX.psig             4850.00:  SPP Max 
 STIM.      12.30.00 24-Apr-21:  Start Time 
 SVCS.                 DD, MWD:  Services 
 SVER.                    9.20:  Sperry Version 
 TDAT.m                 438.00:  Tot Depth Attmp 
 TDDF.                      No:  Trip for DD 
 TDLG.m                 438.00:  Tot Depth Loggd 
 TFF .                      No:  Trip for Fail 
 TQAA.f-kp               11.00:  Torque Abs Avg 
 TQAN.f-kp                9.00:  Torque Abs Min 
 TQAX.f-kp               14.00:  Torque Abs Max 
 TRRT.°/30m               0.04:  Turn Rotating 
 MRT .                    HCIM:  Maximum Recorded Temperature 
 TTMX.degC               84.31:  Max Tool Temp 
 VS01.                90521954:  Virtual Str1 SN 
 VS02.                90519327:  Virtual Str2 SN 
 VS03.                90522273:  Virtual Str3 SN 
 VS04.                11108038:  Virtual Str4 SN 
 VS05.                12258760:  Virtual Str5 SN 
 WBMN.klb                 1.00:  WOB Min 
 WITN.           Adil Mammadov:  Customer Rep 
 WITN.         Alex Yadullayev:  Customer Rep 2 
 WOBA.klb                 6.00:  WOB Avg 
 WOBX.klb                 9.00:  WOB Max 
 YP  .lhf2               31.00:  Yield Point 
~Curve Information Block
#MNEM.UNIT                 API CODE     Curve Description
#---------               -----------    ---------------------------
 TIME.HHMMSS            00 000 000 000:  GT Time & Date
 GTDEPTH.m              00 000 000 000:  GT Depth
 GTPQH.psia             00 000 000 000:  GT HR Quartz Pressure
 GTTQ.degC              00 000 000 000:  GT Quartz Temperature
 GTTN.NONE              00 000 000 000:  GT Test Number
 GTET.sec               00 000 000 000:  GT Elapsed Test Time
 GTTVD.m                00 000 000 000:  GT True Vertical Depth
#Other Information
#
#WARRANTY: Halliburton will use its best efforts to furnish customers with 
#accurate information and interpretations that are part of, and incident to, the services 
#provided.  However, Halliburton cannot and does not warrant the accuracy 
#or correctness of such information and interpretations.  Under no circumstances should any 
#such information or interpretation be relied upon as the sole basis for any drilling, 
#completion, production, or financial decision or any procedure involving any risk to the 
#safety of any drilling venture, drilling rig or its crew or any other third party.  The 
#Customer has full responsibility for all drilling, completion and production operation.  
#Halliburton makes no representations or warranties, either expressed or 
#implied, including, but not limited to, the implied warranties of merchantability or fitness 
#for a particular purpose, with respect to the services rendered.  In no event will 
#Halliburton be liable for failure to obtain any particular results or for 
#any damages, including, but not limited to, indirect, special or consequential damages, 
#resulting from the use of any information or interpretation provided by Halliburton.
#
~A           TIME           GTDEPTH  GTPQH  GTTQ  GTTN  GTET   GTTVD  
# ...
   00:46:46.785.27-Apr-2021 3226.01 4274.12 71.34 2.00 299.06 2651.33
   00:46:46.985.27-Apr-2021 3226.01 4274.12 71.34 2.00 299.26 2651.33
   00:46:47.185.27-Apr-2021 3226.01 4274.15 71.34 2.00 299.46 2651.33
   00:46:47.385.27-Apr-2021 3226.01 4274.13 71.34 2.00 299.66 2651.33
   00:46:47.585.27-Apr-2021 3226.01 4274.11 71.34 2.00 299.86 2651.33
   00:46:47.785.27-Apr-2021 3226.01 4274.10 71.34 2.00 300.06 2651.33
   00:46:47.985.27-Apr-2021 3226.01 4274.10 71.34 2.00 300.26 2651.33
   00:46:48.185.27-Apr-2021 3226.01 4274.15 71.34 2.00 300.46 2651.33
   00:46:48.385.27-Apr-2021 3226.01 4274.08 71.34 2.00 300.66 2651.33
   00:46:48.585.27-Apr-2021 3226.01 4274.05 71.34 2.00 300.86 2651.33
   00:46:48.785.27-Apr-2021 3226.01 4274.07 71.34 2.00 301.06 2651.33
   00:46:48.985.27-Apr-2021 3226.01 4274.07 71.34 2.00 301.26 2651.33
   00:46:49.185.27-Apr-2021 3226.01 4274.07 71.33 2.00 301.46 2651.33
   00:46:49.385.27-Apr-2021 3226.01 4274.14 71.33 2.00 301.66 2651.33
   00:46:49.586.27-Apr-2021 3226.01 4274.11 71.33 2.00 301.86 2651.33
   00:46:49.786.27-Apr-2021 3226.01 4274.11 71.33 2.00 302.06 2651.33
   00:46:49.986.27-Apr-2021 3226.01 4274.11 71.33 2.00 302.26 2651.33
   00:46:50.186.27-Apr-2021 3226.01 4274.10 71.33 2.00 302.46 2651.33
   00:46:50.386.27-Apr-2021 3226.01 4274.12 71.33 2.00 302.66 2651.33
   00:46:50.586.27-Apr-2021 3226.01 4274.16 71.33 2.00 302.86 2651.33
   00:46:50.786.27-Apr-2021 3226.01 4274.11 71.33 2.00 303.06 2651.33
   00:46:50.986.27-Apr-2021 3226.01 4274.11 71.33 2.00 303.26 2651.33
   00:46:51.186.27-Apr-2021 3226.01 4274.06 71.33 2.00 303.46 2651.33
   00:46:51.386.27-Apr-2021 3226.01 4274.10 71.33 2.00 303.66 2651.33
   00:46:51.586.27-Apr-2021 3226.01 4274.09 71.33 2.00 303.86 2651.33
   00:46:51.786.27-Apr-2021 3226.01 4273.86 71.33 2.00 304.06 2651.33
   00:46:51.986.27-Apr-2021 3226.01 4273.86 71.33 2.00 304.26 2651.33
   00:46:52.186.27-Apr-2021 3226.01 4274.10 71.33 2.00 304.46 2651.33
   00:46:52.386.27-Apr-2021 3226.01 4274.15 71.33 2.00 304.66 2651.33
   00:46:52.586.27-Apr-2021 3226.01 4274.12 71.33 2.00 304.86 2651.33
   00:46:52.786.27-Apr-2021 3226.01 4274.12 71.33 2.00 305.06 2651.33
   00:46:52.986.27-Apr-2021 3226.01 4274.12 71.33 2.00 305.26 2651.33
   00:46:53.186.27-Apr-2021 3226.01 4274.14 71.32 2.00 305.46 2651.33
   00:46:53.386.27-Apr-2021 3226.01 4274.20 71.32 2.00 305.66 2651.33
   00:46:53.586.27-Apr-2021 3226.01 4274.17 71.32 2.00 305.86 2651.33
   00:46:53.786.27-Apr-2021 3226.01 4274.04 71.32 2.00 306.06 2651.33
   00:46:53.986.27-Apr-2021 3226.01 4274.04 71.32 2.00 306.26 2651.33
   00:46:54.186.27-Apr-2021 3226.01 4274.16 71.32 2.00 306.46 2651.33
   00:46:54.386.27-Apr-2021 3226.01 4274.17 71.32 2.00 306.66 2651.33
   00:46:54.587.27-Apr-2021 3226.01 4274.15 71.32 2.00 306.86 2651.33
   00:46:54.787.27-Apr-2021 3226.01 4273.91 71.32 2.00 307.06 2651.33
   00:46:54.987.27-Apr-2021 3226.01 4273.91 71.32 2.00 307.26 2651.33
   00:46:55.187.27-Apr-2021 3226.01 4274.16 71.32 2.00 307.46 2651.33
   00:46:55.387.27-Apr-2021 3226.01 4274.21 71.32 2.00 307.66 2651.33
   00:46:55.587.27-Apr-2021 3226.01 4274.16 71.32 2.00 307.86 2651.33
   00:46:55.787.27-Apr-2021 3226.01 4274.15 71.32 2.00 308.06 2651.33
   00:46:55.987.27-Apr-2021 3226.01 4274.15 71.32 2.00 308.26 2651.33
   00:46:56.187.27-Apr-2021 3226.01 4274.12 71.32 2.00 308.46 2651.33
   00:46:56.387.27-Apr-2021 3226.01 4274.15 71.32 2.00 308.66 2651.33
   00:46:56.587.27-Apr-2021 3226.01 4274.11 71.32 2.00 308.86 2651.33
   00:46:56.787.27-Apr-2021 3226.01 4274.10 71.32 2.00 309.06 2651.33
   00:46:56.987.27-Apr-2021 3226.01 4274.10 71.32 2.00 309.26 2651.33
   00:46:57.187.27-Apr-2021 3226.01 4274.08 71.31 2.00 309.46 2651.33
   00:46:57.387.27-Apr-2021 3226.01 4273.84 71.31 2.00 309.66 2651.33
   00:46:57.587.27-Apr-2021 3226.01 4274.14 71.31 2.00 309.86 2651.33
   00:46:57.787.27-Apr-2021 3226.01 4274.17 71.31 2.00 310.06 2651.33
   00:46:57.987.27-Apr-2021 3226.01 4274.17 71.31 2.00 310.26 2651.33
   00:46:58.187.27-Apr-2021 3226.01 4274.14 71.31 2.00 310.46 2651.33
   00:46:58.387.27-Apr-2021 3226.01 4274.12 71.31 2.00 310.66 2651.33
   00:46:58.587.27-Apr-2021 3226.01 4274.12 71.31 2.00 310.86 2651.33
   00:46:58.787.27-Apr-2021 3226.01 4274.16 71.31 2.00 311.06 2651.33
   00:46:58.987.27-Apr-2021 3226.01 4274.16 71.31 2.00 311.26 2651.33
   00:46:59.187.27-Apr-2021 3226.01 4274.12 71.31 2.00 311.46 2651.33
   00:46:59.387.27-Apr-2021 3226.01 4274.09 71.31 2.00 311.66 2651.33
   00:46:59.588.27-Apr-2021 3226.01 4274.09 71.31 2.00 311.86 2651.33
   00:46:59.788.27-Apr-2021 3226.01 4274.13 71.31 2.00 312.06 2651.33
   00:46:59.988.27-Apr-2021 3226.01 4274.13 71.31 2.00 312.26 2651.33
   00:47:00.188.27-Apr-2021 3226.01 4274.07 71.31 2.00 312.46 2651.33
   00:47:00.388.27-Apr-2021 3226.01 4274.14 71.31 2.00 312.66 2651.33
   00:47:00.588.27-Apr-2021 3226.01 4274.17 71.31 2.00 312.86 2651.33
   00:47:00.788.27-Apr-2021 3226.01 4274.14 71.31 2.00 313.06 2651.33
   00:47:00.988.27-Apr-2021 3226.01 4274.14 71.31 2.00 313.26 2651.33
   00:47:01.188.27-Apr-2021 3226.01 4274.10 71.30 2.00 313.46 2651.33
   00:47:01.388.27-Apr-2021 3226.01 4273.87 71.30 2.00 313.66 2651.33
   00:47:01.588.27-Apr-2021 3226.01 4274.22 71.30 2.00 313.86 2651.33
   00:47:01.788.27-Apr-2021 3226.01 4274.24 71.30 2.00 314.06 2651.33
   00:47:01.988.27-Apr-2021 3226.01 4274.24 71.30 2.00 314.26 2651.33
   00:47:02.188.27-Apr-2021 3226.01 4273.94 71.30 2.00 314.46 2651.33
   00:47:02.388.27-Apr-2021 3226.01 4274.11 71.30 2.00 314.66 2651.33
   00:47:02.588.27-Apr-2021 3226.01 4274.18 71.30 2.00 314.86 2651.33
   00:47:02.788.27-Apr-2021 3226.01 4274.18 71.30 2.00 315.06 2651.33
   00:47:02.988.27-Apr-2021 3226.01 4274.18 71.30 2.00 315.26 2651.33
   00:47:03.188.27-Apr-2021 3226.01 4274.02 71.30 2.00 315.46 2651.33
   00:47:03.388.27-Apr-2021 3226.01 4274.15 71.30 2.00 315.66 2651.33
   00:47:03.588.27-Apr-2021 3226.01 4274.17 71.30 2.00 315.86 2651.33
   00:47:03.788.27-Apr-2021 3226.01 4274.22 71.30 2.00 316.06 2651.33
   00:47:03.988.27-Apr-2021 3226.01 4274.22 71.30 2.00 316.26 2651.33
   00:47:04.188.27-Apr-2021 3226.01 4274.16 71.30 2.00 316.46 2651.33
   00:47:04.388.27-Apr-2021 3226.01 4274.12 71.30 2.00 316.66 2651.33
   00:47:04.588.27-Apr-2021 3226.01 4274.18 71.30 2.00 316.86 2651.33
   00:47:04.789.27-Apr-2021 3226.01 4274.14 71.30 2.00 317.06 2651.33
   00:47:04.989.27-Apr-2021 3226.01 4274.14 71.30 2.00 317.26 2651.33
   00:47:05.189.27-Apr-2021 3226.01 4274.09 71.30 2.00 317.46 2651.33
   00:47:05.389.27-Apr-2021 3226.01 4274.08 71.29 2.00 317.66 2651.33
   00:47:05.589.27-Apr-2021 3226.01 4274.01 71.29 2.00 317.86 2651.33
   00:47:05.789.27-Apr-2021 3226.01 4273.95 71.29 2.00 318.06 2651.33
   00:47:05.989.27-Apr-2021 3226.01 4273.95 71.29 2.00 318.26 2651.33
   00:47:06.189.27-Apr-2021 3226.01 4274.16 71.29 2.00 318.46 2651.33
   00:47:06.389.27-Apr-2021 3226.01 4274.14 71.29 2.00 318.66 2651.33
   00:47:06.589.27-Apr-2021 3226.01 4274.14 71.29 2.00 318.86 2651.33
   00:47:06.789.27-Apr-2021 3226.01 4274.12 71.29 2.00 319.06 2651.33
   00:47:06.989.27-Apr-2021 3226.01 4274.12 71.29 2.00 319.26 2651.33
   00:47:07.189.27-Apr-2021 3226.01 4274.19 71.29 2.00 319.46 2651.33
   00:47:07.389.27-Apr-2021 3226.01 4274.14 71.29 2.00 319.66 2651.33
   00:47:07.589.27-Apr-2021 3226.01 4274.12 71.29 2.00 319.86 2651.33
   00:47:07.789.27-Apr-2021 3226.01 4274.10 71.29 2.00 320.06 2651.33
   00:47:07.989.27-Apr-2021 3226.01 4274.10 71.29 2.00 320.26 2651.33
   00:47:08.189.27-Apr-2021 3226.01 4274.11 71.29 2.00 320.46 2651.33
   00:47:08.389.27-Apr-2021 3226.01 4273.99 71.29 2.00 320.66 2651.33
   00:47:08.589.27-Apr-2021 3226.01 4273.99 71.29 2.00 320.86 2651.33
   00:47:08.789.27-Apr-2021 3226.01 4274.15 71.29 2.00 321.06 2651.33
   00:47:08.989.27-Apr-2021 3226.01 4274.15 71.29 2.00 321.26 2651.33
   00:47:09.189.27-Apr-2021 3226.01 4274.16 71.29 2.00 321.46 2651.33
   00:47:09.389.27-Apr-2021 3226.01 4274.16 71.28 2.00 321.66 2651.33
   00:47:09.589.27-Apr-2021 3226.01 4274.05 71.28 2.00 321.86 2651.33
