~Version Information
 VERS.                  2.0:   CWLS log ASCII Standard -VERSION 2.0
 WRAP.                   NO:   One line per depth step
~Well Information Block
#MNEM.UNIT     VALUE/NAME     DESCRIPTION
#---------     -----------    ---------------------------
 STRT.S             18:57:18 28-Apr-21: START TIME 18:57:18 28-Apr-21
 STOP.S             19:03:45 28-Apr-21: STOP TIME  19:03:45 28-Apr-21
 STEP.S                   0.00: STEP TIME
 NULL.                 -999.25: NULL VALUE
 DFWT.                        :  DIST FWL TEXT
 DFST.                        :  DIST FSL TEXT
 DMF .             Drill Floor:  DRILL MEAS FROM
 STIM.      02.00.00 12-Apr-21:  START TIME
 DATE.      02.00.00 02-May-21:  END TIME
 SPUD.               09-Apr-21:  SPUD DATE
 NREF.                    Grid:  NORTH REFERENCE
 HPTY.       Minimum Curvature:  HOLE POS TYPE
 DMOD.             Drill Model:  DRILL MOD DESC
 SVYD.                  Survey:  SURVEY DESC
 ILTD.               Lithology:  INTERP LTH DESC
 FTOP.          Formation Tops:  FORM TOPS DESC
 PDAT.          Mean Sea Level:  PERMANENT DATUM
 FLD .                     ACG:  FIELD NAME
 SON .        AZ-XX-0907021034:  JOB NUMBER
 CTRY.              Azerbaijan:  COUNTRY NAME
 WELL.                    E01x:  WELL NAME
 COMP.     BP Exploration (Caspian Sea) LTD.:  COMPANY
 UWI .            /AZE00001403:  UNIQUE WELL IDENTIFIER
 API .            /AZE00001403:  API NUMBER
 WTYP.                Deviated:  WELL TYPE
 MDS .        Operator Entered:  MAG DATA SOURCE
 BASE.              Azerbaijan:  LOGGING EQUIPMENT BASE LOCATION
 REGN.                   EESSA:  REGION
 PROV.                    Baku:  PROVINCE
 STAT.                    Baku:  STATE NAME
 SRVC.          Turan Drilling:  CONTRACTOR
 MWDS.                    Baku:  MWD SHOP
 JOBN.        AZ-XX-0907021034:  JOB TICKET NUMB
 RIG .                     DWG:  RIG NAME
 DOE .                     N/A:  DOE NUMBER
 DCON.         Sperry Drilling:  DIRECTNL CONTR
 UNIT.                     N/A:  LOGGING EQUIPMENT ID
 CNTY.                        :  COUNTY
 LOC .                        :  LOCATION
 LMF .             Drill Floor:  LOG MEASURED FROM
 TVDS.m                  43.16:  TVDSS CORRECTN
 LATI.deg                40.17:  LATITUDE
 LONG.deg                51.17:  LONGITUDE
 WHNS.m                  -5.90:  WELL HEAD N/S
 WHEW.m                  -6.61:  WELL HEAD E/W
 UTMX.m              514337.95:  UTM X
 UTMY.m             4448627.46:  UTM Y
 DFWL.m                   0.00:  DISTANCE FWL
 DFSL.m                   0.00:  DISTANCE FSL
 SDEP.m                2606.87:  START DEPTH
 TDD .m                3618.01:  TOTAL DEPTH (DRILLER)
 VSDR.deg               177.42:  VERT SEC DIRECT
 GVFD.g                   1.00:  GRAVITY FIELD
 MFLD.nT              50399.00:  MAGNETIC FIELD
 MDIP.deg                59.67:  MAGNETIC DIP
 MDEC.deg                 6.56:  MAGNETIC DECL
 GRDC.deg                 0.11:  GRID CORRECTION
 AZTC.deg                 6.45:  AZM TOTAL CORR
 EPD .m                   0.00:  ELEVATION
 EGL .m                   0.00:  GROUND ELEVATION
 WDMS.m                 176.20:  WD ELEV
 APD .m                  43.16:  DEPTH ABOVE PD
 DEP .m                2606.87:  DEPTH
 AGAP.m                  43.16:  AIR GAP
 VSEW.m                  -6.61:  VERT SEC E/W
 VSNS.m                  -5.90:  VERT SEC N/S
 EKB .m                  43.16:  KB ELEVATION
 EDF .m                  43.16:  DF ELEVATION
 TDL .m                 438.00:  TOTAL DEPTH (LOGGER)
 VSC .                       0:  VS TO CLOSURE
 MAGU.                 1855490:  MAGUTM CHECKSUM
~Parameter Information Block
#MNEM.UNIT       Value        Description
#---------     -----------    ---------------------------
 AV  .mps                 2.20:  Ann Velocity 
 AVMX.mps                 2.50:  Max Ann Veloc 
 AZIF.deg               150.21:  Azm, Final 
 BHAT.        Rotary Steerable:  BHA Type 
 BROT.°/30m               0.08:  Build Rotating 
 BS  .in                  6.50:  Bit Size 
 BSZ .in                  6.50:  Bit Size 
 BTPL.psig              108.00:  Bit Press Loss 
 CABU.                     Yes:  Customer Abuse 
 CGEO.           Emin Aliyarli:  Customer Geo 
 COMM.                     ´âi:  Run Comments 1 
 TCS .hr                 74.20:  Time Ciculation Ended 
 CV  .mps                 3.63:  Crit Velocity 
 CVMX.mps                 3.66:  Max Crit Veloc 
 DD1 .         Intigam Rahimov:  Direct Drillr 1 
 DD2 .          Teymur Aghayev:  Direct Drillr 2 
 DDSV.               Geo-Pilot:  DD Service 
 DEFF.%                  97.00:  % Det Eff 
 DLRX.°/30m               1.63:  Dogleg Rot Max 
 DLSO.°/30m               0.00:  Dogleg Oriented 
 DLSX.°/30m               0.00:  Dogleg Str Max 
 DRET.      20.20.00 28-Apr-21:  Drill End Time 
 DRST.      04.45.00 26-Apr-21:  Drill Start Tim 
 DTIM.hr                 34.30:  Time Drilling 
 EDEP.m                3618.01:  End Depth 
 ENG1.           Amrah Tahirov:  Engineer 1 
 ENG2.         Bahruz Mehdiyev:  Engineer 2 
 ENG3.         Farhad Orujzade:  Engineer 3 
 ETIM.      19.00.00 29-Apr-21:  End Time 
 FLOI.gpm               370.00:  Flow In 
 FLON.gpm               300.00:  Flow In Min 
 FLOS.cptm                0.00:  Fluid Loss 
 FLOX.gpm               410.00:  Flow In Max 
 HFLO.                      No:  High Flow 
 HPRE.                      No:  High Pressure 
 HTEM.                      No:  High Temp 
 HYDO.m                   1.80:  Hydro Offset 
 IFIN.deg                67.19:  Inc, Final 
 IMAX.deg                68.42:  Inc Max 
 IMIN.deg                66.33:  Inc Min 
 IMND.m                3532.79:  Inc Min Depth 
 IMXD.m                3192.15:  Inc Max Depth 
 JARR.                      No:  Jarring 
 LETM.      20.20.00 28-Apr-21:  Log End Time 
 LOST.hr                     0:  Lost Rig Time 
 LSTM.      04.45.00 26-Apr-21:  Log Start Time 
 MDCL.ppm             36500.00:  Mud Chlorides 
 MDES.     Inversion Oil/Synthetic:  Mud Desc 
 DFD .sg                  1.42:  Mud Density 
 MDMN.sg                  1.42:  Dens Mud Min 
 MDMX.sg                  1.42:  Dens Mud Max 
 MOIL.                    55.7:  Run Mud Oil % 
 MOWR.                   71:29:  Run Mud OWR 
 MSND.                     0.1:  Run Mud Sand % 
 MSOL.                    19.9:  Run Mud Solids% 
 DFV .spqt               83.00:  Mud Viscosity 
 MWOD.in                  5.15:  MWD Tool OD 
 MWSI.                      No:  Serv Intrp, MWD 
 OTIM.hr                120.59:  Time Operating 
 PCON.           Look Like New:  Pad Condition 
 PMAX.psia            11292.93:  Press Op, Max 
 PV  .cP                 27.00:  Mud PV 
 RUN .                     400:  Run Number 
 ROPA.m/hr               14.00:  ROP Avg 
 ROPN.m/hr                9.00:  ROP Min 
 ROPX.m/hr               18.00:  ROP Max 
 RPMA.rpm               130.00:  RPM Surface Avg 
 RPMN.rpm               100.00:  RPM Surface Min 
 RPMX.rpm               140.00:  RPM Surface Max 
 RRUN.                    0400:  Rig Run Number 
 RTIM.hr                 38.60:  Time Reaming 
 SAZI.deg               149.55:  Azm, Start 
 SDEP.m                3180.01:  Start Depth 
 SIDD.                      No:  Serv Intrp, DD 
 SINC.deg                68.42:  Inc, Start 
 SPPA.psig             4400.00:  SPP Avg 
 SPPN.psig             3580.00:  SPP Min 
 SPPX.psig             4850.00:  SPP Max 
 STIM.      12.30.00 24-Apr-21:  Start Time 
 SVCS.                 DD, MWD:  Services 
 SVER.                    9.20:  Sperry Version 
 TDAT.m                 438.00:  Tot Depth Attmp 
 TDDF.                      No:  Trip for DD 
 TDLG.m                 438.00:  Tot Depth Loggd 
 TFF .                      No:  Trip for Fail 
 TQAA.f-kp               11.00:  Torque Abs Avg 
 TQAN.f-kp                9.00:  Torque Abs Min 
 TQAX.f-kp               14.00:  Torque Abs Max 
 TRRT.°/30m               0.04:  Turn Rotating 
 MRT .                    HCIM:  Maximum Recorded Temperature 
 TTMX.degC               84.31:  Max Tool Temp 
 VS01.                90521954:  Virtual Str1 SN 
 VS02.                90519327:  Virtual Str2 SN 
 VS03.                90522273:  Virtual Str3 SN 
 VS04.                11108038:  Virtual Str4 SN 
 VS05.                12258760:  Virtual Str5 SN 
 WBMN.klb                 1.00:  WOB Min 
 WITN.           Adil Mammadov:  Customer Rep 
 WITN.         Alex Yadullayev:  Customer Rep 2 
 WOBA.klb                 6.00:  WOB Avg 
 WOBX.klb                 9.00:  WOB Max 
 YP  .lhf2               31.00:  Yield Point 
~Curve Information Block
#MNEM.UNIT                 API CODE     Curve Description
#---------               -----------    ---------------------------
 TIME.HHMMSS            00 000 000 000:  GT Time & Date
 GTDEPTH.m              00 000 000 000:  GT Depth
 GTPQH.psia             00 000 000 000:  GT HR Quartz Pressure
 GTTQ.degC              00 000 000 000:  GT Quartz Temperature
 GTTN.NONE              00 000 000 000:  GT Test Number
 GTET.sec               00 000 000 000:  GT Elapsed Test Time
 GTTVD.m                00 000 000 000:  GT True Vertical Depth
#Other Information
#
#WARRANTY: Halliburton will use its best efforts to furnish customers with 
#accurate information and interpretations that are part of, and incident to, the services 
#provided.  However, Halliburton cannot and does not warrant the accuracy 
#or correctness of such information and interpretations.  Under no circumstances should any 
#such information or interpretation be relied upon as the sole basis for any drilling, 
#completion, production, or financial decision or any procedure involving any risk to the 
#safety of any drilling venture, drilling rig or its crew or any other third party.  The 
#Customer has full responsibility for all drilling, completion and production operation.  
#Halliburton makes no representations or warranties, either expressed or 
#implied, including, but not limited to, the implied warranties of merchantability or fitness 
#for a particular purpose, with respect to the services rendered.  In no event will 
#Halliburton be liable for failure to obtain any particular results or for 
#any damages, including, but not limited to, indirect, special or consequential damages, 
#resulting from the use of any information or interpretation provided by Halliburton.
#
~A           TIME           GTDEPTH  GTPQH  GTTQ  GTTN   GTET   GTTVD  
# ...
   18:58:03.446.28-Apr-2021 3565.01 4084.50 75.50 11.00  45.21 2784.87
   18:58:03.646.28-Apr-2021 3565.01 4084.53 75.50 11.00  45.41 2784.87
   18:58:03.846.28-Apr-2021 3565.01 4084.44 75.50 11.00  45.61 2784.87
   18:58:04.046.28-Apr-2021 3565.01 4084.58 75.50 11.00  45.81 2784.87
   18:58:04.246.28-Apr-2021 3565.01 4084.56 75.50 11.00  46.01 2784.87
   18:58:04.447.28-Apr-2021 3565.01 4084.56 75.50 11.00  46.21 2784.87
   18:58:04.647.28-Apr-2021 3565.01 4084.55 75.50 11.00  46.41 2784.87
   18:58:04.847.28-Apr-2021 3565.01 4084.56 75.50 11.00  46.61 2784.87
   18:58:05.047.28-Apr-2021 3565.01 4084.55 75.50 11.00  46.81 2784.87
   18:58:05.247.28-Apr-2021 3565.01 4084.60 75.50 11.00  47.01 2784.87
   18:58:05.447.28-Apr-2021 3565.01 4084.60 75.50 11.00  47.21 2784.87
   18:58:05.647.28-Apr-2021 3565.01 4084.59 75.50 11.00  47.41 2784.87
   18:58:05.847.28-Apr-2021 3565.01 4084.58 75.49 11.00  47.61 2784.87
   18:58:06.047.28-Apr-2021 3565.01 4084.57 75.49 11.00  47.81 2784.87
   18:58:06.247.28-Apr-2021 3565.01 4084.64 75.49 11.00  48.01 2784.87
   18:58:06.447.28-Apr-2021 3565.01 4084.64 75.49 11.00  48.21 2784.87
   18:58:06.647.28-Apr-2021 3565.01 4084.64 75.49 11.00  48.41 2784.87
   18:58:06.847.28-Apr-2021 3565.01 4084.64 75.49 11.00  48.61 2784.87
   18:58:07.047.28-Apr-2021 3565.01 4084.59 75.49 11.00  48.81 2784.87
   18:58:07.247.28-Apr-2021 3565.01 4084.64 75.49 11.00  49.01 2784.87
   18:58:07.447.28-Apr-2021 3565.01 4084.64 75.49 11.00  49.21 2784.87
   18:58:07.647.28-Apr-2021 3565.01 4084.58 75.49 11.00  49.41 2784.87
   18:58:07.848.28-Apr-2021 3565.01 4084.60 75.49 11.00  49.61 2784.87
   18:58:08.048.28-Apr-2021 3565.01 4084.64 75.49 11.00  49.81 2784.87
   18:58:08.248.28-Apr-2021 3565.01 4084.60 75.49 11.00  50.01 2784.87
   18:58:08.448.28-Apr-2021 3565.01 4084.60 75.49 11.00  50.21 2784.87
   18:58:08.648.28-Apr-2021 3565.01 4084.63 75.49 11.00  50.41 2784.87
   18:58:08.848.28-Apr-2021 3565.01 4084.61 75.49 11.00  50.61 2784.87
   18:58:09.048.28-Apr-2021 3565.01 4084.65 75.48 11.00  50.82 2784.87
   18:58:09.248.28-Apr-2021 3565.01 4084.60 75.48 11.00  51.02 2784.87
   18:58:09.448.28-Apr-2021 3565.01 4084.60 75.48 11.00  51.22 2784.87
   18:58:09.648.28-Apr-2021 3565.01 4084.67 75.48 11.00  51.42 2784.87
   18:58:09.848.28-Apr-2021 3565.01 4084.65 75.48 11.00  51.62 2784.87
   18:58:10.048.28-Apr-2021 3565.01 4084.62 75.48 11.00  51.82 2784.87
   18:58:10.248.28-Apr-2021 3565.01 4084.59 75.48 11.00  52.02 2784.87
   18:58:10.448.28-Apr-2021 3565.01 4084.59 75.48 11.00  52.22 2784.87
   18:58:10.648.28-Apr-2021 3565.01 4084.50 75.48 11.00  52.42 2784.87
   18:58:10.848.28-Apr-2021 3565.01 4084.67 75.48 11.00  52.62 2784.87
   18:58:11.048.28-Apr-2021 3565.01 4084.63 75.48 11.00  52.82 2784.87
   18:58:11.249.28-Apr-2021 3565.01 4084.61 75.48 11.00  53.02 2784.87
   18:58:11.449.28-Apr-2021 3565.01 4084.61 75.48 11.00  53.22 2784.87
   18:58:11.649.28-Apr-2021 3565.01 4084.59 75.48 11.00  53.42 2784.87
   18:58:11.849.28-Apr-2021 3565.01 4084.49 75.48 11.00  53.62 2784.87
   18:58:12.049.28-Apr-2021 3565.01 4084.69 75.48 11.00  53.82 2784.87
   18:58:12.249.28-Apr-2021 3565.01 4084.64 75.47 11.00  54.02 2784.87
   18:58:12.449.28-Apr-2021 3565.01 4084.64 75.47 11.00  54.22 2784.87
   18:58:12.649.28-Apr-2021 3565.01 4084.62 75.47 11.00  54.42 2784.87
   18:58:12.849.28-Apr-2021 3565.01 4084.59 75.47 11.00  54.62 2784.87
   18:58:13.049.28-Apr-2021 3565.01 4084.46 75.47 11.00  54.82 2784.87
   18:58:13.249.28-Apr-2021 3565.01 4084.69 75.47 11.00  55.02 2784.87
   18:58:13.449.28-Apr-2021 3565.01 4084.69 75.47 11.00  55.22 2784.87
   18:58:13.649.28-Apr-2021 3565.01 4084.65 75.47 11.00  55.42 2784.87
   18:58:13.849.28-Apr-2021 3565.01 4084.61 75.47 11.00  55.62 2784.87
   18:58:14.049.28-Apr-2021 3565.01 4084.58 75.47 11.00  55.82 2784.87
   18:58:14.249.28-Apr-2021 3565.01 4084.66 75.47 11.00  56.02 2784.87
   18:58:14.449.28-Apr-2021 3565.01 4084.66 75.47 11.00  56.22 2784.87
   18:58:14.650.28-Apr-2021 3565.01 4084.63 75.47 11.00  56.42 2784.87
   18:58:14.850.28-Apr-2021 3565.01 4084.60 75.47 11.00  56.62 2784.87
   18:58:15.050.28-Apr-2021 3565.01 4084.63 75.47 11.00  56.82 2784.87
   18:58:15.250.28-Apr-2021 3565.01 4084.62 75.47 11.00  57.02 2784.87
   18:58:15.450.28-Apr-2021 3565.01 4084.62 75.47 11.00  57.22 2784.87
   18:58:15.650.28-Apr-2021 3565.01 4084.62 75.46 11.00  57.42 2784.87
   18:58:15.850.28-Apr-2021 3565.01 4084.45 75.46 11.00  57.62 2784.87
   18:58:16.050.28-Apr-2021 3565.01 4084.70 75.46 11.00  57.82 2784.87
   18:58:16.250.28-Apr-2021 3565.01 4084.62 75.46 11.00  58.02 2784.87
   18:58:16.450.28-Apr-2021 3565.01 4084.62 75.46 11.00  58.22 2784.87
   18:58:16.650.28-Apr-2021 3565.01 4084.60 75.46 11.00  58.42 2784.87
   18:58:16.850.28-Apr-2021 3565.01 4084.59 75.46 11.00  58.62 2784.87
   18:58:17.050.28-Apr-2021 3565.01 4084.64 75.46 11.00  58.82 2784.87
   18:58:17.250.28-Apr-2021 3565.01 4084.63 75.46 11.00  59.02 2784.87
   18:58:17.450.28-Apr-2021 3565.01 4084.63 75.46 11.00  59.22 2784.87
   18:58:17.650.28-Apr-2021 3565.01 4084.61 75.46 11.00  59.42 2784.87
   18:58:17.850.28-Apr-2021 3565.01 4084.63 75.46 11.00  59.62 2784.87
   18:58:18.051.28-Apr-2021 3565.01 4084.61 75.46 11.00  59.82 2784.87
   18:58:18.251.28-Apr-2021 3565.01 4084.65 75.46 11.00  60.02 2784.87
   18:58:18.451.28-Apr-2021 3565.01 4084.65 75.46 11.00  60.22 2784.87
   18:58:18.651.28-Apr-2021 3565.01 4084.57 75.45 11.00  60.42 2784.87
   18:58:18.851.28-Apr-2021 3565.01 4084.65 75.45 11.00  60.62 2784.87
   18:58:19.051.28-Apr-2021 3565.01 4084.63 75.45 11.00  60.82 2784.87
   18:58:19.251.28-Apr-2021 3565.01 4084.64 75.45 11.00  61.02 2784.87
   18:58:19.451.28-Apr-2021 3565.01 4084.64 75.45 11.00  61.22 2784.87
   18:58:19.651.28-Apr-2021 3565.01 4084.49 75.45 11.00  61.42 2784.87
   18:58:19.851.28-Apr-2021 3565.01 4084.65 75.45 11.00  61.62 2784.87
   18:58:20.051.28-Apr-2021 3565.01 4084.62 75.45 11.00  61.82 2784.87
   18:58:20.251.28-Apr-2021 3565.01 4084.65 75.45 11.00  62.02 2784.87
   18:58:20.451.28-Apr-2021 3565.01 4084.65 75.45 11.00  62.22 2784.87
   18:58:20.651.28-Apr-2021 3565.01 4084.61 75.45 11.00  62.42 2784.87
   18:58:20.851.28-Apr-2021 3565.01 4084.59 75.45 11.00  62.62 2784.87
   18:58:21.051.28-Apr-2021 3565.01 4084.51 75.45 11.00  62.82 2784.87
   18:58:21.251.28-Apr-2021 3565.01 4084.65 75.45 11.00  63.02 2784.87
   18:58:21.452.28-Apr-2021 3565.01 4084.65 75.45 11.00  63.22 2784.87
   18:58:21.652.28-Apr-2021 3565.01 4084.61 75.45 11.00  63.42 2784.87
   18:58:21.852.28-Apr-2021 3565.01 4084.57 75.45 11.00  63.62 2784.87
   18:58:22.052.28-Apr-2021 3565.01 4084.60 75.44 11.00  63.82 2784.87
   18:58:22.252.28-Apr-2021 3565.01 4084.45 75.44 11.00  64.02 2784.87
   18:58:22.452.28-Apr-2021 3565.01 4084.45 75.44 11.00  64.22 2784.87
   18:58:22.652.28-Apr-2021 3565.01 4084.62 75.44 11.00  64.42 2784.87
   18:58:22.852.28-Apr-2021 3565.01 4084.59 75.44 11.00  64.62 2784.87
   18:58:23.052.28-Apr-2021 3565.01 4084.62 75.44 11.00  64.82 2784.87
   18:58:23.252.28-Apr-2021 3565.01 4084.56 75.44 11.00  65.02 2784.87
   18:58:23.452.28-Apr-2021 3565.01 4084.56 75.44 11.00  65.22 2784.87
   18:58:23.652.28-Apr-2021 3565.01 4084.59 75.44 11.00  65.42 2784.87
   18:58:23.852.28-Apr-2021 3565.01 4084.60 75.44 11.00  65.62 2784.87
   18:58:24.052.28-Apr-2021 3565.01 4084.60 75.44 11.00  65.82 2784.87
   18:58:24.252.28-Apr-2021 3565.01 4084.58 75.44 11.00  66.02 2784.87
   18:58:24.452.28-Apr-2021 3565.01 4084.58 75.44 11.00  66.22 2784.87
   18:58:24.653.28-Apr-2021 3565.01 4084.58 75.44 11.00  66.42 2784.87
   18:58:24.853.28-Apr-2021 3565.01 4084.51 75.44 11.00  66.62 2784.87
   18:58:25.053.28-Apr-2021 3565.01 4084.56 75.44 11.00  66.82 2784.87
   18:58:25.253.28-Apr-2021 3565.01 4084.61 75.44 11.00  67.02 2784.87
   18:58:25.453.28-Apr-2021 3565.01 4084.61 75.44 11.00  67.22 2784.87
   18:58:25.653.28-Apr-2021 3565.01 4084.58 75.43 11.00  67.42 2784.87
   18:58:25.853.28-Apr-2021 3565.01 4084.58 75.43 11.00  67.62 2784.87
