~Version Information
 VERS.                  2.0:   CWLS log ASCII Standard -VERSION 2.0
 WRAP.                   NO:   One line per depth step
~Well Information Block
#MNEM.UNIT     VALUE/NAME     DESCRIPTION
#---------     -----------    ---------------------------
 STRT.S             06:42:00 27-Apr-21: START TIME 06:42:00 27-Apr-21
 STOP.S             06:48:27 27-Apr-21: STOP TIME  06:48:27 27-Apr-21
 STEP.S                   0.00: STEP TIME
 NULL.                 -999.25: NULL VALUE
 DFWT.                        :  DIST FWL TEXT
 DFST.                        :  DIST FSL TEXT
 DMF .             Drill Floor:  DRILL MEAS FROM
 STIM.      02.00.00 12-Apr-21:  START TIME
 DATE.      02.00.00 02-May-21:  END TIME
 SPUD.               09-Apr-21:  SPUD DATE
 NREF.                    Grid:  NORTH REFERENCE
 HPTY.       Minimum Curvature:  HOLE POS TYPE
 DMOD.             Drill Model:  DRILL MOD DESC
 SVYD.                  Survey:  SURVEY DESC
 ILTD.               Lithology:  INTERP LTH DESC
 FTOP.          Formation Tops:  FORM TOPS DESC
 PDAT.          Mean Sea Level:  PERMANENT DATUM
 FLD .                     ACG:  FIELD NAME
 SON .        AZ-XX-0907021034:  JOB NUMBER
 CTRY.              Azerbaijan:  COUNTRY NAME
 WELL.                    E01x:  WELL NAME
 COMP.     BP Exploration (Caspian Sea) LTD.:  COMPANY
 UWI .            /AZE00001403:  UNIQUE WELL IDENTIFIER
 API .            /AZE00001403:  API NUMBER
 WTYP.                Deviated:  WELL TYPE
 MDS .        Operator Entered:  MAG DATA SOURCE
 BASE.              Azerbaijan:  LOGGING EQUIPMENT BASE LOCATION
 REGN.                   EESSA:  REGION
 PROV.                    Baku:  PROVINCE
 STAT.                    Baku:  STATE NAME
 SRVC.          Turan Drilling:  CONTRACTOR
 MWDS.                    Baku:  MWD SHOP
 JOBN.        AZ-XX-0907021034:  JOB TICKET NUMB
 RIG .                     DWG:  RIG NAME
 DOE .                     N/A:  DOE NUMBER
 DCON.         Sperry Drilling:  DIRECTNL CONTR
 UNIT.                     N/A:  LOGGING EQUIPMENT ID
 CNTY.                        :  COUNTY
 LOC .                        :  LOCATION
 LMF .             Drill Floor:  LOG MEASURED FROM
 TVDS.m                  43.16:  TVDSS CORRECTN
 LATI.deg                40.17:  LATITUDE
 LONG.deg                51.17:  LONGITUDE
 WHNS.m                  -5.90:  WELL HEAD N/S
 WHEW.m                  -6.61:  WELL HEAD E/W
 UTMX.m              514337.95:  UTM X
 UTMY.m             4448627.46:  UTM Y
 DFWL.m                   0.00:  DISTANCE FWL
 DFSL.m                   0.00:  DISTANCE FSL
 SDEP.m                2606.87:  START DEPTH
 TDD .m                3618.01:  TOTAL DEPTH (DRILLER)
 VSDR.deg               177.42:  VERT SEC DIRECT
 GVFD.g                   1.00:  GRAVITY FIELD
 MFLD.nT              50399.00:  MAGNETIC FIELD
 MDIP.deg                59.67:  MAGNETIC DIP
 MDEC.deg                 6.56:  MAGNETIC DECL
 GRDC.deg                 0.11:  GRID CORRECTION
 AZTC.deg                 6.45:  AZM TOTAL CORR
 EPD .m                   0.00:  ELEVATION
 EGL .m                   0.00:  GROUND ELEVATION
 WDMS.m                 176.20:  WD ELEV
 APD .m                  43.16:  DEPTH ABOVE PD
 DEP .m                2606.87:  DEPTH
 AGAP.m                  43.16:  AIR GAP
 VSEW.m                  -6.61:  VERT SEC E/W
 VSNS.m                  -5.90:  VERT SEC N/S
 EKB .m                  43.16:  KB ELEVATION
 EDF .m                  43.16:  DF ELEVATION
 TDL .m                 438.00:  TOTAL DEPTH (LOGGER)
 VSC .                       0:  VS TO CLOSURE
 MAGU.                 1855490:  MAGUTM CHECKSUM
~Parameter Information Block
#MNEM.UNIT       Value        Description
#---------     -----------    ---------------------------
 AV  .mps                 2.20:  Ann Velocity 
 AVMX.mps                 2.50:  Max Ann Veloc 
 AZIF.deg               150.21:  Azm, Final 
 BHAT.        Rotary Steerable:  BHA Type 
 BROT.°/30m               0.08:  Build Rotating 
 BS  .in                  6.50:  Bit Size 
 BSZ .in                  6.50:  Bit Size 
 BTPL.psig              108.00:  Bit Press Loss 
 CABU.                     Yes:  Customer Abuse 
 CGEO.           Emin Aliyarli:  Customer Geo 
 COMM.                     )M:  Run Comments 1 
 TCS .hr                 74.20:  Time Ciculation Ended 
 CV  .mps                 3.63:  Crit Velocity 
 CVMX.mps                 3.66:  Max Crit Veloc 
 DD1 .         Intigam Rahimov:  Direct Drillr 1 
 DD2 .          Teymur Aghayev:  Direct Drillr 2 
 DDSV.               Geo-Pilot:  DD Service 
 DEFF.%                  97.00:  % Det Eff 
 DLRX.°/30m               1.63:  Dogleg Rot Max 
 DLSO.°/30m               0.00:  Dogleg Oriented 
 DLSX.°/30m               0.00:  Dogleg Str Max 
 DRET.      20.20.00 28-Apr-21:  Drill End Time 
 DRST.      04.45.00 26-Apr-21:  Drill Start Tim 
 DTIM.hr                 34.30:  Time Drilling 
 EDEP.m                3618.01:  End Depth 
 ENG1.           Amrah Tahirov:  Engineer 1 
 ENG2.         Bahruz Mehdiyev:  Engineer 2 
 ENG3.         Farhad Orujzade:  Engineer 3 
 ETIM.      19.00.00 29-Apr-21:  End Time 
 FLOI.gpm               370.00:  Flow In 
 FLON.gpm               300.00:  Flow In Min 
 FLOS.cptm                0.00:  Fluid Loss 
 FLOX.gpm               410.00:  Flow In Max 
 HFLO.                      No:  High Flow 
 HPRE.                      No:  High Pressure 
 HTEM.                      No:  High Temp 
 HYDO.m                   1.80:  Hydro Offset 
 IFIN.deg                67.19:  Inc, Final 
 IMAX.deg                68.42:  Inc Max 
 IMIN.deg                66.33:  Inc Min 
 IMND.m                3532.79:  Inc Min Depth 
 IMXD.m                3192.15:  Inc Max Depth 
 JARR.                      No:  Jarring 
 LETM.      20.20.00 28-Apr-21:  Log End Time 
 LOST.hr                     0:  Lost Rig Time 
 LSTM.      04.45.00 26-Apr-21:  Log Start Time 
 MDCL.ppm             36500.00:  Mud Chlorides 
 MDES.     Inversion Oil/Synthetic:  Mud Desc 
 DFD .sg                  1.42:  Mud Density 
 MDMN.sg                  1.42:  Dens Mud Min 
 MDMX.sg                  1.42:  Dens Mud Max 
 MOIL.                    55.7:  Run Mud Oil % 
 MOWR.                   71:29:  Run Mud OWR 
 MSND.                     0.1:  Run Mud Sand % 
 MSOL.                    19.9:  Run Mud Solids% 
 DFV .spqt               83.00:  Mud Viscosity 
 MWOD.in                  5.15:  MWD Tool OD 
 MWSI.                      No:  Serv Intrp, MWD 
 OTIM.hr                120.59:  Time Operating 
 PCON.           Look Like New:  Pad Condition 
 PMAX.psia            11292.93:  Press Op, Max 
 PV  .cP                 27.00:  Mud PV 
 RUN .                     400:  Run Number 
 ROPA.m/hr               14.00:  ROP Avg 
 ROPN.m/hr                9.00:  ROP Min 
 ROPX.m/hr               18.00:  ROP Max 
 RPMA.rpm               130.00:  RPM Surface Avg 
 RPMN.rpm               100.00:  RPM Surface Min 
 RPMX.rpm               140.00:  RPM Surface Max 
 RRUN.                    0400:  Rig Run Number 
 RTIM.hr                 38.60:  Time Reaming 
 SAZI.deg               149.55:  Azm, Start 
 SDEP.m                3180.01:  Start Depth 
 SIDD.                      No:  Serv Intrp, DD 
 SINC.deg                68.42:  Inc, Start 
 SPPA.psig             4400.00:  SPP Avg 
 SPPN.psig             3580.00:  SPP Min 
 SPPX.psig             4850.00:  SPP Max 
 STIM.      12.30.00 24-Apr-21:  Start Time 
 SVCS.                 DD, MWD:  Services 
 SVER.                    9.20:  Sperry Version 
 TDAT.m                 438.00:  Tot Depth Attmp 
 TDDF.                      No:  Trip for DD 
 TDLG.m                 438.00:  Tot Depth Loggd 
 TFF .                      No:  Trip for Fail 
 TQAA.f-kp               11.00:  Torque Abs Avg 
 TQAN.f-kp                9.00:  Torque Abs Min 
 TQAX.f-kp               14.00:  Torque Abs Max 
 TRRT.°/30m               0.04:  Turn Rotating 
 MRT .                    HCIM:  Maximum Recorded Temperature 
 TTMX.degC               84.31:  Max Tool Temp 
 VS01.                90521954:  Virtual Str1 SN 
 VS02.                90519327:  Virtual Str2 SN 
 VS03.                90522273:  Virtual Str3 SN 
 VS04.                11108038:  Virtual Str4 SN 
 VS05.                12258760:  Virtual Str5 SN 
 WBMN.klb                 1.00:  WOB Min 
 WITN.           Adil Mammadov:  Customer Rep 
 WITN.         Alex Yadullayev:  Customer Rep 2 
 WOBA.klb                 6.00:  WOB Avg 
 WOBX.klb                 9.00:  WOB Max 
 YP  .lhf2               31.00:  Yield Point 
~Curve Information Block
#MNEM.UNIT                 API CODE     Curve Description
#---------               -----------    ---------------------------
 TIME.HHMMSS            00 000 000 000:  GT Time & Date
 GTDEPTH.m              00 000 000 000:  GT Depth
 GTPQH.psia             00 000 000 000:  GT HR Quartz Pressure
 GTTQ.degC              00 000 000 000:  GT Quartz Temperature
 GTTN.NONE              00 000 000 000:  GT Test Number
 GTET.sec               00 000 000 000:  GT Elapsed Test Time
 GTTVD.m                00 000 000 000:  GT True Vertical Depth
#Other Information
#
#WARRANTY: Halliburton will use its best efforts to furnish customers with 
#accurate information and interpretations that are part of, and incident to, the services 
#provided.  However, Halliburton cannot and does not warrant the accuracy 
#or correctness of such information and interpretations.  Under no circumstances should any 
#such information or interpretation be relied upon as the sole basis for any drilling, 
#completion, production, or financial decision or any procedure involving any risk to the 
#safety of any drilling venture, drilling rig or its crew or any other third party.  The 
#Customer has full responsibility for all drilling, completion and production operation.  
#Halliburton makes no representations or warranties, either expressed or 
#implied, including, but not limited to, the implied warranties of merchantability or fitness 
#for a particular purpose, with respect to the services rendered.  In no event will 
#Halliburton be liable for failure to obtain any particular results or for 
#any damages, including, but not limited to, indirect, special or consequential damages, 
#resulting from the use of any information or interpretation provided by Halliburton.
#
~A           TIME           GTDEPTH  GTPQH  GTTQ  GTTN  GTET   GTTVD  
# ...
   06:43:09.863.27-Apr-2021 3278.01 4378.43 74.16 4.00  69.01 2671.88
   06:43:10.063.27-Apr-2021 3278.01 4378.43 74.16 4.00  69.21 2671.88
   06:43:10.263.27-Apr-2021 3278.01 4378.46 74.16 4.00  69.41 2671.88
   06:43:10.463.27-Apr-2021 3278.01 4378.30 74.16 4.00  69.61 2671.88
   06:43:10.663.27-Apr-2021 3278.01 4378.54 74.16 4.00  69.81 2671.88
   06:43:10.863.27-Apr-2021 3278.01 4378.44 74.16 4.00  70.01 2671.88
   06:43:11.063.27-Apr-2021 3278.01 4378.44 74.16 4.00  70.21 2671.88
   06:43:11.263.27-Apr-2021 3278.01 4378.50 74.16 4.00  70.41 2671.88
   06:43:11.463.27-Apr-2021 3278.01 4378.58 74.15 4.00  70.61 2671.88
   06:43:11.663.27-Apr-2021 3278.01 4378.64 74.15 4.00  70.81 2671.88
   06:43:11.863.27-Apr-2021 3278.01 4378.68 74.15 4.00  71.01 2671.88
   06:43:12.063.27-Apr-2021 3278.01 4378.68 74.15 4.00  71.21 2671.88
   06:43:12.263.27-Apr-2021 3278.01 4378.58 74.15 4.00  71.41 2671.88
   06:43:12.463.27-Apr-2021 3278.01 4378.68 74.15 4.00  71.61 2671.88
   06:43:12.663.27-Apr-2021 3278.01 4378.62 74.15 4.00  71.81 2671.88
   06:43:12.863.27-Apr-2021 3278.01 4378.21 74.15 4.00  72.01 2671.88
   06:43:13.063.27-Apr-2021 3278.01 4378.21 74.15 4.00  72.21 2671.88
   06:43:13.263.27-Apr-2021 3278.01 4378.63 74.15 4.00  72.41 2671.88
   06:43:13.463.27-Apr-2021 3278.01 4378.79 74.15 4.00  72.61 2671.88
   06:43:13.663.27-Apr-2021 3278.01 4378.32 74.15 4.00  72.81 2671.88
   06:43:13.863.27-Apr-2021 3278.01 4378.83 74.15 4.00  73.01 2671.88
   06:43:14.063.27-Apr-2021 3278.01 4378.83 74.15 4.00  73.21 2671.88
   06:43:14.263.27-Apr-2021 3278.01 4378.77 74.15 4.00  73.41 2671.88
   06:43:14.463.27-Apr-2021 3278.01 4379.06 74.15 4.00  73.61 2671.88
   06:43:14.663.27-Apr-2021 3278.01 4378.52 74.14 4.00  73.81 2671.88
   06:43:14.863.27-Apr-2021 3278.01 4378.85 74.14 4.00  74.01 2671.88
   06:43:15.063.27-Apr-2021 3278.01 4378.85 74.14 4.00  74.21 2671.88
   06:43:15.263.27-Apr-2021 3278.01 4378.79 74.14 4.00  74.41 2671.88
   06:43:15.463.27-Apr-2021 3278.01 4378.81 74.14 4.00  74.61 2671.88
   06:43:15.663.27-Apr-2021 3278.01 4378.80 74.14 4.00  74.81 2671.88
   06:43:15.863.27-Apr-2021 3278.01 4378.87 74.14 4.00  75.01 2671.88
   06:43:16.063.27-Apr-2021 3278.01 4378.87 74.14 4.00  75.21 2671.88
   06:43:16.263.27-Apr-2021 3278.01 4379.05 74.14 4.00  75.41 2671.88
   06:43:16.463.27-Apr-2021 3278.01 4379.10 74.14 4.00  75.61 2671.88
   06:43:16.664.27-Apr-2021 3278.01 4378.96 74.14 4.00  75.81 2671.88
   06:43:16.864.27-Apr-2021 3278.01 4379.09 74.14 4.00  76.01 2671.88
   06:43:17.064.27-Apr-2021 3278.01 4379.09 74.14 4.00  76.21 2671.88
   06:43:17.264.27-Apr-2021 3278.01 4379.07 74.14 4.00  76.41 2671.88
   06:43:17.464.27-Apr-2021 3278.01 4379.02 74.14 4.00  76.61 2671.88
   06:43:17.664.27-Apr-2021 3278.01 4379.03 74.14 4.00  76.81 2671.88
   06:43:17.864.27-Apr-2021 3278.01 4378.84 74.14 4.00  77.01 2671.88
   06:43:18.064.27-Apr-2021 3278.01 4378.84 74.14 4.00  77.21 2671.88
   06:43:18.264.27-Apr-2021 3278.01 4378.90 74.13 4.00  77.41 2671.88
   06:43:18.464.27-Apr-2021 3278.01 4379.13 74.13 4.00  77.61 2671.88
   06:43:18.664.27-Apr-2021 3278.01 4379.18 74.13 4.00  77.81 2671.88
   06:43:18.864.27-Apr-2021 3278.01 4379.09 74.13 4.00  78.01 2671.88
   06:43:19.064.27-Apr-2021 3278.01 4379.09 74.13 4.00  78.21 2671.88
   06:43:19.264.27-Apr-2021 3278.01 4379.07 74.13 4.00  78.41 2671.88
   06:43:19.464.27-Apr-2021 3278.01 4379.35 74.13 4.00  78.61 2671.88
   06:43:19.664.27-Apr-2021 3278.01 4379.23 74.13 4.00  78.81 2671.88
   06:43:19.864.27-Apr-2021 3278.01 4379.37 74.13 4.00  79.01 2671.88
   06:43:20.064.27-Apr-2021 3278.01 4379.37 74.13 4.00  79.21 2671.88
   06:43:20.264.27-Apr-2021 3278.01 4379.30 74.13 4.00  79.41 2671.88
   06:43:20.464.27-Apr-2021 3278.01 4379.17 74.13 4.00  79.61 2671.88
   06:43:20.664.27-Apr-2021 3278.01 4379.18 74.13 4.00  79.81 2671.88
   06:43:20.864.27-Apr-2021 3278.01 4378.88 74.13 4.00  80.01 2671.88
   06:43:21.064.27-Apr-2021 3278.01 4378.88 74.13 4.00  80.21 2671.88
   06:43:21.264.27-Apr-2021 3278.01 4379.43 74.12 4.00  80.41 2671.88
   06:43:21.464.27-Apr-2021 3278.01 4379.33 74.12 4.00  80.61 2671.88
   06:43:21.664.27-Apr-2021 3278.01 4378.99 74.12 4.00  80.81 2671.88
   06:43:21.864.27-Apr-2021 3278.01 4379.28 74.12 4.00  81.01 2671.88
   06:43:22.064.27-Apr-2021 3278.01 4379.28 74.12 4.00  81.21 2671.88
   06:43:22.264.27-Apr-2021 3278.01 4379.53 74.12 4.00  81.41 2671.88
   06:43:22.464.27-Apr-2021 3278.01 4378.97 74.12 4.00  81.61 2671.88
   06:43:22.664.27-Apr-2021 3278.01 4379.52 74.12 4.00  81.81 2671.88
   06:43:22.864.27-Apr-2021 3278.01 4379.53 74.12 4.00  82.01 2671.88
   06:43:23.064.27-Apr-2021 3278.01 4379.53 74.12 4.00  82.21 2671.88
   06:43:23.264.27-Apr-2021 3278.01 4379.59 74.12 4.00  82.41 2671.88
   06:43:23.464.27-Apr-2021 3278.01 4378.81 74.12 4.00  82.61 2671.88
   06:43:23.664.27-Apr-2021 3278.01 4379.46 74.12 4.00  82.81 2671.88
   06:43:23.864.27-Apr-2021 3278.01 4379.46 74.12 4.00  83.01 2671.88
   06:43:24.064.27-Apr-2021 3278.01 4379.46 74.12 4.00  83.21 2671.88
   06:43:24.264.27-Apr-2021 3278.01 4379.52 74.12 4.00  83.41 2671.88
   06:43:24.464.27-Apr-2021 3278.01 4379.63 74.12 4.00  83.61 2671.88
   06:43:24.664.27-Apr-2021 3278.01 4379.40 74.11 4.00  83.81 2671.88
   06:43:24.864.27-Apr-2021 3278.01 4379.69 74.11 4.00  84.01 2671.88
   06:43:25.064.27-Apr-2021 3278.01 4379.69 74.11 4.00  84.21 2671.88
   06:43:25.264.27-Apr-2021 3278.01 4379.69 74.11 4.00  84.41 2671.88
   06:43:25.464.27-Apr-2021 3278.01 4379.51 74.11 4.00  84.61 2671.88
   06:43:25.664.27-Apr-2021 3278.01 4379.60 74.11 4.00  84.81 2671.88
   06:43:25.864.27-Apr-2021 3278.01 4379.48 74.11 4.00  85.01 2671.88
   06:43:26.064.27-Apr-2021 3278.01 4379.48 74.11 4.00  85.21 2671.88
   06:43:26.264.27-Apr-2021 3278.01 4379.52 74.11 4.00  85.41 2671.88
   06:43:26.464.27-Apr-2021 3278.01 4379.65 74.11 4.00  85.61 2671.88
   06:43:26.664.27-Apr-2021 3278.01 4379.56 74.11 4.00  85.81 2671.88
   06:43:26.864.27-Apr-2021 3278.01 4379.67 74.11 4.00  86.01 2671.88
   06:43:27.064.27-Apr-2021 3278.01 4379.67 74.11 4.00  86.21 2671.88
   06:43:27.264.27-Apr-2021 3278.01 4379.61 74.11 4.00  86.41 2671.88
   06:43:27.464.27-Apr-2021 3278.01 4379.67 74.11 4.00  86.61 2671.88
   06:43:27.664.27-Apr-2021 3278.01 4379.80 74.11 4.00  86.81 2671.88
   06:43:27.864.27-Apr-2021 3278.01 4379.80 74.11 4.00  87.01 2671.88
   06:43:28.064.27-Apr-2021 3278.01 4379.80 74.11 4.00  87.21 2671.88
   06:43:28.264.27-Apr-2021 3278.01 4379.73 74.10 4.00  87.41 2671.88
   06:43:28.465.27-Apr-2021 3278.01 4379.73 74.10 4.00  87.61 2671.88
   06:43:28.665.27-Apr-2021 3278.01 4379.74 74.10 4.00  87.81 2671.88
   06:43:28.865.27-Apr-2021 3278.01 4378.95 74.10 4.00  88.01 2671.88
   06:43:29.065.27-Apr-2021 3278.01 4378.95 74.10 4.00  88.21 2671.88
   06:43:29.265.27-Apr-2021 3278.01 4379.69 74.10 4.00  88.41 2671.88
   06:43:29.465.27-Apr-2021 3278.01 4379.87 74.10 4.00  88.61 2671.88
   06:43:29.665.27-Apr-2021 3278.01 4379.16 74.10 4.00  88.81 2671.88
   06:43:29.865.27-Apr-2021 3278.01 4379.94 74.10 4.00  89.01 2671.88
   06:43:30.065.27-Apr-2021 3278.01 4379.94 74.10 4.00  89.21 2671.88
   06:43:30.265.27-Apr-2021 3278.01 4379.88 74.10 4.00  89.41 2671.88
   06:43:30.465.27-Apr-2021 3278.01 4379.89 74.10 4.00  89.61 2671.88
   06:43:30.665.27-Apr-2021 3278.01 4379.57 74.10 4.00  89.81 2671.88
   06:43:30.865.27-Apr-2021 3278.01 4379.67 74.10 4.00  90.01 2671.88
   06:43:31.065.27-Apr-2021 3278.01 4379.67 74.10 4.00  90.21 2671.88
   06:43:31.265.27-Apr-2021 3278.01 4379.98 74.09 4.00  90.41 2671.88
   06:43:31.465.27-Apr-2021 3278.01 4379.30 74.09 4.00  90.61 2671.88
   06:43:31.665.27-Apr-2021 3278.01 4379.95 74.09 4.00  90.81 2671.88
   06:43:31.865.27-Apr-2021 3278.01 4379.76 74.09 4.00  91.01 2671.88
   06:43:32.065.27-Apr-2021 3278.01 4379.76 74.09 4.00  91.21 2671.88
   06:43:32.265.27-Apr-2021 3278.01 4380.01 74.09 4.00  91.41 2671.88
   06:43:32.465.27-Apr-2021 3278.01 4379.96 74.09 4.00  91.61 2671.88
   06:43:32.665.27-Apr-2021 3278.01 4379.84 74.09 4.00  91.81 2671.88
