~Version Information
 VERS.                  2.0:   CWLS log ASCII Standard -VERSION 2.0
 WRAP.                   NO:   One line per depth step
~Well Information Block
#MNEM.UNIT     VALUE/NAME     DESCRIPTION
#---------     -----------    ---------------------------
 STRT.S             02:50:28 27-Apr-21: START TIME 02:50:28 27-Apr-21
 STOP.S             02:56:55 27-Apr-21: STOP TIME  02:56:55 27-Apr-21
 STEP.S                   0.00: STEP TIME
 NULL.                 -999.25: NULL VALUE
 DFWT.                        :  DIST FWL TEXT
 DFST.                        :  DIST FSL TEXT
 DMF .             Drill Floor:  DRILL MEAS FROM
 STIM.      02.00.00 12-Apr-21:  START TIME
 DATE.      02.00.00 02-May-21:  END TIME
 SPUD.               09-Apr-21:  SPUD DATE
 NREF.                    Grid:  NORTH REFERENCE
 HPTY.       Minimum Curvature:  HOLE POS TYPE
 DMOD.             Drill Model:  DRILL MOD DESC
 SVYD.                  Survey:  SURVEY DESC
 ILTD.               Lithology:  INTERP LTH DESC
 FTOP.          Formation Tops:  FORM TOPS DESC
 PDAT.          Mean Sea Level:  PERMANENT DATUM
 FLD .                     ACG:  FIELD NAME
 SON .        AZ-XX-0907021034:  JOB NUMBER
 CTRY.              Azerbaijan:  COUNTRY NAME
 WELL.                    E01x:  WELL NAME
 COMP.     BP Exploration (Caspian Sea) LTD.:  COMPANY
 UWI .            /AZE00001403:  UNIQUE WELL IDENTIFIER
 API .            /AZE00001403:  API NUMBER
 WTYP.                Deviated:  WELL TYPE
 MDS .        Operator Entered:  MAG DATA SOURCE
 BASE.              Azerbaijan:  LOGGING EQUIPMENT BASE LOCATION
 REGN.                   EESSA:  REGION
 PROV.                    Baku:  PROVINCE
 STAT.                    Baku:  STATE NAME
 SRVC.          Turan Drilling:  CONTRACTOR
 MWDS.                    Baku:  MWD SHOP
 JOBN.        AZ-XX-0907021034:  JOB TICKET NUMB
 RIG .                     DWG:  RIG NAME
 DOE .                     N/A:  DOE NUMBER
 DCON.         Sperry Drilling:  DIRECTNL CONTR
 UNIT.                     N/A:  LOGGING EQUIPMENT ID
 CNTY.                        :  COUNTY
 LOC .                        :  LOCATION
 LMF .             Drill Floor:  LOG MEASURED FROM
 TVDS.m                  43.16:  TVDSS CORRECTN
 LATI.deg                40.17:  LATITUDE
 LONG.deg                51.17:  LONGITUDE
 WHNS.m                  -5.90:  WELL HEAD N/S
 WHEW.m                  -6.61:  WELL HEAD E/W
 UTMX.m              514337.95:  UTM X
 UTMY.m             4448627.46:  UTM Y
 DFWL.m                   0.00:  DISTANCE FWL
 DFSL.m                   0.00:  DISTANCE FSL
 SDEP.m                2606.87:  START DEPTH
 TDD .m                3618.01:  TOTAL DEPTH (DRILLER)
 VSDR.deg               177.42:  VERT SEC DIRECT
 GVFD.g                   1.00:  GRAVITY FIELD
 MFLD.nT              50399.00:  MAGNETIC FIELD
 MDIP.deg                59.67:  MAGNETIC DIP
 MDEC.deg                 6.56:  MAGNETIC DECL
 GRDC.deg                 0.11:  GRID CORRECTION
 AZTC.deg                 6.45:  AZM TOTAL CORR
 EPD .m                   0.00:  ELEVATION
 EGL .m                   0.00:  GROUND ELEVATION
 WDMS.m                 176.20:  WD ELEV
 APD .m                  43.16:  DEPTH ABOVE PD
 DEP .m                2606.87:  DEPTH
 AGAP.m                  43.16:  AIR GAP
 VSEW.m                  -6.61:  VERT SEC E/W
 VSNS.m                  -5.90:  VERT SEC N/S
 EKB .m                  43.16:  KB ELEVATION
 EDF .m                  43.16:  DF ELEVATION
 TDL .m                 438.00:  TOTAL DEPTH (LOGGER)
 VSC .                       0:  VS TO CLOSURE
 MAGU.                 1855490:  MAGUTM CHECKSUM
~Parameter Information Block
#MNEM.UNIT       Value        Description
#---------     -----------    ---------------------------
 AV  .mps                 2.20:  Ann Velocity 
 AVMX.mps                 2.50:  Max Ann Veloc 
 AZIF.deg               150.21:  Azm, Final 
 BHAT.        Rotary Steerable:  BHA Type 
 BROT.°/30m               0.08:  Build Rotating 
 BS  .in                  6.50:  Bit Size 
 BSZ .in                  6.50:  Bit Size 
 BTPL.psig              108.00:  Bit Press Loss 
 CABU.                     Yes:  Customer Abuse 
 CGEO.           Emin Aliyarli:  Customer Geo 
 COMM.                     äº~:  Run Comments 1 
 TCS .hr                 74.20:  Time Ciculation Ended 
 CV  .mps                 3.63:  Crit Velocity 
 CVMX.mps                 3.66:  Max Crit Veloc 
 DD1 .         Intigam Rahimov:  Direct Drillr 1 
 DD2 .          Teymur Aghayev:  Direct Drillr 2 
 DDSV.               Geo-Pilot:  DD Service 
 DEFF.%                  97.00:  % Det Eff 
 DLRX.°/30m               1.63:  Dogleg Rot Max 
 DLSO.°/30m               0.00:  Dogleg Oriented 
 DLSX.°/30m               0.00:  Dogleg Str Max 
 DRET.      20.20.00 28-Apr-21:  Drill End Time 
 DRST.      04.45.00 26-Apr-21:  Drill Start Tim 
 DTIM.hr                 34.30:  Time Drilling 
 EDEP.m                3618.01:  End Depth 
 ENG1.           Amrah Tahirov:  Engineer 1 
 ENG2.         Bahruz Mehdiyev:  Engineer 2 
 ENG3.         Farhad Orujzade:  Engineer 3 
 ETIM.      19.00.00 29-Apr-21:  End Time 
 FLOI.gpm               370.00:  Flow In 
 FLON.gpm               300.00:  Flow In Min 
 FLOS.cptm                0.00:  Fluid Loss 
 FLOX.gpm               410.00:  Flow In Max 
 HFLO.                      No:  High Flow 
 HPRE.                      No:  High Pressure 
 HTEM.                      No:  High Temp 
 HYDO.m                   1.80:  Hydro Offset 
 IFIN.deg                67.19:  Inc, Final 
 IMAX.deg                68.42:  Inc Max 
 IMIN.deg                66.33:  Inc Min 
 IMND.m                3532.79:  Inc Min Depth 
 IMXD.m                3192.15:  Inc Max Depth 
 JARR.                      No:  Jarring 
 LETM.      20.20.00 28-Apr-21:  Log End Time 
 LOST.hr                     0:  Lost Rig Time 
 LSTM.      04.45.00 26-Apr-21:  Log Start Time 
 MDCL.ppm             36500.00:  Mud Chlorides 
 MDES.     Inversion Oil/Synthetic:  Mud Desc 
 DFD .sg                  1.42:  Mud Density 
 MDMN.sg                  1.42:  Dens Mud Min 
 MDMX.sg                  1.42:  Dens Mud Max 
 MOIL.                    55.7:  Run Mud Oil % 
 MOWR.                   71:29:  Run Mud OWR 
 MSND.                     0.1:  Run Mud Sand % 
 MSOL.                    19.9:  Run Mud Solids% 
 DFV .spqt               83.00:  Mud Viscosity 
 MWOD.in                  5.15:  MWD Tool OD 
 MWSI.                      No:  Serv Intrp, MWD 
 OTIM.hr                120.59:  Time Operating 
 PCON.           Look Like New:  Pad Condition 
 PMAX.psia            11292.93:  Press Op, Max 
 PV  .cP                 27.00:  Mud PV 
 RUN .                     400:  Run Number 
 ROPA.m/hr               14.00:  ROP Avg 
 ROPN.m/hr                9.00:  ROP Min 
 ROPX.m/hr               18.00:  ROP Max 
 RPMA.rpm               130.00:  RPM Surface Avg 
 RPMN.rpm               100.00:  RPM Surface Min 
 RPMX.rpm               140.00:  RPM Surface Max 
 RRUN.                    0400:  Rig Run Number 
 RTIM.hr                 38.60:  Time Reaming 
 SAZI.deg               149.55:  Azm, Start 
 SDEP.m                3180.01:  Start Depth 
 SIDD.                      No:  Serv Intrp, DD 
 SINC.deg                68.42:  Inc, Start 
 SPPA.psig             4400.00:  SPP Avg 
 SPPN.psig             3580.00:  SPP Min 
 SPPX.psig             4850.00:  SPP Max 
 STIM.      12.30.00 24-Apr-21:  Start Time 
 SVCS.                 DD, MWD:  Services 
 SVER.                    9.20:  Sperry Version 
 TDAT.m                 438.00:  Tot Depth Attmp 
 TDDF.                      No:  Trip for DD 
 TDLG.m                 438.00:  Tot Depth Loggd 
 TFF .                      No:  Trip for Fail 
 TQAA.f-kp               11.00:  Torque Abs Avg 
 TQAN.f-kp                9.00:  Torque Abs Min 
 TQAX.f-kp               14.00:  Torque Abs Max 
 TRRT.°/30m               0.04:  Turn Rotating 
 MRT .                    HCIM:  Maximum Recorded Temperature 
 TTMX.degC               84.31:  Max Tool Temp 
 VS01.                90521954:  Virtual Str1 SN 
 VS02.                90519327:  Virtual Str2 SN 
 VS03.                90522273:  Virtual Str3 SN 
 VS04.                11108038:  Virtual Str4 SN 
 VS05.                12258760:  Virtual Str5 SN 
 WBMN.klb                 1.00:  WOB Min 
 WITN.           Adil Mammadov:  Customer Rep 
 WITN.         Alex Yadullayev:  Customer Rep 2 
 WOBA.klb                 6.00:  WOB Avg 
 WOBX.klb                 9.00:  WOB Max 
 YP  .lhf2               31.00:  Yield Point 
~Curve Information Block
#MNEM.UNIT                 API CODE     Curve Description
#---------               -----------    ---------------------------
 TIME.HHMMSS            00 000 000 000:  GT Time & Date
 GTDEPTH.m              00 000 000 000:  GT Depth
 GTPQH.psia             00 000 000 000:  GT HR Quartz Pressure
 GTTQ.degC              00 000 000 000:  GT Quartz Temperature
 GTTN.NONE              00 000 000 000:  GT Test Number
 GTET.sec               00 000 000 000:  GT Elapsed Test Time
 GTTVD.m                00 000 000 000:  GT True Vertical Depth
#Other Information
#
#WARRANTY: Halliburton will use its best efforts to furnish customers with 
#accurate information and interpretations that are part of, and incident to, the services 
#provided.  However, Halliburton cannot and does not warrant the accuracy 
#or correctness of such information and interpretations.  Under no circumstances should any 
#such information or interpretation be relied upon as the sole basis for any drilling, 
#completion, production, or financial decision or any procedure involving any risk to the 
#safety of any drilling venture, drilling rig or its crew or any other third party.  The 
#Customer has full responsibility for all drilling, completion and production operation.  
#Halliburton makes no representations or warranties, either expressed or 
#implied, including, but not limited to, the implied warranties of merchantability or fitness 
#for a particular purpose, with respect to the services rendered.  In no event will 
#Halliburton be liable for failure to obtain any particular results or for 
#any damages, including, but not limited to, indirect, special or consequential damages, 
#resulting from the use of any information or interpretation provided by Halliburton.
#
~A           TIME           GTDEPTH  GTPQH  GTTQ  GTTN  GTET   GTTVD  
# ...
   02:55:04.310.27-Apr-2021 3242.51 4318.49 72.18 3.00 276.05 2657.85
   02:55:04.510.27-Apr-2021 3242.51 4318.49 72.18 3.00 276.25 2657.85
   02:55:04.710.27-Apr-2021 3242.51 4318.52 72.17 3.00 276.45 2657.85
   02:55:04.910.27-Apr-2021 3242.51 4318.61 72.17 3.00 276.65 2657.85
   02:55:05.110.27-Apr-2021 3242.51 4318.54 72.17 3.00 276.85 2657.85
   02:55:05.310.27-Apr-2021 3242.51 4318.53 72.17 3.00 277.05 2657.85
   02:55:05.510.27-Apr-2021 3242.51 4318.53 72.17 3.00 277.25 2657.85
   02:55:05.710.27-Apr-2021 3242.51 4318.49 72.17 3.00 277.45 2657.85
   02:55:05.910.27-Apr-2021 3242.51 4318.47 72.17 3.00 277.66 2657.85
   02:55:06.110.27-Apr-2021 3242.51 4318.05 72.17 3.00 277.86 2657.85
   02:55:06.310.27-Apr-2021 3242.51 4318.58 72.17 3.00 278.06 2657.85
   02:55:06.510.27-Apr-2021 3242.51 4318.58 72.17 3.00 278.26 2657.85
   02:55:06.710.27-Apr-2021 3242.51 4318.59 72.17 3.00 278.46 2657.85
   02:55:06.910.27-Apr-2021 3242.51 4318.50 72.17 3.00 278.66 2657.85
   02:55:07.110.27-Apr-2021 3242.51 4318.56 72.17 3.00 278.86 2657.85
   02:55:07.311.27-Apr-2021 3242.51 4318.19 72.17 3.00 279.06 2657.85
   02:55:07.511.27-Apr-2021 3242.51 4318.19 72.17 3.00 279.26 2657.85
   02:55:07.711.27-Apr-2021 3242.51 4318.77 72.17 3.00 279.46 2657.85
   02:55:07.911.27-Apr-2021 3242.51 4318.75 72.17 3.00 279.66 2657.85
   02:55:08.111.27-Apr-2021 3242.51 4318.59 72.17 3.00 279.86 2657.85
   02:55:08.311.27-Apr-2021 3242.51 4318.62 72.17 3.00 280.06 2657.85
   02:55:08.511.27-Apr-2021 3242.51 4318.62 72.17 3.00 280.26 2657.85
   02:55:08.711.27-Apr-2021 3242.51 4318.75 72.17 3.00 280.46 2657.85
   02:55:08.911.27-Apr-2021 3242.51 4318.71 72.17 3.00 280.66 2657.85
   02:55:09.111.27-Apr-2021 3242.51 4318.66 72.17 3.00 280.86 2657.85
   02:55:09.311.27-Apr-2021 3242.51 4318.61 72.17 3.00 281.06 2657.85
   02:55:09.511.27-Apr-2021 3242.51 4318.61 72.17 3.00 281.26 2657.85
   02:55:09.711.27-Apr-2021 3242.51 4318.63 72.16 3.00 281.46 2657.85
   02:55:09.911.27-Apr-2021 3242.51 4318.74 72.16 3.00 281.66 2657.85
   02:55:10.111.27-Apr-2021 3242.51 4318.74 72.16 3.00 281.86 2657.85
   02:55:10.311.27-Apr-2021 3242.51 4318.73 72.16 3.00 282.06 2657.85
   02:55:10.511.27-Apr-2021 3242.51 4318.73 72.16 3.00 282.26 2657.85
   02:55:10.711.27-Apr-2021 3242.51 4318.64 72.16 3.00 282.46 2657.85
   02:55:10.911.27-Apr-2021 3242.51 4318.69 72.16 3.00 282.66 2657.85
   02:55:11.111.27-Apr-2021 3242.51 4318.71 72.16 3.00 282.86 2657.85
   02:55:11.311.27-Apr-2021 3242.51 4318.68 72.16 3.00 283.06 2657.85
   02:55:11.511.27-Apr-2021 3242.51 4318.68 72.16 3.00 283.26 2657.85
   02:55:11.711.27-Apr-2021 3242.51 4318.63 72.16 3.00 283.46 2657.85
   02:55:11.911.27-Apr-2021 3242.51 4318.58 72.16 3.00 283.66 2657.85
   02:55:12.111.27-Apr-2021 3242.51 4318.38 72.16 3.00 283.86 2657.85
   02:55:12.312.27-Apr-2021 3242.51 4318.56 72.16 3.00 284.06 2657.85
   02:55:12.512.27-Apr-2021 3242.51 4318.56 72.16 3.00 284.26 2657.85
   02:55:12.712.27-Apr-2021 3242.51 4318.65 72.16 3.00 284.46 2657.85
   02:55:12.912.27-Apr-2021 3242.51 4318.77 72.16 3.00 284.66 2657.85
   02:55:13.112.27-Apr-2021 3242.51 4318.70 72.16 3.00 284.86 2657.85
   02:55:13.312.27-Apr-2021 3242.51 4318.78 72.16 3.00 285.06 2657.85
   02:55:13.512.27-Apr-2021 3242.51 4318.78 72.16 3.00 285.26 2657.85
   02:55:13.712.27-Apr-2021 3242.51 4318.84 72.16 3.00 285.46 2657.85
   02:55:13.912.27-Apr-2021 3242.51 4318.73 72.16 3.00 285.66 2657.85
   02:55:14.112.27-Apr-2021 3242.51 4318.79 72.16 3.00 285.86 2657.85
   02:55:14.312.27-Apr-2021 3242.51 4318.69 72.16 3.00 286.06 2657.85
   02:55:14.512.27-Apr-2021 3242.51 4318.69 72.16 3.00 286.26 2657.85
   02:55:14.712.27-Apr-2021 3242.51 4318.67 72.16 3.00 286.46 2657.85
   02:55:14.912.27-Apr-2021 3242.51 4318.31 72.15 3.00 286.66 2657.85
   02:55:15.112.27-Apr-2021 3242.51 4318.70 72.15 3.00 286.86 2657.85
   02:55:15.312.27-Apr-2021 3242.51 4318.79 72.15 3.00 287.06 2657.85
   02:55:15.512.27-Apr-2021 3242.51 4318.79 72.15 3.00 287.26 2657.85
   02:55:15.712.27-Apr-2021 3242.51 4318.73 72.15 3.00 287.46 2657.85
   02:55:15.912.27-Apr-2021 3242.51 4318.74 72.15 3.00 287.66 2657.85
   02:55:16.112.27-Apr-2021 3242.51 4318.27 72.15 3.00 287.86 2657.85
   02:55:16.312.27-Apr-2021 3242.51 4318.85 72.15 3.00 288.06 2657.85
   02:55:16.512.27-Apr-2021 3242.51 4318.85 72.15 3.00 288.26 2657.85
   02:55:16.712.27-Apr-2021 3242.51 4318.90 72.15 3.00 288.46 2657.85
   02:55:16.912.27-Apr-2021 3242.51 4318.80 72.15 3.00 288.66 2657.85
   02:55:17.112.27-Apr-2021 3242.51 4318.82 72.15 3.00 288.86 2657.85
   02:55:17.313.27-Apr-2021 3242.51 4318.38 72.15 3.00 289.06 2657.85
   02:55:17.513.27-Apr-2021 3242.51 4318.38 72.15 3.00 289.26 2657.85
   02:55:17.713.27-Apr-2021 3242.51 4318.85 72.15 3.00 289.46 2657.85
   02:55:17.913.27-Apr-2021 3242.51 4318.85 72.15 3.00 289.66 2657.85
   02:55:18.113.27-Apr-2021 3242.51 4318.78 72.15 3.00 289.86 2657.85
   02:55:18.313.27-Apr-2021 3242.51 4318.52 72.15 3.00 290.06 2657.85
   02:55:18.513.27-Apr-2021 3242.51 4318.52 72.15 3.00 290.26 2657.85
   02:55:18.713.27-Apr-2021 3242.51 4318.87 72.15 3.00 290.46 2657.85
   02:55:18.913.27-Apr-2021 3242.51 4318.88 72.15 3.00 290.66 2657.85
   02:55:19.113.27-Apr-2021 3242.51 4318.92 72.15 3.00 290.86 2657.85
   02:55:19.313.27-Apr-2021 3242.51 4318.84 72.15 3.00 291.06 2657.85
   02:55:19.513.27-Apr-2021 3242.51 4318.84 72.15 3.00 291.26 2657.85
   02:55:19.713.27-Apr-2021 3242.51 4318.84 72.15 3.00 291.46 2657.85
   02:55:19.913.27-Apr-2021 3242.51 4318.91 72.15 3.00 291.66 2657.85
   02:55:20.113.27-Apr-2021 3242.51 4318.85 72.14 3.00 291.86 2657.85
   02:55:20.313.27-Apr-2021 3242.51 4318.82 72.14 3.00 292.06 2657.85
   02:55:20.513.27-Apr-2021 3242.51 4318.82 72.14 3.00 292.26 2657.85
   02:55:20.713.27-Apr-2021 3242.51 4318.77 72.14 3.00 292.46 2657.85
   02:55:20.913.27-Apr-2021 3242.51 4318.63 72.14 3.00 292.66 2657.85
   02:55:21.113.27-Apr-2021 3242.51 4318.65 72.14 3.00 292.86 2657.85
   02:55:21.313.27-Apr-2021 3242.51 4318.83 72.14 3.00 293.06 2657.85
   02:55:21.513.27-Apr-2021 3242.51 4318.83 72.14 3.00 293.26 2657.85
   02:55:21.713.27-Apr-2021 3242.51 4318.92 72.14 3.00 293.46 2657.85
   02:55:21.913.27-Apr-2021 3242.51 4318.88 72.14 3.00 293.66 2657.85
   02:55:22.113.27-Apr-2021 3242.51 4318.93 72.14 3.00 293.86 2657.85
   02:55:22.314.27-Apr-2021 3242.51 4318.84 72.14 3.00 294.06 2657.85
   02:55:22.514.27-Apr-2021 3242.51 4318.84 72.14 3.00 294.26 2657.85
   02:55:22.714.27-Apr-2021 3242.51 4318.86 72.14 3.00 294.46 2657.85
   02:55:22.914.27-Apr-2021 3242.51 4318.95 72.14 3.00 294.66 2657.85
   02:55:23.114.27-Apr-2021 3242.51 4318.83 72.14 3.00 294.86 2657.85
   02:55:23.314.27-Apr-2021 3242.51 4318.93 72.14 3.00 295.06 2657.85
   02:55:23.514.27-Apr-2021 3242.51 4318.93 72.14 3.00 295.26 2657.85
   02:55:23.714.27-Apr-2021 3242.51 4318.83 72.14 3.00 295.46 2657.85
   02:55:23.914.27-Apr-2021 3242.51 4318.77 72.14 3.00 295.66 2657.85
   02:55:24.114.27-Apr-2021 3242.51 4318.93 72.14 3.00 295.86 2657.85
   02:55:24.314.27-Apr-2021 3242.51 4318.89 72.14 3.00 296.06 2657.85
   02:55:24.514.27-Apr-2021 3242.51 4318.89 72.14 3.00 296.26 2657.85
   02:55:24.714.27-Apr-2021 3242.51 4318.90 72.14 3.00 296.46 2657.85
   02:55:24.914.27-Apr-2021 3242.51 4318.45 72.14 3.00 296.66 2657.85
   02:55:25.114.27-Apr-2021 3242.51 4319.01 72.14 3.00 296.86 2657.85
   02:55:25.314.27-Apr-2021 3242.51 4319.16 72.13 3.00 297.06 2657.85
   02:55:25.514.27-Apr-2021 3242.51 4319.16 72.13 3.00 297.26 2657.85
   02:55:25.714.27-Apr-2021 3242.51 4318.93 72.13 3.00 297.46 2657.85
   02:55:25.914.27-Apr-2021 3242.51 4318.89 72.13 3.00 297.66 2657.85
   02:55:26.114.27-Apr-2021 3242.51 4318.63 72.13 3.00 297.86 2657.85
   02:55:26.314.27-Apr-2021 3242.51 4318.97 72.13 3.00 298.06 2657.85
   02:55:26.514.27-Apr-2021 3242.51 4318.97 72.13 3.00 298.26 2657.85
   02:55:26.714.27-Apr-2021 3242.51 4319.00 72.13 3.00 298.46 2657.85
   02:55:26.914.27-Apr-2021 3242.51 4318.94 72.13 3.00 298.66 2657.85
   02:55:27.114.27-Apr-2021 3242.51 4318.78 72.13 3.00 298.86 2657.85
