~Version Information
 VERS.                  2.0:   CWLS log ASCII Standard -VERSION 2.0
 WRAP.                   NO:   One line per depth step
~Well Information Block
#MNEM.UNIT     VALUE/NAME     DESCRIPTION
#---------     -----------    ---------------------------
 STRT.S             13:09:03 28-Apr-21: START TIME 13:09:03 28-Apr-21
 STOP.S             13:15:31 28-Apr-21: STOP TIME  13:15:31 28-Apr-21
 STEP.S                   0.00: STEP TIME
 NULL.                 -999.25: NULL VALUE
 DFWT.                        :  DIST FWL TEXT
 DFST.                        :  DIST FSL TEXT
 DMF .             Drill Floor:  DRILL MEAS FROM
 STIM.      02.00.00 12-Apr-21:  START TIME
 DATE.      02.00.00 02-May-21:  END TIME
 SPUD.               09-Apr-21:  SPUD DATE
 NREF.                    Grid:  NORTH REFERENCE
 HPTY.       Minimum Curvature:  HOLE POS TYPE
 DMOD.             Drill Model:  DRILL MOD DESC
 SVYD.                  Survey:  SURVEY DESC
 ILTD.               Lithology:  INTERP LTH DESC
 FTOP.          Formation Tops:  FORM TOPS DESC
 PDAT.          Mean Sea Level:  PERMANENT DATUM
 FLD .                     ACG:  FIELD NAME
 SON .        AZ-XX-0907021034:  JOB NUMBER
 CTRY.              Azerbaijan:  COUNTRY NAME
 WELL.                    E01x:  WELL NAME
 COMP.     BP Exploration (Caspian Sea) LTD.:  COMPANY
 UWI .            /AZE00001403:  UNIQUE WELL IDENTIFIER
 API .            /AZE00001403:  API NUMBER
 WTYP.                Deviated:  WELL TYPE
 MDS .        Operator Entered:  MAG DATA SOURCE
 BASE.              Azerbaijan:  LOGGING EQUIPMENT BASE LOCATION
 REGN.                   EESSA:  REGION
 PROV.                    Baku:  PROVINCE
 STAT.                    Baku:  STATE NAME
 SRVC.          Turan Drilling:  CONTRACTOR
 MWDS.                    Baku:  MWD SHOP
 JOBN.        AZ-XX-0907021034:  JOB TICKET NUMB
 RIG .                     DWG:  RIG NAME
 DOE .                     N/A:  DOE NUMBER
 DCON.         Sperry Drilling:  DIRECTNL CONTR
 UNIT.                     N/A:  LOGGING EQUIPMENT ID
 CNTY.                        :  COUNTY
 LOC .                        :  LOCATION
 LMF .             Drill Floor:  LOG MEASURED FROM
 TVDS.m                  43.16:  TVDSS CORRECTN
 LATI.deg                40.17:  LATITUDE
 LONG.deg                51.17:  LONGITUDE
 WHNS.m                  -5.90:  WELL HEAD N/S
 WHEW.m                  -6.61:  WELL HEAD E/W
 UTMX.m              514337.95:  UTM X
 UTMY.m             4448627.46:  UTM Y
 DFWL.m                   0.00:  DISTANCE FWL
 DFSL.m                   0.00:  DISTANCE FSL
 SDEP.m                2606.87:  START DEPTH
 TDD .m                3618.01:  TOTAL DEPTH (DRILLER)
 VSDR.deg               177.42:  VERT SEC DIRECT
 GVFD.g                   1.00:  GRAVITY FIELD
 MFLD.nT              50399.00:  MAGNETIC FIELD
 MDIP.deg                59.67:  MAGNETIC DIP
 MDEC.deg                 6.56:  MAGNETIC DECL
 GRDC.deg                 0.11:  GRID CORRECTION
 AZTC.deg                 6.45:  AZM TOTAL CORR
 EPD .m                   0.00:  ELEVATION
 EGL .m                   0.00:  GROUND ELEVATION
 WDMS.m                 176.20:  WD ELEV
 APD .m                  43.16:  DEPTH ABOVE PD
 DEP .m                2606.87:  DEPTH
 AGAP.m                  43.16:  AIR GAP
 VSEW.m                  -6.61:  VERT SEC E/W
 VSNS.m                  -5.90:  VERT SEC N/S
 EKB .m                  43.16:  KB ELEVATION
 EDF .m                  43.16:  DF ELEVATION
 TDL .m                 438.00:  TOTAL DEPTH (LOGGER)
 VSC .                       0:  VS TO CLOSURE
 MAGU.                 1855490:  MAGUTM CHECKSUM
~Parameter Information Block
#MNEM.UNIT       Value        Description
#---------     -----------    ---------------------------
 AV  .mps                 2.20:  Ann Velocity 
 AVMX.mps                 2.50:  Max Ann Veloc 
 AZIF.deg               150.21:  Azm, Final 
 BHAT.        Rotary Steerable:  BHA Type 
 BROT.∞/30m               0.08:  Build Rotating 
 BS  .in                  6.50:  Bit Size 
 BSZ .in                  6.50:  Bit Size 
 BTPL.psig              108.00:  Bit Press Loss 
 CABU.                     Yes:  Customer Abuse 
 CGEO.           Emin Aliyarli:  Customer Geo 
 COMM.                     ‹Ïq:  Run Comments 1 
 TCS .hr                 74.20:  Time Ciculation Ended 
 CV  .mps                 3.63:  Crit Velocity 
 CVMX.mps                 3.66:  Max Crit Veloc 
 DD1 .         Intigam Rahimov:  Direct Drillr 1 
 DD2 .          Teymur Aghayev:  Direct Drillr 2 
 DDSV.               Geo-Pilot:  DD Service 
 DEFF.%                  97.00:  % Det Eff 
 DLRX.∞/30m               1.63:  Dogleg Rot Max 
 DLSO.∞/30m               0.00:  Dogleg Oriented 
 DLSX.∞/30m               0.00:  Dogleg Str Max 
 DRET.      20.20.00 28-Apr-21:  Drill End Time 
 DRST.      04.45.00 26-Apr-21:  Drill Start Tim 
 DTIM.hr                 34.30:  Time Drilling 
 EDEP.m                3618.01:  End Depth 
 ENG1.           Amrah Tahirov:  Engineer 1 
 ENG2.         Bahruz Mehdiyev:  Engineer 2 
 ENG3.         Farhad Orujzade:  Engineer 3 
 ETIM.      19.00.00 29-Apr-21:  End Time 
 FLOI.gpm               370.00:  Flow In 
 FLON.gpm               300.00:  Flow In Min 
 FLOS.cptm                0.00:  Fluid Loss 
 FLOX.gpm               410.00:  Flow In Max 
 HFLO.                      No:  High Flow 
 HPRE.                      No:  High Pressure 
 HTEM.                      No:  High Temp 
 HYDO.m                   1.80:  Hydro Offset 
 IFIN.deg                67.19:  Inc, Final 
 IMAX.deg                68.42:  Inc Max 
 IMIN.deg                66.33:  Inc Min 
 IMND.m                3532.79:  Inc Min Depth 
 IMXD.m                3192.15:  Inc Max Depth 
 JARR.                      No:  Jarring 
 LETM.      20.20.00 28-Apr-21:  Log End Time 
 LOST.hr                     0:  Lost Rig Time 
 LSTM.      04.45.00 26-Apr-21:  Log Start Time 
 MDCL.ppm             36500.00:  Mud Chlorides 
 MDES.     Inversion Oil/Synthetic:  Mud Desc 
 DFD .sg                  1.42:  Mud Density 
 MDMN.sg                  1.42:  Dens Mud Min 
 MDMX.sg                  1.42:  Dens Mud Max 
 MOIL.                    55.7:  Run Mud Oil % 
 MOWR.                   71:29:  Run Mud OWR 
 MSND.                     0.1:  Run Mud Sand % 
 MSOL.                    19.9:  Run Mud Solids% 
 DFV .spqt               83.00:  Mud Viscosity 
 MWOD.in                  5.15:  MWD Tool OD 
 MWSI.                      No:  Serv Intrp, MWD 
 OTIM.hr                120.59:  Time Operating 
 PCON.           Look Like New:  Pad Condition 
 PMAX.psia            11292.93:  Press Op, Max 
 PV  .cP                 27.00:  Mud PV 
 RUN .                     400:  Run Number 
 ROPA.m/hr               14.00:  ROP Avg 
 ROPN.m/hr                9.00:  ROP Min 
 ROPX.m/hr               18.00:  ROP Max 
 RPMA.rpm               130.00:  RPM Surface Avg 
 RPMN.rpm               100.00:  RPM Surface Min 
 RPMX.rpm               140.00:  RPM Surface Max 
 RRUN.                    0400:  Rig Run Number 
 RTIM.hr                 38.60:  Time Reaming 
 SAZI.deg               149.55:  Azm, Start 
 SDEP.m                3180.01:  Start Depth 
 SIDD.                      No:  Serv Intrp, DD 
 SINC.deg                68.42:  Inc, Start 
 SPPA.psig             4400.00:  SPP Avg 
 SPPN.psig             3580.00:  SPP Min 
 SPPX.psig             4850.00:  SPP Max 
 STIM.      12.30.00 24-Apr-21:  Start Time 
 SVCS.                 DD, MWD:  Services 
 SVER.                    9.20:  Sperry Version 
 TDAT.m                 438.00:  Tot Depth Attmp 
 TDDF.                      No:  Trip for DD 
 TDLG.m                 438.00:  Tot Depth Loggd 
 TFF .                      No:  Trip for Fail 
 TQAA.f-kp               11.00:  Torque Abs Avg 
 TQAN.f-kp                9.00:  Torque Abs Min 
 TQAX.f-kp               14.00:  Torque Abs Max 
 TRRT.∞/30m               0.04:  Turn Rotating 
 MRT .                    HCIM:  Maximum Recorded Temperature 
 TTMX.degC               84.31:  Max Tool Temp 
 VS01.                90521954:  Virtual Str1 SN 
 VS02.                90519327:  Virtual Str2 SN 
 VS03.                90522273:  Virtual Str3 SN 
 VS04.                11108038:  Virtual Str4 SN 
 VS05.                12258760:  Virtual Str5 SN 
 WBMN.klb                 1.00:  WOB Min 
 WITN.           Adil Mammadov:  Customer Rep 
 WITN.         Alex Yadullayev:  Customer Rep 2 
 WOBA.klb                 6.00:  WOB Avg 
 WOBX.klb                 9.00:  WOB Max 
 YP  .lhf2               31.00:  Yield Point 
~Curve Information Block
#MNEM.UNIT                 API CODE     Curve Description
#---------               -----------    ---------------------------
 TIME.HHMMSS            00 000 000 000:  GT Time & Date
 GTDEPTH.m              00 000 000 000:  GT Depth
 GTPQH.psia             00 000 000 000:  GT HR Quartz Pressure
 GTTQ.degC              00 000 000 000:  GT Quartz Temperature
 GTTN.NONE              00 000 000 000:  GT Test Number
 GTET.sec               00 000 000 000:  GT Elapsed Test Time
 GTTVD.m                00 000 000 000:  GT True Vertical Depth
#Other Information
#
#WARRANTY: Halliburton will use its best efforts to furnish customers with 
#accurate information and interpretations that are part of, and incident to, the services 
#provided.  However, Halliburton cannot and does not warrant the accuracy 
#or correctness of such information and interpretations.  Under no circumstances should any 
#such information or interpretation be relied upon as the sole basis for any drilling, 
#completion, production, or financial decision or any procedure involving any risk to the 
#safety of any drilling venture, drilling rig or its crew or any other third party.  The 
#Customer has full responsibility for all drilling, completion and production operation.  
#Halliburton makes no representations or warranties, either expressed or 
#implied, including, but not limited to, the implied warranties of merchantability or fitness 
#for a particular purpose, with respect to the services rendered.  In no event will 
#Halliburton be liable for failure to obtain any particular results or for 
#any damages, including, but not limited to, indirect, special or consequential damages, 
#resulting from the use of any information or interpretation provided by Halliburton.
#
~A           TIME           GTDEPTH  GTPQH  GTTQ  GTTN  GTET   GTTVD  
# ...
   13:12:30.461.28-Apr-2021 3524.51 4368.98 75.00 9.00 207.03 2768.78
   13:12:30.661.28-Apr-2021 3524.51 4368.98 75.00 9.00 207.23 2768.78
   13:12:30.861.28-Apr-2021 3524.51 4369.32 75.00 9.00 207.43 2768.78
   13:12:31.061.28-Apr-2021 3524.51 4369.27 75.00 9.00 207.63 2768.78
   13:12:31.261.28-Apr-2021 3524.51 4369.23 75.00 9.00 207.83 2768.78
   13:12:31.461.28-Apr-2021 3524.51 4369.26 75.00 9.00 208.03 2768.78
   13:12:31.661.28-Apr-2021 3524.51 4369.26 75.00 9.00 208.23 2768.78
   13:12:31.861.28-Apr-2021 3524.51 4369.27 75.00 9.00 208.43 2768.78
   13:12:32.061.28-Apr-2021 3524.51 4369.24 75.00 9.00 208.63 2768.78
   13:12:32.261.28-Apr-2021 3524.51 4369.25 74.99 9.00 208.83 2768.78
   13:12:32.461.28-Apr-2021 3524.51 4369.25 74.99 9.00 209.03 2768.78
   13:12:32.661.28-Apr-2021 3524.51 4369.25 74.99 9.00 209.23 2768.78
   13:12:32.861.28-Apr-2021 3524.51 4369.25 74.99 9.00 209.43 2768.78
   13:12:33.061.28-Apr-2021 3524.51 4369.22 74.99 9.00 209.63 2768.78
   13:12:33.261.28-Apr-2021 3524.51 4369.02 74.99 9.00 209.83 2768.78
   13:12:33.461.28-Apr-2021 3524.51 4369.38 74.99 9.00 210.03 2768.78
   13:12:33.661.28-Apr-2021 3524.51 4369.38 74.99 9.00 210.23 2768.78
   13:12:33.861.28-Apr-2021 3524.51 4369.26 74.99 9.00 210.43 2768.78
   13:12:34.061.28-Apr-2021 3524.51 4369.06 74.99 9.00 210.63 2768.78
   13:12:34.262.28-Apr-2021 3524.51 4369.37 74.99 9.00 210.83 2768.78
   13:12:34.462.28-Apr-2021 3524.51 4369.33 74.99 9.00 211.03 2768.78
   13:12:34.662.28-Apr-2021 3524.51 4369.33 74.99 9.00 211.23 2768.78
   13:12:34.862.28-Apr-2021 3524.51 4369.00 74.99 9.00 211.43 2768.78
   13:12:35.062.28-Apr-2021 3524.51 4369.38 74.99 9.00 211.63 2768.78
   13:12:35.262.28-Apr-2021 3524.51 4369.33 74.99 9.00 211.83 2768.78
   13:12:35.462.28-Apr-2021 3524.51 4369.30 74.99 9.00 212.03 2768.78
   13:12:35.662.28-Apr-2021 3524.51 4369.30 74.99 9.00 212.23 2768.78
   13:12:35.862.28-Apr-2021 3524.51 4369.13 74.99 9.00 212.43 2768.78
   13:12:36.062.28-Apr-2021 3524.51 4369.26 74.99 9.00 212.63 2768.78
   13:12:36.262.28-Apr-2021 3524.51 4369.32 74.99 9.00 212.83 2768.78
   13:12:36.462.28-Apr-2021 3524.51 4369.32 74.99 9.00 213.03 2768.78
   13:12:36.662.28-Apr-2021 3524.51 4369.32 74.99 9.00 213.23 2768.78
   13:12:36.862.28-Apr-2021 3524.51 4369.21 74.98 9.00 213.43 2768.78
   13:12:37.062.28-Apr-2021 3524.51 4369.33 74.98 9.00 213.63 2768.78
   13:12:37.262.28-Apr-2021 3524.51 4369.27 74.98 9.00 213.83 2768.78
   13:12:37.462.28-Apr-2021 3524.51 4369.27 74.98 9.00 214.03 2768.78
   13:12:37.662.28-Apr-2021 3524.51 4369.27 74.98 9.00 214.23 2768.78
   13:12:37.862.28-Apr-2021 3524.51 4369.25 74.98 9.00 214.43 2768.78
   13:12:38.062.28-Apr-2021 3524.51 4369.27 74.98 9.00 214.63 2768.78
   13:12:38.262.28-Apr-2021 3524.51 4369.24 74.98 9.00 214.83 2768.78
   13:12:38.462.28-Apr-2021 3524.51 4369.17 74.98 9.00 215.03 2768.78
   13:12:38.662.28-Apr-2021 3524.51 4369.17 74.98 9.00 215.23 2768.78
   13:12:38.862.28-Apr-2021 3524.51 4369.32 74.98 9.00 215.43 2768.78
   13:12:39.062.28-Apr-2021 3524.51 4369.30 74.98 9.00 215.63 2768.78
   13:12:39.262.28-Apr-2021 3524.51 4369.27 74.98 9.00 215.84 2768.78
   13:12:39.462.28-Apr-2021 3524.51 4369.19 74.98 9.00 216.04 2768.78
   13:12:39.662.28-Apr-2021 3524.51 4369.19 74.98 9.00 216.24 2768.78
   13:12:39.862.28-Apr-2021 3524.51 4369.28 74.98 9.00 216.44 2768.78
   13:12:40.062.28-Apr-2021 3524.51 4369.21 74.98 9.00 216.64 2768.78
   13:12:40.262.28-Apr-2021 3524.51 4369.25 74.98 9.00 216.84 2768.78
   13:12:40.463.28-Apr-2021 3524.51 4369.21 74.98 9.00 217.04 2768.78
   13:12:40.663.28-Apr-2021 3524.51 4369.21 74.98 9.00 217.24 2768.78
   13:12:40.863.28-Apr-2021 3524.51 4369.21 74.98 9.00 217.44 2768.78
   13:12:41.063.28-Apr-2021 3524.51 4369.22 74.97 9.00 217.64 2768.78
   13:12:41.263.28-Apr-2021 3524.51 4369.17 74.97 9.00 217.84 2768.78
   13:12:41.463.28-Apr-2021 3524.51 4369.06 74.97 9.00 218.04 2768.78
   13:12:41.663.28-Apr-2021 3524.51 4369.06 74.97 9.00 218.24 2768.78
   13:12:41.863.28-Apr-2021 3524.51 4369.28 74.97 9.00 218.44 2768.78
   13:12:42.063.28-Apr-2021 3524.51 4369.04 74.97 9.00 218.64 2768.78
   13:12:42.263.28-Apr-2021 3524.51 4369.31 74.97 9.00 218.84 2768.78
   13:12:42.463.28-Apr-2021 3524.51 4369.33 74.97 9.00 219.04 2768.78
   13:12:42.663.28-Apr-2021 3524.51 4369.33 74.97 9.00 219.24 2768.78
   13:12:42.863.28-Apr-2021 3524.51 4369.21 74.97 9.00 219.44 2768.78
   13:12:43.063.28-Apr-2021 3524.51 4369.07 74.97 9.00 219.64 2768.78
   13:12:43.263.28-Apr-2021 3524.51 4369.34 74.97 9.00 219.84 2768.78
   13:12:43.463.28-Apr-2021 3524.51 4369.35 74.97 9.00 220.04 2768.78
   13:12:43.663.28-Apr-2021 3524.51 4369.35 74.97 9.00 220.24 2768.78
   13:12:43.863.28-Apr-2021 3524.51 4369.22 74.97 9.00 220.44 2768.78
   13:12:44.063.28-Apr-2021 3524.51 4368.97 74.97 9.00 220.64 2768.78
   13:12:44.263.28-Apr-2021 3524.51 4369.45 74.97 9.00 220.84 2768.78
   13:12:44.463.28-Apr-2021 3524.51 4369.32 74.97 9.00 221.04 2768.78
   13:12:44.663.28-Apr-2021 3524.51 4369.32 74.97 9.00 221.24 2768.78
   13:12:44.863.28-Apr-2021 3524.51 4369.20 74.97 9.00 221.44 2768.78
   13:12:45.063.28-Apr-2021 3524.51 4369.29 74.97 9.00 221.64 2768.78
   13:12:45.263.28-Apr-2021 3524.51 4369.27 74.96 9.00 221.84 2768.78
   13:12:45.463.28-Apr-2021 3524.51 4369.29 74.96 9.00 222.04 2768.78
   13:12:45.663.28-Apr-2021 3524.51 4369.29 74.96 9.00 222.24 2768.78
   13:12:45.863.28-Apr-2021 3524.51 4369.23 74.96 9.00 222.44 2768.78
   13:12:46.063.28-Apr-2021 3524.51 4369.25 74.96 9.00 222.64 2768.78
   13:12:46.263.28-Apr-2021 3524.51 4369.27 74.96 9.00 222.84 2768.78
   13:12:46.463.28-Apr-2021 3524.51 4369.21 74.96 9.00 223.04 2768.78
   13:12:46.664.28-Apr-2021 3524.51 4369.21 74.96 9.00 223.24 2768.78
   13:12:46.864.28-Apr-2021 3524.51 4369.39 74.96 9.00 223.44 2768.78
   13:12:47.064.28-Apr-2021 3524.51 4369.29 74.96 9.00 223.64 2768.78
   13:12:47.264.28-Apr-2021 3524.51 4369.27 74.96 9.00 223.84 2768.78
   13:12:47.464.28-Apr-2021 3524.51 4369.20 74.96 9.00 224.04 2768.78
   13:12:47.664.28-Apr-2021 3524.51 4369.20 74.96 9.00 224.24 2768.78
   13:12:47.864.28-Apr-2021 3524.51 4369.27 74.96 9.00 224.44 2768.78
   13:12:48.064.28-Apr-2021 3524.51 4369.24 74.96 9.00 224.64 2768.78
   13:12:48.264.28-Apr-2021 3524.51 4369.22 74.96 9.00 224.84 2768.78
   13:12:48.464.28-Apr-2021 3524.51 4369.21 74.96 9.00 225.04 2768.78
   13:12:48.664.28-Apr-2021 3524.51 4369.21 74.96 9.00 225.24 2768.78
   13:12:48.864.28-Apr-2021 3524.51 4369.22 74.96 9.00 225.44 2768.78
   13:12:49.064.28-Apr-2021 3524.51 4369.21 74.96 9.00 225.64 2768.78
   13:12:49.264.28-Apr-2021 3524.51 4369.20 74.96 9.00 225.84 2768.78
   13:12:49.464.28-Apr-2021 3524.51 4368.98 74.96 9.00 226.04 2768.78
   13:12:49.664.28-Apr-2021 3524.51 4368.98 74.96 9.00 226.24 2768.78
   13:12:49.864.28-Apr-2021 3524.51 4369.27 74.95 9.00 226.44 2768.78
   13:12:50.064.28-Apr-2021 3524.51 4369.22 74.95 9.00 226.64 2768.78
   13:12:50.264.28-Apr-2021 3524.51 4369.04 74.95 9.00 226.84 2768.78
   13:12:50.464.28-Apr-2021 3524.51 4369.32 74.95 9.00 227.04 2768.78
   13:12:50.664.28-Apr-2021 3524.51 4369.32 74.95 9.00 227.24 2768.78
   13:12:50.864.28-Apr-2021 3524.51 4369.26 74.95 9.00 227.44 2768.78
   13:12:51.064.28-Apr-2021 3524.51 4368.98 74.95 9.00 227.64 2768.78
   13:12:51.264.28-Apr-2021 3524.51 4369.36 74.95 9.00 227.84 2768.78
   13:12:51.464.28-Apr-2021 3524.51 4369.30 74.95 9.00 228.04 2768.78
   13:12:51.664.28-Apr-2021 3524.51 4369.30 74.95 9.00 228.24 2768.78
   13:12:51.864.28-Apr-2021 3524.51 4369.23 74.95 9.00 228.44 2768.78
   13:12:52.064.28-Apr-2021 3524.51 4369.11 74.95 9.00 228.64 2768.78
   13:12:52.264.28-Apr-2021 3524.51 4369.23 74.95 9.00 228.84 2768.78
   13:12:52.464.28-Apr-2021 3524.51 4369.31 74.95 9.00 229.04 2768.78
   13:12:52.664.28-Apr-2021 3524.51 4369.31 74.95 9.00 229.24 2768.78
   13:12:52.865.28-Apr-2021 3524.51 4369.24 74.95 9.00 229.44 2768.78
   13:12:53.065.28-Apr-2021 3524.51 4369.19 74.95 9.00 229.64 2768.78
   13:12:53.265.28-Apr-2021 3524.51 4369.30 74.95 9.00 229.84 2768.78
