~Version Information
 VERS.                  2.0:   CWLS log ASCII Standard -VERSION 2.0
 WRAP.                   NO:   One line per depth step
~Well Information Block
#MNEM.UNIT     VALUE/NAME     DESCRIPTION
#---------     -----------    ---------------------------
 STRT.S             02:50:28 27-Apr-21: START TIME 02:50:28 27-Apr-21
 STOP.S             02:56:55 27-Apr-21: STOP TIME  02:56:55 27-Apr-21
 STEP.S                   0.00: STEP TIME
 NULL.                 -999.25: NULL VALUE
 DFWT.                        :  DIST FWL TEXT
 DFST.                        :  DIST FSL TEXT
 DMF .             Drill Floor:  DRILL MEAS FROM
 STIM.      02.00.00 12-Apr-21:  START TIME
 DATE.      02.00.00 02-May-21:  END TIME
 SPUD.               09-Apr-21:  SPUD DATE
 NREF.                    Grid:  NORTH REFERENCE
 HPTY.       Minimum Curvature:  HOLE POS TYPE
 DMOD.             Drill Model:  DRILL MOD DESC
 SVYD.                  Survey:  SURVEY DESC
 ILTD.               Lithology:  INTERP LTH DESC
 FTOP.          Formation Tops:  FORM TOPS DESC
 PDAT.          Mean Sea Level:  PERMANENT DATUM
 FLD .                     ACG:  FIELD NAME
 SON .        AZ-XX-0907021034:  JOB NUMBER
 CTRY.              Azerbaijan:  COUNTRY NAME
 WELL.                    E01x:  WELL NAME
 COMP.     BP Exploration (Caspian Sea) LTD.:  COMPANY
 UWI .            /AZE00001403:  UNIQUE WELL IDENTIFIER
 API .            /AZE00001403:  API NUMBER
 WTYP.                Deviated:  WELL TYPE
 MDS .        Operator Entered:  MAG DATA SOURCE
 BASE.              Azerbaijan:  LOGGING EQUIPMENT BASE LOCATION
 REGN.                   EESSA:  REGION
 PROV.                    Baku:  PROVINCE
 STAT.                    Baku:  STATE NAME
 SRVC.          Turan Drilling:  CONTRACTOR
 MWDS.                    Baku:  MWD SHOP
 JOBN.        AZ-XX-0907021034:  JOB TICKET NUMB
 RIG .                     DWG:  RIG NAME
 DOE .                     N/A:  DOE NUMBER
 DCON.         Sperry Drilling:  DIRECTNL CONTR
 UNIT.                     N/A:  LOGGING EQUIPMENT ID
 CNTY.                        :  COUNTY
 LOC .                        :  LOCATION
 LMF .             Drill Floor:  LOG MEASURED FROM
 TVDS.m                  43.16:  TVDSS CORRECTN
 LATI.deg                40.17:  LATITUDE
 LONG.deg                51.17:  LONGITUDE
 WHNS.m                  -5.90:  WELL HEAD N/S
 WHEW.m                  -6.61:  WELL HEAD E/W
 UTMX.m              514337.95:  UTM X
 UTMY.m             4448627.46:  UTM Y
 DFWL.m                   0.00:  DISTANCE FWL
 DFSL.m                   0.00:  DISTANCE FSL
 SDEP.m                2606.87:  START DEPTH
 TDD .m                3618.01:  TOTAL DEPTH (DRILLER)
 VSDR.deg               177.42:  VERT SEC DIRECT
 GVFD.g                   1.00:  GRAVITY FIELD
 MFLD.nT              50399.00:  MAGNETIC FIELD
 MDIP.deg                59.67:  MAGNETIC DIP
 MDEC.deg                 6.56:  MAGNETIC DECL
 GRDC.deg                 0.11:  GRID CORRECTION
 AZTC.deg                 6.45:  AZM TOTAL CORR
 EPD .m                   0.00:  ELEVATION
 EGL .m                   0.00:  GROUND ELEVATION
 WDMS.m                 176.20:  WD ELEV
 APD .m                  43.16:  DEPTH ABOVE PD
 DEP .m                2606.87:  DEPTH
 AGAP.m                  43.16:  AIR GAP
 VSEW.m                  -6.61:  VERT SEC E/W
 VSNS.m                  -5.90:  VERT SEC N/S
 EKB .m                  43.16:  KB ELEVATION
 EDF .m                  43.16:  DF ELEVATION
 TDL .m                 438.00:  TOTAL DEPTH (LOGGER)
 VSC .                       0:  VS TO CLOSURE
 MAGU.                 1855490:  MAGUTM CHECKSUM
~Parameter Information Block
#MNEM.UNIT       Value        Description
#---------     -----------    ---------------------------
 AV  .mps                 2.20:  Ann Velocity 
 AVMX.mps                 2.50:  Max Ann Veloc 
 AZIF.deg               150.21:  Azm, Final 
 BHAT.        Rotary Steerable:  BHA Type 
 BROT.°/30m               0.08:  Build Rotating 
 BS  .in                  6.50:  Bit Size 
 BSZ .in                  6.50:  Bit Size 
 BTPL.psig              108.00:  Bit Press Loss 
 CABU.                     Yes:  Customer Abuse 
 CGEO.           Emin Aliyarli:  Customer Geo 
 COMM.                     äº~:  Run Comments 1 
 TCS .hr                 74.20:  Time Ciculation Ended 
 CV  .mps                 3.63:  Crit Velocity 
 CVMX.mps                 3.66:  Max Crit Veloc 
 DD1 .         Intigam Rahimov:  Direct Drillr 1 
 DD2 .          Teymur Aghayev:  Direct Drillr 2 
 DDSV.               Geo-Pilot:  DD Service 
 DEFF.%                  97.00:  % Det Eff 
 DLRX.°/30m               1.63:  Dogleg Rot Max 
 DLSO.°/30m               0.00:  Dogleg Oriented 
 DLSX.°/30m               0.00:  Dogleg Str Max 
 DRET.      20.20.00 28-Apr-21:  Drill End Time 
 DRST.      04.45.00 26-Apr-21:  Drill Start Tim 
 DTIM.hr                 34.30:  Time Drilling 
 EDEP.m                3618.01:  End Depth 
 ENG1.           Amrah Tahirov:  Engineer 1 
 ENG2.         Bahruz Mehdiyev:  Engineer 2 
 ENG3.         Farhad Orujzade:  Engineer 3 
 ETIM.      19.00.00 29-Apr-21:  End Time 
 FLOI.gpm               370.00:  Flow In 
 FLON.gpm               300.00:  Flow In Min 
 FLOS.cptm                0.00:  Fluid Loss 
 FLOX.gpm               410.00:  Flow In Max 
 HFLO.                      No:  High Flow 
 HPRE.                      No:  High Pressure 
 HTEM.                      No:  High Temp 
 HYDO.m                   1.80:  Hydro Offset 
 IFIN.deg                67.19:  Inc, Final 
 IMAX.deg                68.42:  Inc Max 
 IMIN.deg                66.33:  Inc Min 
 IMND.m                3532.79:  Inc Min Depth 
 IMXD.m                3192.15:  Inc Max Depth 
 JARR.                      No:  Jarring 
 LETM.      20.20.00 28-Apr-21:  Log End Time 
 LOST.hr                     0:  Lost Rig Time 
 LSTM.      04.45.00 26-Apr-21:  Log Start Time 
 MDCL.ppm             36500.00:  Mud Chlorides 
 MDES.     Inversion Oil/Synthetic:  Mud Desc 
 DFD .sg                  1.42:  Mud Density 
 MDMN.sg                  1.42:  Dens Mud Min 
 MDMX.sg                  1.42:  Dens Mud Max 
 MOIL.                    55.7:  Run Mud Oil % 
 MOWR.                   71:29:  Run Mud OWR 
 MSND.                     0.1:  Run Mud Sand % 
 MSOL.                    19.9:  Run Mud Solids% 
 DFV .spqt               83.00:  Mud Viscosity 
 MWOD.in                  5.15:  MWD Tool OD 
 MWSI.                      No:  Serv Intrp, MWD 
 OTIM.hr                120.59:  Time Operating 
 PCON.           Look Like New:  Pad Condition 
 PMAX.psia            11292.93:  Press Op, Max 
 PV  .cP                 27.00:  Mud PV 
 RUN .                     400:  Run Number 
 ROPA.m/hr               14.00:  ROP Avg 
 ROPN.m/hr                9.00:  ROP Min 
 ROPX.m/hr               18.00:  ROP Max 
 RPMA.rpm               130.00:  RPM Surface Avg 
 RPMN.rpm               100.00:  RPM Surface Min 
 RPMX.rpm               140.00:  RPM Surface Max 
 RRUN.                    0400:  Rig Run Number 
 RTIM.hr                 38.60:  Time Reaming 
 SAZI.deg               149.55:  Azm, Start 
 SDEP.m                3180.01:  Start Depth 
 SIDD.                      No:  Serv Intrp, DD 
 SINC.deg                68.42:  Inc, Start 
 SPPA.psig             4400.00:  SPP Avg 
 SPPN.psig             3580.00:  SPP Min 
 SPPX.psig             4850.00:  SPP Max 
 STIM.      12.30.00 24-Apr-21:  Start Time 
 SVCS.                 DD, MWD:  Services 
 SVER.                    9.20:  Sperry Version 
 TDAT.m                 438.00:  Tot Depth Attmp 
 TDDF.                      No:  Trip for DD 
 TDLG.m                 438.00:  Tot Depth Loggd 
 TFF .                      No:  Trip for Fail 
 TQAA.f-kp               11.00:  Torque Abs Avg 
 TQAN.f-kp                9.00:  Torque Abs Min 
 TQAX.f-kp               14.00:  Torque Abs Max 
 TRRT.°/30m               0.04:  Turn Rotating 
 MRT .                    HCIM:  Maximum Recorded Temperature 
 TTMX.degC               84.31:  Max Tool Temp 
 VS01.                90521954:  Virtual Str1 SN 
 VS02.                90519327:  Virtual Str2 SN 
 VS03.                90522273:  Virtual Str3 SN 
 VS04.                11108038:  Virtual Str4 SN 
 VS05.                12258760:  Virtual Str5 SN 
 WBMN.klb                 1.00:  WOB Min 
 WITN.           Adil Mammadov:  Customer Rep 
 WITN.         Alex Yadullayev:  Customer Rep 2 
 WOBA.klb                 6.00:  WOB Avg 
 WOBX.klb                 9.00:  WOB Max 
 YP  .lhf2               31.00:  Yield Point 
~Curve Information Block
#MNEM.UNIT                 API CODE     Curve Description
#---------               -----------    ---------------------------
 TIME.HHMMSS            00 000 000 000:  GT Time & Date
 GTDEPTH.m              00 000 000 000:  GT Depth
 GTPQH.psia             00 000 000 000:  GT HR Quartz Pressure
 GTTQ.degC              00 000 000 000:  GT Quartz Temperature
 GTTN.NONE              00 000 000 000:  GT Test Number
 GTET.sec               00 000 000 000:  GT Elapsed Test Time
 GTTVD.m                00 000 000 000:  GT True Vertical Depth
#Other Information
#
#WARRANTY: Halliburton will use its best efforts to furnish customers with 
#accurate information and interpretations that are part of, and incident to, the services 
#provided.  However, Halliburton cannot and does not warrant the accuracy 
#or correctness of such information and interpretations.  Under no circumstances should any 
#such information or interpretation be relied upon as the sole basis for any drilling, 
#completion, production, or financial decision or any procedure involving any risk to the 
#safety of any drilling venture, drilling rig or its crew or any other third party.  The 
#Customer has full responsibility for all drilling, completion and production operation.  
#Halliburton makes no representations or warranties, either expressed or 
#implied, including, but not limited to, the implied warranties of merchantability or fitness 
#for a particular purpose, with respect to the services rendered.  In no event will 
#Halliburton be liable for failure to obtain any particular results or for 
#any damages, including, but not limited to, indirect, special or consequential damages, 
#resulting from the use of any information or interpretation provided by Halliburton.
#
~A           TIME           GTDEPTH  GTPQH  GTTQ  GTTN  GTET   GTTVD  
# ...
   02:50:51.260.27-Apr-2021 3242.51 6813.52 72.79 3.00  23.00 2657.85
   02:50:51.460.27-Apr-2021 3242.51 6813.52 72.79 3.00  23.20 2657.85
   02:50:51.660.27-Apr-2021 3242.51 5787.33 72.79 3.00  23.40 2657.85
   02:50:51.860.27-Apr-2021 3242.51 5317.81 72.79 3.00  23.60 2657.85
   02:50:52.060.27-Apr-2021 3242.51 4669.87 72.79 3.00  23.80 2657.85
   02:50:52.260.27-Apr-2021 3242.51 4261.64 72.79 3.00  24.00 2657.85
   02:50:52.460.27-Apr-2021 3242.51 4261.64 72.79 3.00  24.20 2657.85
   02:50:52.660.27-Apr-2021 3242.51 4256.96 72.79 3.00  24.40 2657.85
   02:50:52.860.27-Apr-2021 3242.51 4254.89 72.79 3.00  24.60 2657.85
   02:50:53.060.27-Apr-2021 3242.51 4253.68 72.78 3.00  24.80 2657.85
   02:50:53.260.27-Apr-2021 3242.51 4252.67 72.78 3.00  25.00 2657.85
   02:50:53.460.27-Apr-2021 3242.51 4252.67 72.78 3.00  25.20 2657.85
   02:50:53.660.27-Apr-2021 3242.51 4251.97 72.78 3.00  25.41 2657.85
   02:50:53.860.27-Apr-2021 3242.51 4250.52 72.78 3.00  25.61 2657.85
   02:50:54.060.27-Apr-2021 3242.51 4251.03 72.78 3.00  25.81 2657.85
   02:50:54.260.27-Apr-2021 3242.51 4251.04 72.78 3.00  26.01 2657.85
   02:50:54.460.27-Apr-2021 3242.51 4251.04 72.78 3.00  26.21 2657.85
   02:50:54.660.27-Apr-2021 3242.51 4249.78 72.78 3.00  26.41 2657.85
   02:50:54.861.27-Apr-2021 3242.51 4250.20 72.78 3.00  26.61 2657.85
   02:50:55.061.27-Apr-2021 3242.51 4250.03 72.78 3.00  26.81 2657.85
   02:50:55.261.27-Apr-2021 3242.51 4249.47 72.77 3.00  27.01 2657.85
   02:50:55.461.27-Apr-2021 3242.51 4249.47 72.77 3.00  27.21 2657.85
   02:50:55.661.27-Apr-2021 3242.51 4249.38 72.77 3.00  27.41 2657.85
   02:50:55.861.27-Apr-2021 3242.51 4249.27 72.77 3.00  27.61 2657.85
   02:50:56.061.27-Apr-2021 3242.51 4248.99 72.77 3.00  27.81 2657.85
   02:50:56.261.27-Apr-2021 3242.51 4249.30 72.77 3.00  28.01 2657.85
   02:50:56.461.27-Apr-2021 3242.51 4249.30 72.77 3.00  28.21 2657.85
   02:50:56.661.27-Apr-2021 3242.51 4248.12 72.77 3.00  28.41 2657.85
   02:50:56.861.27-Apr-2021 3242.51 4249.72 72.77 3.00  28.61 2657.85
   02:50:57.061.27-Apr-2021 3242.51 4249.60 72.76 3.00  28.81 2657.85
   02:50:57.261.27-Apr-2021 3242.51 4249.05 72.76 3.00  29.01 2657.85
   02:50:57.461.27-Apr-2021 3242.51 4249.05 72.76 3.00  29.21 2657.85
   02:50:57.661.27-Apr-2021 3242.51 4249.13 72.76 3.00  29.41 2657.85
   02:50:57.861.27-Apr-2021 3242.51 4249.44 72.76 3.00  29.61 2657.85
   02:50:58.061.27-Apr-2021 3242.51 4249.49 72.76 3.00  29.81 2657.85
   02:50:58.261.27-Apr-2021 3242.51 4249.52 72.76 3.00  30.01 2657.85
   02:50:58.461.27-Apr-2021 3242.51 4249.52 72.76 3.00  30.21 2657.85
   02:50:58.661.27-Apr-2021 3242.51 4249.12 72.76 3.00  30.41 2657.85
   02:50:58.861.27-Apr-2021 3242.51 4249.13 72.75 3.00  30.61 2657.85
   02:50:59.061.27-Apr-2021 3242.51 4249.06 72.75 3.00  30.81 2657.85
   02:50:59.261.27-Apr-2021 3242.51 4249.37 72.75 3.00  31.01 2657.85
   02:50:59.461.27-Apr-2021 3242.51 4249.37 72.75 3.00  31.21 2657.85
   02:50:59.661.27-Apr-2021 3242.51 4249.86 72.75 3.00  31.41 2657.85
   02:50:59.862.27-Apr-2021 3242.51 4249.47 72.75 3.00  31.61 2657.85
   02:51:00.062.27-Apr-2021 3242.51 4250.00 72.75 3.00  31.81 2657.85
   02:51:00.262.27-Apr-2021 3242.51 4250.01 72.75 3.00  32.01 2657.85
   02:51:00.462.27-Apr-2021 3242.51 4250.01 72.75 3.00  32.21 2657.85
   02:51:00.662.27-Apr-2021 3242.51 4249.37 72.75 3.00  32.41 2657.85
   02:51:00.862.27-Apr-2021 3242.51 4250.15 72.75 3.00  32.61 2657.85
   02:51:01.062.27-Apr-2021 3242.51 4249.97 72.74 3.00  32.81 2657.85
   02:51:01.262.27-Apr-2021 3242.51 4249.87 72.74 3.00  33.01 2657.85
   02:51:01.462.27-Apr-2021 3242.51 4249.87 72.74 3.00  33.21 2657.85
   02:51:01.662.27-Apr-2021 3242.51 4304.17 72.74 3.00  33.41 2657.85
   02:51:01.862.27-Apr-2021 3242.51 4309.50 72.74 3.00  33.61 2657.85
   02:51:02.062.27-Apr-2021 3242.51 4310.81 72.74 3.00  33.81 2657.85
   02:51:02.262.27-Apr-2021 3242.51 4311.45 72.74 3.00  34.01 2657.85
   02:51:02.462.27-Apr-2021 3242.51 4311.45 72.74 3.00  34.21 2657.85
   02:51:02.662.27-Apr-2021 3242.51 4312.66 72.74 3.00  34.41 2657.85
   02:51:02.862.27-Apr-2021 3242.51 4313.22 72.74 3.00  34.61 2657.85
   02:51:03.062.27-Apr-2021 3242.51 4313.49 72.74 3.00  34.81 2657.85
   02:51:03.262.27-Apr-2021 3242.51 4313.81 72.74 3.00  35.01 2657.85
   02:51:03.462.27-Apr-2021 3242.51 4313.81 72.74 3.00  35.21 2657.85
   02:51:03.662.27-Apr-2021 3242.51 4314.30 72.73 3.00  35.41 2657.85
   02:51:03.862.27-Apr-2021 3242.51 4314.57 72.73 3.00  35.61 2657.85
   02:51:04.062.27-Apr-2021 3242.51 4314.75 72.73 3.00  35.81 2657.85
   02:51:04.262.27-Apr-2021 3242.51 4314.90 72.73 3.00  36.01 2657.85
   02:51:04.462.27-Apr-2021 3242.51 4314.90 72.73 3.00  36.21 2657.85
   02:51:04.662.27-Apr-2021 3242.51 4315.20 72.73 3.00  36.41 2657.85
   02:51:04.862.27-Apr-2021 3242.51 4315.30 72.73 3.00  36.61 2657.85
   02:51:05.063.27-Apr-2021 3242.51 4315.46 72.73 3.00  36.81 2657.85
   02:51:05.263.27-Apr-2021 3242.51 4315.55 72.73 3.00  37.01 2657.85
   02:51:05.463.27-Apr-2021 3242.51 4315.55 72.73 3.00  37.21 2657.85
   02:51:05.663.27-Apr-2021 3242.51 4315.65 72.73 3.00  37.41 2657.85
   02:51:05.863.27-Apr-2021 3242.51 4315.98 72.73 3.00  37.61 2657.85
   02:51:06.063.27-Apr-2021 3242.51 4316.02 72.73 3.00  37.81 2657.85
   02:51:06.263.27-Apr-2021 3242.51 4316.23 72.72 3.00  38.01 2657.85
   02:51:06.463.27-Apr-2021 3242.51 4316.23 72.72 3.00  38.21 2657.85
   02:51:06.663.27-Apr-2021 3242.51 4316.18 72.72 3.00  38.41 2657.85
   02:51:06.863.27-Apr-2021 3242.51 4316.32 72.72 3.00  38.61 2657.85
   02:51:07.063.27-Apr-2021 3242.51 4316.59 72.72 3.00  38.81 2657.85
   02:51:07.263.27-Apr-2021 3242.51 4316.49 72.72 3.00  39.01 2657.85
   02:51:07.463.27-Apr-2021 3242.51 4316.49 72.72 3.00  39.21 2657.85
   02:51:07.663.27-Apr-2021 3242.51 4316.56 72.72 3.00  39.41 2657.85
   02:51:07.863.27-Apr-2021 3242.51 4316.76 72.72 3.00  39.61 2657.85
   02:51:08.063.27-Apr-2021 3242.51 4316.48 72.72 3.00  39.81 2657.85
   02:51:08.263.27-Apr-2021 3242.51 4316.94 72.72 3.00  40.01 2657.85
   02:51:08.463.27-Apr-2021 3242.51 4316.94 72.72 3.00  40.21 2657.85
   02:51:08.663.27-Apr-2021 3242.51 4316.95 72.72 3.00  40.41 2657.85
   02:51:08.863.27-Apr-2021 3242.51 4316.79 72.72 3.00  40.61 2657.85
   02:51:09.063.27-Apr-2021 3242.51 4317.08 72.72 3.00  40.81 2657.85
   02:51:09.263.27-Apr-2021 3242.51 4317.21 72.72 3.00  41.01 2657.85
   02:51:09.463.27-Apr-2021 3242.51 4317.21 72.72 3.00  41.21 2657.85
   02:51:09.663.27-Apr-2021 3242.51 4317.31 72.71 3.00  41.41 2657.85
   02:51:09.863.27-Apr-2021 3242.51 4316.85 72.71 3.00  41.61 2657.85
   02:51:10.064.27-Apr-2021 3242.51 4317.34 72.71 3.00  41.81 2657.85
   02:51:10.264.27-Apr-2021 3242.51 4317.45 72.71 3.00  42.01 2657.85
   02:51:10.464.27-Apr-2021 3242.51 4317.45 72.71 3.00  42.21 2657.85
   02:51:10.664.27-Apr-2021 3242.51 4317.42 72.71 3.00  42.41 2657.85
   02:51:10.864.27-Apr-2021 3242.51 4317.48 72.71 3.00  42.61 2657.85
   02:51:11.064.27-Apr-2021 3242.51 4317.40 72.71 3.00  42.81 2657.85
   02:51:11.264.27-Apr-2021 3242.51 4317.61 72.71 3.00  43.01 2657.85
   02:51:11.464.27-Apr-2021 3242.51 4317.61 72.71 3.00  43.21 2657.85
   02:51:11.664.27-Apr-2021 3242.51 4317.62 72.71 3.00  43.41 2657.85
   02:51:11.864.27-Apr-2021 3242.51 4317.60 72.71 3.00  43.61 2657.85
   02:51:12.064.27-Apr-2021 3242.51 4317.65 72.71 3.00  43.81 2657.85
   02:51:12.264.27-Apr-2021 3242.51 4317.68 72.71 3.00  44.01 2657.85
   02:51:12.464.27-Apr-2021 3242.51 4317.68 72.71 3.00  44.21 2657.85
   02:51:12.664.27-Apr-2021 3242.51 4317.76 72.70 3.00  44.41 2657.85
   02:51:12.864.27-Apr-2021 3242.51 4317.91 72.70 3.00  44.61 2657.85
   02:51:13.064.27-Apr-2021 3242.51 4317.85 72.70 3.00  44.81 2657.85
   02:51:13.264.27-Apr-2021 3242.51 4317.92 72.70 3.00  45.01 2657.85
   02:51:13.464.27-Apr-2021 3242.51 4317.92 72.70 3.00  45.21 2657.85
   02:51:13.664.27-Apr-2021 3242.51 4317.93 72.70 3.00  45.41 2657.85
   02:51:13.864.27-Apr-2021 3242.51 4317.98 72.70 3.00  45.61 2657.85
   02:51:14.064.27-Apr-2021 3242.51 4318.02 72.70 3.00  45.81 2657.85
