~Version Information
 VERS.                  2.0:   CWLS log ASCII Standard -VERSION 2.0
 WRAP.                   NO:   One line per depth step
~Well Information Block
#MNEM.UNIT     VALUE/NAME     DESCRIPTION
#---------     -----------    ---------------------------
 STRT.S             23:13:46 26-Apr-21: START TIME 23:13:46 26-Apr-21
 STOP.S             23:20:13 26-Apr-21: STOP TIME  23:20:13 26-Apr-21
 STEP.S                   0.00: STEP TIME
 NULL.                 -999.25: NULL VALUE
 DFWT.                        :  DIST FWL TEXT
 DFST.                        :  DIST FSL TEXT
 DMF .             Drill Floor:  DRILL MEAS FROM
 STIM.      02.00.00 12-Apr-21:  START TIME
 DATE.      02.00.00 02-May-21:  END TIME
 SPUD.               09-Apr-21:  SPUD DATE
 NREF.                    Grid:  NORTH REFERENCE
 HPTY.       Minimum Curvature:  HOLE POS TYPE
 DMOD.             Drill Model:  DRILL MOD DESC
 SVYD.                  Survey:  SURVEY DESC
 ILTD.               Lithology:  INTERP LTH DESC
 FTOP.          Formation Tops:  FORM TOPS DESC
 PDAT.          Mean Sea Level:  PERMANENT DATUM
 FLD .                     ACG:  FIELD NAME
 SON .        AZ-XX-0907021034:  JOB NUMBER
 CTRY.              Azerbaijan:  COUNTRY NAME
 WELL.                    E01x:  WELL NAME
 COMP.     BP Exploration (Caspian Sea) LTD.:  COMPANY
 UWI .            /AZE00001403:  UNIQUE WELL IDENTIFIER
 API .            /AZE00001403:  API NUMBER
 WTYP.                Deviated:  WELL TYPE
 MDS .        Operator Entered:  MAG DATA SOURCE
 BASE.              Azerbaijan:  LOGGING EQUIPMENT BASE LOCATION
 REGN.                   EESSA:  REGION
 PROV.                    Baku:  PROVINCE
 STAT.                    Baku:  STATE NAME
 SRVC.          Turan Drilling:  CONTRACTOR
 MWDS.                    Baku:  MWD SHOP
 JOBN.        AZ-XX-0907021034:  JOB TICKET NUMB
 RIG .                     DWG:  RIG NAME
 DOE .                     N/A:  DOE NUMBER
 DCON.         Sperry Drilling:  DIRECTNL CONTR
 UNIT.                     N/A:  LOGGING EQUIPMENT ID
 CNTY.                        :  COUNTY
 LOC .                        :  LOCATION
 LMF .             Drill Floor:  LOG MEASURED FROM
 TVDS.m                  43.16:  TVDSS CORRECTN
 LATI.deg                40.17:  LATITUDE
 LONG.deg                51.17:  LONGITUDE
 WHNS.m                  -5.90:  WELL HEAD N/S
 WHEW.m                  -6.61:  WELL HEAD E/W
 UTMX.m              514337.95:  UTM X
 UTMY.m             4448627.46:  UTM Y
 DFWL.m                   0.00:  DISTANCE FWL
 DFSL.m                   0.00:  DISTANCE FSL
 SDEP.m                2606.87:  START DEPTH
 TDD .m                3618.01:  TOTAL DEPTH (DRILLER)
 VSDR.deg               177.42:  VERT SEC DIRECT
 GVFD.g                   1.00:  GRAVITY FIELD
 MFLD.nT              50399.00:  MAGNETIC FIELD
 MDIP.deg                59.67:  MAGNETIC DIP
 MDEC.deg                 6.56:  MAGNETIC DECL
 GRDC.deg                 0.11:  GRID CORRECTION
 AZTC.deg                 6.45:  AZM TOTAL CORR
 EPD .m                   0.00:  ELEVATION
 EGL .m                   0.00:  GROUND ELEVATION
 WDMS.m                 176.20:  WD ELEV
 APD .m                  43.16:  DEPTH ABOVE PD
 DEP .m                2606.87:  DEPTH
 AGAP.m                  43.16:  AIR GAP
 VSEW.m                  -6.61:  VERT SEC E/W
 VSNS.m                  -5.90:  VERT SEC N/S
 EKB .m                  43.16:  KB ELEVATION
 EDF .m                  43.16:  DF ELEVATION
 TDL .m                 438.00:  TOTAL DEPTH (LOGGER)
 VSC .                       0:  VS TO CLOSURE
 MAGU.                 1855490:  MAGUTM CHECKSUM
~Parameter Information Block
#MNEM.UNIT       Value        Description
#---------     -----------    ---------------------------
 AV  .mps                 2.20:  Ann Velocity 
 AVMX.mps                 2.50:  Max Ann Veloc 
 AZIF.deg               150.21:  Azm, Final 
 BHAT.        Rotary Steerable:  BHA Type 
 BROT.°/30m               0.08:  Build Rotating 
 BS  .in                  6.50:  Bit Size 
 BSZ .in                  6.50:  Bit Size 
 BTPL.psig              108.00:  Bit Press Loss 
 CABU.                     Yes:  Customer Abuse 
 CGEO.           Emin Aliyarli:  Customer Geo 
 COMM.                     <MW:  Run Comments 1 
 TCS .hr                 74.20:  Time Ciculation Ended 
 CV  .mps                 3.63:  Crit Velocity 
 CVMX.mps                 3.66:  Max Crit Veloc 
 DD1 .         Intigam Rahimov:  Direct Drillr 1 
 DD2 .          Teymur Aghayev:  Direct Drillr 2 
 DDSV.               Geo-Pilot:  DD Service 
 DEFF.%                  97.00:  % Det Eff 
 DLRX.°/30m               1.63:  Dogleg Rot Max 
 DLSO.°/30m               0.00:  Dogleg Oriented 
 DLSX.°/30m               0.00:  Dogleg Str Max 
 DRET.      20.20.00 28-Apr-21:  Drill End Time 
 DRST.      04.45.00 26-Apr-21:  Drill Start Tim 
 DTIM.hr                 34.30:  Time Drilling 
 EDEP.m                3618.01:  End Depth 
 ENG1.           Amrah Tahirov:  Engineer 1 
 ENG2.         Bahruz Mehdiyev:  Engineer 2 
 ENG3.         Farhad Orujzade:  Engineer 3 
 ETIM.      19.00.00 29-Apr-21:  End Time 
 FLOI.gpm               370.00:  Flow In 
 FLON.gpm               300.00:  Flow In Min 
 FLOS.cptm                0.00:  Fluid Loss 
 FLOX.gpm               410.00:  Flow In Max 
 HFLO.                      No:  High Flow 
 HPRE.                      No:  High Pressure 
 HTEM.                      No:  High Temp 
 HYDO.m                   1.80:  Hydro Offset 
 IFIN.deg                67.19:  Inc, Final 
 IMAX.deg                68.42:  Inc Max 
 IMIN.deg                66.33:  Inc Min 
 IMND.m                3532.79:  Inc Min Depth 
 IMXD.m                3192.15:  Inc Max Depth 
 JARR.                      No:  Jarring 
 LETM.      20.20.00 28-Apr-21:  Log End Time 
 LOST.hr                     0:  Lost Rig Time 
 LSTM.      04.45.00 26-Apr-21:  Log Start Time 
 MDCL.ppm             36500.00:  Mud Chlorides 
 MDES.     Inversion Oil/Synthetic:  Mud Desc 
 DFD .sg                  1.42:  Mud Density 
 MDMN.sg                  1.42:  Dens Mud Min 
 MDMX.sg                  1.42:  Dens Mud Max 
 MOIL.                    55.7:  Run Mud Oil % 
 MOWR.                   71:29:  Run Mud OWR 
 MSND.                     0.1:  Run Mud Sand % 
 MSOL.                    19.9:  Run Mud Solids% 
 DFV .spqt               83.00:  Mud Viscosity 
 MWOD.in                  5.15:  MWD Tool OD 
 MWSI.                      No:  Serv Intrp, MWD 
 OTIM.hr                120.59:  Time Operating 
 PCON.           Look Like New:  Pad Condition 
 PMAX.psia            11292.93:  Press Op, Max 
 PV  .cP                 27.00:  Mud PV 
 RUN .                     400:  Run Number 
 ROPA.m/hr               14.00:  ROP Avg 
 ROPN.m/hr                9.00:  ROP Min 
 ROPX.m/hr               18.00:  ROP Max 
 RPMA.rpm               130.00:  RPM Surface Avg 
 RPMN.rpm               100.00:  RPM Surface Min 
 RPMX.rpm               140.00:  RPM Surface Max 
 RRUN.                    0400:  Rig Run Number 
 RTIM.hr                 38.60:  Time Reaming 
 SAZI.deg               149.55:  Azm, Start 
 SDEP.m                3180.01:  Start Depth 
 SIDD.                      No:  Serv Intrp, DD 
 SINC.deg                68.42:  Inc, Start 
 SPPA.psig             4400.00:  SPP Avg 
 SPPN.psig             3580.00:  SPP Min 
 SPPX.psig             4850.00:  SPP Max 
 STIM.      12.30.00 24-Apr-21:  Start Time 
 SVCS.                 DD, MWD:  Services 
 SVER.                    9.20:  Sperry Version 
 TDAT.m                 438.00:  Tot Depth Attmp 
 TDDF.                      No:  Trip for DD 
 TDLG.m                 438.00:  Tot Depth Loggd 
 TFF .                      No:  Trip for Fail 
 TQAA.f-kp               11.00:  Torque Abs Avg 
 TQAN.f-kp                9.00:  Torque Abs Min 
 TQAX.f-kp               14.00:  Torque Abs Max 
 TRRT.°/30m               0.04:  Turn Rotating 
 MRT .                    HCIM:  Maximum Recorded Temperature 
 TTMX.degC               84.31:  Max Tool Temp 
 VS01.                90521954:  Virtual Str1 SN 
 VS02.                90519327:  Virtual Str2 SN 
 VS03.                90522273:  Virtual Str3 SN 
 VS04.                11108038:  Virtual Str4 SN 
 VS05.                12258760:  Virtual Str5 SN 
 WBMN.klb                 1.00:  WOB Min 
 WITN.           Adil Mammadov:  Customer Rep 
 WITN.         Alex Yadullayev:  Customer Rep 2 
 WOBA.klb                 6.00:  WOB Avg 
 WOBX.klb                 9.00:  WOB Max 
 YP  .lhf2               31.00:  Yield Point 
~Curve Information Block
#MNEM.UNIT                 API CODE     Curve Description
#---------               -----------    ---------------------------
 TIME.HHMMSS            00 000 000 000:  GT Time & Date
 GTDEPTH.m              00 000 000 000:  GT Depth
 GTPQH.psia             00 000 000 000:  GT HR Quartz Pressure
 GTTQ.degC              00 000 000 000:  GT Quartz Temperature
 GTTN.NONE              00 000 000 000:  GT Test Number
 GTET.sec               00 000 000 000:  GT Elapsed Test Time
 GTTVD.m                00 000 000 000:  GT True Vertical Depth
#Other Information
#
#WARRANTY: Halliburton will use its best efforts to furnish customers with 
#accurate information and interpretations that are part of, and incident to, the services 
#provided.  However, Halliburton cannot and does not warrant the accuracy 
#or correctness of such information and interpretations.  Under no circumstances should any 
#such information or interpretation be relied upon as the sole basis for any drilling, 
#completion, production, or financial decision or any procedure involving any risk to the 
#safety of any drilling venture, drilling rig or its crew or any other third party.  The 
#Customer has full responsibility for all drilling, completion and production operation.  
#Halliburton makes no representations or warranties, either expressed or 
#implied, including, but not limited to, the implied warranties of merchantability or fitness 
#for a particular purpose, with respect to the services rendered.  In no event will 
#Halliburton be liable for failure to obtain any particular results or for 
#any damages, including, but not limited to, indirect, special or consequential damages, 
#resulting from the use of any information or interpretation provided by Halliburton.
#
~A           TIME           GTDEPTH  GTPQH  GTTQ  GTTN  GTET   GTTVD  
# ...
   23:17:59.600.26-Apr-2021 3222.01 4277.34 69.39 1.00 253.07 2649.76
   23:17:59.800.26-Apr-2021 3222.01 4277.34 69.39 1.00 253.27 2649.76
   23:18:00.000.26-Apr-2021 3222.01 4277.46 69.39 1.00 253.47 2649.76
   23:18:00.200.26-Apr-2021 3222.01 4277.71 69.39 1.00 253.67 2649.76
   23:18:00.400.26-Apr-2021 3222.01 4277.62 69.39 1.00 253.87 2649.76
   23:18:00.600.26-Apr-2021 3222.01 4277.60 69.39 1.00 254.07 2649.76
   23:18:00.800.26-Apr-2021 3222.01 4277.60 69.39 1.00 254.27 2649.76
   23:18:01.000.26-Apr-2021 3222.01 4277.62 69.39 1.00 254.47 2649.76
   23:18:01.200.26-Apr-2021 3222.01 4277.71 69.39 1.00 254.67 2649.76
   23:18:01.400.26-Apr-2021 3222.01 4277.50 69.39 1.00 254.87 2649.76
   23:18:01.600.26-Apr-2021 3222.01 4277.17 69.39 1.00 255.07 2649.76
   23:18:01.801.26-Apr-2021 3222.01 4277.17 69.39 1.00 255.27 2649.76
   23:18:02.001.26-Apr-2021 3222.01 4277.94 69.39 1.00 255.47 2649.76
   23:18:02.201.26-Apr-2021 3222.01 4278.03 69.39 1.00 255.67 2649.76
   23:18:02.401.26-Apr-2021 3222.01 4277.26 69.39 1.00 255.88 2649.76
   23:18:02.601.26-Apr-2021 3222.01 4278.03 69.39 1.00 256.08 2649.76
   23:18:02.801.26-Apr-2021 3222.01 4278.03 69.39 1.00 256.28 2649.76
   23:18:03.001.26-Apr-2021 3222.01 4278.37 69.39 1.00 256.48 2649.76
   23:18:03.201.26-Apr-2021 3222.01 4278.21 69.39 1.00 256.68 2649.76
   23:18:03.401.26-Apr-2021 3222.01 4278.06 69.38 1.00 256.88 2649.76
   23:18:03.601.26-Apr-2021 3222.01 4277.41 69.38 1.00 257.08 2649.76
   23:18:03.801.26-Apr-2021 3222.01 4277.41 69.38 1.00 257.28 2649.76
   23:18:04.001.26-Apr-2021 3222.01 4278.35 69.38 1.00 257.48 2649.76
   23:18:04.201.26-Apr-2021 3222.01 4278.22 69.38 1.00 257.68 2649.76
   23:18:04.401.26-Apr-2021 3222.01 4278.15 69.38 1.00 257.88 2649.76
   23:18:04.601.26-Apr-2021 3222.01 4277.38 69.38 1.00 258.08 2649.76
   23:18:04.801.26-Apr-2021 3222.01 4277.38 69.38 1.00 258.28 2649.76
   23:18:05.001.26-Apr-2021 3222.01 4278.55 69.38 1.00 258.48 2649.76
   23:18:05.202.26-Apr-2021 3222.01 4278.45 69.38 1.00 258.68 2649.76
   23:18:05.402.26-Apr-2021 3222.01 4278.37 69.38 1.00 258.88 2649.76
   23:18:05.602.26-Apr-2021 3222.01 4278.40 69.38 1.00 259.08 2649.76
   23:18:05.802.26-Apr-2021 3222.01 4278.40 69.38 1.00 259.28 2649.76
   23:18:06.002.26-Apr-2021 3222.01 4278.56 69.38 1.00 259.48 2649.76
   23:18:06.202.26-Apr-2021 3222.01 4278.46 69.38 1.00 259.68 2649.76
   23:18:06.402.26-Apr-2021 3222.01 4278.41 69.38 1.00 259.88 2649.76
   23:18:06.602.26-Apr-2021 3222.01 4278.32 69.38 1.00 260.08 2649.76
   23:18:06.802.26-Apr-2021 3222.01 4278.32 69.38 1.00 260.28 2649.76
   23:18:07.002.26-Apr-2021 3222.01 4278.30 69.38 1.00 260.48 2649.76
   23:18:07.202.26-Apr-2021 3222.01 4277.71 69.38 1.00 260.68 2649.76
   23:18:07.402.26-Apr-2021 3222.01 4278.22 69.38 1.00 260.88 2649.76
   23:18:07.602.26-Apr-2021 3222.01 4278.52 69.38 1.00 261.08 2649.76
   23:18:07.802.26-Apr-2021 3222.01 4278.52 69.38 1.00 261.28 2649.76
   23:18:08.002.26-Apr-2021 3222.01 4278.52 69.38 1.00 261.48 2649.76
   23:18:08.202.26-Apr-2021 3222.01 4278.53 69.38 1.00 261.68 2649.76
   23:18:08.402.26-Apr-2021 3222.01 4278.56 69.38 1.00 261.88 2649.76
   23:18:08.603.26-Apr-2021 3222.01 4278.65 69.38 1.00 262.08 2649.76
   23:18:08.803.26-Apr-2021 3222.01 4278.65 69.38 1.00 262.28 2649.76
   23:18:09.003.26-Apr-2021 3222.01 4278.57 69.38 1.00 262.48 2649.76
   23:18:09.203.26-Apr-2021 3222.01 4278.60 69.38 1.00 262.68 2649.76
   23:18:09.403.26-Apr-2021 3222.01 4278.53 69.38 1.00 262.88 2649.76
   23:18:09.603.26-Apr-2021 3222.01 4278.56 69.38 1.00 263.08 2649.76
   23:18:09.803.26-Apr-2021 3222.01 4278.56 69.38 1.00 263.28 2649.76
   23:18:10.003.26-Apr-2021 3222.01 4277.70 69.38 1.00 263.48 2649.76
   23:18:10.203.26-Apr-2021 3222.01 4278.55 69.38 1.00 263.68 2649.76
   23:18:10.403.26-Apr-2021 3222.01 4278.75 69.38 1.00 263.88 2649.76
   23:18:10.603.26-Apr-2021 3222.01 4278.70 69.38 1.00 264.08 2649.76
   23:18:10.803.26-Apr-2021 3222.01 4278.70 69.38 1.00 264.28 2649.76
   23:18:11.003.26-Apr-2021 3222.01 4278.62 69.38 1.00 264.48 2649.76
   23:18:11.203.26-Apr-2021 3222.01 4277.89 69.38 1.00 264.68 2649.76
   23:18:11.403.26-Apr-2021 3222.01 4278.88 69.38 1.00 264.88 2649.76
   23:18:11.603.26-Apr-2021 3222.01 4278.95 69.38 1.00 265.08 2649.76
   23:18:11.803.26-Apr-2021 3222.01 4278.95 69.38 1.00 265.28 2649.76
   23:18:12.004.26-Apr-2021 3222.01 4278.62 69.38 1.00 265.48 2649.76
   23:18:12.204.26-Apr-2021 3222.01 4277.99 69.38 1.00 265.68 2649.76
   23:18:12.404.26-Apr-2021 3222.01 4278.66 69.38 1.00 265.88 2649.76
   23:18:12.604.26-Apr-2021 3222.01 4278.96 69.38 1.00 266.08 2649.76
   23:18:12.804.26-Apr-2021 3222.01 4278.96 69.38 1.00 266.28 2649.76
   23:18:13.004.26-Apr-2021 3222.01 4278.57 69.38 1.00 266.48 2649.76
   23:18:13.204.26-Apr-2021 3222.01 4278.11 69.38 1.00 266.68 2649.76
   23:18:13.404.26-Apr-2021 3222.01 4278.70 69.38 1.00 266.88 2649.76
   23:18:13.604.26-Apr-2021 3222.01 4279.01 69.38 1.00 267.08 2649.76
   23:18:13.804.26-Apr-2021 3222.01 4279.01 69.38 1.00 267.28 2649.76
   23:18:14.004.26-Apr-2021 3222.01 4278.85 69.37 1.00 267.48 2649.76
   23:18:14.204.26-Apr-2021 3222.01 4278.82 69.37 1.00 267.68 2649.76
   23:18:14.404.26-Apr-2021 3222.01 4278.78 69.37 1.00 267.88 2649.76
   23:18:14.604.26-Apr-2021 3222.01 4278.97 69.37 1.00 268.08 2649.76
   23:18:14.804.26-Apr-2021 3222.01 4278.97 69.37 1.00 268.28 2649.76
   23:18:15.004.26-Apr-2021 3222.01 4278.72 69.37 1.00 268.48 2649.76
   23:18:15.204.26-Apr-2021 3222.01 4278.70 69.37 1.00 268.68 2649.76
   23:18:15.405.26-Apr-2021 3222.01 4278.65 69.37 1.00 268.88 2649.76
   23:18:15.605.26-Apr-2021 3222.01 4278.62 69.37 1.00 269.08 2649.76
   23:18:15.805.26-Apr-2021 3222.01 4278.62 69.37 1.00 269.28 2649.76
   23:18:16.005.26-Apr-2021 3222.01 4278.78 69.37 1.00 269.48 2649.76
   23:18:16.205.26-Apr-2021 3222.01 4278.82 69.37 1.00 269.68 2649.76
   23:18:16.405.26-Apr-2021 3222.01 4278.89 69.37 1.00 269.88 2649.76
   23:18:16.605.26-Apr-2021 3222.01 4278.81 69.37 1.00 270.08 2649.76
   23:18:16.805.26-Apr-2021 3222.01 4278.81 69.37 1.00 270.28 2649.76
   23:18:17.005.26-Apr-2021 3222.01 4278.88 69.37 1.00 270.48 2649.76
   23:18:17.205.26-Apr-2021 3222.01 4279.09 69.37 1.00 270.68 2649.76
   23:18:17.405.26-Apr-2021 3222.01 4278.92 69.37 1.00 270.88 2649.76
   23:18:17.605.26-Apr-2021 3222.01 4278.88 69.37 1.00 271.08 2649.76
   23:18:17.805.26-Apr-2021 3222.01 4278.88 69.37 1.00 271.28 2649.76
   23:18:18.005.26-Apr-2021 3222.01 4278.93 69.37 1.00 271.48 2649.76
   23:18:18.205.26-Apr-2021 3222.01 4278.85 69.37 1.00 271.68 2649.76
   23:18:18.405.26-Apr-2021 3222.01 4278.64 69.37 1.00 271.88 2649.76
   23:18:18.605.26-Apr-2021 3222.01 4278.18 69.37 1.00 272.08 2649.76
   23:18:18.806.26-Apr-2021 3222.01 4278.18 69.37 1.00 272.28 2649.76
   23:18:19.006.26-Apr-2021 3222.01 4278.99 69.37 1.00 272.48 2649.76
   23:18:19.206.26-Apr-2021 3222.01 4278.95 69.37 1.00 272.68 2649.76
   23:18:19.406.26-Apr-2021 3222.01 4278.91 69.37 1.00 272.88 2649.76
   23:18:19.606.26-Apr-2021 3222.01 4278.74 69.37 1.00 273.08 2649.76
   23:18:19.806.26-Apr-2021 3222.01 4278.74 69.37 1.00 273.28 2649.76
   23:18:20.006.26-Apr-2021 3222.01 4279.17 69.37 1.00 273.48 2649.76
   23:18:20.206.26-Apr-2021 3222.01 4279.15 69.37 1.00 273.68 2649.76
   23:18:20.406.26-Apr-2021 3222.01 4278.97 69.37 1.00 273.88 2649.76
   23:18:20.606.26-Apr-2021 3222.01 4278.52 69.37 1.00 274.08 2649.76
   23:18:20.806.26-Apr-2021 3222.01 4278.52 69.37 1.00 274.28 2649.76
   23:18:21.006.26-Apr-2021 3222.01 4279.04 69.37 1.00 274.48 2649.76
   23:18:21.206.26-Apr-2021 3222.01 4279.03 69.37 1.00 274.68 2649.76
   23:18:21.406.26-Apr-2021 3222.01 4278.38 69.37 1.00 274.88 2649.76
   23:18:21.606.26-Apr-2021 3222.01 4278.92 69.37 1.00 275.08 2649.76
   23:18:21.806.26-Apr-2021 3222.01 4278.92 69.37 1.00 275.28 2649.76
   23:18:22.006.26-Apr-2021 3222.01 4279.03 69.37 1.00 275.48 2649.76
   23:18:22.207.26-Apr-2021 3222.01 4279.23 69.37 1.00 275.68 2649.76
   23:18:22.407.26-Apr-2021 3222.01 4279.01 69.37 1.00 275.88 2649.76
