~Version Information
 VERS.                  2.0:   CWLS log ASCII Standard -VERSION 2.0
 WRAP.                   NO:   One line per depth step
~Well Information Block
#MNEM.UNIT     VALUE/NAME     DESCRIPTION
#---------     -----------    ---------------------------
 STRT.S             00:41:47 27-Apr-21: START TIME 00:41:47 27-Apr-21
 STOP.S             00:48:15 27-Apr-21: STOP TIME  00:48:15 27-Apr-21
 STEP.S                   0.00: STEP TIME
 NULL.                 -999.25: NULL VALUE
 DFWT.                        :  DIST FWL TEXT
 DFST.                        :  DIST FSL TEXT
 DMF .             Drill Floor:  DRILL MEAS FROM
 STIM.      02.00.00 12-Apr-21:  START TIME
 DATE.      02.00.00 02-May-21:  END TIME
 SPUD.               09-Apr-21:  SPUD DATE
 NREF.                    Grid:  NORTH REFERENCE
 HPTY.       Minimum Curvature:  HOLE POS TYPE
 DMOD.             Drill Model:  DRILL MOD DESC
 SVYD.                  Survey:  SURVEY DESC
 ILTD.               Lithology:  INTERP LTH DESC
 FTOP.          Formation Tops:  FORM TOPS DESC
 PDAT.          Mean Sea Level:  PERMANENT DATUM
 FLD .                     ACG:  FIELD NAME
 SON .        AZ-XX-0907021034:  JOB NUMBER
 CTRY.              Azerbaijan:  COUNTRY NAME
 WELL.                    E01x:  WELL NAME
 COMP.     BP Exploration (Caspian Sea) LTD.:  COMPANY
 UWI .            /AZE00001403:  UNIQUE WELL IDENTIFIER
 API .            /AZE00001403:  API NUMBER
 WTYP.                Deviated:  WELL TYPE
 MDS .        Operator Entered:  MAG DATA SOURCE
 BASE.              Azerbaijan:  LOGGING EQUIPMENT BASE LOCATION
 REGN.                   EESSA:  REGION
 PROV.                    Baku:  PROVINCE
 STAT.                    Baku:  STATE NAME
 SRVC.          Turan Drilling:  CONTRACTOR
 MWDS.                    Baku:  MWD SHOP
 JOBN.        AZ-XX-0907021034:  JOB TICKET NUMB
 RIG .                     DWG:  RIG NAME
 DOE .                     N/A:  DOE NUMBER
 DCON.         Sperry Drilling:  DIRECTNL CONTR
 UNIT.                     N/A:  LOGGING EQUIPMENT ID
 CNTY.                        :  COUNTY
 LOC .                        :  LOCATION
 LMF .             Drill Floor:  LOG MEASURED FROM
 TVDS.m                  43.16:  TVDSS CORRECTN
 LATI.deg                40.17:  LATITUDE
 LONG.deg                51.17:  LONGITUDE
 WHNS.m                  -5.90:  WELL HEAD N/S
 WHEW.m                  -6.61:  WELL HEAD E/W
 UTMX.m              514337.95:  UTM X
 UTMY.m             4448627.46:  UTM Y
 DFWL.m                   0.00:  DISTANCE FWL
 DFSL.m                   0.00:  DISTANCE FSL
 SDEP.m                2606.87:  START DEPTH
 TDD .m                3618.01:  TOTAL DEPTH (DRILLER)
 VSDR.deg               177.42:  VERT SEC DIRECT
 GVFD.g                   1.00:  GRAVITY FIELD
 MFLD.nT              50399.00:  MAGNETIC FIELD
 MDIP.deg                59.67:  MAGNETIC DIP
 MDEC.deg                 6.56:  MAGNETIC DECL
 GRDC.deg                 0.11:  GRID CORRECTION
 AZTC.deg                 6.45:  AZM TOTAL CORR
 EPD .m                   0.00:  ELEVATION
 EGL .m                   0.00:  GROUND ELEVATION
 WDMS.m                 176.20:  WD ELEV
 APD .m                  43.16:  DEPTH ABOVE PD
 DEP .m                2606.87:  DEPTH
 AGAP.m                  43.16:  AIR GAP
 VSEW.m                  -6.61:  VERT SEC E/W
 VSNS.m                  -5.90:  VERT SEC N/S
 EKB .m                  43.16:  KB ELEVATION
 EDF .m                  43.16:  DF ELEVATION
 TDL .m                 438.00:  TOTAL DEPTH (LOGGER)
 VSC .                       0:  VS TO CLOSURE
 MAGU.                 1855490:  MAGUTM CHECKSUM
~Parameter Information Block
#MNEM.UNIT       Value        Description
#---------     -----------    ---------------------------
 AV  .mps                 2.20:  Ann Velocity 
 AVMX.mps                 2.50:  Max Ann Veloc 
 AZIF.deg               150.21:  Azm, Final 
 BHAT.        Rotary Steerable:  BHA Type 
 BROT.°/30m               0.08:  Build Rotating 
 BS  .in                  6.50:  Bit Size 
 BSZ .in                  6.50:  Bit Size 
 BTPL.psig              108.00:  Bit Press Loss 
 CABU.                     Yes:  Customer Abuse 
 CGEO.           Emin Aliyarli:  Customer Geo 
 COMM.                     lJm:  Run Comments 1 
 TCS .hr                 74.20:  Time Ciculation Ended 
 CV  .mps                 3.63:  Crit Velocity 
 CVMX.mps                 3.66:  Max Crit Veloc 
 DD1 .         Intigam Rahimov:  Direct Drillr 1 
 DD2 .          Teymur Aghayev:  Direct Drillr 2 
 DDSV.               Geo-Pilot:  DD Service 
 DEFF.%                  97.00:  % Det Eff 
 DLRX.°/30m               1.63:  Dogleg Rot Max 
 DLSO.°/30m               0.00:  Dogleg Oriented 
 DLSX.°/30m               0.00:  Dogleg Str Max 
 DRET.      20.20.00 28-Apr-21:  Drill End Time 
 DRST.      04.45.00 26-Apr-21:  Drill Start Tim 
 DTIM.hr                 34.30:  Time Drilling 
 EDEP.m                3618.01:  End Depth 
 ENG1.           Amrah Tahirov:  Engineer 1 
 ENG2.         Bahruz Mehdiyev:  Engineer 2 
 ENG3.         Farhad Orujzade:  Engineer 3 
 ETIM.      19.00.00 29-Apr-21:  End Time 
 FLOI.gpm               370.00:  Flow In 
 FLON.gpm               300.00:  Flow In Min 
 FLOS.cptm                0.00:  Fluid Loss 
 FLOX.gpm               410.00:  Flow In Max 
 HFLO.                      No:  High Flow 
 HPRE.                      No:  High Pressure 
 HTEM.                      No:  High Temp 
 HYDO.m                   1.80:  Hydro Offset 
 IFIN.deg                67.19:  Inc, Final 
 IMAX.deg                68.42:  Inc Max 
 IMIN.deg                66.33:  Inc Min 
 IMND.m                3532.79:  Inc Min Depth 
 IMXD.m                3192.15:  Inc Max Depth 
 JARR.                      No:  Jarring 
 LETM.      20.20.00 28-Apr-21:  Log End Time 
 LOST.hr                     0:  Lost Rig Time 
 LSTM.      04.45.00 26-Apr-21:  Log Start Time 
 MDCL.ppm             36500.00:  Mud Chlorides 
 MDES.     Inversion Oil/Synthetic:  Mud Desc 
 DFD .sg                  1.42:  Mud Density 
 MDMN.sg                  1.42:  Dens Mud Min 
 MDMX.sg                  1.42:  Dens Mud Max 
 MOIL.                    55.7:  Run Mud Oil % 
 MOWR.                   71:29:  Run Mud OWR 
 MSND.                     0.1:  Run Mud Sand % 
 MSOL.                    19.9:  Run Mud Solids% 
 DFV .spqt               83.00:  Mud Viscosity 
 MWOD.in                  5.15:  MWD Tool OD 
 MWSI.                      No:  Serv Intrp, MWD 
 OTIM.hr                120.59:  Time Operating 
 PCON.           Look Like New:  Pad Condition 
 PMAX.psia            11292.93:  Press Op, Max 
 PV  .cP                 27.00:  Mud PV 
 RUN .                     400:  Run Number 
 ROPA.m/hr               14.00:  ROP Avg 
 ROPN.m/hr                9.00:  ROP Min 
 ROPX.m/hr               18.00:  ROP Max 
 RPMA.rpm               130.00:  RPM Surface Avg 
 RPMN.rpm               100.00:  RPM Surface Min 
 RPMX.rpm               140.00:  RPM Surface Max 
 RRUN.                    0400:  Rig Run Number 
 RTIM.hr                 38.60:  Time Reaming 
 SAZI.deg               149.55:  Azm, Start 
 SDEP.m                3180.01:  Start Depth 
 SIDD.                      No:  Serv Intrp, DD 
 SINC.deg                68.42:  Inc, Start 
 SPPA.psig             4400.00:  SPP Avg 
 SPPN.psig             3580.00:  SPP Min 
 SPPX.psig             4850.00:  SPP Max 
 STIM.      12.30.00 24-Apr-21:  Start Time 
 SVCS.                 DD, MWD:  Services 
 SVER.                    9.20:  Sperry Version 
 TDAT.m                 438.00:  Tot Depth Attmp 
 TDDF.                      No:  Trip for DD 
 TDLG.m                 438.00:  Tot Depth Loggd 
 TFF .                      No:  Trip for Fail 
 TQAA.f-kp               11.00:  Torque Abs Avg 
 TQAN.f-kp                9.00:  Torque Abs Min 
 TQAX.f-kp               14.00:  Torque Abs Max 
 TRRT.°/30m               0.04:  Turn Rotating 
 MRT .                    HCIM:  Maximum Recorded Temperature 
 TTMX.degC               84.31:  Max Tool Temp 
 VS01.                90521954:  Virtual Str1 SN 
 VS02.                90519327:  Virtual Str2 SN 
 VS03.                90522273:  Virtual Str3 SN 
 VS04.                11108038:  Virtual Str4 SN 
 VS05.                12258760:  Virtual Str5 SN 
 WBMN.klb                 1.00:  WOB Min 
 WITN.           Adil Mammadov:  Customer Rep 
 WITN.         Alex Yadullayev:  Customer Rep 2 
 WOBA.klb                 6.00:  WOB Avg 
 WOBX.klb                 9.00:  WOB Max 
 YP  .lhf2               31.00:  Yield Point 
~Curve Information Block
#MNEM.UNIT                 API CODE     Curve Description
#---------               -----------    ---------------------------
 TIME.HHMMSS            00 000 000 000:  GT Time & Date
 GTDEPTH.m              00 000 000 000:  GT Depth
 GTPQH.psia             00 000 000 000:  GT HR Quartz Pressure
 GTTQ.degC              00 000 000 000:  GT Quartz Temperature
 GTTN.NONE              00 000 000 000:  GT Test Number
 GTET.sec               00 000 000 000:  GT Elapsed Test Time
 GTTVD.m                00 000 000 000:  GT True Vertical Depth
#Other Information
#
#WARRANTY: Halliburton will use its best efforts to furnish customers with 
#accurate information and interpretations that are part of, and incident to, the services 
#provided.  However, Halliburton cannot and does not warrant the accuracy 
#or correctness of such information and interpretations.  Under no circumstances should any 
#such information or interpretation be relied upon as the sole basis for any drilling, 
#completion, production, or financial decision or any procedure involving any risk to the 
#safety of any drilling venture, drilling rig or its crew or any other third party.  The 
#Customer has full responsibility for all drilling, completion and production operation.  
#Halliburton makes no representations or warranties, either expressed or 
#implied, including, but not limited to, the implied warranties of merchantability or fitness 
#for a particular purpose, with respect to the services rendered.  In no event will 
#Halliburton be liable for failure to obtain any particular results or for 
#any damages, including, but not limited to, indirect, special or consequential damages, 
#resulting from the use of any information or interpretation provided by Halliburton.
#
~A           TIME           GTDEPTH  GTPQH  GTTQ  GTTN  GTET   GTTVD  
# ...
   00:45:37.771.27-Apr-2021 3226.01 4274.27 71.52 2.00 230.05 2651.33
   00:45:37.971.27-Apr-2021 3226.01 4274.27 71.52 2.00 230.25 2651.33
   00:45:38.171.27-Apr-2021 3226.01 4274.08 71.52 2.00 230.45 2651.33
   00:45:38.371.27-Apr-2021 3226.01 4274.33 71.52 2.00 230.65 2651.33
   00:45:38.571.27-Apr-2021 3226.01 4274.35 71.52 2.00 230.85 2651.33
   00:45:38.771.27-Apr-2021 3226.01 4274.27 71.52 2.00 231.05 2651.33
   00:45:38.972.27-Apr-2021 3226.01 4274.27 71.52 2.00 231.25 2651.33
   00:45:39.172.27-Apr-2021 3226.01 4274.25 71.51 2.00 231.45 2651.33
   00:45:39.372.27-Apr-2021 3226.01 4274.32 71.51 2.00 231.65 2651.33
   00:45:39.572.27-Apr-2021 3226.01 4274.29 71.51 2.00 231.85 2651.33
   00:45:39.772.27-Apr-2021 3226.01 4274.11 71.51 2.00 232.05 2651.33
   00:45:39.972.27-Apr-2021 3226.01 4274.11 71.51 2.00 232.25 2651.33
   00:45:40.172.27-Apr-2021 3226.01 4274.22 71.51 2.00 232.45 2651.33
   00:45:40.372.27-Apr-2021 3226.01 4274.30 71.51 2.00 232.65 2651.33
   00:45:40.572.27-Apr-2021 3226.01 4274.32 71.51 2.00 232.85 2651.33
   00:45:40.772.27-Apr-2021 3226.01 4274.27 71.51 2.00 233.05 2651.33
   00:45:40.972.27-Apr-2021 3226.01 4274.27 71.51 2.00 233.25 2651.33
   00:45:41.172.27-Apr-2021 3226.01 4274.24 71.51 2.00 233.45 2651.33
   00:45:41.372.27-Apr-2021 3226.01 4274.29 71.51 2.00 233.65 2651.33
   00:45:41.572.27-Apr-2021 3226.01 4274.25 71.51 2.00 233.85 2651.33
   00:45:41.772.27-Apr-2021 3226.01 4274.22 71.51 2.00 234.05 2651.33
   00:45:41.972.27-Apr-2021 3226.01 4274.22 71.51 2.00 234.25 2651.33
   00:45:42.172.27-Apr-2021 3226.01 4274.19 71.51 2.00 234.45 2651.33
   00:45:42.372.27-Apr-2021 3226.01 4274.09 71.51 2.00 234.65 2651.33
   00:45:42.572.27-Apr-2021 3226.01 4274.13 71.51 2.00 234.85 2651.33
   00:45:42.772.27-Apr-2021 3226.01 4274.29 71.50 2.00 235.05 2651.33
   00:45:42.972.27-Apr-2021 3226.01 4274.29 71.50 2.00 235.25 2651.33
   00:45:43.172.27-Apr-2021 3226.01 4274.28 71.50 2.00 235.45 2651.33
   00:45:43.372.27-Apr-2021 3226.01 4274.24 71.50 2.00 235.65 2651.33
   00:45:43.572.27-Apr-2021 3226.01 4274.26 71.50 2.00 235.85 2651.33
   00:45:43.772.27-Apr-2021 3226.01 4274.26 71.50 2.00 236.05 2651.33
   00:45:43.973.27-Apr-2021 3226.01 4274.26 71.50 2.00 236.25 2651.33
   00:45:44.173.27-Apr-2021 3226.01 4274.25 71.50 2.00 236.45 2651.33
   00:45:44.373.27-Apr-2021 3226.01 4274.24 71.50 2.00 236.65 2651.33
   00:45:44.573.27-Apr-2021 3226.01 4274.21 71.50 2.00 236.85 2651.33
   00:45:44.773.27-Apr-2021 3226.01 4274.24 71.50 2.00 237.05 2651.33
   00:45:44.973.27-Apr-2021 3226.01 4274.24 71.50 2.00 237.25 2651.33
   00:45:45.173.27-Apr-2021 3226.01 4274.03 71.50 2.00 237.45 2651.33
   00:45:45.373.27-Apr-2021 3226.01 4274.18 71.50 2.00 237.65 2651.33
   00:45:45.573.27-Apr-2021 3226.01 4272.95 71.50 2.00 237.85 2651.33
   00:45:45.773.27-Apr-2021 3226.01 4251.82 71.50 2.00 238.05 2651.33
   00:45:45.973.27-Apr-2021 3226.01 4251.82 71.50 2.00 238.25 2651.33
   00:45:46.173.27-Apr-2021 3226.01 4250.19 71.50 2.00 238.45 2651.33
   00:45:46.373.27-Apr-2021 3226.01 4249.44 71.50 2.00 238.65 2651.33
   00:45:46.573.27-Apr-2021 3226.01 4249.29 71.49 2.00 238.85 2651.33
   00:45:46.773.27-Apr-2021 3226.01 4249.61 71.49 2.00 239.05 2651.33
   00:45:46.973.27-Apr-2021 3226.01 4249.61 71.49 2.00 239.25 2651.33
   00:45:47.173.27-Apr-2021 3226.01 4248.94 71.49 2.00 239.45 2651.33
   00:45:47.373.27-Apr-2021 3226.01 4248.93 71.49 2.00 239.65 2651.33
   00:45:47.573.27-Apr-2021 3226.01 4249.25 71.49 2.00 239.85 2651.33
   00:45:47.773.27-Apr-2021 3226.01 4249.26 71.49 2.00 240.05 2651.33
   00:45:47.973.27-Apr-2021 3226.01 4249.26 71.49 2.00 240.25 2651.33
   00:45:48.173.27-Apr-2021 3226.01 4248.94 71.49 2.00 240.45 2651.33
   00:45:48.373.27-Apr-2021 3226.01 4249.27 71.49 2.00 240.65 2651.33
   00:45:48.573.27-Apr-2021 3226.01 4249.36 71.49 2.00 240.85 2651.33
   00:45:48.773.27-Apr-2021 3226.01 4248.99 71.49 2.00 241.05 2651.33
   00:45:48.974.27-Apr-2021 3226.01 4248.99 71.49 2.00 241.25 2651.33
   00:45:49.174.27-Apr-2021 3226.01 4248.68 71.49 2.00 241.45 2651.33
   00:45:49.374.27-Apr-2021 3226.01 4248.94 71.49 2.00 241.65 2651.33
   00:45:49.574.27-Apr-2021 3226.01 4248.97 71.49 2.00 241.85 2651.33
   00:45:49.774.27-Apr-2021 3226.01 4248.89 71.49 2.00 242.05 2651.33
   00:45:49.974.27-Apr-2021 3226.01 4248.89 71.49 2.00 242.25 2651.33
   00:45:50.174.27-Apr-2021 3226.01 4248.71 71.49 2.00 242.45 2651.33
   00:45:50.374.27-Apr-2021 3226.01 4248.57 71.48 2.00 242.65 2651.33
   00:45:50.574.27-Apr-2021 3226.01 4248.84 71.48 2.00 242.85 2651.33
   00:45:50.774.27-Apr-2021 3226.01 4248.42 71.48 2.00 243.05 2651.33
   00:45:50.974.27-Apr-2021 3226.01 4248.42 71.48 2.00 243.25 2651.33
   00:45:51.174.27-Apr-2021 3226.01 4248.66 71.48 2.00 243.45 2651.33
   00:45:51.374.27-Apr-2021 3226.01 4248.56 71.48 2.00 243.65 2651.33
   00:45:51.574.27-Apr-2021 3226.01 4248.83 71.48 2.00 243.85 2651.33
   00:45:51.774.27-Apr-2021 3226.01 4248.80 71.48 2.00 244.05 2651.33
   00:45:51.974.27-Apr-2021 3226.01 4248.80 71.48 2.00 244.25 2651.33
   00:45:52.174.27-Apr-2021 3226.01 4248.90 71.48 2.00 244.45 2651.33
   00:45:52.374.27-Apr-2021 3226.01 4248.74 71.48 2.00 244.65 2651.33
   00:45:52.574.27-Apr-2021 3226.01 4248.48 71.48 2.00 244.85 2651.33
   00:45:52.774.27-Apr-2021 3226.01 4248.56 71.48 2.00 245.05 2651.33
   00:45:52.974.27-Apr-2021 3226.01 4248.56 71.48 2.00 245.25 2651.33
   00:45:53.174.27-Apr-2021 3226.01 4248.62 71.48 2.00 245.45 2651.33
   00:45:53.374.27-Apr-2021 3226.01 4248.54 71.48 2.00 245.65 2651.33
   00:45:53.574.27-Apr-2021 3226.01 4247.94 71.48 2.00 245.85 2651.33
   00:45:53.774.27-Apr-2021 3226.01 4248.63 71.48 2.00 246.05 2651.33
   00:45:53.975.27-Apr-2021 3226.01 4248.63 71.48 2.00 246.25 2651.33
   00:45:54.175.27-Apr-2021 3226.01 4248.57 71.47 2.00 246.45 2651.33
   00:45:54.375.27-Apr-2021 3226.01 4248.61 71.47 2.00 246.65 2651.33
   00:45:54.575.27-Apr-2021 3226.01 4248.50 71.47 2.00 246.85 2651.33
   00:45:54.775.27-Apr-2021 3226.01 4247.94 71.47 2.00 247.05 2651.33
   00:45:54.975.27-Apr-2021 3226.01 4247.94 71.47 2.00 247.25 2651.33
   00:45:55.175.27-Apr-2021 3226.01 4248.75 71.47 2.00 247.45 2651.33
   00:45:55.375.27-Apr-2021 3226.01 4248.57 71.47 2.00 247.65 2651.33
   00:45:55.575.27-Apr-2021 3226.01 4248.25 71.47 2.00 247.85 2651.33
   00:45:55.775.27-Apr-2021 3226.01 4248.25 71.47 2.00 248.05 2651.33
   00:45:55.975.27-Apr-2021 3226.01 4248.25 71.47 2.00 248.25 2651.33
   00:45:56.175.27-Apr-2021 3226.01 4267.23 71.47 2.00 248.45 2651.33
   00:45:56.375.27-Apr-2021 3226.01 4272.08 71.47 2.00 248.65 2651.33
   00:45:56.575.27-Apr-2021 3226.01 4272.28 71.47 2.00 248.85 2651.33
   00:45:56.775.27-Apr-2021 3226.01 4272.58 71.47 2.00 249.05 2651.33
   00:45:56.975.27-Apr-2021 3226.01 4272.58 71.47 2.00 249.25 2651.33
   00:45:57.175.27-Apr-2021 3226.01 4272.81 71.47 2.00 249.45 2651.33
   00:45:57.375.27-Apr-2021 3226.01 4272.86 71.47 2.00 249.65 2651.33
   00:45:57.575.27-Apr-2021 3226.01 4272.90 71.47 2.00 249.85 2651.33
   00:45:57.775.27-Apr-2021 3226.01 4272.94 71.47 2.00 250.05 2651.33
   00:45:57.975.27-Apr-2021 3226.01 4272.94 71.47 2.00 250.25 2651.33
   00:45:58.175.27-Apr-2021 3226.01 4273.08 71.46 2.00 250.45 2651.33
   00:45:58.375.27-Apr-2021 3226.01 4273.07 71.46 2.00 250.65 2651.33
   00:45:58.575.27-Apr-2021 3226.01 4273.10 71.46 2.00 250.85 2651.33
   00:45:58.775.27-Apr-2021 3226.01 4273.11 71.46 2.00 251.05 2651.33
   00:45:58.975.27-Apr-2021 3226.01 4273.11 71.46 2.00 251.25 2651.33
   00:45:59.176.27-Apr-2021 3226.01 4273.06 71.46 2.00 251.45 2651.33
   00:45:59.376.27-Apr-2021 3226.01 4273.35 71.46 2.00 251.65 2651.33
   00:45:59.576.27-Apr-2021 3226.01 4273.39 71.46 2.00 251.85 2651.33
   00:45:59.776.27-Apr-2021 3226.01 4273.38 71.46 2.00 252.05 2651.33
   00:45:59.976.27-Apr-2021 3226.01 4273.38 71.46 2.00 252.25 2651.33
   00:46:00.176.27-Apr-2021 3226.01 4273.38 71.46 2.00 252.45 2651.33
   00:46:00.376.27-Apr-2021 3226.01 4273.41 71.46 2.00 252.65 2651.33
   00:46:00.576.27-Apr-2021 3226.01 4273.48 71.46 2.00 252.85 2651.33
