~Version Information
 VERS.                  2.0:   CWLS log ASCII Standard -VERSION 2.0
 WRAP.                   NO:   One line per depth step
~Well Information Block
#MNEM.UNIT     VALUE/NAME     DESCRIPTION
#---------     -----------    ---------------------------
 STRT.S             01:40:55 31-Jan-20: START TIME 01:40:55 31-Jan-20
 STOP.S             01:47:23 31-Jan-20: STOP TIME  01:47:23 31-Jan-20
 STEP.S                   0.00: STEP TIME
 NULL.                 -999.25: NULL VALUE
 DFWT.                        :  DIST FWL TEXT
 DFST.                        :  DIST FSL TEXT
 DMF .             Drill Floor:  DRILL MEAS FROM
 STIM.      09.30.00 26-Dec-19:  START TIME
 DATE.      08.00.00 20-Jan-20:  END TIME
 SPUD.               23-Nov-19:  SPUD DATE
 NREF.                    Grid:  NORTH REFERENCE
 HPTY.       Minimum Curvature:  HOLE POS TYPE
 DMOD.             Drill Model:  DRILL MOD DESC
 SVYD.                  Survey:  SURVEY DESC
 ILTD.               Lithology:  INTERP LTH DESC
 FTOP.          Formation Tops:  FORM TOPS DESC
 SON .        AZ-XX-0906192647:  JOB NUMBER
 WTYP.                Deviated:  WELL TYPE
 COMP.     BP Exploration (Caspian Sea) Ltd:  COMPANY
 BASE.              Azerbaijan:  LOGGING EQUIPMENT BASE LOCATION
 REGN.                 Eurasia:  REGION
 FLD .                     ACG:  FIELD NAME
 SRVC.              KCA Deutag:  CONTRACTOR
 MWDS.                    Baku:  MWD SHOP
 WELL.     A10 (Slot 20) - SCP:  WELL NAME
 JOBN.        AZ-XX-0906192647:  JOB TICKET NUMB
 RIG .                 Chirag1:  RIG NAME
 DCON.     Halliburton Sperry Drilling:  DIRECTNL CONTR
 UNIT.                     N/A:  LOGGING EQUIPMENT ID
 PDAT.          Mean Sea Level:  PERMANENT DATUM
 MDS .        Operator Entered:  MAG DATA SOURCE
 CTRY.              Azerbaijan:  COUNTRY NAME
 UWI .            /AZE00000090:  UNIQUE WELL IDENTIFIER
 API .            /AZE00000090:  API NUMBER
 CNTY.                        :  COUNTY
 PROV.                        :  PROVINCE
 STAT.                        :  STATE
 LOC .                        :  LOCATION
 LMF .             Drill Floor:  LOG MEASURED FROM
 TVDS.m                  36.60:  TVDSS CORRECTN
 LATI.deg                40.08:  LATITUDE
 LONG.deg                51.24:  LONGITUDE
 WHNS.m                  -7.94:  WELL HEAD N/S
 WHEW.m                   1.56:  WELL HEAD E/W
 UTMX.m              520429.26:  UTM X
 UTMY.m             4438973.87:  UTM Y
 DFWL.m                   0.00:  DISTANCE FWL
 DFSL.m                   0.00:  DISTANCE FSL
 SDEP.m                1455.00:  START DEPTH
 TDD .m                4047.51:  TOTAL DEPTH (DRILLER)
 VSDR.deg               112.75:  VERT SEC DIRECT
 GVFD.g                   1.00:  GRAVITY FIELD
 MFLD.nT              50261.00:  MAGNETIC FIELD
 MDIP.deg                59.52:  MAGNETIC DIP
 MDEC.deg                 6.42:  MAGNETIC DECL
 GRDC.deg                 0.17:  GRID CORRECTION
 AZTC.deg                 6.25:  AZM TOTAL CORR
 EPD .m                   0.00:  ELEVATION
 EGL .m                   0.00:  GROUND ELEVATION
 WDMS.m                 121.00:  WD ELEV
 APD .m                  36.60:  DEPTH ABOVE PD
 AGAP.m                  36.60:  AIR GAP
 VSEW.m                   1.56:  VERT SEC E/W
 VSNS.m                  -7.94:  VERT SEC N/S
 DEP .m                1140.01:  DEPTH
 EKB .m                  36.60:  KB ELEVATION
 EDF .m                  36.60:  DF ELEVATION
 TDL .m                 169.50:  TOTAL DEPTH (LOGGER)
 CSGD.m                3875.01:  CASING BOTTOM (DRILLER)
 CSGL.m                3875.01:  CASING BOTTOM (LOGGER)
 CSGS.in                  7.63:  CASING SIZE
 CSGW.lbpf               23.50:  CASING WEIGHT
 VSC .                       0:  VS TO CLOSURE
 MAGU.                 1849206:  MAGUTM CHECKSUM
~Parameter Information Block
#MNEM.UNIT       Value        Description
#---------     -----------    ---------------------------
 AV  .mps                 1.90:  Ann Velocity 
 AVMX.mps                 2.54:  Max Ann Veloc 
 AZIF.deg               137.03:  Azm, Final 
 BHAT.        Rotary Steerable:  BHA Type 
 BREV.rev             23610.00:  Rev Bit Total 
 BROT.°/30m               0.80:  Build Rotating 
 BS  .in                  6.50:  Bit Size 
 BTPL.psig              110.00:  Bit Press Loss 
 CABU.                     Yes:  Customer Abuse 
 COMM.                     šn:  Run Comments 1 
 TCS .hr                 70.51:  Time Ciculation Ended 
 CV  .mps                 1.41:  Crit Velocity 
 CVMX.mps                 1.42:  Max Crit Veloc 
 DD1 .         Intigam Rahimov:  Direct Drillr 1 
 DD2 .          Rashad Gojayev:  Direct Drillr 2 
 DDSV.               Geo-Pilot:  DD Service 
 DEFF.%                 100.00:  % Det Eff 
 DLRX.°/30m               1.44:  Dogleg Rot Max 
 DLSO.°/30m               0.00:  Dogleg Oriented 
 DLSX.°/30m               0.00:  Dogleg Str Max 
 DRET.      03.05.00 01-Feb-20:  Drill End Time 
 DRST.      15.50.00 28-Jan-20:  Drill Start Tim 
 DTIM.hr                 24.70:  Time Drilling 
 EDEP.m                4047.51:  End Depth 
 ENG1.           Eldar Hajiyev:  Engineer 1 
 ENG2.          Rasim Hashimov:  Engineer 2 
 ENG3.          Rustam Safarov:  Engineer 3 
 ETIM.      22.00.00 01-Feb-20:  End Time 
 FLOI.gpm               370.00:  Flow In 
 FLON.gpm               300.00:  Flow In Min 
 FLOS.cptm                0.00:  Fluid Loss 
 FLOX.gpm               400.00:  Flow In Max 
 FTRO.       Formation Presure:  FTWD Run Obj 
 HFLO.                      No:  High Flow 
 HPRE.                      No:  High Pressure 
 HTEM.                      No:  High Temp 
 HYDO.m                   2.50:  Hydro Offset 
 IFIN.deg                39.54:  Inc, Final 
 IMAX.deg                41.14:  Inc Max 
 IMIN.deg                39.81:  Inc Min 
 IMND.m                4005.21:  Inc Min Depth 
 IMXD.m                3948.42:  Inc Max Depth 
 JARR.                      No:  Jarring 
 LETM.      03.05.00 01-Feb-20:  Log End Time 
 LOST.hr                     0:  Lost Rig Time 
 LSTM.      15.50.00 28-Jan-20:  Log Start Time 
 MDCL.ppm             37500.00:  Mud Chlorides 
 MDES.     Inversion Oil/Synthetic:  Mud Desc 
 DFD .sg                  1.32:  Mud Density 
 MDMN.sg                  1.32:  Dens Mud Min 
 MDMX.sg                  1.32:  Dens Mud Max 
 MOIL.                      55:  Run Mud Oil % 
 MOWR.                   70:30:  Run Mud OWR 
 MSND.                       0:  Run Mud Sand % 
 MSOL.                      17:  Run Mud Solids% 
 DFV .spqt               80.00:  Mud Viscosity 
 MWOD.in                  4.75:  MWD Tool OD 
 MWSI.                      No:  Serv Intrp, MWD 
 OTIM.hr                121.28:  Time Operating 
 PCON.           Look Like New:  Pad Condition 
 PMAX.psia             6171.00:  Press Op, Max 
 PV  .cP                 30.00:  Mud PV 
 RUN .                     300:  Run Number 
 ROPA.m/hr                5.45:  ROP Avg 
 ROPN.m/hr                3.00:  ROP Min 
 ROPX.m/hr               15.00:  ROP Max 
 RPMA.rpm               130.00:  RPM Surface Avg 
 RPMN.rpm                80.00:  RPM Surface Min 
 RPMX.rpm               140.00:  RPM Surface Max 
 RRUN.                     300:  Rig Run Number 
 RTIM.hr                 13.50:  Time Reaming 
 SAZI.deg               133.93:  Azm, Start 
 SDEP.m                3878.01:  Start Depth 
 SIDD.                      No:  Serv Intrp, DD 
 SINC.deg                40.28:  Inc, Start 
 SPPA.psig             4983.00:  SPP Avg 
 SPPN.psig             4370.00:  SPP Min 
 SPPX.psig             5300.00:  SPP Max 
 STIM.      18.33.36 27-Jan-20:  Start Time 
 SVCS.                 DD, MWD:  Services 
 SVER.                    9.20:  Sperry Version 
 TDAT.m                 169.50:  Tot Depth Attmp 
 TDDF.                      No:  Trip for DD 
 TDLG.m                 169.50:  Tot Depth Loggd 
 TFF .                      No:  Trip for Fail 
 TQAA.f-kp               13.25:  Torque Abs Avg 
 TQAN.f-kp               12.00:  Torque Abs Min 
 TQAX.f-kp               14.00:  Torque Abs Max 
 TRRT.°/30m               0.70:  Turn Rotating 
 MRT .                     ADR:  Maximum Recorded Temperature 
 TTMX.degC               92.16:  Max Tool Temp 
 VS01.       AZ90598764G12V7D4:  Virtual Str1 SN 
 VS02.         AZ90571342R12C4:  Virtual Str2 SN 
 VS03.      AZ90580010N2L2X1C4:  Virtual Str3 SN 
 VS04.        AZ90522266O7X1C4:  Virtual Str4 SN 
 VS05.           AZ90598768F11:  Virtual Str5 SN 
 VS06.     AZ90580006XZ1W1X1C4:  Virtual Str6 SN 
 WBMN.klb                 8.00:  WOB Min 
 WITN.            Peter Wilson:  Customer Rep 
 WOBA.klb                 9.88:  WOB Avg 
 WOBX.klb                10.00:  WOB Max 
 YP  .lhf2               27.00:  Yield Point 
~Curve Information Block
#MNEM.UNIT                 API CODE     Curve Description
#---------               -----------    ---------------------------
 TIME.HHMMSS            00 000 000 000:  GT Time & Date
 GTDEPTH.m              00 000 000 000:  GT Depth
 GTPQH.psia             00 000 000 000:  GT HR Quartz Pressure
 GTTQ.degC              00 000 000 000:  GT Quartz Temperature
 GTTN.NONE              00 000 000 000:  GT Test Number
 GTET.sec               00 000 000 000:  GT Elapsed Test Time
 GTTVD.m                00 000 000 000:  GT True Vertical Depth
#Other Information
#
#WARRANTY: Halliburton will use its best efforts to furnish customers with 
#accurate information and interpretations that are part of, and incident to, the services 
#provided.  However, Halliburton cannot and does not warrant the accuracy 
#or correctness of such information and interpretations.  Under no circumstances should any 
#such information or interpretation be relied upon as the sole basis for any drilling, 
#completion, production, or financial decision or any procedure involving any risk to the 
#safety of any drilling venture, drilling rig or its crew or any other third party.  The 
#Customer has full responsibility for all drilling, completion and production operation.  
#Halliburton makes no representations or warranties, either expressed or 
#implied, including, but not limited to, the implied warranties of merchantability or fitness 
#for a particular purpose, with respect to the services rendered.  In no event will 
#Halliburton be liable for failure to obtain any particular results or for 
#any damages, including, but not limited to, indirect, special or consequential damages, 
#resulting from the use of any information or interpretation provided by Halliburton.
#
~A           TIME           GTDEPTH  GTPQH  GTTQ  GTTN  GTET   GTTVD  
# ...
   01:42:27.080.31-Jan-2020 3902.01 2984.96 76.47 3.00  92.02 2938.77
   01:42:27.280.31-Jan-2020 3902.01 2984.96 76.47 3.00  92.22 2938.77
   01:42:27.480.31-Jan-2020 3902.01 2984.37 76.47 3.00  92.42 2938.77
   01:42:27.680.31-Jan-2020 3902.01 2984.87 76.47 3.00  92.62 2938.77
   01:42:27.880.31-Jan-2020 3902.01 2984.92 76.47 3.00  92.82 2938.77
   01:42:28.080.31-Jan-2020 3902.01 2984.78 76.47 3.00  93.02 2938.77
   01:42:28.280.31-Jan-2020 3902.01 2984.78 76.47 3.00  93.22 2938.77
   01:42:28.480.31-Jan-2020 3902.01 2984.91 76.47 3.00  93.42 2938.77
   01:42:28.680.31-Jan-2020 3902.01 2984.46 76.47 3.00  93.62 2938.77
   01:42:28.880.31-Jan-2020 3902.01 2984.87 76.47 3.00  93.82 2938.77
   01:42:29.080.31-Jan-2020 3902.01 2984.83 76.47 3.00  94.02 2938.77
   01:42:29.280.31-Jan-2020 3902.01 2984.83 76.47 3.00  94.22 2938.77
   01:42:29.480.31-Jan-2020 3902.01 2984.85 76.46 3.00  94.42 2938.77
   01:42:29.681.31-Jan-2020 3902.01 2984.75 76.46 3.00  94.62 2938.77
   01:42:29.881.31-Jan-2020 3902.01 2984.77 76.46 3.00  94.82 2938.77
   01:42:30.081.31-Jan-2020 3902.01 2984.83 76.46 3.00  95.02 2938.77
   01:42:30.281.31-Jan-2020 3902.01 2984.83 76.46 3.00  95.22 2938.77
   01:42:30.481.31-Jan-2020 3902.01 2984.76 76.46 3.00  95.42 2938.77
   01:42:30.681.31-Jan-2020 3902.01 2984.79 76.46 3.00  95.62 2938.77
   01:42:30.881.31-Jan-2020 3902.01 2984.76 76.46 3.00  95.82 2938.77
   01:42:31.081.31-Jan-2020 3902.01 2984.74 76.46 3.00  96.02 2938.77
   01:42:31.281.31-Jan-2020 3902.01 2984.74 76.46 3.00  96.22 2938.77
   01:42:31.481.31-Jan-2020 3902.01 2984.83 76.46 3.00  96.42 2938.77
   01:42:31.681.31-Jan-2020 3902.01 2984.80 76.46 3.00  96.62 2938.77
   01:42:31.881.31-Jan-2020 3902.01 2984.76 76.46 3.00  96.82 2938.77
   01:42:32.081.31-Jan-2020 3902.01 2984.74 76.46 3.00  97.02 2938.77
   01:42:32.281.31-Jan-2020 3902.01 2984.74 76.46 3.00  97.22 2938.77
   01:42:32.481.31-Jan-2020 3902.01 2984.62 76.45 3.00  97.42 2938.77
   01:42:32.681.31-Jan-2020 3902.01 2984.79 76.45 3.00  97.62 2938.77
   01:42:32.881.31-Jan-2020 3902.01 2984.81 76.45 3.00  97.82 2938.77
   01:42:33.081.31-Jan-2020 3902.01 2984.79 76.45 3.00  98.02 2938.77
   01:42:33.281.31-Jan-2020 3902.01 2984.79 76.45 3.00  98.22 2938.77
   01:42:33.481.31-Jan-2020 3902.01 2984.74 76.45 3.00  98.42 2938.77
   01:42:33.681.31-Jan-2020 3902.01 2984.75 76.45 3.00  98.62 2938.77
   01:42:33.881.31-Jan-2020 3902.01 2984.75 76.45 3.00  98.82 2938.77
   01:42:34.081.31-Jan-2020 3902.01 2984.75 76.45 3.00  99.02 2938.77
   01:42:34.281.31-Jan-2020 3902.01 2984.75 76.45 3.00  99.22 2938.77
   01:42:34.481.31-Jan-2020 3902.01 2984.77 76.45 3.00  99.42 2938.77
   01:42:34.681.31-Jan-2020 3902.01 2984.72 76.45 3.00  99.62 2938.77
   01:42:34.881.31-Jan-2020 3902.01 2984.73 76.45 3.00  99.82 2938.77
   01:42:35.082.31-Jan-2020 3902.01 2984.80 76.45 3.00 100.02 2938.77
   01:42:35.282.31-Jan-2020 3902.01 2984.80 76.45 3.00 100.22 2938.77
   01:42:35.482.31-Jan-2020 3902.01 2984.88 76.44 3.00 100.42 2938.77
   01:42:35.682.31-Jan-2020 3902.01 2984.38 76.44 3.00 100.62 2938.77
   01:42:35.882.31-Jan-2020 3902.01 2984.79 76.44 3.00 100.82 2938.77
   01:42:36.082.31-Jan-2020 3902.01 2984.74 76.44 3.00 101.02 2938.77
   01:42:36.282.31-Jan-2020 3902.01 2984.74 76.44 3.00 101.22 2938.77
   01:42:36.482.31-Jan-2020 3902.01 2984.90 76.44 3.00 101.42 2938.77
   01:42:36.682.31-Jan-2020 3902.01 2984.37 76.44 3.00 101.62 2938.77
   01:42:36.882.31-Jan-2020 3902.01 2984.82 76.44 3.00 101.82 2938.77
   01:42:37.082.31-Jan-2020 3902.01 2984.76 76.44 3.00 102.02 2938.77
   01:42:37.282.31-Jan-2020 3902.01 2984.76 76.44 3.00 102.22 2938.77
   01:42:37.482.31-Jan-2020 3902.01 2984.77 76.44 3.00 102.42 2938.77
   01:42:37.682.31-Jan-2020 3902.01 2984.77 76.44 3.00 102.62 2938.77
   01:42:37.882.31-Jan-2020 3902.01 2984.71 76.44 3.00 102.82 2938.77
   01:42:38.082.31-Jan-2020 3902.01 2984.44 76.44 3.00 103.02 2938.77
   01:42:38.282.31-Jan-2020 3902.01 2984.44 76.44 3.00 103.22 2938.77
   01:42:38.482.31-Jan-2020 3902.01 2984.83 76.43 3.00 103.42 2938.77
   01:42:38.682.31-Jan-2020 3902.01 2984.73 76.43 3.00 103.62 2938.77
   01:42:38.882.31-Jan-2020 3902.01 2984.42 76.43 3.00 103.82 2938.77
   01:42:39.082.31-Jan-2020 3902.01 2984.77 76.43 3.00 104.02 2938.77
   01:42:39.282.31-Jan-2020 3902.01 2984.77 76.43 3.00 104.22 2938.77
   01:42:39.482.31-Jan-2020 3902.01 2984.75 76.43 3.00 104.42 2938.77
   01:42:39.682.31-Jan-2020 3902.01 2984.75 76.43 3.00 104.62 2938.77
   01:42:39.882.31-Jan-2020 3902.01 2984.68 76.43 3.00 104.82 2938.77
   01:42:40.082.31-Jan-2020 3902.01 2984.71 76.43 3.00 105.02 2938.77
   01:42:40.282.31-Jan-2020 3902.01 2984.71 76.43 3.00 105.22 2938.77
   01:42:40.482.31-Jan-2020 3902.01 2984.80 76.43 3.00 105.42 2938.77
   01:42:40.683.31-Jan-2020 3902.01 2984.72 76.43 3.00 105.62 2938.77
   01:42:40.883.31-Jan-2020 3902.01 2984.77 76.43 3.00 105.82 2938.77
   01:42:41.083.31-Jan-2020 3902.01 2984.78 76.43 3.00 106.02 2938.77
   01:42:41.283.31-Jan-2020 3902.01 2984.78 76.43 3.00 106.22 2938.77
   01:42:41.483.31-Jan-2020 3902.01 2984.64 76.42 3.00 106.42 2938.77
   01:42:41.683.31-Jan-2020 3902.01 2984.71 76.42 3.00 106.62 2938.77
   01:42:41.883.31-Jan-2020 3902.01 2984.69 76.42 3.00 106.82 2938.77
   01:42:42.083.31-Jan-2020 3902.01 2984.71 76.42 3.00 107.02 2938.77
   01:42:42.283.31-Jan-2020 3902.01 2984.71 76.42 3.00 107.22 2938.77
   01:42:42.483.31-Jan-2020 3902.01 2984.67 76.42 3.00 107.42 2938.77
   01:42:42.683.31-Jan-2020 3902.01 2984.62 76.42 3.00 107.62 2938.77
   01:42:42.883.31-Jan-2020 3902.01 2984.64 76.42 3.00 107.82 2938.77
   01:42:43.083.31-Jan-2020 3902.01 2984.69 76.42 3.00 108.02 2938.77
   01:42:43.283.31-Jan-2020 3902.01 2984.69 76.42 3.00 108.22 2938.77
   01:42:43.483.31-Jan-2020 3902.01 2984.75 76.42 3.00 108.42 2938.77
   01:42:43.683.31-Jan-2020 3902.01 2984.67 76.42 3.00 108.62 2938.77
   01:42:43.883.31-Jan-2020 3902.01 2984.72 76.42 3.00 108.82 2938.77
   01:42:44.083.31-Jan-2020 3902.01 2984.32 76.42 3.00 109.02 2938.77
   01:42:44.283.31-Jan-2020 3902.01 2984.32 76.42 3.00 109.22 2938.77
   01:42:44.483.31-Jan-2020 3902.01 2984.69 76.41 3.00 109.42 2938.77
   01:42:44.683.31-Jan-2020 3902.01 2984.70 76.41 3.00 109.62 2938.77
   01:42:44.883.31-Jan-2020 3902.01 2984.73 76.41 3.00 109.82 2938.77
   01:42:45.083.31-Jan-2020 3902.01 2984.66 76.41 3.00 110.02 2938.77
   01:42:45.283.31-Jan-2020 3902.01 2984.66 76.41 3.00 110.22 2938.77
   01:42:45.483.31-Jan-2020 3902.01 2984.59 76.41 3.00 110.42 2938.77
   01:42:45.683.31-Jan-2020 3902.01 2984.71 76.41 3.00 110.62 2938.77
   01:42:45.883.31-Jan-2020 3902.01 2984.63 76.41 3.00 110.82 2938.77
   01:42:46.084.31-Jan-2020 3902.01 2984.68 76.41 3.00 111.02 2938.77
   01:42:46.284.31-Jan-2020 3902.01 2984.68 76.41 3.00 111.22 2938.77
   01:42:46.484.31-Jan-2020 3902.01 2984.65 76.41 3.00 111.42 2938.77
   01:42:46.684.31-Jan-2020 3902.01 2984.63 76.41 3.00 111.62 2938.77
   01:42:46.884.31-Jan-2020 3902.01 2984.73 76.41 3.00 111.82 2938.77
   01:42:47.084.31-Jan-2020 3902.01 2984.70 76.41 3.00 112.02 2938.77
   01:42:47.284.31-Jan-2020 3902.01 2984.70 76.41 3.00 112.22 2938.77
   01:42:47.484.31-Jan-2020 3902.01 2984.31 76.41 3.00 112.42 2938.77
   01:42:47.684.31-Jan-2020 3902.01 2984.68 76.40 3.00 112.62 2938.77
   01:42:47.884.31-Jan-2020 3902.01 2984.62 76.40 3.00 112.82 2938.77
   01:42:48.084.31-Jan-2020 3902.01 2984.66 76.40 3.00 113.02 2938.77
   01:42:48.284.31-Jan-2020 3902.01 2984.66 76.40 3.00 113.22 2938.77
   01:42:48.484.31-Jan-2020 3902.01 2984.73 76.40 3.00 113.42 2938.77
   01:42:48.684.31-Jan-2020 3902.01 2984.71 76.40 3.00 113.62 2938.77
   01:42:48.884.31-Jan-2020 3902.01 2984.72 76.40 3.00 113.82 2938.77
   01:42:49.084.31-Jan-2020 3902.01 2984.64 76.40 3.00 114.02 2938.77
   01:42:49.284.31-Jan-2020 3902.01 2984.64 76.40 3.00 114.22 2938.77
   01:42:49.484.31-Jan-2020 3902.01 2984.66 76.40 3.00 114.42 2938.77
   01:42:49.684.31-Jan-2020 3902.01 2984.75 76.40 3.00 114.62 2938.77
   01:42:49.884.31-Jan-2020 3902.01 2984.23 76.40 3.00 114.82 2938.77
