~Version Information
 VERS.                  2.0:   CWLS log ASCII Standard -VERSION 2.0
 WRAP.                   NO:   One line per depth step
~Well Information Block
#MNEM.UNIT     VALUE/NAME     DESCRIPTION
#---------     -----------    ---------------------------
 STRT.S             21:06:33 30-Jan-20: START TIME 21:06:33 30-Jan-20
 STOP.S             21:13:02 30-Jan-20: STOP TIME  21:13:02 30-Jan-20
 STEP.S                   0.00: STEP TIME
 NULL.                 -999.25: NULL VALUE
 DFWT.                        :  DIST FWL TEXT
 DFST.                        :  DIST FSL TEXT
 DMF .             Drill Floor:  DRILL MEAS FROM
 STIM.      09.30.00 26-Dec-19:  START TIME
 DATE.      08.00.00 20-Jan-20:  END TIME
 SPUD.               23-Nov-19:  SPUD DATE
 NREF.                    Grid:  NORTH REFERENCE
 HPTY.       Minimum Curvature:  HOLE POS TYPE
 DMOD.             Drill Model:  DRILL MOD DESC
 SVYD.                  Survey:  SURVEY DESC
 ILTD.               Lithology:  INTERP LTH DESC
 FTOP.          Formation Tops:  FORM TOPS DESC
 SON .        AZ-XX-0906192647:  JOB NUMBER
 WTYP.                Deviated:  WELL TYPE
 COMP.     BP Exploration (Caspian Sea) Ltd:  COMPANY
 BASE.              Azerbaijan:  LOGGING EQUIPMENT BASE LOCATION
 REGN.                 Eurasia:  REGION
 FLD .                     ACG:  FIELD NAME
 SRVC.              KCA Deutag:  CONTRACTOR
 MWDS.                    Baku:  MWD SHOP
 WELL.     A10 (Slot 20) - SCP:  WELL NAME
 JOBN.        AZ-XX-0906192647:  JOB TICKET NUMB
 RIG .                 Chirag1:  RIG NAME
 DCON.     Halliburton Sperry Drilling:  DIRECTNL CONTR
 UNIT.                     N/A:  LOGGING EQUIPMENT ID
 PDAT.          Mean Sea Level:  PERMANENT DATUM
 MDS .        Operator Entered:  MAG DATA SOURCE
 CTRY.              Azerbaijan:  COUNTRY NAME
 UWI .            /AZE00000090:  UNIQUE WELL IDENTIFIER
 API .            /AZE00000090:  API NUMBER
 CNTY.                        :  COUNTY
 PROV.                        :  PROVINCE
 STAT.                        :  STATE
 LOC .                        :  LOCATION
 LMF .             Drill Floor:  LOG MEASURED FROM
 TVDS.m                  36.60:  TVDSS CORRECTN
 LATI.deg                40.08:  LATITUDE
 LONG.deg                51.24:  LONGITUDE
 WHNS.m                  -7.94:  WELL HEAD N/S
 WHEW.m                   1.56:  WELL HEAD E/W
 UTMX.m              520429.26:  UTM X
 UTMY.m             4438973.87:  UTM Y
 DFWL.m                   0.00:  DISTANCE FWL
 DFSL.m                   0.00:  DISTANCE FSL
 SDEP.m                1455.00:  START DEPTH
 TDD .m                4047.51:  TOTAL DEPTH (DRILLER)
 VSDR.deg               112.75:  VERT SEC DIRECT
 GVFD.g                   1.00:  GRAVITY FIELD
 MFLD.nT              50261.00:  MAGNETIC FIELD
 MDIP.deg                59.52:  MAGNETIC DIP
 MDEC.deg                 6.42:  MAGNETIC DECL
 GRDC.deg                 0.17:  GRID CORRECTION
 AZTC.deg                 6.25:  AZM TOTAL CORR
 EPD .m                   0.00:  ELEVATION
 EGL .m                   0.00:  GROUND ELEVATION
 WDMS.m                 121.00:  WD ELEV
 APD .m                  36.60:  DEPTH ABOVE PD
 AGAP.m                  36.60:  AIR GAP
 VSEW.m                   1.56:  VERT SEC E/W
 VSNS.m                  -7.94:  VERT SEC N/S
 DEP .m                1140.01:  DEPTH
 EKB .m                  36.60:  KB ELEVATION
 EDF .m                  36.60:  DF ELEVATION
 TDL .m                 169.50:  TOTAL DEPTH (LOGGER)
 CSGD.m                3875.01:  CASING BOTTOM (DRILLER)
 CSGL.m                3875.01:  CASING BOTTOM (LOGGER)
 CSGS.in                  7.63:  CASING SIZE
 CSGW.lbpf               23.50:  CASING WEIGHT
 VSC .                       0:  VS TO CLOSURE
 MAGU.                 1849206:  MAGUTM CHECKSUM
~Parameter Information Block
#MNEM.UNIT       Value        Description
#---------     -----------    ---------------------------
 AV  .mps                 1.90:  Ann Velocity 
 AVMX.mps                 2.54:  Max Ann Veloc 
 AZIF.deg               137.03:  Azm, Final 
 BHAT.        Rotary Steerable:  BHA Type 
 BREV.rev             23610.00:  Rev Bit Total 
 BROT.°/30m               0.80:  Build Rotating 
 BS  .in                  6.50:  Bit Size 
 BTPL.psig              110.00:  Bit Press Loss 
 CABU.                     Yes:  Customer Abuse 
 TCS .hr                 70.51:  Time Ciculation Ended 
 CV  .mps                 1.41:  Crit Velocity 
 CVMX.mps                 1.42:  Max Crit Veloc 
 DD1 .         Intigam Rahimov:  Direct Drillr 1 
 DD2 .          Rashad Gojayev:  Direct Drillr 2 
 DDSV.               Geo-Pilot:  DD Service 
 DEFF.%                 100.00:  % Det Eff 
 DLRX.°/30m               1.44:  Dogleg Rot Max 
 DLSO.°/30m               0.00:  Dogleg Oriented 
 DLSX.°/30m               0.00:  Dogleg Str Max 
 DRET.      03.05.00 01-Feb-20:  Drill End Time 
 DRST.      15.50.00 28-Jan-20:  Drill Start Tim 
 DTIM.hr                 24.70:  Time Drilling 
 EDEP.m                4047.51:  End Depth 
 ENG1.           Eldar Hajiyev:  Engineer 1 
 ENG2.          Rasim Hashimov:  Engineer 2 
 ENG3.          Rustam Safarov:  Engineer 3 
 ETIM.      22.00.00 01-Feb-20:  End Time 
 FLOI.gpm               370.00:  Flow In 
 FLON.gpm               300.00:  Flow In Min 
 FLOS.cptm                0.00:  Fluid Loss 
 FLOX.gpm               400.00:  Flow In Max 
 FTRO.       Formation Presure:  FTWD Run Obj 
 HFLO.                      No:  High Flow 
 HPRE.                      No:  High Pressure 
 HTEM.                      No:  High Temp 
 HYDO.m                   2.50:  Hydro Offset 
 IFIN.deg                39.54:  Inc, Final 
 IMAX.deg                41.14:  Inc Max 
 IMIN.deg                39.81:  Inc Min 
 IMND.m                4005.21:  Inc Min Depth 
 IMXD.m                3948.42:  Inc Max Depth 
 JARR.                      No:  Jarring 
 LETM.      03.05.00 01-Feb-20:  Log End Time 
 LOST.hr                     0:  Lost Rig Time 
 LSTM.      15.50.00 28-Jan-20:  Log Start Time 
 MDCL.ppm             37500.00:  Mud Chlorides 
 MDES.     Inversion Oil/Synthetic:  Mud Desc 
 DFD .sg                  1.32:  Mud Density 
 MDMN.sg                  1.32:  Dens Mud Min 
 MDMX.sg                  1.32:  Dens Mud Max 
 MOIL.                      55:  Run Mud Oil % 
 MOWR.                   70:30:  Run Mud OWR 
 MSND.                       0:  Run Mud Sand % 
 MSOL.                      17:  Run Mud Solids% 
 DFV .spqt               80.00:  Mud Viscosity 
 MWOD.in                  4.75:  MWD Tool OD 
 MWSI.                      No:  Serv Intrp, MWD 
 OTIM.hr                121.28:  Time Operating 
 PCON.           Look Like New:  Pad Condition 
 PMAX.psia             6171.00:  Press Op, Max 
 PV  .cP                 30.00:  Mud PV 
 RUN .                     300:  Run Number 
 ROPA.m/hr                5.45:  ROP Avg 
 ROPN.m/hr                3.00:  ROP Min 
 ROPX.m/hr               15.00:  ROP Max 
 RPMA.rpm               130.00:  RPM Surface Avg 
 RPMN.rpm                80.00:  RPM Surface Min 
 RPMX.rpm               140.00:  RPM Surface Max 
 RRUN.                     300:  Rig Run Number 
 RTIM.hr                 13.50:  Time Reaming 
 SAZI.deg               133.93:  Azm, Start 
 SDEP.m                3878.01:  Start Depth 
 SIDD.                      No:  Serv Intrp, DD 
 SINC.deg                40.28:  Inc, Start 
 SPPA.psig             4983.00:  SPP Avg 
 SPPN.psig             4370.00:  SPP Min 
 SPPX.psig             5300.00:  SPP Max 
 STIM.      18.33.36 27-Jan-20:  Start Time 
 SVCS.                 DD, MWD:  Services 
 SVER.                    9.20:  Sperry Version 
 TDAT.m                 169.50:  Tot Depth Attmp 
 TDDF.                      No:  Trip for DD 
 TDLG.m                 169.50:  Tot Depth Loggd 
 TFF .                      No:  Trip for Fail 
 TQAA.f-kp               13.25:  Torque Abs Avg 
 TQAN.f-kp               12.00:  Torque Abs Min 
 TQAX.f-kp               14.00:  Torque Abs Max 
 TRRT.°/30m               0.70:  Turn Rotating 
 MRT .                     ADR:  Maximum Recorded Temperature 
 TTMX.degC               92.16:  Max Tool Temp 
 VS01.       AZ90598764G12V7D4:  Virtual Str1 SN 
 VS02.         AZ90571342R12C4:  Virtual Str2 SN 
 VS03.      AZ90580010N2L2X1C4:  Virtual Str3 SN 
 VS04.        AZ90522266O7X1C4:  Virtual Str4 SN 
 VS05.           AZ90598768F11:  Virtual Str5 SN 
 VS06.     AZ90580006XZ1W1X1C4:  Virtual Str6 SN 
 WBMN.klb                 8.00:  WOB Min 
 WITN.            Peter Wilson:  Customer Rep 
 WOBA.klb                 9.88:  WOB Avg 
 WOBX.klb                10.00:  WOB Max 
 YP  .lhf2               27.00:  Yield Point 
~Curve Information Block
#MNEM.UNIT                 API CODE     Curve Description
#---------               -----------    ---------------------------
 TIME.HHMMSS            00 000 000 000:  GT Time & Date
 GTDEPTH.m              00 000 000 000:  GT Depth
 GTPQH.psia             00 000 000 000:  GT HR Quartz Pressure
 GTTQ.degC              00 000 000 000:  GT Quartz Temperature
 GTTN.NONE              00 000 000 000:  GT Test Number
 GTET.sec               00 000 000 000:  GT Elapsed Test Time
 GTTVD.m                00 000 000 000:  GT True Vertical Depth
#Other Information
#
#WARRANTY: Halliburton will use its best efforts to furnish customers with 
#accurate information and interpretations that are part of, and incident to, the services 
#provided.  However, Halliburton cannot and does not warrant the accuracy 
#or correctness of such information and interpretations.  Under no circumstances should any 
#such information or interpretation be relied upon as the sole basis for any drilling, 
#completion, production, or financial decision or any procedure involving any risk to the 
#safety of any drilling venture, drilling rig or its crew or any other third party.  The 
#Customer has full responsibility for all drilling, completion and production operation.  
#Halliburton makes no representations or warranties, either expressed or 
#implied, including, but not limited to, the implied warranties of merchantability or fitness 
#for a particular purpose, with respect to the services rendered.  In no event will 
#Halliburton be liable for failure to obtain any particular results or for 
#any damages, including, but not limited to, indirect, special or consequential damages, 
#resulting from the use of any information or interpretation provided by Halliburton.
#
~A           TIME           GTDEPTH  GTPQH  GTTQ  GTTN  GTET   GTTVD  
# ...
   21:12:18.070.30-Jan-2020 3895.01 2980.88 72.34 2.00 345.06 2933.47
   21:12:18.270.30-Jan-2020 3895.01 2980.88 72.34 2.00 345.27 2933.47
   21:12:18.470.30-Jan-2020 3895.01 2980.89 72.34 2.00 345.47 2933.47
   21:12:18.670.30-Jan-2020 3895.01 2980.88 72.34 2.00 345.67 2933.47
   21:12:18.870.30-Jan-2020 3895.01 2980.93 72.34 2.00 345.87 2933.47
   21:12:19.070.30-Jan-2020 3895.01 2981.02 72.34 2.00 346.07 2933.47
   21:12:19.270.30-Jan-2020 3895.01 2981.02 72.34 2.00 346.27 2933.47
   21:12:19.470.30-Jan-2020 3895.01 2980.96 72.34 2.00 346.47 2933.47
   21:12:19.670.30-Jan-2020 3895.01 2981.26 72.33 2.00 346.67 2933.47
   21:12:19.870.30-Jan-2020 3895.01 2982.65 72.33 2.00 346.87 2933.47
   21:12:20.070.30-Jan-2020 3895.01 3114.20 72.33 2.00 347.07 2933.47
   21:12:20.270.30-Jan-2020 3895.01 3114.20 72.33 2.00 347.27 2933.47
   21:12:20.470.30-Jan-2020 3895.01 4830.41 72.33 2.00 347.47 2933.47
   21:12:20.670.30-Jan-2020 3895.01 5858.98 72.33 2.00 347.67 2933.47
   21:12:20.870.30-Jan-2020 3895.01 5859.13 72.33 2.00 347.87 2933.47
   21:12:21.070.30-Jan-2020 3895.01 5859.17 72.33 2.00 348.07 2933.47
   21:12:21.270.30-Jan-2020 3895.01 5859.17 72.33 2.00 348.27 2933.47
   21:12:21.470.30-Jan-2020 3895.01 5860.19 72.33 2.00 348.47 2933.47
   21:12:21.670.30-Jan-2020 3895.01 5850.89 72.33 2.00 348.67 2933.47
   21:12:21.870.30-Jan-2020 3895.01 5861.14 72.33 2.00 348.87 2933.47
   21:12:22.070.30-Jan-2020 3895.01 5861.44 72.33 2.00 349.07 2933.47
   21:12:22.270.30-Jan-2020 3895.01 5861.44 72.33 2.00 349.27 2933.47
   21:12:22.470.30-Jan-2020 3895.01 5864.28 72.33 2.00 349.47 2933.47
   21:12:22.670.30-Jan-2020 3895.01 5852.40 72.33 2.00 349.67 2933.47
   21:12:22.870.30-Jan-2020 3895.01 5864.41 72.33 2.00 349.87 2933.47
   21:12:23.071.30-Jan-2020 3895.01 5863.80 72.33 2.00 350.07 2933.47
   21:12:23.271.30-Jan-2020 3895.01 5863.80 72.33 2.00 350.27 2933.47
   21:12:23.471.30-Jan-2020 3895.01 5859.81 72.33 2.00 350.47 2933.47
   21:12:23.671.30-Jan-2020 3895.01 5859.67 72.33 2.00 350.67 2933.47
   21:12:23.871.30-Jan-2020 3895.01 5864.79 72.33 2.00 350.87 2933.47
   21:12:24.071.30-Jan-2020 3895.01 5865.19 72.33 2.00 351.07 2933.47
   21:12:24.271.30-Jan-2020 3895.01 5865.19 72.33 2.00 351.27 2933.47
   21:12:24.471.30-Jan-2020 3895.01 5866.03 72.33 2.00 351.47 2933.47
   21:12:24.671.30-Jan-2020 3895.01 5868.51 72.33 2.00 351.67 2933.47
   21:12:24.871.30-Jan-2020 3895.01 5867.74 72.33 2.00 351.87 2933.47
   21:12:25.071.30-Jan-2020 3895.01 5866.37 72.34 2.00 352.07 2933.47
   21:12:25.271.30-Jan-2020 3895.01 5866.37 72.34 2.00 352.27 2933.47
   21:12:25.471.30-Jan-2020 3895.01 5867.38 72.34 2.00 352.47 2933.47
   21:12:25.671.30-Jan-2020 3895.01 5867.69 72.34 2.00 352.67 2933.47
   21:12:25.871.30-Jan-2020 3895.01 5865.99 72.34 2.00 352.87 2933.47
   21:12:26.071.30-Jan-2020 3895.01 5865.81 72.34 2.00 353.07 2933.47
   21:12:26.271.30-Jan-2020 3895.01 5865.81 72.34 2.00 353.27 2933.47
   21:12:26.471.30-Jan-2020 3895.01 5867.81 72.34 2.00 353.47 2933.47
   21:12:26.671.30-Jan-2020 3895.01 5867.06 72.34 2.00 353.67 2933.47
   21:12:26.871.30-Jan-2020 3895.01 5865.19 72.34 2.00 353.87 2933.47
   21:12:27.071.30-Jan-2020 3895.01 5866.02 72.34 2.00 354.07 2933.47
   21:12:27.271.30-Jan-2020 3895.01 5866.02 72.34 2.00 354.27 2933.47
   21:12:27.471.30-Jan-2020 3895.01 5865.94 72.34 2.00 354.47 2933.47
   21:12:27.671.30-Jan-2020 3895.01 5865.80 72.34 2.00 354.67 2933.47
   21:12:27.871.30-Jan-2020 3895.01 5866.04 72.34 2.00 354.87 2933.47
   21:12:28.071.30-Jan-2020 3895.01 5866.43 72.34 2.00 355.07 2933.47
   21:12:28.271.30-Jan-2020 3895.01 5866.43 72.34 2.00 355.27 2933.47
   21:12:28.472.30-Jan-2020 3895.01 5866.89 72.34 2.00 355.47 2933.47
   21:12:28.672.30-Jan-2020 3895.01 5868.06 72.34 2.00 355.67 2933.47
   21:12:28.872.30-Jan-2020 3895.01 5867.05 72.34 2.00 355.87 2933.47
   21:12:29.072.30-Jan-2020 3895.01 5866.52 72.34 2.00 356.07 2933.47
   21:12:29.272.30-Jan-2020 3895.01 5866.52 72.34 2.00 356.27 2933.47
   21:12:29.472.30-Jan-2020 3895.01 5866.23 72.34 2.00 356.47 2933.47
   21:12:29.672.30-Jan-2020 3895.01 5866.60 72.34 2.00 356.67 2933.47
   21:12:29.872.30-Jan-2020 3895.01 5866.76 72.34 2.00 356.87 2933.47
   21:12:30.072.30-Jan-2020 3895.01 5866.99 72.34 2.00 357.07 2933.47
   21:12:30.272.30-Jan-2020 3895.01 5866.99 72.34 2.00 357.27 2933.47
   21:12:30.472.30-Jan-2020 3895.01 5862.65 72.34 2.00 357.47 2933.47
   21:12:30.672.30-Jan-2020 3895.01 5862.45 72.34 2.00 357.67 2933.47
   21:12:30.872.30-Jan-2020 3895.01 5867.52 72.34 2.00 357.87 2933.47
   21:12:31.072.30-Jan-2020 3895.01 5866.97 72.34 2.00 358.07 2933.47
   21:12:31.272.30-Jan-2020 3895.01 5866.97 72.34 2.00 358.27 2933.47
   21:12:31.472.30-Jan-2020 3895.01 5861.64 72.34 2.00 358.47 2933.47
   21:12:31.672.30-Jan-2020 3895.01 5862.67 72.34 2.00 358.67 2933.47
   21:12:31.872.30-Jan-2020 3895.01 5867.81 72.34 2.00 358.87 2933.47
   21:12:32.072.30-Jan-2020 3895.01 5867.76 72.34 2.00 359.07 2933.47
   21:12:32.272.30-Jan-2020 3895.01 5867.76 72.34 2.00 359.27 2933.47
   21:12:32.472.30-Jan-2020 3895.01 5867.62 72.34 2.00 359.47 2933.47
   21:12:32.672.30-Jan-2020 3895.01 5866.89 72.34 2.00 359.67 2933.47
   21:12:32.872.30-Jan-2020 3895.01 5860.60 72.34 2.00 359.87 2933.47
   21:12:33.072.30-Jan-2020 3895.01 5861.15 72.34 2.00 360.07 2933.47
   21:12:33.272.30-Jan-2020 3895.01 5861.15 72.34 2.00 360.27 2933.47
   21:12:33.472.30-Jan-2020 3895.01 5868.20 72.34 2.00 360.47 2933.47
   21:12:33.673.30-Jan-2020 3895.01 5867.56 72.34 2.00 360.67 2933.47
   21:12:33.873.30-Jan-2020 3895.01 5854.75 72.34 2.00 360.87 2933.47
   21:12:34.073.30-Jan-2020 3895.01 5866.21 72.34 2.00 361.07 2933.47
   21:12:34.273.30-Jan-2020 3895.01 5866.21 72.34 2.00 361.27 2933.47
   21:12:34.473.30-Jan-2020 3895.01 5868.22 72.34 2.00 361.47 2933.47
   21:12:34.673.30-Jan-2020 3895.01 5856.80 72.34 2.00 361.67 2933.47
   21:12:34.873.30-Jan-2020 3895.01 5865.63 72.34 2.00 361.87 2933.47
   21:12:35.073.30-Jan-2020 3895.01 5865.20 72.34 2.00 362.07 2933.47
   21:12:35.273.30-Jan-2020 3895.01 5865.20 72.34 2.00 362.27 2933.47
   21:12:35.473.30-Jan-2020 3895.01 5866.26 72.34 2.00 362.47 2933.47
   21:12:35.673.30-Jan-2020 3895.01 5867.62 72.34 2.00 362.67 2933.47
   21:12:35.873.30-Jan-2020 3895.01 5869.34 72.34 2.00 362.87 2933.47
   21:12:36.073.30-Jan-2020 3895.01 5868.45 72.34 2.00 363.07 2933.47
   21:12:36.273.30-Jan-2020 3895.01 5868.45 72.34 2.00 363.27 2933.47
   21:12:36.473.30-Jan-2020 3895.01 5867.51 72.34 2.00 363.47 2933.47
   21:12:36.673.30-Jan-2020 3895.01 5867.71 72.34 2.00 363.67 2933.47
   21:12:36.873.30-Jan-2020 3895.01 5868.32 72.34 2.00 363.87 2933.47
   21:12:37.073.30-Jan-2020 3895.01 5866.08 72.34 2.00 364.07 2933.47
   21:12:37.273.30-Jan-2020 3895.01 5866.08 72.34 2.00 364.27 2933.47
   21:12:37.473.30-Jan-2020 3895.01 5867.56 72.34 2.00 364.47 2933.47
   21:12:37.673.30-Jan-2020 3895.01 5867.74 72.34 2.00 364.67 2933.47
   21:12:37.873.30-Jan-2020 3895.01 5867.01 72.34 2.00 364.87 2933.47
   21:12:38.073.30-Jan-2020 3895.01 5864.97 72.34 2.00 365.07 2933.47
   21:12:38.273.30-Jan-2020 3895.01 5864.97 72.34 2.00 365.27 2933.47
   21:12:38.473.30-Jan-2020 3895.01 5866.36 72.34 2.00 365.47 2933.47
   21:12:38.673.30-Jan-2020 3895.01 5865.31 72.34 2.00 365.67 2933.47
   21:12:38.873.30-Jan-2020 3895.01 5866.84 72.34 2.00 365.87 2933.47
   21:12:39.074.30-Jan-2020 3895.01 5866.40 72.34 2.00 366.07 2933.47
   21:12:39.274.30-Jan-2020 3895.01 5866.40 72.34 2.00 366.27 2933.47
   21:12:39.474.30-Jan-2020 3895.01 5867.04 72.34 2.00 366.47 2933.47
   21:12:39.674.30-Jan-2020 3895.01 5867.22 72.34 2.00 366.67 2933.47
   21:12:39.874.30-Jan-2020 3895.01 5867.90 72.34 2.00 366.87 2933.47
   21:12:40.074.30-Jan-2020 3895.01 5867.67 72.34 2.00 367.07 2933.47
   21:12:40.274.30-Jan-2020 3895.01 5867.67 72.34 2.00 367.27 2933.47
   21:12:40.474.30-Jan-2020 3895.01 5866.51 72.34 2.00 367.47 2933.47
   21:12:40.674.30-Jan-2020 3895.01 5866.53 72.33 2.00 367.67 2933.47
   21:12:40.874.30-Jan-2020 3895.01 5865.95 72.33 2.00 367.87 2933.47
