~Version Information
 VERS.                  2.0:   CWLS log ASCII Standard -VERSION 2.0
 WRAP.                   NO:   One line per depth step
~Well Information Block
#MNEM.UNIT     VALUE/NAME     DESCRIPTION
#---------     -----------    ---------------------------
 STRT.S             21:06:33 30-Jan-20: START TIME 21:06:33 30-Jan-20
 STOP.S             21:13:02 30-Jan-20: STOP TIME  21:13:02 30-Jan-20
 STEP.S                   0.00: STEP TIME
 NULL.                 -999.25: NULL VALUE
 DFWT.                        :  DIST FWL TEXT
 DFST.                        :  DIST FSL TEXT
 DMF .             Drill Floor:  DRILL MEAS FROM
 STIM.      09.30.00 26-Dec-19:  START TIME
 DATE.      08.00.00 20-Jan-20:  END TIME
 SPUD.               23-Nov-19:  SPUD DATE
 NREF.                    Grid:  NORTH REFERENCE
 HPTY.       Minimum Curvature:  HOLE POS TYPE
 DMOD.             Drill Model:  DRILL MOD DESC
 SVYD.                  Survey:  SURVEY DESC
 ILTD.               Lithology:  INTERP LTH DESC
 FTOP.          Formation Tops:  FORM TOPS DESC
 SON .        AZ-XX-0906192647:  JOB NUMBER
 WTYP.                Deviated:  WELL TYPE
 COMP.     BP Exploration (Caspian Sea) Ltd:  COMPANY
 BASE.              Azerbaijan:  LOGGING EQUIPMENT BASE LOCATION
 REGN.                 Eurasia:  REGION
 FLD .                     ACG:  FIELD NAME
 SRVC.              KCA Deutag:  CONTRACTOR
 MWDS.                    Baku:  MWD SHOP
 WELL.     A10 (Slot 20) - SCP:  WELL NAME
 JOBN.        AZ-XX-0906192647:  JOB TICKET NUMB
 RIG .                 Chirag1:  RIG NAME
 DCON.     Halliburton Sperry Drilling:  DIRECTNL CONTR
 UNIT.                     N/A:  LOGGING EQUIPMENT ID
 PDAT.          Mean Sea Level:  PERMANENT DATUM
 MDS .        Operator Entered:  MAG DATA SOURCE
 CTRY.              Azerbaijan:  COUNTRY NAME
 UWI .            /AZE00000090:  UNIQUE WELL IDENTIFIER
 API .            /AZE00000090:  API NUMBER
 CNTY.                        :  COUNTY
 PROV.                        :  PROVINCE
 STAT.                        :  STATE
 LOC .                        :  LOCATION
 LMF .             Drill Floor:  LOG MEASURED FROM
 TVDS.m                  36.60:  TVDSS CORRECTN
 LATI.deg                40.08:  LATITUDE
 LONG.deg                51.24:  LONGITUDE
 WHNS.m                  -7.94:  WELL HEAD N/S
 WHEW.m                   1.56:  WELL HEAD E/W
 UTMX.m              520429.26:  UTM X
 UTMY.m             4438973.87:  UTM Y
 DFWL.m                   0.00:  DISTANCE FWL
 DFSL.m                   0.00:  DISTANCE FSL
 SDEP.m                1455.00:  START DEPTH
 TDD .m                4047.51:  TOTAL DEPTH (DRILLER)
 VSDR.deg               112.75:  VERT SEC DIRECT
 GVFD.g                   1.00:  GRAVITY FIELD
 MFLD.nT              50261.00:  MAGNETIC FIELD
 MDIP.deg                59.52:  MAGNETIC DIP
 MDEC.deg                 6.42:  MAGNETIC DECL
 GRDC.deg                 0.17:  GRID CORRECTION
 AZTC.deg                 6.25:  AZM TOTAL CORR
 EPD .m                   0.00:  ELEVATION
 EGL .m                   0.00:  GROUND ELEVATION
 WDMS.m                 121.00:  WD ELEV
 APD .m                  36.60:  DEPTH ABOVE PD
 AGAP.m                  36.60:  AIR GAP
 VSEW.m                   1.56:  VERT SEC E/W
 VSNS.m                  -7.94:  VERT SEC N/S
 DEP .m                1140.01:  DEPTH
 EKB .m                  36.60:  KB ELEVATION
 EDF .m                  36.60:  DF ELEVATION
 TDL .m                 169.50:  TOTAL DEPTH (LOGGER)
 CSGD.m                3875.01:  CASING BOTTOM (DRILLER)
 CSGL.m                3875.01:  CASING BOTTOM (LOGGER)
 CSGS.in                  7.63:  CASING SIZE
 CSGW.lbpf               23.50:  CASING WEIGHT
 VSC .                       0:  VS TO CLOSURE
 MAGU.                 1849206:  MAGUTM CHECKSUM
~Parameter Information Block
#MNEM.UNIT       Value        Description
#---------     -----------    ---------------------------
 AV  .mps                 1.90:  Ann Velocity 
 AVMX.mps                 2.54:  Max Ann Veloc 
 AZIF.deg               137.03:  Azm, Final 
 BHAT.        Rotary Steerable:  BHA Type 
 BREV.rev             23610.00:  Rev Bit Total 
 BROT.°/30m               0.80:  Build Rotating 
 BS  .in                  6.50:  Bit Size 
 BTPL.psig              110.00:  Bit Press Loss 
 CABU.                     Yes:  Customer Abuse 
 TCS .hr                 70.51:  Time Ciculation Ended 
 CV  .mps                 1.41:  Crit Velocity 
 CVMX.mps                 1.42:  Max Crit Veloc 
 DD1 .         Intigam Rahimov:  Direct Drillr 1 
 DD2 .          Rashad Gojayev:  Direct Drillr 2 
 DDSV.               Geo-Pilot:  DD Service 
 DEFF.%                 100.00:  % Det Eff 
 DLRX.°/30m               1.44:  Dogleg Rot Max 
 DLSO.°/30m               0.00:  Dogleg Oriented 
 DLSX.°/30m               0.00:  Dogleg Str Max 
 DRET.      03.05.00 01-Feb-20:  Drill End Time 
 DRST.      15.50.00 28-Jan-20:  Drill Start Tim 
 DTIM.hr                 24.70:  Time Drilling 
 EDEP.m                4047.51:  End Depth 
 ENG1.           Eldar Hajiyev:  Engineer 1 
 ENG2.          Rasim Hashimov:  Engineer 2 
 ENG3.          Rustam Safarov:  Engineer 3 
 ETIM.      22.00.00 01-Feb-20:  End Time 
 FLOI.gpm               370.00:  Flow In 
 FLON.gpm               300.00:  Flow In Min 
 FLOS.cptm                0.00:  Fluid Loss 
 FLOX.gpm               400.00:  Flow In Max 
 FTRO.       Formation Presure:  FTWD Run Obj 
 HFLO.                      No:  High Flow 
 HPRE.                      No:  High Pressure 
 HTEM.                      No:  High Temp 
 HYDO.m                   2.50:  Hydro Offset 
 IFIN.deg                39.54:  Inc, Final 
 IMAX.deg                41.14:  Inc Max 
 IMIN.deg                39.81:  Inc Min 
 IMND.m                4005.21:  Inc Min Depth 
 IMXD.m                3948.42:  Inc Max Depth 
 JARR.                      No:  Jarring 
 LETM.      03.05.00 01-Feb-20:  Log End Time 
 LOST.hr                     0:  Lost Rig Time 
 LSTM.      15.50.00 28-Jan-20:  Log Start Time 
 MDCL.ppm             37500.00:  Mud Chlorides 
 MDES.     Inversion Oil/Synthetic:  Mud Desc 
 DFD .sg                  1.32:  Mud Density 
 MDMN.sg                  1.32:  Dens Mud Min 
 MDMX.sg                  1.32:  Dens Mud Max 
 MOIL.                      55:  Run Mud Oil % 
 MOWR.                   70:30:  Run Mud OWR 
 MSND.                       0:  Run Mud Sand % 
 MSOL.                      17:  Run Mud Solids% 
 DFV .spqt               80.00:  Mud Viscosity 
 MWOD.in                  4.75:  MWD Tool OD 
 MWSI.                      No:  Serv Intrp, MWD 
 OTIM.hr                121.28:  Time Operating 
 PCON.           Look Like New:  Pad Condition 
 PMAX.psia             6171.00:  Press Op, Max 
 PV  .cP                 30.00:  Mud PV 
 RUN .                     300:  Run Number 
 ROPA.m/hr                5.45:  ROP Avg 
 ROPN.m/hr                3.00:  ROP Min 
 ROPX.m/hr               15.00:  ROP Max 
 RPMA.rpm               130.00:  RPM Surface Avg 
 RPMN.rpm                80.00:  RPM Surface Min 
 RPMX.rpm               140.00:  RPM Surface Max 
 RRUN.                     300:  Rig Run Number 
 RTIM.hr                 13.50:  Time Reaming 
 SAZI.deg               133.93:  Azm, Start 
 SDEP.m                3878.01:  Start Depth 
 SIDD.                      No:  Serv Intrp, DD 
 SINC.deg                40.28:  Inc, Start 
 SPPA.psig             4983.00:  SPP Avg 
 SPPN.psig             4370.00:  SPP Min 
 SPPX.psig             5300.00:  SPP Max 
 STIM.      18.33.36 27-Jan-20:  Start Time 
 SVCS.                 DD, MWD:  Services 
 SVER.                    9.20:  Sperry Version 
 TDAT.m                 169.50:  Tot Depth Attmp 
 TDDF.                      No:  Trip for DD 
 TDLG.m                 169.50:  Tot Depth Loggd 
 TFF .                      No:  Trip for Fail 
 TQAA.f-kp               13.25:  Torque Abs Avg 
 TQAN.f-kp               12.00:  Torque Abs Min 
 TQAX.f-kp               14.00:  Torque Abs Max 
 TRRT.°/30m               0.70:  Turn Rotating 
 MRT .                     ADR:  Maximum Recorded Temperature 
 TTMX.degC               92.16:  Max Tool Temp 
 VS01.       AZ90598764G12V7D4:  Virtual Str1 SN 
 VS02.         AZ90571342R12C4:  Virtual Str2 SN 
 VS03.      AZ90580010N2L2X1C4:  Virtual Str3 SN 
 VS04.        AZ90522266O7X1C4:  Virtual Str4 SN 
 VS05.           AZ90598768F11:  Virtual Str5 SN 
 VS06.     AZ90580006XZ1W1X1C4:  Virtual Str6 SN 
 WBMN.klb                 8.00:  WOB Min 
 WITN.            Peter Wilson:  Customer Rep 
 WOBA.klb                 9.88:  WOB Avg 
 WOBX.klb                10.00:  WOB Max 
 YP  .lhf2               27.00:  Yield Point 
~Curve Information Block
#MNEM.UNIT                 API CODE     Curve Description
#---------               -----------    ---------------------------
 TIME.HHMMSS            00 000 000 000:  GT Time & Date
 GTDEPTH.m              00 000 000 000:  GT Depth
 GTPQH.psia             00 000 000 000:  GT HR Quartz Pressure
 GTTQ.degC              00 000 000 000:  GT Quartz Temperature
 GTTN.NONE              00 000 000 000:  GT Test Number
 GTET.sec               00 000 000 000:  GT Elapsed Test Time
 GTTVD.m                00 000 000 000:  GT True Vertical Depth
#Other Information
#
#WARRANTY: Halliburton will use its best efforts to furnish customers with 
#accurate information and interpretations that are part of, and incident to, the services 
#provided.  However, Halliburton cannot and does not warrant the accuracy 
#or correctness of such information and interpretations.  Under no circumstances should any 
#such information or interpretation be relied upon as the sole basis for any drilling, 
#completion, production, or financial decision or any procedure involving any risk to the 
#safety of any drilling venture, drilling rig or its crew or any other third party.  The 
#Customer has full responsibility for all drilling, completion and production operation.  
#Halliburton makes no representations or warranties, either expressed or 
#implied, including, but not limited to, the implied warranties of merchantability or fitness 
#for a particular purpose, with respect to the services rendered.  In no event will 
#Halliburton be liable for failure to obtain any particular results or for 
#any damages, including, but not limited to, indirect, special or consequential damages, 
#resulting from the use of any information or interpretation provided by Halliburton.
#
~A           TIME           GTDEPTH  GTPQH  GTTQ  GTTN  GTET   GTTVD  
# ...
   21:09:14.035.30-Jan-2020 3895.01 2981.01 72.74 2.00 161.03 2933.47
   21:09:14.235.30-Jan-2020 3895.01 2981.01 72.74 2.00 161.23 2933.47
   21:09:14.435.30-Jan-2020 3895.01 2980.99 72.74 2.00 161.43 2933.47
   21:09:14.635.30-Jan-2020 3895.01 2980.98 72.74 2.00 161.63 2933.47
   21:09:14.835.30-Jan-2020 3895.01 2980.91 72.74 2.00 161.83 2933.47
   21:09:15.035.30-Jan-2020 3895.01 2980.83 72.74 2.00 162.03 2933.47
   21:09:15.235.30-Jan-2020 3895.01 2980.83 72.74 2.00 162.23 2933.47
   21:09:15.435.30-Jan-2020 3895.01 2980.94 72.74 2.00 162.43 2933.47
   21:09:15.635.30-Jan-2020 3895.01 2980.88 72.74 2.00 162.63 2933.47
   21:09:15.835.30-Jan-2020 3895.01 2980.78 72.74 2.00 162.83 2933.47
   21:09:16.035.30-Jan-2020 3895.01 2980.84 72.74 2.00 163.03 2933.47
   21:09:16.235.30-Jan-2020 3895.01 2980.84 72.74 2.00 163.23 2933.47
   21:09:16.435.30-Jan-2020 3895.01 2980.81 72.74 2.00 163.43 2933.47
   21:09:16.635.30-Jan-2020 3895.01 2980.98 72.74 2.00 163.63 2933.47
   21:09:16.835.30-Jan-2020 3895.01 2980.90 72.74 2.00 163.83 2933.47
   21:09:17.035.30-Jan-2020 3895.01 2980.85 72.74 2.00 164.03 2933.47
   21:09:17.236.30-Jan-2020 3895.01 2980.85 72.74 2.00 164.23 2933.47
   21:09:17.436.30-Jan-2020 3895.01 2980.73 72.74 2.00 164.43 2933.47
   21:09:17.636.30-Jan-2020 3895.01 2980.68 72.73 2.00 164.63 2933.47
   21:09:17.836.30-Jan-2020 3895.01 2981.09 72.73 2.00 164.83 2933.47
   21:09:18.036.30-Jan-2020 3895.01 2981.02 72.73 2.00 165.03 2933.47
   21:09:18.236.30-Jan-2020 3895.01 2981.02 72.73 2.00 165.23 2933.47
   21:09:18.436.30-Jan-2020 3895.01 2981.00 72.73 2.00 165.43 2933.47
   21:09:18.636.30-Jan-2020 3895.01 2981.05 72.73 2.00 165.63 2933.47
   21:09:18.836.30-Jan-2020 3895.01 2981.00 72.73 2.00 165.83 2933.47
   21:09:19.036.30-Jan-2020 3895.01 2980.91 72.73 2.00 166.03 2933.47
   21:09:19.236.30-Jan-2020 3895.01 2980.91 72.73 2.00 166.23 2933.47
   21:09:19.436.30-Jan-2020 3895.01 2980.96 72.73 2.00 166.43 2933.47
   21:09:19.636.30-Jan-2020 3895.01 2980.93 72.73 2.00 166.63 2933.47
   21:09:19.836.30-Jan-2020 3895.01 2980.99 72.73 2.00 166.83 2933.47
   21:09:20.036.30-Jan-2020 3895.01 2980.94 72.73 2.00 167.03 2933.47
   21:09:20.236.30-Jan-2020 3895.01 2980.94 72.73 2.00 167.23 2933.47
   21:09:20.436.30-Jan-2020 3895.01 2981.13 72.73 2.00 167.43 2933.47
   21:09:20.636.30-Jan-2020 3895.01 2981.12 72.73 2.00 167.63 2933.47
   21:09:20.836.30-Jan-2020 3895.01 2980.48 72.73 2.00 167.83 2933.47
   21:09:21.036.30-Jan-2020 3895.01 2981.14 72.73 2.00 168.03 2933.47
   21:09:21.236.30-Jan-2020 3895.01 2981.14 72.73 2.00 168.23 2933.47
   21:09:21.436.30-Jan-2020 3895.01 2981.05 72.72 2.00 168.43 2933.47
   21:09:21.636.30-Jan-2020 3895.01 2981.06 72.72 2.00 168.63 2933.47
   21:09:21.836.30-Jan-2020 3895.01 2980.54 72.72 2.00 168.83 2933.47
   21:09:22.036.30-Jan-2020 3895.01 2981.27 72.72 2.00 169.03 2933.47
   21:09:22.236.30-Jan-2020 3895.01 2981.27 72.72 2.00 169.23 2933.47
   21:09:22.436.30-Jan-2020 3895.01 2981.13 72.72 2.00 169.43 2933.47
   21:09:22.637.30-Jan-2020 3895.01 2981.09 72.72 2.00 169.63 2933.47
   21:09:22.837.30-Jan-2020 3895.01 2981.03 72.72 2.00 169.83 2933.47
   21:09:23.037.30-Jan-2020 3895.01 2981.10 72.72 2.00 170.03 2933.47
   21:09:23.237.30-Jan-2020 3895.01 2981.10 72.72 2.00 170.23 2933.47
   21:09:23.437.30-Jan-2020 3895.01 2981.19 72.72 2.00 170.43 2933.47
   21:09:23.637.30-Jan-2020 3895.01 2981.24 72.72 2.00 170.63 2933.47
   21:09:23.837.30-Jan-2020 3895.01 2981.20 72.72 2.00 170.83 2933.47
   21:09:24.037.30-Jan-2020 3895.01 2980.58 72.72 2.00 171.03 2933.47
   21:09:24.237.30-Jan-2020 3895.01 2980.58 72.72 2.00 171.23 2933.47
   21:09:24.437.30-Jan-2020 3895.01 2981.17 72.72 2.00 171.43 2933.47
   21:09:24.637.30-Jan-2020 3895.01 2981.29 72.72 2.00 171.63 2933.47
   21:09:24.837.30-Jan-2020 3895.01 2980.70 72.72 2.00 171.83 2933.47
   21:09:25.037.30-Jan-2020 3895.01 2981.19 72.72 2.00 172.03 2933.47
   21:09:25.237.30-Jan-2020 3895.01 2981.19 72.72 2.00 172.23 2933.47
   21:09:25.437.30-Jan-2020 3895.01 2981.17 72.71 2.00 172.43 2933.47
   21:09:25.637.30-Jan-2020 3895.01 2981.16 72.71 2.00 172.63 2933.47
   21:09:25.837.30-Jan-2020 3895.01 2981.15 72.71 2.00 172.83 2933.47
   21:09:26.037.30-Jan-2020 3895.01 2981.20 72.71 2.00 173.03 2933.47
   21:09:26.237.30-Jan-2020 3895.01 2981.20 72.71 2.00 173.23 2933.47
   21:09:26.437.30-Jan-2020 3895.01 2981.08 72.71 2.00 173.43 2933.47
   21:09:26.637.30-Jan-2020 3895.01 2980.99 72.71 2.00 173.63 2933.47
   21:09:26.837.30-Jan-2020 3895.01 2981.10 72.71 2.00 173.83 2933.47
   21:09:27.037.30-Jan-2020 3895.01 2981.14 72.71 2.00 174.03 2933.47
   21:09:27.237.30-Jan-2020 3895.01 2981.14 72.71 2.00 174.23 2933.47
   21:09:27.437.30-Jan-2020 3895.01 2981.03 72.71 2.00 174.43 2933.47
   21:09:27.637.30-Jan-2020 3895.01 2981.05 72.71 2.00 174.63 2933.47
   21:09:27.838.30-Jan-2020 3895.01 2981.20 72.71 2.00 174.83 2933.47
   21:09:28.038.30-Jan-2020 3895.01 2981.08 72.71 2.00 175.03 2933.47
   21:09:28.238.30-Jan-2020 3895.01 2981.08 72.71 2.00 175.23 2933.47
   21:09:28.438.30-Jan-2020 3895.01 2981.09 72.71 2.00 175.43 2933.47
   21:09:28.638.30-Jan-2020 3895.01 2980.50 72.71 2.00 175.63 2933.47
   21:09:28.838.30-Jan-2020 3895.01 2981.30 72.71 2.00 175.83 2933.47
   21:09:29.038.30-Jan-2020 3895.01 2981.25 72.71 2.00 176.03 2933.47
   21:09:29.238.30-Jan-2020 3895.01 2981.25 72.71 2.00 176.23 2933.47
   21:09:29.438.30-Jan-2020 3895.01 2981.17 72.70 2.00 176.43 2933.47
   21:09:29.638.30-Jan-2020 3895.01 2981.15 72.70 2.00 176.63 2933.47
   21:09:29.838.30-Jan-2020 3895.01 2981.14 72.70 2.00 176.83 2933.47
   21:09:30.038.30-Jan-2020 3895.01 2981.20 72.70 2.00 177.03 2933.47
   21:09:30.238.30-Jan-2020 3895.01 2981.20 72.70 2.00 177.23 2933.47
   21:09:30.438.30-Jan-2020 3895.01 2981.10 72.70 2.00 177.43 2933.47
   21:09:30.638.30-Jan-2020 3895.01 2981.10 72.70 2.00 177.63 2933.47
   21:09:30.838.30-Jan-2020 3895.01 2981.06 72.70 2.00 177.83 2933.47
   21:09:31.038.30-Jan-2020 3895.01 2981.12 72.70 2.00 178.03 2933.47
   21:09:31.238.30-Jan-2020 3895.01 2981.12 72.70 2.00 178.23 2933.47
   21:09:31.438.30-Jan-2020 3895.01 2981.16 72.70 2.00 178.43 2933.47
   21:09:31.638.30-Jan-2020 3895.01 2981.25 72.70 2.00 178.63 2933.47
   21:09:31.838.30-Jan-2020 3895.01 2980.62 72.70 2.00 178.83 2933.47
   21:09:32.038.30-Jan-2020 3895.01 2981.17 72.70 2.00 179.03 2933.47
   21:09:32.238.30-Jan-2020 3895.01 2981.17 72.70 2.00 179.23 2933.47
   21:09:32.438.30-Jan-2020 3895.01 2981.18 72.70 2.00 179.43 2933.47
   21:09:32.638.30-Jan-2020 3895.01 2981.19 72.70 2.00 179.63 2933.47
   21:09:32.838.30-Jan-2020 3895.01 2980.69 72.70 2.00 179.83 2933.47
   21:09:33.038.30-Jan-2020 3895.01 2981.26 72.69 2.00 180.03 2933.47
   21:09:33.239.30-Jan-2020 3895.01 2981.26 72.69 2.00 180.23 2933.47
   21:09:33.439.30-Jan-2020 3895.01 2981.23 72.69 2.00 180.43 2933.47
   21:09:33.639.30-Jan-2020 3895.01 2981.18 72.69 2.00 180.63 2933.47
   21:09:33.839.30-Jan-2020 3895.01 2981.17 72.69 2.00 180.83 2933.47
   21:09:34.039.30-Jan-2020 3895.01 2981.13 72.69 2.00 181.03 2933.47
   21:09:34.239.30-Jan-2020 3895.01 2981.13 72.69 2.00 181.23 2933.47
   21:09:34.439.30-Jan-2020 3895.01 2981.19 72.69 2.00 181.43 2933.47
   21:09:34.639.30-Jan-2020 3895.01 2981.25 72.69 2.00 181.63 2933.47
   21:09:34.839.30-Jan-2020 3895.01 2981.37 72.69 2.00 181.83 2933.47
   21:09:35.039.30-Jan-2020 3895.01 2981.24 72.69 2.00 182.03 2933.47
   21:09:35.239.30-Jan-2020 3895.01 2981.24 72.69 2.00 182.23 2933.47
   21:09:35.439.30-Jan-2020 3895.01 2981.35 72.69 2.00 182.43 2933.47
   21:09:35.639.30-Jan-2020 3895.01 2981.26 72.69 2.00 182.63 2933.47
   21:09:35.839.30-Jan-2020 3895.01 2981.40 72.69 2.00 182.83 2933.47
   21:09:36.039.30-Jan-2020 3895.01 2980.66 72.69 2.00 183.03 2933.47
   21:09:36.239.30-Jan-2020 3895.01 2980.66 72.69 2.00 183.23 2933.47
   21:09:36.439.30-Jan-2020 3895.01 2981.26 72.69 2.00 183.43 2933.47
   21:09:36.639.30-Jan-2020 3895.01 2981.28 72.69 2.00 183.63 2933.47
   21:09:36.839.30-Jan-2020 3895.01 2981.23 72.69 2.00 183.83 2933.47
