~Version Information
 VERS.                  2.0:   CWLS log ASCII Standard -VERSION 2.0
 WRAP.                   NO:   One line per depth step
~Well Information Block
#MNEM.UNIT     VALUE/NAME     DESCRIPTION
#---------     -----------    ---------------------------
 STRT.S             01:28:25 01-Feb-20: START TIME 01:28:25 01-Feb-20
 STOP.S             01:36:19 01-Feb-20: STOP TIME  01:36:19 01-Feb-20
 STEP.S                   0.00: STEP TIME
 NULL.                 -999.25: NULL VALUE
 DFWT.                        :  DIST FWL TEXT
 DFST.                        :  DIST FSL TEXT
 DMF .             Drill Floor:  DRILL MEAS FROM
 STIM.      09.30.00 26-Dec-19:  START TIME
 DATE.      08.00.00 20-Jan-20:  END TIME
 SPUD.               23-Nov-19:  SPUD DATE
 NREF.                    Grid:  NORTH REFERENCE
 HPTY.       Minimum Curvature:  HOLE POS TYPE
 DMOD.             Drill Model:  DRILL MOD DESC
 SVYD.                  Survey:  SURVEY DESC
 ILTD.               Lithology:  INTERP LTH DESC
 FTOP.          Formation Tops:  FORM TOPS DESC
 SON .        AZ-XX-0906192647:  JOB NUMBER
 WTYP.                Deviated:  WELL TYPE
 COMP.     BP Exploration (Caspian Sea) Ltd:  COMPANY
 BASE.              Azerbaijan:  LOGGING EQUIPMENT BASE LOCATION
 REGN.                 Eurasia:  REGION
 FLD .                     ACG:  FIELD NAME
 SRVC.              KCA Deutag:  CONTRACTOR
 MWDS.                    Baku:  MWD SHOP
 WELL.     A10 (Slot 20) - SCP:  WELL NAME
 JOBN.        AZ-XX-0906192647:  JOB TICKET NUMB
 RIG .                 Chirag1:  RIG NAME
 DCON.     Halliburton Sperry Drilling:  DIRECTNL CONTR
 UNIT.                     N/A:  LOGGING EQUIPMENT ID
 PDAT.          Mean Sea Level:  PERMANENT DATUM
 MDS .        Operator Entered:  MAG DATA SOURCE
 CTRY.              Azerbaijan:  COUNTRY NAME
 UWI .            /AZE00000090:  UNIQUE WELL IDENTIFIER
 API .            /AZE00000090:  API NUMBER
 CNTY.                        :  COUNTY
 PROV.                        :  PROVINCE
 STAT.                        :  STATE
 LOC .                        :  LOCATION
 LMF .             Drill Floor:  LOG MEASURED FROM
 TVDS.m                  36.60:  TVDSS CORRECTN
 LATI.deg                40.08:  LATITUDE
 LONG.deg                51.24:  LONGITUDE
 WHNS.m                  -7.94:  WELL HEAD N/S
 WHEW.m                   1.56:  WELL HEAD E/W
 UTMX.m              520429.26:  UTM X
 UTMY.m             4438973.87:  UTM Y
 DFWL.m                   0.00:  DISTANCE FWL
 DFSL.m                   0.00:  DISTANCE FSL
 SDEP.m                1455.00:  START DEPTH
 TDD .m                4047.51:  TOTAL DEPTH (DRILLER)
 VSDR.deg               112.75:  VERT SEC DIRECT
 GVFD.g                   1.00:  GRAVITY FIELD
 MFLD.nT              50261.00:  MAGNETIC FIELD
 MDIP.deg                59.52:  MAGNETIC DIP
 MDEC.deg                 6.42:  MAGNETIC DECL
 GRDC.deg                 0.17:  GRID CORRECTION
 AZTC.deg                 6.25:  AZM TOTAL CORR
 EPD .m                   0.00:  ELEVATION
 EGL .m                   0.00:  GROUND ELEVATION
 WDMS.m                 121.00:  WD ELEV
 APD .m                  36.60:  DEPTH ABOVE PD
 AGAP.m                  36.60:  AIR GAP
 VSEW.m                   1.56:  VERT SEC E/W
 VSNS.m                  -7.94:  VERT SEC N/S
 DEP .m                1140.01:  DEPTH
 EKB .m                  36.60:  KB ELEVATION
 EDF .m                  36.60:  DF ELEVATION
 TDL .m                 169.50:  TOTAL DEPTH (LOGGER)
 CSGD.m                3875.01:  CASING BOTTOM (DRILLER)
 CSGL.m                3875.01:  CASING BOTTOM (LOGGER)
 CSGS.in                  7.63:  CASING SIZE
 CSGW.lbpf               23.50:  CASING WEIGHT
 VSC .                       0:  VS TO CLOSURE
 MAGU.                 1849206:  MAGUTM CHECKSUM
~Parameter Information Block
#MNEM.UNIT       Value        Description
#---------     -----------    ---------------------------
 AV  .mps                 1.90:  Ann Velocity 
 AVMX.mps                 2.54:  Max Ann Veloc 
 AZIF.deg               137.03:  Azm, Final 
 BHAT.        Rotary Steerable:  BHA Type 
 BREV.rev             23610.00:  Rev Bit Total 
 BROT.°/30m               0.80:  Build Rotating 
 BS  .in                  6.50:  Bit Size 
 BTPL.psig              110.00:  Bit Press Loss 
 CABU.                     Yes:  Customer Abuse 
 COMM.                     ì…†:  Run Comments 1 
 TCS .hr                 70.51:  Time Ciculation Ended 
 CV  .mps                 1.41:  Crit Velocity 
 CVMX.mps                 1.42:  Max Crit Veloc 
 DD1 .         Intigam Rahimov:  Direct Drillr 1 
 DD2 .          Rashad Gojayev:  Direct Drillr 2 
 DDSV.               Geo-Pilot:  DD Service 
 DEFF.%                 100.00:  % Det Eff 
 DLRX.°/30m               1.44:  Dogleg Rot Max 
 DLSO.°/30m               0.00:  Dogleg Oriented 
 DLSX.°/30m               0.00:  Dogleg Str Max 
 DRET.      03.05.00 01-Feb-20:  Drill End Time 
 DRST.      15.50.00 28-Jan-20:  Drill Start Tim 
 DTIM.hr                 24.70:  Time Drilling 
 EDEP.m                4047.51:  End Depth 
 ENG1.           Eldar Hajiyev:  Engineer 1 
 ENG2.          Rasim Hashimov:  Engineer 2 
 ENG3.          Rustam Safarov:  Engineer 3 
 ETIM.      22.00.00 01-Feb-20:  End Time 
 FLOI.gpm               370.00:  Flow In 
 FLON.gpm               300.00:  Flow In Min 
 FLOS.cptm                0.00:  Fluid Loss 
 FLOX.gpm               400.00:  Flow In Max 
 FTRO.       Formation Presure:  FTWD Run Obj 
 HFLO.                      No:  High Flow 
 HPRE.                      No:  High Pressure 
 HTEM.                      No:  High Temp 
 HYDO.m                   2.50:  Hydro Offset 
 IFIN.deg                39.54:  Inc, Final 
 IMAX.deg                41.14:  Inc Max 
 IMIN.deg                39.81:  Inc Min 
 IMND.m                4005.21:  Inc Min Depth 
 IMXD.m                3948.42:  Inc Max Depth 
 JARR.                      No:  Jarring 
 LETM.      03.05.00 01-Feb-20:  Log End Time 
 LOST.hr                     0:  Lost Rig Time 
 LSTM.      15.50.00 28-Jan-20:  Log Start Time 
 MDCL.ppm             37500.00:  Mud Chlorides 
 MDES.     Inversion Oil/Synthetic:  Mud Desc 
 DFD .sg                  1.32:  Mud Density 
 MDMN.sg                  1.32:  Dens Mud Min 
 MDMX.sg                  1.32:  Dens Mud Max 
 MOIL.                      55:  Run Mud Oil % 
 MOWR.                   70:30:  Run Mud OWR 
 MSND.                       0:  Run Mud Sand % 
 MSOL.                      17:  Run Mud Solids% 
 DFV .spqt               80.00:  Mud Viscosity 
 MWOD.in                  4.75:  MWD Tool OD 
 MWSI.                      No:  Serv Intrp, MWD 
 OTIM.hr                121.28:  Time Operating 
 PCON.           Look Like New:  Pad Condition 
 PMAX.psia             6171.00:  Press Op, Max 
 PV  .cP                 30.00:  Mud PV 
 RUN .                     300:  Run Number 
 ROPA.m/hr                5.45:  ROP Avg 
 ROPN.m/hr                3.00:  ROP Min 
 ROPX.m/hr               15.00:  ROP Max 
 RPMA.rpm               130.00:  RPM Surface Avg 
 RPMN.rpm                80.00:  RPM Surface Min 
 RPMX.rpm               140.00:  RPM Surface Max 
 RRUN.                     300:  Rig Run Number 
 RTIM.hr                 13.50:  Time Reaming 
 SAZI.deg               133.93:  Azm, Start 
 SDEP.m                3878.01:  Start Depth 
 SIDD.                      No:  Serv Intrp, DD 
 SINC.deg                40.28:  Inc, Start 
 SPPA.psig             4983.00:  SPP Avg 
 SPPN.psig             4370.00:  SPP Min 
 SPPX.psig             5300.00:  SPP Max 
 STIM.      18.33.36 27-Jan-20:  Start Time 
 SVCS.                 DD, MWD:  Services 
 SVER.                    9.20:  Sperry Version 
 TDAT.m                 169.50:  Tot Depth Attmp 
 TDDF.                      No:  Trip for DD 
 TDLG.m                 169.50:  Tot Depth Loggd 
 TFF .                      No:  Trip for Fail 
 TQAA.f-kp               13.25:  Torque Abs Avg 
 TQAN.f-kp               12.00:  Torque Abs Min 
 TQAX.f-kp               14.00:  Torque Abs Max 
 TRRT.°/30m               0.70:  Turn Rotating 
 MRT .                     ADR:  Maximum Recorded Temperature 
 TTMX.degC               92.16:  Max Tool Temp 
 VS01.       AZ90598764G12V7D4:  Virtual Str1 SN 
 VS02.         AZ90571342R12C4:  Virtual Str2 SN 
 VS03.      AZ90580010N2L2X1C4:  Virtual Str3 SN 
 VS04.        AZ90522266O7X1C4:  Virtual Str4 SN 
 VS05.           AZ90598768F11:  Virtual Str5 SN 
 VS06.     AZ90580006XZ1W1X1C4:  Virtual Str6 SN 
 WBMN.klb                 8.00:  WOB Min 
 WITN.            Peter Wilson:  Customer Rep 
 WOBA.klb                 9.88:  WOB Avg 
 WOBX.klb                10.00:  WOB Max 
 YP  .lhf2               27.00:  Yield Point 
~Curve Information Block
#MNEM.UNIT                 API CODE     Curve Description
#---------               -----------    ---------------------------
 TIME.HHMMSS            00 000 000 000:  GT Time & Date
 GTDEPTH.m              00 000 000 000:  GT Depth
 GTPQH.psia             00 000 000 000:  GT HR Quartz Pressure
 GTTQ.degC              00 000 000 000:  GT Quartz Temperature
 GTTN.NONE              00 000 000 000:  GT Test Number
 GTET.sec               00 000 000 000:  GT Elapsed Test Time
 GTTVD.m                00 000 000 000:  GT True Vertical Depth
#Other Information
#
#WARRANTY: Halliburton will use its best efforts to furnish customers with 
#accurate information and interpretations that are part of, and incident to, the services 
#provided.  However, Halliburton cannot and does not warrant the accuracy 
#or correctness of such information and interpretations.  Under no circumstances should any 
#such information or interpretation be relied upon as the sole basis for any drilling, 
#completion, production, or financial decision or any procedure involving any risk to the 
#safety of any drilling venture, drilling rig or its crew or any other third party.  The 
#Customer has full responsibility for all drilling, completion and production operation.  
#Halliburton makes no representations or warranties, either expressed or 
#implied, including, but not limited to, the implied warranties of merchantability or fitness 
#for a particular purpose, with respect to the services rendered.  In no event will 
#Halliburton be liable for failure to obtain any particular results or for 
#any damages, including, but not limited to, indirect, special or consequential damages, 
#resulting from the use of any information or interpretation provided by Halliburton.
#
~A           TIME           GTDEPTH  GTPQH  GTTQ  GTTN   GTET   GTTVD  
# ...
   01:31:49.138.01-Feb-2020 3990.12 3214.11 84.67 11.00 204.11 3005.35
   01:31:49.338.01-Feb-2020 3990.12 3213.75 84.67 11.00 204.31 3005.35
   01:31:49.539.01-Feb-2020 3990.12 3213.89 84.67 11.00 204.52 3005.35
   01:31:49.740.01-Feb-2020 3990.12 3214.06 84.67 11.00 204.72 3005.35
   01:31:49.941.01-Feb-2020 3990.12 3214.06 84.67 11.00 204.92 3005.35
   01:31:50.141.01-Feb-2020 3990.12 3214.15 84.67 11.00 205.12 3005.35
   01:31:50.342.01-Feb-2020 3990.12 3214.31 84.67 11.00 205.32 3005.35
   01:31:50.543.01-Feb-2020 3990.12 3214.23 84.67 11.00 205.52 3005.35
   01:31:50.743.01-Feb-2020 3990.12 3214.17 84.67 11.00 205.72 3005.35
   01:31:50.944.01-Feb-2020 3990.12 3214.17 84.67 11.00 205.92 3005.35
   01:31:51.145.01-Feb-2020 3990.12 3214.32 84.67 11.00 206.12 3005.35
   01:31:51.345.01-Feb-2020 3990.12 3214.22 84.67 11.00 206.32 3005.35
   01:31:51.546.01-Feb-2020 3990.12 3214.33 84.67 11.00 206.52 3005.35
   01:31:51.747.01-Feb-2020 3990.12 3214.21 84.67 11.00 206.72 3005.35
   01:31:51.948.01-Feb-2020 3990.12 3214.21 84.67 11.00 206.92 3005.35
   01:31:52.148.01-Feb-2020 3990.12 3214.27 84.67 11.00 207.12 3005.35
   01:31:52.349.01-Feb-2020 3990.12 3214.24 84.67 11.00 207.32 3005.35
   01:31:52.550.01-Feb-2020 3990.12 3214.24 84.67 11.00 207.53 3005.35
   01:31:52.750.01-Feb-2020 3990.12 3214.30 84.67 11.00 207.73 3005.35
   01:31:52.951.01-Feb-2020 3990.12 3214.30 84.67 11.00 207.93 3005.35
   01:31:53.152.01-Feb-2020 3990.12 3214.25 84.67 11.00 208.13 3005.35
   01:31:53.352.01-Feb-2020 3990.12 3214.24 84.66 11.00 208.33 3005.35
   01:31:53.553.01-Feb-2020 3990.12 3214.38 84.66 11.00 208.53 3005.35
   01:31:53.754.01-Feb-2020 3990.12 3214.50 84.66 11.00 208.73 3005.35
   01:31:53.955.01-Feb-2020 3990.12 3214.50 84.66 11.00 208.93 3005.35
   01:31:54.155.01-Feb-2020 3990.12 3214.46 84.66 11.00 209.13 3005.35
   01:31:54.356.01-Feb-2020 3990.12 3214.55 84.66 11.00 209.33 3005.35
   01:31:54.557.01-Feb-2020 3990.12 3214.45 84.66 11.00 209.53 3005.35
   01:31:54.757.01-Feb-2020 3990.12 3214.57 84.66 11.00 209.73 3005.35
   01:31:54.958.01-Feb-2020 3990.12 3214.57 84.66 11.00 209.93 3005.35
   01:31:55.159.01-Feb-2020 3990.12 3214.46 84.66 11.00 210.13 3005.35
   01:31:55.360.01-Feb-2020 3990.12 3214.57 84.66 11.00 210.34 3005.35
   01:31:55.560.01-Feb-2020 3990.12 3214.49 84.66 11.00 210.54 3005.35
   01:31:55.761.01-Feb-2020 3990.12 3214.50 84.66 11.00 210.74 3005.35
   01:31:55.962.01-Feb-2020 3990.12 3214.50 84.66 11.00 210.94 3005.35
   01:31:56.162.01-Feb-2020 3990.12 3214.71 84.66 11.00 211.14 3005.35
   01:31:56.363.01-Feb-2020 3990.12 3214.35 84.66 11.00 211.34 3005.35
   01:31:56.564.01-Feb-2020 3990.12 3214.68 84.66 11.00 211.54 3005.35
   01:31:56.764.01-Feb-2020 3990.12 3214.64 84.66 11.00 211.74 3005.35
   01:31:56.965.01-Feb-2020 3990.12 3214.64 84.66 11.00 211.94 3005.35
   01:31:57.166.01-Feb-2020 3990.12 3214.79 84.66 11.00 212.14 3005.35
   01:31:57.367.01-Feb-2020 3990.12 3214.29 84.66 11.00 212.34 3005.35
   01:31:57.567.01-Feb-2020 3990.12 3214.59 84.66 11.00 212.54 3005.35
   01:31:57.768.01-Feb-2020 3990.12 3214.75 84.66 11.00 212.74 3005.35
   01:31:57.969.01-Feb-2020 3990.12 3214.75 84.66 11.00 212.94 3005.35
   01:31:58.169.01-Feb-2020 3990.12 3214.97 84.65 11.00 213.15 3005.35
   01:31:58.370.01-Feb-2020 3990.12 3214.91 84.65 11.00 213.35 3005.35
   01:31:58.571.01-Feb-2020 3990.12 3214.53 84.65 11.00 213.55 3005.35
   01:31:58.771.01-Feb-2020 3990.12 3214.79 84.65 11.00 213.75 3005.35
   01:31:58.972.01-Feb-2020 3990.12 3214.79 84.65 11.00 213.95 3005.35
   01:31:59.173.01-Feb-2020 3990.12 3214.77 84.65 11.00 214.15 3005.35
   01:31:59.374.01-Feb-2020 3990.12 3215.02 84.65 11.00 214.35 3005.35
   01:31:59.574.01-Feb-2020 3990.12 3214.38 84.65 11.00 214.55 3005.35
   01:31:59.775.01-Feb-2020 3990.12 3214.80 84.65 11.00 214.75 3005.35
   01:31:59.976.01-Feb-2020 3990.12 3214.80 84.65 11.00 214.95 3005.35
   01:32:00.176.01-Feb-2020 3990.12 3214.87 84.65 11.00 215.15 3005.35
   01:32:00.377.01-Feb-2020 3990.12 3215.11 84.65 11.00 215.35 3005.35
   01:32:00.578.01-Feb-2020 3990.12 3215.00 84.65 11.00 215.55 3005.35
   01:32:00.778.01-Feb-2020 3990.12 3214.83 84.65 11.00 215.75 3005.35
   01:32:00.979.01-Feb-2020 3990.12 3214.83 84.65 11.00 215.96 3005.35
   01:32:01.180.01-Feb-2020 3990.12 3214.75 84.65 11.00 216.16 3005.35
   01:32:01.381.01-Feb-2020 3990.12 3214.95 84.65 11.00 216.36 3005.35
   01:32:01.581.01-Feb-2020 3990.12 3215.13 84.65 11.00 216.56 3005.35
   01:32:01.782.01-Feb-2020 3990.12 3215.09 84.65 11.00 216.76 3005.35
   01:32:01.983.01-Feb-2020 3990.12 3215.09 84.65 11.00 216.96 3005.35
   01:32:02.183.01-Feb-2020 3990.12 3215.12 84.65 11.00 217.16 3005.35
   01:32:02.384.01-Feb-2020 3990.12 3215.03 84.65 11.00 217.36 3005.35
   01:32:02.585.01-Feb-2020 3990.12 3215.20 84.65 11.00 217.56 3005.35
   01:32:02.785.01-Feb-2020 3990.12 3215.06 84.64 11.00 217.76 3005.35
   01:32:02.986.01-Feb-2020 3990.12 3215.06 84.64 11.00 217.96 3005.35
   01:32:03.187.01-Feb-2020 3990.12 3215.16 84.64 11.00 218.16 3005.35
   01:32:03.388.01-Feb-2020 3990.12 3215.03 84.64 11.00 218.36 3005.35
   01:32:03.588.01-Feb-2020 3990.12 3215.07 84.64 11.00 218.56 3005.35
   01:32:03.789.01-Feb-2020 3990.12 3215.11 84.64 11.00 218.76 3005.35
   01:32:03.990.01-Feb-2020 3990.12 3215.11 84.64 11.00 218.97 3005.35
   01:32:04.190.01-Feb-2020 3990.12 3215.15 84.64 11.00 219.17 3005.35
   01:32:04.391.01-Feb-2020 3990.12 3215.29 84.64 11.00 219.37 3005.35
   01:32:04.592.01-Feb-2020 3990.12 3214.64 84.64 11.00 219.57 3005.35
   01:32:04.792.01-Feb-2020 3990.12 3215.09 84.64 11.00 219.77 3005.35
   01:32:04.993.01-Feb-2020 3990.12 3215.09 84.64 11.00 219.97 3005.35
   01:32:05.194.01-Feb-2020 3990.12 3215.13 84.64 11.00 220.17 3005.35
   01:32:05.395.01-Feb-2020 3990.12 3215.31 84.64 11.00 220.37 3005.35
   01:32:05.595.01-Feb-2020 3990.12 3215.21 84.64 11.00 220.57 3005.35
   01:32:05.796.01-Feb-2020 3990.12 3215.28 84.64 11.00 220.77 3005.35
   01:32:05.997.01-Feb-2020 3990.12 3215.28 84.64 11.00 220.97 3005.35
   01:32:06.197.01-Feb-2020 3990.12 3215.22 84.64 11.00 221.17 3005.35
   01:32:06.398.01-Feb-2020 3990.12 3215.30 84.64 11.00 221.37 3005.35
   01:32:06.599.01-Feb-2020 3990.12 3215.26 84.64 11.00 221.57 3005.35
   01:32:06.800.01-Feb-2020 3990.12 3215.20 84.64 11.00 221.78 3005.35
   01:32:07.000.01-Feb-2020 3990.12 3215.20 84.64 11.00 221.98 3005.35
   01:32:07.201.01-Feb-2020 3990.12 3215.21 84.64 11.00 222.18 3005.35
   01:32:07.402.01-Feb-2020 3990.12 3215.20 84.64 11.00 222.38 3005.35
   01:32:07.602.01-Feb-2020 3990.12 3215.44 84.63 11.00 222.58 3005.35
   01:32:07.803.01-Feb-2020 3990.12 3215.18 84.63 11.00 222.78 3005.35
   01:32:08.004.01-Feb-2020 3990.12 3215.18 84.63 11.00 222.98 3005.35
   01:32:08.204.01-Feb-2020 3990.12 3215.37 84.63 11.00 223.18 3005.35
   01:32:08.405.01-Feb-2020 3990.12 3215.77 84.63 11.00 223.38 3005.35
   01:32:08.606.01-Feb-2020 3990.12 3221.83 84.63 11.00 223.58 3005.35
   01:32:08.807.01-Feb-2020 3990.12 3219.63 84.63 11.00 223.78 3005.35
   01:32:09.007.01-Feb-2020 3990.12 3219.63 84.63 11.00 223.98 3005.35
   01:32:09.208.01-Feb-2020 3990.12 3217.36 84.63 11.00 224.18 3005.35
   01:32:09.409.01-Feb-2020 3990.12 3217.00 84.63 11.00 224.38 3005.35
   01:32:09.609.01-Feb-2020 3990.12 3216.70 84.63 11.00 224.59 3005.35
   01:32:09.810.01-Feb-2020 3990.12 3216.58 84.63 11.00 224.79 3005.35
   01:32:10.011.01-Feb-2020 3990.12 3216.58 84.63 11.00 224.99 3005.35
   01:32:10.211.01-Feb-2020 3990.12 3215.86 84.63 11.00 225.19 3005.35
   01:32:10.412.01-Feb-2020 3990.12 3215.99 84.63 11.00 225.39 3005.35
   01:32:10.613.01-Feb-2020 3990.12 3215.79 84.63 11.00 225.59 3005.35
   01:32:10.814.01-Feb-2020 3990.12 3216.01 84.63 11.00 225.79 3005.35
   01:32:11.014.01-Feb-2020 3990.12 3216.01 84.63 11.00 225.99 3005.35
   01:32:11.215.01-Feb-2020 3990.12 3215.54 84.63 11.00 226.19 3005.35
   01:32:11.416.01-Feb-2020 3990.12 3215.74 84.63 11.00 226.39 3005.35
   01:32:11.616.01-Feb-2020 3990.12 3215.77 84.63 11.00 226.59 3005.35
