~Version Information
 VERS.                  2.0:   CWLS log ASCII Standard -VERSION 2.0
 WRAP.                   NO:   One line per depth step
~Well Information Block
#MNEM.UNIT     VALUE/NAME     DESCRIPTION
#---------     -----------    ---------------------------
 STRT.S             09:13:27 31-Jan-20: START TIME 09:13:27 31-Jan-20
 STOP.S             09:19:57 31-Jan-20: STOP TIME  09:19:57 31-Jan-20
 STEP.S                   0.00: STEP TIME
 NULL.                 -999.25: NULL VALUE
 DFWT.                        :  DIST FWL TEXT
 DFST.                        :  DIST FSL TEXT
 DMF .             Drill Floor:  DRILL MEAS FROM
 STIM.      09.30.00 26-Dec-19:  START TIME
 DATE.      08.00.00 20-Jan-20:  END TIME
 SPUD.               23-Nov-19:  SPUD DATE
 NREF.                    Grid:  NORTH REFERENCE
 HPTY.       Minimum Curvature:  HOLE POS TYPE
 DMOD.             Drill Model:  DRILL MOD DESC
 SVYD.                  Survey:  SURVEY DESC
 ILTD.               Lithology:  INTERP LTH DESC
 FTOP.          Formation Tops:  FORM TOPS DESC
 SON .        AZ-XX-0906192647:  JOB NUMBER
 WTYP.                Deviated:  WELL TYPE
 COMP.     BP Exploration (Caspian Sea) Ltd:  COMPANY
 BASE.              Azerbaijan:  LOGGING EQUIPMENT BASE LOCATION
 REGN.                 Eurasia:  REGION
 FLD .                     ACG:  FIELD NAME
 SRVC.              KCA Deutag:  CONTRACTOR
 MWDS.                    Baku:  MWD SHOP
 WELL.     A10 (Slot 20) - SCP:  WELL NAME
 JOBN.        AZ-XX-0906192647:  JOB TICKET NUMB
 RIG .                 Chirag1:  RIG NAME
 DCON.     Halliburton Sperry Drilling:  DIRECTNL CONTR
 UNIT.                     N/A:  LOGGING EQUIPMENT ID
 PDAT.          Mean Sea Level:  PERMANENT DATUM
 MDS .        Operator Entered:  MAG DATA SOURCE
 CTRY.              Azerbaijan:  COUNTRY NAME
 UWI .            /AZE00000090:  UNIQUE WELL IDENTIFIER
 API .            /AZE00000090:  API NUMBER
 CNTY.                        :  COUNTY
 PROV.                        :  PROVINCE
 STAT.                        :  STATE
 LOC .                        :  LOCATION
 LMF .             Drill Floor:  LOG MEASURED FROM
 TVDS.m                  36.60:  TVDSS CORRECTN
 LATI.deg                40.08:  LATITUDE
 LONG.deg                51.24:  LONGITUDE
 WHNS.m                  -7.94:  WELL HEAD N/S
 WHEW.m                   1.56:  WELL HEAD E/W
 UTMX.m              520429.26:  UTM X
 UTMY.m             4438973.87:  UTM Y
 DFWL.m                   0.00:  DISTANCE FWL
 DFSL.m                   0.00:  DISTANCE FSL
 SDEP.m                1455.00:  START DEPTH
 TDD .m                4047.51:  TOTAL DEPTH (DRILLER)
 VSDR.deg               112.75:  VERT SEC DIRECT
 GVFD.g                   1.00:  GRAVITY FIELD
 MFLD.nT              50261.00:  MAGNETIC FIELD
 MDIP.deg                59.52:  MAGNETIC DIP
 MDEC.deg                 6.42:  MAGNETIC DECL
 GRDC.deg                 0.17:  GRID CORRECTION
 AZTC.deg                 6.25:  AZM TOTAL CORR
 EPD .m                   0.00:  ELEVATION
 EGL .m                   0.00:  GROUND ELEVATION
 WDMS.m                 121.00:  WD ELEV
 APD .m                  36.60:  DEPTH ABOVE PD
 AGAP.m                  36.60:  AIR GAP
 VSEW.m                   1.56:  VERT SEC E/W
 VSNS.m                  -7.94:  VERT SEC N/S
 DEP .m                1140.01:  DEPTH
 EKB .m                  36.60:  KB ELEVATION
 EDF .m                  36.60:  DF ELEVATION
 TDL .m                 169.50:  TOTAL DEPTH (LOGGER)
 CSGD.m                3875.01:  CASING BOTTOM (DRILLER)
 CSGL.m                3875.01:  CASING BOTTOM (LOGGER)
 CSGS.in                  7.63:  CASING SIZE
 CSGW.lbpf               23.50:  CASING WEIGHT
 VSC .                       0:  VS TO CLOSURE
 MAGU.                 1849206:  MAGUTM CHECKSUM
~Parameter Information Block
#MNEM.UNIT       Value        Description
#---------     -----------    ---------------------------
 AV  .mps                 1.90:  Ann Velocity 
 AVMX.mps                 2.54:  Max Ann Veloc 
 AZIF.deg               137.03:  Azm, Final 
 BHAT.        Rotary Steerable:  BHA Type 
 BREV.rev             23610.00:  Rev Bit Total 
 BROT.°/30m               0.80:  Build Rotating 
 BS  .in                  6.50:  Bit Size 
 BTPL.psig              110.00:  Bit Press Loss 
 CABU.                     Yes:  Customer Abuse 
 COMM.                     ФЮѓ:  Run Comments 1 
 TCS .hr                 70.51:  Time Ciculation Ended 
 CV  .mps                 1.41:  Crit Velocity 
 CVMX.mps                 1.42:  Max Crit Veloc 
 DD1 .         Intigam Rahimov:  Direct Drillr 1 
 DD2 .          Rashad Gojayev:  Direct Drillr 2 
 DDSV.               Geo-Pilot:  DD Service 
 DEFF.%                 100.00:  % Det Eff 
 DLRX.°/30m               1.44:  Dogleg Rot Max 
 DLSO.°/30m               0.00:  Dogleg Oriented 
 DLSX.°/30m               0.00:  Dogleg Str Max 
 DRET.      03.05.00 01-Feb-20:  Drill End Time 
 DRST.      15.50.00 28-Jan-20:  Drill Start Tim 
 DTIM.hr                 24.70:  Time Drilling 
 EDEP.m                4047.51:  End Depth 
 ENG1.           Eldar Hajiyev:  Engineer 1 
 ENG2.          Rasim Hashimov:  Engineer 2 
 ENG3.          Rustam Safarov:  Engineer 3 
 ETIM.      22.00.00 01-Feb-20:  End Time 
 FLOI.gpm               370.00:  Flow In 
 FLON.gpm               300.00:  Flow In Min 
 FLOS.cptm                0.00:  Fluid Loss 
 FLOX.gpm               400.00:  Flow In Max 
 FTRO.       Formation Presure:  FTWD Run Obj 
 HFLO.                      No:  High Flow 
 HPRE.                      No:  High Pressure 
 HTEM.                      No:  High Temp 
 HYDO.m                   2.50:  Hydro Offset 
 IFIN.deg                39.54:  Inc, Final 
 IMAX.deg                41.14:  Inc Max 
 IMIN.deg                39.81:  Inc Min 
 IMND.m                4005.21:  Inc Min Depth 
 IMXD.m                3948.42:  Inc Max Depth 
 JARR.                      No:  Jarring 
 LETM.      03.05.00 01-Feb-20:  Log End Time 
 LOST.hr                     0:  Lost Rig Time 
 LSTM.      15.50.00 28-Jan-20:  Log Start Time 
 MDCL.ppm             37500.00:  Mud Chlorides 
 MDES.     Inversion Oil/Synthetic:  Mud Desc 
 DFD .sg                  1.32:  Mud Density 
 MDMN.sg                  1.32:  Dens Mud Min 
 MDMX.sg                  1.32:  Dens Mud Max 
 MOIL.                      55:  Run Mud Oil % 
 MOWR.                   70:30:  Run Mud OWR 
 MSND.                       0:  Run Mud Sand % 
 MSOL.                      17:  Run Mud Solids% 
 DFV .spqt               80.00:  Mud Viscosity 
 MWOD.in                  4.75:  MWD Tool OD 
 MWSI.                      No:  Serv Intrp, MWD 
 OTIM.hr                121.28:  Time Operating 
 PCON.           Look Like New:  Pad Condition 
 PMAX.psia             6171.00:  Press Op, Max 
 PV  .cP                 30.00:  Mud PV 
 RUN .                     300:  Run Number 
 ROPA.m/hr                5.45:  ROP Avg 
 ROPN.m/hr                3.00:  ROP Min 
 ROPX.m/hr               15.00:  ROP Max 
 RPMA.rpm               130.00:  RPM Surface Avg 
 RPMN.rpm                80.00:  RPM Surface Min 
 RPMX.rpm               140.00:  RPM Surface Max 
 RRUN.                     300:  Rig Run Number 
 RTIM.hr                 13.50:  Time Reaming 
 SAZI.deg               133.93:  Azm, Start 
 SDEP.m                3878.01:  Start Depth 
 SIDD.                      No:  Serv Intrp, DD 
 SINC.deg                40.28:  Inc, Start 
 SPPA.psig             4983.00:  SPP Avg 
 SPPN.psig             4370.00:  SPP Min 
 SPPX.psig             5300.00:  SPP Max 
 STIM.      18.33.36 27-Jan-20:  Start Time 
 SVCS.                 DD, MWD:  Services 
 SVER.                    9.20:  Sperry Version 
 TDAT.m                 169.50:  Tot Depth Attmp 
 TDDF.                      No:  Trip for DD 
 TDLG.m                 169.50:  Tot Depth Loggd 
 TFF .                      No:  Trip for Fail 
 TQAA.f-kp               13.25:  Torque Abs Avg 
 TQAN.f-kp               12.00:  Torque Abs Min 
 TQAX.f-kp               14.00:  Torque Abs Max 
 TRRT.°/30m               0.70:  Turn Rotating 
 MRT .                     ADR:  Maximum Recorded Temperature 
 TTMX.degC               92.16:  Max Tool Temp 
 VS01.       AZ90598764G12V7D4:  Virtual Str1 SN 
 VS02.         AZ90571342R12C4:  Virtual Str2 SN 
 VS03.      AZ90580010N2L2X1C4:  Virtual Str3 SN 
 VS04.        AZ90522266O7X1C4:  Virtual Str4 SN 
 VS05.           AZ90598768F11:  Virtual Str5 SN 
 VS06.     AZ90580006XZ1W1X1C4:  Virtual Str6 SN 
 WBMN.klb                 8.00:  WOB Min 
 WITN.            Peter Wilson:  Customer Rep 
 WOBA.klb                 9.88:  WOB Avg 
 WOBX.klb                10.00:  WOB Max 
 YP  .lhf2               27.00:  Yield Point 
~Curve Information Block
#MNEM.UNIT                 API CODE     Curve Description
#---------               -----------    ---------------------------
 TIME.HHMMSS            00 000 000 000:  GT Time & Date
 GTDEPTH.m              00 000 000 000:  GT Depth
 GTPQH.psia             00 000 000 000:  GT HR Quartz Pressure
 GTTQ.degC              00 000 000 000:  GT Quartz Temperature
 GTTN.NONE              00 000 000 000:  GT Test Number
 GTET.sec               00 000 000 000:  GT Elapsed Test Time
 GTTVD.m                00 000 000 000:  GT True Vertical Depth
#Other Information
#
#WARRANTY: Halliburton will use its best efforts to furnish customers with 
#accurate information and interpretations that are part of, and incident to, the services 
#provided.  However, Halliburton cannot and does not warrant the accuracy 
#or correctness of such information and interpretations.  Under no circumstances should any 
#such information or interpretation be relied upon as the sole basis for any drilling, 
#completion, production, or financial decision or any procedure involving any risk to the 
#safety of any drilling venture, drilling rig or its crew or any other third party.  The 
#Customer has full responsibility for all drilling, completion and production operation.  
#Halliburton makes no representations or warranties, either expressed or 
#implied, including, but not limited to, the implied warranties of merchantability or fitness 
#for a particular purpose, with respect to the services rendered.  In no event will 
#Halliburton be liable for failure to obtain any particular results or for 
#any damages, including, but not limited to, indirect, special or consequential damages, 
#resulting from the use of any information or interpretation provided by Halliburton.
#
~A           TIME           GTDEPTH  GTPQH  GTTQ  GTTN  GTET   GTTVD  
   09:13:27.894.31-Jan-2020 3923.01 5985.00 81.04 5.00   0.00 2954.62
   09:13:28.094.31-Jan-2020 3923.01 5985.00 81.04 5.00   0.20 2954.62
   09:13:28.294.31-Jan-2020 3923.01 5983.99 81.04 5.00   0.40 2954.62
   09:13:28.494.31-Jan-2020 3923.01 5981.05 81.04 5.00   0.60 2954.62
   09:13:28.694.31-Jan-2020 3923.01 5977.36 81.04 5.00   0.80 2954.62
   09:13:28.894.31-Jan-2020 3923.01 5974.64 81.04 5.00   1.00 2954.62
   09:13:29.094.31-Jan-2020 3923.01 5974.64 81.04 5.00   1.20 2954.62
   09:13:29.294.31-Jan-2020 3923.01 5966.02 81.04 5.00   1.40 2954.62
   09:13:29.494.31-Jan-2020 3923.01 5965.71 81.04 5.00   1.60 2954.62
   09:13:29.695.31-Jan-2020 3923.01 5967.78 81.04 5.00   1.80 2954.62
   09:13:29.895.31-Jan-2020 3923.01 5969.73 81.04 5.00   2.00 2954.62
   09:13:30.095.31-Jan-2020 3923.01 5969.73 81.04 5.00   2.20 2954.62
   09:13:30.295.31-Jan-2020 3923.01 5969.73 81.04 5.00   2.40 2954.62
   09:13:30.495.31-Jan-2020 3923.01 5962.26 81.03 5.00   2.60 2954.62
   09:13:30.695.31-Jan-2020 3923.01 5968.47 81.03 5.00   2.80 2954.62
   09:13:30.895.31-Jan-2020 3923.01 5969.49 81.03 5.00   3.00 2954.62
   09:13:31.095.31-Jan-2020 3923.01 5969.49 81.03 5.00   3.20 2954.62
   09:13:31.295.31-Jan-2020 3923.01 5971.63 81.03 5.00   3.40 2954.62
   09:13:31.495.31-Jan-2020 3923.01 5964.27 81.03 5.00   3.60 2954.62
   09:13:31.695.31-Jan-2020 3923.01 5972.52 81.03 5.00   3.80 2954.62
   09:13:31.895.31-Jan-2020 3923.01 5974.14 81.03 5.00   4.00 2954.62
   09:13:32.095.31-Jan-2020 3923.01 5974.14 81.03 5.00   4.20 2954.62
   09:13:32.295.31-Jan-2020 3923.01 5978.06 81.03 5.00   4.40 2954.62
   09:13:32.495.31-Jan-2020 3923.01 5977.63 81.03 5.00   4.60 2954.62
   09:13:32.695.31-Jan-2020 3923.01 5976.39 81.03 5.00   4.80 2954.62
   09:13:32.895.31-Jan-2020 3923.01 5973.58 81.03 5.00   5.00 2954.62
   09:13:33.095.31-Jan-2020 3923.01 5973.58 81.03 5.00   5.20 2954.62
   09:13:33.295.31-Jan-2020 3923.01 5973.83 81.02 5.00   5.40 2954.62
   09:13:33.495.31-Jan-2020 3923.01 5976.69 81.02 5.00   5.60 2954.62
   09:13:33.695.31-Jan-2020 3923.01 5977.05 81.02 5.00   5.80 2954.62
   09:13:33.895.31-Jan-2020 3923.01 5967.74 81.02 5.00   6.00 2954.62
   09:13:34.096.31-Jan-2020 3923.01 5967.74 81.02 5.00   6.20 2954.62
   09:13:34.296.31-Jan-2020 3923.01 5975.14 81.02 5.00   6.40 2954.62
   09:13:34.496.31-Jan-2020 3923.01 5976.31 81.02 5.00   6.60 2954.62
   09:13:34.696.31-Jan-2020 3923.01 5974.52 81.02 5.00   6.80 2954.62
   09:13:34.896.31-Jan-2020 3923.01 5968.02 81.02 5.00   7.00 2954.62
   09:13:35.096.31-Jan-2020 3923.01 5968.02 81.02 5.00   7.20 2954.62
   09:13:35.296.31-Jan-2020 3923.01 5971.26 81.02 5.00   7.40 2954.62
   09:13:35.496.31-Jan-2020 3923.01 5971.23 81.02 5.00   7.60 2954.62
   09:13:35.696.31-Jan-2020 3923.01 5970.57 81.02 5.00   7.80 2954.62
   09:13:35.896.31-Jan-2020 3923.01 5963.67 81.01 5.00   8.00 2954.62
   09:13:36.096.31-Jan-2020 3923.01 5963.67 81.01 5.00   8.20 2954.62
   09:13:36.296.31-Jan-2020 3923.01 5971.48 81.01 5.00   8.40 2954.62
   09:13:36.496.31-Jan-2020 3923.01 5970.78 81.01 5.00   8.60 2954.62
   09:13:36.696.31-Jan-2020 3923.01 5971.43 81.01 5.00   8.80 2954.62
   09:13:36.896.31-Jan-2020 3923.01 5972.93 81.01 5.00   9.00 2954.62
   09:13:37.096.31-Jan-2020 3923.01 5972.93 81.01 5.00   9.20 2954.62
   09:13:37.296.31-Jan-2020 3923.01 5971.42 81.01 5.00   9.40 2954.62
   09:13:37.496.31-Jan-2020 3923.01 5973.10 81.01 5.00   9.60 2954.62
   09:13:37.696.31-Jan-2020 3923.01 5974.03 81.01 5.00   9.80 2954.62
   09:13:37.896.31-Jan-2020 3923.01 5971.54 81.01 5.00  10.00 2954.62
   09:13:38.096.31-Jan-2020 3923.01 5971.54 81.01 5.00  10.20 2954.62
   09:13:38.297.31-Jan-2020 3923.01 5975.88 81.01 5.00  10.40 2954.62
   09:13:38.497.31-Jan-2020 3923.01 5976.19 81.00 5.00  10.60 2954.62
   09:13:38.697.31-Jan-2020 3923.01 5978.46 81.00 5.00  10.80 2954.62
   09:13:38.897.31-Jan-2020 3923.01 5979.88 81.00 5.00  11.00 2954.62
   09:13:39.097.31-Jan-2020 3923.01 5979.88 81.00 5.00  11.20 2954.62
   09:13:39.297.31-Jan-2020 3923.01 5978.04 81.00 5.00  11.40 2954.62
   09:13:39.497.31-Jan-2020 3923.01 5977.95 81.00 5.00  11.60 2954.62
   09:13:39.697.31-Jan-2020 3923.01 5977.73 81.00 5.00  11.80 2954.62
   09:13:39.897.31-Jan-2020 3923.01 5979.52 81.00 5.00  12.00 2954.62
   09:13:40.097.31-Jan-2020 3923.01 5979.52 81.00 5.00  12.20 2954.62
   09:13:40.297.31-Jan-2020 3923.01 5978.88 81.00 5.00  12.40 2954.62
   09:13:40.497.31-Jan-2020 3923.01 5976.93 81.00 5.00  12.60 2954.62
   09:13:40.697.31-Jan-2020 3923.01 5976.93 81.00 5.00  12.80 2954.62
   09:13:40.897.31-Jan-2020 3923.01 5978.86 81.00 5.00  13.00 2954.62
   09:13:41.097.31-Jan-2020 3923.01 5978.86 81.00 5.00  13.20 2954.62
   09:13:41.297.31-Jan-2020 3923.01 5978.37 80.99 5.00  13.40 2954.62
   09:13:41.497.31-Jan-2020 3923.01 5972.72 80.99 5.00  13.60 2954.62
   09:13:41.697.31-Jan-2020 3923.01 5974.56 80.99 5.00  13.80 2954.62
   09:13:41.897.31-Jan-2020 3923.01 5977.63 80.99 5.00  14.00 2954.62
   09:13:42.097.31-Jan-2020 3923.01 5977.63 80.99 5.00  14.20 2954.62
   09:13:42.297.31-Jan-2020 3923.01 5978.30 80.99 5.00  14.40 2954.62
   09:13:42.498.31-Jan-2020 3923.01 5978.84 80.99 5.00  14.60 2954.62
   09:13:42.698.31-Jan-2020 3923.01 5979.44 80.99 5.00  14.80 2954.62
   09:13:42.898.31-Jan-2020 3923.01 5979.29 80.99 5.00  15.00 2954.62
   09:13:43.098.31-Jan-2020 3923.01 5979.29 80.99 5.00  15.20 2954.62
   09:13:43.298.31-Jan-2020 3923.01 5979.60 80.99 5.00  15.40 2954.62
   09:13:43.498.31-Jan-2020 3923.01 5980.02 80.99 5.00  15.60 2954.62
   09:13:43.698.31-Jan-2020 3923.01 5980.30 80.98 5.00  15.80 2954.62
   09:13:43.898.31-Jan-2020 3923.01 5981.04 80.98 5.00  16.00 2954.62
   09:13:44.098.31-Jan-2020 3923.01 5981.04 80.98 5.00  16.20 2954.62
   09:13:44.298.31-Jan-2020 3923.01 5980.96 80.98 5.00  16.40 2954.62
   09:13:44.498.31-Jan-2020 3923.01 5983.96 80.98 5.00  16.60 2954.62
   09:13:44.698.31-Jan-2020 3923.01 6029.05 80.98 5.00  16.80 2954.62
   09:13:44.898.31-Jan-2020 3923.01 6124.90 80.98 5.00  17.00 2954.62
   09:13:45.098.31-Jan-2020 3923.01 6124.90 80.98 5.00  17.20 2954.62
   09:13:45.298.31-Jan-2020 3923.01 6230.53 80.98 5.00  17.40 2954.62
   09:13:45.498.31-Jan-2020 3923.01 6290.99 80.98 5.00  17.60 2954.62
   09:13:45.698.31-Jan-2020 3923.01 6355.20 80.98 5.00  17.80 2954.62
   09:13:45.898.31-Jan-2020 3923.01 6415.09 80.98 5.00  18.00 2954.62
   09:13:46.098.31-Jan-2020 3923.01 6415.09 80.98 5.00  18.20 2954.62
   09:13:46.298.31-Jan-2020 3923.01 6467.94 80.98 5.00  18.40 2954.62
   09:13:46.498.31-Jan-2020 3923.01 6625.07 80.97 5.00  18.60 2954.62
   09:13:46.698.31-Jan-2020 3923.01 6692.64 80.97 5.00  18.80 2954.62
   09:13:46.899.31-Jan-2020 3923.01 6687.63 80.97 5.00  19.00 2954.62
   09:13:47.099.31-Jan-2020 3923.01 6687.63 80.97 5.00  19.20 2954.62
   09:13:47.299.31-Jan-2020 3923.01 6738.22 80.97 5.00  19.40 2954.62
   09:13:47.499.31-Jan-2020 3923.01 6670.83 80.97 5.00  19.60 2954.62
   09:13:47.699.31-Jan-2020 3923.01 6735.85 80.97 5.00  19.80 2954.62
   09:13:47.899.31-Jan-2020 3923.01 6756.28 80.97 5.00  20.00 2954.62
   09:13:48.099.31-Jan-2020 3923.01 6756.28 80.97 5.00  20.20 2954.62
   09:13:48.299.31-Jan-2020 3923.01 6680.17 80.97 5.00  20.40 2954.62
   09:13:48.499.31-Jan-2020 3923.01 6682.24 80.97 5.00  20.60 2954.62
   09:13:48.699.31-Jan-2020 3923.01 6722.81 80.97 5.00  20.80 2954.62
   09:13:48.899.31-Jan-2020 3923.01 6753.53 80.97 5.00  21.00 2954.62
   09:13:49.099.31-Jan-2020 3923.01 6753.53 80.97 5.00  21.20 2954.62
   09:13:49.299.31-Jan-2020 3923.01 6829.14 80.97 5.00  21.41 2954.62
   09:13:49.499.31-Jan-2020 3923.01 6677.86 80.97 5.00  21.61 2954.62
   09:13:49.699.31-Jan-2020 3923.01 6662.69 80.96 5.00  21.81 2954.62
   09:13:49.899.31-Jan-2020 3923.01 6693.64 80.96 5.00  22.01 2954.62
   09:13:50.099.31-Jan-2020 3923.01 6693.64 80.96 5.00  22.21 2954.62
   09:13:50.299.31-Jan-2020 3923.01 6709.84 80.96 5.00  22.41 2954.62
   09:13:50.499.31-Jan-2020 3923.01 6730.78 80.96 5.00  22.61 2954.62
   09:13:50.699.31-Jan-2020 3923.01 6736.80 80.96 5.00  22.81 2954.62
