~Version Information
 VERS.                  2.0:   CWLS log ASCII Standard -VERSION 2.0
 WRAP.                   NO:   One line per depth step
~Well Information Block
#MNEM.UNIT     VALUE/NAME     DESCRIPTION
#---------     -----------    ---------------------------
 STRT.S             04:12:25 01-Feb-20: START TIME 04:12:25 01-Feb-20
 STOP.S             04:20:20 01-Feb-20: STOP TIME  04:20:20 01-Feb-20
 STEP.S                   0.00: STEP TIME
 NULL.                 -999.25: NULL VALUE
 DFWT.                        :  DIST FWL TEXT
 DFST.                        :  DIST FSL TEXT
 DMF .             Drill Floor:  DRILL MEAS FROM
 STIM.      09.30.00 26-Dec-19:  START TIME
 DATE.      08.00.00 20-Jan-20:  END TIME
 SPUD.               23-Nov-19:  SPUD DATE
 NREF.                    Grid:  NORTH REFERENCE
 HPTY.       Minimum Curvature:  HOLE POS TYPE
 DMOD.             Drill Model:  DRILL MOD DESC
 SVYD.                  Survey:  SURVEY DESC
 ILTD.               Lithology:  INTERP LTH DESC
 FTOP.          Formation Tops:  FORM TOPS DESC
 SON .        AZ-XX-0906192647:  JOB NUMBER
 WTYP.                Deviated:  WELL TYPE
 COMP.     BP Exploration (Caspian Sea) Ltd:  COMPANY
 BASE.              Azerbaijan:  LOGGING EQUIPMENT BASE LOCATION
 REGN.                 Eurasia:  REGION
 FLD .                     ACG:  FIELD NAME
 SRVC.              KCA Deutag:  CONTRACTOR
 MWDS.                    Baku:  MWD SHOP
 WELL.     A10 (Slot 20) - SCP:  WELL NAME
 JOBN.        AZ-XX-0906192647:  JOB TICKET NUMB
 RIG .                 Chirag1:  RIG NAME
 DCON.     Halliburton Sperry Drilling:  DIRECTNL CONTR
 UNIT.                     N/A:  LOGGING EQUIPMENT ID
 PDAT.          Mean Sea Level:  PERMANENT DATUM
 MDS .        Operator Entered:  MAG DATA SOURCE
 CTRY.              Azerbaijan:  COUNTRY NAME
 UWI .            /AZE00000090:  UNIQUE WELL IDENTIFIER
 API .            /AZE00000090:  API NUMBER
 CNTY.                        :  COUNTY
 PROV.                        :  PROVINCE
 STAT.                        :  STATE
 LOC .                        :  LOCATION
 LMF .             Drill Floor:  LOG MEASURED FROM
 TVDS.m                  36.60:  TVDSS CORRECTN
 LATI.deg                40.08:  LATITUDE
 LONG.deg                51.24:  LONGITUDE
 WHNS.m                  -7.94:  WELL HEAD N/S
 WHEW.m                   1.56:  WELL HEAD E/W
 UTMX.m              520429.26:  UTM X
 UTMY.m             4438973.87:  UTM Y
 DFWL.m                   0.00:  DISTANCE FWL
 DFSL.m                   0.00:  DISTANCE FSL
 SDEP.m                1455.00:  START DEPTH
 TDD .m                4047.51:  TOTAL DEPTH (DRILLER)
 VSDR.deg               112.75:  VERT SEC DIRECT
 GVFD.g                   1.00:  GRAVITY FIELD
 MFLD.nT              50261.00:  MAGNETIC FIELD
 MDIP.deg                59.52:  MAGNETIC DIP
 MDEC.deg                 6.42:  MAGNETIC DECL
 GRDC.deg                 0.17:  GRID CORRECTION
 AZTC.deg                 6.25:  AZM TOTAL CORR
 EPD .m                   0.00:  ELEVATION
 EGL .m                   0.00:  GROUND ELEVATION
 WDMS.m                 121.00:  WD ELEV
 APD .m                  36.60:  DEPTH ABOVE PD
 AGAP.m                  36.60:  AIR GAP
 VSEW.m                   1.56:  VERT SEC E/W
 VSNS.m                  -7.94:  VERT SEC N/S
 DEP .m                1140.01:  DEPTH
 EKB .m                  36.60:  KB ELEVATION
 EDF .m                  36.60:  DF ELEVATION
 TDL .m                 169.50:  TOTAL DEPTH (LOGGER)
 CSGD.m                3875.01:  CASING BOTTOM (DRILLER)
 CSGL.m                3875.01:  CASING BOTTOM (LOGGER)
 CSGS.in                  7.63:  CASING SIZE
 CSGW.lbpf               23.50:  CASING WEIGHT
 VSC .                       0:  VS TO CLOSURE
 MAGU.                 1849206:  MAGUTM CHECKSUM
~Parameter Information Block
#MNEM.UNIT       Value        Description
#---------     -----------    ---------------------------
 AV  .mps                 1.90:  Ann Velocity 
 AVMX.mps                 2.54:  Max Ann Veloc 
 AZIF.deg               137.03:  Azm, Final 
 BHAT.        Rotary Steerable:  BHA Type 
 BREV.rev             23610.00:  Rev Bit Total 
 BROT.°/30m               0.80:  Build Rotating 
 BS  .in                  6.50:  Bit Size 
 BTPL.psig              110.00:  Bit Press Loss 
 CABU.                     Yes:  Customer Abuse 
 TCS .hr                 70.51:  Time Ciculation Ended 
 CV  .mps                 1.41:  Crit Velocity 
 CVMX.mps                 1.42:  Max Crit Veloc 
 DD1 .         Intigam Rahimov:  Direct Drillr 1 
 DD2 .          Rashad Gojayev:  Direct Drillr 2 
 DDSV.               Geo-Pilot:  DD Service 
 DEFF.%                 100.00:  % Det Eff 
 DLRX.°/30m               1.44:  Dogleg Rot Max 
 DLSO.°/30m               0.00:  Dogleg Oriented 
 DLSX.°/30m               0.00:  Dogleg Str Max 
 DRET.      03.05.00 01-Feb-20:  Drill End Time 
 DRST.      15.50.00 28-Jan-20:  Drill Start Tim 
 DTIM.hr                 24.70:  Time Drilling 
 EDEP.m                4047.51:  End Depth 
 ENG1.           Eldar Hajiyev:  Engineer 1 
 ENG2.          Rasim Hashimov:  Engineer 2 
 ENG3.          Rustam Safarov:  Engineer 3 
 ETIM.      22.00.00 01-Feb-20:  End Time 
 FLOI.gpm               370.00:  Flow In 
 FLON.gpm               300.00:  Flow In Min 
 FLOS.cptm                0.00:  Fluid Loss 
 FLOX.gpm               400.00:  Flow In Max 
 FTRO.       Formation Presure:  FTWD Run Obj 
 HFLO.                      No:  High Flow 
 HPRE.                      No:  High Pressure 
 HTEM.                      No:  High Temp 
 HYDO.m                   2.50:  Hydro Offset 
 IFIN.deg                39.54:  Inc, Final 
 IMAX.deg                41.14:  Inc Max 
 IMIN.deg                39.81:  Inc Min 
 IMND.m                4005.21:  Inc Min Depth 
 IMXD.m                3948.42:  Inc Max Depth 
 JARR.                      No:  Jarring 
 LETM.      03.05.00 01-Feb-20:  Log End Time 
 LOST.hr                     0:  Lost Rig Time 
 LSTM.      15.50.00 28-Jan-20:  Log Start Time 
 MDCL.ppm             37500.00:  Mud Chlorides 
 MDES.     Inversion Oil/Synthetic:  Mud Desc 
 DFD .sg                  1.32:  Mud Density 
 MDMN.sg                  1.32:  Dens Mud Min 
 MDMX.sg                  1.32:  Dens Mud Max 
 MOIL.                      55:  Run Mud Oil % 
 MOWR.                   70:30:  Run Mud OWR 
 MSND.                       0:  Run Mud Sand % 
 MSOL.                      17:  Run Mud Solids% 
 DFV .spqt               80.00:  Mud Viscosity 
 MWOD.in                  4.75:  MWD Tool OD 
 MWSI.                      No:  Serv Intrp, MWD 
 OTIM.hr                121.28:  Time Operating 
 PCON.           Look Like New:  Pad Condition 
 PMAX.psia             6171.00:  Press Op, Max 
 PV  .cP                 30.00:  Mud PV 
 RUN .                     300:  Run Number 
 ROPA.m/hr                5.45:  ROP Avg 
 ROPN.m/hr                3.00:  ROP Min 
 ROPX.m/hr               15.00:  ROP Max 
 RPMA.rpm               130.00:  RPM Surface Avg 
 RPMN.rpm                80.00:  RPM Surface Min 
 RPMX.rpm               140.00:  RPM Surface Max 
 RRUN.                     300:  Rig Run Number 
 RTIM.hr                 13.50:  Time Reaming 
 SAZI.deg               133.93:  Azm, Start 
 SDEP.m                3878.01:  Start Depth 
 SIDD.                      No:  Serv Intrp, DD 
 SINC.deg                40.28:  Inc, Start 
 SPPA.psig             4983.00:  SPP Avg 
 SPPN.psig             4370.00:  SPP Min 
 SPPX.psig             5300.00:  SPP Max 
 STIM.      18.33.36 27-Jan-20:  Start Time 
 SVCS.                 DD, MWD:  Services 
 SVER.                    9.20:  Sperry Version 
 TDAT.m                 169.50:  Tot Depth Attmp 
 TDDF.                      No:  Trip for DD 
 TDLG.m                 169.50:  Tot Depth Loggd 
 TFF .                      No:  Trip for Fail 
 TQAA.f-kp               13.25:  Torque Abs Avg 
 TQAN.f-kp               12.00:  Torque Abs Min 
 TQAX.f-kp               14.00:  Torque Abs Max 
 TRRT.°/30m               0.70:  Turn Rotating 
 MRT .                     ADR:  Maximum Recorded Temperature 
 TTMX.degC               92.16:  Max Tool Temp 
 VS01.       AZ90598764G12V7D4:  Virtual Str1 SN 
 VS02.         AZ90571342R12C4:  Virtual Str2 SN 
 VS03.      AZ90580010N2L2X1C4:  Virtual Str3 SN 
 VS04.        AZ90522266O7X1C4:  Virtual Str4 SN 
 VS05.           AZ90598768F11:  Virtual Str5 SN 
 VS06.     AZ90580006XZ1W1X1C4:  Virtual Str6 SN 
 WBMN.klb                 8.00:  WOB Min 
 WITN.            Peter Wilson:  Customer Rep 
 WOBA.klb                 9.88:  WOB Avg 
 WOBX.klb                10.00:  WOB Max 
 YP  .lhf2               27.00:  Yield Point 
~Curve Information Block
#MNEM.UNIT                 API CODE     Curve Description
#---------               -----------    ---------------------------
 TIME.HHMMSS            00 000 000 000:  GT Time & Date
 GTDEPTH.m              00 000 000 000:  GT Depth
 GTPQH.psia             00 000 000 000:  GT HR Quartz Pressure
 GTTQ.degC              00 000 000 000:  GT Quartz Temperature
 GTTN.NONE              00 000 000 000:  GT Test Number
 GTET.sec               00 000 000 000:  GT Elapsed Test Time
 GTTVD.m                00 000 000 000:  GT True Vertical Depth
#Other Information
#
#WARRANTY: Halliburton will use its best efforts to furnish customers with 
#accurate information and interpretations that are part of, and incident to, the services 
#provided.  However, Halliburton cannot and does not warrant the accuracy 
#or correctness of such information and interpretations.  Under no circumstances should any 
#such information or interpretation be relied upon as the sole basis for any drilling, 
#completion, production, or financial decision or any procedure involving any risk to the 
#safety of any drilling venture, drilling rig or its crew or any other third party.  The 
#Customer has full responsibility for all drilling, completion and production operation.  
#Halliburton makes no representations or warranties, either expressed or 
#implied, including, but not limited to, the implied warranties of merchantability or fitness 
#for a particular purpose, with respect to the services rendered.  In no event will 
#Halliburton be liable for failure to obtain any particular results or for 
#any damages, including, but not limited to, indirect, special or consequential damages, 
#resulting from the use of any information or interpretation provided by Halliburton.
#
~A           TIME           GTDEPTH  GTPQH  GTTQ  GTTN   GTET   GTTVD  
# ...
   04:16:57.583.01-Feb-2020 3998.51 3148.79 84.94 12.00 272.15 3011.77
   04:16:57.783.01-Feb-2020 3998.51 3149.08 84.94 12.00 272.35 3011.77
   04:16:57.984.01-Feb-2020 3998.51 3149.00 84.94 12.00 272.55 3011.77
   04:16:58.185.01-Feb-2020 3998.51 3149.02 84.94 12.00 272.75 3011.77
   04:16:58.385.01-Feb-2020 3998.51 3148.99 84.94 12.00 272.95 3011.77
   04:16:58.586.01-Feb-2020 3998.51 3148.99 84.94 12.00 273.16 3011.77
   04:16:58.787.01-Feb-2020 3998.51 3149.00 84.94 12.00 273.36 3011.77
   04:16:58.988.01-Feb-2020 3998.51 3148.97 84.94 12.00 273.56 3011.77
   04:16:59.188.01-Feb-2020 3998.51 3148.96 84.94 12.00 273.76 3011.77
   04:16:59.389.01-Feb-2020 3998.51 3148.97 84.94 12.00 273.96 3011.77
   04:16:59.590.01-Feb-2020 3998.51 3148.97 84.94 12.00 274.16 3011.77
   04:16:59.790.01-Feb-2020 3998.51 3148.94 84.94 12.00 274.36 3011.77
   04:16:59.991.01-Feb-2020 3998.51 3148.95 84.94 12.00 274.56 3011.77
   04:17:00.192.01-Feb-2020 3998.51 3148.91 84.94 12.00 274.76 3011.77
   04:17:00.392.01-Feb-2020 3998.51 3148.97 84.94 12.00 274.96 3011.77
   04:17:00.593.01-Feb-2020 3998.51 3148.97 84.94 12.00 275.16 3011.77
   04:17:00.794.01-Feb-2020 3998.51 3148.90 84.94 12.00 275.36 3011.77
   04:17:00.995.01-Feb-2020 3998.51 3148.76 84.93 12.00 275.56 3011.77
   04:17:01.195.01-Feb-2020 3998.51 3149.12 84.93 12.00 275.76 3011.77
   04:17:01.396.01-Feb-2020 3998.51 3148.86 84.93 12.00 275.96 3011.77
   04:17:01.597.01-Feb-2020 3998.51 3148.86 84.93 12.00 276.17 3011.77
   04:17:01.797.01-Feb-2020 3998.51 3148.95 84.93 12.00 276.37 3011.77
   04:17:01.998.01-Feb-2020 3998.51 3148.98 84.93 12.00 276.57 3011.77
   04:17:02.199.01-Feb-2020 3998.51 3149.03 84.93 12.00 276.77 3011.77
   04:17:02.400.01-Feb-2020 3998.51 3148.90 84.93 12.00 276.97 3011.77
   04:17:02.600.01-Feb-2020 3998.51 3148.90 84.93 12.00 277.17 3011.77
   04:17:02.801.01-Feb-2020 3998.51 3148.97 84.93 12.00 277.37 3011.77
   04:17:03.002.01-Feb-2020 3998.51 3148.93 84.93 12.00 277.57 3011.77
   04:17:03.202.01-Feb-2020 3998.51 3149.00 84.93 12.00 277.77 3011.77
   04:17:03.403.01-Feb-2020 3998.51 3148.93 84.93 12.00 277.97 3011.77
   04:17:03.604.01-Feb-2020 3998.51 3148.93 84.93 12.00 278.17 3011.77
   04:17:03.804.01-Feb-2020 3998.51 3148.97 84.93 12.00 278.37 3011.77
   04:17:04.005.01-Feb-2020 3998.51 3148.90 84.93 12.00 278.57 3011.77
   04:17:04.206.01-Feb-2020 3998.51 3148.98 84.93 12.00 278.77 3011.77
   04:17:04.407.01-Feb-2020 3998.51 3148.86 84.93 12.00 278.98 3011.77
   04:17:04.607.01-Feb-2020 3998.51 3148.86 84.93 12.00 279.18 3011.77
   04:17:04.808.01-Feb-2020 3998.51 3149.08 84.93 12.00 279.38 3011.77
   04:17:05.009.01-Feb-2020 3998.51 3148.98 84.93 12.00 279.58 3011.77
   04:17:05.209.01-Feb-2020 3998.51 3148.95 84.92 12.00 279.78 3011.77
   04:17:05.410.01-Feb-2020 3998.51 3148.85 84.92 12.00 279.98 3011.77
   04:17:05.611.01-Feb-2020 3998.51 3148.85 84.92 12.00 280.18 3011.77
   04:17:05.811.01-Feb-2020 3998.51 3149.04 84.92 12.00 280.38 3011.77
   04:17:06.012.01-Feb-2020 3998.51 3149.04 84.92 12.00 280.58 3011.77
   04:17:06.213.01-Feb-2020 3998.51 3148.72 84.92 12.00 280.78 3011.77
   04:17:06.414.01-Feb-2020 3998.51 3149.16 84.92 12.00 280.98 3011.77
   04:17:06.614.01-Feb-2020 3998.51 3149.16 84.92 12.00 281.18 3011.77
   04:17:06.815.01-Feb-2020 3998.51 3148.96 84.92 12.00 281.38 3011.77
   04:17:07.016.01-Feb-2020 3998.51 3149.02 84.92 12.00 281.58 3011.77
   04:17:07.216.01-Feb-2020 3998.51 3148.99 84.92 12.00 281.79 3011.77
   04:17:07.417.01-Feb-2020 3998.51 3148.99 84.92 12.00 281.99 3011.77
   04:17:07.618.01-Feb-2020 3998.51 3148.99 84.92 12.00 282.19 3011.77
   04:17:07.818.01-Feb-2020 3998.51 3148.93 84.92 12.00 282.39 3011.77
   04:17:08.019.01-Feb-2020 3998.51 3149.03 84.92 12.00 282.59 3011.77
   04:17:08.220.01-Feb-2020 3998.51 3149.02 84.92 12.00 282.79 3011.77
   04:17:08.421.01-Feb-2020 3998.51 3149.02 84.92 12.00 282.99 3011.77
   04:17:08.621.01-Feb-2020 3998.51 3149.02 84.92 12.00 283.19 3011.77
   04:17:08.822.01-Feb-2020 3998.51 3148.93 84.92 12.00 283.39 3011.77
   04:17:09.023.01-Feb-2020 3998.51 3148.88 84.92 12.00 283.59 3011.77
   04:17:09.223.01-Feb-2020 3998.51 3148.97 84.92 12.00 283.79 3011.77
   04:17:09.424.01-Feb-2020 3998.51 3149.09 84.91 12.00 283.99 3011.77
   04:17:09.625.01-Feb-2020 3998.51 3149.09 84.91 12.00 284.19 3011.77
   04:17:09.825.01-Feb-2020 3998.51 3149.01 84.91 12.00 284.39 3011.77
   04:17:10.026.01-Feb-2020 3998.51 3148.99 84.91 12.00 284.60 3011.77
   04:17:10.227.01-Feb-2020 3998.51 3148.97 84.91 12.00 284.80 3011.77
   04:17:10.428.01-Feb-2020 3998.51 3148.96 84.91 12.00 285.00 3011.77
   04:17:10.628.01-Feb-2020 3998.51 3148.96 84.91 12.00 285.20 3011.77
   04:17:10.829.01-Feb-2020 3998.51 3148.96 84.91 12.00 285.40 3011.77
   04:17:11.030.01-Feb-2020 3998.51 3148.97 84.91 12.00 285.60 3011.77
   04:17:11.230.01-Feb-2020 3998.51 3148.94 84.91 12.00 285.80 3011.77
   04:17:11.431.01-Feb-2020 3998.51 3148.96 84.91 12.00 286.00 3011.77
   04:17:11.632.01-Feb-2020 3998.51 3148.96 84.91 12.00 286.20 3011.77
   04:17:11.832.01-Feb-2020 3998.51 3148.96 84.91 12.00 286.40 3011.77
   04:17:12.033.01-Feb-2020 3998.51 3148.95 84.91 12.00 286.60 3011.77
   04:17:12.234.01-Feb-2020 3998.51 3148.96 84.91 12.00 286.80 3011.77
   04:17:12.435.01-Feb-2020 3998.51 3148.94 84.91 12.00 287.00 3011.77
   04:17:12.635.01-Feb-2020 3998.51 3148.94 84.91 12.00 287.20 3011.77
   04:17:12.836.01-Feb-2020 3998.51 3149.16 84.91 12.00 287.40 3011.77
   04:17:13.037.01-Feb-2020 3998.51 3148.97 84.91 12.00 287.61 3011.77
   04:17:13.237.01-Feb-2020 3998.51 3149.01 84.91 12.00 287.81 3011.77
   04:17:13.438.01-Feb-2020 3998.51 3149.02 84.91 12.00 288.01 3011.77
   04:17:13.639.01-Feb-2020 3998.51 3149.02 84.91 12.00 288.21 3011.77
   04:17:13.840.01-Feb-2020 3998.51 3149.01 84.90 12.00 288.41 3011.77
   04:17:14.040.01-Feb-2020 3998.51 3148.97 84.90 12.00 288.61 3011.77
   04:17:14.241.01-Feb-2020 3998.51 3148.94 84.90 12.00 288.81 3011.77
   04:17:14.442.01-Feb-2020 3998.51 3149.01 84.90 12.00 289.01 3011.77
   04:17:14.642.01-Feb-2020 3998.51 3149.01 84.90 12.00 289.21 3011.77
   04:17:14.843.01-Feb-2020 3998.51 3148.98 84.90 12.00 289.41 3011.77
   04:17:15.044.01-Feb-2020 3998.51 3148.99 84.90 12.00 289.61 3011.77
   04:17:15.244.01-Feb-2020 3998.51 3148.91 84.90 12.00 289.81 3011.77
   04:17:15.445.01-Feb-2020 3998.51 3148.92 84.90 12.00 290.01 3011.77
   04:17:15.646.01-Feb-2020 3998.51 3148.92 84.90 12.00 290.21 3011.77
   04:17:15.847.01-Feb-2020 3998.51 3148.85 84.90 12.00 290.42 3011.77
   04:17:16.047.01-Feb-2020 3998.51 3148.96 84.90 12.00 290.62 3011.77
   04:17:16.248.01-Feb-2020 3998.51 3148.89 84.90 12.00 290.82 3011.77
   04:17:16.449.01-Feb-2020 3998.51 3149.01 84.90 12.00 291.02 3011.77
   04:17:16.649.01-Feb-2020 3998.51 3149.01 84.90 12.00 291.22 3011.77
   04:17:16.850.01-Feb-2020 3998.51 3148.88 84.90 12.00 291.42 3011.77
   04:17:17.051.01-Feb-2020 3998.51 3148.88 84.90 12.00 291.62 3011.77
   04:17:17.251.01-Feb-2020 3998.51 3148.98 84.90 12.00 291.82 3011.77
   04:17:17.452.01-Feb-2020 3998.51 3149.03 84.90 12.00 292.02 3011.77
   04:17:17.653.01-Feb-2020 3998.51 3149.03 84.90 12.00 292.22 3011.77
   04:17:17.854.01-Feb-2020 3998.51 3148.72 84.89 12.00 292.42 3011.77
   04:17:18.054.01-Feb-2020 3998.51 3149.11 84.89 12.00 292.62 3011.77
   04:17:18.255.01-Feb-2020 3998.51 3149.08 84.89 12.00 292.82 3011.77
   04:17:18.456.01-Feb-2020 3998.51 3148.98 84.89 12.00 293.02 3011.77
   04:17:18.656.01-Feb-2020 3998.51 3148.98 84.89 12.00 293.23 3011.77
   04:17:18.857.01-Feb-2020 3998.51 3149.05 84.89 12.00 293.43 3011.77
   04:17:19.058.01-Feb-2020 3998.51 3148.89 84.89 12.00 293.63 3011.77
   04:17:19.258.01-Feb-2020 3998.51 3148.92 84.89 12.00 293.83 3011.77
   04:17:19.459.01-Feb-2020 3998.51 3148.96 84.89 12.00 294.03 3011.77
   04:17:19.660.01-Feb-2020 3998.51 3148.96 84.89 12.00 294.23 3011.77
   04:17:19.861.01-Feb-2020 3998.51 3149.04 84.89 12.00 294.43 3011.77
   04:17:20.061.01-Feb-2020 3998.51 3149.04 84.89 12.00 294.63 3011.77
