~Version Information
 VERS.                  2.0:   CWLS log ASCII Standard -VERSION 2.0
 WRAP.                   NO:   One line per depth step
~Well Information Block
#MNEM.UNIT     VALUE/NAME     DESCRIPTION
#---------     -----------    ---------------------------
 STRT.S             19:01:08 30-Jan-20: START TIME 19:01:08 30-Jan-20
 STOP.S             19:07:38 30-Jan-20: STOP TIME  19:07:38 30-Jan-20
 STEP.S                   0.00: STEP TIME
 NULL.                 -999.25: NULL VALUE
 DFWT.                        :  DIST FWL TEXT
 DFST.                        :  DIST FSL TEXT
 DMF .             Drill Floor:  DRILL MEAS FROM
 STIM.      09.30.00 26-Dec-19:  START TIME
 DATE.      08.00.00 20-Jan-20:  END TIME
 SPUD.               23-Nov-19:  SPUD DATE
 NREF.                    Grid:  NORTH REFERENCE
 HPTY.       Minimum Curvature:  HOLE POS TYPE
 DMOD.             Drill Model:  DRILL MOD DESC
 SVYD.                  Survey:  SURVEY DESC
 ILTD.               Lithology:  INTERP LTH DESC
 FTOP.          Formation Tops:  FORM TOPS DESC
 SON .        AZ-XX-0906192647:  JOB NUMBER
 WTYP.                Deviated:  WELL TYPE
 COMP.     BP Exploration (Caspian Sea) Ltd:  COMPANY
 BASE.              Azerbaijan:  LOGGING EQUIPMENT BASE LOCATION
 REGN.                 Eurasia:  REGION
 FLD .                     ACG:  FIELD NAME
 SRVC.              KCA Deutag:  CONTRACTOR
 MWDS.                    Baku:  MWD SHOP
 WELL.     A10 (Slot 20) - SCP:  WELL NAME
 JOBN.        AZ-XX-0906192647:  JOB TICKET NUMB
 RIG .                 Chirag1:  RIG NAME
 DCON.     Halliburton Sperry Drilling:  DIRECTNL CONTR
 UNIT.                     N/A:  LOGGING EQUIPMENT ID
 PDAT.          Mean Sea Level:  PERMANENT DATUM
 MDS .        Operator Entered:  MAG DATA SOURCE
 CTRY.              Azerbaijan:  COUNTRY NAME
 UWI .            /AZE00000090:  UNIQUE WELL IDENTIFIER
 API .            /AZE00000090:  API NUMBER
 CNTY.                        :  COUNTY
 PROV.                        :  PROVINCE
 STAT.                        :  STATE
 LOC .                        :  LOCATION
 LMF .             Drill Floor:  LOG MEASURED FROM
 TVDS.m                  36.60:  TVDSS CORRECTN
 LATI.deg                40.08:  LATITUDE
 LONG.deg                51.24:  LONGITUDE
 WHNS.m                  -7.94:  WELL HEAD N/S
 WHEW.m                   1.56:  WELL HEAD E/W
 UTMX.m              520429.26:  UTM X
 UTMY.m             4438973.87:  UTM Y
 DFWL.m                   0.00:  DISTANCE FWL
 DFSL.m                   0.00:  DISTANCE FSL
 SDEP.m                1455.00:  START DEPTH
 TDD .m                4047.51:  TOTAL DEPTH (DRILLER)
 VSDR.deg               112.75:  VERT SEC DIRECT
 GVFD.g                   1.00:  GRAVITY FIELD
 MFLD.nT              50261.00:  MAGNETIC FIELD
 MDIP.deg                59.52:  MAGNETIC DIP
 MDEC.deg                 6.42:  MAGNETIC DECL
 GRDC.deg                 0.17:  GRID CORRECTION
 AZTC.deg                 6.25:  AZM TOTAL CORR
 EPD .m                   0.00:  ELEVATION
 EGL .m                   0.00:  GROUND ELEVATION
 WDMS.m                 121.00:  WD ELEV
 APD .m                  36.60:  DEPTH ABOVE PD
 AGAP.m                  36.60:  AIR GAP
 VSEW.m                   1.56:  VERT SEC E/W
 VSNS.m                  -7.94:  VERT SEC N/S
 DEP .m                1140.01:  DEPTH
 EKB .m                  36.60:  KB ELEVATION
 EDF .m                  36.60:  DF ELEVATION
 TDL .m                 169.50:  TOTAL DEPTH (LOGGER)
 CSGD.m                3875.01:  CASING BOTTOM (DRILLER)
 CSGL.m                3875.01:  CASING BOTTOM (LOGGER)
 CSGS.in                  7.63:  CASING SIZE
 CSGW.lbpf               23.50:  CASING WEIGHT
 VSC .                       0:  VS TO CLOSURE
 MAGU.                 1849206:  MAGUTM CHECKSUM
~Parameter Information Block
#MNEM.UNIT       Value        Description
#---------     -----------    ---------------------------
 AV  .mps                 1.90:  Ann Velocity 
 AVMX.mps                 2.54:  Max Ann Veloc 
 AZIF.deg               137.03:  Azm, Final 
 BHAT.        Rotary Steerable:  BHA Type 
 BREV.rev             23610.00:  Rev Bit Total 
 BROT.°/30m               0.80:  Build Rotating 
 BS  .in                  6.50:  Bit Size 
 BTPL.psig              110.00:  Bit Press Loss 
 CABU.                     Yes:  Customer Abuse 
 COMM.                     Ó€:  Run Comments 1 
 TCS .hr                 70.51:  Time Ciculation Ended 
 CV  .mps                 1.41:  Crit Velocity 
 CVMX.mps                 1.42:  Max Crit Veloc 
 DD1 .         Intigam Rahimov:  Direct Drillr 1 
 DD2 .          Rashad Gojayev:  Direct Drillr 2 
 DDSV.               Geo-Pilot:  DD Service 
 DEFF.%                 100.00:  % Det Eff 
 DLRX.°/30m               1.44:  Dogleg Rot Max 
 DLSO.°/30m               0.00:  Dogleg Oriented 
 DLSX.°/30m               0.00:  Dogleg Str Max 
 DRET.      03.05.00 01-Feb-20:  Drill End Time 
 DRST.      15.50.00 28-Jan-20:  Drill Start Tim 
 DTIM.hr                 24.70:  Time Drilling 
 EDEP.m                4047.51:  End Depth 
 ENG1.           Eldar Hajiyev:  Engineer 1 
 ENG2.          Rasim Hashimov:  Engineer 2 
 ENG3.          Rustam Safarov:  Engineer 3 
 ETIM.      22.00.00 01-Feb-20:  End Time 
 FLOI.gpm               370.00:  Flow In 
 FLON.gpm               300.00:  Flow In Min 
 FLOS.cptm                0.00:  Fluid Loss 
 FLOX.gpm               400.00:  Flow In Max 
 FTRO.       Formation Presure:  FTWD Run Obj 
 HFLO.                      No:  High Flow 
 HPRE.                      No:  High Pressure 
 HTEM.                      No:  High Temp 
 HYDO.m                   2.50:  Hydro Offset 
 IFIN.deg                39.54:  Inc, Final 
 IMAX.deg                41.14:  Inc Max 
 IMIN.deg                39.81:  Inc Min 
 IMND.m                4005.21:  Inc Min Depth 
 IMXD.m                3948.42:  Inc Max Depth 
 JARR.                      No:  Jarring 
 LETM.      03.05.00 01-Feb-20:  Log End Time 
 LOST.hr                     0:  Lost Rig Time 
 LSTM.      15.50.00 28-Jan-20:  Log Start Time 
 MDCL.ppm             37500.00:  Mud Chlorides 
 MDES.     Inversion Oil/Synthetic:  Mud Desc 
 DFD .sg                  1.32:  Mud Density 
 MDMN.sg                  1.32:  Dens Mud Min 
 MDMX.sg                  1.32:  Dens Mud Max 
 MOIL.                      55:  Run Mud Oil % 
 MOWR.                   70:30:  Run Mud OWR 
 MSND.                       0:  Run Mud Sand % 
 MSOL.                      17:  Run Mud Solids% 
 DFV .spqt               80.00:  Mud Viscosity 
 MWOD.in                  4.75:  MWD Tool OD 
 MWSI.                      No:  Serv Intrp, MWD 
 OTIM.hr                121.28:  Time Operating 
 PCON.           Look Like New:  Pad Condition 
 PMAX.psia             6171.00:  Press Op, Max 
 PV  .cP                 30.00:  Mud PV 
 RUN .                     300:  Run Number 
 ROPA.m/hr                5.45:  ROP Avg 
 ROPN.m/hr                3.00:  ROP Min 
 ROPX.m/hr               15.00:  ROP Max 
 RPMA.rpm               130.00:  RPM Surface Avg 
 RPMN.rpm                80.00:  RPM Surface Min 
 RPMX.rpm               140.00:  RPM Surface Max 
 RRUN.                     300:  Rig Run Number 
 RTIM.hr                 13.50:  Time Reaming 
 SAZI.deg               133.93:  Azm, Start 
 SDEP.m                3878.01:  Start Depth 
 SIDD.                      No:  Serv Intrp, DD 
 SINC.deg                40.28:  Inc, Start 
 SPPA.psig             4983.00:  SPP Avg 
 SPPN.psig             4370.00:  SPP Min 
 SPPX.psig             5300.00:  SPP Max 
 STIM.      18.33.36 27-Jan-20:  Start Time 
 SVCS.                 DD, MWD:  Services 
 SVER.                    9.20:  Sperry Version 
 TDAT.m                 169.50:  Tot Depth Attmp 
 TDDF.                      No:  Trip for DD 
 TDLG.m                 169.50:  Tot Depth Loggd 
 TFF .                      No:  Trip for Fail 
 TQAA.f-kp               13.25:  Torque Abs Avg 
 TQAN.f-kp               12.00:  Torque Abs Min 
 TQAX.f-kp               14.00:  Torque Abs Max 
 TRRT.°/30m               0.70:  Turn Rotating 
 MRT .                     ADR:  Maximum Recorded Temperature 
 TTMX.degC               92.16:  Max Tool Temp 
 VS01.       AZ90598764G12V7D4:  Virtual Str1 SN 
 VS02.         AZ90571342R12C4:  Virtual Str2 SN 
 VS03.      AZ90580010N2L2X1C4:  Virtual Str3 SN 
 VS04.        AZ90522266O7X1C4:  Virtual Str4 SN 
 VS05.           AZ90598768F11:  Virtual Str5 SN 
 VS06.     AZ90580006XZ1W1X1C4:  Virtual Str6 SN 
 WBMN.klb                 8.00:  WOB Min 
 WITN.            Peter Wilson:  Customer Rep 
 WOBA.klb                 9.88:  WOB Avg 
 WOBX.klb                10.00:  WOB Max 
 YP  .lhf2               27.00:  Yield Point 
~Curve Information Block
#MNEM.UNIT                 API CODE     Curve Description
#---------               -----------    ---------------------------
 TIME.HHMMSS            00 000 000 000:  GT Time & Date
 GTDEPTH.m              00 000 000 000:  GT Depth
 GTPQH.psia             00 000 000 000:  GT HR Quartz Pressure
 GTTQ.degC              00 000 000 000:  GT Quartz Temperature
 GTTN.NONE              00 000 000 000:  GT Test Number
 GTET.sec               00 000 000 000:  GT Elapsed Test Time
 GTTVD.m                00 000 000 000:  GT True Vertical Depth
#Other Information
#
#WARRANTY: Halliburton will use its best efforts to furnish customers with 
#accurate information and interpretations that are part of, and incident to, the services 
#provided.  However, Halliburton cannot and does not warrant the accuracy 
#or correctness of such information and interpretations.  Under no circumstances should any 
#such information or interpretation be relied upon as the sole basis for any drilling, 
#completion, production, or financial decision or any procedure involving any risk to the 
#safety of any drilling venture, drilling rig or its crew or any other third party.  The 
#Customer has full responsibility for all drilling, completion and production operation.  
#Halliburton makes no representations or warranties, either expressed or 
#implied, including, but not limited to, the implied warranties of merchantability or fitness 
#for a particular purpose, with respect to the services rendered.  In no event will 
#Halliburton be liable for failure to obtain any particular results or for 
#any damages, including, but not limited to, indirect, special or consequential damages, 
#resulting from the use of any information or interpretation provided by Halliburton.
#
~A           TIME           GTDEPTH  GTPQH  GTTQ  GTTN  GTET   GTTVD  
   19:01:08.489.30-Jan-2020 3884.01 -999.25 69.50 1.00   0.00 2925.13
   19:01:08.690.30-Jan-2020 3884.01    0.00 69.50 1.00   0.20 2925.13
   19:01:08.890.30-Jan-2020 3884.01    0.00 69.50 1.00   0.40 2925.13
   19:01:09.090.30-Jan-2020 3884.01 5830.09 69.50 1.00   0.60 2925.13
   19:01:09.290.30-Jan-2020 3884.01 5827.97 69.50 1.00   0.80 2925.13
   19:01:09.490.30-Jan-2020 3884.01 5817.07 69.50 1.00   1.00 2925.13
   19:01:09.690.30-Jan-2020 3884.01 5817.07 69.50 1.00   1.20 2925.13
   19:01:09.890.30-Jan-2020 3884.01 5826.24 69.50 1.00   1.40 2925.13
   19:01:10.090.30-Jan-2020 3884.01 5826.09 69.50 1.00   1.60 2925.13
   19:01:10.290.30-Jan-2020 3884.01 5825.21 69.50 1.00   1.80 2925.13
   19:01:10.490.30-Jan-2020 3884.01 5824.60 69.50 1.00   2.00 2925.13
   19:01:10.690.30-Jan-2020 3884.01 5824.60 69.50 1.00   2.20 2925.13
   19:01:10.890.30-Jan-2020 3884.01 5827.14 69.50 1.00   2.40 2925.13
   19:01:11.090.30-Jan-2020 3884.01 5818.84 69.50 1.00   2.60 2925.13
   19:01:11.290.30-Jan-2020 3884.01 5829.91 69.50 1.00   2.80 2925.13
   19:01:11.490.30-Jan-2020 3884.01 5829.05 69.50 1.00   3.00 2925.13
   19:01:11.690.30-Jan-2020 3884.01 5829.05 69.50 1.00   3.20 2925.13
   19:01:11.890.30-Jan-2020 3884.01 5832.01 69.50 1.00   3.40 2925.13
   19:01:12.090.30-Jan-2020 3884.01 5831.99 69.49 1.00   3.60 2925.13
   19:01:12.290.30-Jan-2020 3884.01 5835.39 69.49 1.00   3.80 2925.13
   19:01:12.490.30-Jan-2020 3884.01 5835.78 69.49 1.00   4.00 2925.13
   19:01:12.690.30-Jan-2020 3884.01 5835.78 69.49 1.00   4.20 2925.13
   19:01:12.890.30-Jan-2020 3884.01 5832.77 69.49 1.00   4.40 2925.13
   19:01:13.091.30-Jan-2020 3884.01 5822.09 69.49 1.00   4.60 2925.13
   19:01:13.291.30-Jan-2020 3884.01 5831.98 69.49 1.00   4.80 2925.13
   19:01:13.491.30-Jan-2020 3884.01 5831.26 69.49 1.00   5.00 2925.13
   19:01:13.691.30-Jan-2020 3884.01 5831.26 69.49 1.00   5.20 2925.13
   19:01:13.891.30-Jan-2020 3884.01 5833.58 69.49 1.00   5.40 2925.13
   19:01:14.091.30-Jan-2020 3884.01 5833.86 69.49 1.00   5.60 2925.13
   19:01:14.291.30-Jan-2020 3884.01 5831.76 69.49 1.00   5.80 2925.13
   19:01:14.491.30-Jan-2020 3884.01 5830.83 69.49 1.00   6.00 2925.13
   19:01:14.691.30-Jan-2020 3884.01 5830.83 69.49 1.00   6.20 2925.13
   19:01:14.891.30-Jan-2020 3884.01 5829.05 69.49 1.00   6.40 2925.13
   19:01:15.091.30-Jan-2020 3884.01 5829.05 69.49 1.00   6.60 2925.13
   19:01:15.291.30-Jan-2020 3884.01 5827.39 69.49 1.00   6.80 2925.13
   19:01:15.491.30-Jan-2020 3884.01 5826.54 69.49 1.00   7.00 2925.13
   19:01:15.691.30-Jan-2020 3884.01 5826.54 69.49 1.00   7.20 2925.13
   19:01:15.891.30-Jan-2020 3884.01 5826.22 69.49 1.00   7.40 2925.13
   19:01:16.091.30-Jan-2020 3884.01 5827.27 69.49 1.00   7.60 2925.13
   19:01:16.291.30-Jan-2020 3884.01 5826.46 69.48 1.00   7.80 2925.13
   19:01:16.491.30-Jan-2020 3884.01 5825.32 69.48 1.00   8.00 2925.13
   19:01:16.691.30-Jan-2020 3884.01 5825.32 69.48 1.00   8.20 2925.13
   19:01:16.891.30-Jan-2020 3884.01 5825.15 69.48 1.00   8.40 2925.13
   19:01:17.091.30-Jan-2020 3884.01 5824.97 69.48 1.00   8.60 2925.13
   19:01:17.292.30-Jan-2020 3884.01 5827.51 69.48 1.00   8.80 2925.13
   19:01:17.492.30-Jan-2020 3884.01 5828.17 69.48 1.00   9.00 2925.13
   19:01:17.692.30-Jan-2020 3884.01 5828.17 69.48 1.00   9.20 2925.13
   19:01:17.892.30-Jan-2020 3884.01 5831.02 69.48 1.00   9.40 2925.13
   19:01:18.092.30-Jan-2020 3884.01 5831.56 69.48 1.00   9.60 2925.13
   19:01:18.292.30-Jan-2020 3884.01 5832.33 69.48 1.00   9.80 2925.13
   19:01:18.492.30-Jan-2020 3884.01 5832.20 69.48 1.00  10.00 2925.13
   19:01:18.692.30-Jan-2020 3884.01 5832.20 69.48 1.00  10.20 2925.13
   19:01:18.892.30-Jan-2020 3884.01 5833.05 69.48 1.00  10.40 2925.13
   19:01:19.092.30-Jan-2020 3884.01 5832.78 69.48 1.00  10.60 2925.13
   19:01:19.292.30-Jan-2020 3884.01 5833.66 69.48 1.00  10.80 2925.13
   19:01:19.492.30-Jan-2020 3884.01 5835.16 69.48 1.00  11.00 2925.13
   19:01:19.692.30-Jan-2020 3884.01 5835.16 69.48 1.00  11.20 2925.13
   19:01:19.892.30-Jan-2020 3884.01 5835.17 69.48 1.00  11.40 2925.13
   19:01:20.092.30-Jan-2020 3884.01 5832.85 69.48 1.00  11.60 2925.13
   19:01:20.292.30-Jan-2020 3884.01 5823.93 69.48 1.00  11.80 2925.13
   19:01:20.492.30-Jan-2020 3884.01 5832.23 69.47 1.00  12.00 2925.13
   19:01:20.692.30-Jan-2020 3884.01 5832.23 69.47 1.00  12.20 2925.13
   19:01:20.892.30-Jan-2020 3884.01 5831.85 69.47 1.00  12.40 2925.13
   19:01:21.092.30-Jan-2020 3884.01 5832.51 69.47 1.00  12.60 2925.13
   19:01:21.292.30-Jan-2020 3884.01 5831.70 69.47 1.00  12.80 2925.13
   19:01:21.493.30-Jan-2020 3884.01 5824.79 69.47 1.00  13.00 2925.13
   19:01:21.693.30-Jan-2020 3884.01 5824.79 69.47 1.00  13.20 2925.13
   19:01:21.893.30-Jan-2020 3884.01 5832.24 69.47 1.00  13.40 2925.13
   19:01:22.093.30-Jan-2020 3884.01 5833.46 69.47 1.00  13.60 2925.13
   19:01:22.293.30-Jan-2020 3884.01 5832.38 69.47 1.00  13.80 2925.13
   19:01:22.493.30-Jan-2020 3884.01 5832.46 69.47 1.00  14.00 2925.13
   19:01:22.693.30-Jan-2020 3884.01 5832.46 69.47 1.00  14.20 2925.13
   19:01:22.893.30-Jan-2020 3884.01 5831.98 69.47 1.00  14.40 2925.13
   19:01:23.093.30-Jan-2020 3884.01 5833.96 69.47 1.00  14.60 2925.13
   19:01:23.293.30-Jan-2020 3884.01 5834.81 69.47 1.00  14.80 2925.13
   19:01:23.493.30-Jan-2020 3884.01 5834.05 69.47 1.00  15.00 2925.13
   19:01:23.693.30-Jan-2020 3884.01 5834.05 69.47 1.00  15.20 2925.13
   19:01:23.893.30-Jan-2020 3884.01 5823.83 69.47 1.00  15.40 2925.13
   19:01:24.093.30-Jan-2020 3884.01 5833.79 69.47 1.00  15.60 2925.13
   19:01:24.293.30-Jan-2020 3884.01 5835.62 69.47 1.00  15.80 2925.13
   19:01:24.493.30-Jan-2020 3884.01 5835.84 69.47 1.00  16.00 2925.13
   19:01:24.693.30-Jan-2020 3884.01 5835.84 69.47 1.00  16.20 2925.13
   19:01:24.893.30-Jan-2020 3884.01 5836.20 69.46 1.00  16.40 2925.13
   19:01:25.093.30-Jan-2020 3884.01 5835.37 69.46 1.00  16.60 2925.13
   19:01:25.293.30-Jan-2020 3884.01 5836.45 69.46 1.00  16.80 2925.13
   19:01:25.493.30-Jan-2020 3884.01 5837.91 69.46 1.00  17.00 2925.13
   19:01:25.693.30-Jan-2020 3884.01 5837.91 69.46 1.00  17.20 2925.13
   19:01:25.894.30-Jan-2020 3884.01 5860.52 69.46 1.00  17.40 2925.13
   19:01:26.094.30-Jan-2020 3884.01 5941.60 69.46 1.00  17.60 2925.13
   19:01:26.294.30-Jan-2020 3884.01 6028.45 69.46 1.00  17.80 2925.13
   19:01:26.494.30-Jan-2020 3884.01 6081.68 69.46 1.00  18.00 2925.13
   19:01:26.694.30-Jan-2020 3884.01 6081.68 69.46 1.00  18.20 2925.13
   19:01:26.894.30-Jan-2020 3884.01 6201.88 69.46 1.00  18.40 2925.13
   19:01:27.094.30-Jan-2020 3884.01 6263.41 69.46 1.00  18.60 2925.13
   19:01:27.294.30-Jan-2020 3884.01 6320.77 69.46 1.00  18.80 2925.13
   19:01:27.494.30-Jan-2020 3884.01 6468.56 69.46 1.00  19.00 2925.13
   19:01:27.694.30-Jan-2020 3884.01 6468.56 69.46 1.00  19.20 2925.13
   19:01:27.894.30-Jan-2020 3884.01 6959.38 69.46 1.00  19.40 2925.13
   19:01:28.094.30-Jan-2020 3884.01 7059.86 69.46 1.00  19.60 2925.13
   19:01:28.294.30-Jan-2020 3884.01 7124.90 69.46 1.00  19.80 2925.13
   19:01:28.494.30-Jan-2020 3884.01 7193.59 69.46 1.00  20.00 2925.13
   19:01:28.694.30-Jan-2020 3884.01 7193.59 69.46 1.00  20.20 2925.13
   19:01:28.894.30-Jan-2020 3884.01 7368.45 69.46 1.00  20.40 2925.13
   19:01:29.094.30-Jan-2020 3884.01 7435.36 69.46 1.00  20.60 2925.13
   19:01:29.294.30-Jan-2020 3884.01 7386.76 69.46 1.00  20.80 2925.13
   19:01:29.494.30-Jan-2020 3884.01 7379.63 69.45 1.00  21.00 2925.13
   19:01:29.694.30-Jan-2020 3884.01 7379.63 69.45 1.00  21.20 2925.13
   19:01:29.894.30-Jan-2020 3884.01 7462.11 69.45 1.00  21.40 2925.13
   19:01:30.095.30-Jan-2020 3884.01 7507.39 69.45 1.00  21.61 2925.13
   19:01:30.295.30-Jan-2020 3884.01 7546.35 69.45 1.00  21.81 2925.13
   19:01:30.495.30-Jan-2020 3884.01 7655.62 69.45 1.00  22.01 2925.13
   19:01:30.695.30-Jan-2020 3884.01 7655.62 69.45 1.00  22.21 2925.13
   19:01:30.895.30-Jan-2020 3884.01 7782.52 69.45 1.00  22.41 2925.13
   19:01:31.095.30-Jan-2020 3884.01 7770.99 69.45 1.00  22.61 2925.13
   19:01:31.295.30-Jan-2020 3884.01 7787.96 69.45 1.00  22.81 2925.13
