~Version Information
 VERS.                  2.0:   CWLS log ASCII Standard -VERSION 2.0
 WRAP.                   NO:   One line per depth step
~Well Information Block
#MNEM.UNIT     VALUE/NAME     DESCRIPTION
#---------     -----------    ---------------------------
 STRT.S             04:12:25 01-Feb-20: START TIME 04:12:25 01-Feb-20
 STOP.S             04:20:20 01-Feb-20: STOP TIME  04:20:20 01-Feb-20
 STEP.S                   0.00: STEP TIME
 NULL.                 -999.25: NULL VALUE
 DFWT.                        :  DIST FWL TEXT
 DFST.                        :  DIST FSL TEXT
 DMF .             Drill Floor:  DRILL MEAS FROM
 STIM.      09.30.00 26-Dec-19:  START TIME
 DATE.      08.00.00 20-Jan-20:  END TIME
 SPUD.               23-Nov-19:  SPUD DATE
 NREF.                    Grid:  NORTH REFERENCE
 HPTY.       Minimum Curvature:  HOLE POS TYPE
 DMOD.             Drill Model:  DRILL MOD DESC
 SVYD.                  Survey:  SURVEY DESC
 ILTD.               Lithology:  INTERP LTH DESC
 FTOP.          Formation Tops:  FORM TOPS DESC
 SON .        AZ-XX-0906192647:  JOB NUMBER
 WTYP.                Deviated:  WELL TYPE
 COMP.     BP Exploration (Caspian Sea) Ltd:  COMPANY
 BASE.              Azerbaijan:  LOGGING EQUIPMENT BASE LOCATION
 REGN.                 Eurasia:  REGION
 FLD .                     ACG:  FIELD NAME
 SRVC.              KCA Deutag:  CONTRACTOR
 MWDS.                    Baku:  MWD SHOP
 WELL.     A10 (Slot 20) - SCP:  WELL NAME
 JOBN.        AZ-XX-0906192647:  JOB TICKET NUMB
 RIG .                 Chirag1:  RIG NAME
 DCON.     Halliburton Sperry Drilling:  DIRECTNL CONTR
 UNIT.                     N/A:  LOGGING EQUIPMENT ID
 PDAT.          Mean Sea Level:  PERMANENT DATUM
 MDS .        Operator Entered:  MAG DATA SOURCE
 CTRY.              Azerbaijan:  COUNTRY NAME
 UWI .            /AZE00000090:  UNIQUE WELL IDENTIFIER
 API .            /AZE00000090:  API NUMBER
 CNTY.                        :  COUNTY
 PROV.                        :  PROVINCE
 STAT.                        :  STATE
 LOC .                        :  LOCATION
 LMF .             Drill Floor:  LOG MEASURED FROM
 TVDS.m                  36.60:  TVDSS CORRECTN
 LATI.deg                40.08:  LATITUDE
 LONG.deg                51.24:  LONGITUDE
 WHNS.m                  -7.94:  WELL HEAD N/S
 WHEW.m                   1.56:  WELL HEAD E/W
 UTMX.m              520429.26:  UTM X
 UTMY.m             4438973.87:  UTM Y
 DFWL.m                   0.00:  DISTANCE FWL
 DFSL.m                   0.00:  DISTANCE FSL
 SDEP.m                1455.00:  START DEPTH
 TDD .m                4047.51:  TOTAL DEPTH (DRILLER)
 VSDR.deg               112.75:  VERT SEC DIRECT
 GVFD.g                   1.00:  GRAVITY FIELD
 MFLD.nT              50261.00:  MAGNETIC FIELD
 MDIP.deg                59.52:  MAGNETIC DIP
 MDEC.deg                 6.42:  MAGNETIC DECL
 GRDC.deg                 0.17:  GRID CORRECTION
 AZTC.deg                 6.25:  AZM TOTAL CORR
 EPD .m                   0.00:  ELEVATION
 EGL .m                   0.00:  GROUND ELEVATION
 WDMS.m                 121.00:  WD ELEV
 APD .m                  36.60:  DEPTH ABOVE PD
 AGAP.m                  36.60:  AIR GAP
 VSEW.m                   1.56:  VERT SEC E/W
 VSNS.m                  -7.94:  VERT SEC N/S
 DEP .m                1140.01:  DEPTH
 EKB .m                  36.60:  KB ELEVATION
 EDF .m                  36.60:  DF ELEVATION
 TDL .m                 169.50:  TOTAL DEPTH (LOGGER)
 CSGD.m                3875.01:  CASING BOTTOM (DRILLER)
 CSGL.m                3875.01:  CASING BOTTOM (LOGGER)
 CSGS.in                  7.63:  CASING SIZE
 CSGW.lbpf               23.50:  CASING WEIGHT
 VSC .                       0:  VS TO CLOSURE
 MAGU.                 1849206:  MAGUTM CHECKSUM
~Parameter Information Block
#MNEM.UNIT       Value        Description
#---------     -----------    ---------------------------
 AV  .mps                 1.90:  Ann Velocity 
 AVMX.mps                 2.54:  Max Ann Veloc 
 AZIF.deg               137.03:  Azm, Final 
 BHAT.        Rotary Steerable:  BHA Type 
 BREV.rev             23610.00:  Rev Bit Total 
 BROT.°/30m               0.80:  Build Rotating 
 BS  .in                  6.50:  Bit Size 
 BTPL.psig              110.00:  Bit Press Loss 
 CABU.                     Yes:  Customer Abuse 
 TCS .hr                 70.51:  Time Ciculation Ended 
 CV  .mps                 1.41:  Crit Velocity 
 CVMX.mps                 1.42:  Max Crit Veloc 
 DD1 .         Intigam Rahimov:  Direct Drillr 1 
 DD2 .          Rashad Gojayev:  Direct Drillr 2 
 DDSV.               Geo-Pilot:  DD Service 
 DEFF.%                 100.00:  % Det Eff 
 DLRX.°/30m               1.44:  Dogleg Rot Max 
 DLSO.°/30m               0.00:  Dogleg Oriented 
 DLSX.°/30m               0.00:  Dogleg Str Max 
 DRET.      03.05.00 01-Feb-20:  Drill End Time 
 DRST.      15.50.00 28-Jan-20:  Drill Start Tim 
 DTIM.hr                 24.70:  Time Drilling 
 EDEP.m                4047.51:  End Depth 
 ENG1.           Eldar Hajiyev:  Engineer 1 
 ENG2.          Rasim Hashimov:  Engineer 2 
 ENG3.          Rustam Safarov:  Engineer 3 
 ETIM.      22.00.00 01-Feb-20:  End Time 
 FLOI.gpm               370.00:  Flow In 
 FLON.gpm               300.00:  Flow In Min 
 FLOS.cptm                0.00:  Fluid Loss 
 FLOX.gpm               400.00:  Flow In Max 
 FTRO.       Formation Presure:  FTWD Run Obj 
 HFLO.                      No:  High Flow 
 HPRE.                      No:  High Pressure 
 HTEM.                      No:  High Temp 
 HYDO.m                   2.50:  Hydro Offset 
 IFIN.deg                39.54:  Inc, Final 
 IMAX.deg                41.14:  Inc Max 
 IMIN.deg                39.81:  Inc Min 
 IMND.m                4005.21:  Inc Min Depth 
 IMXD.m                3948.42:  Inc Max Depth 
 JARR.                      No:  Jarring 
 LETM.      03.05.00 01-Feb-20:  Log End Time 
 LOST.hr                     0:  Lost Rig Time 
 LSTM.      15.50.00 28-Jan-20:  Log Start Time 
 MDCL.ppm             37500.00:  Mud Chlorides 
 MDES.     Inversion Oil/Synthetic:  Mud Desc 
 DFD .sg                  1.32:  Mud Density 
 MDMN.sg                  1.32:  Dens Mud Min 
 MDMX.sg                  1.32:  Dens Mud Max 
 MOIL.                      55:  Run Mud Oil % 
 MOWR.                   70:30:  Run Mud OWR 
 MSND.                       0:  Run Mud Sand % 
 MSOL.                      17:  Run Mud Solids% 
 DFV .spqt               80.00:  Mud Viscosity 
 MWOD.in                  4.75:  MWD Tool OD 
 MWSI.                      No:  Serv Intrp, MWD 
 OTIM.hr                121.28:  Time Operating 
 PCON.           Look Like New:  Pad Condition 
 PMAX.psia             6171.00:  Press Op, Max 
 PV  .cP                 30.00:  Mud PV 
 RUN .                     300:  Run Number 
 ROPA.m/hr                5.45:  ROP Avg 
 ROPN.m/hr                3.00:  ROP Min 
 ROPX.m/hr               15.00:  ROP Max 
 RPMA.rpm               130.00:  RPM Surface Avg 
 RPMN.rpm                80.00:  RPM Surface Min 
 RPMX.rpm               140.00:  RPM Surface Max 
 RRUN.                     300:  Rig Run Number 
 RTIM.hr                 13.50:  Time Reaming 
 SAZI.deg               133.93:  Azm, Start 
 SDEP.m                3878.01:  Start Depth 
 SIDD.                      No:  Serv Intrp, DD 
 SINC.deg                40.28:  Inc, Start 
 SPPA.psig             4983.00:  SPP Avg 
 SPPN.psig             4370.00:  SPP Min 
 SPPX.psig             5300.00:  SPP Max 
 STIM.      18.33.36 27-Jan-20:  Start Time 
 SVCS.                 DD, MWD:  Services 
 SVER.                    9.20:  Sperry Version 
 TDAT.m                 169.50:  Tot Depth Attmp 
 TDDF.                      No:  Trip for DD 
 TDLG.m                 169.50:  Tot Depth Loggd 
 TFF .                      No:  Trip for Fail 
 TQAA.f-kp               13.25:  Torque Abs Avg 
 TQAN.f-kp               12.00:  Torque Abs Min 
 TQAX.f-kp               14.00:  Torque Abs Max 
 TRRT.°/30m               0.70:  Turn Rotating 
 MRT .                     ADR:  Maximum Recorded Temperature 
 TTMX.degC               92.16:  Max Tool Temp 
 VS01.       AZ90598764G12V7D4:  Virtual Str1 SN 
 VS02.         AZ90571342R12C4:  Virtual Str2 SN 
 VS03.      AZ90580010N2L2X1C4:  Virtual Str3 SN 
 VS04.        AZ90522266O7X1C4:  Virtual Str4 SN 
 VS05.           AZ90598768F11:  Virtual Str5 SN 
 VS06.     AZ90580006XZ1W1X1C4:  Virtual Str6 SN 
 WBMN.klb                 8.00:  WOB Min 
 WITN.            Peter Wilson:  Customer Rep 
 WOBA.klb                 9.88:  WOB Avg 
 WOBX.klb                10.00:  WOB Max 
 YP  .lhf2               27.00:  Yield Point 
~Curve Information Block
#MNEM.UNIT                 API CODE     Curve Description
#---------               -----------    ---------------------------
 TIME.HHMMSS            00 000 000 000:  GT Time & Date
 GTDEPTH.m              00 000 000 000:  GT Depth
 GTPQH.psia             00 000 000 000:  GT HR Quartz Pressure
 GTTQ.degC              00 000 000 000:  GT Quartz Temperature
 GTTN.NONE              00 000 000 000:  GT Test Number
 GTET.sec               00 000 000 000:  GT Elapsed Test Time
 GTTVD.m                00 000 000 000:  GT True Vertical Depth
#Other Information
#
#WARRANTY: Halliburton will use its best efforts to furnish customers with 
#accurate information and interpretations that are part of, and incident to, the services 
#provided.  However, Halliburton cannot and does not warrant the accuracy 
#or correctness of such information and interpretations.  Under no circumstances should any 
#such information or interpretation be relied upon as the sole basis for any drilling, 
#completion, production, or financial decision or any procedure involving any risk to the 
#safety of any drilling venture, drilling rig or its crew or any other third party.  The 
#Customer has full responsibility for all drilling, completion and production operation.  
#Halliburton makes no representations or warranties, either expressed or 
#implied, including, but not limited to, the implied warranties of merchantability or fitness 
#for a particular purpose, with respect to the services rendered.  In no event will 
#Halliburton be liable for failure to obtain any particular results or for 
#any damages, including, but not limited to, indirect, special or consequential damages, 
#resulting from the use of any information or interpretation provided by Halliburton.
#
~A           TIME           GTDEPTH  GTPQH  GTTQ  GTTN   GTET   GTTVD  
# ...
   04:13:56.148.01-Feb-2020 3998.51 3149.33 85.43 12.00  90.72 3011.77
   04:13:56.349.01-Feb-2020 3998.51 3149.39 85.43 12.00  90.92 3011.77
   04:13:56.550.01-Feb-2020 3998.51 3149.36 85.43 12.00  91.12 3011.77
   04:13:56.750.01-Feb-2020 3998.51 3149.29 85.43 12.00  91.32 3011.77
   04:13:56.951.01-Feb-2020 3998.51 3149.29 85.43 12.00  91.52 3011.77
   04:13:57.152.01-Feb-2020 3998.51 3149.46 85.43 12.00  91.72 3011.77
   04:13:57.352.01-Feb-2020 3998.51 3149.37 85.43 12.00  91.92 3011.77
   04:13:57.553.01-Feb-2020 3998.51 3149.46 85.43 12.00  92.12 3011.77
   04:13:57.754.01-Feb-2020 3998.51 3149.37 85.43 12.00  92.32 3011.77
   04:13:57.955.01-Feb-2020 3998.51 3149.37 85.43 12.00  92.52 3011.77
   04:13:58.155.01-Feb-2020 3998.51 3149.41 85.42 12.00  92.72 3011.77
   04:13:58.356.01-Feb-2020 3998.51 3149.39 85.42 12.00  92.92 3011.77
   04:13:58.557.01-Feb-2020 3998.51 3149.41 85.42 12.00  93.13 3011.77
   04:13:58.757.01-Feb-2020 3998.51 3149.41 85.42 12.00  93.33 3011.77
   04:13:58.958.01-Feb-2020 3998.51 3149.41 85.42 12.00  93.53 3011.77
   04:13:59.159.01-Feb-2020 3998.51 3149.39 85.42 12.00  93.73 3011.77
   04:13:59.360.01-Feb-2020 3998.51 3149.35 85.42 12.00  93.93 3011.77
   04:13:59.560.01-Feb-2020 3998.51 3149.38 85.42 12.00  94.13 3011.77
   04:13:59.761.01-Feb-2020 3998.51 3149.42 85.42 12.00  94.33 3011.77
   04:13:59.962.01-Feb-2020 3998.51 3149.42 85.42 12.00  94.53 3011.77
   04:14:00.162.01-Feb-2020 3998.51 3149.57 85.42 12.00  94.73 3011.77
   04:14:00.363.01-Feb-2020 3998.51 3149.40 85.42 12.00  94.93 3011.77
   04:14:00.564.01-Feb-2020 3998.51 3149.40 85.42 12.00  95.13 3011.77
   04:14:00.764.01-Feb-2020 3998.51 3149.43 85.42 12.00  95.33 3011.77
   04:14:00.965.01-Feb-2020 3998.51 3149.43 85.42 12.00  95.53 3011.77
   04:14:01.166.01-Feb-2020 3998.51 3149.55 85.42 12.00  95.73 3011.77
   04:14:01.367.01-Feb-2020 3998.51 3149.41 85.41 12.00  95.94 3011.77
   04:14:01.567.01-Feb-2020 3998.51 3149.47 85.41 12.00  96.14 3011.77
   04:14:01.768.01-Feb-2020 3998.51 3149.40 85.41 12.00  96.34 3011.77
   04:14:01.969.01-Feb-2020 3998.51 3149.40 85.41 12.00  96.54 3011.77
   04:14:02.169.01-Feb-2020 3998.51 3149.34 85.41 12.00  96.74 3011.77
   04:14:02.370.01-Feb-2020 3998.51 3149.43 85.41 12.00  96.94 3011.77
   04:14:02.571.01-Feb-2020 3998.51 3149.36 85.41 12.00  97.14 3011.77
   04:14:02.771.01-Feb-2020 3998.51 3149.39 85.41 12.00  97.34 3011.77
   04:14:02.972.01-Feb-2020 3998.51 3149.39 85.41 12.00  97.54 3011.77
   04:14:03.173.01-Feb-2020 3998.51 3149.37 85.41 12.00  97.74 3011.77
   04:14:03.374.01-Feb-2020 3998.51 3149.55 85.41 12.00  97.94 3011.77
   04:14:03.574.01-Feb-2020 3998.51 3149.26 85.41 12.00  98.14 3011.77
   04:14:03.775.01-Feb-2020 3998.51 3149.46 85.41 12.00  98.34 3011.77
   04:14:03.976.01-Feb-2020 3998.51 3149.46 85.41 12.00  98.54 3011.77
   04:14:04.176.01-Feb-2020 3998.51 3149.39 85.41 12.00  98.75 3011.77
   04:14:04.377.01-Feb-2020 3998.51 3149.42 85.41 12.00  98.95 3011.77
   04:14:04.578.01-Feb-2020 3998.51 3149.28 85.40 12.00  99.15 3011.77
   04:14:04.778.01-Feb-2020 3998.51 3149.32 85.40 12.00  99.35 3011.77
   04:14:04.979.01-Feb-2020 3998.51 3149.32 85.40 12.00  99.55 3011.77
   04:14:05.180.01-Feb-2020 3998.51 3149.34 85.40 12.00  99.75 3011.77
   04:14:05.381.01-Feb-2020 3998.51 3149.44 85.40 12.00  99.95 3011.77
   04:14:05.581.01-Feb-2020 3998.51 3149.41 85.40 12.00 100.15 3011.77
   04:14:05.782.01-Feb-2020 3998.51 3149.34 85.40 12.00 100.35 3011.77
   04:14:05.983.01-Feb-2020 3998.51 3149.34 85.40 12.00 100.55 3011.77
   04:14:06.183.01-Feb-2020 3998.51 3149.37 85.40 12.00 100.75 3011.77
   04:14:06.384.01-Feb-2020 3998.51 3149.36 85.40 12.00 100.95 3011.77
   04:14:06.585.01-Feb-2020 3998.51 3149.43 85.40 12.00 101.15 3011.77
   04:14:06.785.01-Feb-2020 3998.51 3149.31 85.40 12.00 101.35 3011.77
   04:14:06.986.01-Feb-2020 3998.51 3149.31 85.40 12.00 101.56 3011.77
   04:14:07.187.01-Feb-2020 3998.51 3149.38 85.40 12.00 101.76 3011.77
   04:14:07.388.01-Feb-2020 3998.51 3149.32 85.40 12.00 101.96 3011.77
   04:14:07.588.01-Feb-2020 3998.51 3149.43 85.40 12.00 102.16 3011.77
   04:14:07.789.01-Feb-2020 3998.51 3149.40 85.40 12.00 102.36 3011.77
   04:14:07.990.01-Feb-2020 3998.51 3149.40 85.40 12.00 102.56 3011.77
   04:14:08.190.01-Feb-2020 3998.51 3149.13 85.39 12.00 102.76 3011.77
   04:14:08.391.01-Feb-2020 3998.51 3149.52 85.39 12.00 102.96 3011.77
   04:14:08.592.01-Feb-2020 3998.51 3149.38 85.39 12.00 103.16 3011.77
   04:14:08.792.01-Feb-2020 3998.51 3149.49 85.39 12.00 103.36 3011.77
   04:14:08.993.01-Feb-2020 3998.51 3149.49 85.39 12.00 103.56 3011.77
   04:14:09.194.01-Feb-2020 3998.51 3149.39 85.39 12.00 103.76 3011.77
   04:14:09.395.01-Feb-2020 3998.51 3149.44 85.39 12.00 103.96 3011.77
   04:14:09.595.01-Feb-2020 3998.51 3149.36 85.39 12.00 104.16 3011.77
   04:14:09.796.01-Feb-2020 3998.51 3149.42 85.39 12.00 104.36 3011.77
   04:14:09.997.01-Feb-2020 3998.51 3149.42 85.39 12.00 104.57 3011.77
   04:14:10.197.01-Feb-2020 3998.51 3149.35 85.39 12.00 104.77 3011.77
   04:14:10.398.01-Feb-2020 3998.51 3149.43 85.39 12.00 104.97 3011.77
   04:14:10.599.01-Feb-2020 3998.51 3149.35 85.39 12.00 105.17 3011.77
   04:14:10.800.01-Feb-2020 3998.51 3149.35 85.39 12.00 105.37 3011.77
   04:14:11.000.01-Feb-2020 3998.51 3149.35 85.39 12.00 105.57 3011.77
   04:14:11.201.01-Feb-2020 3998.51 3149.41 85.39 12.00 105.77 3011.77
   04:14:11.402.01-Feb-2020 3998.51 3149.39 85.38 12.00 105.97 3011.77
   04:14:11.602.01-Feb-2020 3998.51 3149.35 85.38 12.00 106.17 3011.77
   04:14:11.803.01-Feb-2020 3998.51 3149.29 85.38 12.00 106.37 3011.77
   04:14:12.004.01-Feb-2020 3998.51 3149.29 85.38 12.00 106.57 3011.77
   04:14:12.204.01-Feb-2020 3998.51 3149.38 85.38 12.00 106.77 3011.77
   04:14:12.405.01-Feb-2020 3998.51 3149.33 85.38 12.00 106.97 3011.77
   04:14:12.606.01-Feb-2020 3998.51 3149.34 85.38 12.00 107.17 3011.77
   04:14:12.807.01-Feb-2020 3998.51 3149.31 85.38 12.00 107.38 3011.77
   04:14:13.007.01-Feb-2020 3998.51 3149.31 85.38 12.00 107.58 3011.77
   04:14:13.208.01-Feb-2020 3998.51 3149.41 85.38 12.00 107.78 3011.77
   04:14:13.409.01-Feb-2020 3998.51 3149.07 85.38 12.00 107.98 3011.77
   04:14:13.609.01-Feb-2020 3998.51 3149.54 85.38 12.00 108.18 3011.77
   04:14:13.810.01-Feb-2020 3998.51 3149.39 85.38 12.00 108.38 3011.77
   04:14:14.011.01-Feb-2020 3998.51 3149.39 85.38 12.00 108.58 3011.77
   04:14:14.211.01-Feb-2020 3998.51 3149.36 85.38 12.00 108.78 3011.77
   04:14:14.412.01-Feb-2020 3998.51 3149.41 85.38 12.00 108.98 3011.77
   04:14:14.613.01-Feb-2020 3998.51 3149.42 85.37 12.00 109.18 3011.77
   04:14:14.814.01-Feb-2020 3998.51 3149.21 85.37 12.00 109.38 3011.77
   04:14:15.014.01-Feb-2020 3998.51 3149.21 85.37 12.00 109.58 3011.77
   04:14:15.215.01-Feb-2020 3998.51 3149.34 85.37 12.00 109.78 3011.77
   04:14:15.416.01-Feb-2020 3998.51 3149.36 85.37 12.00 109.98 3011.77
   04:14:15.616.01-Feb-2020 3998.51 3149.43 85.37 12.00 110.19 3011.77
   04:14:15.817.01-Feb-2020 3998.51 3149.38 85.37 12.00 110.39 3011.77
   04:14:16.018.01-Feb-2020 3998.51 3149.38 85.37 12.00 110.59 3011.77
   04:14:16.218.01-Feb-2020 3998.51 3149.54 85.37 12.00 110.79 3011.77
   04:14:16.419.01-Feb-2020 3998.51 3149.39 85.37 12.00 110.99 3011.77
   04:14:16.620.01-Feb-2020 3998.51 3149.43 85.37 12.00 111.19 3011.77
   04:14:16.821.01-Feb-2020 3998.51 3149.43 85.37 12.00 111.39 3011.77
   04:14:17.021.01-Feb-2020 3998.51 3149.43 85.37 12.00 111.59 3011.77
   04:14:17.222.01-Feb-2020 3998.51 3149.41 85.37 12.00 111.79 3011.77
   04:14:17.423.01-Feb-2020 3998.51 3149.32 85.37 12.00 111.99 3011.77
   04:14:17.623.01-Feb-2020 3998.51 3149.33 85.37 12.00 112.19 3011.77
   04:14:17.824.01-Feb-2020 3998.51 3149.43 85.37 12.00 112.39 3011.77
   04:14:18.025.01-Feb-2020 3998.51 3149.43 85.37 12.00 112.59 3011.77
   04:14:18.225.01-Feb-2020 3998.51 3149.35 85.36 12.00 112.79 3011.77
   04:14:18.426.01-Feb-2020 3998.51 3149.38 85.36 12.00 113.00 3011.77
   04:14:18.627.01-Feb-2020 3998.51 3149.30 85.36 12.00 113.20 3011.77
