~Version Information
 VERS.                  2.0:   CWLS log ASCII Standard -VERSION 2.0
 WRAP.                   NO:   One line per depth step
~Well Information Block
#MNEM.UNIT     VALUE/NAME     DESCRIPTION
#---------     -----------    ---------------------------
 STRT.S             00:13:57 01-Feb-20: START TIME 00:13:57 01-Feb-20
 STOP.S             00:20:28 01-Feb-20: STOP TIME  00:20:28 01-Feb-20
 STEP.S                   0.00: STEP TIME
 NULL.                 -999.25: NULL VALUE
 DFWT.                        :  DIST FWL TEXT
 DFST.                        :  DIST FSL TEXT
 DMF .             Drill Floor:  DRILL MEAS FROM
 STIM.      09.30.00 26-Dec-19:  START TIME
 DATE.      08.00.00 20-Jan-20:  END TIME
 SPUD.               23-Nov-19:  SPUD DATE
 NREF.                    Grid:  NORTH REFERENCE
 HPTY.       Minimum Curvature:  HOLE POS TYPE
 DMOD.             Drill Model:  DRILL MOD DESC
 SVYD.                  Survey:  SURVEY DESC
 ILTD.               Lithology:  INTERP LTH DESC
 FTOP.          Formation Tops:  FORM TOPS DESC
 SON .        AZ-XX-0906192647:  JOB NUMBER
 WTYP.                Deviated:  WELL TYPE
 COMP.     BP Exploration (Caspian Sea) Ltd:  COMPANY
 BASE.              Azerbaijan:  LOGGING EQUIPMENT BASE LOCATION
 REGN.                 Eurasia:  REGION
 FLD .                     ACG:  FIELD NAME
 SRVC.              KCA Deutag:  CONTRACTOR
 MWDS.                    Baku:  MWD SHOP
 WELL.     A10 (Slot 20) - SCP:  WELL NAME
 JOBN.        AZ-XX-0906192647:  JOB TICKET NUMB
 RIG .                 Chirag1:  RIG NAME
 DCON.     Halliburton Sperry Drilling:  DIRECTNL CONTR
 UNIT.                     N/A:  LOGGING EQUIPMENT ID
 PDAT.          Mean Sea Level:  PERMANENT DATUM
 MDS .        Operator Entered:  MAG DATA SOURCE
 CTRY.              Azerbaijan:  COUNTRY NAME
 UWI .            /AZE00000090:  UNIQUE WELL IDENTIFIER
 API .            /AZE00000090:  API NUMBER
 CNTY.                        :  COUNTY
 PROV.                        :  PROVINCE
 STAT.                        :  STATE
 LOC .                        :  LOCATION
 LMF .             Drill Floor:  LOG MEASURED FROM
 TVDS.m                  36.60:  TVDSS CORRECTN
 LATI.deg                40.08:  LATITUDE
 LONG.deg                51.24:  LONGITUDE
 WHNS.m                  -7.94:  WELL HEAD N/S
 WHEW.m                   1.56:  WELL HEAD E/W
 UTMX.m              520429.26:  UTM X
 UTMY.m             4438973.87:  UTM Y
 DFWL.m                   0.00:  DISTANCE FWL
 DFSL.m                   0.00:  DISTANCE FSL
 SDEP.m                1455.00:  START DEPTH
 TDD .m                4047.51:  TOTAL DEPTH (DRILLER)
 VSDR.deg               112.75:  VERT SEC DIRECT
 GVFD.g                   1.00:  GRAVITY FIELD
 MFLD.nT              50261.00:  MAGNETIC FIELD
 MDIP.deg                59.52:  MAGNETIC DIP
 MDEC.deg                 6.42:  MAGNETIC DECL
 GRDC.deg                 0.17:  GRID CORRECTION
 AZTC.deg                 6.25:  AZM TOTAL CORR
 EPD .m                   0.00:  ELEVATION
 EGL .m                   0.00:  GROUND ELEVATION
 WDMS.m                 121.00:  WD ELEV
 APD .m                  36.60:  DEPTH ABOVE PD
 AGAP.m                  36.60:  AIR GAP
 VSEW.m                   1.56:  VERT SEC E/W
 VSNS.m                  -7.94:  VERT SEC N/S
 DEP .m                1140.01:  DEPTH
 EKB .m                  36.60:  KB ELEVATION
 EDF .m                  36.60:  DF ELEVATION
 TDL .m                 169.50:  TOTAL DEPTH (LOGGER)
 CSGD.m                3875.01:  CASING BOTTOM (DRILLER)
 CSGL.m                3875.01:  CASING BOTTOM (LOGGER)
 CSGS.in                  7.63:  CASING SIZE
 CSGW.lbpf               23.50:  CASING WEIGHT
 VSC .                       0:  VS TO CLOSURE
 MAGU.                 1849206:  MAGUTM CHECKSUM
~Parameter Information Block
#MNEM.UNIT       Value        Description
#---------     -----------    ---------------------------
 AV  .mps                 1.90:  Ann Velocity 
 AVMX.mps                 2.54:  Max Ann Veloc 
 AZIF.deg               137.03:  Azm, Final 
 BHAT.        Rotary Steerable:  BHA Type 
 BREV.rev             23610.00:  Rev Bit Total 
 BROT.°/30m               0.80:  Build Rotating 
 BS  .in                  6.50:  Bit Size 
 BTPL.psig              110.00:  Bit Press Loss 
 CABU.                     Yes:  Customer Abuse 
 TCS .hr                 70.51:  Time Ciculation Ended 
 CV  .mps                 1.41:  Crit Velocity 
 CVMX.mps                 1.42:  Max Crit Veloc 
 DD1 .         Intigam Rahimov:  Direct Drillr 1 
 DD2 .          Rashad Gojayev:  Direct Drillr 2 
 DDSV.               Geo-Pilot:  DD Service 
 DEFF.%                 100.00:  % Det Eff 
 DLRX.°/30m               1.44:  Dogleg Rot Max 
 DLSO.°/30m               0.00:  Dogleg Oriented 
 DLSX.°/30m               0.00:  Dogleg Str Max 
 DRET.      03.05.00 01-Feb-20:  Drill End Time 
 DRST.      15.50.00 28-Jan-20:  Drill Start Tim 
 DTIM.hr                 24.70:  Time Drilling 
 EDEP.m                4047.51:  End Depth 
 ENG1.           Eldar Hajiyev:  Engineer 1 
 ENG2.          Rasim Hashimov:  Engineer 2 
 ENG3.          Rustam Safarov:  Engineer 3 
 ETIM.      22.00.00 01-Feb-20:  End Time 
 FLOI.gpm               370.00:  Flow In 
 FLON.gpm               300.00:  Flow In Min 
 FLOS.cptm                0.00:  Fluid Loss 
 FLOX.gpm               400.00:  Flow In Max 
 FTRO.       Formation Presure:  FTWD Run Obj 
 HFLO.                      No:  High Flow 
 HPRE.                      No:  High Pressure 
 HTEM.                      No:  High Temp 
 HYDO.m                   2.50:  Hydro Offset 
 IFIN.deg                39.54:  Inc, Final 
 IMAX.deg                41.14:  Inc Max 
 IMIN.deg                39.81:  Inc Min 
 IMND.m                4005.21:  Inc Min Depth 
 IMXD.m                3948.42:  Inc Max Depth 
 JARR.                      No:  Jarring 
 LETM.      03.05.00 01-Feb-20:  Log End Time 
 LOST.hr                     0:  Lost Rig Time 
 LSTM.      15.50.00 28-Jan-20:  Log Start Time 
 MDCL.ppm             37500.00:  Mud Chlorides 
 MDES.     Inversion Oil/Synthetic:  Mud Desc 
 DFD .sg                  1.32:  Mud Density 
 MDMN.sg                  1.32:  Dens Mud Min 
 MDMX.sg                  1.32:  Dens Mud Max 
 MOIL.                      55:  Run Mud Oil % 
 MOWR.                   70:30:  Run Mud OWR 
 MSND.                       0:  Run Mud Sand % 
 MSOL.                      17:  Run Mud Solids% 
 DFV .spqt               80.00:  Mud Viscosity 
 MWOD.in                  4.75:  MWD Tool OD 
 MWSI.                      No:  Serv Intrp, MWD 
 OTIM.hr                121.28:  Time Operating 
 PCON.           Look Like New:  Pad Condition 
 PMAX.psia             6171.00:  Press Op, Max 
 PV  .cP                 30.00:  Mud PV 
 RUN .                     300:  Run Number 
 ROPA.m/hr                5.45:  ROP Avg 
 ROPN.m/hr                3.00:  ROP Min 
 ROPX.m/hr               15.00:  ROP Max 
 RPMA.rpm               130.00:  RPM Surface Avg 
 RPMN.rpm                80.00:  RPM Surface Min 
 RPMX.rpm               140.00:  RPM Surface Max 
 RRUN.                     300:  Rig Run Number 
 RTIM.hr                 13.50:  Time Reaming 
 SAZI.deg               133.93:  Azm, Start 
 SDEP.m                3878.01:  Start Depth 
 SIDD.                      No:  Serv Intrp, DD 
 SINC.deg                40.28:  Inc, Start 
 SPPA.psig             4983.00:  SPP Avg 
 SPPN.psig             4370.00:  SPP Min 
 SPPX.psig             5300.00:  SPP Max 
 STIM.      18.33.36 27-Jan-20:  Start Time 
 SVCS.                 DD, MWD:  Services 
 SVER.                    9.20:  Sperry Version 
 TDAT.m                 169.50:  Tot Depth Attmp 
 TDDF.                      No:  Trip for DD 
 TDLG.m                 169.50:  Tot Depth Loggd 
 TFF .                      No:  Trip for Fail 
 TQAA.f-kp               13.25:  Torque Abs Avg 
 TQAN.f-kp               12.00:  Torque Abs Min 
 TQAX.f-kp               14.00:  Torque Abs Max 
 TRRT.°/30m               0.70:  Turn Rotating 
 MRT .                     ADR:  Maximum Recorded Temperature 
 TTMX.degC               92.16:  Max Tool Temp 
 VS01.       AZ90598764G12V7D4:  Virtual Str1 SN 
 VS02.         AZ90571342R12C4:  Virtual Str2 SN 
 VS03.      AZ90580010N2L2X1C4:  Virtual Str3 SN 
 VS04.        AZ90522266O7X1C4:  Virtual Str4 SN 
 VS05.           AZ90598768F11:  Virtual Str5 SN 
 VS06.     AZ90580006XZ1W1X1C4:  Virtual Str6 SN 
 WBMN.klb                 8.00:  WOB Min 
 WITN.            Peter Wilson:  Customer Rep 
 WOBA.klb                 9.88:  WOB Avg 
 WOBX.klb                10.00:  WOB Max 
 YP  .lhf2               27.00:  Yield Point 
~Curve Information Block
#MNEM.UNIT                 API CODE     Curve Description
#---------               -----------    ---------------------------
 TIME.HHMMSS            00 000 000 000:  GT Time & Date
 GTDEPTH.m              00 000 000 000:  GT Depth
 GTPQH.psia             00 000 000 000:  GT HR Quartz Pressure
 GTTQ.degC              00 000 000 000:  GT Quartz Temperature
 GTTN.NONE              00 000 000 000:  GT Test Number
 GTET.sec               00 000 000 000:  GT Elapsed Test Time
 GTTVD.m                00 000 000 000:  GT True Vertical Depth
#Other Information
#
#WARRANTY: Halliburton will use its best efforts to furnish customers with 
#accurate information and interpretations that are part of, and incident to, the services 
#provided.  However, Halliburton cannot and does not warrant the accuracy 
#or correctness of such information and interpretations.  Under no circumstances should any 
#such information or interpretation be relied upon as the sole basis for any drilling, 
#completion, production, or financial decision or any procedure involving any risk to the 
#safety of any drilling venture, drilling rig or its crew or any other third party.  The 
#Customer has full responsibility for all drilling, completion and production operation.  
#Halliburton makes no representations or warranties, either expressed or 
#implied, including, but not limited to, the implied warranties of merchantability or fitness 
#for a particular purpose, with respect to the services rendered.  In no event will 
#Halliburton be liable for failure to obtain any particular results or for 
#any damages, including, but not limited to, indirect, special or consequential damages, 
#resulting from the use of any information or interpretation provided by Halliburton.
#
~A           TIME           GTDEPTH  GTPQH  GTTQ  GTTN   GTET   GTTVD  
# ...
   00:15:28.116.01-Feb-2020 3989.40 3221.79 87.29 10.00  90.41 3004.80
   00:15:28.316.01-Feb-2020 3989.40 3221.69 87.29 10.00  90.61 3004.80
   00:15:28.516.01-Feb-2020 3989.40 3221.47 87.29 10.00  90.81 3004.80
   00:15:28.716.01-Feb-2020 3989.40 3221.63 87.29 10.00  91.01 3004.80
   00:15:28.916.01-Feb-2020 3989.40 3221.63 87.29 10.00  91.21 3004.80
   00:15:29.116.01-Feb-2020 3989.40 3221.84 87.29 10.00  91.41 3004.80
   00:15:29.316.01-Feb-2020 3989.40 3221.97 87.29 10.00  91.61 3004.80
   00:15:29.516.01-Feb-2020 3989.40 3221.86 87.29 10.00  91.81 3004.80
   00:15:29.716.01-Feb-2020 3989.40 3221.89 87.29 10.00  92.01 3004.80
   00:15:29.916.01-Feb-2020 3989.40 3221.89 87.29 10.00  92.21 3004.80
   00:15:30.116.01-Feb-2020 3989.40 3221.83 87.28 10.00  92.41 3004.80
   00:15:30.316.01-Feb-2020 3989.40 3221.96 87.28 10.00  92.61 3004.80
   00:15:30.516.01-Feb-2020 3989.40 3221.94 87.28 10.00  92.81 3004.80
   00:15:30.716.01-Feb-2020 3989.40 3221.82 87.28 10.00  93.01 3004.80
   00:15:30.916.01-Feb-2020 3989.40 3221.82 87.28 10.00  93.21 3004.80
   00:15:31.116.01-Feb-2020 3989.40 3221.84 87.28 10.00  93.41 3004.80
   00:15:31.316.01-Feb-2020 3989.40 3221.85 87.28 10.00  93.61 3004.80
   00:15:31.516.01-Feb-2020 3989.40 3221.99 87.28 10.00  93.81 3004.80
   00:15:31.716.01-Feb-2020 3989.40 3221.82 87.28 10.00  94.01 3004.80
   00:15:31.916.01-Feb-2020 3989.40 3221.82 87.28 10.00  94.21 3004.80
   00:15:32.116.01-Feb-2020 3989.40 3221.56 87.28 10.00  94.41 3004.80
   00:15:32.316.01-Feb-2020 3989.40 3221.68 87.28 10.00  94.61 3004.80
   00:15:32.516.01-Feb-2020 3989.40 3221.86 87.28 10.00  94.81 3004.80
   00:15:32.716.01-Feb-2020 3989.40 3221.92 87.27 10.00  95.01 3004.80
   00:15:32.916.01-Feb-2020 3989.40 3221.92 87.27 10.00  95.21 3004.80
   00:15:33.116.01-Feb-2020 3989.40 3222.03 87.27 10.00  95.41 3004.80
   00:15:33.316.01-Feb-2020 3989.40 3221.98 87.27 10.00  95.61 3004.80
   00:15:33.516.01-Feb-2020 3989.40 3221.96 87.27 10.00  95.81 3004.80
   00:15:33.716.01-Feb-2020 3989.40 3222.06 87.27 10.00  96.01 3004.80
   00:15:33.916.01-Feb-2020 3989.40 3222.06 87.27 10.00  96.21 3004.80
   00:15:34.116.01-Feb-2020 3989.40 3222.05 87.27 10.00  96.41 3004.80
   00:15:34.316.01-Feb-2020 3989.40 3222.10 87.27 10.00  96.61 3004.80
   00:15:34.516.01-Feb-2020 3989.40 3221.99 87.27 10.00  96.81 3004.80
   00:15:34.716.01-Feb-2020 3989.40 3222.04 87.27 10.00  97.01 3004.80
   00:15:34.916.01-Feb-2020 3989.40 3222.04 87.27 10.00  97.21 3004.80
   00:15:35.116.01-Feb-2020 3989.40 3222.05 87.27 10.00  97.41 3004.80
   00:15:35.316.01-Feb-2020 3989.40 3222.19 87.27 10.00  97.61 3004.80
   00:15:35.516.01-Feb-2020 3989.40 3221.95 87.26 10.00  97.81 3004.80
   00:15:35.717.01-Feb-2020 3989.40 3222.05 87.26 10.00  98.01 3004.80
   00:15:35.917.01-Feb-2020 3989.40 3222.05 87.26 10.00  98.21 3004.80
   00:15:36.117.01-Feb-2020 3989.40 3222.17 87.26 10.00  98.41 3004.80
   00:15:36.317.01-Feb-2020 3989.40 3222.19 87.26 10.00  98.61 3004.80
   00:15:36.517.01-Feb-2020 3989.40 3222.02 87.26 10.00  98.81 3004.80
   00:15:36.717.01-Feb-2020 3989.40 3222.03 87.26 10.00  99.01 3004.80
   00:15:36.917.01-Feb-2020 3989.40 3222.03 87.26 10.00  99.21 3004.80
   00:15:37.117.01-Feb-2020 3989.40 3222.22 87.26 10.00  99.41 3004.80
   00:15:37.317.01-Feb-2020 3989.40 3222.16 87.26 10.00  99.61 3004.80
   00:15:37.517.01-Feb-2020 3989.40 3222.29 87.26 10.00  99.81 3004.80
   00:15:37.717.01-Feb-2020 3989.40 3221.95 87.26 10.00 100.01 3004.80
   00:15:37.917.01-Feb-2020 3989.40 3221.95 87.26 10.00 100.21 3004.80
   00:15:38.117.01-Feb-2020 3989.40 3222.18 87.26 10.00 100.41 3004.80
   00:15:38.317.01-Feb-2020 3989.40 3222.18 87.25 10.00 100.61 3004.80
   00:15:38.517.01-Feb-2020 3989.40 3222.29 87.25 10.00 100.81 3004.80
   00:15:38.717.01-Feb-2020 3989.40 3222.10 87.25 10.00 101.01 3004.80
   00:15:38.917.01-Feb-2020 3989.40 3222.10 87.25 10.00 101.21 3004.80
   00:15:39.117.01-Feb-2020 3989.40 3222.16 87.25 10.00 101.41 3004.80
   00:15:39.317.01-Feb-2020 3989.40 3222.30 87.25 10.00 101.61 3004.80
   00:15:39.517.01-Feb-2020 3989.40 3222.29 87.25 10.00 101.81 3004.80
   00:15:39.717.01-Feb-2020 3989.40 3222.38 87.25 10.00 102.01 3004.80
   00:15:39.917.01-Feb-2020 3989.40 3222.38 87.25 10.00 102.21 3004.80
   00:15:40.117.01-Feb-2020 3989.40 3221.95 87.25 10.00 102.41 3004.80
   00:15:40.317.01-Feb-2020 3989.40 3222.23 87.25 10.00 102.61 3004.80
   00:15:40.517.01-Feb-2020 3989.40 3222.28 87.25 10.00 102.81 3004.80
   00:15:40.717.01-Feb-2020 3989.40 3222.38 87.25 10.00 103.01 3004.80
   00:15:40.917.01-Feb-2020 3989.40 3222.38 87.25 10.00 103.21 3004.80
   00:15:41.117.01-Feb-2020 3989.40 3222.45 87.24 10.00 103.41 3004.80
   00:15:41.317.01-Feb-2020 3989.40 3222.44 87.24 10.00 103.61 3004.80
   00:15:41.517.01-Feb-2020 3989.40 3222.40 87.24 10.00 103.81 3004.80
   00:15:41.717.01-Feb-2020 3989.40 3222.34 87.24 10.00 104.01 3004.80
   00:15:41.917.01-Feb-2020 3989.40 3222.34 87.24 10.00 104.21 3004.80
   00:15:42.117.01-Feb-2020 3989.40 3222.40 87.24 10.00 104.41 3004.80
   00:15:42.317.01-Feb-2020 3989.40 3222.38 87.24 10.00 104.61 3004.80
   00:15:42.517.01-Feb-2020 3989.40 3222.40 87.24 10.00 104.81 3004.80
   00:15:42.717.01-Feb-2020 3989.40 3222.30 87.24 10.00 105.01 3004.80
   00:15:42.917.01-Feb-2020 3989.40 3222.30 87.24 10.00 105.21 3004.80
   00:15:43.117.01-Feb-2020 3989.40 3222.36 87.24 10.00 105.41 3004.80
   00:15:43.317.01-Feb-2020 3989.40 3222.35 87.24 10.00 105.61 3004.80
   00:15:43.517.01-Feb-2020 3989.40 3222.42 87.24 10.00 105.81 3004.80
   00:15:43.717.01-Feb-2020 3989.40 3222.20 87.24 10.00 106.01 3004.80
   00:15:43.917.01-Feb-2020 3989.40 3222.20 87.24 10.00 106.21 3004.80
   00:15:44.117.01-Feb-2020 3989.40 3222.31 87.23 10.00 106.41 3004.80
   00:15:44.317.01-Feb-2020 3989.40 3222.43 87.23 10.00 106.61 3004.80
   00:15:44.517.01-Feb-2020 3989.40 3222.44 87.23 10.00 106.81 3004.80
   00:15:44.717.01-Feb-2020 3989.40 3222.52 87.23 10.00 107.01 3004.80
   00:15:44.917.01-Feb-2020 3989.40 3222.52 87.23 10.00 107.21 3004.80
   00:15:45.117.01-Feb-2020 3989.40 3222.46 87.23 10.00 107.41 3004.80
   00:15:45.317.01-Feb-2020 3989.40 3222.48 87.23 10.00 107.61 3004.80
   00:15:45.517.01-Feb-2020 3989.40 3222.50 87.23 10.00 107.81 3004.80
   00:15:45.717.01-Feb-2020 3989.40 3222.52 87.23 10.00 108.01 3004.80
   00:15:45.917.01-Feb-2020 3989.40 3222.52 87.23 10.00 108.21 3004.80
   00:15:46.117.01-Feb-2020 3989.40 3222.51 87.23 10.00 108.41 3004.80
   00:15:46.317.01-Feb-2020 3989.40 3222.47 87.23 10.00 108.61 3004.80
   00:15:46.517.01-Feb-2020 3989.40 3222.54 87.23 10.00 108.81 3004.80
   00:15:46.717.01-Feb-2020 3989.40 3222.54 87.22 10.00 109.01 3004.80
   00:15:46.917.01-Feb-2020 3989.40 3222.54 87.22 10.00 109.21 3004.80
   00:15:47.118.01-Feb-2020 3989.40 3222.33 87.22 10.00 109.41 3004.80
   00:15:47.318.01-Feb-2020 3989.40 3222.50 87.22 10.00 109.61 3004.80
   00:15:47.518.01-Feb-2020 3989.40 3222.57 87.22 10.00 109.81 3004.80
   00:15:47.718.01-Feb-2020 3989.40 3222.63 87.22 10.00 110.01 3004.80
   00:15:47.918.01-Feb-2020 3989.40 3222.63 87.22 10.00 110.21 3004.80
   00:15:48.118.01-Feb-2020 3989.40 3222.22 87.22 10.00 110.41 3004.80
   00:15:48.318.01-Feb-2020 3989.40 3222.48 87.22 10.00 110.61 3004.80
   00:15:48.518.01-Feb-2020 3989.40 3222.56 87.22 10.00 110.81 3004.80
   00:15:48.718.01-Feb-2020 3989.40 3222.64 87.22 10.00 111.01 3004.80
   00:15:48.918.01-Feb-2020 3989.40 3222.64 87.22 10.00 111.21 3004.80
   00:15:49.118.01-Feb-2020 3989.40 3222.74 87.22 10.00 111.41 3004.80
   00:15:49.318.01-Feb-2020 3989.40 3222.41 87.22 10.00 111.61 3004.80
   00:15:49.518.01-Feb-2020 3989.40 3222.51 87.21 10.00 111.81 3004.80
   00:15:49.718.01-Feb-2020 3989.40 3222.51 87.21 10.00 112.01 3004.80
   00:15:49.918.01-Feb-2020 3989.40 3222.51 87.21 10.00 112.21 3004.80
   00:15:50.118.01-Feb-2020 3989.40 3222.69 87.21 10.00 112.41 3004.80
   00:15:50.318.01-Feb-2020 3989.40 3222.65 87.21 10.00 112.61 3004.80
   00:15:50.518.01-Feb-2020 3989.40 3222.52 87.21 10.00 112.81 3004.80
