~Version Information
 VERS.                  2.0:   CWLS log ASCII Standard -VERSION 2.0
 WRAP.                   NO:   One line per depth step
~Well Information Block
#MNEM.UNIT     VALUE/NAME     DESCRIPTION
#---------     -----------    ---------------------------
 STRT.S             14:09:29 31-Jan-20: START TIME 14:09:29 31-Jan-20
 STOP.S             14:15:59 31-Jan-20: STOP TIME  14:15:59 31-Jan-20
 STEP.S                   0.00: STEP TIME
 NULL.                 -999.25: NULL VALUE
 DFWT.                        :  DIST FWL TEXT
 DFST.                        :  DIST FSL TEXT
 DMF .             Drill Floor:  DRILL MEAS FROM
 STIM.      09.30.00 26-Dec-19:  START TIME
 DATE.      08.00.00 20-Jan-20:  END TIME
 SPUD.               23-Nov-19:  SPUD DATE
 NREF.                    Grid:  NORTH REFERENCE
 HPTY.       Minimum Curvature:  HOLE POS TYPE
 DMOD.             Drill Model:  DRILL MOD DESC
 SVYD.                  Survey:  SURVEY DESC
 ILTD.               Lithology:  INTERP LTH DESC
 FTOP.          Formation Tops:  FORM TOPS DESC
 SON .        AZ-XX-0906192647:  JOB NUMBER
 WTYP.                Deviated:  WELL TYPE
 COMP.     BP Exploration (Caspian Sea) Ltd:  COMPANY
 BASE.              Azerbaijan:  LOGGING EQUIPMENT BASE LOCATION
 REGN.                 Eurasia:  REGION
 FLD .                     ACG:  FIELD NAME
 SRVC.              KCA Deutag:  CONTRACTOR
 MWDS.                    Baku:  MWD SHOP
 WELL.     A10 (Slot 20) - SCP:  WELL NAME
 JOBN.        AZ-XX-0906192647:  JOB TICKET NUMB
 RIG .                 Chirag1:  RIG NAME
 DCON.     Halliburton Sperry Drilling:  DIRECTNL CONTR
 UNIT.                     N/A:  LOGGING EQUIPMENT ID
 PDAT.          Mean Sea Level:  PERMANENT DATUM
 MDS .        Operator Entered:  MAG DATA SOURCE
 CTRY.              Azerbaijan:  COUNTRY NAME
 UWI .            /AZE00000090:  UNIQUE WELL IDENTIFIER
 API .            /AZE00000090:  API NUMBER
 CNTY.                        :  COUNTY
 PROV.                        :  PROVINCE
 STAT.                        :  STATE
 LOC .                        :  LOCATION
 LMF .             Drill Floor:  LOG MEASURED FROM
 TVDS.m                  36.60:  TVDSS CORRECTN
 LATI.deg                40.08:  LATITUDE
 LONG.deg                51.24:  LONGITUDE
 WHNS.m                  -7.94:  WELL HEAD N/S
 WHEW.m                   1.56:  WELL HEAD E/W
 UTMX.m              520429.26:  UTM X
 UTMY.m             4438973.87:  UTM Y
 DFWL.m                   0.00:  DISTANCE FWL
 DFSL.m                   0.00:  DISTANCE FSL
 SDEP.m                1455.00:  START DEPTH
 TDD .m                4047.51:  TOTAL DEPTH (DRILLER)
 VSDR.deg               112.75:  VERT SEC DIRECT
 GVFD.g                   1.00:  GRAVITY FIELD
 MFLD.nT              50261.00:  MAGNETIC FIELD
 MDIP.deg                59.52:  MAGNETIC DIP
 MDEC.deg                 6.42:  MAGNETIC DECL
 GRDC.deg                 0.17:  GRID CORRECTION
 AZTC.deg                 6.25:  AZM TOTAL CORR
 EPD .m                   0.00:  ELEVATION
 EGL .m                   0.00:  GROUND ELEVATION
 WDMS.m                 121.00:  WD ELEV
 APD .m                  36.60:  DEPTH ABOVE PD
 AGAP.m                  36.60:  AIR GAP
 VSEW.m                   1.56:  VERT SEC E/W
 VSNS.m                  -7.94:  VERT SEC N/S
 DEP .m                1140.01:  DEPTH
 EKB .m                  36.60:  KB ELEVATION
 EDF .m                  36.60:  DF ELEVATION
 TDL .m                 169.50:  TOTAL DEPTH (LOGGER)
 CSGD.m                3875.01:  CASING BOTTOM (DRILLER)
 CSGL.m                3875.01:  CASING BOTTOM (LOGGER)
 CSGS.in                  7.63:  CASING SIZE
 CSGW.lbpf               23.50:  CASING WEIGHT
 VSC .                       0:  VS TO CLOSURE
 MAGU.                 1849206:  MAGUTM CHECKSUM
~Parameter Information Block
#MNEM.UNIT       Value        Description
#---------     -----------    ---------------------------
 AV  .mps                 1.90:  Ann Velocity 
 AVMX.mps                 2.54:  Max Ann Veloc 
 AZIF.deg               137.03:  Azm, Final 
 BHAT.        Rotary Steerable:  BHA Type 
 BREV.rev             23610.00:  Rev Bit Total 
 BROT.°/30m               0.80:  Build Rotating 
 BS  .in                  6.50:  Bit Size 
 BTPL.psig              110.00:  Bit Press Loss 
 CABU.                     Yes:  Customer Abuse 
 COMM.                     ÇV:  Run Comments 1 
 TCS .hr                 70.51:  Time Ciculation Ended 
 CV  .mps                 1.41:  Crit Velocity 
 CVMX.mps                 1.42:  Max Crit Veloc 
 DD1 .         Intigam Rahimov:  Direct Drillr 1 
 DD2 .          Rashad Gojayev:  Direct Drillr 2 
 DDSV.               Geo-Pilot:  DD Service 
 DEFF.%                 100.00:  % Det Eff 
 DLRX.°/30m               1.44:  Dogleg Rot Max 
 DLSO.°/30m               0.00:  Dogleg Oriented 
 DLSX.°/30m               0.00:  Dogleg Str Max 
 DRET.      03.05.00 01-Feb-20:  Drill End Time 
 DRST.      15.50.00 28-Jan-20:  Drill Start Tim 
 DTIM.hr                 24.70:  Time Drilling 
 EDEP.m                4047.51:  End Depth 
 ENG1.           Eldar Hajiyev:  Engineer 1 
 ENG2.          Rasim Hashimov:  Engineer 2 
 ENG3.          Rustam Safarov:  Engineer 3 
 ETIM.      22.00.00 01-Feb-20:  End Time 
 FLOI.gpm               370.00:  Flow In 
 FLON.gpm               300.00:  Flow In Min 
 FLOS.cptm                0.00:  Fluid Loss 
 FLOX.gpm               400.00:  Flow In Max 
 FTRO.       Formation Presure:  FTWD Run Obj 
 HFLO.                      No:  High Flow 
 HPRE.                      No:  High Pressure 
 HTEM.                      No:  High Temp 
 HYDO.m                   2.50:  Hydro Offset 
 IFIN.deg                39.54:  Inc, Final 
 IMAX.deg                41.14:  Inc Max 
 IMIN.deg                39.81:  Inc Min 
 IMND.m                4005.21:  Inc Min Depth 
 IMXD.m                3948.42:  Inc Max Depth 
 JARR.                      No:  Jarring 
 LETM.      03.05.00 01-Feb-20:  Log End Time 
 LOST.hr                     0:  Lost Rig Time 
 LSTM.      15.50.00 28-Jan-20:  Log Start Time 
 MDCL.ppm             37500.00:  Mud Chlorides 
 MDES.     Inversion Oil/Synthetic:  Mud Desc 
 DFD .sg                  1.32:  Mud Density 
 MDMN.sg                  1.32:  Dens Mud Min 
 MDMX.sg                  1.32:  Dens Mud Max 
 MOIL.                      55:  Run Mud Oil % 
 MOWR.                   70:30:  Run Mud OWR 
 MSND.                       0:  Run Mud Sand % 
 MSOL.                      17:  Run Mud Solids% 
 DFV .spqt               80.00:  Mud Viscosity 
 MWOD.in                  4.75:  MWD Tool OD 
 MWSI.                      No:  Serv Intrp, MWD 
 OTIM.hr                121.28:  Time Operating 
 PCON.           Look Like New:  Pad Condition 
 PMAX.psia             6171.00:  Press Op, Max 
 PV  .cP                 30.00:  Mud PV 
 RUN .                     300:  Run Number 
 ROPA.m/hr                5.45:  ROP Avg 
 ROPN.m/hr                3.00:  ROP Min 
 ROPX.m/hr               15.00:  ROP Max 
 RPMA.rpm               130.00:  RPM Surface Avg 
 RPMN.rpm                80.00:  RPM Surface Min 
 RPMX.rpm               140.00:  RPM Surface Max 
 RRUN.                     300:  Rig Run Number 
 RTIM.hr                 13.50:  Time Reaming 
 SAZI.deg               133.93:  Azm, Start 
 SDEP.m                3878.01:  Start Depth 
 SIDD.                      No:  Serv Intrp, DD 
 SINC.deg                40.28:  Inc, Start 
 SPPA.psig             4983.00:  SPP Avg 
 SPPN.psig             4370.00:  SPP Min 
 SPPX.psig             5300.00:  SPP Max 
 STIM.      18.33.36 27-Jan-20:  Start Time 
 SVCS.                 DD, MWD:  Services 
 SVER.                    9.20:  Sperry Version 
 TDAT.m                 169.50:  Tot Depth Attmp 
 TDDF.                      No:  Trip for DD 
 TDLG.m                 169.50:  Tot Depth Loggd 
 TFF .                      No:  Trip for Fail 
 TQAA.f-kp               13.25:  Torque Abs Avg 
 TQAN.f-kp               12.00:  Torque Abs Min 
 TQAX.f-kp               14.00:  Torque Abs Max 
 TRRT.°/30m               0.70:  Turn Rotating 
 MRT .                     ADR:  Maximum Recorded Temperature 
 TTMX.degC               92.16:  Max Tool Temp 
 VS01.       AZ90598764G12V7D4:  Virtual Str1 SN 
 VS02.         AZ90571342R12C4:  Virtual Str2 SN 
 VS03.      AZ90580010N2L2X1C4:  Virtual Str3 SN 
 VS04.        AZ90522266O7X1C4:  Virtual Str4 SN 
 VS05.           AZ90598768F11:  Virtual Str5 SN 
 VS06.     AZ90580006XZ1W1X1C4:  Virtual Str6 SN 
 WBMN.klb                 8.00:  WOB Min 
 WITN.            Peter Wilson:  Customer Rep 
 WOBA.klb                 9.88:  WOB Avg 
 WOBX.klb                10.00:  WOB Max 
 YP  .lhf2               27.00:  Yield Point 
~Curve Information Block
#MNEM.UNIT                 API CODE     Curve Description
#---------               -----------    ---------------------------
 TIME.HHMMSS            00 000 000 000:  GT Time & Date
 GTDEPTH.m              00 000 000 000:  GT Depth
 GTPQH.psia             00 000 000 000:  GT HR Quartz Pressure
 GTTQ.degC              00 000 000 000:  GT Quartz Temperature
 GTTN.NONE              00 000 000 000:  GT Test Number
 GTET.sec               00 000 000 000:  GT Elapsed Test Time
 GTTVD.m                00 000 000 000:  GT True Vertical Depth
#Other Information
#
#WARRANTY: Halliburton will use its best efforts to furnish customers with 
#accurate information and interpretations that are part of, and incident to, the services 
#provided.  However, Halliburton cannot and does not warrant the accuracy 
#or correctness of such information and interpretations.  Under no circumstances should any 
#such information or interpretation be relied upon as the sole basis for any drilling, 
#completion, production, or financial decision or any procedure involving any risk to the 
#safety of any drilling venture, drilling rig or its crew or any other third party.  The 
#Customer has full responsibility for all drilling, completion and production operation.  
#Halliburton makes no representations or warranties, either expressed or 
#implied, including, but not limited to, the implied warranties of merchantability or fitness 
#for a particular purpose, with respect to the services rendered.  In no event will 
#Halliburton be liable for failure to obtain any particular results or for 
#any damages, including, but not limited to, indirect, special or consequential damages, 
#resulting from the use of any information or interpretation provided by Halliburton.
#
~A           TIME           GTDEPTH  GTPQH  GTTQ  GTTN  GTET   GTTVD  
# ...
   14:10:15.065.31-Jan-2020 3945.01 3014.56 84.58 7.00  46.01 2971.20
   14:10:15.266.31-Jan-2020 3945.01 3014.56 84.58 7.00  46.21 2971.20
   14:10:15.466.31-Jan-2020 3945.01 3014.55 84.58 7.00  46.41 2971.20
   14:10:15.666.31-Jan-2020 3945.01 3014.62 84.58 7.00  46.61 2971.20
   14:10:15.866.31-Jan-2020 3945.01 3014.62 84.58 7.00  46.81 2971.20
   14:10:16.066.31-Jan-2020 3945.01 3014.61 84.58 7.00  47.01 2971.20
   14:10:16.266.31-Jan-2020 3945.01 3014.61 84.58 7.00  47.21 2971.20
   14:10:16.466.31-Jan-2020 3945.01 3014.48 84.58 7.00  47.41 2971.20
   14:10:16.666.31-Jan-2020 3945.01 3014.60 84.58 7.00  47.61 2971.20
   14:10:16.866.31-Jan-2020 3945.01 3014.64 84.58 7.00  47.81 2971.20
   14:10:17.066.31-Jan-2020 3945.01 3014.65 84.58 7.00  48.01 2971.20
   14:10:17.266.31-Jan-2020 3945.01 3014.65 84.58 7.00  48.21 2971.20
   14:10:17.466.31-Jan-2020 3945.01 3014.61 84.57 7.00  48.41 2971.20
   14:10:17.666.31-Jan-2020 3945.01 3014.65 84.57 7.00  48.61 2971.20
   14:10:17.866.31-Jan-2020 3945.01 3014.63 84.57 7.00  48.81 2971.20
   14:10:18.066.31-Jan-2020 3945.01 3014.65 84.57 7.00  49.01 2971.20
   14:10:18.266.31-Jan-2020 3945.01 3014.65 84.57 7.00  49.21 2971.20
   14:10:18.466.31-Jan-2020 3945.01 3014.65 84.57 7.00  49.41 2971.20
   14:10:18.666.31-Jan-2020 3945.01 3014.71 84.57 7.00  49.61 2971.20
   14:10:18.866.31-Jan-2020 3945.01 3014.68 84.57 7.00  49.81 2971.20
   14:10:19.066.31-Jan-2020 3945.01 3014.67 84.57 7.00  50.01 2971.20
   14:10:19.266.31-Jan-2020 3945.01 3014.67 84.57 7.00  50.21 2971.20
   14:10:19.467.31-Jan-2020 3945.01 3014.69 84.56 7.00  50.41 2971.20
   14:10:19.667.31-Jan-2020 3945.01 3014.73 84.56 7.00  50.61 2971.20
   14:10:19.867.31-Jan-2020 3945.01 3014.57 84.56 7.00  50.81 2971.20
   14:10:20.067.31-Jan-2020 3945.01 3014.71 84.56 7.00  51.01 2971.20
   14:10:20.267.31-Jan-2020 3945.01 3014.71 84.56 7.00  51.21 2971.20
   14:10:20.467.31-Jan-2020 3945.01 3014.68 84.56 7.00  51.41 2971.20
   14:10:20.667.31-Jan-2020 3945.01 3014.71 84.56 7.00  51.61 2971.20
   14:10:20.867.31-Jan-2020 3945.01 3014.70 84.56 7.00  51.81 2971.20
   14:10:21.067.31-Jan-2020 3945.01 3014.60 84.56 7.00  52.01 2971.20
   14:10:21.267.31-Jan-2020 3945.01 3014.60 84.56 7.00  52.21 2971.20
   14:10:21.467.31-Jan-2020 3945.01 3014.70 84.56 7.00  52.41 2971.20
   14:10:21.667.31-Jan-2020 3945.01 3014.73 84.56 7.00  52.61 2971.20
   14:10:21.867.31-Jan-2020 3945.01 3014.71 84.55 7.00  52.81 2971.20
   14:10:22.067.31-Jan-2020 3945.01 3014.70 84.55 7.00  53.01 2971.20
   14:10:22.267.31-Jan-2020 3945.01 3014.70 84.55 7.00  53.21 2971.20
   14:10:22.467.31-Jan-2020 3945.01 3014.67 84.55 7.00  53.41 2971.20
   14:10:22.667.31-Jan-2020 3945.01 3014.75 84.55 7.00  53.61 2971.20
   14:10:22.867.31-Jan-2020 3945.01 3014.76 84.55 7.00  53.81 2971.20
   14:10:23.067.31-Jan-2020 3945.01 3014.72 84.55 7.00  54.01 2971.20
   14:10:23.267.31-Jan-2020 3945.01 3014.72 84.55 7.00  54.21 2971.20
   14:10:23.467.31-Jan-2020 3945.01 3014.67 84.55 7.00  54.41 2971.20
   14:10:23.667.31-Jan-2020 3945.01 3014.72 84.55 7.00  54.61 2971.20
   14:10:23.868.31-Jan-2020 3945.01 3014.75 84.55 7.00  54.81 2971.20
   14:10:24.068.31-Jan-2020 3945.01 3014.77 84.55 7.00  55.01 2971.20
   14:10:24.268.31-Jan-2020 3945.01 3014.77 84.55 7.00  55.21 2971.20
   14:10:24.468.31-Jan-2020 3945.01 3014.60 84.54 7.00  55.41 2971.20
   14:10:24.668.31-Jan-2020 3945.01 3014.76 84.54 7.00  55.61 2971.20
   14:10:24.868.31-Jan-2020 3945.01 3014.77 84.54 7.00  55.81 2971.20
   14:10:25.068.31-Jan-2020 3945.01 3014.74 84.54 7.00  56.01 2971.20
   14:10:25.268.31-Jan-2020 3945.01 3014.74 84.54 7.00  56.21 2971.20
   14:10:25.468.31-Jan-2020 3945.01 3014.75 84.54 7.00  56.41 2971.20
   14:10:25.668.31-Jan-2020 3945.01 3014.82 84.54 7.00  56.61 2971.20
   14:10:25.868.31-Jan-2020 3945.01 3014.66 84.54 7.00  56.81 2971.20
   14:10:26.068.31-Jan-2020 3945.01 3014.71 84.54 7.00  57.01 2971.20
   14:10:26.268.31-Jan-2020 3945.01 3014.71 84.54 7.00  57.21 2971.20
   14:10:26.468.31-Jan-2020 3945.01 3014.77 84.54 7.00  57.41 2971.20
   14:10:26.668.31-Jan-2020 3945.01 3014.81 84.54 7.00  57.61 2971.20
   14:10:26.868.31-Jan-2020 3945.01 3014.79 84.53 7.00  57.81 2971.20
   14:10:27.068.31-Jan-2020 3945.01 3014.74 84.53 7.00  58.01 2971.20
   14:10:27.268.31-Jan-2020 3945.01 3014.74 84.53 7.00  58.21 2971.20
   14:10:27.468.31-Jan-2020 3945.01 3014.78 84.53 7.00  58.41 2971.20
   14:10:27.668.31-Jan-2020 3945.01 3014.81 84.53 7.00  58.61 2971.20
   14:10:27.868.31-Jan-2020 3945.01 3014.81 84.53 7.00  58.81 2971.20
   14:10:28.069.31-Jan-2020 3945.01 3014.77 84.53 7.00  59.01 2971.20
   14:10:28.269.31-Jan-2020 3945.01 3014.77 84.53 7.00  59.21 2971.20
   14:10:28.469.31-Jan-2020 3945.01 3014.77 84.53 7.00  59.41 2971.20
   14:10:28.669.31-Jan-2020 3945.01 3014.84 84.53 7.00  59.61 2971.20
   14:10:28.869.31-Jan-2020 3945.01 3014.84 84.53 7.00  59.81 2971.20
   14:10:29.069.31-Jan-2020 3945.01 3014.78 84.53 7.00  60.01 2971.20
   14:10:29.269.31-Jan-2020 3945.01 3014.78 84.53 7.00  60.21 2971.20
   14:10:29.469.31-Jan-2020 3945.01 3014.75 84.52 7.00  60.41 2971.20
   14:10:29.669.31-Jan-2020 3945.01 3014.77 84.52 7.00  60.61 2971.20
   14:10:29.869.31-Jan-2020 3945.01 3014.82 84.52 7.00  60.81 2971.20
   14:10:30.069.31-Jan-2020 3945.01 3014.77 84.52 7.00  61.01 2971.20
   14:10:30.269.31-Jan-2020 3945.01 3014.77 84.52 7.00  61.21 2971.20
   14:10:30.469.31-Jan-2020 3945.01 3014.79 84.52 7.00  61.41 2971.20
   14:10:30.669.31-Jan-2020 3945.01 3014.81 84.52 7.00  61.61 2971.20
   14:10:30.869.31-Jan-2020 3945.01 3014.84 84.52 7.00  61.81 2971.20
   14:10:31.069.31-Jan-2020 3945.01 3014.77 84.52 7.00  62.01 2971.20
   14:10:31.269.31-Jan-2020 3945.01 3014.77 84.52 7.00  62.21 2971.20
   14:10:31.469.31-Jan-2020 3945.01 3014.78 84.52 7.00  62.41 2971.20
   14:10:31.669.31-Jan-2020 3945.01 3014.80 84.52 7.00  62.61 2971.20
   14:10:31.869.31-Jan-2020 3945.01 3014.84 84.51 7.00  62.81 2971.20
   14:10:32.069.31-Jan-2020 3945.01 3014.79 84.51 7.00  63.01 2971.20
   14:10:32.270.31-Jan-2020 3945.01 3014.79 84.51 7.00  63.21 2971.20
   14:10:32.470.31-Jan-2020 3945.01 3014.83 84.51 7.00  63.41 2971.20
   14:10:32.670.31-Jan-2020 3945.01 3014.85 84.51 7.00  63.61 2971.20
   14:10:32.870.31-Jan-2020 3945.01 3014.73 84.51 7.00  63.81 2971.20
   14:10:33.070.31-Jan-2020 3945.01 3014.75 84.51 7.00  64.01 2971.20
   14:10:33.270.31-Jan-2020 3945.01 3014.75 84.51 7.00  64.22 2971.20
   14:10:33.470.31-Jan-2020 3945.01 3014.77 84.51 7.00  64.42 2971.20
   14:10:33.670.31-Jan-2020 3945.01 3014.84 84.51 7.00  64.62 2971.20
   14:10:33.870.31-Jan-2020 3945.01 3014.74 84.51 7.00  64.82 2971.20
   14:10:34.070.31-Jan-2020 3945.01 3014.74 84.51 7.00  65.02 2971.20
   14:10:34.270.31-Jan-2020 3945.01 3014.74 84.51 7.00  65.22 2971.20
   14:10:34.470.31-Jan-2020 3945.01 3014.81 84.50 7.00  65.42 2971.20
   14:10:34.670.31-Jan-2020 3945.01 3014.77 84.50 7.00  65.62 2971.20
   14:10:34.870.31-Jan-2020 3945.01 3014.86 84.50 7.00  65.82 2971.20
   14:10:35.070.31-Jan-2020 3945.01 3014.65 84.50 7.00  66.02 2971.20
   14:10:35.270.31-Jan-2020 3945.01 3014.65 84.50 7.00  66.22 2971.20
   14:10:35.470.31-Jan-2020 3945.01 3014.78 84.50 7.00  66.42 2971.20
   14:10:35.670.31-Jan-2020 3945.01 3014.80 84.50 7.00  66.62 2971.20
   14:10:35.870.31-Jan-2020 3945.01 3014.83 84.50 7.00  66.82 2971.20
   14:10:36.070.31-Jan-2020 3945.01 3014.77 84.50 7.00  67.02 2971.20
   14:10:36.270.31-Jan-2020 3945.01 3014.77 84.50 7.00  67.22 2971.20
   14:10:36.470.31-Jan-2020 3945.01 3014.78 84.50 7.00  67.42 2971.20
   14:10:36.671.31-Jan-2020 3945.01 3014.80 84.50 7.00  67.62 2971.20
   14:10:36.871.31-Jan-2020 3945.01 3014.84 84.50 7.00  67.82 2971.20
   14:10:37.071.31-Jan-2020 3945.01 3014.76 84.49 7.00  68.02 2971.20
   14:10:37.271.31-Jan-2020 3945.01 3014.76 84.49 7.00  68.22 2971.20
   14:10:37.471.31-Jan-2020 3945.01 3014.76 84.49 7.00  68.42 2971.20
   14:10:37.671.31-Jan-2020 3945.01 3014.79 84.49 7.00  68.62 2971.20
   14:10:37.871.31-Jan-2020 3945.01 3014.83 84.49 7.00  68.82 2971.20
