~Version Information
 VERS.                  2.0:   CWLS log ASCII Standard -VERSION 2.0
 WRAP.                   NO:   One line per depth step
~Well Information Block
#MNEM.UNIT     VALUE/NAME     DESCRIPTION
#---------     -----------    ---------------------------
 STRT.S             01:28:25 01-Feb-20: START TIME 01:28:25 01-Feb-20
 STOP.S             01:36:19 01-Feb-20: STOP TIME  01:36:19 01-Feb-20
 STEP.S                   0.00: STEP TIME
 NULL.                 -999.25: NULL VALUE
 DFWT.                        :  DIST FWL TEXT
 DFST.                        :  DIST FSL TEXT
 DMF .             Drill Floor:  DRILL MEAS FROM
 STIM.      09.30.00 26-Dec-19:  START TIME
 DATE.      08.00.00 20-Jan-20:  END TIME
 SPUD.               23-Nov-19:  SPUD DATE
 NREF.                    Grid:  NORTH REFERENCE
 HPTY.       Minimum Curvature:  HOLE POS TYPE
 DMOD.             Drill Model:  DRILL MOD DESC
 SVYD.                  Survey:  SURVEY DESC
 ILTD.               Lithology:  INTERP LTH DESC
 FTOP.          Formation Tops:  FORM TOPS DESC
 SON .        AZ-XX-0906192647:  JOB NUMBER
 WTYP.                Deviated:  WELL TYPE
 COMP.     BP Exploration (Caspian Sea) Ltd:  COMPANY
 BASE.              Azerbaijan:  LOGGING EQUIPMENT BASE LOCATION
 REGN.                 Eurasia:  REGION
 FLD .                     ACG:  FIELD NAME
 SRVC.              KCA Deutag:  CONTRACTOR
 MWDS.                    Baku:  MWD SHOP
 WELL.     A10 (Slot 20) - SCP:  WELL NAME
 JOBN.        AZ-XX-0906192647:  JOB TICKET NUMB
 RIG .                 Chirag1:  RIG NAME
 DCON.     Halliburton Sperry Drilling:  DIRECTNL CONTR
 UNIT.                     N/A:  LOGGING EQUIPMENT ID
 PDAT.          Mean Sea Level:  PERMANENT DATUM
 MDS .        Operator Entered:  MAG DATA SOURCE
 CTRY.              Azerbaijan:  COUNTRY NAME
 UWI .            /AZE00000090:  UNIQUE WELL IDENTIFIER
 API .            /AZE00000090:  API NUMBER
 CNTY.                        :  COUNTY
 PROV.                        :  PROVINCE
 STAT.                        :  STATE
 LOC .                        :  LOCATION
 LMF .             Drill Floor:  LOG MEASURED FROM
 TVDS.m                  36.60:  TVDSS CORRECTN
 LATI.deg                40.08:  LATITUDE
 LONG.deg                51.24:  LONGITUDE
 WHNS.m                  -7.94:  WELL HEAD N/S
 WHEW.m                   1.56:  WELL HEAD E/W
 UTMX.m              520429.26:  UTM X
 UTMY.m             4438973.87:  UTM Y
 DFWL.m                   0.00:  DISTANCE FWL
 DFSL.m                   0.00:  DISTANCE FSL
 SDEP.m                1455.00:  START DEPTH
 TDD .m                4047.51:  TOTAL DEPTH (DRILLER)
 VSDR.deg               112.75:  VERT SEC DIRECT
 GVFD.g                   1.00:  GRAVITY FIELD
 MFLD.nT              50261.00:  MAGNETIC FIELD
 MDIP.deg                59.52:  MAGNETIC DIP
 MDEC.deg                 6.42:  MAGNETIC DECL
 GRDC.deg                 0.17:  GRID CORRECTION
 AZTC.deg                 6.25:  AZM TOTAL CORR
 EPD .m                   0.00:  ELEVATION
 EGL .m                   0.00:  GROUND ELEVATION
 WDMS.m                 121.00:  WD ELEV
 APD .m                  36.60:  DEPTH ABOVE PD
 AGAP.m                  36.60:  AIR GAP
 VSEW.m                   1.56:  VERT SEC E/W
 VSNS.m                  -7.94:  VERT SEC N/S
 DEP .m                1140.01:  DEPTH
 EKB .m                  36.60:  KB ELEVATION
 EDF .m                  36.60:  DF ELEVATION
 TDL .m                 169.50:  TOTAL DEPTH (LOGGER)
 CSGD.m                3875.01:  CASING BOTTOM (DRILLER)
 CSGL.m                3875.01:  CASING BOTTOM (LOGGER)
 CSGS.in                  7.63:  CASING SIZE
 CSGW.lbpf               23.50:  CASING WEIGHT
 VSC .                       0:  VS TO CLOSURE
 MAGU.                 1849206:  MAGUTM CHECKSUM
~Parameter Information Block
#MNEM.UNIT       Value        Description
#---------     -----------    ---------------------------
 AV  .mps                 1.90:  Ann Velocity 
 AVMX.mps                 2.54:  Max Ann Veloc 
 AZIF.deg               137.03:  Azm, Final 
 BHAT.        Rotary Steerable:  BHA Type 
 BREV.rev             23610.00:  Rev Bit Total 
 BROT.°/30m               0.80:  Build Rotating 
 BS  .in                  6.50:  Bit Size 
 BTPL.psig              110.00:  Bit Press Loss 
 CABU.                     Yes:  Customer Abuse 
 COMM.                     ì…†:  Run Comments 1 
 TCS .hr                 70.51:  Time Ciculation Ended 
 CV  .mps                 1.41:  Crit Velocity 
 CVMX.mps                 1.42:  Max Crit Veloc 
 DD1 .         Intigam Rahimov:  Direct Drillr 1 
 DD2 .          Rashad Gojayev:  Direct Drillr 2 
 DDSV.               Geo-Pilot:  DD Service 
 DEFF.%                 100.00:  % Det Eff 
 DLRX.°/30m               1.44:  Dogleg Rot Max 
 DLSO.°/30m               0.00:  Dogleg Oriented 
 DLSX.°/30m               0.00:  Dogleg Str Max 
 DRET.      03.05.00 01-Feb-20:  Drill End Time 
 DRST.      15.50.00 28-Jan-20:  Drill Start Tim 
 DTIM.hr                 24.70:  Time Drilling 
 EDEP.m                4047.51:  End Depth 
 ENG1.           Eldar Hajiyev:  Engineer 1 
 ENG2.          Rasim Hashimov:  Engineer 2 
 ENG3.          Rustam Safarov:  Engineer 3 
 ETIM.      22.00.00 01-Feb-20:  End Time 
 FLOI.gpm               370.00:  Flow In 
 FLON.gpm               300.00:  Flow In Min 
 FLOS.cptm                0.00:  Fluid Loss 
 FLOX.gpm               400.00:  Flow In Max 
 FTRO.       Formation Presure:  FTWD Run Obj 
 HFLO.                      No:  High Flow 
 HPRE.                      No:  High Pressure 
 HTEM.                      No:  High Temp 
 HYDO.m                   2.50:  Hydro Offset 
 IFIN.deg                39.54:  Inc, Final 
 IMAX.deg                41.14:  Inc Max 
 IMIN.deg                39.81:  Inc Min 
 IMND.m                4005.21:  Inc Min Depth 
 IMXD.m                3948.42:  Inc Max Depth 
 JARR.                      No:  Jarring 
 LETM.      03.05.00 01-Feb-20:  Log End Time 
 LOST.hr                     0:  Lost Rig Time 
 LSTM.      15.50.00 28-Jan-20:  Log Start Time 
 MDCL.ppm             37500.00:  Mud Chlorides 
 MDES.     Inversion Oil/Synthetic:  Mud Desc 
 DFD .sg                  1.32:  Mud Density 
 MDMN.sg                  1.32:  Dens Mud Min 
 MDMX.sg                  1.32:  Dens Mud Max 
 MOIL.                      55:  Run Mud Oil % 
 MOWR.                   70:30:  Run Mud OWR 
 MSND.                       0:  Run Mud Sand % 
 MSOL.                      17:  Run Mud Solids% 
 DFV .spqt               80.00:  Mud Viscosity 
 MWOD.in                  4.75:  MWD Tool OD 
 MWSI.                      No:  Serv Intrp, MWD 
 OTIM.hr                121.28:  Time Operating 
 PCON.           Look Like New:  Pad Condition 
 PMAX.psia             6171.00:  Press Op, Max 
 PV  .cP                 30.00:  Mud PV 
 RUN .                     300:  Run Number 
 ROPA.m/hr                5.45:  ROP Avg 
 ROPN.m/hr                3.00:  ROP Min 
 ROPX.m/hr               15.00:  ROP Max 
 RPMA.rpm               130.00:  RPM Surface Avg 
 RPMN.rpm                80.00:  RPM Surface Min 
 RPMX.rpm               140.00:  RPM Surface Max 
 RRUN.                     300:  Rig Run Number 
 RTIM.hr                 13.50:  Time Reaming 
 SAZI.deg               133.93:  Azm, Start 
 SDEP.m                3878.01:  Start Depth 
 SIDD.                      No:  Serv Intrp, DD 
 SINC.deg                40.28:  Inc, Start 
 SPPA.psig             4983.00:  SPP Avg 
 SPPN.psig             4370.00:  SPP Min 
 SPPX.psig             5300.00:  SPP Max 
 STIM.      18.33.36 27-Jan-20:  Start Time 
 SVCS.                 DD, MWD:  Services 
 SVER.                    9.20:  Sperry Version 
 TDAT.m                 169.50:  Tot Depth Attmp 
 TDDF.                      No:  Trip for DD 
 TDLG.m                 169.50:  Tot Depth Loggd 
 TFF .                      No:  Trip for Fail 
 TQAA.f-kp               13.25:  Torque Abs Avg 
 TQAN.f-kp               12.00:  Torque Abs Min 
 TQAX.f-kp               14.00:  Torque Abs Max 
 TRRT.°/30m               0.70:  Turn Rotating 
 MRT .                     ADR:  Maximum Recorded Temperature 
 TTMX.degC               92.16:  Max Tool Temp 
 VS01.       AZ90598764G12V7D4:  Virtual Str1 SN 
 VS02.         AZ90571342R12C4:  Virtual Str2 SN 
 VS03.      AZ90580010N2L2X1C4:  Virtual Str3 SN 
 VS04.        AZ90522266O7X1C4:  Virtual Str4 SN 
 VS05.           AZ90598768F11:  Virtual Str5 SN 
 VS06.     AZ90580006XZ1W1X1C4:  Virtual Str6 SN 
 WBMN.klb                 8.00:  WOB Min 
 WITN.            Peter Wilson:  Customer Rep 
 WOBA.klb                 9.88:  WOB Avg 
 WOBX.klb                10.00:  WOB Max 
 YP  .lhf2               27.00:  Yield Point 
~Curve Information Block
#MNEM.UNIT                 API CODE     Curve Description
#---------               -----------    ---------------------------
 TIME.HHMMSS            00 000 000 000:  GT Time & Date
 GTDEPTH.m              00 000 000 000:  GT Depth
 GTPQH.psia             00 000 000 000:  GT HR Quartz Pressure
 GTTQ.degC              00 000 000 000:  GT Quartz Temperature
 GTTN.NONE              00 000 000 000:  GT Test Number
 GTET.sec               00 000 000 000:  GT Elapsed Test Time
 GTTVD.m                00 000 000 000:  GT True Vertical Depth
#Other Information
#
#WARRANTY: Halliburton will use its best efforts to furnish customers with 
#accurate information and interpretations that are part of, and incident to, the services 
#provided.  However, Halliburton cannot and does not warrant the accuracy 
#or correctness of such information and interpretations.  Under no circumstances should any 
#such information or interpretation be relied upon as the sole basis for any drilling, 
#completion, production, or financial decision or any procedure involving any risk to the 
#safety of any drilling venture, drilling rig or its crew or any other third party.  The 
#Customer has full responsibility for all drilling, completion and production operation.  
#Halliburton makes no representations or warranties, either expressed or 
#implied, including, but not limited to, the implied warranties of merchantability or fitness 
#for a particular purpose, with respect to the services rendered.  In no event will 
#Halliburton be liable for failure to obtain any particular results or for 
#any damages, including, but not limited to, indirect, special or consequential damages, 
#resulting from the use of any information or interpretation provided by Halliburton.
#
~A           TIME           GTDEPTH  GTPQH  GTTQ  GTTN   GTET   GTTVD  
# ...
   01:34:27.893.01-Feb-2020 3990.12 3216.11 84.35 11.00 362.87 3005.35
   01:34:28.094.01-Feb-2020 3990.12 3216.04 84.34 11.00 363.07 3005.35
   01:34:28.294.01-Feb-2020 3990.12 3216.11 84.34 11.00 363.27 3005.35
   01:34:28.495.01-Feb-2020 3990.12 3216.11 84.34 11.00 363.47 3005.35
   01:34:28.696.01-Feb-2020 3990.12 3215.75 84.34 11.00 363.67 3005.35
   01:34:28.896.01-Feb-2020 3990.12 3216.02 84.34 11.00 363.87 3005.35
   01:34:29.097.01-Feb-2020 3990.12 3216.12 84.34 11.00 364.07 3005.35
   01:34:29.298.01-Feb-2020 3990.12 3216.11 84.34 11.00 364.27 3005.35
   01:34:29.498.01-Feb-2020 3990.12 3216.11 84.34 11.00 364.47 3005.35
   01:34:29.699.01-Feb-2020 3990.12 3216.32 84.34 11.00 364.68 3005.35
   01:34:29.900.01-Feb-2020 3990.12 3216.36 84.34 11.00 364.88 3005.35
   01:34:30.101.01-Feb-2020 3990.12 3215.97 84.34 11.00 365.08 3005.35
   01:34:30.301.01-Feb-2020 3990.12 3216.07 84.34 11.00 365.28 3005.35
   01:34:30.502.01-Feb-2020 3990.12 3216.07 84.34 11.00 365.48 3005.35
   01:34:30.703.01-Feb-2020 3990.12 3216.29 84.34 11.00 365.68 3005.35
   01:34:30.903.01-Feb-2020 3990.12 3216.31 84.34 11.00 365.88 3005.35
   01:34:31.104.01-Feb-2020 3990.12 3215.93 84.34 11.00 366.08 3005.35
   01:34:31.305.01-Feb-2020 3990.12 3216.17 84.34 11.00 366.28 3005.35
   01:34:31.505.01-Feb-2020 3990.12 3216.17 84.34 11.00 366.48 3005.35
   01:34:31.706.01-Feb-2020 3990.12 3216.34 84.34 11.00 366.68 3005.35
   01:34:31.907.01-Feb-2020 3990.12 3216.44 84.34 11.00 366.88 3005.35
   01:34:32.108.01-Feb-2020 3990.12 3216.32 84.34 11.00 367.08 3005.35
   01:34:32.308.01-Feb-2020 3990.12 3216.51 84.34 11.00 367.28 3005.35
   01:34:32.509.01-Feb-2020 3990.12 3216.51 84.34 11.00 367.48 3005.35
   01:34:32.710.01-Feb-2020 3990.12 3216.15 84.34 11.00 367.69 3005.35
   01:34:32.910.01-Feb-2020 3990.12 3216.35 84.33 11.00 367.89 3005.35
   01:34:33.111.01-Feb-2020 3990.12 3216.46 84.33 11.00 368.09 3005.35
   01:34:33.312.01-Feb-2020 3990.12 3216.50 84.33 11.00 368.29 3005.35
   01:34:33.512.01-Feb-2020 3990.12 3216.50 84.33 11.00 368.49 3005.35
   01:34:33.713.01-Feb-2020 3990.12 3216.37 84.33 11.00 368.69 3005.35
   01:34:33.914.01-Feb-2020 3990.12 3216.41 84.33 11.00 368.89 3005.35
   01:34:34.115.01-Feb-2020 3990.12 3216.49 84.33 11.00 369.09 3005.35
   01:34:34.315.01-Feb-2020 3990.12 3216.38 84.33 11.00 369.29 3005.35
   01:34:34.516.01-Feb-2020 3990.12 3216.38 84.33 11.00 369.49 3005.35
   01:34:34.717.01-Feb-2020 3990.12 3216.45 84.33 11.00 369.69 3005.35
   01:34:34.917.01-Feb-2020 3990.12 3216.34 84.33 11.00 369.89 3005.35
   01:34:35.118.01-Feb-2020 3990.12 3216.42 84.33 11.00 370.09 3005.35
   01:34:35.319.01-Feb-2020 3990.12 3216.32 84.33 11.00 370.29 3005.35
   01:34:35.520.01-Feb-2020 3990.12 3216.32 84.33 11.00 370.50 3005.35
   01:34:35.720.01-Feb-2020 3990.12 3216.50 84.33 11.00 370.70 3005.35
   01:34:35.921.01-Feb-2020 3990.12 3216.48 84.33 11.00 370.90 3005.35
   01:34:36.122.01-Feb-2020 3990.12 3216.54 84.33 11.00 371.10 3005.35
   01:34:36.322.01-Feb-2020 3990.12 3216.20 84.33 11.00 371.30 3005.35
   01:34:36.523.01-Feb-2020 3990.12 3216.20 84.33 11.00 371.50 3005.35
   01:34:36.724.01-Feb-2020 3990.12 3216.41 84.33 11.00 371.70 3005.35
   01:34:36.924.01-Feb-2020 3990.12 3216.39 84.33 11.00 371.90 3005.35
   01:34:37.125.01-Feb-2020 3990.12 3216.44 84.33 11.00 372.10 3005.35
   01:34:37.326.01-Feb-2020 3990.12 3216.53 84.33 11.00 372.30 3005.35
   01:34:37.527.01-Feb-2020 3990.12 3216.53 84.33 11.00 372.50 3005.35
   01:34:37.727.01-Feb-2020 3990.12 3216.49 84.33 11.00 372.70 3005.35
   01:34:37.928.01-Feb-2020 3990.12 3216.54 84.32 11.00 372.90 3005.35
   01:34:38.129.01-Feb-2020 3990.12 3216.47 84.32 11.00 373.10 3005.35
   01:34:38.329.01-Feb-2020 3990.12 3216.50 84.32 11.00 373.31 3005.35
   01:34:38.530.01-Feb-2020 3990.12 3216.50 84.32 11.00 373.51 3005.35
   01:34:38.731.01-Feb-2020 3990.12 3216.47 84.32 11.00 373.71 3005.35
   01:34:38.931.01-Feb-2020 3990.12 3216.48 84.32 11.00 373.91 3005.35
   01:34:39.132.01-Feb-2020 3990.12 3216.47 84.32 11.00 374.11 3005.35
   01:34:39.333.01-Feb-2020 3990.12 3216.57 84.32 11.00 374.31 3005.35
   01:34:39.534.01-Feb-2020 3990.12 3216.57 84.32 11.00 374.51 3005.35
   01:34:39.734.01-Feb-2020 3990.12 3216.52 84.32 11.00 374.71 3005.35
   01:34:39.935.01-Feb-2020 3990.12 3216.52 84.32 11.00 374.91 3005.35
   01:34:40.136.01-Feb-2020 3990.12 3216.60 84.32 11.00 375.11 3005.35
   01:34:40.336.01-Feb-2020 3990.12 3216.60 84.32 11.00 375.31 3005.35
   01:34:40.537.01-Feb-2020 3990.12 3216.60 84.32 11.00 375.51 3005.35
   01:34:40.738.01-Feb-2020 3990.12 3216.52 84.32 11.00 375.71 3005.35
   01:34:40.938.01-Feb-2020 3990.12 3216.51 84.32 11.00 375.91 3005.35
   01:34:41.139.01-Feb-2020 3990.12 3216.62 84.32 11.00 376.12 3005.35
   01:34:41.340.01-Feb-2020 3990.12 3216.68 84.32 11.00 376.32 3005.35
   01:34:41.541.01-Feb-2020 3990.12 3216.68 84.32 11.00 376.52 3005.35
   01:34:41.741.01-Feb-2020 3990.12 3216.39 84.32 11.00 376.72 3005.35
   01:34:41.942.01-Feb-2020 3990.12 3216.55 84.32 11.00 376.92 3005.35
   01:34:42.143.01-Feb-2020 3990.12 3216.51 84.32 11.00 377.12 3005.35
   01:34:42.343.01-Feb-2020 3990.12 3216.60 84.32 11.00 377.32 3005.35
   01:34:42.544.01-Feb-2020 3990.12 3216.60 84.32 11.00 377.52 3005.35
   01:34:42.745.01-Feb-2020 3990.12 3216.45 84.32 11.00 377.72 3005.35
   01:34:42.945.01-Feb-2020 3990.12 3216.60 84.31 11.00 377.92 3005.35
   01:34:43.146.01-Feb-2020 3990.12 3216.63 84.31 11.00 378.12 3005.35
   01:34:43.347.01-Feb-2020 3990.12 3216.67 84.31 11.00 378.32 3005.35
   01:34:43.548.01-Feb-2020 3990.12 3216.67 84.31 11.00 378.52 3005.35
   01:34:43.748.01-Feb-2020 3990.12 3216.76 84.31 11.00 378.72 3005.35
   01:34:43.949.01-Feb-2020 3990.12 3216.79 84.31 11.00 378.92 3005.35
   01:34:44.150.01-Feb-2020 3990.12 3216.46 84.31 11.00 379.13 3005.35
   01:34:44.350.01-Feb-2020 3990.12 3216.57 84.31 11.00 379.33 3005.35
   01:34:44.551.01-Feb-2020 3990.12 3216.57 84.31 11.00 379.53 3005.35
   01:34:44.752.01-Feb-2020 3990.12 3216.79 84.31 11.00 379.73 3005.35
   01:34:44.952.01-Feb-2020 3990.12 3216.88 84.31 11.00 379.93 3005.35
   01:34:45.153.01-Feb-2020 3990.12 3216.80 84.31 11.00 380.13 3005.35
   01:34:45.354.01-Feb-2020 3990.12 3216.79 84.31 11.00 380.33 3005.35
   01:34:45.555.01-Feb-2020 3990.12 3216.79 84.31 11.00 380.53 3005.35
   01:34:45.755.01-Feb-2020 3990.12 3216.78 84.31 11.00 380.73 3005.35
   01:34:45.956.01-Feb-2020 3990.12 3216.82 84.31 11.00 380.93 3005.35
   01:34:46.157.01-Feb-2020 3990.12 3216.79 84.31 11.00 381.13 3005.35
   01:34:46.357.01-Feb-2020 3990.12 3216.78 84.31 11.00 381.33 3005.35
   01:34:46.558.01-Feb-2020 3990.12 3216.78 84.31 11.00 381.53 3005.35
   01:34:46.759.01-Feb-2020 3990.12 3216.77 84.31 11.00 381.73 3005.35
   01:34:46.960.01-Feb-2020 3990.12 3216.70 84.31 11.00 381.94 3005.35
   01:34:47.160.01-Feb-2020 3990.12 3216.72 84.31 11.00 382.14 3005.35
   01:34:47.361.01-Feb-2020 3990.12 3216.75 84.31 11.00 382.34 3005.35
   01:34:47.562.01-Feb-2020 3990.12 3216.75 84.31 11.00 382.54 3005.35
   01:34:47.762.01-Feb-2020 3990.12 3216.86 84.30 11.00 382.74 3005.35
   01:34:47.963.01-Feb-2020 3990.12 3216.44 84.30 11.00 382.94 3005.35
   01:34:48.164.01-Feb-2020 3990.12 3216.64 84.30 11.00 383.14 3005.35
   01:34:48.364.01-Feb-2020 3990.12 3216.77 84.30 11.00 383.34 3005.35
   01:34:48.565.01-Feb-2020 3990.12 3216.77 84.30 11.00 383.54 3005.35
   01:34:48.766.01-Feb-2020 3990.12 3216.86 84.30 11.00 383.74 3005.35
   01:34:48.967.01-Feb-2020 3990.12 3216.88 84.30 11.00 383.94 3005.35
   01:34:49.167.01-Feb-2020 3990.12 3216.90 84.30 11.00 384.14 3005.35
   01:34:49.368.01-Feb-2020 3990.12 3216.90 84.30 11.00 384.34 3005.35
   01:34:49.569.01-Feb-2020 3990.12 3216.90 84.30 11.00 384.54 3005.35
   01:34:49.769.01-Feb-2020 3990.12 3216.89 84.30 11.00 384.75 3005.35
   01:34:49.970.01-Feb-2020 3990.12 3216.88 84.30 11.00 384.95 3005.35
   01:34:50.171.01-Feb-2020 3990.12 3216.88 84.30 11.00 385.15 3005.35
   01:34:50.371.01-Feb-2020 3990.12 3216.92 84.30 11.00 385.35 3005.35
