~Version Information
 VERS.                  2.0:   CWLS log ASCII Standard -VERSION 2.0
 WRAP.                   NO:   One line per depth step
~Well Information Block
#MNEM.UNIT     VALUE/NAME     DESCRIPTION
#---------     -----------    ---------------------------
 STRT.S             14:09:29 31-Jan-20: START TIME 14:09:29 31-Jan-20
 STOP.S             14:15:59 31-Jan-20: STOP TIME  14:15:59 31-Jan-20
 STEP.S                   0.00: STEP TIME
 NULL.                 -999.25: NULL VALUE
 DFWT.                        :  DIST FWL TEXT
 DFST.                        :  DIST FSL TEXT
 DMF .             Drill Floor:  DRILL MEAS FROM
 STIM.      09.30.00 26-Dec-19:  START TIME
 DATE.      08.00.00 20-Jan-20:  END TIME
 SPUD.               23-Nov-19:  SPUD DATE
 NREF.                    Grid:  NORTH REFERENCE
 HPTY.       Minimum Curvature:  HOLE POS TYPE
 DMOD.             Drill Model:  DRILL MOD DESC
 SVYD.                  Survey:  SURVEY DESC
 ILTD.               Lithology:  INTERP LTH DESC
 FTOP.          Formation Tops:  FORM TOPS DESC
 SON .        AZ-XX-0906192647:  JOB NUMBER
 WTYP.                Deviated:  WELL TYPE
 COMP.     BP Exploration (Caspian Sea) Ltd:  COMPANY
 BASE.              Azerbaijan:  LOGGING EQUIPMENT BASE LOCATION
 REGN.                 Eurasia:  REGION
 FLD .                     ACG:  FIELD NAME
 SRVC.              KCA Deutag:  CONTRACTOR
 MWDS.                    Baku:  MWD SHOP
 WELL.     A10 (Slot 20) - SCP:  WELL NAME
 JOBN.        AZ-XX-0906192647:  JOB TICKET NUMB
 RIG .                 Chirag1:  RIG NAME
 DCON.     Halliburton Sperry Drilling:  DIRECTNL CONTR
 UNIT.                     N/A:  LOGGING EQUIPMENT ID
 PDAT.          Mean Sea Level:  PERMANENT DATUM
 MDS .        Operator Entered:  MAG DATA SOURCE
 CTRY.              Azerbaijan:  COUNTRY NAME
 UWI .            /AZE00000090:  UNIQUE WELL IDENTIFIER
 API .            /AZE00000090:  API NUMBER
 CNTY.                        :  COUNTY
 PROV.                        :  PROVINCE
 STAT.                        :  STATE
 LOC .                        :  LOCATION
 LMF .             Drill Floor:  LOG MEASURED FROM
 TVDS.m                  36.60:  TVDSS CORRECTN
 LATI.deg                40.08:  LATITUDE
 LONG.deg                51.24:  LONGITUDE
 WHNS.m                  -7.94:  WELL HEAD N/S
 WHEW.m                   1.56:  WELL HEAD E/W
 UTMX.m              520429.26:  UTM X
 UTMY.m             4438973.87:  UTM Y
 DFWL.m                   0.00:  DISTANCE FWL
 DFSL.m                   0.00:  DISTANCE FSL
 SDEP.m                1455.00:  START DEPTH
 TDD .m                4047.51:  TOTAL DEPTH (DRILLER)
 VSDR.deg               112.75:  VERT SEC DIRECT
 GVFD.g                   1.00:  GRAVITY FIELD
 MFLD.nT              50261.00:  MAGNETIC FIELD
 MDIP.deg                59.52:  MAGNETIC DIP
 MDEC.deg                 6.42:  MAGNETIC DECL
 GRDC.deg                 0.17:  GRID CORRECTION
 AZTC.deg                 6.25:  AZM TOTAL CORR
 EPD .m                   0.00:  ELEVATION
 EGL .m                   0.00:  GROUND ELEVATION
 WDMS.m                 121.00:  WD ELEV
 APD .m                  36.60:  DEPTH ABOVE PD
 AGAP.m                  36.60:  AIR GAP
 VSEW.m                   1.56:  VERT SEC E/W
 VSNS.m                  -7.94:  VERT SEC N/S
 DEP .m                1140.01:  DEPTH
 EKB .m                  36.60:  KB ELEVATION
 EDF .m                  36.60:  DF ELEVATION
 TDL .m                 169.50:  TOTAL DEPTH (LOGGER)
 CSGD.m                3875.01:  CASING BOTTOM (DRILLER)
 CSGL.m                3875.01:  CASING BOTTOM (LOGGER)
 CSGS.in                  7.63:  CASING SIZE
 CSGW.lbpf               23.50:  CASING WEIGHT
 VSC .                       0:  VS TO CLOSURE
 MAGU.                 1849206:  MAGUTM CHECKSUM
~Parameter Information Block
#MNEM.UNIT       Value        Description
#---------     -----------    ---------------------------
 AV  .mps                 1.90:  Ann Velocity 
 AVMX.mps                 2.54:  Max Ann Veloc 
 AZIF.deg               137.03:  Azm, Final 
 BHAT.        Rotary Steerable:  BHA Type 
 BREV.rev             23610.00:  Rev Bit Total 
 BROT.°/30m               0.80:  Build Rotating 
 BS  .in                  6.50:  Bit Size 
 BTPL.psig              110.00:  Bit Press Loss 
 CABU.                     Yes:  Customer Abuse 
 COMM.                     ÇV:  Run Comments 1 
 TCS .hr                 70.51:  Time Ciculation Ended 
 CV  .mps                 1.41:  Crit Velocity 
 CVMX.mps                 1.42:  Max Crit Veloc 
 DD1 .         Intigam Rahimov:  Direct Drillr 1 
 DD2 .          Rashad Gojayev:  Direct Drillr 2 
 DDSV.               Geo-Pilot:  DD Service 
 DEFF.%                 100.00:  % Det Eff 
 DLRX.°/30m               1.44:  Dogleg Rot Max 
 DLSO.°/30m               0.00:  Dogleg Oriented 
 DLSX.°/30m               0.00:  Dogleg Str Max 
 DRET.      03.05.00 01-Feb-20:  Drill End Time 
 DRST.      15.50.00 28-Jan-20:  Drill Start Tim 
 DTIM.hr                 24.70:  Time Drilling 
 EDEP.m                4047.51:  End Depth 
 ENG1.           Eldar Hajiyev:  Engineer 1 
 ENG2.          Rasim Hashimov:  Engineer 2 
 ENG3.          Rustam Safarov:  Engineer 3 
 ETIM.      22.00.00 01-Feb-20:  End Time 
 FLOI.gpm               370.00:  Flow In 
 FLON.gpm               300.00:  Flow In Min 
 FLOS.cptm                0.00:  Fluid Loss 
 FLOX.gpm               400.00:  Flow In Max 
 FTRO.       Formation Presure:  FTWD Run Obj 
 HFLO.                      No:  High Flow 
 HPRE.                      No:  High Pressure 
 HTEM.                      No:  High Temp 
 HYDO.m                   2.50:  Hydro Offset 
 IFIN.deg                39.54:  Inc, Final 
 IMAX.deg                41.14:  Inc Max 
 IMIN.deg                39.81:  Inc Min 
 IMND.m                4005.21:  Inc Min Depth 
 IMXD.m                3948.42:  Inc Max Depth 
 JARR.                      No:  Jarring 
 LETM.      03.05.00 01-Feb-20:  Log End Time 
 LOST.hr                     0:  Lost Rig Time 
 LSTM.      15.50.00 28-Jan-20:  Log Start Time 
 MDCL.ppm             37500.00:  Mud Chlorides 
 MDES.     Inversion Oil/Synthetic:  Mud Desc 
 DFD .sg                  1.32:  Mud Density 
 MDMN.sg                  1.32:  Dens Mud Min 
 MDMX.sg                  1.32:  Dens Mud Max 
 MOIL.                      55:  Run Mud Oil % 
 MOWR.                   70:30:  Run Mud OWR 
 MSND.                       0:  Run Mud Sand % 
 MSOL.                      17:  Run Mud Solids% 
 DFV .spqt               80.00:  Mud Viscosity 
 MWOD.in                  4.75:  MWD Tool OD 
 MWSI.                      No:  Serv Intrp, MWD 
 OTIM.hr                121.28:  Time Operating 
 PCON.           Look Like New:  Pad Condition 
 PMAX.psia             6171.00:  Press Op, Max 
 PV  .cP                 30.00:  Mud PV 
 RUN .                     300:  Run Number 
 ROPA.m/hr                5.45:  ROP Avg 
 ROPN.m/hr                3.00:  ROP Min 
 ROPX.m/hr               15.00:  ROP Max 
 RPMA.rpm               130.00:  RPM Surface Avg 
 RPMN.rpm                80.00:  RPM Surface Min 
 RPMX.rpm               140.00:  RPM Surface Max 
 RRUN.                     300:  Rig Run Number 
 RTIM.hr                 13.50:  Time Reaming 
 SAZI.deg               133.93:  Azm, Start 
 SDEP.m                3878.01:  Start Depth 
 SIDD.                      No:  Serv Intrp, DD 
 SINC.deg                40.28:  Inc, Start 
 SPPA.psig             4983.00:  SPP Avg 
 SPPN.psig             4370.00:  SPP Min 
 SPPX.psig             5300.00:  SPP Max 
 STIM.      18.33.36 27-Jan-20:  Start Time 
 SVCS.                 DD, MWD:  Services 
 SVER.                    9.20:  Sperry Version 
 TDAT.m                 169.50:  Tot Depth Attmp 
 TDDF.                      No:  Trip for DD 
 TDLG.m                 169.50:  Tot Depth Loggd 
 TFF .                      No:  Trip for Fail 
 TQAA.f-kp               13.25:  Torque Abs Avg 
 TQAN.f-kp               12.00:  Torque Abs Min 
 TQAX.f-kp               14.00:  Torque Abs Max 
 TRRT.°/30m               0.70:  Turn Rotating 
 MRT .                     ADR:  Maximum Recorded Temperature 
 TTMX.degC               92.16:  Max Tool Temp 
 VS01.       AZ90598764G12V7D4:  Virtual Str1 SN 
 VS02.         AZ90571342R12C4:  Virtual Str2 SN 
 VS03.      AZ90580010N2L2X1C4:  Virtual Str3 SN 
 VS04.        AZ90522266O7X1C4:  Virtual Str4 SN 
 VS05.           AZ90598768F11:  Virtual Str5 SN 
 VS06.     AZ90580006XZ1W1X1C4:  Virtual Str6 SN 
 WBMN.klb                 8.00:  WOB Min 
 WITN.            Peter Wilson:  Customer Rep 
 WOBA.klb                 9.88:  WOB Avg 
 WOBX.klb                10.00:  WOB Max 
 YP  .lhf2               27.00:  Yield Point 
~Curve Information Block
#MNEM.UNIT                 API CODE     Curve Description
#---------               -----------    ---------------------------
 TIME.HHMMSS            00 000 000 000:  GT Time & Date
 GTDEPTH.m              00 000 000 000:  GT Depth
 GTPQH.psia             00 000 000 000:  GT HR Quartz Pressure
 GTTQ.degC              00 000 000 000:  GT Quartz Temperature
 GTTN.NONE              00 000 000 000:  GT Test Number
 GTET.sec               00 000 000 000:  GT Elapsed Test Time
 GTTVD.m                00 000 000 000:  GT True Vertical Depth
#Other Information
#
#WARRANTY: Halliburton will use its best efforts to furnish customers with 
#accurate information and interpretations that are part of, and incident to, the services 
#provided.  However, Halliburton cannot and does not warrant the accuracy 
#or correctness of such information and interpretations.  Under no circumstances should any 
#such information or interpretation be relied upon as the sole basis for any drilling, 
#completion, production, or financial decision or any procedure involving any risk to the 
#safety of any drilling venture, drilling rig or its crew or any other third party.  The 
#Customer has full responsibility for all drilling, completion and production operation.  
#Halliburton makes no representations or warranties, either expressed or 
#implied, including, but not limited to, the implied warranties of merchantability or fitness 
#for a particular purpose, with respect to the services rendered.  In no event will 
#Halliburton be liable for failure to obtain any particular results or for 
#any damages, including, but not limited to, indirect, special or consequential damages, 
#resulting from the use of any information or interpretation provided by Halliburton.
#
~A           TIME           GTDEPTH  GTPQH  GTTQ  GTTN  GTET   GTTVD  
# ...
   14:15:37.141.31-Jan-2020 3945.01 6029.25 83.66 7.00 368.09 2971.20
   14:15:37.341.31-Jan-2020 3945.01 6029.25 83.66 7.00 368.29 2971.20
   14:15:37.541.31-Jan-2020 3945.01 6031.68 83.66 7.00 368.49 2971.20
   14:15:37.741.31-Jan-2020 3945.01 6034.09 83.65 7.00 368.69 2971.20
   14:15:37.941.31-Jan-2020 3945.01 6034.52 83.65 7.00 368.89 2971.20
   14:15:38.141.31-Jan-2020 3945.01 6031.94 83.65 7.00 369.09 2971.20
   14:15:38.341.31-Jan-2020 3945.01 6031.94 83.65 7.00 369.29 2971.20
   14:15:38.541.31-Jan-2020 3945.01 6031.53 83.65 7.00 369.49 2971.20
   14:15:38.741.31-Jan-2020 3945.01 6033.95 83.65 7.00 369.69 2971.20
   14:15:38.941.31-Jan-2020 3945.01 6033.82 83.65 7.00 369.89 2971.20
   14:15:39.141.31-Jan-2020 3945.01 6031.37 83.65 7.00 370.09 2971.20
   14:15:39.341.31-Jan-2020 3945.01 6031.37 83.65 7.00 370.29 2971.20
   14:15:39.541.31-Jan-2020 3945.01 6031.08 83.65 7.00 370.49 2971.20
   14:15:39.742.31-Jan-2020 3945.01 6030.97 83.65 7.00 370.69 2971.20
   14:15:39.942.31-Jan-2020 3945.01 6034.58 83.65 7.00 370.89 2971.20
   14:15:40.142.31-Jan-2020 3945.01 6032.10 83.65 7.00 371.09 2971.20
   14:15:40.342.31-Jan-2020 3945.01 6032.10 83.65 7.00 371.29 2971.20
   14:15:40.542.31-Jan-2020 3945.01 6028.86 83.65 7.00 371.49 2971.20
   14:15:40.742.31-Jan-2020 3945.01 6027.25 83.65 7.00 371.69 2971.20
   14:15:40.942.31-Jan-2020 3945.01 6032.04 83.65 7.00 371.89 2971.20
   14:15:41.142.31-Jan-2020 3945.01 6030.93 83.65 7.00 372.09 2971.20
   14:15:41.342.31-Jan-2020 3945.01 6030.93 83.65 7.00 372.29 2971.20
   14:15:41.542.31-Jan-2020 3945.01 6032.62 83.65 7.00 372.49 2971.20
   14:15:41.742.31-Jan-2020 3945.01 6032.93 83.65 7.00 372.69 2971.20
   14:15:41.942.31-Jan-2020 3945.01 6034.75 83.65 7.00 372.89 2971.20
   14:15:42.142.31-Jan-2020 3945.01 6031.75 83.64 7.00 373.09 2971.20
   14:15:42.342.31-Jan-2020 3945.01 6031.75 83.64 7.00 373.29 2971.20
   14:15:42.542.31-Jan-2020 3945.01 6032.42 83.64 7.00 373.49 2971.20
   14:15:42.742.31-Jan-2020 3945.01 6031.72 83.64 7.00 373.69 2971.20
   14:15:42.942.31-Jan-2020 3945.01 6034.31 83.64 7.00 373.89 2971.20
   14:15:43.142.31-Jan-2020 3945.01 6031.40 83.64 7.00 374.09 2971.20
   14:15:43.342.31-Jan-2020 3945.01 6031.40 83.64 7.00 374.29 2971.20
   14:15:43.542.31-Jan-2020 3945.01 6034.51 83.64 7.00 374.49 2971.20
   14:15:43.742.31-Jan-2020 3945.01 6034.29 83.64 7.00 374.69 2971.20
   14:15:43.943.31-Jan-2020 3945.01 6036.49 83.64 7.00 374.89 2971.20
   14:15:44.143.31-Jan-2020 3945.01 6025.07 83.64 7.00 375.09 2971.20
   14:15:44.343.31-Jan-2020 3945.01 6025.07 83.64 7.00 375.29 2971.20
   14:15:44.543.31-Jan-2020 3945.01 6032.41 83.64 7.00 375.49 2971.20
   14:15:44.743.31-Jan-2020 3945.01 6031.65 83.64 7.00 375.69 2971.20
   14:15:44.943.31-Jan-2020 3945.01 6034.84 83.64 7.00 375.89 2971.20
   14:15:45.143.31-Jan-2020 3945.01 6024.14 83.64 7.00 376.09 2971.20
   14:15:45.343.31-Jan-2020 3945.01 6024.14 83.64 7.00 376.29 2971.20
   14:15:45.543.31-Jan-2020 3945.01 6032.87 83.64 7.00 376.49 2971.20
   14:15:45.743.31-Jan-2020 3945.01 6032.22 83.64 7.00 376.69 2971.20
   14:15:45.943.31-Jan-2020 3945.01 6035.66 83.64 7.00 376.89 2971.20
   14:15:46.143.31-Jan-2020 3945.01 6031.47 83.64 7.00 377.09 2971.20
   14:15:46.343.31-Jan-2020 3945.01 6031.47 83.64 7.00 377.29 2971.20
   14:15:46.543.31-Jan-2020 3945.01 6030.32 83.63 7.00 377.49 2971.20
   14:15:46.743.31-Jan-2020 3945.01 6028.44 83.63 7.00 377.69 2971.20
   14:15:46.943.31-Jan-2020 3945.01 6032.78 83.63 7.00 377.89 2971.20
   14:15:47.143.31-Jan-2020 3945.01 6031.40 83.63 7.00 378.09 2971.20
   14:15:47.343.31-Jan-2020 3945.01 6031.40 83.63 7.00 378.29 2971.20
   14:15:47.543.31-Jan-2020 3945.01 6028.08 83.63 7.00 378.49 2971.20
   14:15:47.743.31-Jan-2020 3945.01 6028.36 83.63 7.00 378.69 2971.20
   14:15:47.943.31-Jan-2020 3945.01 6032.91 83.63 7.00 378.89 2971.20
   14:15:48.143.31-Jan-2020 3945.01 6032.32 83.63 7.00 379.09 2971.20
   14:15:48.344.31-Jan-2020 3945.01 6032.32 83.63 7.00 379.29 2971.20
   14:15:48.544.31-Jan-2020 3945.01 6033.68 83.63 7.00 379.49 2971.20
   14:15:48.744.31-Jan-2020 3945.01 6030.93 83.63 7.00 379.69 2971.20
   14:15:48.944.31-Jan-2020 3945.01 6027.10 83.63 7.00 379.89 2971.20
   14:15:49.144.31-Jan-2020 3945.01 6029.16 83.63 7.00 380.09 2971.20
   14:15:49.344.31-Jan-2020 3945.01 6029.16 83.63 7.00 380.29 2971.20
   14:15:49.544.31-Jan-2020 3945.01 6036.00 83.63 7.00 380.49 2971.20
   14:15:49.744.31-Jan-2020 3945.01 6032.58 83.63 7.00 380.69 2971.20
   14:15:49.944.31-Jan-2020 3945.01 6035.28 83.63 7.00 380.89 2971.20
   14:15:50.144.31-Jan-2020 3945.01 6030.99 83.63 7.00 381.09 2971.20
   14:15:50.344.31-Jan-2020 3945.01 6030.99 83.63 7.00 381.29 2971.20
   14:15:50.544.31-Jan-2020 3945.01 6034.76 83.63 7.00 381.49 2971.20
   14:15:50.744.31-Jan-2020 3945.01 6031.28 83.62 7.00 381.69 2971.20
   14:15:50.944.31-Jan-2020 3945.01 6034.59 83.62 7.00 381.89 2971.20
   14:15:51.144.31-Jan-2020 3945.01 6031.76 83.62 7.00 382.09 2971.20
   14:15:51.344.31-Jan-2020 3945.01 6031.76 83.62 7.00 382.29 2971.20
   14:15:51.544.31-Jan-2020 3945.01 6032.56 83.62 7.00 382.49 2971.20
   14:15:51.744.31-Jan-2020 3945.01 6030.91 83.62 7.00 382.69 2971.20
   14:15:51.944.31-Jan-2020 3945.01 6035.66 83.62 7.00 382.89 2971.20
   14:15:52.144.31-Jan-2020 3945.01 6032.84 83.62 7.00 383.09 2971.20
   14:15:52.344.31-Jan-2020 3945.01 6032.84 83.62 7.00 383.29 2971.20
   14:15:52.545.31-Jan-2020 3945.01 6026.79 83.62 7.00 383.49 2971.20
   14:15:52.745.31-Jan-2020 3945.01 6029.19 83.62 7.00 383.69 2971.20
   14:15:52.945.31-Jan-2020 3945.01 6033.60 83.62 7.00 383.89 2971.20
   14:15:53.145.31-Jan-2020 3945.01 6032.44 83.62 7.00 384.09 2971.20
   14:15:53.345.31-Jan-2020 3945.01 6032.44 83.62 7.00 384.29 2971.20
   14:15:53.545.31-Jan-2020 3945.01 6034.82 83.62 7.00 384.49 2971.20
   14:15:53.745.31-Jan-2020 3945.01 6031.83 83.62 7.00 384.69 2971.20
   14:15:53.945.31-Jan-2020 3945.01 6034.52 83.62 7.00 384.89 2971.20
   14:15:54.145.31-Jan-2020 3945.01 6032.41 83.62 7.00 385.09 2971.20
   14:15:54.345.31-Jan-2020 3945.01 6032.41 83.62 7.00 385.29 2971.20
   14:15:54.545.31-Jan-2020 3945.01 6034.73 83.62 7.00 385.49 2971.20
   14:15:54.745.31-Jan-2020 3945.01 6032.42 83.61 7.00 385.69 2971.20
   14:15:54.945.31-Jan-2020 3945.01 6034.89 83.61 7.00 385.89 2971.20
   14:15:55.145.31-Jan-2020 3945.01 6032.73 83.61 7.00 386.09 2971.20
   14:15:55.345.31-Jan-2020 3945.01 6032.73 83.61 7.00 386.29 2971.20
   14:15:55.545.31-Jan-2020 3945.01 6036.20 83.61 7.00 386.49 2971.20
   14:15:55.745.31-Jan-2020 3945.01 6034.00 83.61 7.00 386.69 2971.20
   14:15:55.945.31-Jan-2020 3945.01 6035.00 83.61 7.00 386.89 2971.20
   14:15:56.145.31-Jan-2020 3945.01 6026.22 83.61 7.00 387.09 2971.20
   14:15:56.345.31-Jan-2020 3945.01 6026.22 83.61 7.00 387.29 2971.20
   14:15:56.545.31-Jan-2020 3945.01 6033.60 83.61 7.00 387.49 2971.20
   14:15:56.746.31-Jan-2020 3945.01 6031.62 83.61 7.00 387.69 2971.20
   14:15:56.946.31-Jan-2020 3945.01 6033.13 83.61 7.00 387.89 2971.20
   14:15:57.146.31-Jan-2020 3945.01 6025.74 83.61 7.00 388.09 2971.20
   14:15:57.346.31-Jan-2020 3945.01 6025.74 83.61 7.00 388.29 2971.20
   14:15:57.546.31-Jan-2020 3945.01 6034.26 83.61 7.00 388.49 2971.20
   14:15:57.746.31-Jan-2020 3945.01 6032.31 83.61 7.00 388.69 2971.20
   14:15:57.946.31-Jan-2020 3945.01 6034.07 83.61 7.00 388.89 2971.20
   14:15:58.146.31-Jan-2020 3945.01 6033.49 83.61 7.00 389.09 2971.20
   14:15:58.346.31-Jan-2020 3945.01 6033.49 83.61 7.00 389.29 2971.20
   14:15:58.546.31-Jan-2020 3945.01 6031.95 83.61 7.00 389.49 2971.20
   14:15:58.746.31-Jan-2020 3945.01 6029.69 83.60 7.00 389.69 2971.20
   14:15:58.946.31-Jan-2020 3945.01 6033.28 83.60 7.00 389.89 2971.20
   14:15:59.146.31-Jan-2020 3945.01 6030.13 83.60 7.00 390.09 2971.20
   14:15:59.346.31-Jan-2020 3945.01 6030.13 83.60 7.00 390.29 2971.20
   14:15:59.546.31-Jan-2020 3945.01 6031.23 83.60 7.00 390.49 2971.20
   14:15:59.746.31-Jan-2020 3945.01 6030.17 83.60 7.00 390.69 2971.20
   14:15:59.946.31-Jan-2020 3945.01 6033.06 83.60 7.00 390.89 2971.20
