~Version Information
 VERS.                  2.0:   CWLS log ASCII Standard -VERSION 2.0
 WRAP.                   NO:   One line per depth step
~Well Information Block
#MNEM.UNIT     VALUE/NAME     DESCRIPTION
#---------     -----------    ---------------------------
 STRT.S             00:13:57 01-Feb-20: START TIME 00:13:57 01-Feb-20
 STOP.S             00:20:28 01-Feb-20: STOP TIME  00:20:28 01-Feb-20
 STEP.S                   0.00: STEP TIME
 NULL.                 -999.25: NULL VALUE
 DFWT.                        :  DIST FWL TEXT
 DFST.                        :  DIST FSL TEXT
 DMF .             Drill Floor:  DRILL MEAS FROM
 STIM.      09.30.00 26-Dec-19:  START TIME
 DATE.      08.00.00 20-Jan-20:  END TIME
 SPUD.               23-Nov-19:  SPUD DATE
 NREF.                    Grid:  NORTH REFERENCE
 HPTY.       Minimum Curvature:  HOLE POS TYPE
 DMOD.             Drill Model:  DRILL MOD DESC
 SVYD.                  Survey:  SURVEY DESC
 ILTD.               Lithology:  INTERP LTH DESC
 FTOP.          Formation Tops:  FORM TOPS DESC
 SON .        AZ-XX-0906192647:  JOB NUMBER
 WTYP.                Deviated:  WELL TYPE
 COMP.     BP Exploration (Caspian Sea) Ltd:  COMPANY
 BASE.              Azerbaijan:  LOGGING EQUIPMENT BASE LOCATION
 REGN.                 Eurasia:  REGION
 FLD .                     ACG:  FIELD NAME
 SRVC.              KCA Deutag:  CONTRACTOR
 MWDS.                    Baku:  MWD SHOP
 WELL.     A10 (Slot 20) - SCP:  WELL NAME
 JOBN.        AZ-XX-0906192647:  JOB TICKET NUMB
 RIG .                 Chirag1:  RIG NAME
 DCON.     Halliburton Sperry Drilling:  DIRECTNL CONTR
 UNIT.                     N/A:  LOGGING EQUIPMENT ID
 PDAT.          Mean Sea Level:  PERMANENT DATUM
 MDS .        Operator Entered:  MAG DATA SOURCE
 CTRY.              Azerbaijan:  COUNTRY NAME
 UWI .            /AZE00000090:  UNIQUE WELL IDENTIFIER
 API .            /AZE00000090:  API NUMBER
 CNTY.                        :  COUNTY
 PROV.                        :  PROVINCE
 STAT.                        :  STATE
 LOC .                        :  LOCATION
 LMF .             Drill Floor:  LOG MEASURED FROM
 TVDS.m                  36.60:  TVDSS CORRECTN
 LATI.deg                40.08:  LATITUDE
 LONG.deg                51.24:  LONGITUDE
 WHNS.m                  -7.94:  WELL HEAD N/S
 WHEW.m                   1.56:  WELL HEAD E/W
 UTMX.m              520429.26:  UTM X
 UTMY.m             4438973.87:  UTM Y
 DFWL.m                   0.00:  DISTANCE FWL
 DFSL.m                   0.00:  DISTANCE FSL
 SDEP.m                1455.00:  START DEPTH
 TDD .m                4047.51:  TOTAL DEPTH (DRILLER)
 VSDR.deg               112.75:  VERT SEC DIRECT
 GVFD.g                   1.00:  GRAVITY FIELD
 MFLD.nT              50261.00:  MAGNETIC FIELD
 MDIP.deg                59.52:  MAGNETIC DIP
 MDEC.deg                 6.42:  MAGNETIC DECL
 GRDC.deg                 0.17:  GRID CORRECTION
 AZTC.deg                 6.25:  AZM TOTAL CORR
 EPD .m                   0.00:  ELEVATION
 EGL .m                   0.00:  GROUND ELEVATION
 WDMS.m                 121.00:  WD ELEV
 APD .m                  36.60:  DEPTH ABOVE PD
 AGAP.m                  36.60:  AIR GAP
 VSEW.m                   1.56:  VERT SEC E/W
 VSNS.m                  -7.94:  VERT SEC N/S
 DEP .m                1140.01:  DEPTH
 EKB .m                  36.60:  KB ELEVATION
 EDF .m                  36.60:  DF ELEVATION
 TDL .m                 169.50:  TOTAL DEPTH (LOGGER)
 CSGD.m                3875.01:  CASING BOTTOM (DRILLER)
 CSGL.m                3875.01:  CASING BOTTOM (LOGGER)
 CSGS.in                  7.63:  CASING SIZE
 CSGW.lbpf               23.50:  CASING WEIGHT
 VSC .                       0:  VS TO CLOSURE
 MAGU.                 1849206:  MAGUTM CHECKSUM
~Parameter Information Block
#MNEM.UNIT       Value        Description
#---------     -----------    ---------------------------
 AV  .mps                 1.90:  Ann Velocity 
 AVMX.mps                 2.54:  Max Ann Veloc 
 AZIF.deg               137.03:  Azm, Final 
 BHAT.        Rotary Steerable:  BHA Type 
 BREV.rev             23610.00:  Rev Bit Total 
 BROT.°/30m               0.80:  Build Rotating 
 BS  .in                  6.50:  Bit Size 
 BTPL.psig              110.00:  Bit Press Loss 
 CABU.                     Yes:  Customer Abuse 
 TCS .hr                 70.51:  Time Ciculation Ended 
 CV  .mps                 1.41:  Crit Velocity 
 CVMX.mps                 1.42:  Max Crit Veloc 
 DD1 .         Intigam Rahimov:  Direct Drillr 1 
 DD2 .          Rashad Gojayev:  Direct Drillr 2 
 DDSV.               Geo-Pilot:  DD Service 
 DEFF.%                 100.00:  % Det Eff 
 DLRX.°/30m               1.44:  Dogleg Rot Max 
 DLSO.°/30m               0.00:  Dogleg Oriented 
 DLSX.°/30m               0.00:  Dogleg Str Max 
 DRET.      03.05.00 01-Feb-20:  Drill End Time 
 DRST.      15.50.00 28-Jan-20:  Drill Start Tim 
 DTIM.hr                 24.70:  Time Drilling 
 EDEP.m                4047.51:  End Depth 
 ENG1.           Eldar Hajiyev:  Engineer 1 
 ENG2.          Rasim Hashimov:  Engineer 2 
 ENG3.          Rustam Safarov:  Engineer 3 
 ETIM.      22.00.00 01-Feb-20:  End Time 
 FLOI.gpm               370.00:  Flow In 
 FLON.gpm               300.00:  Flow In Min 
 FLOS.cptm                0.00:  Fluid Loss 
 FLOX.gpm               400.00:  Flow In Max 
 FTRO.       Formation Presure:  FTWD Run Obj 
 HFLO.                      No:  High Flow 
 HPRE.                      No:  High Pressure 
 HTEM.                      No:  High Temp 
 HYDO.m                   2.50:  Hydro Offset 
 IFIN.deg                39.54:  Inc, Final 
 IMAX.deg                41.14:  Inc Max 
 IMIN.deg                39.81:  Inc Min 
 IMND.m                4005.21:  Inc Min Depth 
 IMXD.m                3948.42:  Inc Max Depth 
 JARR.                      No:  Jarring 
 LETM.      03.05.00 01-Feb-20:  Log End Time 
 LOST.hr                     0:  Lost Rig Time 
 LSTM.      15.50.00 28-Jan-20:  Log Start Time 
 MDCL.ppm             37500.00:  Mud Chlorides 
 MDES.     Inversion Oil/Synthetic:  Mud Desc 
 DFD .sg                  1.32:  Mud Density 
 MDMN.sg                  1.32:  Dens Mud Min 
 MDMX.sg                  1.32:  Dens Mud Max 
 MOIL.                      55:  Run Mud Oil % 
 MOWR.                   70:30:  Run Mud OWR 
 MSND.                       0:  Run Mud Sand % 
 MSOL.                      17:  Run Mud Solids% 
 DFV .spqt               80.00:  Mud Viscosity 
 MWOD.in                  4.75:  MWD Tool OD 
 MWSI.                      No:  Serv Intrp, MWD 
 OTIM.hr                121.28:  Time Operating 
 PCON.           Look Like New:  Pad Condition 
 PMAX.psia             6171.00:  Press Op, Max 
 PV  .cP                 30.00:  Mud PV 
 RUN .                     300:  Run Number 
 ROPA.m/hr                5.45:  ROP Avg 
 ROPN.m/hr                3.00:  ROP Min 
 ROPX.m/hr               15.00:  ROP Max 
 RPMA.rpm               130.00:  RPM Surface Avg 
 RPMN.rpm                80.00:  RPM Surface Min 
 RPMX.rpm               140.00:  RPM Surface Max 
 RRUN.                     300:  Rig Run Number 
 RTIM.hr                 13.50:  Time Reaming 
 SAZI.deg               133.93:  Azm, Start 
 SDEP.m                3878.01:  Start Depth 
 SIDD.                      No:  Serv Intrp, DD 
 SINC.deg                40.28:  Inc, Start 
 SPPA.psig             4983.00:  SPP Avg 
 SPPN.psig             4370.00:  SPP Min 
 SPPX.psig             5300.00:  SPP Max 
 STIM.      18.33.36 27-Jan-20:  Start Time 
 SVCS.                 DD, MWD:  Services 
 SVER.                    9.20:  Sperry Version 
 TDAT.m                 169.50:  Tot Depth Attmp 
 TDDF.                      No:  Trip for DD 
 TDLG.m                 169.50:  Tot Depth Loggd 
 TFF .                      No:  Trip for Fail 
 TQAA.f-kp               13.25:  Torque Abs Avg 
 TQAN.f-kp               12.00:  Torque Abs Min 
 TQAX.f-kp               14.00:  Torque Abs Max 
 TRRT.°/30m               0.70:  Turn Rotating 
 MRT .                     ADR:  Maximum Recorded Temperature 
 TTMX.degC               92.16:  Max Tool Temp 
 VS01.       AZ90598764G12V7D4:  Virtual Str1 SN 
 VS02.         AZ90571342R12C4:  Virtual Str2 SN 
 VS03.      AZ90580010N2L2X1C4:  Virtual Str3 SN 
 VS04.        AZ90522266O7X1C4:  Virtual Str4 SN 
 VS05.           AZ90598768F11:  Virtual Str5 SN 
 VS06.     AZ90580006XZ1W1X1C4:  Virtual Str6 SN 
 WBMN.klb                 8.00:  WOB Min 
 WITN.            Peter Wilson:  Customer Rep 
 WOBA.klb                 9.88:  WOB Avg 
 WOBX.klb                10.00:  WOB Max 
 YP  .lhf2               27.00:  Yield Point 
~Curve Information Block
#MNEM.UNIT                 API CODE     Curve Description
#---------               -----------    ---------------------------
 TIME.HHMMSS            00 000 000 000:  GT Time & Date
 GTDEPTH.m              00 000 000 000:  GT Depth
 GTPQH.psia             00 000 000 000:  GT HR Quartz Pressure
 GTTQ.degC              00 000 000 000:  GT Quartz Temperature
 GTTN.NONE              00 000 000 000:  GT Test Number
 GTET.sec               00 000 000 000:  GT Elapsed Test Time
 GTTVD.m                00 000 000 000:  GT True Vertical Depth
#Other Information
#
#WARRANTY: Halliburton will use its best efforts to furnish customers with 
#accurate information and interpretations that are part of, and incident to, the services 
#provided.  However, Halliburton cannot and does not warrant the accuracy 
#or correctness of such information and interpretations.  Under no circumstances should any 
#such information or interpretation be relied upon as the sole basis for any drilling, 
#completion, production, or financial decision or any procedure involving any risk to the 
#safety of any drilling venture, drilling rig or its crew or any other third party.  The 
#Customer has full responsibility for all drilling, completion and production operation.  
#Halliburton makes no representations or warranties, either expressed or 
#implied, including, but not limited to, the implied warranties of merchantability or fitness 
#for a particular purpose, with respect to the services rendered.  In no event will 
#Halliburton be liable for failure to obtain any particular results or for 
#any damages, including, but not limited to, indirect, special or consequential damages, 
#resulting from the use of any information or interpretation provided by Halliburton.
#
~A           TIME           GTDEPTH  GTPQH  GTTQ  GTTN   GTET   GTTVD  
# ...
   00:15:50.718.01-Feb-2020 3989.40 3222.52 87.21 10.00 113.01 3004.80
   00:15:50.918.01-Feb-2020 3989.40 3222.52 87.21 10.00 113.21 3004.80
   00:15:51.118.01-Feb-2020 3989.40 3222.81 87.21 10.00 113.41 3004.80
   00:15:51.318.01-Feb-2020 3989.40 3222.70 87.21 10.00 113.61 3004.80
   00:15:51.518.01-Feb-2020 3989.40 3222.85 87.21 10.00 113.81 3004.80
   00:15:51.718.01-Feb-2020 3989.40 3222.46 87.21 10.00 114.01 3004.80
   00:15:51.918.01-Feb-2020 3989.40 3222.46 87.21 10.00 114.21 3004.80
   00:15:52.118.01-Feb-2020 3989.40 3222.80 87.21 10.00 114.41 3004.80
   00:15:52.318.01-Feb-2020 3989.40 3222.87 87.20 10.00 114.61 3004.80
   00:15:52.518.01-Feb-2020 3989.40 3222.81 87.20 10.00 114.81 3004.80
   00:15:52.718.01-Feb-2020 3989.40 3222.91 87.20 10.00 115.01 3004.80
   00:15:52.918.01-Feb-2020 3989.40 3222.91 87.20 10.00 115.21 3004.80
   00:15:53.118.01-Feb-2020 3989.40 3222.75 87.20 10.00 115.41 3004.80
   00:15:53.318.01-Feb-2020 3989.40 3222.88 87.20 10.00 115.61 3004.80
   00:15:53.518.01-Feb-2020 3989.40 3222.78 87.20 10.00 115.81 3004.80
   00:15:53.718.01-Feb-2020 3989.40 3222.80 87.20 10.00 116.01 3004.80
   00:15:53.918.01-Feb-2020 3989.40 3222.80 87.20 10.00 116.21 3004.80
   00:15:54.118.01-Feb-2020 3989.40 3222.77 87.20 10.00 116.41 3004.80
   00:15:54.318.01-Feb-2020 3989.40 3222.82 87.20 10.00 116.61 3004.80
   00:15:54.518.01-Feb-2020 3989.40 3222.73 87.20 10.00 116.81 3004.80
   00:15:54.718.01-Feb-2020 3989.40 3222.70 87.20 10.00 117.01 3004.80
   00:15:54.918.01-Feb-2020 3989.40 3222.70 87.20 10.00 117.21 3004.80
   00:15:55.118.01-Feb-2020 3989.40 3222.71 87.20 10.00 117.41 3004.80
   00:15:55.318.01-Feb-2020 3989.40 3222.77 87.19 10.00 117.61 3004.80
   00:15:55.518.01-Feb-2020 3989.40 3222.69 87.19 10.00 117.81 3004.80
   00:15:55.718.01-Feb-2020 3989.40 3222.69 87.19 10.00 118.01 3004.80
   00:15:55.918.01-Feb-2020 3989.40 3222.69 87.19 10.00 118.21 3004.80
   00:15:56.118.01-Feb-2020 3989.40 3222.83 87.19 10.00 118.41 3004.80
   00:15:56.318.01-Feb-2020 3989.40 3222.79 87.19 10.00 118.61 3004.80
   00:15:56.518.01-Feb-2020 3989.40 3222.92 87.19 10.00 118.81 3004.80
   00:15:56.718.01-Feb-2020 3989.40 3222.89 87.19 10.00 119.01 3004.80
   00:15:56.918.01-Feb-2020 3989.40 3222.89 87.19 10.00 119.21 3004.80
   00:15:57.118.01-Feb-2020 3989.40 3222.99 87.19 10.00 119.41 3004.80
   00:15:57.318.01-Feb-2020 3989.40 3222.90 87.19 10.00 119.61 3004.80
   00:15:57.518.01-Feb-2020 3989.40 3222.96 87.19 10.00 119.81 3004.80
   00:15:57.718.01-Feb-2020 3989.40 3223.00 87.19 10.00 120.01 3004.80
   00:15:57.918.01-Feb-2020 3989.40 3223.00 87.19 10.00 120.21 3004.80
   00:15:58.118.01-Feb-2020 3989.40 3222.94 87.18 10.00 120.41 3004.80
   00:15:58.318.01-Feb-2020 3989.40 3222.94 87.18 10.00 120.61 3004.80
   00:15:58.519.01-Feb-2020 3989.40 3223.01 87.18 10.00 120.81 3004.80
   00:15:58.719.01-Feb-2020 3989.40 3222.69 87.18 10.00 121.01 3004.80
   00:15:58.919.01-Feb-2020 3989.40 3222.69 87.18 10.00 121.21 3004.80
   00:15:59.119.01-Feb-2020 3989.40 3222.89 87.18 10.00 121.41 3004.80
   00:15:59.319.01-Feb-2020 3989.40 3222.99 87.18 10.00 121.61 3004.80
   00:15:59.519.01-Feb-2020 3989.40 3222.97 87.18 10.00 121.81 3004.80
   00:15:59.719.01-Feb-2020 3989.40 3222.62 87.18 10.00 122.01 3004.80
   00:15:59.919.01-Feb-2020 3989.40 3222.62 87.18 10.00 122.21 3004.80
   00:16:00.119.01-Feb-2020 3989.40 3222.90 87.18 10.00 122.41 3004.80
   00:16:00.319.01-Feb-2020 3989.40 3223.01 87.18 10.00 122.61 3004.80
   00:16:00.519.01-Feb-2020 3989.40 3223.03 87.18 10.00 122.81 3004.80
   00:16:00.719.01-Feb-2020 3989.40 3223.03 87.18 10.00 123.01 3004.80
   00:16:00.919.01-Feb-2020 3989.40 3223.03 87.18 10.00 123.21 3004.80
   00:16:01.119.01-Feb-2020 3989.40 3222.83 87.17 10.00 123.41 3004.80
   00:16:01.319.01-Feb-2020 3989.40 3222.87 87.17 10.00 123.61 3004.80
   00:16:01.519.01-Feb-2020 3989.40 3223.03 87.17 10.00 123.81 3004.80
   00:16:01.719.01-Feb-2020 3989.40 3223.02 87.17 10.00 124.01 3004.80
   00:16:01.919.01-Feb-2020 3989.40 3223.02 87.17 10.00 124.21 3004.80
   00:16:02.119.01-Feb-2020 3989.40 3222.73 87.17 10.00 124.41 3004.80
   00:16:02.319.01-Feb-2020 3989.40 3222.90 87.17 10.00 124.61 3004.80
   00:16:02.519.01-Feb-2020 3989.40 3223.03 87.17 10.00 124.81 3004.80
   00:16:02.719.01-Feb-2020 3989.40 3223.14 87.17 10.00 125.01 3004.80
   00:16:02.919.01-Feb-2020 3989.40 3223.14 87.17 10.00 125.21 3004.80
   00:16:03.119.01-Feb-2020 3989.40 3223.12 87.17 10.00 125.41 3004.80
   00:16:03.319.01-Feb-2020 3989.40 3223.22 87.17 10.00 125.61 3004.80
   00:16:03.519.01-Feb-2020 3989.40 3222.76 87.17 10.00 125.81 3004.80
   00:16:03.719.01-Feb-2020 3989.40 3222.98 87.17 10.00 126.01 3004.80
   00:16:03.919.01-Feb-2020 3989.40 3222.98 87.17 10.00 126.21 3004.80
   00:16:04.119.01-Feb-2020 3989.40 3223.18 87.16 10.00 126.41 3004.80
   00:16:04.319.01-Feb-2020 3989.40 3223.20 87.16 10.00 126.61 3004.80
   00:16:04.519.01-Feb-2020 3989.40 3223.16 87.16 10.00 126.81 3004.80
   00:16:04.719.01-Feb-2020 3989.40 3223.14 87.16 10.00 127.01 3004.80
   00:16:04.919.01-Feb-2020 3989.40 3223.14 87.16 10.00 127.21 3004.80
   00:16:05.119.01-Feb-2020 3989.40 3223.11 87.16 10.00 127.41 3004.80
   00:16:05.319.01-Feb-2020 3989.40 3223.21 87.16 10.00 127.61 3004.80
   00:16:05.519.01-Feb-2020 3989.40 3223.17 87.16 10.00 127.81 3004.80
   00:16:05.719.01-Feb-2020 3989.40 3223.14 87.16 10.00 128.01 3004.80
   00:16:05.919.01-Feb-2020 3989.40 3223.14 87.16 10.00 128.21 3004.80
   00:16:06.119.01-Feb-2020 3989.40 3223.08 87.16 10.00 128.41 3004.80
   00:16:06.319.01-Feb-2020 3989.40 3223.09 87.16 10.00 128.61 3004.80
   00:16:06.519.01-Feb-2020 3989.40 3223.14 87.16 10.00 128.81 3004.80
   00:16:06.719.01-Feb-2020 3989.40 3223.15 87.16 10.00 129.01 3004.80
   00:16:06.919.01-Feb-2020 3989.40 3223.15 87.16 10.00 129.21 3004.80
   00:16:07.119.01-Feb-2020 3989.40 3222.96 87.15 10.00 129.41 3004.80
   00:16:07.319.01-Feb-2020 3989.40 3223.10 87.15 10.00 129.61 3004.80
   00:16:07.519.01-Feb-2020 3989.40 3223.10 87.15 10.00 129.81 3004.80
   00:16:07.719.01-Feb-2020 3989.40 3223.20 87.15 10.00 130.01 3004.80
   00:16:07.919.01-Feb-2020 3989.40 3223.20 87.15 10.00 130.21 3004.80
   00:16:08.119.01-Feb-2020 3989.40 3223.25 87.15 10.00 130.41 3004.80
   00:16:08.319.01-Feb-2020 3989.40 3223.29 87.15 10.00 130.61 3004.80
   00:16:08.519.01-Feb-2020 3989.40 3223.27 87.15 10.00 130.81 3004.80
   00:16:08.719.01-Feb-2020 3989.40 3223.28 87.15 10.00 131.01 3004.80
   00:16:08.919.01-Feb-2020 3989.40 3223.28 87.15 10.00 131.21 3004.80
   00:16:09.119.01-Feb-2020 3989.40 3223.20 87.15 10.00 131.41 3004.80
   00:16:09.319.01-Feb-2020 3989.40 3223.21 87.15 10.00 131.61 3004.80
   00:16:09.519.01-Feb-2020 3989.40 3223.26 87.15 10.00 131.81 3004.80
   00:16:09.720.01-Feb-2020 3989.40 3223.25 87.15 10.00 132.01 3004.80
   00:16:09.920.01-Feb-2020 3989.40 3223.25 87.15 10.00 132.21 3004.80
   00:16:10.120.01-Feb-2020 3989.40 3223.25 87.14 10.00 132.41 3004.80
   00:16:10.320.01-Feb-2020 3989.40 3223.37 87.14 10.00 132.61 3004.80
   00:16:10.520.01-Feb-2020 3989.40 3222.95 87.14 10.00 132.81 3004.80
   00:16:10.720.01-Feb-2020 3989.40 3223.19 87.14 10.00 133.01 3004.80
   00:16:10.920.01-Feb-2020 3989.40 3223.19 87.14 10.00 133.21 3004.80
   00:16:11.120.01-Feb-2020 3989.40 3223.34 87.14 10.00 133.41 3004.80
   00:16:11.320.01-Feb-2020 3989.40 3222.47 87.14 10.00 133.61 3004.80
   00:16:11.520.01-Feb-2020 3989.40 3048.07 87.14 10.00 133.81 3004.80
   00:16:11.720.01-Feb-2020 3989.40 2625.61 87.14 10.00 134.01 3004.80
   00:16:11.920.01-Feb-2020 3989.40 2625.61 87.14 10.00 134.21 3004.80
   00:16:12.120.01-Feb-2020 3989.40 2221.20 87.14 10.00 134.41 3004.80
   00:16:12.320.01-Feb-2020 3989.40 2121.67 87.14 10.00 134.61 3004.80
   00:16:12.520.01-Feb-2020 3989.40 2056.07 87.14 10.00 134.81 3004.80
   00:16:12.720.01-Feb-2020 3989.40 2012.30 87.13 10.00 135.01 3004.80
   00:16:12.920.01-Feb-2020 3989.40 2012.30 87.13 10.00 135.21 3004.80
   00:16:13.120.01-Feb-2020 3989.40 1964.98 87.13 10.00 135.41 3004.80
