~Version Information
 VERS.                  2.0:   CWLS log ASCII Standard -VERSION 2.0
 WRAP.                   NO:   One line per depth step
~Well Information Block
#MNEM.UNIT     VALUE/NAME     DESCRIPTION
#---------     -----------    ---------------------------
 STRT.S             00:13:57 01-Feb-20: START TIME 00:13:57 01-Feb-20
 STOP.S             00:20:28 01-Feb-20: STOP TIME  00:20:28 01-Feb-20
 STEP.S                   0.00: STEP TIME
 NULL.                 -999.25: NULL VALUE
 DFWT.                        :  DIST FWL TEXT
 DFST.                        :  DIST FSL TEXT
 DMF .             Drill Floor:  DRILL MEAS FROM
 STIM.      09.30.00 26-Dec-19:  START TIME
 DATE.      08.00.00 20-Jan-20:  END TIME
 SPUD.               23-Nov-19:  SPUD DATE
 NREF.                    Grid:  NORTH REFERENCE
 HPTY.       Minimum Curvature:  HOLE POS TYPE
 DMOD.             Drill Model:  DRILL MOD DESC
 SVYD.                  Survey:  SURVEY DESC
 ILTD.               Lithology:  INTERP LTH DESC
 FTOP.          Formation Tops:  FORM TOPS DESC
 SON .        AZ-XX-0906192647:  JOB NUMBER
 WTYP.                Deviated:  WELL TYPE
 COMP.     BP Exploration (Caspian Sea) Ltd:  COMPANY
 BASE.              Azerbaijan:  LOGGING EQUIPMENT BASE LOCATION
 REGN.                 Eurasia:  REGION
 FLD .                     ACG:  FIELD NAME
 SRVC.              KCA Deutag:  CONTRACTOR
 MWDS.                    Baku:  MWD SHOP
 WELL.     A10 (Slot 20) - SCP:  WELL NAME
 JOBN.        AZ-XX-0906192647:  JOB TICKET NUMB
 RIG .                 Chirag1:  RIG NAME
 DCON.     Halliburton Sperry Drilling:  DIRECTNL CONTR
 UNIT.                     N/A:  LOGGING EQUIPMENT ID
 PDAT.          Mean Sea Level:  PERMANENT DATUM
 MDS .        Operator Entered:  MAG DATA SOURCE
 CTRY.              Azerbaijan:  COUNTRY NAME
 UWI .            /AZE00000090:  UNIQUE WELL IDENTIFIER
 API .            /AZE00000090:  API NUMBER
 CNTY.                        :  COUNTY
 PROV.                        :  PROVINCE
 STAT.                        :  STATE
 LOC .                        :  LOCATION
 LMF .             Drill Floor:  LOG MEASURED FROM
 TVDS.m                  36.60:  TVDSS CORRECTN
 LATI.deg                40.08:  LATITUDE
 LONG.deg                51.24:  LONGITUDE
 WHNS.m                  -7.94:  WELL HEAD N/S
 WHEW.m                   1.56:  WELL HEAD E/W
 UTMX.m              520429.26:  UTM X
 UTMY.m             4438973.87:  UTM Y
 DFWL.m                   0.00:  DISTANCE FWL
 DFSL.m                   0.00:  DISTANCE FSL
 SDEP.m                1455.00:  START DEPTH
 TDD .m                4047.51:  TOTAL DEPTH (DRILLER)
 VSDR.deg               112.75:  VERT SEC DIRECT
 GVFD.g                   1.00:  GRAVITY FIELD
 MFLD.nT              50261.00:  MAGNETIC FIELD
 MDIP.deg                59.52:  MAGNETIC DIP
 MDEC.deg                 6.42:  MAGNETIC DECL
 GRDC.deg                 0.17:  GRID CORRECTION
 AZTC.deg                 6.25:  AZM TOTAL CORR
 EPD .m                   0.00:  ELEVATION
 EGL .m                   0.00:  GROUND ELEVATION
 WDMS.m                 121.00:  WD ELEV
 APD .m                  36.60:  DEPTH ABOVE PD
 AGAP.m                  36.60:  AIR GAP
 VSEW.m                   1.56:  VERT SEC E/W
 VSNS.m                  -7.94:  VERT SEC N/S
 DEP .m                1140.01:  DEPTH
 EKB .m                  36.60:  KB ELEVATION
 EDF .m                  36.60:  DF ELEVATION
 TDL .m                 169.50:  TOTAL DEPTH (LOGGER)
 CSGD.m                3875.01:  CASING BOTTOM (DRILLER)
 CSGL.m                3875.01:  CASING BOTTOM (LOGGER)
 CSGS.in                  7.63:  CASING SIZE
 CSGW.lbpf               23.50:  CASING WEIGHT
 VSC .                       0:  VS TO CLOSURE
 MAGU.                 1849206:  MAGUTM CHECKSUM
~Parameter Information Block
#MNEM.UNIT       Value        Description
#---------     -----------    ---------------------------
 AV  .mps                 1.90:  Ann Velocity 
 AVMX.mps                 2.54:  Max Ann Veloc 
 AZIF.deg               137.03:  Azm, Final 
 BHAT.        Rotary Steerable:  BHA Type 
 BREV.rev             23610.00:  Rev Bit Total 
 BROT.°/30m               0.80:  Build Rotating 
 BS  .in                  6.50:  Bit Size 
 BTPL.psig              110.00:  Bit Press Loss 
 CABU.                     Yes:  Customer Abuse 
 TCS .hr                 70.51:  Time Ciculation Ended 
 CV  .mps                 1.41:  Crit Velocity 
 CVMX.mps                 1.42:  Max Crit Veloc 
 DD1 .         Intigam Rahimov:  Direct Drillr 1 
 DD2 .          Rashad Gojayev:  Direct Drillr 2 
 DDSV.               Geo-Pilot:  DD Service 
 DEFF.%                 100.00:  % Det Eff 
 DLRX.°/30m               1.44:  Dogleg Rot Max 
 DLSO.°/30m               0.00:  Dogleg Oriented 
 DLSX.°/30m               0.00:  Dogleg Str Max 
 DRET.      03.05.00 01-Feb-20:  Drill End Time 
 DRST.      15.50.00 28-Jan-20:  Drill Start Tim 
 DTIM.hr                 24.70:  Time Drilling 
 EDEP.m                4047.51:  End Depth 
 ENG1.           Eldar Hajiyev:  Engineer 1 
 ENG2.          Rasim Hashimov:  Engineer 2 
 ENG3.          Rustam Safarov:  Engineer 3 
 ETIM.      22.00.00 01-Feb-20:  End Time 
 FLOI.gpm               370.00:  Flow In 
 FLON.gpm               300.00:  Flow In Min 
 FLOS.cptm                0.00:  Fluid Loss 
 FLOX.gpm               400.00:  Flow In Max 
 FTRO.       Formation Presure:  FTWD Run Obj 
 HFLO.                      No:  High Flow 
 HPRE.                      No:  High Pressure 
 HTEM.                      No:  High Temp 
 HYDO.m                   2.50:  Hydro Offset 
 IFIN.deg                39.54:  Inc, Final 
 IMAX.deg                41.14:  Inc Max 
 IMIN.deg                39.81:  Inc Min 
 IMND.m                4005.21:  Inc Min Depth 
 IMXD.m                3948.42:  Inc Max Depth 
 JARR.                      No:  Jarring 
 LETM.      03.05.00 01-Feb-20:  Log End Time 
 LOST.hr                     0:  Lost Rig Time 
 LSTM.      15.50.00 28-Jan-20:  Log Start Time 
 MDCL.ppm             37500.00:  Mud Chlorides 
 MDES.     Inversion Oil/Synthetic:  Mud Desc 
 DFD .sg                  1.32:  Mud Density 
 MDMN.sg                  1.32:  Dens Mud Min 
 MDMX.sg                  1.32:  Dens Mud Max 
 MOIL.                      55:  Run Mud Oil % 
 MOWR.                   70:30:  Run Mud OWR 
 MSND.                       0:  Run Mud Sand % 
 MSOL.                      17:  Run Mud Solids% 
 DFV .spqt               80.00:  Mud Viscosity 
 MWOD.in                  4.75:  MWD Tool OD 
 MWSI.                      No:  Serv Intrp, MWD 
 OTIM.hr                121.28:  Time Operating 
 PCON.           Look Like New:  Pad Condition 
 PMAX.psia             6171.00:  Press Op, Max 
 PV  .cP                 30.00:  Mud PV 
 RUN .                     300:  Run Number 
 ROPA.m/hr                5.45:  ROP Avg 
 ROPN.m/hr                3.00:  ROP Min 
 ROPX.m/hr               15.00:  ROP Max 
 RPMA.rpm               130.00:  RPM Surface Avg 
 RPMN.rpm                80.00:  RPM Surface Min 
 RPMX.rpm               140.00:  RPM Surface Max 
 RRUN.                     300:  Rig Run Number 
 RTIM.hr                 13.50:  Time Reaming 
 SAZI.deg               133.93:  Azm, Start 
 SDEP.m                3878.01:  Start Depth 
 SIDD.                      No:  Serv Intrp, DD 
 SINC.deg                40.28:  Inc, Start 
 SPPA.psig             4983.00:  SPP Avg 
 SPPN.psig             4370.00:  SPP Min 
 SPPX.psig             5300.00:  SPP Max 
 STIM.      18.33.36 27-Jan-20:  Start Time 
 SVCS.                 DD, MWD:  Services 
 SVER.                    9.20:  Sperry Version 
 TDAT.m                 169.50:  Tot Depth Attmp 
 TDDF.                      No:  Trip for DD 
 TDLG.m                 169.50:  Tot Depth Loggd 
 TFF .                      No:  Trip for Fail 
 TQAA.f-kp               13.25:  Torque Abs Avg 
 TQAN.f-kp               12.00:  Torque Abs Min 
 TQAX.f-kp               14.00:  Torque Abs Max 
 TRRT.°/30m               0.70:  Turn Rotating 
 MRT .                     ADR:  Maximum Recorded Temperature 
 TTMX.degC               92.16:  Max Tool Temp 
 VS01.       AZ90598764G12V7D4:  Virtual Str1 SN 
 VS02.         AZ90571342R12C4:  Virtual Str2 SN 
 VS03.      AZ90580010N2L2X1C4:  Virtual Str3 SN 
 VS04.        AZ90522266O7X1C4:  Virtual Str4 SN 
 VS05.           AZ90598768F11:  Virtual Str5 SN 
 VS06.     AZ90580006XZ1W1X1C4:  Virtual Str6 SN 
 WBMN.klb                 8.00:  WOB Min 
 WITN.            Peter Wilson:  Customer Rep 
 WOBA.klb                 9.88:  WOB Avg 
 WOBX.klb                10.00:  WOB Max 
 YP  .lhf2               27.00:  Yield Point 
~Curve Information Block
#MNEM.UNIT                 API CODE     Curve Description
#---------               -----------    ---------------------------
 TIME.HHMMSS            00 000 000 000:  GT Time & Date
 GTDEPTH.m              00 000 000 000:  GT Depth
 GTPQH.psia             00 000 000 000:  GT HR Quartz Pressure
 GTTQ.degC              00 000 000 000:  GT Quartz Temperature
 GTTN.NONE              00 000 000 000:  GT Test Number
 GTET.sec               00 000 000 000:  GT Elapsed Test Time
 GTTVD.m                00 000 000 000:  GT True Vertical Depth
#Other Information
#
#WARRANTY: Halliburton will use its best efforts to furnish customers with 
#accurate information and interpretations that are part of, and incident to, the services 
#provided.  However, Halliburton cannot and does not warrant the accuracy 
#or correctness of such information and interpretations.  Under no circumstances should any 
#such information or interpretation be relied upon as the sole basis for any drilling, 
#completion, production, or financial decision or any procedure involving any risk to the 
#safety of any drilling venture, drilling rig or its crew or any other third party.  The 
#Customer has full responsibility for all drilling, completion and production operation.  
#Halliburton makes no representations or warranties, either expressed or 
#implied, including, but not limited to, the implied warranties of merchantability or fitness 
#for a particular purpose, with respect to the services rendered.  In no event will 
#Halliburton be liable for failure to obtain any particular results or for 
#any damages, including, but not limited to, indirect, special or consequential damages, 
#resulting from the use of any information or interpretation provided by Halliburton.
#
~A           TIME           GTDEPTH  GTPQH  GTTQ  GTTN   GTET   GTTVD  
# ...
   00:16:35.922.01-Feb-2020 3989.40 3215.69 87.05 10.00 158.21 3004.80
   00:16:36.122.01-Feb-2020 3989.40 3216.14 87.05 10.00 158.41 3004.80
   00:16:36.322.01-Feb-2020 3989.40 3215.70 87.05 10.00 158.61 3004.80
   00:16:36.522.01-Feb-2020 3989.40 3215.95 87.05 10.00 158.81 3004.80
   00:16:36.722.01-Feb-2020 3989.40 3216.18 87.05 10.00 159.01 3004.80
   00:16:36.922.01-Feb-2020 3989.40 3216.18 87.05 10.00 159.21 3004.80
   00:16:37.122.01-Feb-2020 3989.40 3216.55 87.05 10.00 159.41 3004.80
   00:16:37.322.01-Feb-2020 3989.40 3216.25 87.05 10.00 159.61 3004.80
   00:16:37.522.01-Feb-2020 3989.40 3216.40 87.05 10.00 159.81 3004.80
   00:16:37.722.01-Feb-2020 3989.40 3216.66 87.05 10.00 160.01 3004.80
   00:16:37.922.01-Feb-2020 3989.40 3216.66 87.05 10.00 160.21 3004.80
   00:16:38.122.01-Feb-2020 3989.40 3216.58 87.05 10.00 160.41 3004.80
   00:16:38.322.01-Feb-2020 3989.40 3216.97 87.05 10.00 160.61 3004.80
   00:16:38.522.01-Feb-2020 3989.40 3216.97 87.05 10.00 160.81 3004.80
   00:16:38.722.01-Feb-2020 3989.40 3217.13 87.05 10.00 161.01 3004.80
   00:16:38.922.01-Feb-2020 3989.40 3217.13 87.05 10.00 161.21 3004.80
   00:16:39.122.01-Feb-2020 3989.40 3217.25 87.05 10.00 161.41 3004.80
   00:16:39.322.01-Feb-2020 3989.40 3217.49 87.04 10.00 161.61 3004.80
   00:16:39.522.01-Feb-2020 3989.40 3217.62 87.04 10.00 161.81 3004.80
   00:16:39.722.01-Feb-2020 3989.40 3217.55 87.04 10.00 162.01 3004.80
   00:16:39.922.01-Feb-2020 3989.40 3217.55 87.04 10.00 162.21 3004.80
   00:16:40.122.01-Feb-2020 3989.40 3217.63 87.04 10.00 162.41 3004.80
   00:16:40.322.01-Feb-2020 3989.40 3217.78 87.04 10.00 162.61 3004.80
   00:16:40.522.01-Feb-2020 3989.40 3217.90 87.04 10.00 162.81 3004.80
   00:16:40.722.01-Feb-2020 3989.40 3217.83 87.04 10.00 163.01 3004.80
   00:16:40.922.01-Feb-2020 3989.40 3217.83 87.04 10.00 163.21 3004.80
   00:16:41.122.01-Feb-2020 3989.40 3218.10 87.04 10.00 163.41 3004.80
   00:16:41.322.01-Feb-2020 3989.40 3218.12 87.04 10.00 163.61 3004.80
   00:16:41.522.01-Feb-2020 3989.40 3218.17 87.04 10.00 163.81 3004.80
   00:16:41.722.01-Feb-2020 3989.40 3218.20 87.04 10.00 164.01 3004.80
   00:16:41.922.01-Feb-2020 3989.40 3218.20 87.04 10.00 164.21 3004.80
   00:16:42.122.01-Feb-2020 3989.40 3218.22 87.04 10.00 164.41 3004.80
   00:16:42.322.01-Feb-2020 3989.40 3218.34 87.04 10.00 164.61 3004.80
   00:16:42.522.01-Feb-2020 3989.40 3218.39 87.04 10.00 164.81 3004.80
   00:16:42.722.01-Feb-2020 3989.40 3218.59 87.03 10.00 165.01 3004.80
   00:16:42.922.01-Feb-2020 3989.40 3218.59 87.03 10.00 165.21 3004.80
   00:16:43.122.01-Feb-2020 3989.40 3218.61 87.03 10.00 165.41 3004.80
   00:16:43.322.01-Feb-2020 3989.40 3218.71 87.03 10.00 165.61 3004.80
   00:16:43.522.01-Feb-2020 3989.40 3218.66 87.03 10.00 165.81 3004.80
   00:16:43.722.01-Feb-2020 3989.40 3218.80 87.03 10.00 166.01 3004.80
   00:16:43.923.01-Feb-2020 3989.40 3218.80 87.03 10.00 166.21 3004.80
   00:16:44.123.01-Feb-2020 3989.40 3218.85 87.03 10.00 166.41 3004.80
   00:16:44.323.01-Feb-2020 3989.40 3218.93 87.03 10.00 166.61 3004.80
   00:16:44.523.01-Feb-2020 3989.40 3218.90 87.03 10.00 166.81 3004.80
   00:16:44.723.01-Feb-2020 3989.40 3218.99 87.03 10.00 167.01 3004.80
   00:16:44.923.01-Feb-2020 3989.40 3218.99 87.03 10.00 167.21 3004.80
   00:16:45.123.01-Feb-2020 3989.40 3218.88 87.03 10.00 167.41 3004.80
   00:16:45.323.01-Feb-2020 3989.40 3219.09 87.03 10.00 167.61 3004.80
   00:16:45.523.01-Feb-2020 3989.40 3219.21 87.03 10.00 167.81 3004.80
   00:16:45.723.01-Feb-2020 3989.40 3219.26 87.03 10.00 168.01 3004.80
   00:16:45.923.01-Feb-2020 3989.40 3219.26 87.03 10.00 168.21 3004.80
   00:16:46.123.01-Feb-2020 3989.40 3219.15 87.02 10.00 168.41 3004.80
   00:16:46.323.01-Feb-2020 3989.40 3219.30 87.02 10.00 168.61 3004.80
   00:16:46.523.01-Feb-2020 3989.40 3219.42 87.02 10.00 168.81 3004.80
   00:16:46.723.01-Feb-2020 3989.40 3219.52 87.02 10.00 169.01 3004.80
   00:16:46.923.01-Feb-2020 3989.40 3219.52 87.02 10.00 169.21 3004.80
   00:16:47.123.01-Feb-2020 3989.40 3219.64 87.02 10.00 169.41 3004.80
   00:16:47.323.01-Feb-2020 3989.40 3219.57 87.02 10.00 169.61 3004.80
   00:16:47.523.01-Feb-2020 3989.40 3219.44 87.02 10.00 169.81 3004.80
   00:16:47.723.01-Feb-2020 3989.40 3219.60 87.02 10.00 170.01 3004.80
   00:16:47.923.01-Feb-2020 3989.40 3219.60 87.02 10.00 170.21 3004.80
   00:16:48.123.01-Feb-2020 3989.40 3219.73 87.02 10.00 170.41 3004.80
   00:16:48.323.01-Feb-2020 3989.40 3219.62 87.02 10.00 170.62 3004.80
   00:16:48.523.01-Feb-2020 3989.40 3219.65 87.02 10.00 170.82 3004.80
   00:16:48.723.01-Feb-2020 3989.40 3219.76 87.02 10.00 171.02 3004.80
   00:16:48.923.01-Feb-2020 3989.40 3219.76 87.02 10.00 171.22 3004.80
   00:16:49.123.01-Feb-2020 3989.40 3219.90 87.02 10.00 171.42 3004.80
   00:16:49.323.01-Feb-2020 3989.40 3219.97 87.01 10.00 171.62 3004.80
   00:16:49.523.01-Feb-2020 3989.40 3220.03 87.01 10.00 171.82 3004.80
   00:16:49.723.01-Feb-2020 3989.40 3219.68 87.01 10.00 172.02 3004.80
   00:16:49.923.01-Feb-2020 3989.40 3219.68 87.01 10.00 172.22 3004.80
   00:16:50.123.01-Feb-2020 3989.40 3219.95 87.01 10.00 172.42 3004.80
   00:16:50.323.01-Feb-2020 3989.40 3220.07 87.01 10.00 172.62 3004.80
   00:16:50.523.01-Feb-2020 3989.40 3220.22 87.01 10.00 172.82 3004.80
   00:16:50.723.01-Feb-2020 3989.40 3220.25 87.01 10.00 173.02 3004.80
   00:16:50.923.01-Feb-2020 3989.40 3220.25 87.01 10.00 173.22 3004.80
   00:16:51.123.01-Feb-2020 3989.40 3220.26 87.01 10.00 173.42 3004.80
   00:16:51.323.01-Feb-2020 3989.40 3220.23 87.01 10.00 173.62 3004.80
   00:16:51.523.01-Feb-2020 3989.40 3220.32 87.01 10.00 173.82 3004.80
   00:16:51.723.01-Feb-2020 3989.40 3220.33 87.01 10.00 174.02 3004.80
   00:16:51.923.01-Feb-2020 3989.40 3220.33 87.01 10.00 174.22 3004.80
   00:16:52.123.01-Feb-2020 3989.40 3220.37 87.01 10.00 174.42 3004.80
   00:16:52.323.01-Feb-2020 3989.40 3220.33 87.01 10.00 174.62 3004.80
   00:16:52.523.01-Feb-2020 3989.40 3220.34 87.00 10.00 174.82 3004.80
   00:16:52.723.01-Feb-2020 3989.40 3220.42 87.00 10.00 175.02 3004.80
   00:16:52.923.01-Feb-2020 3989.40 3220.42 87.00 10.00 175.22 3004.80
   00:16:53.123.01-Feb-2020 3989.40 3220.47 87.00 10.00 175.42 3004.80
   00:16:53.323.01-Feb-2020 3989.40 3220.31 87.00 10.00 175.62 3004.80
   00:16:53.523.01-Feb-2020 3989.40 3220.41 87.00 10.00 175.82 3004.80
   00:16:53.723.01-Feb-2020 3989.40 3220.41 87.00 10.00 176.02 3004.80
   00:16:53.923.01-Feb-2020 3989.40 3220.41 87.00 10.00 176.22 3004.80
   00:16:54.123.01-Feb-2020 3989.40 3220.58 87.00 10.00 176.42 3004.80
   00:16:54.323.01-Feb-2020 3989.40 3220.59 87.00 10.00 176.62 3004.80
   00:16:54.523.01-Feb-2020 3989.40 3220.69 87.00 10.00 176.82 3004.80
   00:16:54.723.01-Feb-2020 3989.40 3220.70 87.00 10.00 177.02 3004.80
   00:16:54.923.01-Feb-2020 3989.40 3220.70 87.00 10.00 177.22 3004.80
   00:16:55.123.01-Feb-2020 3989.40 3220.73 87.00 10.00 177.42 3004.80
   00:16:55.324.01-Feb-2020 3989.40 3220.72 87.00 10.00 177.62 3004.80
   00:16:55.524.01-Feb-2020 3989.40 3220.76 87.00 10.00 177.82 3004.80
   00:16:55.724.01-Feb-2020 3989.40 3220.78 86.99 10.00 178.02 3004.80
   00:16:55.924.01-Feb-2020 3989.40 3220.78 86.99 10.00 178.22 3004.80
   00:16:56.124.01-Feb-2020 3989.40 3220.84 86.99 10.00 178.42 3004.80
   00:16:56.324.01-Feb-2020 3989.40 3220.86 86.99 10.00 178.62 3004.80
   00:16:56.524.01-Feb-2020 3989.40 3221.05 86.99 10.00 178.82 3004.80
   00:16:56.724.01-Feb-2020 3989.40 3220.76 86.99 10.00 179.02 3004.80
   00:16:56.924.01-Feb-2020 3989.40 3220.76 86.99 10.00 179.22 3004.80
   00:16:57.124.01-Feb-2020 3989.40 3221.03 86.99 10.00 179.42 3004.80
   00:16:57.324.01-Feb-2020 3989.40 3221.09 86.99 10.00 179.62 3004.80
   00:16:57.524.01-Feb-2020 3989.40 3221.13 86.99 10.00 179.82 3004.80
   00:16:57.724.01-Feb-2020 3989.40 3220.78 86.99 10.00 180.02 3004.80
   00:16:57.924.01-Feb-2020 3989.40 3220.78 86.99 10.00 180.22 3004.80
   00:16:58.124.01-Feb-2020 3989.40 3221.02 86.99 10.00 180.42 3004.80
   00:16:58.324.01-Feb-2020 3989.40 3221.14 86.99 10.00 180.62 3004.80
