~Version Information
 VERS.                  2.0:   CWLS log ASCII Standard -VERSION 2.0
 WRAP.                   NO:   One line per depth step
~Well Information Block
#MNEM.UNIT     VALUE/NAME     DESCRIPTION
#---------     -----------    ---------------------------
 STRT.S             17:04:09 31-Jan-20: START TIME 17:04:09 31-Jan-20
 STOP.S             17:10:42 31-Jan-20: STOP TIME  17:10:42 31-Jan-20
 STEP.S                   0.00: STEP TIME
 NULL.                 -999.25: NULL VALUE
 DFWT.                        :  DIST FWL TEXT
 DFST.                        :  DIST FSL TEXT
 DMF .             Drill Floor:  DRILL MEAS FROM
 STIM.      09.30.00 26-Dec-19:  START TIME
 DATE.      08.00.00 20-Jan-20:  END TIME
 SPUD.               23-Nov-19:  SPUD DATE
 NREF.                    Grid:  NORTH REFERENCE
 HPTY.       Minimum Curvature:  HOLE POS TYPE
 DMOD.             Drill Model:  DRILL MOD DESC
 SVYD.                  Survey:  SURVEY DESC
 ILTD.               Lithology:  INTERP LTH DESC
 FTOP.          Formation Tops:  FORM TOPS DESC
 SON .        AZ-XX-0906192647:  JOB NUMBER
 WTYP.                Deviated:  WELL TYPE
 COMP.     BP Exploration (Caspian Sea) Ltd:  COMPANY
 BASE.              Azerbaijan:  LOGGING EQUIPMENT BASE LOCATION
 REGN.                 Eurasia:  REGION
 FLD .                     ACG:  FIELD NAME
 SRVC.              KCA Deutag:  CONTRACTOR
 MWDS.                    Baku:  MWD SHOP
 WELL.     A10 (Slot 20) - SCP:  WELL NAME
 JOBN.        AZ-XX-0906192647:  JOB TICKET NUMB
 RIG .                 Chirag1:  RIG NAME
 DCON.     Halliburton Sperry Drilling:  DIRECTNL CONTR
 UNIT.                     N/A:  LOGGING EQUIPMENT ID
 PDAT.          Mean Sea Level:  PERMANENT DATUM
 MDS .        Operator Entered:  MAG DATA SOURCE
 CTRY.              Azerbaijan:  COUNTRY NAME
 UWI .            /AZE00000090:  UNIQUE WELL IDENTIFIER
 API .            /AZE00000090:  API NUMBER
 CNTY.                        :  COUNTY
 PROV.                        :  PROVINCE
 STAT.                        :  STATE
 LOC .                        :  LOCATION
 LMF .             Drill Floor:  LOG MEASURED FROM
 TVDS.m                  36.60:  TVDSS CORRECTN
 LATI.deg                40.08:  LATITUDE
 LONG.deg                51.24:  LONGITUDE
 WHNS.m                  -7.94:  WELL HEAD N/S
 WHEW.m                   1.56:  WELL HEAD E/W
 UTMX.m              520429.26:  UTM X
 UTMY.m             4438973.87:  UTM Y
 DFWL.m                   0.00:  DISTANCE FWL
 DFSL.m                   0.00:  DISTANCE FSL
 SDEP.m                1455.00:  START DEPTH
 TDD .m                4047.51:  TOTAL DEPTH (DRILLER)
 VSDR.deg               112.75:  VERT SEC DIRECT
 GVFD.g                   1.00:  GRAVITY FIELD
 MFLD.nT              50261.00:  MAGNETIC FIELD
 MDIP.deg                59.52:  MAGNETIC DIP
 MDEC.deg                 6.42:  MAGNETIC DECL
 GRDC.deg                 0.17:  GRID CORRECTION
 AZTC.deg                 6.25:  AZM TOTAL CORR
 EPD .m                   0.00:  ELEVATION
 EGL .m                   0.00:  GROUND ELEVATION
 WDMS.m                 121.00:  WD ELEV
 APD .m                  36.60:  DEPTH ABOVE PD
 AGAP.m                  36.60:  AIR GAP
 VSEW.m                   1.56:  VERT SEC E/W
 VSNS.m                  -7.94:  VERT SEC N/S
 DEP .m                1140.01:  DEPTH
 EKB .m                  36.60:  KB ELEVATION
 EDF .m                  36.60:  DF ELEVATION
 TDL .m                 169.50:  TOTAL DEPTH (LOGGER)
 CSGD.m                3875.01:  CASING BOTTOM (DRILLER)
 CSGL.m                3875.01:  CASING BOTTOM (LOGGER)
 CSGS.in                  7.63:  CASING SIZE
 CSGW.lbpf               23.50:  CASING WEIGHT
 VSC .                       0:  VS TO CLOSURE
 MAGU.                 1849206:  MAGUTM CHECKSUM
~Parameter Information Block
#MNEM.UNIT       Value        Description
#---------     -----------    ---------------------------
 AV  .mps                 1.90:  Ann Velocity 
 AVMX.mps                 2.54:  Max Ann Veloc 
 AZIF.deg               137.03:  Azm, Final 
 BHAT.        Rotary Steerable:  BHA Type 
 BREV.rev             23610.00:  Rev Bit Total 
 BROT.°/30m               0.80:  Build Rotating 
 BS  .in                  6.50:  Bit Size 
 BTPL.psig              110.00:  Bit Press Loss 
 CABU.                     Yes:  Customer Abuse 
 COMM.                     D7Y:  Run Comments 1 
 TCS .hr                 70.51:  Time Ciculation Ended 
 CV  .mps                 1.41:  Crit Velocity 
 CVMX.mps                 1.42:  Max Crit Veloc 
 DD1 .         Intigam Rahimov:  Direct Drillr 1 
 DD2 .          Rashad Gojayev:  Direct Drillr 2 
 DDSV.               Geo-Pilot:  DD Service 
 DEFF.%                 100.00:  % Det Eff 
 DLRX.°/30m               1.44:  Dogleg Rot Max 
 DLSO.°/30m               0.00:  Dogleg Oriented 
 DLSX.°/30m               0.00:  Dogleg Str Max 
 DRET.      03.05.00 01-Feb-20:  Drill End Time 
 DRST.      15.50.00 28-Jan-20:  Drill Start Tim 
 DTIM.hr                 24.70:  Time Drilling 
 EDEP.m                4047.51:  End Depth 
 ENG1.           Eldar Hajiyev:  Engineer 1 
 ENG2.          Rasim Hashimov:  Engineer 2 
 ENG3.          Rustam Safarov:  Engineer 3 
 ETIM.      22.00.00 01-Feb-20:  End Time 
 FLOI.gpm               370.00:  Flow In 
 FLON.gpm               300.00:  Flow In Min 
 FLOS.cptm                0.00:  Fluid Loss 
 FLOX.gpm               400.00:  Flow In Max 
 FTRO.       Formation Presure:  FTWD Run Obj 
 HFLO.                      No:  High Flow 
 HPRE.                      No:  High Pressure 
 HTEM.                      No:  High Temp 
 HYDO.m                   2.50:  Hydro Offset 
 IFIN.deg                39.54:  Inc, Final 
 IMAX.deg                41.14:  Inc Max 
 IMIN.deg                39.81:  Inc Min 
 IMND.m                4005.21:  Inc Min Depth 
 IMXD.m                3948.42:  Inc Max Depth 
 JARR.                      No:  Jarring 
 LETM.      03.05.00 01-Feb-20:  Log End Time 
 LOST.hr                     0:  Lost Rig Time 
 LSTM.      15.50.00 28-Jan-20:  Log Start Time 
 MDCL.ppm             37500.00:  Mud Chlorides 
 MDES.     Inversion Oil/Synthetic:  Mud Desc 
 DFD .sg                  1.32:  Mud Density 
 MDMN.sg                  1.32:  Dens Mud Min 
 MDMX.sg                  1.32:  Dens Mud Max 
 MOIL.                      55:  Run Mud Oil % 
 MOWR.                   70:30:  Run Mud OWR 
 MSND.                       0:  Run Mud Sand % 
 MSOL.                      17:  Run Mud Solids% 
 DFV .spqt               80.00:  Mud Viscosity 
 MWOD.in                  4.75:  MWD Tool OD 
 MWSI.                      No:  Serv Intrp, MWD 
 OTIM.hr                121.28:  Time Operating 
 PCON.           Look Like New:  Pad Condition 
 PMAX.psia             6171.00:  Press Op, Max 
 PV  .cP                 30.00:  Mud PV 
 RUN .                     300:  Run Number 
 ROPA.m/hr                5.45:  ROP Avg 
 ROPN.m/hr                3.00:  ROP Min 
 ROPX.m/hr               15.00:  ROP Max 
 RPMA.rpm               130.00:  RPM Surface Avg 
 RPMN.rpm                80.00:  RPM Surface Min 
 RPMX.rpm               140.00:  RPM Surface Max 
 RRUN.                     300:  Rig Run Number 
 RTIM.hr                 13.50:  Time Reaming 
 SAZI.deg               133.93:  Azm, Start 
 SDEP.m                3878.01:  Start Depth 
 SIDD.                      No:  Serv Intrp, DD 
 SINC.deg                40.28:  Inc, Start 
 SPPA.psig             4983.00:  SPP Avg 
 SPPN.psig             4370.00:  SPP Min 
 SPPX.psig             5300.00:  SPP Max 
 STIM.      18.33.36 27-Jan-20:  Start Time 
 SVCS.                 DD, MWD:  Services 
 SVER.                    9.20:  Sperry Version 
 TDAT.m                 169.50:  Tot Depth Attmp 
 TDDF.                      No:  Trip for DD 
 TDLG.m                 169.50:  Tot Depth Loggd 
 TFF .                      No:  Trip for Fail 
 TQAA.f-kp               13.25:  Torque Abs Avg 
 TQAN.f-kp               12.00:  Torque Abs Min 
 TQAX.f-kp               14.00:  Torque Abs Max 
 TRRT.°/30m               0.70:  Turn Rotating 
 MRT .                     ADR:  Maximum Recorded Temperature 
 TTMX.degC               92.16:  Max Tool Temp 
 VS01.       AZ90598764G12V7D4:  Virtual Str1 SN 
 VS02.         AZ90571342R12C4:  Virtual Str2 SN 
 VS03.      AZ90580010N2L2X1C4:  Virtual Str3 SN 
 VS04.        AZ90522266O7X1C4:  Virtual Str4 SN 
 VS05.           AZ90598768F11:  Virtual Str5 SN 
 VS06.     AZ90580006XZ1W1X1C4:  Virtual Str6 SN 
 WBMN.klb                 8.00:  WOB Min 
 WITN.            Peter Wilson:  Customer Rep 
 WOBA.klb                 9.88:  WOB Avg 
 WOBX.klb                10.00:  WOB Max 
 YP  .lhf2               27.00:  Yield Point 
~Curve Information Block
#MNEM.UNIT                 API CODE     Curve Description
#---------               -----------    ---------------------------
 TIME.HHMMSS            00 000 000 000:  GT Time & Date
 GTDEPTH.m              00 000 000 000:  GT Depth
 GTPQH.psia             00 000 000 000:  GT HR Quartz Pressure
 GTTQ.degC              00 000 000 000:  GT Quartz Temperature
 GTTN.NONE              00 000 000 000:  GT Test Number
 GTET.sec               00 000 000 000:  GT Elapsed Test Time
 GTTVD.m                00 000 000 000:  GT True Vertical Depth
#Other Information
#
#WARRANTY: Halliburton will use its best efforts to furnish customers with 
#accurate information and interpretations that are part of, and incident to, the services 
#provided.  However, Halliburton cannot and does not warrant the accuracy 
#or correctness of such information and interpretations.  Under no circumstances should any 
#such information or interpretation be relied upon as the sole basis for any drilling, 
#completion, production, or financial decision or any procedure involving any risk to the 
#safety of any drilling venture, drilling rig or its crew or any other third party.  The 
#Customer has full responsibility for all drilling, completion and production operation.  
#Halliburton makes no representations or warranties, either expressed or 
#implied, including, but not limited to, the implied warranties of merchantability or fitness 
#for a particular purpose, with respect to the services rendered.  In no event will 
#Halliburton be liable for failure to obtain any particular results or for 
#any damages, including, but not limited to, indirect, special or consequential damages, 
#resulting from the use of any information or interpretation provided by Halliburton.
#
~A           TIME           GTDEPTH  GTPQH  GTTQ  GTTN  GTET   GTTVD  
   17:04:09.510.31-Jan-2020 3960.51 6056.43 86.10 8.00   0.00 2982.89
   17:04:09.710.31-Jan-2020 3960.51 6056.43 86.10 8.00   0.20 2982.89
   17:04:09.910.31-Jan-2020 3960.51 6049.13 86.10 8.00   0.40 2982.89
   17:04:10.110.31-Jan-2020 3960.51 6049.46 86.09 8.00   0.60 2982.89
   17:04:10.310.31-Jan-2020 3960.51 6045.76 86.09 8.00   0.80 2982.89
   17:04:10.510.31-Jan-2020 3960.51 6045.30 86.09 8.00   1.00 2982.89
   17:04:10.710.31-Jan-2020 3960.51 6045.30 86.09 8.00   1.20 2982.89
   17:04:10.910.31-Jan-2020 3960.51 6042.49 86.09 8.00   1.40 2982.89
   17:04:11.110.31-Jan-2020 3960.51 6038.63 86.09 8.00   1.60 2982.89
   17:04:11.310.31-Jan-2020 3960.51 6038.63 86.09 8.00   1.80 2982.89
   17:04:11.510.31-Jan-2020 3960.51 6040.01 86.09 8.00   2.00 2982.89
   17:04:11.710.31-Jan-2020 3960.51 6040.01 86.09 8.00   2.20 2982.89
   17:04:11.910.31-Jan-2020 3960.51 6042.38 86.09 8.00   2.40 2982.89
   17:04:12.110.31-Jan-2020 3960.51 6039.62 86.09 8.00   2.60 2982.89
   17:04:12.310.31-Jan-2020 3960.51 6041.07 86.09 8.00   2.80 2982.89
   17:04:12.510.31-Jan-2020 3960.51 6044.19 86.08 8.00   3.00 2982.89
   17:04:12.711.31-Jan-2020 3960.51 6044.19 86.08 8.00   3.20 2982.89
   17:04:12.911.31-Jan-2020 3960.51 6048.27 86.08 8.00   3.40 2982.89
   17:04:13.111.31-Jan-2020 3960.51 6049.39 86.08 8.00   3.60 2982.89
   17:04:13.311.31-Jan-2020 3960.51 6048.76 86.08 8.00   3.80 2982.89
   17:04:13.511.31-Jan-2020 3960.51 6049.03 86.08 8.00   4.00 2982.89
   17:04:13.711.31-Jan-2020 3960.51 6049.03 86.08 8.00   4.20 2982.89
   17:04:13.911.31-Jan-2020 3960.51 6048.66 86.08 8.00   4.40 2982.89
   17:04:14.111.31-Jan-2020 3960.51 6050.72 86.08 8.00   4.60 2982.89
   17:04:14.311.31-Jan-2020 3960.51 6051.15 86.08 8.00   4.80 2982.89
   17:04:14.511.31-Jan-2020 3960.51 6050.73 86.08 8.00   5.00 2982.89
   17:04:14.711.31-Jan-2020 3960.51 6050.73 86.08 8.00   5.20 2982.89
   17:04:14.911.31-Jan-2020 3960.51 6048.81 86.07 8.00   5.40 2982.89
   17:04:15.111.31-Jan-2020 3960.51 6050.31 86.07 8.00   5.60 2982.89
   17:04:15.311.31-Jan-2020 3960.51 6049.90 86.07 8.00   5.80 2982.89
   17:04:15.511.31-Jan-2020 3960.51 6048.71 86.07 8.00   6.00 2982.89
   17:04:15.711.31-Jan-2020 3960.51 6048.71 86.07 8.00   6.20 2982.89
   17:04:15.911.31-Jan-2020 3960.51 6046.63 86.07 8.00   6.40 2982.89
   17:04:16.111.31-Jan-2020 3960.51 6048.49 86.07 8.00   6.60 2982.89
   17:04:16.311.31-Jan-2020 3960.51 6048.16 86.07 8.00   6.80 2982.89
   17:04:16.511.31-Jan-2020 3960.51 6047.31 86.07 8.00   7.00 2982.89
   17:04:16.711.31-Jan-2020 3960.51 6047.31 86.07 8.00   7.20 2982.89
   17:04:16.912.31-Jan-2020 3960.51 6045.89 86.07 8.00   7.40 2982.89
   17:04:17.112.31-Jan-2020 3960.51 6045.18 86.07 8.00   7.60 2982.89
   17:04:17.312.31-Jan-2020 3960.51 6045.14 86.06 8.00   7.80 2982.89
   17:04:17.512.31-Jan-2020 3960.51 6044.79 86.06 8.00   8.00 2982.89
   17:04:17.712.31-Jan-2020 3960.51 6044.79 86.06 8.00   8.20 2982.89
   17:04:17.912.31-Jan-2020 3960.51 6044.10 86.06 8.00   8.40 2982.89
   17:04:18.112.31-Jan-2020 3960.51 6044.45 86.06 8.00   8.60 2982.89
   17:04:18.312.31-Jan-2020 3960.51 6044.61 86.06 8.00   8.80 2982.89
   17:04:18.512.31-Jan-2020 3960.51 6045.70 86.06 8.00   9.00 2982.89
   17:04:18.712.31-Jan-2020 3960.51 6045.70 86.06 8.00   9.20 2982.89
   17:04:18.912.31-Jan-2020 3960.51 6047.65 86.06 8.00   9.40 2982.89
   17:04:19.112.31-Jan-2020 3960.51 6040.01 86.06 8.00   9.60 2982.89
   17:04:19.312.31-Jan-2020 3960.51 6046.04 86.06 8.00   9.80 2982.89
   17:04:19.512.31-Jan-2020 3960.51 6047.31 86.06 8.00  10.00 2982.89
   17:04:19.712.31-Jan-2020 3960.51 6047.31 86.06 8.00  10.20 2982.89
   17:04:19.912.31-Jan-2020 3960.51 6050.43 86.05 8.00  10.40 2982.89
   17:04:20.112.31-Jan-2020 3960.51 6049.97 86.05 8.00  10.60 2982.89
   17:04:20.312.31-Jan-2020 3960.51 6044.40 86.05 8.00  10.80 2982.89
   17:04:20.512.31-Jan-2020 3960.51 6050.35 86.05 8.00  11.00 2982.89
   17:04:20.712.31-Jan-2020 3960.51 6050.35 86.05 8.00  11.20 2982.89
   17:04:20.912.31-Jan-2020 3960.51 6050.35 86.05 8.00  11.40 2982.89
   17:04:21.112.31-Jan-2020 3960.51 6050.74 86.05 8.00  11.60 2982.89
   17:04:21.313.31-Jan-2020 3960.51 6051.16 86.05 8.00  11.80 2982.89
   17:04:21.513.31-Jan-2020 3960.51 6047.57 86.05 8.00  12.00 2982.89
   17:04:21.713.31-Jan-2020 3960.51 6047.57 86.05 8.00  12.20 2982.89
   17:04:21.913.31-Jan-2020 3960.51 6048.19 86.05 8.00  12.40 2982.89
   17:04:22.113.31-Jan-2020 3960.51 6049.50 86.04 8.00  12.60 2982.89
   17:04:22.313.31-Jan-2020 3960.51 6051.39 86.04 8.00  12.80 2982.89
   17:04:22.513.31-Jan-2020 3960.51 6051.91 86.04 8.00  13.00 2982.89
   17:04:22.713.31-Jan-2020 3960.51 6051.91 86.04 8.00  13.20 2982.89
   17:04:22.913.31-Jan-2020 3960.51 6051.91 86.04 8.00  13.40 2982.89
   17:04:23.113.31-Jan-2020 3960.51 6051.91 86.04 8.00  13.60 2982.89
   17:04:23.313.31-Jan-2020 3960.51 6081.74 86.04 8.00  13.80 2982.89
   17:04:23.513.31-Jan-2020 3960.51 6198.77 86.04 8.00  14.00 2982.89
   17:04:23.713.31-Jan-2020 3960.51 6198.77 86.04 8.00  14.20 2982.89
   17:04:23.913.31-Jan-2020 3960.51 6355.35 86.04 8.00  14.40 2982.89
   17:04:24.113.31-Jan-2020 3960.51 6438.88 86.04 8.00  14.60 2982.89
   17:04:24.313.31-Jan-2020 3960.51 6506.93 86.04 8.00  14.80 2982.89
   17:04:24.513.31-Jan-2020 3960.51 6509.43 86.03 8.00  15.00 2982.89
   17:04:24.713.31-Jan-2020 3960.51 6509.43 86.03 8.00  15.20 2982.89
   17:04:24.913.31-Jan-2020 3960.51 6255.55 86.03 8.00  15.40 2982.89
   17:04:25.113.31-Jan-2020 3960.51 6244.79 86.03 8.00  15.60 2982.89
   17:04:25.313.31-Jan-2020 3960.51 6255.29 86.03 8.00  15.80 2982.89
   17:04:25.514.31-Jan-2020 3960.51 6269.75 86.03 8.00  16.00 2982.89
   17:04:25.714.31-Jan-2020 3960.51 6269.75 86.03 8.00  16.20 2982.89
   17:04:25.914.31-Jan-2020 3960.51 6290.21 86.03 8.00  16.40 2982.89
   17:04:26.114.31-Jan-2020 3960.51 6285.21 86.03 8.00  16.60 2982.89
   17:04:26.314.31-Jan-2020 3960.51 6264.93 86.03 8.00  16.80 2982.89
   17:04:26.514.31-Jan-2020 3960.51 6271.69 86.03 8.00  17.00 2982.89
   17:04:26.714.31-Jan-2020 3960.51 6271.69 86.03 8.00  17.20 2982.89
   17:04:26.914.31-Jan-2020 3960.51 6307.79 86.03 8.00  17.40 2982.89
   17:04:27.114.31-Jan-2020 3960.51 6310.95 86.02 8.00  17.60 2982.89
   17:04:27.314.31-Jan-2020 3960.51 6311.65 86.02 8.00  17.80 2982.89
   17:04:27.514.31-Jan-2020 3960.51 6338.07 86.02 8.00  18.00 2982.89
   17:04:27.714.31-Jan-2020 3960.51 6338.07 86.02 8.00  18.20 2982.89
   17:04:27.914.31-Jan-2020 3960.51 6371.07 86.02 8.00  18.40 2982.89
   17:04:28.114.31-Jan-2020 3960.51 6384.06 86.02 8.00  18.60 2982.89
   17:04:28.314.31-Jan-2020 3960.51 6399.57 86.02 8.00  18.80 2982.89
   17:04:28.514.31-Jan-2020 3960.51 6410.56 86.02 8.00  19.00 2982.89
   17:04:28.714.31-Jan-2020 3960.51 6410.56 86.02 8.00  19.20 2982.89
   17:04:28.914.31-Jan-2020 3960.51 6479.33 86.02 8.00  19.40 2982.89
   17:04:29.114.31-Jan-2020 3960.51 6553.33 86.02 8.00  19.60 2982.89
   17:04:29.314.31-Jan-2020 3960.51 6629.49 86.02 8.00  19.80 2982.89
   17:04:29.514.31-Jan-2020 3960.51 6707.16 86.02 8.00  20.00 2982.89
   17:04:29.715.31-Jan-2020 3960.51 6707.16 86.02 8.00  20.20 2982.89
   17:04:29.915.31-Jan-2020 3960.51 6807.84 86.01 8.00  20.40 2982.89
   17:04:30.115.31-Jan-2020 3960.51 6810.05 86.01 8.00  20.60 2982.89
   17:04:30.315.31-Jan-2020 3960.51 6823.11 86.01 8.00  20.80 2982.89
   17:04:30.515.31-Jan-2020 3960.51 6828.12 86.01 8.00  21.00 2982.89
   17:04:30.715.31-Jan-2020 3960.51 6828.12 86.01 8.00  21.20 2982.89
   17:04:30.915.31-Jan-2020 3960.51 6828.12 86.01 8.00  21.41 2982.89
   17:04:31.115.31-Jan-2020 3960.51 6644.90 86.01 8.00  21.61 2982.89
   17:04:31.315.31-Jan-2020 3960.51 6699.98 86.01 8.00  21.81 2982.89
   17:04:31.515.31-Jan-2020 3960.51 6742.40 86.01 8.00  22.01 2982.89
   17:04:31.715.31-Jan-2020 3960.51 6742.40 86.01 8.00  22.21 2982.89
   17:04:31.915.31-Jan-2020 3960.51 6842.47 86.01 8.00  22.41 2982.89
   17:04:32.115.31-Jan-2020 3960.51 6724.17 86.01 8.00  22.61 2982.89
   17:04:32.315.31-Jan-2020 3960.51 6793.98 86.01 8.00  22.81 2982.89
