~Version Information
 VERS.                  2.0:   CWLS log ASCII Standard -VERSION 2.0
 WRAP.                   NO:   One line per depth step
~Well Information Block
#MNEM.UNIT     VALUE/NAME     DESCRIPTION
#---------     -----------    ---------------------------
 STRT.S             01:40:55 31-Jan-20: START TIME 01:40:55 31-Jan-20
 STOP.S             01:47:23 31-Jan-20: STOP TIME  01:47:23 31-Jan-20
 STEP.S                   0.00: STEP TIME
 NULL.                 -999.25: NULL VALUE
 DFWT.                        :  DIST FWL TEXT
 DFST.                        :  DIST FSL TEXT
 DMF .             Drill Floor:  DRILL MEAS FROM
 STIM.      09.30.00 26-Dec-19:  START TIME
 DATE.      08.00.00 20-Jan-20:  END TIME
 SPUD.               23-Nov-19:  SPUD DATE
 NREF.                    Grid:  NORTH REFERENCE
 HPTY.       Minimum Curvature:  HOLE POS TYPE
 DMOD.             Drill Model:  DRILL MOD DESC
 SVYD.                  Survey:  SURVEY DESC
 ILTD.               Lithology:  INTERP LTH DESC
 FTOP.          Formation Tops:  FORM TOPS DESC
 SON .        AZ-XX-0906192647:  JOB NUMBER
 WTYP.                Deviated:  WELL TYPE
 COMP.     BP Exploration (Caspian Sea) Ltd:  COMPANY
 BASE.              Azerbaijan:  LOGGING EQUIPMENT BASE LOCATION
 REGN.                 Eurasia:  REGION
 FLD .                     ACG:  FIELD NAME
 SRVC.              KCA Deutag:  CONTRACTOR
 MWDS.                    Baku:  MWD SHOP
 WELL.     A10 (Slot 20) - SCP:  WELL NAME
 JOBN.        AZ-XX-0906192647:  JOB TICKET NUMB
 RIG .                 Chirag1:  RIG NAME
 DCON.     Halliburton Sperry Drilling:  DIRECTNL CONTR
 UNIT.                     N/A:  LOGGING EQUIPMENT ID
 PDAT.          Mean Sea Level:  PERMANENT DATUM
 MDS .        Operator Entered:  MAG DATA SOURCE
 CTRY.              Azerbaijan:  COUNTRY NAME
 UWI .            /AZE00000090:  UNIQUE WELL IDENTIFIER
 API .            /AZE00000090:  API NUMBER
 CNTY.                        :  COUNTY
 PROV.                        :  PROVINCE
 STAT.                        :  STATE
 LOC .                        :  LOCATION
 LMF .             Drill Floor:  LOG MEASURED FROM
 TVDS.m                  36.60:  TVDSS CORRECTN
 LATI.deg                40.08:  LATITUDE
 LONG.deg                51.24:  LONGITUDE
 WHNS.m                  -7.94:  WELL HEAD N/S
 WHEW.m                   1.56:  WELL HEAD E/W
 UTMX.m              520429.26:  UTM X
 UTMY.m             4438973.87:  UTM Y
 DFWL.m                   0.00:  DISTANCE FWL
 DFSL.m                   0.00:  DISTANCE FSL
 SDEP.m                1455.00:  START DEPTH
 TDD .m                4047.51:  TOTAL DEPTH (DRILLER)
 VSDR.deg               112.75:  VERT SEC DIRECT
 GVFD.g                   1.00:  GRAVITY FIELD
 MFLD.nT              50261.00:  MAGNETIC FIELD
 MDIP.deg                59.52:  MAGNETIC DIP
 MDEC.deg                 6.42:  MAGNETIC DECL
 GRDC.deg                 0.17:  GRID CORRECTION
 AZTC.deg                 6.25:  AZM TOTAL CORR
 EPD .m                   0.00:  ELEVATION
 EGL .m                   0.00:  GROUND ELEVATION
 WDMS.m                 121.00:  WD ELEV
 APD .m                  36.60:  DEPTH ABOVE PD
 AGAP.m                  36.60:  AIR GAP
 VSEW.m                   1.56:  VERT SEC E/W
 VSNS.m                  -7.94:  VERT SEC N/S
 DEP .m                1140.01:  DEPTH
 EKB .m                  36.60:  KB ELEVATION
 EDF .m                  36.60:  DF ELEVATION
 TDL .m                 169.50:  TOTAL DEPTH (LOGGER)
 CSGD.m                3875.01:  CASING BOTTOM (DRILLER)
 CSGL.m                3875.01:  CASING BOTTOM (LOGGER)
 CSGS.in                  7.63:  CASING SIZE
 CSGW.lbpf               23.50:  CASING WEIGHT
 VSC .                       0:  VS TO CLOSURE
 MAGU.                 1849206:  MAGUTM CHECKSUM
~Parameter Information Block
#MNEM.UNIT       Value        Description
#---------     -----------    ---------------------------
 AV  .mps                 1.90:  Ann Velocity 
 AVMX.mps                 2.54:  Max Ann Veloc 
 AZIF.deg               137.03:  Azm, Final 
 BHAT.        Rotary Steerable:  BHA Type 
 BREV.rev             23610.00:  Rev Bit Total 
 BROT.°/30m               0.80:  Build Rotating 
 BS  .in                  6.50:  Bit Size 
 BTPL.psig              110.00:  Bit Press Loss 
 CABU.                     Yes:  Customer Abuse 
 COMM.                     šn:  Run Comments 1 
 TCS .hr                 70.51:  Time Ciculation Ended 
 CV  .mps                 1.41:  Crit Velocity 
 CVMX.mps                 1.42:  Max Crit Veloc 
 DD1 .         Intigam Rahimov:  Direct Drillr 1 
 DD2 .          Rashad Gojayev:  Direct Drillr 2 
 DDSV.               Geo-Pilot:  DD Service 
 DEFF.%                 100.00:  % Det Eff 
 DLRX.°/30m               1.44:  Dogleg Rot Max 
 DLSO.°/30m               0.00:  Dogleg Oriented 
 DLSX.°/30m               0.00:  Dogleg Str Max 
 DRET.      03.05.00 01-Feb-20:  Drill End Time 
 DRST.      15.50.00 28-Jan-20:  Drill Start Tim 
 DTIM.hr                 24.70:  Time Drilling 
 EDEP.m                4047.51:  End Depth 
 ENG1.           Eldar Hajiyev:  Engineer 1 
 ENG2.          Rasim Hashimov:  Engineer 2 
 ENG3.          Rustam Safarov:  Engineer 3 
 ETIM.      22.00.00 01-Feb-20:  End Time 
 FLOI.gpm               370.00:  Flow In 
 FLON.gpm               300.00:  Flow In Min 
 FLOS.cptm                0.00:  Fluid Loss 
 FLOX.gpm               400.00:  Flow In Max 
 FTRO.       Formation Presure:  FTWD Run Obj 
 HFLO.                      No:  High Flow 
 HPRE.                      No:  High Pressure 
 HTEM.                      No:  High Temp 
 HYDO.m                   2.50:  Hydro Offset 
 IFIN.deg                39.54:  Inc, Final 
 IMAX.deg                41.14:  Inc Max 
 IMIN.deg                39.81:  Inc Min 
 IMND.m                4005.21:  Inc Min Depth 
 IMXD.m                3948.42:  Inc Max Depth 
 JARR.                      No:  Jarring 
 LETM.      03.05.00 01-Feb-20:  Log End Time 
 LOST.hr                     0:  Lost Rig Time 
 LSTM.      15.50.00 28-Jan-20:  Log Start Time 
 MDCL.ppm             37500.00:  Mud Chlorides 
 MDES.     Inversion Oil/Synthetic:  Mud Desc 
 DFD .sg                  1.32:  Mud Density 
 MDMN.sg                  1.32:  Dens Mud Min 
 MDMX.sg                  1.32:  Dens Mud Max 
 MOIL.                      55:  Run Mud Oil % 
 MOWR.                   70:30:  Run Mud OWR 
 MSND.                       0:  Run Mud Sand % 
 MSOL.                      17:  Run Mud Solids% 
 DFV .spqt               80.00:  Mud Viscosity 
 MWOD.in                  4.75:  MWD Tool OD 
 MWSI.                      No:  Serv Intrp, MWD 
 OTIM.hr                121.28:  Time Operating 
 PCON.           Look Like New:  Pad Condition 
 PMAX.psia             6171.00:  Press Op, Max 
 PV  .cP                 30.00:  Mud PV 
 RUN .                     300:  Run Number 
 ROPA.m/hr                5.45:  ROP Avg 
 ROPN.m/hr                3.00:  ROP Min 
 ROPX.m/hr               15.00:  ROP Max 
 RPMA.rpm               130.00:  RPM Surface Avg 
 RPMN.rpm                80.00:  RPM Surface Min 
 RPMX.rpm               140.00:  RPM Surface Max 
 RRUN.                     300:  Rig Run Number 
 RTIM.hr                 13.50:  Time Reaming 
 SAZI.deg               133.93:  Azm, Start 
 SDEP.m                3878.01:  Start Depth 
 SIDD.                      No:  Serv Intrp, DD 
 SINC.deg                40.28:  Inc, Start 
 SPPA.psig             4983.00:  SPP Avg 
 SPPN.psig             4370.00:  SPP Min 
 SPPX.psig             5300.00:  SPP Max 
 STIM.      18.33.36 27-Jan-20:  Start Time 
 SVCS.                 DD, MWD:  Services 
 SVER.                    9.20:  Sperry Version 
 TDAT.m                 169.50:  Tot Depth Attmp 
 TDDF.                      No:  Trip for DD 
 TDLG.m                 169.50:  Tot Depth Loggd 
 TFF .                      No:  Trip for Fail 
 TQAA.f-kp               13.25:  Torque Abs Avg 
 TQAN.f-kp               12.00:  Torque Abs Min 
 TQAX.f-kp               14.00:  Torque Abs Max 
 TRRT.°/30m               0.70:  Turn Rotating 
 MRT .                     ADR:  Maximum Recorded Temperature 
 TTMX.degC               92.16:  Max Tool Temp 
 VS01.       AZ90598764G12V7D4:  Virtual Str1 SN 
 VS02.         AZ90571342R12C4:  Virtual Str2 SN 
 VS03.      AZ90580010N2L2X1C4:  Virtual Str3 SN 
 VS04.        AZ90522266O7X1C4:  Virtual Str4 SN 
 VS05.           AZ90598768F11:  Virtual Str5 SN 
 VS06.     AZ90580006XZ1W1X1C4:  Virtual Str6 SN 
 WBMN.klb                 8.00:  WOB Min 
 WITN.            Peter Wilson:  Customer Rep 
 WOBA.klb                 9.88:  WOB Avg 
 WOBX.klb                10.00:  WOB Max 
 YP  .lhf2               27.00:  Yield Point 
~Curve Information Block
#MNEM.UNIT                 API CODE     Curve Description
#---------               -----------    ---------------------------
 TIME.HHMMSS            00 000 000 000:  GT Time & Date
 GTDEPTH.m              00 000 000 000:  GT Depth
 GTPQH.psia             00 000 000 000:  GT HR Quartz Pressure
 GTTQ.degC              00 000 000 000:  GT Quartz Temperature
 GTTN.NONE              00 000 000 000:  GT Test Number
 GTET.sec               00 000 000 000:  GT Elapsed Test Time
 GTTVD.m                00 000 000 000:  GT True Vertical Depth
#Other Information
#
#WARRANTY: Halliburton will use its best efforts to furnish customers with 
#accurate information and interpretations that are part of, and incident to, the services 
#provided.  However, Halliburton cannot and does not warrant the accuracy 
#or correctness of such information and interpretations.  Under no circumstances should any 
#such information or interpretation be relied upon as the sole basis for any drilling, 
#completion, production, or financial decision or any procedure involving any risk to the 
#safety of any drilling venture, drilling rig or its crew or any other third party.  The 
#Customer has full responsibility for all drilling, completion and production operation.  
#Halliburton makes no representations or warranties, either expressed or 
#implied, including, but not limited to, the implied warranties of merchantability or fitness 
#for a particular purpose, with respect to the services rendered.  In no event will 
#Halliburton be liable for failure to obtain any particular results or for 
#any damages, including, but not limited to, indirect, special or consequential damages, 
#resulting from the use of any information or interpretation provided by Halliburton.
#
~A           TIME           GTDEPTH  GTPQH  GTTQ  GTTN  GTET   GTTVD  
# ...
   01:42:50.084.31-Jan-2020 3902.01 2984.72 76.40 3.00 115.02 2938.77
   01:42:50.284.31-Jan-2020 3902.01 2984.72 76.40 3.00 115.22 2938.77
   01:42:50.484.31-Jan-2020 3902.01 2984.78 76.40 3.00 115.42 2938.77
   01:42:50.684.31-Jan-2020 3902.01 2984.24 76.40 3.00 115.62 2938.77
   01:42:50.884.31-Jan-2020 3902.01 2984.66 76.39 3.00 115.82 2938.77
   01:42:51.084.31-Jan-2020 3902.01 2984.70 76.39 3.00 116.02 2938.77
   01:42:51.284.31-Jan-2020 3902.01 2984.70 76.39 3.00 116.22 2938.77
   01:42:51.484.31-Jan-2020 3902.01 2984.62 76.39 3.00 116.42 2938.77
   01:42:51.685.31-Jan-2020 3902.01 2984.57 76.39 3.00 116.62 2938.77
   01:42:51.885.31-Jan-2020 3902.01 2984.72 76.39 3.00 116.82 2938.77
   01:42:52.085.31-Jan-2020 3902.01 2984.30 76.39 3.00 117.02 2938.77
   01:42:52.285.31-Jan-2020 3902.01 2984.30 76.39 3.00 117.22 2938.77
   01:42:52.485.31-Jan-2020 3902.01 2984.64 76.39 3.00 117.42 2938.77
   01:42:52.685.31-Jan-2020 3902.01 2984.72 76.39 3.00 117.62 2938.77
   01:42:52.885.31-Jan-2020 3902.01 2984.64 76.39 3.00 117.82 2938.77
   01:42:53.085.31-Jan-2020 3902.01 2984.59 76.39 3.00 118.02 2938.77
   01:42:53.285.31-Jan-2020 3902.01 2984.59 76.39 3.00 118.22 2938.77
   01:42:53.485.31-Jan-2020 3902.01 2984.65 76.39 3.00 118.42 2938.77
   01:42:53.685.31-Jan-2020 3902.01 2984.61 76.39 3.00 118.62 2938.77
   01:42:53.885.31-Jan-2020 3902.01 2984.60 76.39 3.00 118.82 2938.77
   01:42:54.085.31-Jan-2020 3902.01 2984.58 76.38 3.00 119.02 2938.77
   01:42:54.285.31-Jan-2020 3902.01 2984.58 76.38 3.00 119.22 2938.77
   01:42:54.485.31-Jan-2020 3902.01 2984.52 76.38 3.00 119.42 2938.77
   01:42:54.685.31-Jan-2020 3902.01 2984.57 76.38 3.00 119.62 2938.77
   01:42:54.885.31-Jan-2020 3902.01 2984.65 76.38 3.00 119.82 2938.77
   01:42:55.085.31-Jan-2020 3902.01 2984.59 76.38 3.00 120.02 2938.77
   01:42:55.285.31-Jan-2020 3902.01 2984.59 76.38 3.00 120.22 2938.77
   01:42:55.485.31-Jan-2020 3902.01 2984.54 76.38 3.00 120.42 2938.77
   01:42:55.685.31-Jan-2020 3902.01 2984.46 76.38 3.00 120.62 2938.77
   01:42:55.885.31-Jan-2020 3902.01 2984.47 76.38 3.00 120.82 2938.77
   01:42:56.085.31-Jan-2020 3902.01 2984.62 76.38 3.00 121.02 2938.77
   01:42:56.285.31-Jan-2020 3902.01 2984.62 76.38 3.00 121.22 2938.77
   01:42:56.485.31-Jan-2020 3902.01 2984.61 76.38 3.00 121.42 2938.77
   01:42:56.685.31-Jan-2020 3902.01 2984.62 76.38 3.00 121.62 2938.77
   01:42:56.885.31-Jan-2020 3902.01 2984.55 76.38 3.00 121.82 2938.77
   01:42:57.085.31-Jan-2020 3902.01 2984.53 76.38 3.00 122.02 2938.77
   01:42:57.286.31-Jan-2020 3902.01 2984.53 76.38 3.00 122.22 2938.77
   01:42:57.486.31-Jan-2020 3902.01 2984.60 76.37 3.00 122.42 2938.77
   01:42:57.686.31-Jan-2020 3902.01 2984.54 76.37 3.00 122.62 2938.77
   01:42:57.886.31-Jan-2020 3902.01 2984.53 76.37 3.00 122.82 2938.77
   01:42:58.086.31-Jan-2020 3902.01 2984.54 76.37 3.00 123.02 2938.77
   01:42:58.286.31-Jan-2020 3902.01 2984.54 76.37 3.00 123.22 2938.77
   01:42:58.486.31-Jan-2020 3902.01 2984.54 76.37 3.00 123.42 2938.77
   01:42:58.686.31-Jan-2020 3902.01 2984.65 76.37 3.00 123.62 2938.77
   01:42:58.886.31-Jan-2020 3902.01 2984.67 76.37 3.00 123.82 2938.77
   01:42:59.086.31-Jan-2020 3902.01 2984.17 76.37 3.00 124.02 2938.77
   01:42:59.286.31-Jan-2020 3902.01 2984.17 76.37 3.00 124.22 2938.77
   01:42:59.486.31-Jan-2020 3902.01 2984.57 76.37 3.00 124.42 2938.77
   01:42:59.686.31-Jan-2020 3902.01 2984.50 76.37 3.00 124.62 2938.77
   01:42:59.886.31-Jan-2020 3902.01 2984.70 76.37 3.00 124.82 2938.77
   01:43:00.086.31-Jan-2020 3902.01 2984.20 76.37 3.00 125.02 2938.77
   01:43:00.286.31-Jan-2020 3902.01 2984.20 76.37 3.00 125.22 2938.77
   01:43:00.486.31-Jan-2020 3902.01 2984.57 76.37 3.00 125.42 2938.77
   01:43:00.686.31-Jan-2020 3902.01 2984.58 76.36 3.00 125.62 2938.77
   01:43:00.886.31-Jan-2020 3902.01 2984.53 76.36 3.00 125.82 2938.77
   01:43:01.086.31-Jan-2020 3902.01 2984.57 76.36 3.00 126.02 2938.77
   01:43:01.286.31-Jan-2020 3902.01 2984.57 76.36 3.00 126.22 2938.77
   01:43:01.486.31-Jan-2020 3902.01 2984.28 76.36 3.00 126.42 2938.77
   01:43:01.686.31-Jan-2020 3902.01 2984.56 76.36 3.00 126.62 2938.77
   01:43:01.886.31-Jan-2020 3902.01 2984.64 76.36 3.00 126.82 2938.77
   01:43:02.086.31-Jan-2020 3902.01 2984.59 76.36 3.00 127.02 2938.77
   01:43:02.286.31-Jan-2020 3902.01 2984.59 76.36 3.00 127.22 2938.77
   01:43:02.486.31-Jan-2020 3902.01 2984.59 76.36 3.00 127.42 2938.77
   01:43:02.687.31-Jan-2020 3902.01 2984.59 76.36 3.00 127.62 2938.77
   01:43:02.887.31-Jan-2020 3902.01 2984.65 76.36 3.00 127.82 2938.77
   01:43:03.087.31-Jan-2020 3902.01 2984.58 76.36 3.00 128.02 2938.77
   01:43:03.287.31-Jan-2020 3902.01 2984.58 76.36 3.00 128.22 2938.77
   01:43:03.487.31-Jan-2020 3902.01 2984.49 76.36 3.00 128.42 2938.77
   01:43:03.687.31-Jan-2020 3902.01 2984.22 76.36 3.00 128.62 2938.77
   01:43:03.887.31-Jan-2020 3902.01 2984.62 76.35 3.00 128.82 2938.77
   01:43:04.087.31-Jan-2020 3902.01 2984.58 76.35 3.00 129.02 2938.77
   01:43:04.287.31-Jan-2020 3902.01 2984.58 76.35 3.00 129.22 2938.77
   01:43:04.487.31-Jan-2020 3902.01 2984.59 76.35 3.00 129.42 2938.77
   01:43:04.687.31-Jan-2020 3902.01 2984.51 76.35 3.00 129.62 2938.77
   01:43:04.887.31-Jan-2020 3902.01 2984.46 76.35 3.00 129.82 2938.77
   01:43:05.087.31-Jan-2020 3902.01 2984.53 76.35 3.00 130.02 2938.77
   01:43:05.287.31-Jan-2020 3902.01 2984.53 76.35 3.00 130.22 2938.77
   01:43:05.487.31-Jan-2020 3902.01 2984.52 76.35 3.00 130.42 2938.77
   01:43:05.687.31-Jan-2020 3902.01 2984.50 76.35 3.00 130.62 2938.77
   01:43:05.887.31-Jan-2020 3902.01 2984.50 76.35 3.00 130.82 2938.77
   01:43:06.087.31-Jan-2020 3902.01 2984.46 76.35 3.00 131.02 2938.77
   01:43:06.287.31-Jan-2020 3902.01 2984.46 76.35 3.00 131.22 2938.77
   01:43:06.487.31-Jan-2020 3902.01 2984.54 76.35 3.00 131.42 2938.77
   01:43:06.687.31-Jan-2020 3902.01 2984.57 76.35 3.00 131.62 2938.77
   01:43:06.887.31-Jan-2020 3902.01 2984.49 76.35 3.00 131.82 2938.77
   01:43:07.087.31-Jan-2020 3902.01 2984.47 76.35 3.00 132.02 2938.77
   01:43:07.287.31-Jan-2020 3902.01 2984.47 76.35 3.00 132.22 2938.77
   01:43:07.487.31-Jan-2020 3902.01 2984.53 76.34 3.00 132.42 2938.77
   01:43:07.687.31-Jan-2020 3902.01 2574.19 76.34 3.00 132.62 2938.77
   01:43:07.887.31-Jan-2020 3902.01 2211.54 76.34 3.00 132.82 2938.77
   01:43:08.087.31-Jan-2020 3902.01 1999.99 76.34 3.00 133.02 2938.77
   01:43:08.288.31-Jan-2020 3902.01 1999.99 76.34 3.00 133.22 2938.77
   01:43:08.488.31-Jan-2020 3902.01 1791.52 76.34 3.00 133.42 2938.77
   01:43:08.688.31-Jan-2020 3902.01 1739.61 76.34 3.00 133.62 2938.77
   01:43:08.888.31-Jan-2020 3902.01 1705.11 76.34 3.00 133.82 2938.77
   01:43:09.088.31-Jan-2020 3902.01 1681.44 76.34 3.00 134.02 2938.77
   01:43:09.288.31-Jan-2020 3902.01 1681.44 76.34 3.00 134.22 2938.77
   01:43:09.488.31-Jan-2020 3902.01 1656.58 76.34 3.00 134.42 2938.77
   01:43:09.688.31-Jan-2020 3902.01 1649.81 76.34 3.00 134.62 2938.77
   01:43:09.888.31-Jan-2020 3902.01 1642.50 76.34 3.00 134.82 2938.77
   01:43:10.088.31-Jan-2020 3902.01 1633.69 76.34 3.00 135.02 2938.77
   01:43:10.288.31-Jan-2020 3902.01 1633.69 76.34 3.00 135.22 2938.77
   01:43:10.488.31-Jan-2020 3902.01 1630.11 76.33 3.00 135.42 2938.77
   01:43:10.688.31-Jan-2020 3902.01 1621.33 76.33 3.00 135.62 2938.77
   01:43:10.888.31-Jan-2020 3902.01 1622.17 76.33 3.00 135.82 2938.77
   01:43:11.088.31-Jan-2020 3902.01 1620.20 76.33 3.00 136.02 2938.77
   01:43:11.288.31-Jan-2020 3902.01 1620.20 76.33 3.00 136.22 2938.77
   01:43:11.488.31-Jan-2020 3902.01 1612.72 76.33 3.00 136.42 2938.77
   01:43:11.688.31-Jan-2020 3902.01 1607.56 76.33 3.00 136.62 2938.77
   01:43:11.888.31-Jan-2020 3902.01 1608.08 76.33 3.00 136.82 2938.77
   01:43:12.088.31-Jan-2020 3902.01 1607.00 76.33 3.00 137.02 2938.77
   01:43:12.288.31-Jan-2020 3902.01 1607.00 76.33 3.00 137.22 2938.77
   01:43:12.488.31-Jan-2020 3902.01 1600.38 76.32 3.00 137.42 2938.77
   01:43:12.688.31-Jan-2020 3902.01 1599.91 76.32 3.00 137.62 2938.77
   01:43:12.888.31-Jan-2020 3902.01 1599.15 76.32 3.00 137.82 2938.77
