~Version Information
 VERS.                  2.0:   CWLS log ASCII Standard -VERSION 2.0
 WRAP.                   NO:   One line per depth step
~Well Information Block
#MNEM.UNIT     VALUE/NAME     DESCRIPTION
#---------     -----------    ---------------------------
 STRT.S             00:13:57 01-Feb-20: START TIME 00:13:57 01-Feb-20
 STOP.S             00:20:28 01-Feb-20: STOP TIME  00:20:28 01-Feb-20
 STEP.S                   0.00: STEP TIME
 NULL.                 -999.25: NULL VALUE
 DFWT.                        :  DIST FWL TEXT
 DFST.                        :  DIST FSL TEXT
 DMF .             Drill Floor:  DRILL MEAS FROM
 STIM.      09.30.00 26-Dec-19:  START TIME
 DATE.      08.00.00 20-Jan-20:  END TIME
 SPUD.               23-Nov-19:  SPUD DATE
 NREF.                    Grid:  NORTH REFERENCE
 HPTY.       Minimum Curvature:  HOLE POS TYPE
 DMOD.             Drill Model:  DRILL MOD DESC
 SVYD.                  Survey:  SURVEY DESC
 ILTD.               Lithology:  INTERP LTH DESC
 FTOP.          Formation Tops:  FORM TOPS DESC
 SON .        AZ-XX-0906192647:  JOB NUMBER
 WTYP.                Deviated:  WELL TYPE
 COMP.     BP Exploration (Caspian Sea) Ltd:  COMPANY
 BASE.              Azerbaijan:  LOGGING EQUIPMENT BASE LOCATION
 REGN.                 Eurasia:  REGION
 FLD .                     ACG:  FIELD NAME
 SRVC.              KCA Deutag:  CONTRACTOR
 MWDS.                    Baku:  MWD SHOP
 WELL.     A10 (Slot 20) - SCP:  WELL NAME
 JOBN.        AZ-XX-0906192647:  JOB TICKET NUMB
 RIG .                 Chirag1:  RIG NAME
 DCON.     Halliburton Sperry Drilling:  DIRECTNL CONTR
 UNIT.                     N/A:  LOGGING EQUIPMENT ID
 PDAT.          Mean Sea Level:  PERMANENT DATUM
 MDS .        Operator Entered:  MAG DATA SOURCE
 CTRY.              Azerbaijan:  COUNTRY NAME
 UWI .            /AZE00000090:  UNIQUE WELL IDENTIFIER
 API .            /AZE00000090:  API NUMBER
 CNTY.                        :  COUNTY
 PROV.                        :  PROVINCE
 STAT.                        :  STATE
 LOC .                        :  LOCATION
 LMF .             Drill Floor:  LOG MEASURED FROM
 TVDS.m                  36.60:  TVDSS CORRECTN
 LATI.deg                40.08:  LATITUDE
 LONG.deg                51.24:  LONGITUDE
 WHNS.m                  -7.94:  WELL HEAD N/S
 WHEW.m                   1.56:  WELL HEAD E/W
 UTMX.m              520429.26:  UTM X
 UTMY.m             4438973.87:  UTM Y
 DFWL.m                   0.00:  DISTANCE FWL
 DFSL.m                   0.00:  DISTANCE FSL
 SDEP.m                1455.00:  START DEPTH
 TDD .m                4047.51:  TOTAL DEPTH (DRILLER)
 VSDR.deg               112.75:  VERT SEC DIRECT
 GVFD.g                   1.00:  GRAVITY FIELD
 MFLD.nT              50261.00:  MAGNETIC FIELD
 MDIP.deg                59.52:  MAGNETIC DIP
 MDEC.deg                 6.42:  MAGNETIC DECL
 GRDC.deg                 0.17:  GRID CORRECTION
 AZTC.deg                 6.25:  AZM TOTAL CORR
 EPD .m                   0.00:  ELEVATION
 EGL .m                   0.00:  GROUND ELEVATION
 WDMS.m                 121.00:  WD ELEV
 APD .m                  36.60:  DEPTH ABOVE PD
 AGAP.m                  36.60:  AIR GAP
 VSEW.m                   1.56:  VERT SEC E/W
 VSNS.m                  -7.94:  VERT SEC N/S
 DEP .m                1140.01:  DEPTH
 EKB .m                  36.60:  KB ELEVATION
 EDF .m                  36.60:  DF ELEVATION
 TDL .m                 169.50:  TOTAL DEPTH (LOGGER)
 CSGD.m                3875.01:  CASING BOTTOM (DRILLER)
 CSGL.m                3875.01:  CASING BOTTOM (LOGGER)
 CSGS.in                  7.63:  CASING SIZE
 CSGW.lbpf               23.50:  CASING WEIGHT
 VSC .                       0:  VS TO CLOSURE
 MAGU.                 1849206:  MAGUTM CHECKSUM
~Parameter Information Block
#MNEM.UNIT       Value        Description
#---------     -----------    ---------------------------
 AV  .mps                 1.90:  Ann Velocity 
 AVMX.mps                 2.54:  Max Ann Veloc 
 AZIF.deg               137.03:  Azm, Final 
 BHAT.        Rotary Steerable:  BHA Type 
 BREV.rev             23610.00:  Rev Bit Total 
 BROT.°/30m               0.80:  Build Rotating 
 BS  .in                  6.50:  Bit Size 
 BTPL.psig              110.00:  Bit Press Loss 
 CABU.                     Yes:  Customer Abuse 
 TCS .hr                 70.51:  Time Ciculation Ended 
 CV  .mps                 1.41:  Crit Velocity 
 CVMX.mps                 1.42:  Max Crit Veloc 
 DD1 .         Intigam Rahimov:  Direct Drillr 1 
 DD2 .          Rashad Gojayev:  Direct Drillr 2 
 DDSV.               Geo-Pilot:  DD Service 
 DEFF.%                 100.00:  % Det Eff 
 DLRX.°/30m               1.44:  Dogleg Rot Max 
 DLSO.°/30m               0.00:  Dogleg Oriented 
 DLSX.°/30m               0.00:  Dogleg Str Max 
 DRET.      03.05.00 01-Feb-20:  Drill End Time 
 DRST.      15.50.00 28-Jan-20:  Drill Start Tim 
 DTIM.hr                 24.70:  Time Drilling 
 EDEP.m                4047.51:  End Depth 
 ENG1.           Eldar Hajiyev:  Engineer 1 
 ENG2.          Rasim Hashimov:  Engineer 2 
 ENG3.          Rustam Safarov:  Engineer 3 
 ETIM.      22.00.00 01-Feb-20:  End Time 
 FLOI.gpm               370.00:  Flow In 
 FLON.gpm               300.00:  Flow In Min 
 FLOS.cptm                0.00:  Fluid Loss 
 FLOX.gpm               400.00:  Flow In Max 
 FTRO.       Formation Presure:  FTWD Run Obj 
 HFLO.                      No:  High Flow 
 HPRE.                      No:  High Pressure 
 HTEM.                      No:  High Temp 
 HYDO.m                   2.50:  Hydro Offset 
 IFIN.deg                39.54:  Inc, Final 
 IMAX.deg                41.14:  Inc Max 
 IMIN.deg                39.81:  Inc Min 
 IMND.m                4005.21:  Inc Min Depth 
 IMXD.m                3948.42:  Inc Max Depth 
 JARR.                      No:  Jarring 
 LETM.      03.05.00 01-Feb-20:  Log End Time 
 LOST.hr                     0:  Lost Rig Time 
 LSTM.      15.50.00 28-Jan-20:  Log Start Time 
 MDCL.ppm             37500.00:  Mud Chlorides 
 MDES.     Inversion Oil/Synthetic:  Mud Desc 
 DFD .sg                  1.32:  Mud Density 
 MDMN.sg                  1.32:  Dens Mud Min 
 MDMX.sg                  1.32:  Dens Mud Max 
 MOIL.                      55:  Run Mud Oil % 
 MOWR.                   70:30:  Run Mud OWR 
 MSND.                       0:  Run Mud Sand % 
 MSOL.                      17:  Run Mud Solids% 
 DFV .spqt               80.00:  Mud Viscosity 
 MWOD.in                  4.75:  MWD Tool OD 
 MWSI.                      No:  Serv Intrp, MWD 
 OTIM.hr                121.28:  Time Operating 
 PCON.           Look Like New:  Pad Condition 
 PMAX.psia             6171.00:  Press Op, Max 
 PV  .cP                 30.00:  Mud PV 
 RUN .                     300:  Run Number 
 ROPA.m/hr                5.45:  ROP Avg 
 ROPN.m/hr                3.00:  ROP Min 
 ROPX.m/hr               15.00:  ROP Max 
 RPMA.rpm               130.00:  RPM Surface Avg 
 RPMN.rpm                80.00:  RPM Surface Min 
 RPMX.rpm               140.00:  RPM Surface Max 
 RRUN.                     300:  Rig Run Number 
 RTIM.hr                 13.50:  Time Reaming 
 SAZI.deg               133.93:  Azm, Start 
 SDEP.m                3878.01:  Start Depth 
 SIDD.                      No:  Serv Intrp, DD 
 SINC.deg                40.28:  Inc, Start 
 SPPA.psig             4983.00:  SPP Avg 
 SPPN.psig             4370.00:  SPP Min 
 SPPX.psig             5300.00:  SPP Max 
 STIM.      18.33.36 27-Jan-20:  Start Time 
 SVCS.                 DD, MWD:  Services 
 SVER.                    9.20:  Sperry Version 
 TDAT.m                 169.50:  Tot Depth Attmp 
 TDDF.                      No:  Trip for DD 
 TDLG.m                 169.50:  Tot Depth Loggd 
 TFF .                      No:  Trip for Fail 
 TQAA.f-kp               13.25:  Torque Abs Avg 
 TQAN.f-kp               12.00:  Torque Abs Min 
 TQAX.f-kp               14.00:  Torque Abs Max 
 TRRT.°/30m               0.70:  Turn Rotating 
 MRT .                     ADR:  Maximum Recorded Temperature 
 TTMX.degC               92.16:  Max Tool Temp 
 VS01.       AZ90598764G12V7D4:  Virtual Str1 SN 
 VS02.         AZ90571342R12C4:  Virtual Str2 SN 
 VS03.      AZ90580010N2L2X1C4:  Virtual Str3 SN 
 VS04.        AZ90522266O7X1C4:  Virtual Str4 SN 
 VS05.           AZ90598768F11:  Virtual Str5 SN 
 VS06.     AZ90580006XZ1W1X1C4:  Virtual Str6 SN 
 WBMN.klb                 8.00:  WOB Min 
 WITN.            Peter Wilson:  Customer Rep 
 WOBA.klb                 9.88:  WOB Avg 
 WOBX.klb                10.00:  WOB Max 
 YP  .lhf2               27.00:  Yield Point 
~Curve Information Block
#MNEM.UNIT                 API CODE     Curve Description
#---------               -----------    ---------------------------
 TIME.HHMMSS            00 000 000 000:  GT Time & Date
 GTDEPTH.m              00 000 000 000:  GT Depth
 GTPQH.psia             00 000 000 000:  GT HR Quartz Pressure
 GTTQ.degC              00 000 000 000:  GT Quartz Temperature
 GTTN.NONE              00 000 000 000:  GT Test Number
 GTET.sec               00 000 000 000:  GT Elapsed Test Time
 GTTVD.m                00 000 000 000:  GT True Vertical Depth
#Other Information
#
#WARRANTY: Halliburton will use its best efforts to furnish customers with 
#accurate information and interpretations that are part of, and incident to, the services 
#provided.  However, Halliburton cannot and does not warrant the accuracy 
#or correctness of such information and interpretations.  Under no circumstances should any 
#such information or interpretation be relied upon as the sole basis for any drilling, 
#completion, production, or financial decision or any procedure involving any risk to the 
#safety of any drilling venture, drilling rig or its crew or any other third party.  The 
#Customer has full responsibility for all drilling, completion and production operation.  
#Halliburton makes no representations or warranties, either expressed or 
#implied, including, but not limited to, the implied warranties of merchantability or fitness 
#for a particular purpose, with respect to the services rendered.  In no event will 
#Halliburton be liable for failure to obtain any particular results or for 
#any damages, including, but not limited to, indirect, special or consequential damages, 
#resulting from the use of any information or interpretation provided by Halliburton.
#
~A           TIME           GTDEPTH  GTPQH  GTTQ  GTTN   GTET   GTTVD  
# ...
   00:19:14.136.01-Feb-2020 3989.40 3223.28 86.58 10.00 316.43 3004.80
   00:19:14.336.01-Feb-2020 3989.40 3223.25 86.58 10.00 316.63 3004.80
   00:19:14.536.01-Feb-2020 3989.40 3223.20 86.58 10.00 316.83 3004.80
   00:19:14.736.01-Feb-2020 3989.40 3223.29 86.58 10.00 317.03 3004.80
   00:19:14.936.01-Feb-2020 3989.40 3223.29 86.58 10.00 317.23 3004.80
   00:19:15.136.01-Feb-2020 3989.40 3223.22 86.58 10.00 317.43 3004.80
   00:19:15.336.01-Feb-2020 3989.40 3223.27 86.58 10.00 317.63 3004.80
   00:19:15.536.01-Feb-2020 3989.40 3223.23 86.58 10.00 317.83 3004.80
   00:19:15.736.01-Feb-2020 3989.40 3223.26 86.58 10.00 318.03 3004.80
   00:19:15.936.01-Feb-2020 3989.40 3223.26 86.58 10.00 318.23 3004.80
   00:19:16.136.01-Feb-2020 3989.40 3223.11 86.58 10.00 318.43 3004.80
   00:19:16.336.01-Feb-2020 3989.40 3223.34 86.58 10.00 318.63 3004.80
   00:19:16.536.01-Feb-2020 3989.40 3223.30 86.57 10.00 318.83 3004.80
   00:19:16.736.01-Feb-2020 3989.40 3223.35 86.57 10.00 319.03 3004.80
   00:19:16.936.01-Feb-2020 3989.40 3223.35 86.57 10.00 319.23 3004.80
   00:19:17.136.01-Feb-2020 3989.40 3223.15 86.57 10.00 319.43 3004.80
   00:19:17.336.01-Feb-2020 3989.40 3223.28 86.57 10.00 319.63 3004.80
   00:19:17.536.01-Feb-2020 3989.40 3223.31 86.57 10.00 319.83 3004.80
   00:19:17.736.01-Feb-2020 3989.40 3223.34 86.57 10.00 320.03 3004.80
   00:19:17.936.01-Feb-2020 3989.40 3223.34 86.57 10.00 320.23 3004.80
   00:19:18.136.01-Feb-2020 3989.40 3223.44 86.57 10.00 320.43 3004.80
   00:19:18.336.01-Feb-2020 3989.40 3223.31 86.57 10.00 320.63 3004.80
   00:19:18.536.01-Feb-2020 3989.40 3223.23 86.57 10.00 320.83 3004.80
   00:19:18.736.01-Feb-2020 3989.40 3223.28 86.57 10.00 321.03 3004.80
   00:19:18.936.01-Feb-2020 3989.40 3223.28 86.57 10.00 321.23 3004.80
   00:19:19.136.01-Feb-2020 3989.40 3223.38 86.57 10.00 321.43 3004.80
   00:19:19.336.01-Feb-2020 3989.40 3223.53 86.57 10.00 321.63 3004.80
   00:19:19.536.01-Feb-2020 3989.40 3223.11 86.57 10.00 321.83 3004.80
   00:19:19.736.01-Feb-2020 3989.40 3223.31 86.57 10.00 322.03 3004.80
   00:19:19.936.01-Feb-2020 3989.40 3223.31 86.57 10.00 322.23 3004.80
   00:19:20.136.01-Feb-2020 3989.40 3223.40 86.56 10.00 322.43 3004.80
   00:19:20.336.01-Feb-2020 3989.40 3223.43 86.56 10.00 322.63 3004.80
   00:19:20.536.01-Feb-2020 3989.40 3223.44 86.56 10.00 322.83 3004.80
   00:19:20.736.01-Feb-2020 3989.40 3223.55 86.56 10.00 323.03 3004.80
   00:19:20.936.01-Feb-2020 3989.40 3223.55 86.56 10.00 323.23 3004.80
   00:19:21.136.01-Feb-2020 3989.40 3223.30 86.56 10.00 323.43 3004.80
   00:19:21.336.01-Feb-2020 3989.40 3223.46 86.56 10.00 323.63 3004.80
   00:19:21.536.01-Feb-2020 3989.40 3223.54 86.56 10.00 323.83 3004.80
   00:19:21.736.01-Feb-2020 3989.40 3223.57 86.56 10.00 324.03 3004.80
   00:19:21.936.01-Feb-2020 3989.40 3223.57 86.56 10.00 324.23 3004.80
   00:19:22.136.01-Feb-2020 3989.40 3223.60 86.56 10.00 324.43 3004.80
   00:19:22.336.01-Feb-2020 3989.40 3223.54 86.56 10.00 324.63 3004.80
   00:19:22.536.01-Feb-2020 3989.40 3223.51 86.56 10.00 324.83 3004.80
   00:19:22.736.01-Feb-2020 3989.40 3223.56 86.56 10.00 325.03 3004.80
   00:19:22.936.01-Feb-2020 3989.40 3223.56 86.56 10.00 325.23 3004.80
   00:19:23.137.01-Feb-2020 3989.40 3223.52 86.56 10.00 325.43 3004.80
   00:19:23.337.01-Feb-2020 3989.40 3223.47 86.56 10.00 325.63 3004.80
   00:19:23.537.01-Feb-2020 3989.40 3223.43 86.55 10.00 325.83 3004.80
   00:19:23.737.01-Feb-2020 3989.40 3223.42 86.55 10.00 326.03 3004.80
   00:19:23.937.01-Feb-2020 3989.40 3223.42 86.55 10.00 326.23 3004.80
   00:19:24.137.01-Feb-2020 3989.40 3223.50 86.55 10.00 326.43 3004.80
   00:19:24.337.01-Feb-2020 3989.40 3223.50 86.55 10.00 326.63 3004.80
   00:19:24.537.01-Feb-2020 3989.40 3223.44 86.55 10.00 326.83 3004.80
   00:19:24.737.01-Feb-2020 3989.40 3223.37 86.55 10.00 327.03 3004.80
   00:19:24.937.01-Feb-2020 3989.40 3223.37 86.55 10.00 327.23 3004.80
   00:19:25.137.01-Feb-2020 3989.40 3223.49 86.55 10.00 327.43 3004.80
   00:19:25.337.01-Feb-2020 3989.40 3223.53 86.55 10.00 327.63 3004.80
   00:19:25.537.01-Feb-2020 3989.40 3223.60 86.55 10.00 327.83 3004.80
   00:19:25.737.01-Feb-2020 3989.40 3223.56 86.55 10.00 328.03 3004.80
   00:19:25.937.01-Feb-2020 3989.40 3223.56 86.55 10.00 328.23 3004.80
   00:19:26.137.01-Feb-2020 3989.40 3223.63 86.55 10.00 328.43 3004.80
   00:19:26.337.01-Feb-2020 3989.40 3223.56 86.55 10.00 328.63 3004.80
   00:19:26.537.01-Feb-2020 3989.40 3223.59 86.55 10.00 328.83 3004.80
   00:19:26.737.01-Feb-2020 3989.40 3223.60 86.55 10.00 329.03 3004.80
   00:19:26.937.01-Feb-2020 3989.40 3223.60 86.55 10.00 329.23 3004.80
   00:19:27.137.01-Feb-2020 3989.40 3223.66 86.54 10.00 329.43 3004.80
   00:19:27.337.01-Feb-2020 3989.40 3223.60 86.54 10.00 329.63 3004.80
   00:19:27.537.01-Feb-2020 3989.40 3223.64 86.54 10.00 329.83 3004.80
   00:19:27.737.01-Feb-2020 3989.40 3223.81 86.54 10.00 330.03 3004.80
   00:19:27.937.01-Feb-2020 3989.40 3223.81 86.54 10.00 330.23 3004.80
   00:19:28.137.01-Feb-2020 3989.40 3223.65 86.54 10.00 330.43 3004.80
   00:19:28.337.01-Feb-2020 3989.40 3223.66 86.54 10.00 330.63 3004.80
   00:19:28.537.01-Feb-2020 3989.40 3223.61 86.54 10.00 330.83 3004.80
   00:19:28.737.01-Feb-2020 3989.40 3223.81 86.54 10.00 331.03 3004.80
   00:19:28.937.01-Feb-2020 3989.40 3223.81 86.54 10.00 331.23 3004.80
   00:19:29.137.01-Feb-2020 3989.40 3223.54 86.54 10.00 331.43 3004.80
   00:19:29.337.01-Feb-2020 3989.40 3223.71 86.54 10.00 331.63 3004.80
   00:19:29.537.01-Feb-2020 3989.40 3223.68 86.54 10.00 331.83 3004.80
   00:19:29.737.01-Feb-2020 3989.40 3223.74 86.54 10.00 332.03 3004.80
   00:19:29.937.01-Feb-2020 3989.40 3223.74 86.54 10.00 332.23 3004.80
   00:19:30.137.01-Feb-2020 3989.40 3223.48 86.54 10.00 332.43 3004.80
   00:19:30.337.01-Feb-2020 3989.40 3223.65 86.54 10.00 332.63 3004.80
   00:19:30.537.01-Feb-2020 3989.40 3223.63 86.53 10.00 332.83 3004.80
   00:19:30.737.01-Feb-2020 3989.40 3223.66 86.53 10.00 333.03 3004.80
   00:19:30.937.01-Feb-2020 3989.40 3223.66 86.53 10.00 333.23 3004.80
   00:19:31.137.01-Feb-2020 3989.40 3223.89 86.53 10.00 333.43 3004.80
   00:19:31.337.01-Feb-2020 3989.40 3223.42 86.53 10.00 333.63 3004.80
   00:19:31.537.01-Feb-2020 3989.40 3223.73 86.53 10.00 333.83 3004.80
   00:19:31.737.01-Feb-2020 3989.40 3223.66 86.53 10.00 334.03 3004.80
   00:19:31.937.01-Feb-2020 3989.40 3223.66 86.53 10.00 334.23 3004.80
   00:19:32.137.01-Feb-2020 3989.40 3223.89 86.53 10.00 334.43 3004.80
   00:19:32.337.01-Feb-2020 3989.40 3223.72 86.53 10.00 334.63 3004.80
   00:19:32.537.01-Feb-2020 3989.40 3223.82 86.53 10.00 334.83 3004.80
   00:19:32.737.01-Feb-2020 3989.40 3223.70 86.53 10.00 335.03 3004.80
   00:19:32.937.01-Feb-2020 3989.40 3223.70 86.53 10.00 335.23 3004.80
   00:19:33.137.01-Feb-2020 3989.40 3223.78 86.53 10.00 335.43 3004.80
   00:19:33.337.01-Feb-2020 3989.40 3223.89 86.53 10.00 335.63 3004.80
   00:19:33.537.01-Feb-2020 3989.40 3223.86 86.53 10.00 335.83 3004.80
   00:19:33.737.01-Feb-2020 3989.40 3223.94 86.53 10.00 336.03 3004.80
   00:19:33.937.01-Feb-2020 3989.40 3223.94 86.53 10.00 336.23 3004.80
   00:19:34.137.01-Feb-2020 3989.40 3223.83 86.52 10.00 336.43 3004.80
   00:19:34.337.01-Feb-2020 3989.40 3223.86 86.52 10.00 336.63 3004.80
   00:19:34.538.01-Feb-2020 3989.40 3223.78 86.52 10.00 336.83 3004.80
   00:19:34.738.01-Feb-2020 3989.40 3223.83 86.52 10.00 337.03 3004.80
   00:19:34.938.01-Feb-2020 3989.40 3223.83 86.52 10.00 337.23 3004.80
   00:19:35.138.01-Feb-2020 3989.40 3223.74 86.52 10.00 337.43 3004.80
   00:19:35.338.01-Feb-2020 3989.40 3223.80 86.52 10.00 337.63 3004.80
   00:19:35.538.01-Feb-2020 3989.40 3223.71 86.52 10.00 337.83 3004.80
   00:19:35.738.01-Feb-2020 3989.40 3223.75 86.52 10.00 338.03 3004.80
   00:19:35.938.01-Feb-2020 3989.40 3223.75 86.52 10.00 338.23 3004.80
   00:19:36.138.01-Feb-2020 3989.40 3223.80 86.52 10.00 338.43 3004.80
   00:19:36.338.01-Feb-2020 3989.40 3223.91 86.52 10.00 338.63 3004.80
   00:19:36.538.01-Feb-2020 3989.40 3223.59 86.52 10.00 338.83 3004.80
