~Version Information
 VERS.                  2.0:   CWLS log ASCII Standard -VERSION 2.0
 WRAP.                   NO:   One line per depth step
~Well Information Block
#MNEM.UNIT     VALUE/NAME     DESCRIPTION
#---------     -----------    ---------------------------
 STRT.S             12:23:22 31-Jan-20: START TIME 12:23:22 31-Jan-20
 STOP.S             12:29:53 31-Jan-20: STOP TIME  12:29:53 31-Jan-20
 STEP.S                   0.00: STEP TIME
 NULL.                 -999.25: NULL VALUE
 DFWT.                        :  DIST FWL TEXT
 DFST.                        :  DIST FSL TEXT
 DMF .             Drill Floor:  DRILL MEAS FROM
 STIM.      09.30.00 26-Dec-19:  START TIME
 DATE.      08.00.00 20-Jan-20:  END TIME
 SPUD.               23-Nov-19:  SPUD DATE
 NREF.                    Grid:  NORTH REFERENCE
 HPTY.       Minimum Curvature:  HOLE POS TYPE
 DMOD.             Drill Model:  DRILL MOD DESC
 SVYD.                  Survey:  SURVEY DESC
 ILTD.               Lithology:  INTERP LTH DESC
 FTOP.          Formation Tops:  FORM TOPS DESC
 SON .        AZ-XX-0906192647:  JOB NUMBER
 WTYP.                Deviated:  WELL TYPE
 COMP.     BP Exploration (Caspian Sea) Ltd:  COMPANY
 BASE.              Azerbaijan:  LOGGING EQUIPMENT BASE LOCATION
 REGN.                 Eurasia:  REGION
 FLD .                     ACG:  FIELD NAME
 SRVC.              KCA Deutag:  CONTRACTOR
 MWDS.                    Baku:  MWD SHOP
 WELL.     A10 (Slot 20) - SCP:  WELL NAME
 JOBN.        AZ-XX-0906192647:  JOB TICKET NUMB
 RIG .                 Chirag1:  RIG NAME
 DCON.     Halliburton Sperry Drilling:  DIRECTNL CONTR
 UNIT.                     N/A:  LOGGING EQUIPMENT ID
 PDAT.          Mean Sea Level:  PERMANENT DATUM
 MDS .        Operator Entered:  MAG DATA SOURCE
 CTRY.              Azerbaijan:  COUNTRY NAME
 UWI .            /AZE00000090:  UNIQUE WELL IDENTIFIER
 API .            /AZE00000090:  API NUMBER
 CNTY.                        :  COUNTY
 PROV.                        :  PROVINCE
 STAT.                        :  STATE
 LOC .                        :  LOCATION
 LMF .             Drill Floor:  LOG MEASURED FROM
 TVDS.m                  36.60:  TVDSS CORRECTN
 LATI.deg                40.08:  LATITUDE
 LONG.deg                51.24:  LONGITUDE
 WHNS.m                  -7.94:  WELL HEAD N/S
 WHEW.m                   1.56:  WELL HEAD E/W
 UTMX.m              520429.26:  UTM X
 UTMY.m             4438973.87:  UTM Y
 DFWL.m                   0.00:  DISTANCE FWL
 DFSL.m                   0.00:  DISTANCE FSL
 SDEP.m                1455.00:  START DEPTH
 TDD .m                4047.51:  TOTAL DEPTH (DRILLER)
 VSDR.deg               112.75:  VERT SEC DIRECT
 GVFD.g                   1.00:  GRAVITY FIELD
 MFLD.nT              50261.00:  MAGNETIC FIELD
 MDIP.deg                59.52:  MAGNETIC DIP
 MDEC.deg                 6.42:  MAGNETIC DECL
 GRDC.deg                 0.17:  GRID CORRECTION
 AZTC.deg                 6.25:  AZM TOTAL CORR
 EPD .m                   0.00:  ELEVATION
 EGL .m                   0.00:  GROUND ELEVATION
 WDMS.m                 121.00:  WD ELEV
 APD .m                  36.60:  DEPTH ABOVE PD
 AGAP.m                  36.60:  AIR GAP
 VSEW.m                   1.56:  VERT SEC E/W
 VSNS.m                  -7.94:  VERT SEC N/S
 DEP .m                1140.01:  DEPTH
 EKB .m                  36.60:  KB ELEVATION
 EDF .m                  36.60:  DF ELEVATION
 TDL .m                 169.50:  TOTAL DEPTH (LOGGER)
 CSGD.m                3875.01:  CASING BOTTOM (DRILLER)
 CSGL.m                3875.01:  CASING BOTTOM (LOGGER)
 CSGS.in                  7.63:  CASING SIZE
 CSGW.lbpf               23.50:  CASING WEIGHT
 VSC .                       0:  VS TO CLOSURE
 MAGU.                 1849206:  MAGUTM CHECKSUM
~Parameter Information Block
#MNEM.UNIT       Value        Description
#---------     -----------    ---------------------------
 AV  .mps                 1.90:  Ann Velocity 
 AVMX.mps                 2.54:  Max Ann Veloc 
 AZIF.deg               137.03:  Azm, Final 
 BHAT.        Rotary Steerable:  BHA Type 
 BREV.rev             23610.00:  Rev Bit Total 
 BROT.°/30m               0.80:  Build Rotating 
 BS  .in                  6.50:  Bit Size 
 BTPL.psig              110.00:  Bit Press Loss 
 CABU.                     Yes:  Customer Abuse 
 COMM.                     Ô W:  Run Comments 1 
 TCS .hr                 70.51:  Time Ciculation Ended 
 CV  .mps                 1.41:  Crit Velocity 
 CVMX.mps                 1.42:  Max Crit Veloc 
 DD1 .         Intigam Rahimov:  Direct Drillr 1 
 DD2 .          Rashad Gojayev:  Direct Drillr 2 
 DDSV.               Geo-Pilot:  DD Service 
 DEFF.%                 100.00:  % Det Eff 
 DLRX.°/30m               1.44:  Dogleg Rot Max 
 DLSO.°/30m               0.00:  Dogleg Oriented 
 DLSX.°/30m               0.00:  Dogleg Str Max 
 DRET.      03.05.00 01-Feb-20:  Drill End Time 
 DRST.      15.50.00 28-Jan-20:  Drill Start Tim 
 DTIM.hr                 24.70:  Time Drilling 
 EDEP.m                4047.51:  End Depth 
 ENG1.           Eldar Hajiyev:  Engineer 1 
 ENG2.          Rasim Hashimov:  Engineer 2 
 ENG3.          Rustam Safarov:  Engineer 3 
 ETIM.      22.00.00 01-Feb-20:  End Time 
 FLOI.gpm               370.00:  Flow In 
 FLON.gpm               300.00:  Flow In Min 
 FLOS.cptm                0.00:  Fluid Loss 
 FLOX.gpm               400.00:  Flow In Max 
 FTRO.       Formation Presure:  FTWD Run Obj 
 HFLO.                      No:  High Flow 
 HPRE.                      No:  High Pressure 
 HTEM.                      No:  High Temp 
 HYDO.m                   2.50:  Hydro Offset 
 IFIN.deg                39.54:  Inc, Final 
 IMAX.deg                41.14:  Inc Max 
 IMIN.deg                39.81:  Inc Min 
 IMND.m                4005.21:  Inc Min Depth 
 IMXD.m                3948.42:  Inc Max Depth 
 JARR.                      No:  Jarring 
 LETM.      03.05.00 01-Feb-20:  Log End Time 
 LOST.hr                     0:  Lost Rig Time 
 LSTM.      15.50.00 28-Jan-20:  Log Start Time 
 MDCL.ppm             37500.00:  Mud Chlorides 
 MDES.     Inversion Oil/Synthetic:  Mud Desc 
 DFD .sg                  1.32:  Mud Density 
 MDMN.sg                  1.32:  Dens Mud Min 
 MDMX.sg                  1.32:  Dens Mud Max 
 MOIL.                      55:  Run Mud Oil % 
 MOWR.                   70:30:  Run Mud OWR 
 MSND.                       0:  Run Mud Sand % 
 MSOL.                      17:  Run Mud Solids% 
 DFV .spqt               80.00:  Mud Viscosity 
 MWOD.in                  4.75:  MWD Tool OD 
 MWSI.                      No:  Serv Intrp, MWD 
 OTIM.hr                121.28:  Time Operating 
 PCON.           Look Like New:  Pad Condition 
 PMAX.psia             6171.00:  Press Op, Max 
 PV  .cP                 30.00:  Mud PV 
 RUN .                     300:  Run Number 
 ROPA.m/hr                5.45:  ROP Avg 
 ROPN.m/hr                3.00:  ROP Min 
 ROPX.m/hr               15.00:  ROP Max 
 RPMA.rpm               130.00:  RPM Surface Avg 
 RPMN.rpm                80.00:  RPM Surface Min 
 RPMX.rpm               140.00:  RPM Surface Max 
 RRUN.                     300:  Rig Run Number 
 RTIM.hr                 13.50:  Time Reaming 
 SAZI.deg               133.93:  Azm, Start 
 SDEP.m                3878.01:  Start Depth 
 SIDD.                      No:  Serv Intrp, DD 
 SINC.deg                40.28:  Inc, Start 
 SPPA.psig             4983.00:  SPP Avg 
 SPPN.psig             4370.00:  SPP Min 
 SPPX.psig             5300.00:  SPP Max 
 STIM.      18.33.36 27-Jan-20:  Start Time 
 SVCS.                 DD, MWD:  Services 
 SVER.                    9.20:  Sperry Version 
 TDAT.m                 169.50:  Tot Depth Attmp 
 TDDF.                      No:  Trip for DD 
 TDLG.m                 169.50:  Tot Depth Loggd 
 TFF .                      No:  Trip for Fail 
 TQAA.f-kp               13.25:  Torque Abs Avg 
 TQAN.f-kp               12.00:  Torque Abs Min 
 TQAX.f-kp               14.00:  Torque Abs Max 
 TRRT.°/30m               0.70:  Turn Rotating 
 MRT .                     ADR:  Maximum Recorded Temperature 
 TTMX.degC               92.16:  Max Tool Temp 
 VS01.       AZ90598764G12V7D4:  Virtual Str1 SN 
 VS02.         AZ90571342R12C4:  Virtual Str2 SN 
 VS03.      AZ90580010N2L2X1C4:  Virtual Str3 SN 
 VS04.        AZ90522266O7X1C4:  Virtual Str4 SN 
 VS05.           AZ90598768F11:  Virtual Str5 SN 
 VS06.     AZ90580006XZ1W1X1C4:  Virtual Str6 SN 
 WBMN.klb                 8.00:  WOB Min 
 WITN.            Peter Wilson:  Customer Rep 
 WOBA.klb                 9.88:  WOB Avg 
 WOBX.klb                10.00:  WOB Max 
 YP  .lhf2               27.00:  Yield Point 
~Curve Information Block
#MNEM.UNIT                 API CODE     Curve Description
#---------               -----------    ---------------------------
 TIME.HHMMSS            00 000 000 000:  GT Time & Date
 GTDEPTH.m              00 000 000 000:  GT Depth
 GTPQH.psia             00 000 000 000:  GT HR Quartz Pressure
 GTTQ.degC              00 000 000 000:  GT Quartz Temperature
 GTTN.NONE              00 000 000 000:  GT Test Number
 GTET.sec               00 000 000 000:  GT Elapsed Test Time
 GTTVD.m                00 000 000 000:  GT True Vertical Depth
#Other Information
#
#WARRANTY: Halliburton will use its best efforts to furnish customers with 
#accurate information and interpretations that are part of, and incident to, the services 
#provided.  However, Halliburton cannot and does not warrant the accuracy 
#or correctness of such information and interpretations.  Under no circumstances should any 
#such information or interpretation be relied upon as the sole basis for any drilling, 
#completion, production, or financial decision or any procedure involving any risk to the 
#safety of any drilling venture, drilling rig or its crew or any other third party.  The 
#Customer has full responsibility for all drilling, completion and production operation.  
#Halliburton makes no representations or warranties, either expressed or 
#implied, including, but not limited to, the implied warranties of merchantability or fitness 
#for a particular purpose, with respect to the services rendered.  In no event will 
#Halliburton be liable for failure to obtain any particular results or for 
#any damages, including, but not limited to, indirect, special or consequential damages, 
#resulting from the use of any information or interpretation provided by Halliburton.
#
~A           TIME           GTDEPTH  GTPQH  GTTQ  GTTN  GTET   GTTVD  
# ...
   12:27:12.617.31-Jan-2020 3939.51 3019.85 83.00 6.00 230.05 2967.06
   12:27:12.817.31-Jan-2020 3939.51 3019.85 83.00 6.00 230.25 2967.06
   12:27:13.017.31-Jan-2020 3939.51 3019.72 83.00 6.00 230.45 2967.06
   12:27:13.217.31-Jan-2020 3939.51 3019.78 83.00 6.00 230.65 2967.06
   12:27:13.417.31-Jan-2020 3939.51 3019.83 83.00 6.00 230.85 2967.06
   12:27:13.617.31-Jan-2020 3939.51 3019.74 83.00 6.00 231.05 2967.06
   12:27:13.817.31-Jan-2020 3939.51 3019.74 83.00 6.00 231.25 2967.06
   12:27:14.018.31-Jan-2020 3939.51 3019.82 83.00 6.00 231.45 2967.06
   12:27:14.218.31-Jan-2020 3939.51 3019.92 83.00 6.00 231.65 2967.06
   12:27:14.418.31-Jan-2020 3939.51 3019.97 83.00 6.00 231.85 2967.06
   12:27:14.618.31-Jan-2020 3939.51 3019.89 83.00 6.00 232.05 2967.06
   12:27:14.818.31-Jan-2020 3939.51 3019.89 83.00 6.00 232.25 2967.06
   12:27:15.018.31-Jan-2020 3939.51 3019.49 83.00 6.00 232.45 2967.06
   12:27:15.218.31-Jan-2020 3939.51 3019.50 83.00 6.00 232.65 2967.06
   12:27:15.418.31-Jan-2020 3939.51 3019.72 83.00 6.00 232.85 2967.06
   12:27:15.618.31-Jan-2020 3939.51 3019.88 83.00 6.00 233.05 2967.06
   12:27:15.818.31-Jan-2020 3939.51 3019.88 83.00 6.00 233.25 2967.06
   12:27:16.018.31-Jan-2020 3939.51 3019.89 83.00 6.00 233.45 2967.06
   12:27:16.218.31-Jan-2020 3939.51 3019.73 82.99 6.00 233.65 2967.06
   12:27:16.418.31-Jan-2020 3939.51 3019.37 82.99 6.00 233.85 2967.06
   12:27:16.618.31-Jan-2020 3939.51 3019.85 82.99 6.00 234.05 2967.06
   12:27:16.818.31-Jan-2020 3939.51 3019.85 82.99 6.00 234.25 2967.06
   12:27:17.018.31-Jan-2020 3939.51 3019.86 82.99 6.00 234.45 2967.06
   12:27:17.218.31-Jan-2020 3939.51 3019.86 82.99 6.00 234.65 2967.06
   12:27:17.418.31-Jan-2020 3939.51 3019.82 82.99 6.00 234.86 2967.06
   12:27:17.618.31-Jan-2020 3939.51 3019.36 82.99 6.00 235.06 2967.06
   12:27:17.818.31-Jan-2020 3939.51 3019.36 82.99 6.00 235.26 2967.06
   12:27:18.018.31-Jan-2020 3939.51 3019.93 82.99 6.00 235.46 2967.06
   12:27:18.219.31-Jan-2020 3939.51 3020.03 82.99 6.00 235.66 2967.06
   12:27:18.419.31-Jan-2020 3939.51 3019.96 82.99 6.00 235.86 2967.06
   12:27:18.619.31-Jan-2020 3939.51 3019.90 82.99 6.00 236.06 2967.06
   12:27:18.819.31-Jan-2020 3939.51 3019.90 82.99 6.00 236.26 2967.06
   12:27:19.019.31-Jan-2020 3939.51 3019.71 82.99 6.00 236.46 2967.06
   12:27:19.219.31-Jan-2020 3939.51 3019.83 82.99 6.00 236.66 2967.06
   12:27:19.419.31-Jan-2020 3939.51 3019.92 82.99 6.00 236.86 2967.06
   12:27:19.619.31-Jan-2020 3939.51 3019.74 82.99 6.00 237.06 2967.06
   12:27:19.819.31-Jan-2020 3939.51 3019.74 82.99 6.00 237.26 2967.06
   12:27:20.019.31-Jan-2020 3939.51 3019.75 82.99 6.00 237.46 2967.06
   12:27:20.219.31-Jan-2020 3939.51 3019.69 82.99 6.00 237.66 2967.06
   12:27:20.419.31-Jan-2020 3939.51 3019.77 82.99 6.00 237.86 2967.06
   12:27:20.619.31-Jan-2020 3939.51 3019.89 82.98 6.00 238.06 2967.06
   12:27:20.819.31-Jan-2020 3939.51 3019.89 82.98 6.00 238.26 2967.06
   12:27:21.019.31-Jan-2020 3939.51 3019.79 82.98 6.00 238.46 2967.06
   12:27:21.219.31-Jan-2020 3939.51 3019.78 82.98 6.00 238.66 2967.06
   12:27:21.419.31-Jan-2020 3939.51 3019.25 82.98 6.00 238.86 2967.06
   12:27:21.619.31-Jan-2020 3939.51 3019.68 82.98 6.00 239.06 2967.06
   12:27:21.819.31-Jan-2020 3939.51 3019.68 82.98 6.00 239.26 2967.06
   12:27:22.019.31-Jan-2020 3939.51 3019.85 82.98 6.00 239.46 2967.06
   12:27:22.219.31-Jan-2020 3939.51 3019.89 82.98 6.00 239.66 2967.06
   12:27:22.420.31-Jan-2020 3939.51 3019.83 82.98 6.00 239.86 2967.06
   12:27:22.620.31-Jan-2020 3939.51 3019.76 82.98 6.00 240.06 2967.06
   12:27:22.820.31-Jan-2020 3939.51 3019.76 82.98 6.00 240.26 2967.06
   12:27:23.020.31-Jan-2020 3939.51 3019.74 82.98 6.00 240.46 2967.06
   12:27:23.220.31-Jan-2020 3939.51 3019.75 82.98 6.00 240.66 2967.06
   12:27:23.420.31-Jan-2020 3939.51 2949.57 82.98 6.00 240.86 2967.06
   12:27:23.620.31-Jan-2020 3939.51 2631.10 82.98 6.00 241.06 2967.06
   12:27:23.820.31-Jan-2020 3939.51 2631.10 82.98 6.00 241.26 2967.06
   12:27:24.020.31-Jan-2020 3939.51 2311.97 82.98 6.00 241.46 2967.06
   12:27:24.220.31-Jan-2020 3939.51 2252.93 82.98 6.00 241.66 2967.06
   12:27:24.420.31-Jan-2020 3939.51 2218.35 82.98 6.00 241.86 2967.06
   12:27:24.620.31-Jan-2020 3939.51 2193.42 82.98 6.00 242.06 2967.06
   12:27:24.820.31-Jan-2020 3939.51 2193.42 82.98 6.00 242.26 2967.06
   12:27:25.020.31-Jan-2020 3939.51 2174.20 82.97 6.00 242.46 2967.06
   12:27:25.220.31-Jan-2020 3939.51 2168.42 82.97 6.00 242.66 2967.06
   12:27:25.420.31-Jan-2020 3939.51 2165.27 82.97 6.00 242.86 2967.06
   12:27:25.620.31-Jan-2020 3939.51 2162.32 82.97 6.00 243.06 2967.06
   12:27:25.820.31-Jan-2020 3939.51 2162.32 82.97 6.00 243.26 2967.06
   12:27:26.020.31-Jan-2020 3939.51 2172.06 82.97 6.00 243.46 2967.06
   12:27:26.220.31-Jan-2020 3939.51 2241.67 82.97 6.00 243.66 2967.06
   12:27:26.420.31-Jan-2020 3939.51 2214.96 82.97 6.00 243.86 2967.06
   12:27:26.620.31-Jan-2020 3939.51 2193.42 82.97 6.00 244.06 2967.06
   12:27:26.821.31-Jan-2020 3939.51 2193.42 82.97 6.00 244.26 2967.06
   12:27:27.021.31-Jan-2020 3939.51 2165.38 82.97 6.00 244.46 2967.06
   12:27:27.221.31-Jan-2020 3939.51 2161.07 82.97 6.00 244.66 2967.06
   12:27:27.421.31-Jan-2020 3939.51 2158.25 82.97 6.00 244.86 2967.06
   12:27:27.621.31-Jan-2020 3939.51 2155.94 82.97 6.00 245.06 2967.06
   12:27:27.821.31-Jan-2020 3939.51 2155.94 82.97 6.00 245.26 2967.06
   12:27:28.021.31-Jan-2020 3939.51 2149.88 82.97 6.00 245.46 2967.06
   12:27:28.221.31-Jan-2020 3939.51 2144.74 82.96 6.00 245.66 2967.06
   12:27:28.421.31-Jan-2020 3939.51 2146.71 82.96 6.00 245.86 2967.06
   12:27:28.621.31-Jan-2020 3939.51 2147.88 82.96 6.00 246.06 2967.06
   12:27:28.821.31-Jan-2020 3939.51 2147.88 82.96 6.00 246.26 2967.06
   12:27:29.021.31-Jan-2020 3939.51 2146.90 82.96 6.00 246.46 2967.06
   12:27:29.221.31-Jan-2020 3939.51 2147.44 82.96 6.00 246.66 2967.06
   12:27:29.421.31-Jan-2020 3939.51 2145.95 82.96 6.00 246.86 2967.06
   12:27:29.621.31-Jan-2020 3939.51 2143.46 82.96 6.00 247.06 2967.06
   12:27:29.821.31-Jan-2020 3939.51 2143.46 82.96 6.00 247.26 2967.06
   12:27:30.021.31-Jan-2020 3939.51 2147.34 82.96 6.00 247.46 2967.06
   12:27:30.221.31-Jan-2020 3939.51 2147.26 82.96 6.00 247.66 2967.06
   12:27:30.421.31-Jan-2020 3939.51 2147.98 82.96 6.00 247.86 2967.06
   12:27:30.621.31-Jan-2020 3939.51 2147.68 82.96 6.00 248.06 2967.06
   12:27:30.821.31-Jan-2020 3939.51 2147.68 82.96 6.00 248.26 2967.06
   12:27:31.022.31-Jan-2020 3939.51 2142.49 82.96 6.00 248.46 2967.06
   12:27:31.222.31-Jan-2020 3939.51 2142.51 82.95 6.00 248.66 2967.06
   12:27:31.422.31-Jan-2020 3939.51 2142.90 82.95 6.00 248.86 2967.06
   12:27:31.622.31-Jan-2020 3939.51 2143.56 82.95 6.00 249.06 2967.06
   12:27:31.822.31-Jan-2020 3939.51 2143.56 82.95 6.00 249.26 2967.06
   12:27:32.022.31-Jan-2020 3939.51 2144.74 82.95 6.00 249.46 2967.06
   12:27:32.222.31-Jan-2020 3939.51 2144.19 82.95 6.00 249.66 2967.06
   12:27:32.422.31-Jan-2020 3939.51 2143.85 82.95 6.00 249.86 2967.06
   12:27:32.622.31-Jan-2020 3939.51 2142.75 82.95 6.00 250.06 2967.06
   12:27:32.822.31-Jan-2020 3939.51 2142.75 82.95 6.00 250.26 2967.06
   12:27:33.022.31-Jan-2020 3939.51 2139.68 82.95 6.00 250.46 2967.06
   12:27:33.222.31-Jan-2020 3939.51 2136.08 82.95 6.00 250.66 2967.06
   12:27:33.422.31-Jan-2020 3939.51 2140.40 82.95 6.00 250.86 2967.06
   12:27:33.622.31-Jan-2020 3939.51 2145.24 82.95 6.00 251.06 2967.06
   12:27:33.822.31-Jan-2020 3939.51 2145.24 82.95 6.00 251.26 2967.06
   12:27:34.022.31-Jan-2020 3939.51 2614.71 82.95 6.00 251.46 2967.06
   12:27:34.222.31-Jan-2020 3939.51 2773.61 82.95 6.00 251.66 2967.06
   12:27:34.422.31-Jan-2020 3939.51 2866.61 82.94 6.00 251.86 2967.06
   12:27:34.622.31-Jan-2020 3939.51 2922.13 82.94 6.00 252.06 2967.06
   12:27:34.822.31-Jan-2020 3939.51 2922.13 82.94 6.00 252.26 2967.06
   12:27:35.022.31-Jan-2020 3939.51 2976.86 82.94 6.00 252.46 2967.06
   12:27:35.223.31-Jan-2020 3939.51 2989.51 82.94 6.00 252.66 2967.06
   12:27:35.423.31-Jan-2020 3939.51 2997.94 82.94 6.00 252.86 2967.06
