~Version Information
 VERS.                  2.0:   CWLS log ASCII Standard -VERSION 2.0
 WRAP.                   NO:   One line per depth step
~Well Information Block
#MNEM.UNIT     VALUE/NAME     DESCRIPTION
#---------     -----------    ---------------------------
 STRT.S             01:28:25 01-Feb-20: START TIME 01:28:25 01-Feb-20
 STOP.S             01:36:19 01-Feb-20: STOP TIME  01:36:19 01-Feb-20
 STEP.S                   0.00: STEP TIME
 NULL.                 -999.25: NULL VALUE
 DFWT.                        :  DIST FWL TEXT
 DFST.                        :  DIST FSL TEXT
 DMF .             Drill Floor:  DRILL MEAS FROM
 STIM.      09.30.00 26-Dec-19:  START TIME
 DATE.      08.00.00 20-Jan-20:  END TIME
 SPUD.               23-Nov-19:  SPUD DATE
 NREF.                    Grid:  NORTH REFERENCE
 HPTY.       Minimum Curvature:  HOLE POS TYPE
 DMOD.             Drill Model:  DRILL MOD DESC
 SVYD.                  Survey:  SURVEY DESC
 ILTD.               Lithology:  INTERP LTH DESC
 FTOP.          Formation Tops:  FORM TOPS DESC
 SON .        AZ-XX-0906192647:  JOB NUMBER
 WTYP.                Deviated:  WELL TYPE
 COMP.     BP Exploration (Caspian Sea) Ltd:  COMPANY
 BASE.              Azerbaijan:  LOGGING EQUIPMENT BASE LOCATION
 REGN.                 Eurasia:  REGION
 FLD .                     ACG:  FIELD NAME
 SRVC.              KCA Deutag:  CONTRACTOR
 MWDS.                    Baku:  MWD SHOP
 WELL.     A10 (Slot 20) - SCP:  WELL NAME
 JOBN.        AZ-XX-0906192647:  JOB TICKET NUMB
 RIG .                 Chirag1:  RIG NAME
 DCON.     Halliburton Sperry Drilling:  DIRECTNL CONTR
 UNIT.                     N/A:  LOGGING EQUIPMENT ID
 PDAT.          Mean Sea Level:  PERMANENT DATUM
 MDS .        Operator Entered:  MAG DATA SOURCE
 CTRY.              Azerbaijan:  COUNTRY NAME
 UWI .            /AZE00000090:  UNIQUE WELL IDENTIFIER
 API .            /AZE00000090:  API NUMBER
 CNTY.                        :  COUNTY
 PROV.                        :  PROVINCE
 STAT.                        :  STATE
 LOC .                        :  LOCATION
 LMF .             Drill Floor:  LOG MEASURED FROM
 TVDS.m                  36.60:  TVDSS CORRECTN
 LATI.deg                40.08:  LATITUDE
 LONG.deg                51.24:  LONGITUDE
 WHNS.m                  -7.94:  WELL HEAD N/S
 WHEW.m                   1.56:  WELL HEAD E/W
 UTMX.m              520429.26:  UTM X
 UTMY.m             4438973.87:  UTM Y
 DFWL.m                   0.00:  DISTANCE FWL
 DFSL.m                   0.00:  DISTANCE FSL
 SDEP.m                1455.00:  START DEPTH
 TDD .m                4047.51:  TOTAL DEPTH (DRILLER)
 VSDR.deg               112.75:  VERT SEC DIRECT
 GVFD.g                   1.00:  GRAVITY FIELD
 MFLD.nT              50261.00:  MAGNETIC FIELD
 MDIP.deg                59.52:  MAGNETIC DIP
 MDEC.deg                 6.42:  MAGNETIC DECL
 GRDC.deg                 0.17:  GRID CORRECTION
 AZTC.deg                 6.25:  AZM TOTAL CORR
 EPD .m                   0.00:  ELEVATION
 EGL .m                   0.00:  GROUND ELEVATION
 WDMS.m                 121.00:  WD ELEV
 APD .m                  36.60:  DEPTH ABOVE PD
 AGAP.m                  36.60:  AIR GAP
 VSEW.m                   1.56:  VERT SEC E/W
 VSNS.m                  -7.94:  VERT SEC N/S
 DEP .m                1140.01:  DEPTH
 EKB .m                  36.60:  KB ELEVATION
 EDF .m                  36.60:  DF ELEVATION
 TDL .m                 169.50:  TOTAL DEPTH (LOGGER)
 CSGD.m                3875.01:  CASING BOTTOM (DRILLER)
 CSGL.m                3875.01:  CASING BOTTOM (LOGGER)
 CSGS.in                  7.63:  CASING SIZE
 CSGW.lbpf               23.50:  CASING WEIGHT
 VSC .                       0:  VS TO CLOSURE
 MAGU.                 1849206:  MAGUTM CHECKSUM
~Parameter Information Block
#MNEM.UNIT       Value        Description
#---------     -----------    ---------------------------
 AV  .mps                 1.90:  Ann Velocity 
 AVMX.mps                 2.54:  Max Ann Veloc 
 AZIF.deg               137.03:  Azm, Final 
 BHAT.        Rotary Steerable:  BHA Type 
 BREV.rev             23610.00:  Rev Bit Total 
 BROT.°/30m               0.80:  Build Rotating 
 BS  .in                  6.50:  Bit Size 
 BTPL.psig              110.00:  Bit Press Loss 
 CABU.                     Yes:  Customer Abuse 
 COMM.                     ì…†:  Run Comments 1 
 TCS .hr                 70.51:  Time Ciculation Ended 
 CV  .mps                 1.41:  Crit Velocity 
 CVMX.mps                 1.42:  Max Crit Veloc 
 DD1 .         Intigam Rahimov:  Direct Drillr 1 
 DD2 .          Rashad Gojayev:  Direct Drillr 2 
 DDSV.               Geo-Pilot:  DD Service 
 DEFF.%                 100.00:  % Det Eff 
 DLRX.°/30m               1.44:  Dogleg Rot Max 
 DLSO.°/30m               0.00:  Dogleg Oriented 
 DLSX.°/30m               0.00:  Dogleg Str Max 
 DRET.      03.05.00 01-Feb-20:  Drill End Time 
 DRST.      15.50.00 28-Jan-20:  Drill Start Tim 
 DTIM.hr                 24.70:  Time Drilling 
 EDEP.m                4047.51:  End Depth 
 ENG1.           Eldar Hajiyev:  Engineer 1 
 ENG2.          Rasim Hashimov:  Engineer 2 
 ENG3.          Rustam Safarov:  Engineer 3 
 ETIM.      22.00.00 01-Feb-20:  End Time 
 FLOI.gpm               370.00:  Flow In 
 FLON.gpm               300.00:  Flow In Min 
 FLOS.cptm                0.00:  Fluid Loss 
 FLOX.gpm               400.00:  Flow In Max 
 FTRO.       Formation Presure:  FTWD Run Obj 
 HFLO.                      No:  High Flow 
 HPRE.                      No:  High Pressure 
 HTEM.                      No:  High Temp 
 HYDO.m                   2.50:  Hydro Offset 
 IFIN.deg                39.54:  Inc, Final 
 IMAX.deg                41.14:  Inc Max 
 IMIN.deg                39.81:  Inc Min 
 IMND.m                4005.21:  Inc Min Depth 
 IMXD.m                3948.42:  Inc Max Depth 
 JARR.                      No:  Jarring 
 LETM.      03.05.00 01-Feb-20:  Log End Time 
 LOST.hr                     0:  Lost Rig Time 
 LSTM.      15.50.00 28-Jan-20:  Log Start Time 
 MDCL.ppm             37500.00:  Mud Chlorides 
 MDES.     Inversion Oil/Synthetic:  Mud Desc 
 DFD .sg                  1.32:  Mud Density 
 MDMN.sg                  1.32:  Dens Mud Min 
 MDMX.sg                  1.32:  Dens Mud Max 
 MOIL.                      55:  Run Mud Oil % 
 MOWR.                   70:30:  Run Mud OWR 
 MSND.                       0:  Run Mud Sand % 
 MSOL.                      17:  Run Mud Solids% 
 DFV .spqt               80.00:  Mud Viscosity 
 MWOD.in                  4.75:  MWD Tool OD 
 MWSI.                      No:  Serv Intrp, MWD 
 OTIM.hr                121.28:  Time Operating 
 PCON.           Look Like New:  Pad Condition 
 PMAX.psia             6171.00:  Press Op, Max 
 PV  .cP                 30.00:  Mud PV 
 RUN .                     300:  Run Number 
 ROPA.m/hr                5.45:  ROP Avg 
 ROPN.m/hr                3.00:  ROP Min 
 ROPX.m/hr               15.00:  ROP Max 
 RPMA.rpm               130.00:  RPM Surface Avg 
 RPMN.rpm                80.00:  RPM Surface Min 
 RPMX.rpm               140.00:  RPM Surface Max 
 RRUN.                     300:  Rig Run Number 
 RTIM.hr                 13.50:  Time Reaming 
 SAZI.deg               133.93:  Azm, Start 
 SDEP.m                3878.01:  Start Depth 
 SIDD.                      No:  Serv Intrp, DD 
 SINC.deg                40.28:  Inc, Start 
 SPPA.psig             4983.00:  SPP Avg 
 SPPN.psig             4370.00:  SPP Min 
 SPPX.psig             5300.00:  SPP Max 
 STIM.      18.33.36 27-Jan-20:  Start Time 
 SVCS.                 DD, MWD:  Services 
 SVER.                    9.20:  Sperry Version 
 TDAT.m                 169.50:  Tot Depth Attmp 
 TDDF.                      No:  Trip for DD 
 TDLG.m                 169.50:  Tot Depth Loggd 
 TFF .                      No:  Trip for Fail 
 TQAA.f-kp               13.25:  Torque Abs Avg 
 TQAN.f-kp               12.00:  Torque Abs Min 
 TQAX.f-kp               14.00:  Torque Abs Max 
 TRRT.°/30m               0.70:  Turn Rotating 
 MRT .                     ADR:  Maximum Recorded Temperature 
 TTMX.degC               92.16:  Max Tool Temp 
 VS01.       AZ90598764G12V7D4:  Virtual Str1 SN 
 VS02.         AZ90571342R12C4:  Virtual Str2 SN 
 VS03.      AZ90580010N2L2X1C4:  Virtual Str3 SN 
 VS04.        AZ90522266O7X1C4:  Virtual Str4 SN 
 VS05.           AZ90598768F11:  Virtual Str5 SN 
 VS06.     AZ90580006XZ1W1X1C4:  Virtual Str6 SN 
 WBMN.klb                 8.00:  WOB Min 
 WITN.            Peter Wilson:  Customer Rep 
 WOBA.klb                 9.88:  WOB Avg 
 WOBX.klb                10.00:  WOB Max 
 YP  .lhf2               27.00:  Yield Point 
~Curve Information Block
#MNEM.UNIT                 API CODE     Curve Description
#---------               -----------    ---------------------------
 TIME.HHMMSS            00 000 000 000:  GT Time & Date
 GTDEPTH.m              00 000 000 000:  GT Depth
 GTPQH.psia             00 000 000 000:  GT HR Quartz Pressure
 GTTQ.degC              00 000 000 000:  GT Quartz Temperature
 GTTN.NONE              00 000 000 000:  GT Test Number
 GTET.sec               00 000 000 000:  GT Elapsed Test Time
 GTTVD.m                00 000 000 000:  GT True Vertical Depth
#Other Information
#
#WARRANTY: Halliburton will use its best efforts to furnish customers with 
#accurate information and interpretations that are part of, and incident to, the services 
#provided.  However, Halliburton cannot and does not warrant the accuracy 
#or correctness of such information and interpretations.  Under no circumstances should any 
#such information or interpretation be relied upon as the sole basis for any drilling, 
#completion, production, or financial decision or any procedure involving any risk to the 
#safety of any drilling venture, drilling rig or its crew or any other third party.  The 
#Customer has full responsibility for all drilling, completion and production operation.  
#Halliburton makes no representations or warranties, either expressed or 
#implied, including, but not limited to, the implied warranties of merchantability or fitness 
#for a particular purpose, with respect to the services rendered.  In no event will 
#Halliburton be liable for failure to obtain any particular results or for 
#any damages, including, but not limited to, indirect, special or consequential damages, 
#resulting from the use of any information or interpretation provided by Halliburton.
#
~A           TIME           GTDEPTH  GTPQH  GTTQ  GTTN   GTET   GTTVD  
# ...
   01:35:58.610.01-Feb-2020 3990.12 6019.05 84.19 11.00 453.59 3005.35
   01:35:58.811.01-Feb-2020 3990.12 6019.05 84.19 11.00 453.79 3005.35
   01:35:59.011.01-Feb-2020 3990.12 6020.54 84.19 11.00 453.99 3005.35
   01:35:59.212.01-Feb-2020 3990.12 6021.50 84.19 11.00 454.19 3005.35
   01:35:59.413.01-Feb-2020 3990.12 6021.37 84.19 11.00 454.39 3005.35
   01:35:59.614.01-Feb-2020 3990.12 6021.82 84.19 11.00 454.59 3005.35
   01:35:59.814.01-Feb-2020 3990.12 6021.82 84.19 11.00 454.79 3005.35
   01:36:00.015.01-Feb-2020 3990.12 6021.31 84.19 11.00 454.99 3005.35
   01:36:00.216.01-Feb-2020 3990.12 6022.13 84.19 11.00 455.19 3005.35
   01:36:00.416.01-Feb-2020 3990.12 6022.36 84.19 11.00 455.39 3005.35
   01:36:00.617.01-Feb-2020 3990.12 6021.76 84.19 11.00 455.59 3005.35
   01:36:00.818.01-Feb-2020 3990.12 6021.76 84.19 11.00 455.79 3005.35
   01:36:01.018.01-Feb-2020 3990.12 6021.60 84.19 11.00 455.99 3005.35
   01:36:01.219.01-Feb-2020 3990.12 6021.99 84.19 11.00 456.20 3005.35
   01:36:01.420.01-Feb-2020 3990.12 6023.65 84.19 11.00 456.40 3005.35
   01:36:01.621.01-Feb-2020 3990.12 6023.00 84.19 11.00 456.60 3005.35
   01:36:01.821.01-Feb-2020 3990.12 6023.00 84.19 11.00 456.80 3005.35
   01:36:02.022.01-Feb-2020 3990.12 6022.36 84.19 11.00 457.00 3005.35
   01:36:02.223.01-Feb-2020 3990.12 6020.45 84.19 11.00 457.20 3005.35
   01:36:02.423.01-Feb-2020 3990.12 6022.03 84.19 11.00 457.40 3005.35
   01:36:02.624.01-Feb-2020 3990.12 6022.10 84.19 11.00 457.60 3005.35
   01:36:02.825.01-Feb-2020 3990.12 6022.10 84.19 11.00 457.80 3005.35
   01:36:03.025.01-Feb-2020 3990.12 6021.55 84.19 11.00 458.00 3005.35
   01:36:03.226.01-Feb-2020 3990.12 6021.22 84.19 11.00 458.20 3005.35
   01:36:03.427.01-Feb-2020 3990.12 6022.06 84.19 11.00 458.40 3005.35
   01:36:03.628.01-Feb-2020 3990.12 6023.76 84.19 11.00 458.60 3005.35
   01:36:03.828.01-Feb-2020 3990.12 6023.76 84.19 11.00 458.80 3005.35
   01:36:04.029.01-Feb-2020 3990.12 6017.04 84.19 11.00 459.00 3005.35
   01:36:04.230.01-Feb-2020 3990.12 6021.95 84.19 11.00 459.21 3005.35
   01:36:04.430.01-Feb-2020 3990.12 6018.32 84.19 11.00 459.41 3005.35
   01:36:04.631.01-Feb-2020 3990.12 6020.85 84.19 11.00 459.61 3005.35
   01:36:04.832.01-Feb-2020 3990.12 6020.85 84.19 11.00 459.81 3005.35
   01:36:05.032.01-Feb-2020 3990.12 6017.98 84.19 11.00 460.01 3005.35
   01:36:05.233.01-Feb-2020 3990.12 6019.30 84.19 11.00 460.21 3005.35
   01:36:05.434.01-Feb-2020 3990.12 6021.33 84.19 11.00 460.41 3005.35
   01:36:05.635.01-Feb-2020 3990.12 6019.53 84.19 11.00 460.61 3005.35
   01:36:05.835.01-Feb-2020 3990.12 6019.53 84.19 11.00 460.81 3005.35
   01:36:06.036.01-Feb-2020 3990.12 6019.94 84.19 11.00 461.01 3005.35
   01:36:06.237.01-Feb-2020 3990.12 6020.86 84.19 11.00 461.21 3005.35
   01:36:06.437.01-Feb-2020 3990.12 6022.11 84.19 11.00 461.41 3005.35
   01:36:06.638.01-Feb-2020 3990.12 6020.69 84.19 11.00 461.61 3005.35
   01:36:06.839.01-Feb-2020 3990.12 6020.69 84.19 11.00 461.81 3005.35
   01:36:07.040.01-Feb-2020 3990.12 6023.23 84.19 11.00 462.02 3005.35
   01:36:07.240.01-Feb-2020 3990.12 6022.21 84.19 11.00 462.22 3005.35
   01:36:07.441.01-Feb-2020 3990.12 6023.08 84.18 11.00 462.42 3005.35
   01:36:07.642.01-Feb-2020 3990.12 6021.81 84.18 11.00 462.62 3005.35
   01:36:07.842.01-Feb-2020 3990.12 6021.81 84.18 11.00 462.82 3005.35
   01:36:08.043.01-Feb-2020 3990.12 6023.73 84.18 11.00 463.02 3005.35
   01:36:08.244.01-Feb-2020 3990.12 6022.25 84.18 11.00 463.22 3005.35
   01:36:08.444.01-Feb-2020 3990.12 6020.72 84.18 11.00 463.42 3005.35
   01:36:08.645.01-Feb-2020 3990.12 6022.37 84.18 11.00 463.62 3005.35
   01:36:08.846.01-Feb-2020 3990.12 6022.37 84.18 11.00 463.82 3005.35
   01:36:09.047.01-Feb-2020 3990.12 6021.89 84.18 11.00 464.02 3005.35
   01:36:09.247.01-Feb-2020 3990.12 6022.26 84.18 11.00 464.22 3005.35
   01:36:09.448.01-Feb-2020 3990.12 6013.65 84.18 11.00 464.42 3005.35
   01:36:09.649.01-Feb-2020 3990.12 6020.16 84.18 11.00 464.62 3005.35
   01:36:09.849.01-Feb-2020 3990.12 6020.16 84.18 11.00 464.83 3005.35
   01:36:10.050.01-Feb-2020 3990.12 6019.54 84.18 11.00 465.03 3005.35
   01:36:10.251.01-Feb-2020 3990.12 6021.86 84.18 11.00 465.23 3005.35
   01:36:10.451.01-Feb-2020 3990.12 6021.00 84.18 11.00 465.43 3005.35
   01:36:10.652.01-Feb-2020 3990.12 6020.66 84.18 11.00 465.63 3005.35
   01:36:10.853.01-Feb-2020 3990.12 6020.66 84.18 11.00 465.83 3005.35
   01:36:11.054.01-Feb-2020 3990.12 6021.01 84.18 11.00 466.03 3005.35
   01:36:11.254.01-Feb-2020 3990.12 6021.81 84.18 11.00 466.23 3005.35
   01:36:11.455.01-Feb-2020 3990.12 6023.73 84.18 11.00 466.43 3005.35
   01:36:11.656.01-Feb-2020 3990.12 6021.54 84.18 11.00 466.63 3005.35
   01:36:11.856.01-Feb-2020 3990.12 6021.54 84.18 11.00 466.83 3005.35
   01:36:12.057.01-Feb-2020 3990.12 6023.01 84.18 11.00 467.03 3005.35
   01:36:12.258.01-Feb-2020 3990.12 6020.57 84.18 11.00 467.23 3005.35
   01:36:12.458.01-Feb-2020 3990.12 6023.54 84.18 11.00 467.43 3005.35
   01:36:12.659.01-Feb-2020 3990.12 6023.41 84.18 11.00 467.64 3005.35
   01:36:12.860.01-Feb-2020 3990.12 6023.41 84.18 11.00 467.84 3005.35
   01:36:13.061.01-Feb-2020 3990.12 6018.64 84.17 11.00 468.04 3005.35
   01:36:13.261.01-Feb-2020 3990.12 6019.98 84.17 11.00 468.24 3005.35
   01:36:13.462.01-Feb-2020 3990.12 6021.75 84.17 11.00 468.44 3005.35
   01:36:13.663.01-Feb-2020 3990.12 6023.69 84.17 11.00 468.64 3005.35
   01:36:13.863.01-Feb-2020 3990.12 6023.69 84.17 11.00 468.84 3005.35
   01:36:14.064.01-Feb-2020 3990.12 6016.98 84.17 11.00 469.04 3005.35
   01:36:14.265.01-Feb-2020 3990.12 6021.55 84.17 11.00 469.24 3005.35
   01:36:14.465.01-Feb-2020 3990.12 6021.39 84.17 11.00 469.44 3005.35
   01:36:14.666.01-Feb-2020 3990.12 6023.27 84.17 11.00 469.64 3005.35
   01:36:14.867.01-Feb-2020 3990.12 6023.27 84.17 11.00 469.84 3005.35
   01:36:15.068.01-Feb-2020 3990.12 6021.84 84.17 11.00 470.04 3005.35
   01:36:15.268.01-Feb-2020 3990.12 6017.74 84.17 11.00 470.24 3005.35
   01:36:15.469.01-Feb-2020 3990.12 6020.73 84.17 11.00 470.44 3005.35
   01:36:15.670.01-Feb-2020 3990.12 6019.67 84.17 11.00 470.65 3005.35
   01:36:15.870.01-Feb-2020 3990.12 6019.67 84.17 11.00 470.85 3005.35
   01:36:16.071.01-Feb-2020 3990.12 6018.89 84.17 11.00 471.05 3005.35
   01:36:16.272.01-Feb-2020 3990.12 6018.76 84.17 11.00 471.25 3005.35
   01:36:16.472.01-Feb-2020 3990.12 6019.70 84.17 11.00 471.45 3005.35
   01:36:16.673.01-Feb-2020 3990.12 6019.80 84.17 11.00 471.65 3005.35
   01:36:16.874.01-Feb-2020 3990.12 6019.80 84.17 11.00 471.85 3005.35
   01:36:17.075.01-Feb-2020 3990.12 6022.53 84.17 11.00 472.05 3005.35
   01:36:17.275.01-Feb-2020 3990.12 6016.07 84.17 11.00 472.25 3005.35
   01:36:17.476.01-Feb-2020 3990.12 6021.88 84.17 11.00 472.45 3005.35
   01:36:17.677.01-Feb-2020 3990.12 6018.57 84.17 11.00 472.65 3005.35
   01:36:17.877.01-Feb-2020 3990.12 6018.57 84.17 11.00 472.85 3005.35
   01:36:18.078.01-Feb-2020 3990.12 6022.49 84.17 11.00 473.05 3005.35
   01:36:18.279.01-Feb-2020 3990.12 6022.33 84.17 11.00 473.25 3005.35
   01:36:18.480.01-Feb-2020 3990.12 6023.56 84.16 11.00 473.46 3005.35
   01:36:18.680.01-Feb-2020 3990.12 6023.98 84.16 11.00 473.66 3005.35
   01:36:18.881.01-Feb-2020 3990.12 6023.98 84.16 11.00 473.86 3005.35
   01:36:19.082.01-Feb-2020 3990.12 6023.15 84.16 11.00 474.06 3005.35
   01:36:19.282.01-Feb-2020 3990.12 6023.71 84.16 11.00 474.26 3005.35
   01:36:19.483.01-Feb-2020 3990.12 6021.69 84.16 11.00 474.46 3005.35
