~Version Information
 VERS.                  2.0:   CWLS log ASCII Standard -VERSION 2.0
 WRAP.                   NO:   One line per depth step
~Well Information Block
#MNEM.UNIT     VALUE/NAME     DESCRIPTION
#---------     -----------    ---------------------------
 STRT.S             00:13:57 01-Feb-20: START TIME 00:13:57 01-Feb-20
 STOP.S             00:20:28 01-Feb-20: STOP TIME  00:20:28 01-Feb-20
 STEP.S                   0.00: STEP TIME
 NULL.                 -999.25: NULL VALUE
 DFWT.                        :  DIST FWL TEXT
 DFST.                        :  DIST FSL TEXT
 DMF .             Drill Floor:  DRILL MEAS FROM
 STIM.      09.30.00 26-Dec-19:  START TIME
 DATE.      08.00.00 20-Jan-20:  END TIME
 SPUD.               23-Nov-19:  SPUD DATE
 NREF.                    Grid:  NORTH REFERENCE
 HPTY.       Minimum Curvature:  HOLE POS TYPE
 DMOD.             Drill Model:  DRILL MOD DESC
 SVYD.                  Survey:  SURVEY DESC
 ILTD.               Lithology:  INTERP LTH DESC
 FTOP.          Formation Tops:  FORM TOPS DESC
 SON .        AZ-XX-0906192647:  JOB NUMBER
 WTYP.                Deviated:  WELL TYPE
 COMP.     BP Exploration (Caspian Sea) Ltd:  COMPANY
 BASE.              Azerbaijan:  LOGGING EQUIPMENT BASE LOCATION
 REGN.                 Eurasia:  REGION
 FLD .                     ACG:  FIELD NAME
 SRVC.              KCA Deutag:  CONTRACTOR
 MWDS.                    Baku:  MWD SHOP
 WELL.     A10 (Slot 20) - SCP:  WELL NAME
 JOBN.        AZ-XX-0906192647:  JOB TICKET NUMB
 RIG .                 Chirag1:  RIG NAME
 DCON.     Halliburton Sperry Drilling:  DIRECTNL CONTR
 UNIT.                     N/A:  LOGGING EQUIPMENT ID
 PDAT.          Mean Sea Level:  PERMANENT DATUM
 MDS .        Operator Entered:  MAG DATA SOURCE
 CTRY.              Azerbaijan:  COUNTRY NAME
 UWI .            /AZE00000090:  UNIQUE WELL IDENTIFIER
 API .            /AZE00000090:  API NUMBER
 CNTY.                        :  COUNTY
 PROV.                        :  PROVINCE
 STAT.                        :  STATE
 LOC .                        :  LOCATION
 LMF .             Drill Floor:  LOG MEASURED FROM
 TVDS.m                  36.60:  TVDSS CORRECTN
 LATI.deg                40.08:  LATITUDE
 LONG.deg                51.24:  LONGITUDE
 WHNS.m                  -7.94:  WELL HEAD N/S
 WHEW.m                   1.56:  WELL HEAD E/W
 UTMX.m              520429.26:  UTM X
 UTMY.m             4438973.87:  UTM Y
 DFWL.m                   0.00:  DISTANCE FWL
 DFSL.m                   0.00:  DISTANCE FSL
 SDEP.m                1455.00:  START DEPTH
 TDD .m                4047.51:  TOTAL DEPTH (DRILLER)
 VSDR.deg               112.75:  VERT SEC DIRECT
 GVFD.g                   1.00:  GRAVITY FIELD
 MFLD.nT              50261.00:  MAGNETIC FIELD
 MDIP.deg                59.52:  MAGNETIC DIP
 MDEC.deg                 6.42:  MAGNETIC DECL
 GRDC.deg                 0.17:  GRID CORRECTION
 AZTC.deg                 6.25:  AZM TOTAL CORR
 EPD .m                   0.00:  ELEVATION
 EGL .m                   0.00:  GROUND ELEVATION
 WDMS.m                 121.00:  WD ELEV
 APD .m                  36.60:  DEPTH ABOVE PD
 AGAP.m                  36.60:  AIR GAP
 VSEW.m                   1.56:  VERT SEC E/W
 VSNS.m                  -7.94:  VERT SEC N/S
 DEP .m                1140.01:  DEPTH
 EKB .m                  36.60:  KB ELEVATION
 EDF .m                  36.60:  DF ELEVATION
 TDL .m                 169.50:  TOTAL DEPTH (LOGGER)
 CSGD.m                3875.01:  CASING BOTTOM (DRILLER)
 CSGL.m                3875.01:  CASING BOTTOM (LOGGER)
 CSGS.in                  7.63:  CASING SIZE
 CSGW.lbpf               23.50:  CASING WEIGHT
 VSC .                       0:  VS TO CLOSURE
 MAGU.                 1849206:  MAGUTM CHECKSUM
~Parameter Information Block
#MNEM.UNIT       Value        Description
#---------     -----------    ---------------------------
 AV  .mps                 1.90:  Ann Velocity 
 AVMX.mps                 2.54:  Max Ann Veloc 
 AZIF.deg               137.03:  Azm, Final 
 BHAT.        Rotary Steerable:  BHA Type 
 BREV.rev             23610.00:  Rev Bit Total 
 BROT.°/30m               0.80:  Build Rotating 
 BS  .in                  6.50:  Bit Size 
 BTPL.psig              110.00:  Bit Press Loss 
 CABU.                     Yes:  Customer Abuse 
 TCS .hr                 70.51:  Time Ciculation Ended 
 CV  .mps                 1.41:  Crit Velocity 
 CVMX.mps                 1.42:  Max Crit Veloc 
 DD1 .         Intigam Rahimov:  Direct Drillr 1 
 DD2 .          Rashad Gojayev:  Direct Drillr 2 
 DDSV.               Geo-Pilot:  DD Service 
 DEFF.%                 100.00:  % Det Eff 
 DLRX.°/30m               1.44:  Dogleg Rot Max 
 DLSO.°/30m               0.00:  Dogleg Oriented 
 DLSX.°/30m               0.00:  Dogleg Str Max 
 DRET.      03.05.00 01-Feb-20:  Drill End Time 
 DRST.      15.50.00 28-Jan-20:  Drill Start Tim 
 DTIM.hr                 24.70:  Time Drilling 
 EDEP.m                4047.51:  End Depth 
 ENG1.           Eldar Hajiyev:  Engineer 1 
 ENG2.          Rasim Hashimov:  Engineer 2 
 ENG3.          Rustam Safarov:  Engineer 3 
 ETIM.      22.00.00 01-Feb-20:  End Time 
 FLOI.gpm               370.00:  Flow In 
 FLON.gpm               300.00:  Flow In Min 
 FLOS.cptm                0.00:  Fluid Loss 
 FLOX.gpm               400.00:  Flow In Max 
 FTRO.       Formation Presure:  FTWD Run Obj 
 HFLO.                      No:  High Flow 
 HPRE.                      No:  High Pressure 
 HTEM.                      No:  High Temp 
 HYDO.m                   2.50:  Hydro Offset 
 IFIN.deg                39.54:  Inc, Final 
 IMAX.deg                41.14:  Inc Max 
 IMIN.deg                39.81:  Inc Min 
 IMND.m                4005.21:  Inc Min Depth 
 IMXD.m                3948.42:  Inc Max Depth 
 JARR.                      No:  Jarring 
 LETM.      03.05.00 01-Feb-20:  Log End Time 
 LOST.hr                     0:  Lost Rig Time 
 LSTM.      15.50.00 28-Jan-20:  Log Start Time 
 MDCL.ppm             37500.00:  Mud Chlorides 
 MDES.     Inversion Oil/Synthetic:  Mud Desc 
 DFD .sg                  1.32:  Mud Density 
 MDMN.sg                  1.32:  Dens Mud Min 
 MDMX.sg                  1.32:  Dens Mud Max 
 MOIL.                      55:  Run Mud Oil % 
 MOWR.                   70:30:  Run Mud OWR 
 MSND.                       0:  Run Mud Sand % 
 MSOL.                      17:  Run Mud Solids% 
 DFV .spqt               80.00:  Mud Viscosity 
 MWOD.in                  4.75:  MWD Tool OD 
 MWSI.                      No:  Serv Intrp, MWD 
 OTIM.hr                121.28:  Time Operating 
 PCON.           Look Like New:  Pad Condition 
 PMAX.psia             6171.00:  Press Op, Max 
 PV  .cP                 30.00:  Mud PV 
 RUN .                     300:  Run Number 
 ROPA.m/hr                5.45:  ROP Avg 
 ROPN.m/hr                3.00:  ROP Min 
 ROPX.m/hr               15.00:  ROP Max 
 RPMA.rpm               130.00:  RPM Surface Avg 
 RPMN.rpm                80.00:  RPM Surface Min 
 RPMX.rpm               140.00:  RPM Surface Max 
 RRUN.                     300:  Rig Run Number 
 RTIM.hr                 13.50:  Time Reaming 
 SAZI.deg               133.93:  Azm, Start 
 SDEP.m                3878.01:  Start Depth 
 SIDD.                      No:  Serv Intrp, DD 
 SINC.deg                40.28:  Inc, Start 
 SPPA.psig             4983.00:  SPP Avg 
 SPPN.psig             4370.00:  SPP Min 
 SPPX.psig             5300.00:  SPP Max 
 STIM.      18.33.36 27-Jan-20:  Start Time 
 SVCS.                 DD, MWD:  Services 
 SVER.                    9.20:  Sperry Version 
 TDAT.m                 169.50:  Tot Depth Attmp 
 TDDF.                      No:  Trip for DD 
 TDLG.m                 169.50:  Tot Depth Loggd 
 TFF .                      No:  Trip for Fail 
 TQAA.f-kp               13.25:  Torque Abs Avg 
 TQAN.f-kp               12.00:  Torque Abs Min 
 TQAX.f-kp               14.00:  Torque Abs Max 
 TRRT.°/30m               0.70:  Turn Rotating 
 MRT .                     ADR:  Maximum Recorded Temperature 
 TTMX.degC               92.16:  Max Tool Temp 
 VS01.       AZ90598764G12V7D4:  Virtual Str1 SN 
 VS02.         AZ90571342R12C4:  Virtual Str2 SN 
 VS03.      AZ90580010N2L2X1C4:  Virtual Str3 SN 
 VS04.        AZ90522266O7X1C4:  Virtual Str4 SN 
 VS05.           AZ90598768F11:  Virtual Str5 SN 
 VS06.     AZ90580006XZ1W1X1C4:  Virtual Str6 SN 
 WBMN.klb                 8.00:  WOB Min 
 WITN.            Peter Wilson:  Customer Rep 
 WOBA.klb                 9.88:  WOB Avg 
 WOBX.klb                10.00:  WOB Max 
 YP  .lhf2               27.00:  Yield Point 
~Curve Information Block
#MNEM.UNIT                 API CODE     Curve Description
#---------               -----------    ---------------------------
 TIME.HHMMSS            00 000 000 000:  GT Time & Date
 GTDEPTH.m              00 000 000 000:  GT Depth
 GTPQH.psia             00 000 000 000:  GT HR Quartz Pressure
 GTTQ.degC              00 000 000 000:  GT Quartz Temperature
 GTTN.NONE              00 000 000 000:  GT Test Number
 GTET.sec               00 000 000 000:  GT Elapsed Test Time
 GTTVD.m                00 000 000 000:  GT True Vertical Depth
#Other Information
#
#WARRANTY: Halliburton will use its best efforts to furnish customers with 
#accurate information and interpretations that are part of, and incident to, the services 
#provided.  However, Halliburton cannot and does not warrant the accuracy 
#or correctness of such information and interpretations.  Under no circumstances should any 
#such information or interpretation be relied upon as the sole basis for any drilling, 
#completion, production, or financial decision or any procedure involving any risk to the 
#safety of any drilling venture, drilling rig or its crew or any other third party.  The 
#Customer has full responsibility for all drilling, completion and production operation.  
#Halliburton makes no representations or warranties, either expressed or 
#implied, including, but not limited to, the implied warranties of merchantability or fitness 
#for a particular purpose, with respect to the services rendered.  In no event will 
#Halliburton be liable for failure to obtain any particular results or for 
#any damages, including, but not limited to, indirect, special or consequential damages, 
#resulting from the use of any information or interpretation provided by Halliburton.
#
~A           TIME           GTDEPTH  GTPQH  GTTQ  GTTN   GTET   GTTVD  
# ...
   00:16:13.320.01-Feb-2020 3989.40 1952.49 87.13 10.00 135.61 3004.80
   00:16:13.520.01-Feb-2020 3989.40 1941.58 87.13 10.00 135.81 3004.80
   00:16:13.720.01-Feb-2020 3989.40 1934.90 87.13 10.00 136.01 3004.80
   00:16:13.920.01-Feb-2020 3989.40 1934.90 87.13 10.00 136.21 3004.80
   00:16:14.120.01-Feb-2020 3989.40 1923.99 87.13 10.00 136.41 3004.80
   00:16:14.320.01-Feb-2020 3989.40 1921.93 87.13 10.00 136.61 3004.80
   00:16:14.520.01-Feb-2020 3989.40 1920.55 87.13 10.00 136.81 3004.80
   00:16:14.720.01-Feb-2020 3989.40 1916.94 87.13 10.00 137.01 3004.80
   00:16:14.920.01-Feb-2020 3989.40 1916.94 87.13 10.00 137.21 3004.80
   00:16:15.120.01-Feb-2020 3989.40 1911.37 87.13 10.00 137.41 3004.80
   00:16:15.320.01-Feb-2020 3989.40 1906.55 87.12 10.00 137.61 3004.80
   00:16:15.520.01-Feb-2020 3989.40 1908.90 87.12 10.00 137.81 3004.80
   00:16:15.720.01-Feb-2020 3989.40 1908.12 87.12 10.00 138.01 3004.80
   00:16:15.920.01-Feb-2020 3989.40 1908.12 87.12 10.00 138.21 3004.80
   00:16:16.120.01-Feb-2020 3989.40 1908.03 87.12 10.00 138.41 3004.80
   00:16:16.320.01-Feb-2020 3989.40 1903.12 87.12 10.00 138.61 3004.80
   00:16:16.520.01-Feb-2020 3989.40 1902.76 87.12 10.00 138.81 3004.80
   00:16:16.720.01-Feb-2020 3989.40 1903.25 87.12 10.00 139.01 3004.80
   00:16:16.920.01-Feb-2020 3989.40 1903.25 87.12 10.00 139.21 3004.80
   00:16:17.120.01-Feb-2020 3989.40 1901.97 87.11 10.00 139.41 3004.80
   00:16:17.320.01-Feb-2020 3989.40 1900.32 87.11 10.00 139.61 3004.80
   00:16:17.520.01-Feb-2020 3989.40 1896.51 87.11 10.00 139.81 3004.80
   00:16:17.720.01-Feb-2020 3989.40 1896.84 87.11 10.00 140.01 3004.80
   00:16:17.920.01-Feb-2020 3989.40 1896.84 87.11 10.00 140.21 3004.80
   00:16:18.120.01-Feb-2020 3989.40 1896.95 87.11 10.00 140.41 3004.80
   00:16:18.320.01-Feb-2020 3989.40 1898.77 87.11 10.00 140.61 3004.80
   00:16:18.520.01-Feb-2020 3989.40 1898.72 87.11 10.00 140.81 3004.80
   00:16:18.720.01-Feb-2020 3989.40 1899.85 87.11 10.00 141.01 3004.80
   00:16:18.920.01-Feb-2020 3989.40 1899.85 87.11 10.00 141.21 3004.80
   00:16:19.120.01-Feb-2020 3989.40 1896.07 87.11 10.00 141.41 3004.80
   00:16:19.320.01-Feb-2020 3989.40 1897.13 87.10 10.00 141.61 3004.80
   00:16:19.520.01-Feb-2020 3989.40 1895.44 87.10 10.00 141.81 3004.80
   00:16:19.720.01-Feb-2020 3989.40 1896.24 87.10 10.00 142.01 3004.80
   00:16:19.920.01-Feb-2020 3989.40 1896.24 87.10 10.00 142.21 3004.80
   00:16:20.120.01-Feb-2020 3989.40 1894.88 87.10 10.00 142.41 3004.80
   00:16:20.320.01-Feb-2020 3989.40 1895.41 87.10 10.00 142.61 3004.80
   00:16:20.520.01-Feb-2020 3989.40 1896.67 87.10 10.00 142.81 3004.80
   00:16:20.720.01-Feb-2020 3989.40 1894.81 87.10 10.00 143.01 3004.80
   00:16:20.920.01-Feb-2020 3989.40 1894.81 87.10 10.00 143.21 3004.80
   00:16:21.121.01-Feb-2020 3989.40 1893.42 87.09 10.00 143.41 3004.80
   00:16:21.321.01-Feb-2020 3989.40 1893.79 87.09 10.00 143.61 3004.80
   00:16:21.521.01-Feb-2020 3989.40 1894.77 87.09 10.00 143.81 3004.80
   00:16:21.721.01-Feb-2020 3989.40 1920.70 87.09 10.00 144.01 3004.80
   00:16:21.921.01-Feb-2020 3989.40 1920.70 87.09 10.00 144.21 3004.80
   00:16:22.121.01-Feb-2020 3989.40 2543.37 87.09 10.00 144.41 3004.80
   00:16:22.321.01-Feb-2020 3989.40 2743.45 87.09 10.00 144.61 3004.80
   00:16:22.521.01-Feb-2020 3989.40 2875.81 87.09 10.00 144.81 3004.80
   00:16:22.721.01-Feb-2020 3989.40 2964.63 87.09 10.00 145.01 3004.80
   00:16:22.921.01-Feb-2020 3989.40 2964.63 87.09 10.00 145.21 3004.80
   00:16:23.121.01-Feb-2020 3989.40 3068.34 87.09 10.00 145.41 3004.80
   00:16:23.321.01-Feb-2020 3989.40 3098.20 87.09 10.00 145.61 3004.80
   00:16:23.521.01-Feb-2020 3989.40 3120.72 87.08 10.00 145.81 3004.80
   00:16:23.721.01-Feb-2020 3989.40 3137.21 87.08 10.00 146.01 3004.80
   00:16:23.921.01-Feb-2020 3989.40 3137.21 87.08 10.00 146.21 3004.80
   00:16:24.121.01-Feb-2020 3989.40 3159.38 87.08 10.00 146.41 3004.80
   00:16:24.321.01-Feb-2020 3989.40 3167.21 87.08 10.00 146.61 3004.80
   00:16:24.521.01-Feb-2020 3989.40 3172.97 87.08 10.00 146.81 3004.80
   00:16:24.721.01-Feb-2020 3989.40 3177.05 87.08 10.00 147.01 3004.80
   00:16:24.921.01-Feb-2020 3989.40 3177.05 87.08 10.00 147.21 3004.80
   00:16:25.121.01-Feb-2020 3989.40 3184.91 87.08 10.00 147.41 3004.80
   00:16:25.321.01-Feb-2020 3989.40 3187.98 87.08 10.00 147.61 3004.80
   00:16:25.521.01-Feb-2020 3989.40 3190.58 87.08 10.00 147.81 3004.80
   00:16:25.721.01-Feb-2020 3989.40 3192.05 87.08 10.00 148.01 3004.80
   00:16:25.921.01-Feb-2020 3989.40 3192.05 87.08 10.00 148.21 3004.80
   00:16:26.121.01-Feb-2020 3989.40 3195.72 87.08 10.00 148.41 3004.80
   00:16:26.321.01-Feb-2020 3989.40 3197.29 87.08 10.00 148.61 3004.80
   00:16:26.521.01-Feb-2020 3989.40 3198.67 87.08 10.00 148.81 3004.80
   00:16:26.721.01-Feb-2020 3989.40 3199.70 87.08 10.00 149.01 3004.80
   00:16:26.921.01-Feb-2020 3989.40 3199.70 87.08 10.00 149.21 3004.80
   00:16:27.121.01-Feb-2020 3989.40 3201.37 87.08 10.00 149.41 3004.80
   00:16:27.321.01-Feb-2020 3989.40 3202.34 87.07 10.00 149.61 3004.80
   00:16:27.521.01-Feb-2020 3989.40 3203.31 87.07 10.00 149.81 3004.80
   00:16:27.721.01-Feb-2020 3989.40 3204.21 87.07 10.00 150.01 3004.80
   00:16:27.921.01-Feb-2020 3989.40 3204.21 87.07 10.00 150.21 3004.80
   00:16:28.121.01-Feb-2020 3989.40 3205.42 87.07 10.00 150.41 3004.80
   00:16:28.321.01-Feb-2020 3989.40 3206.04 87.07 10.00 150.61 3004.80
   00:16:28.521.01-Feb-2020 3989.40 3206.48 87.07 10.00 150.81 3004.80
   00:16:28.721.01-Feb-2020 3989.40 3206.93 87.07 10.00 151.01 3004.80
   00:16:28.921.01-Feb-2020 3989.40 3206.93 87.07 10.00 151.21 3004.80
   00:16:29.121.01-Feb-2020 3989.40 3207.79 87.07 10.00 151.41 3004.80
   00:16:29.321.01-Feb-2020 3989.40 3208.28 87.07 10.00 151.61 3004.80
   00:16:29.521.01-Feb-2020 3989.40 3208.71 87.07 10.00 151.81 3004.80
   00:16:29.721.01-Feb-2020 3989.40 3209.06 87.07 10.00 152.01 3004.80
   00:16:29.921.01-Feb-2020 3989.40 3209.06 87.07 10.00 152.21 3004.80
   00:16:30.121.01-Feb-2020 3989.40 3209.86 87.07 10.00 152.41 3004.80
   00:16:30.321.01-Feb-2020 3989.40 3210.22 87.07 10.00 152.61 3004.80
   00:16:30.521.01-Feb-2020 3989.40 3210.61 87.07 10.00 152.81 3004.80
   00:16:30.721.01-Feb-2020 3989.40 3210.99 87.07 10.00 153.01 3004.80
   00:16:30.921.01-Feb-2020 3989.40 3210.99 87.07 10.00 153.21 3004.80
   00:16:31.121.01-Feb-2020 3989.40 3211.31 87.07 10.00 153.41 3004.80
   00:16:31.321.01-Feb-2020 3989.40 3211.59 87.07 10.00 153.61 3004.80
   00:16:31.521.01-Feb-2020 3989.40 3211.90 87.07 10.00 153.81 3004.80
   00:16:31.721.01-Feb-2020 3989.40 3212.22 87.06 10.00 154.01 3004.80
   00:16:31.921.01-Feb-2020 3989.40 3212.22 87.06 10.00 154.21 3004.80
   00:16:32.121.01-Feb-2020 3989.40 3212.65 87.06 10.00 154.41 3004.80
   00:16:32.321.01-Feb-2020 3989.40 3212.90 87.06 10.00 154.61 3004.80
   00:16:32.522.01-Feb-2020 3989.40 3213.00 87.06 10.00 154.81 3004.80
   00:16:32.722.01-Feb-2020 3989.40 3213.31 87.06 10.00 155.01 3004.80
   00:16:32.922.01-Feb-2020 3989.40 3213.31 87.06 10.00 155.21 3004.80
   00:16:33.122.01-Feb-2020 3989.40 3213.66 87.06 10.00 155.41 3004.80
   00:16:33.322.01-Feb-2020 3989.40 3213.90 87.06 10.00 155.61 3004.80
   00:16:33.522.01-Feb-2020 3989.40 3213.97 87.06 10.00 155.81 3004.80
   00:16:33.722.01-Feb-2020 3989.40 3214.14 87.06 10.00 156.01 3004.80
   00:16:33.922.01-Feb-2020 3989.40 3214.14 87.06 10.00 156.21 3004.80
   00:16:34.122.01-Feb-2020 3989.40 3214.25 87.06 10.00 156.41 3004.80
   00:16:34.322.01-Feb-2020 3989.40 3214.59 87.06 10.00 156.61 3004.80
   00:16:34.522.01-Feb-2020 3989.40 3214.86 87.06 10.00 156.81 3004.80
   00:16:34.722.01-Feb-2020 3989.40 3214.88 87.06 10.00 157.01 3004.80
   00:16:34.922.01-Feb-2020 3989.40 3214.88 87.06 10.00 157.21 3004.80
   00:16:35.122.01-Feb-2020 3989.40 3215.03 87.06 10.00 157.41 3004.80
   00:16:35.322.01-Feb-2020 3989.40 3215.22 87.06 10.00 157.61 3004.80
   00:16:35.522.01-Feb-2020 3989.40 3215.55 87.06 10.00 157.81 3004.80
   00:16:35.722.01-Feb-2020 3989.40 3215.69 87.05 10.00 158.01 3004.80
