~Version Information
 VERS.                  2.0:   CWLS log ASCII Standard -VERSION 2.0
 WRAP.                   NO:   One line per depth step
~Well Information Block
#MNEM.UNIT     VALUE/NAME     DESCRIPTION
#---------     -----------    ---------------------------
 STRT.S             18:23:56 31-Jan-20: START TIME 18:23:56 31-Jan-20
 STOP.S             18:30:28 31-Jan-20: STOP TIME  18:30:28 31-Jan-20
 STEP.S                   0.00: STEP TIME
 NULL.                 -999.25: NULL VALUE
 DFWT.                        :  DIST FWL TEXT
 DFST.                        :  DIST FSL TEXT
 DMF .             Drill Floor:  DRILL MEAS FROM
 STIM.      09.30.00 26-Dec-19:  START TIME
 DATE.      08.00.00 20-Jan-20:  END TIME
 SPUD.               23-Nov-19:  SPUD DATE
 NREF.                    Grid:  NORTH REFERENCE
 HPTY.       Minimum Curvature:  HOLE POS TYPE
 DMOD.             Drill Model:  DRILL MOD DESC
 SVYD.                  Survey:  SURVEY DESC
 ILTD.               Lithology:  INTERP LTH DESC
 FTOP.          Formation Tops:  FORM TOPS DESC
 SON .        AZ-XX-0906192647:  JOB NUMBER
 WTYP.                Deviated:  WELL TYPE
 COMP.     BP Exploration (Caspian Sea) Ltd:  COMPANY
 BASE.              Azerbaijan:  LOGGING EQUIPMENT BASE LOCATION
 REGN.                 Eurasia:  REGION
 FLD .                     ACG:  FIELD NAME
 SRVC.              KCA Deutag:  CONTRACTOR
 MWDS.                    Baku:  MWD SHOP
 WELL.     A10 (Slot 20) - SCP:  WELL NAME
 JOBN.        AZ-XX-0906192647:  JOB TICKET NUMB
 RIG .                 Chirag1:  RIG NAME
 DCON.     Halliburton Sperry Drilling:  DIRECTNL CONTR
 UNIT.                     N/A:  LOGGING EQUIPMENT ID
 PDAT.          Mean Sea Level:  PERMANENT DATUM
 MDS .        Operator Entered:  MAG DATA SOURCE
 CTRY.              Azerbaijan:  COUNTRY NAME
 UWI .            /AZE00000090:  UNIQUE WELL IDENTIFIER
 API .            /AZE00000090:  API NUMBER
 CNTY.                        :  COUNTY
 PROV.                        :  PROVINCE
 STAT.                        :  STATE
 LOC .                        :  LOCATION
 LMF .             Drill Floor:  LOG MEASURED FROM
 TVDS.m                  36.60:  TVDSS CORRECTN
 LATI.deg                40.08:  LATITUDE
 LONG.deg                51.24:  LONGITUDE
 WHNS.m                  -7.94:  WELL HEAD N/S
 WHEW.m                   1.56:  WELL HEAD E/W
 UTMX.m              520429.26:  UTM X
 UTMY.m             4438973.87:  UTM Y
 DFWL.m                   0.00:  DISTANCE FWL
 DFSL.m                   0.00:  DISTANCE FSL
 SDEP.m                1455.00:  START DEPTH
 TDD .m                4047.51:  TOTAL DEPTH (DRILLER)
 VSDR.deg               112.75:  VERT SEC DIRECT
 GVFD.g                   1.00:  GRAVITY FIELD
 MFLD.nT              50261.00:  MAGNETIC FIELD
 MDIP.deg                59.52:  MAGNETIC DIP
 MDEC.deg                 6.42:  MAGNETIC DECL
 GRDC.deg                 0.17:  GRID CORRECTION
 AZTC.deg                 6.25:  AZM TOTAL CORR
 EPD .m                   0.00:  ELEVATION
 EGL .m                   0.00:  GROUND ELEVATION
 WDMS.m                 121.00:  WD ELEV
 APD .m                  36.60:  DEPTH ABOVE PD
 AGAP.m                  36.60:  AIR GAP
 VSEW.m                   1.56:  VERT SEC E/W
 VSNS.m                  -7.94:  VERT SEC N/S
 DEP .m                1140.01:  DEPTH
 EKB .m                  36.60:  KB ELEVATION
 EDF .m                  36.60:  DF ELEVATION
 TDL .m                 169.50:  TOTAL DEPTH (LOGGER)
 CSGD.m                3875.01:  CASING BOTTOM (DRILLER)
 CSGL.m                3875.01:  CASING BOTTOM (LOGGER)
 CSGS.in                  7.63:  CASING SIZE
 CSGW.lbpf               23.50:  CASING WEIGHT
 VSC .                       0:  VS TO CLOSURE
 MAGU.                 1849206:  MAGUTM CHECKSUM
~Parameter Information Block
#MNEM.UNIT       Value        Description
#---------     -----------    ---------------------------
 AV  .mps                 1.90:  Ann Velocity 
 AVMX.mps                 2.54:  Max Ann Veloc 
 AZIF.deg               137.03:  Azm, Final 
 BHAT.        Rotary Steerable:  BHA Type 
 BREV.rev             23610.00:  Rev Bit Total 
 BROT.°/30m               0.80:  Build Rotating 
 BS  .in                  6.50:  Bit Size 
 BTPL.psig              110.00:  Bit Press Loss 
 CABU.                     Yes:  Customer Abuse 
 COMM.                     ´>x:  Run Comments 1 
 TCS .hr                 70.51:  Time Ciculation Ended 
 CV  .mps                 1.41:  Crit Velocity 
 CVMX.mps                 1.42:  Max Crit Veloc 
 DD1 .         Intigam Rahimov:  Direct Drillr 1 
 DD2 .          Rashad Gojayev:  Direct Drillr 2 
 DDSV.               Geo-Pilot:  DD Service 
 DEFF.%                 100.00:  % Det Eff 
 DLRX.°/30m               1.44:  Dogleg Rot Max 
 DLSO.°/30m               0.00:  Dogleg Oriented 
 DLSX.°/30m               0.00:  Dogleg Str Max 
 DRET.      03.05.00 01-Feb-20:  Drill End Time 
 DRST.      15.50.00 28-Jan-20:  Drill Start Tim 
 DTIM.hr                 24.70:  Time Drilling 
 EDEP.m                4047.51:  End Depth 
 ENG1.           Eldar Hajiyev:  Engineer 1 
 ENG2.          Rasim Hashimov:  Engineer 2 
 ENG3.          Rustam Safarov:  Engineer 3 
 ETIM.      22.00.00 01-Feb-20:  End Time 
 FLOI.gpm               370.00:  Flow In 
 FLON.gpm               300.00:  Flow In Min 
 FLOS.cptm                0.00:  Fluid Loss 
 FLOX.gpm               400.00:  Flow In Max 
 FTRO.       Formation Presure:  FTWD Run Obj 
 HFLO.                      No:  High Flow 
 HPRE.                      No:  High Pressure 
 HTEM.                      No:  High Temp 
 HYDO.m                   2.50:  Hydro Offset 
 IFIN.deg                39.54:  Inc, Final 
 IMAX.deg                41.14:  Inc Max 
 IMIN.deg                39.81:  Inc Min 
 IMND.m                4005.21:  Inc Min Depth 
 IMXD.m                3948.42:  Inc Max Depth 
 JARR.                      No:  Jarring 
 LETM.      03.05.00 01-Feb-20:  Log End Time 
 LOST.hr                     0:  Lost Rig Time 
 LSTM.      15.50.00 28-Jan-20:  Log Start Time 
 MDCL.ppm             37500.00:  Mud Chlorides 
 MDES.     Inversion Oil/Synthetic:  Mud Desc 
 DFD .sg                  1.32:  Mud Density 
 MDMN.sg                  1.32:  Dens Mud Min 
 MDMX.sg                  1.32:  Dens Mud Max 
 MOIL.                      55:  Run Mud Oil % 
 MOWR.                   70:30:  Run Mud OWR 
 MSND.                       0:  Run Mud Sand % 
 MSOL.                      17:  Run Mud Solids% 
 DFV .spqt               80.00:  Mud Viscosity 
 MWOD.in                  4.75:  MWD Tool OD 
 MWSI.                      No:  Serv Intrp, MWD 
 OTIM.hr                121.28:  Time Operating 
 PCON.           Look Like New:  Pad Condition 
 PMAX.psia             6171.00:  Press Op, Max 
 PV  .cP                 30.00:  Mud PV 
 RUN .                     300:  Run Number 
 ROPA.m/hr                5.45:  ROP Avg 
 ROPN.m/hr                3.00:  ROP Min 
 ROPX.m/hr               15.00:  ROP Max 
 RPMA.rpm               130.00:  RPM Surface Avg 
 RPMN.rpm                80.00:  RPM Surface Min 
 RPMX.rpm               140.00:  RPM Surface Max 
 RRUN.                     300:  Rig Run Number 
 RTIM.hr                 13.50:  Time Reaming 
 SAZI.deg               133.93:  Azm, Start 
 SDEP.m                3878.01:  Start Depth 
 SIDD.                      No:  Serv Intrp, DD 
 SINC.deg                40.28:  Inc, Start 
 SPPA.psig             4983.00:  SPP Avg 
 SPPN.psig             4370.00:  SPP Min 
 SPPX.psig             5300.00:  SPP Max 
 STIM.      18.33.36 27-Jan-20:  Start Time 
 SVCS.                 DD, MWD:  Services 
 SVER.                    9.20:  Sperry Version 
 TDAT.m                 169.50:  Tot Depth Attmp 
 TDDF.                      No:  Trip for DD 
 TDLG.m                 169.50:  Tot Depth Loggd 
 TFF .                      No:  Trip for Fail 
 TQAA.f-kp               13.25:  Torque Abs Avg 
 TQAN.f-kp               12.00:  Torque Abs Min 
 TQAX.f-kp               14.00:  Torque Abs Max 
 TRRT.°/30m               0.70:  Turn Rotating 
 MRT .                     ADR:  Maximum Recorded Temperature 
 TTMX.degC               92.16:  Max Tool Temp 
 VS01.       AZ90598764G12V7D4:  Virtual Str1 SN 
 VS02.         AZ90571342R12C4:  Virtual Str2 SN 
 VS03.      AZ90580010N2L2X1C4:  Virtual Str3 SN 
 VS04.        AZ90522266O7X1C4:  Virtual Str4 SN 
 VS05.           AZ90598768F11:  Virtual Str5 SN 
 VS06.     AZ90580006XZ1W1X1C4:  Virtual Str6 SN 
 WBMN.klb                 8.00:  WOB Min 
 WITN.            Peter Wilson:  Customer Rep 
 WOBA.klb                 9.88:  WOB Avg 
 WOBX.klb                10.00:  WOB Max 
 YP  .lhf2               27.00:  Yield Point 
~Curve Information Block
#MNEM.UNIT                 API CODE     Curve Description
#---------               -----------    ---------------------------
 TIME.HHMMSS            00 000 000 000:  GT Time & Date
 GTDEPTH.m              00 000 000 000:  GT Depth
 GTPQH.psia             00 000 000 000:  GT HR Quartz Pressure
 GTTQ.degC              00 000 000 000:  GT Quartz Temperature
 GTTN.NONE              00 000 000 000:  GT Test Number
 GTET.sec               00 000 000 000:  GT Elapsed Test Time
 GTTVD.m                00 000 000 000:  GT True Vertical Depth
#Other Information
#
#WARRANTY: Halliburton will use its best efforts to furnish customers with 
#accurate information and interpretations that are part of, and incident to, the services 
#provided.  However, Halliburton cannot and does not warrant the accuracy 
#or correctness of such information and interpretations.  Under no circumstances should any 
#such information or interpretation be relied upon as the sole basis for any drilling, 
#completion, production, or financial decision or any procedure involving any risk to the 
#safety of any drilling venture, drilling rig or its crew or any other third party.  The 
#Customer has full responsibility for all drilling, completion and production operation.  
#Halliburton makes no representations or warranties, either expressed or 
#implied, including, but not limited to, the implied warranties of merchantability or fitness 
#for a particular purpose, with respect to the services rendered.  In no event will 
#Halliburton be liable for failure to obtain any particular results or for 
#any damages, including, but not limited to, indirect, special or consequential damages, 
#resulting from the use of any information or interpretation provided by Halliburton.
#
~A           TIME           GTDEPTH  GTPQH  GTTQ  GTTN  GTET   GTTVD  
   18:23:56.631.31-Jan-2020 3966.51 6085.55 85.48 9.00   0.00 2987.43
   18:23:56.831.31-Jan-2020 3966.51 6085.55 85.48 9.00   0.20 2987.43
   18:23:57.031.31-Jan-2020 3966.51 6083.21 85.48 9.00   0.40 2987.43
   18:23:57.231.31-Jan-2020 3966.51 6080.01 85.48 9.00   0.60 2987.43
   18:23:57.431.31-Jan-2020 3966.51 6079.40 85.48 9.00   0.80 2987.43
   18:23:57.631.31-Jan-2020 3966.51 6074.09 85.48 9.00   1.00 2987.43
   18:23:57.831.31-Jan-2020 3966.51 6074.09 85.48 9.00   1.20 2987.43
   18:23:58.031.31-Jan-2020 3966.51 6073.44 85.47 9.00   1.40 2987.43
   18:23:58.232.31-Jan-2020 3966.51 6074.86 85.47 9.00   1.60 2987.43
   18:23:58.432.31-Jan-2020 3966.51 6075.77 85.47 9.00   1.80 2987.43
   18:23:58.632.31-Jan-2020 3966.51 6075.74 85.47 9.00   2.00 2987.43
   18:23:58.832.31-Jan-2020 3966.51 6075.74 85.47 9.00   2.20 2987.43
   18:23:59.032.31-Jan-2020 3966.51 6077.71 85.47 9.00   2.40 2987.43
   18:23:59.232.31-Jan-2020 3966.51 6077.35 85.47 9.00   2.60 2987.43
   18:23:59.432.31-Jan-2020 3966.51 6078.51 85.47 9.00   2.80 2987.43
   18:23:59.632.31-Jan-2020 3966.51 6079.17 85.47 9.00   3.00 2987.43
   18:23:59.832.31-Jan-2020 3966.51 6079.17 85.47 9.00   3.20 2987.43
   18:24:00.032.31-Jan-2020 3966.51 6081.24 85.47 9.00   3.40 2987.43
   18:24:00.232.31-Jan-2020 3966.51 6075.64 85.47 9.00   3.60 2987.43
   18:24:00.432.31-Jan-2020 3966.51 6078.37 85.47 9.00   3.80 2987.43
   18:24:00.632.31-Jan-2020 3966.51 6081.40 85.46 9.00   4.00 2987.43
   18:24:00.832.31-Jan-2020 3966.51 6081.40 85.46 9.00   4.20 2987.43
   18:24:01.032.31-Jan-2020 3966.51 6082.29 85.46 9.00   4.40 2987.43
   18:24:01.232.31-Jan-2020 3966.51 6078.36 85.46 9.00   4.60 2987.43
   18:24:01.432.31-Jan-2020 3966.51 6077.35 85.46 9.00   4.80 2987.43
   18:24:01.632.31-Jan-2020 3966.51 6078.23 85.46 9.00   5.00 2987.43
   18:24:01.832.31-Jan-2020 3966.51 6078.23 85.46 9.00   5.20 2987.43
   18:24:02.032.31-Jan-2020 3966.51 6078.23 85.46 9.00   5.40 2987.43
   18:24:02.232.31-Jan-2020 3966.51 6081.52 85.46 9.00   5.60 2987.43
   18:24:02.433.31-Jan-2020 3966.51 6081.51 85.46 9.00   5.80 2987.43
   18:24:02.633.31-Jan-2020 3966.51 6082.41 85.46 9.00   6.00 2987.43
   18:24:02.833.31-Jan-2020 3966.51 6082.41 85.46 9.00   6.20 2987.43
   18:24:03.033.31-Jan-2020 3966.51 6078.78 85.46 9.00   6.40 2987.43
   18:24:03.233.31-Jan-2020 3966.51 6079.87 85.46 9.00   6.60 2987.43
   18:24:03.433.31-Jan-2020 3966.51 6079.08 85.45 9.00   6.80 2987.43
   18:24:03.633.31-Jan-2020 3966.51 6079.11 85.45 9.00   7.00 2987.43
   18:24:03.833.31-Jan-2020 3966.51 6079.11 85.45 9.00   7.20 2987.43
   18:24:04.033.31-Jan-2020 3966.51 6072.74 85.45 9.00   7.40 2987.43
   18:24:04.233.31-Jan-2020 3966.51 6075.36 85.45 9.00   7.60 2987.43
   18:24:04.433.31-Jan-2020 3966.51 6077.64 85.45 9.00   7.80 2987.43
   18:24:04.633.31-Jan-2020 3966.51 6076.23 85.45 9.00   8.00 2987.43
   18:24:04.833.31-Jan-2020 3966.51 6076.23 85.45 9.00   8.20 2987.43
   18:24:05.033.31-Jan-2020 3966.51 6074.90 85.45 9.00   8.40 2987.43
   18:24:05.233.31-Jan-2020 3966.51 6077.62 85.45 9.00   8.60 2987.43
   18:24:05.433.31-Jan-2020 3966.51 6073.63 85.45 9.00   8.80 2987.43
   18:24:05.633.31-Jan-2020 3966.51 6074.17 85.45 9.00   9.00 2987.43
   18:24:05.833.31-Jan-2020 3966.51 6074.17 85.45 9.00   9.20 2987.43
   18:24:06.033.31-Jan-2020 3966.51 6080.07 85.45 9.00   9.40 2987.43
   18:24:06.233.31-Jan-2020 3966.51 6082.73 85.44 9.00   9.60 2987.43
   18:24:06.433.31-Jan-2020 3966.51 6075.28 85.44 9.00   9.80 2987.43
   18:24:06.634.31-Jan-2020 3966.51 6080.85 85.44 9.00  10.00 2987.43
   18:24:06.834.31-Jan-2020 3966.51 6080.85 85.44 9.00  10.20 2987.43
   18:24:07.034.31-Jan-2020 3966.51 6083.28 85.44 9.00  10.40 2987.43
   18:24:07.234.31-Jan-2020 3966.51 6085.21 85.44 9.00  10.60 2987.43
   18:24:07.434.31-Jan-2020 3966.51 6082.26 85.44 9.00  10.80 2987.43
   18:24:07.634.31-Jan-2020 3966.51 6084.33 85.44 9.00  11.00 2987.43
   18:24:07.834.31-Jan-2020 3966.51 6084.33 85.44 9.00  11.20 2987.43
   18:24:08.034.31-Jan-2020 3966.51 6081.30 85.44 9.00  11.40 2987.43
   18:24:08.234.31-Jan-2020 3966.51 6082.64 85.44 9.00  11.60 2987.43
   18:24:08.434.31-Jan-2020 3966.51 6082.43 85.44 9.00  11.80 2987.43
   18:24:08.634.31-Jan-2020 3966.51 6085.44 85.44 9.00  12.00 2987.43
   18:24:08.834.31-Jan-2020 3966.51 6085.44 85.44 9.00  12.20 2987.43
   18:24:09.034.31-Jan-2020 3966.51 6083.20 85.43 9.00  12.40 2987.43
   18:24:09.234.31-Jan-2020 3966.51 6078.71 85.43 9.00  12.60 2987.43
   18:24:09.434.31-Jan-2020 3966.51 6080.13 85.43 9.00  12.80 2987.43
   18:24:09.634.31-Jan-2020 3966.51 6084.80 85.43 9.00  13.00 2987.43
   18:24:09.834.31-Jan-2020 3966.51 6084.80 85.43 9.00  13.20 2987.43
   18:24:10.034.31-Jan-2020 3966.51 6084.20 85.43 9.00  13.40 2987.43
   18:24:10.234.31-Jan-2020 3966.51 6086.10 85.43 9.00  13.60 2987.43
   18:24:10.434.31-Jan-2020 3966.51 6083.11 85.43 9.00  13.80 2987.43
   18:24:10.634.31-Jan-2020 3966.51 6084.06 85.43 9.00  14.00 2987.43
   18:24:10.834.31-Jan-2020 3966.51 6084.06 85.43 9.00  14.20 2987.43
   18:24:11.035.31-Jan-2020 3966.51 6085.17 85.43 9.00  14.40 2987.43
   18:24:11.235.31-Jan-2020 3966.51 6087.43 85.43 9.00  14.60 2987.43
   18:24:11.435.31-Jan-2020 3966.51 6084.78 85.43 9.00  14.80 2987.43
   18:24:11.635.31-Jan-2020 3966.51 6086.84 85.42 9.00  15.00 2987.43
   18:24:11.835.31-Jan-2020 3966.51 6086.84 85.42 9.00  15.20 2987.43
   18:24:12.035.31-Jan-2020 3966.51 6084.57 85.42 9.00  15.40 2987.43
   18:24:12.235.31-Jan-2020 3966.51 6089.19 85.42 9.00  15.60 2987.43
   18:24:12.435.31-Jan-2020 3966.51 6087.12 85.42 9.00  15.80 2987.43
   18:24:12.635.31-Jan-2020 3966.51 6087.97 85.42 9.00  16.00 2987.43
   18:24:12.835.31-Jan-2020 3966.51 6087.97 85.42 9.00  16.20 2987.43
   18:24:13.035.31-Jan-2020 3966.51 6082.78 85.42 9.00  16.40 2987.43
   18:24:13.235.31-Jan-2020 3966.51 6088.24 85.42 9.00  16.60 2987.43
   18:24:13.435.31-Jan-2020 3966.51 6086.58 85.42 9.00  16.80 2987.43
   18:24:13.635.31-Jan-2020 3966.51 6088.65 85.42 9.00  17.00 2987.43
   18:24:13.835.31-Jan-2020 3966.51 6088.65 85.42 9.00  17.20 2987.43
   18:24:14.035.31-Jan-2020 3966.51 6088.28 85.42 9.00  17.40 2987.43
   18:24:14.235.31-Jan-2020 3966.51 6119.27 85.42 9.00  17.60 2987.43
   18:24:14.435.31-Jan-2020 3966.51 6220.45 85.41 9.00  17.80 2987.43
   18:24:14.635.31-Jan-2020 3966.51 6288.89 85.41 9.00  18.00 2987.43
   18:24:14.835.31-Jan-2020 3966.51 6288.89 85.41 9.00  18.20 2987.43
   18:24:15.035.31-Jan-2020 3966.51 6456.84 85.41 9.00  18.40 2987.43
   18:24:15.236.31-Jan-2020 3966.51 6534.96 85.41 9.00  18.60 2987.43
   18:24:15.436.31-Jan-2020 3966.51 6598.06 85.41 9.00  18.80 2987.43
   18:24:15.636.31-Jan-2020 3966.51 6624.99 85.41 9.00  19.00 2987.43
   18:24:15.836.31-Jan-2020 3966.51 6624.99 85.41 9.00  19.20 2987.43
   18:24:16.036.31-Jan-2020 3966.51 6702.94 85.41 9.00  19.40 2987.43
   18:24:16.236.31-Jan-2020 3966.51 6760.23 85.41 9.00  19.60 2987.43
   18:24:16.436.31-Jan-2020 3966.51 6806.78 85.41 9.00  19.80 2987.43
   18:24:16.636.31-Jan-2020 3966.51 6861.67 85.41 9.00  20.00 2987.43
   18:24:16.836.31-Jan-2020 3966.51 6861.67 85.41 9.00  20.20 2987.43
   18:24:17.036.31-Jan-2020 3966.51 6821.61 85.41 9.00  20.40 2987.43
   18:24:17.236.31-Jan-2020 3966.51 6747.98 85.41 9.00  20.60 2987.43
   18:24:17.436.31-Jan-2020 3966.51 6729.46 85.40 9.00  20.80 2987.43
   18:24:17.636.31-Jan-2020 3966.51 6741.78 85.40 9.00  21.00 2987.43
   18:24:17.836.31-Jan-2020 3966.51 6741.78 85.40 9.00  21.20 2987.43
   18:24:18.036.31-Jan-2020 3966.51 6611.16 85.40 9.00  21.41 2987.43
   18:24:18.236.31-Jan-2020 3966.51 6787.28 85.40 9.00  21.61 2987.43
   18:24:18.436.31-Jan-2020 3966.51 6829.38 85.40 9.00  21.81 2987.43
   18:24:18.636.31-Jan-2020 3966.51 6865.81 85.40 9.00  22.01 2987.43
   18:24:18.836.31-Jan-2020 3966.51 6865.81 85.40 9.00  22.21 2987.43
   18:24:19.036.31-Jan-2020 3966.51 6931.39 85.40 9.00  22.41 2987.43
   18:24:19.236.31-Jan-2020 3966.51 6985.57 85.40 9.00  22.61 2987.43
   18:24:19.437.31-Jan-2020 3966.51 6984.16 85.40 9.00  22.81 2987.43
