~Version Information
 VERS.                  2.0:   CWLS log ASCII Standard -VERSION 2.0
 WRAP.                   NO:   One line per depth step
~Well Information Block
#MNEM.UNIT     VALUE/NAME     DESCRIPTION
#---------     -----------    ---------------------------
 STRT.S             00:13:57 01-Feb-20: START TIME 00:13:57 01-Feb-20
 STOP.S             00:20:28 01-Feb-20: STOP TIME  00:20:28 01-Feb-20
 STEP.S                   0.00: STEP TIME
 NULL.                 -999.25: NULL VALUE
 DFWT.                        :  DIST FWL TEXT
 DFST.                        :  DIST FSL TEXT
 DMF .             Drill Floor:  DRILL MEAS FROM
 STIM.      09.30.00 26-Dec-19:  START TIME
 DATE.      08.00.00 20-Jan-20:  END TIME
 SPUD.               23-Nov-19:  SPUD DATE
 NREF.                    Grid:  NORTH REFERENCE
 HPTY.       Minimum Curvature:  HOLE POS TYPE
 DMOD.             Drill Model:  DRILL MOD DESC
 SVYD.                  Survey:  SURVEY DESC
 ILTD.               Lithology:  INTERP LTH DESC
 FTOP.          Formation Tops:  FORM TOPS DESC
 SON .        AZ-XX-0906192647:  JOB NUMBER
 WTYP.                Deviated:  WELL TYPE
 COMP.     BP Exploration (Caspian Sea) Ltd:  COMPANY
 BASE.              Azerbaijan:  LOGGING EQUIPMENT BASE LOCATION
 REGN.                 Eurasia:  REGION
 FLD .                     ACG:  FIELD NAME
 SRVC.              KCA Deutag:  CONTRACTOR
 MWDS.                    Baku:  MWD SHOP
 WELL.     A10 (Slot 20) - SCP:  WELL NAME
 JOBN.        AZ-XX-0906192647:  JOB TICKET NUMB
 RIG .                 Chirag1:  RIG NAME
 DCON.     Halliburton Sperry Drilling:  DIRECTNL CONTR
 UNIT.                     N/A:  LOGGING EQUIPMENT ID
 PDAT.          Mean Sea Level:  PERMANENT DATUM
 MDS .        Operator Entered:  MAG DATA SOURCE
 CTRY.              Azerbaijan:  COUNTRY NAME
 UWI .            /AZE00000090:  UNIQUE WELL IDENTIFIER
 API .            /AZE00000090:  API NUMBER
 CNTY.                        :  COUNTY
 PROV.                        :  PROVINCE
 STAT.                        :  STATE
 LOC .                        :  LOCATION
 LMF .             Drill Floor:  LOG MEASURED FROM
 TVDS.m                  36.60:  TVDSS CORRECTN
 LATI.deg                40.08:  LATITUDE
 LONG.deg                51.24:  LONGITUDE
 WHNS.m                  -7.94:  WELL HEAD N/S
 WHEW.m                   1.56:  WELL HEAD E/W
 UTMX.m              520429.26:  UTM X
 UTMY.m             4438973.87:  UTM Y
 DFWL.m                   0.00:  DISTANCE FWL
 DFSL.m                   0.00:  DISTANCE FSL
 SDEP.m                1455.00:  START DEPTH
 TDD .m                4047.51:  TOTAL DEPTH (DRILLER)
 VSDR.deg               112.75:  VERT SEC DIRECT
 GVFD.g                   1.00:  GRAVITY FIELD
 MFLD.nT              50261.00:  MAGNETIC FIELD
 MDIP.deg                59.52:  MAGNETIC DIP
 MDEC.deg                 6.42:  MAGNETIC DECL
 GRDC.deg                 0.17:  GRID CORRECTION
 AZTC.deg                 6.25:  AZM TOTAL CORR
 EPD .m                   0.00:  ELEVATION
 EGL .m                   0.00:  GROUND ELEVATION
 WDMS.m                 121.00:  WD ELEV
 APD .m                  36.60:  DEPTH ABOVE PD
 AGAP.m                  36.60:  AIR GAP
 VSEW.m                   1.56:  VERT SEC E/W
 VSNS.m                  -7.94:  VERT SEC N/S
 DEP .m                1140.01:  DEPTH
 EKB .m                  36.60:  KB ELEVATION
 EDF .m                  36.60:  DF ELEVATION
 TDL .m                 169.50:  TOTAL DEPTH (LOGGER)
 CSGD.m                3875.01:  CASING BOTTOM (DRILLER)
 CSGL.m                3875.01:  CASING BOTTOM (LOGGER)
 CSGS.in                  7.63:  CASING SIZE
 CSGW.lbpf               23.50:  CASING WEIGHT
 VSC .                       0:  VS TO CLOSURE
 MAGU.                 1849206:  MAGUTM CHECKSUM
~Parameter Information Block
#MNEM.UNIT       Value        Description
#---------     -----------    ---------------------------
 AV  .mps                 1.90:  Ann Velocity 
 AVMX.mps                 2.54:  Max Ann Veloc 
 AZIF.deg               137.03:  Azm, Final 
 BHAT.        Rotary Steerable:  BHA Type 
 BREV.rev             23610.00:  Rev Bit Total 
 BROT.°/30m               0.80:  Build Rotating 
 BS  .in                  6.50:  Bit Size 
 BTPL.psig              110.00:  Bit Press Loss 
 CABU.                     Yes:  Customer Abuse 
 TCS .hr                 70.51:  Time Ciculation Ended 
 CV  .mps                 1.41:  Crit Velocity 
 CVMX.mps                 1.42:  Max Crit Veloc 
 DD1 .         Intigam Rahimov:  Direct Drillr 1 
 DD2 .          Rashad Gojayev:  Direct Drillr 2 
 DDSV.               Geo-Pilot:  DD Service 
 DEFF.%                 100.00:  % Det Eff 
 DLRX.°/30m               1.44:  Dogleg Rot Max 
 DLSO.°/30m               0.00:  Dogleg Oriented 
 DLSX.°/30m               0.00:  Dogleg Str Max 
 DRET.      03.05.00 01-Feb-20:  Drill End Time 
 DRST.      15.50.00 28-Jan-20:  Drill Start Tim 
 DTIM.hr                 24.70:  Time Drilling 
 EDEP.m                4047.51:  End Depth 
 ENG1.           Eldar Hajiyev:  Engineer 1 
 ENG2.          Rasim Hashimov:  Engineer 2 
 ENG3.          Rustam Safarov:  Engineer 3 
 ETIM.      22.00.00 01-Feb-20:  End Time 
 FLOI.gpm               370.00:  Flow In 
 FLON.gpm               300.00:  Flow In Min 
 FLOS.cptm                0.00:  Fluid Loss 
 FLOX.gpm               400.00:  Flow In Max 
 FTRO.       Formation Presure:  FTWD Run Obj 
 HFLO.                      No:  High Flow 
 HPRE.                      No:  High Pressure 
 HTEM.                      No:  High Temp 
 HYDO.m                   2.50:  Hydro Offset 
 IFIN.deg                39.54:  Inc, Final 
 IMAX.deg                41.14:  Inc Max 
 IMIN.deg                39.81:  Inc Min 
 IMND.m                4005.21:  Inc Min Depth 
 IMXD.m                3948.42:  Inc Max Depth 
 JARR.                      No:  Jarring 
 LETM.      03.05.00 01-Feb-20:  Log End Time 
 LOST.hr                     0:  Lost Rig Time 
 LSTM.      15.50.00 28-Jan-20:  Log Start Time 
 MDCL.ppm             37500.00:  Mud Chlorides 
 MDES.     Inversion Oil/Synthetic:  Mud Desc 
 DFD .sg                  1.32:  Mud Density 
 MDMN.sg                  1.32:  Dens Mud Min 
 MDMX.sg                  1.32:  Dens Mud Max 
 MOIL.                      55:  Run Mud Oil % 
 MOWR.                   70:30:  Run Mud OWR 
 MSND.                       0:  Run Mud Sand % 
 MSOL.                      17:  Run Mud Solids% 
 DFV .spqt               80.00:  Mud Viscosity 
 MWOD.in                  4.75:  MWD Tool OD 
 MWSI.                      No:  Serv Intrp, MWD 
 OTIM.hr                121.28:  Time Operating 
 PCON.           Look Like New:  Pad Condition 
 PMAX.psia             6171.00:  Press Op, Max 
 PV  .cP                 30.00:  Mud PV 
 RUN .                     300:  Run Number 
 ROPA.m/hr                5.45:  ROP Avg 
 ROPN.m/hr                3.00:  ROP Min 
 ROPX.m/hr               15.00:  ROP Max 
 RPMA.rpm               130.00:  RPM Surface Avg 
 RPMN.rpm                80.00:  RPM Surface Min 
 RPMX.rpm               140.00:  RPM Surface Max 
 RRUN.                     300:  Rig Run Number 
 RTIM.hr                 13.50:  Time Reaming 
 SAZI.deg               133.93:  Azm, Start 
 SDEP.m                3878.01:  Start Depth 
 SIDD.                      No:  Serv Intrp, DD 
 SINC.deg                40.28:  Inc, Start 
 SPPA.psig             4983.00:  SPP Avg 
 SPPN.psig             4370.00:  SPP Min 
 SPPX.psig             5300.00:  SPP Max 
 STIM.      18.33.36 27-Jan-20:  Start Time 
 SVCS.                 DD, MWD:  Services 
 SVER.                    9.20:  Sperry Version 
 TDAT.m                 169.50:  Tot Depth Attmp 
 TDDF.                      No:  Trip for DD 
 TDLG.m                 169.50:  Tot Depth Loggd 
 TFF .                      No:  Trip for Fail 
 TQAA.f-kp               13.25:  Torque Abs Avg 
 TQAN.f-kp               12.00:  Torque Abs Min 
 TQAX.f-kp               14.00:  Torque Abs Max 
 TRRT.°/30m               0.70:  Turn Rotating 
 MRT .                     ADR:  Maximum Recorded Temperature 
 TTMX.degC               92.16:  Max Tool Temp 
 VS01.       AZ90598764G12V7D4:  Virtual Str1 SN 
 VS02.         AZ90571342R12C4:  Virtual Str2 SN 
 VS03.      AZ90580010N2L2X1C4:  Virtual Str3 SN 
 VS04.        AZ90522266O7X1C4:  Virtual Str4 SN 
 VS05.           AZ90598768F11:  Virtual Str5 SN 
 VS06.     AZ90580006XZ1W1X1C4:  Virtual Str6 SN 
 WBMN.klb                 8.00:  WOB Min 
 WITN.            Peter Wilson:  Customer Rep 
 WOBA.klb                 9.88:  WOB Avg 
 WOBX.klb                10.00:  WOB Max 
 YP  .lhf2               27.00:  Yield Point 
~Curve Information Block
#MNEM.UNIT                 API CODE     Curve Description
#---------               -----------    ---------------------------
 TIME.HHMMSS            00 000 000 000:  GT Time & Date
 GTDEPTH.m              00 000 000 000:  GT Depth
 GTPQH.psia             00 000 000 000:  GT HR Quartz Pressure
 GTTQ.degC              00 000 000 000:  GT Quartz Temperature
 GTTN.NONE              00 000 000 000:  GT Test Number
 GTET.sec               00 000 000 000:  GT Elapsed Test Time
 GTTVD.m                00 000 000 000:  GT True Vertical Depth
#Other Information
#
#WARRANTY: Halliburton will use its best efforts to furnish customers with 
#accurate information and interpretations that are part of, and incident to, the services 
#provided.  However, Halliburton cannot and does not warrant the accuracy 
#or correctness of such information and interpretations.  Under no circumstances should any 
#such information or interpretation be relied upon as the sole basis for any drilling, 
#completion, production, or financial decision or any procedure involving any risk to the 
#safety of any drilling venture, drilling rig or its crew or any other third party.  The 
#Customer has full responsibility for all drilling, completion and production operation.  
#Halliburton makes no representations or warranties, either expressed or 
#implied, including, but not limited to, the implied warranties of merchantability or fitness 
#for a particular purpose, with respect to the services rendered.  In no event will 
#Halliburton be liable for failure to obtain any particular results or for 
#any damages, including, but not limited to, indirect, special or consequential damages, 
#resulting from the use of any information or interpretation provided by Halliburton.
#
~A           TIME           GTDEPTH  GTPQH  GTTQ  GTTN   GTET   GTTVD  
# ...
   00:17:21.126.01-Feb-2020 3989.40 3222.48 86.92 10.00 203.42 3004.80
   00:17:21.326.01-Feb-2020 3989.40 3222.57 86.91 10.00 203.62 3004.80
   00:17:21.526.01-Feb-2020 3989.40 3222.60 86.91 10.00 203.82 3004.80
   00:17:21.726.01-Feb-2020 3989.40 3222.79 86.91 10.00 204.02 3004.80
   00:17:21.926.01-Feb-2020 3989.40 3222.79 86.91 10.00 204.22 3004.80
   00:17:22.126.01-Feb-2020 3989.40 3222.56 86.91 10.00 204.42 3004.80
   00:17:22.326.01-Feb-2020 3989.40 3222.60 86.91 10.00 204.62 3004.80
   00:17:22.526.01-Feb-2020 3989.40 3222.56 86.91 10.00 204.82 3004.80
   00:17:22.726.01-Feb-2020 3989.40 3222.67 86.91 10.00 205.02 3004.80
   00:17:22.926.01-Feb-2020 3989.40 3222.67 86.91 10.00 205.22 3004.80
   00:17:23.126.01-Feb-2020 3989.40 3222.37 86.91 10.00 205.42 3004.80
   00:17:23.326.01-Feb-2020 3989.40 3222.59 86.91 10.00 205.62 3004.80
   00:17:23.526.01-Feb-2020 3989.40 3222.61 86.91 10.00 205.82 3004.80
   00:17:23.726.01-Feb-2020 3989.40 3222.70 86.91 10.00 206.02 3004.80
   00:17:23.926.01-Feb-2020 3989.40 3222.70 86.91 10.00 206.22 3004.80
   00:17:24.126.01-Feb-2020 3989.40 3222.76 86.91 10.00 206.42 3004.80
   00:17:24.326.01-Feb-2020 3989.40 3222.74 86.91 10.00 206.62 3004.80
   00:17:24.526.01-Feb-2020 3989.40 3222.67 86.91 10.00 206.82 3004.80
   00:17:24.726.01-Feb-2020 3989.40 3222.57 86.90 10.00 207.02 3004.80
   00:17:24.926.01-Feb-2020 3989.40 3222.57 86.90 10.00 207.22 3004.80
   00:17:25.126.01-Feb-2020 3989.40 3222.88 86.90 10.00 207.42 3004.80
   00:17:25.326.01-Feb-2020 3989.40 3222.74 86.90 10.00 207.62 3004.80
   00:17:25.526.01-Feb-2020 3989.40 3222.86 86.90 10.00 207.82 3004.80
   00:17:25.726.01-Feb-2020 3989.40 3222.80 86.90 10.00 208.02 3004.80
   00:17:25.926.01-Feb-2020 3989.40 3222.80 86.90 10.00 208.22 3004.80
   00:17:26.126.01-Feb-2020 3989.40 3222.85 86.90 10.00 208.42 3004.80
   00:17:26.326.01-Feb-2020 3989.40 3222.80 86.90 10.00 208.62 3004.80
   00:17:26.526.01-Feb-2020 3989.40 3222.75 86.90 10.00 208.82 3004.80
   00:17:26.726.01-Feb-2020 3989.40 3222.86 86.90 10.00 209.02 3004.80
   00:17:26.926.01-Feb-2020 3989.40 3222.86 86.90 10.00 209.22 3004.80
   00:17:27.126.01-Feb-2020 3989.40 3222.73 86.90 10.00 209.42 3004.80
   00:17:27.326.01-Feb-2020 3989.40 3222.78 86.90 10.00 209.62 3004.80
   00:17:27.526.01-Feb-2020 3989.40 3222.78 86.90 10.00 209.82 3004.80
   00:17:27.726.01-Feb-2020 3989.40 3222.85 86.90 10.00 210.02 3004.80
   00:17:27.926.01-Feb-2020 3989.40 3222.85 86.90 10.00 210.22 3004.80
   00:17:28.126.01-Feb-2020 3989.40 3222.50 86.89 10.00 210.42 3004.80
   00:17:28.326.01-Feb-2020 3989.40 3222.82 86.89 10.00 210.62 3004.80
   00:17:28.526.01-Feb-2020 3989.40 3222.85 86.89 10.00 210.82 3004.80
   00:17:28.726.01-Feb-2020 3989.40 3222.83 86.89 10.00 211.02 3004.80
   00:17:28.926.01-Feb-2020 3989.40 3222.83 86.89 10.00 211.22 3004.80
   00:17:29.126.01-Feb-2020 3989.40 3222.99 86.89 10.00 211.42 3004.80
   00:17:29.327.01-Feb-2020 3989.40 3222.99 86.89 10.00 211.62 3004.80
   00:17:29.527.01-Feb-2020 3989.40 3222.99 86.89 10.00 211.82 3004.80
   00:17:29.727.01-Feb-2020 3989.40 3222.92 86.89 10.00 212.02 3004.80
   00:17:29.927.01-Feb-2020 3989.40 3222.92 86.89 10.00 212.22 3004.80
   00:17:30.127.01-Feb-2020 3989.40 3222.97 86.89 10.00 212.42 3004.80
   00:17:30.327.01-Feb-2020 3989.40 3222.91 86.89 10.00 212.62 3004.80
   00:17:30.527.01-Feb-2020 3989.40 3222.95 86.89 10.00 212.82 3004.80
   00:17:30.727.01-Feb-2020 3989.40 3222.91 86.89 10.00 213.02 3004.80
   00:17:30.927.01-Feb-2020 3989.40 3222.91 86.89 10.00 213.22 3004.80
   00:17:31.127.01-Feb-2020 3989.40 3222.97 86.89 10.00 213.42 3004.80
   00:17:31.327.01-Feb-2020 3989.40 3222.96 86.88 10.00 213.62 3004.80
   00:17:31.527.01-Feb-2020 3989.40 3222.80 86.88 10.00 213.82 3004.80
   00:17:31.727.01-Feb-2020 3989.40 3222.92 86.88 10.00 214.02 3004.80
   00:17:31.927.01-Feb-2020 3989.40 3222.92 86.88 10.00 214.22 3004.80
   00:17:32.127.01-Feb-2020 3989.40 3222.99 86.88 10.00 214.42 3004.80
   00:17:32.327.01-Feb-2020 3989.40 3223.02 86.88 10.00 214.62 3004.80
   00:17:32.527.01-Feb-2020 3989.40 3222.83 86.88 10.00 214.82 3004.80
   00:17:32.727.01-Feb-2020 3989.40 3222.94 86.88 10.00 215.02 3004.80
   00:17:32.927.01-Feb-2020 3989.40 3222.94 86.88 10.00 215.22 3004.80
   00:17:33.127.01-Feb-2020 3989.40 3223.07 86.88 10.00 215.42 3004.80
   00:17:33.327.01-Feb-2020 3989.40 3223.11 86.88 10.00 215.62 3004.80
   00:17:33.527.01-Feb-2020 3989.40 3223.18 86.88 10.00 215.82 3004.80
   00:17:33.727.01-Feb-2020 3989.40 3222.77 86.88 10.00 216.02 3004.80
   00:17:33.927.01-Feb-2020 3989.40 3222.77 86.88 10.00 216.22 3004.80
   00:17:34.127.01-Feb-2020 3989.40 3222.99 86.88 10.00 216.42 3004.80
   00:17:34.327.01-Feb-2020 3989.40 3223.10 86.88 10.00 216.62 3004.80
   00:17:34.527.01-Feb-2020 3989.40 3223.17 86.87 10.00 216.82 3004.80
   00:17:34.727.01-Feb-2020 3989.40 3222.98 86.87 10.00 217.02 3004.80
   00:17:34.927.01-Feb-2020 3989.40 3222.98 86.87 10.00 217.22 3004.80
   00:17:35.127.01-Feb-2020 3989.40 3223.08 86.87 10.00 217.42 3004.80
   00:17:35.327.01-Feb-2020 3989.40 3223.16 86.87 10.00 217.62 3004.80
   00:17:35.527.01-Feb-2020 3989.40 3223.15 86.87 10.00 217.82 3004.80
   00:17:35.727.01-Feb-2020 3989.40 3223.12 86.87 10.00 218.02 3004.80
   00:17:35.927.01-Feb-2020 3989.40 3223.12 86.87 10.00 218.22 3004.80
   00:17:36.127.01-Feb-2020 3989.40 3222.87 86.87 10.00 218.42 3004.80
   00:17:36.327.01-Feb-2020 3989.40 3222.98 86.87 10.00 218.62 3004.80
   00:17:36.527.01-Feb-2020 3989.40 3222.95 86.87 10.00 218.82 3004.80
   00:17:36.727.01-Feb-2020 3989.40 3223.11 86.87 10.00 219.02 3004.80
   00:17:36.927.01-Feb-2020 3989.40 3223.11 86.87 10.00 219.22 3004.80
   00:17:37.127.01-Feb-2020 3989.40 3223.15 86.87 10.00 219.42 3004.80
   00:17:37.327.01-Feb-2020 3989.40 3223.20 86.87 10.00 219.62 3004.80
   00:17:37.527.01-Feb-2020 3989.40 3223.15 86.87 10.00 219.82 3004.80
   00:17:37.727.01-Feb-2020 3989.40 3223.13 86.86 10.00 220.02 3004.80
   00:17:37.927.01-Feb-2020 3989.40 3223.13 86.86 10.00 220.22 3004.80
   00:17:38.127.01-Feb-2020 3989.40 3223.15 86.86 10.00 220.42 3004.80
   00:17:38.327.01-Feb-2020 3989.40 3223.14 86.86 10.00 220.62 3004.80
   00:17:38.527.01-Feb-2020 3989.40 3223.18 86.86 10.00 220.82 3004.80
   00:17:38.727.01-Feb-2020 3989.40 3223.12 86.86 10.00 221.02 3004.80
   00:17:38.927.01-Feb-2020 3989.40 3223.12 86.86 10.00 221.22 3004.80
   00:17:39.127.01-Feb-2020 3989.40 3223.20 86.86 10.00 221.42 3004.80
   00:17:39.327.01-Feb-2020 3989.40 3223.18 86.86 10.00 221.62 3004.80
   00:17:39.527.01-Feb-2020 3989.40 3223.25 86.86 10.00 221.82 3004.80
   00:17:39.727.01-Feb-2020 3989.40 3223.34 86.86 10.00 222.02 3004.80
   00:17:39.927.01-Feb-2020 3989.40 3223.34 86.86 10.00 222.22 3004.80
   00:17:40.127.01-Feb-2020 3989.40 3223.19 86.86 10.00 222.42 3004.80
   00:17:40.327.01-Feb-2020 3989.40 3223.21 86.86 10.00 222.62 3004.80
   00:17:40.527.01-Feb-2020 3989.40 3223.19 86.86 10.00 222.82 3004.80
   00:17:40.728.01-Feb-2020 3989.40 3223.31 86.86 10.00 223.02 3004.80
   00:17:40.928.01-Feb-2020 3989.40 3223.31 86.86 10.00 223.22 3004.80
   00:17:41.128.01-Feb-2020 3989.40 3223.34 86.85 10.00 223.42 3004.80
   00:17:41.328.01-Feb-2020 3989.40 3223.33 86.85 10.00 223.62 3004.80
   00:17:41.528.01-Feb-2020 3989.40 3223.17 86.85 10.00 223.82 3004.80
   00:17:41.728.01-Feb-2020 3989.40 3223.26 86.85 10.00 224.02 3004.80
   00:17:41.928.01-Feb-2020 3989.40 3223.26 86.85 10.00 224.22 3004.80
   00:17:42.128.01-Feb-2020 3989.40 3223.20 86.85 10.00 224.42 3004.80
   00:17:42.328.01-Feb-2020 3989.40 3223.28 86.85 10.00 224.62 3004.80
   00:17:42.528.01-Feb-2020 3989.40 3223.24 86.85 10.00 224.82 3004.80
   00:17:42.728.01-Feb-2020 3989.40 3223.22 86.85 10.00 225.02 3004.80
   00:17:42.928.01-Feb-2020 3989.40 3223.22 86.85 10.00 225.22 3004.80
   00:17:43.128.01-Feb-2020 3989.40 3223.18 86.85 10.00 225.42 3004.80
   00:17:43.328.01-Feb-2020 3989.40 3223.28 86.85 10.00 225.62 3004.80
   00:17:43.528.01-Feb-2020 3989.40 3223.30 86.85 10.00 225.82 3004.80
