~Version Information
 VERS.                  2.0:   CWLS log ASCII Standard -VERSION 2.0
 WRAP.                   NO:   One line per depth step
~Well Information Block
#MNEM.UNIT     VALUE/NAME     DESCRIPTION
#---------     -----------    ---------------------------
 STRT.S             14:09:29 31-Jan-20: START TIME 14:09:29 31-Jan-20
 STOP.S             14:15:59 31-Jan-20: STOP TIME  14:15:59 31-Jan-20
 STEP.S                   0.00: STEP TIME
 NULL.                 -999.25: NULL VALUE
 DFWT.                        :  DIST FWL TEXT
 DFST.                        :  DIST FSL TEXT
 DMF .             Drill Floor:  DRILL MEAS FROM
 STIM.      09.30.00 26-Dec-19:  START TIME
 DATE.      08.00.00 20-Jan-20:  END TIME
 SPUD.               23-Nov-19:  SPUD DATE
 NREF.                    Grid:  NORTH REFERENCE
 HPTY.       Minimum Curvature:  HOLE POS TYPE
 DMOD.             Drill Model:  DRILL MOD DESC
 SVYD.                  Survey:  SURVEY DESC
 ILTD.               Lithology:  INTERP LTH DESC
 FTOP.          Formation Tops:  FORM TOPS DESC
 SON .        AZ-XX-0906192647:  JOB NUMBER
 WTYP.                Deviated:  WELL TYPE
 COMP.     BP Exploration (Caspian Sea) Ltd:  COMPANY
 BASE.              Azerbaijan:  LOGGING EQUIPMENT BASE LOCATION
 REGN.                 Eurasia:  REGION
 FLD .                     ACG:  FIELD NAME
 SRVC.              KCA Deutag:  CONTRACTOR
 MWDS.                    Baku:  MWD SHOP
 WELL.     A10 (Slot 20) - SCP:  WELL NAME
 JOBN.        AZ-XX-0906192647:  JOB TICKET NUMB
 RIG .                 Chirag1:  RIG NAME
 DCON.     Halliburton Sperry Drilling:  DIRECTNL CONTR
 UNIT.                     N/A:  LOGGING EQUIPMENT ID
 PDAT.          Mean Sea Level:  PERMANENT DATUM
 MDS .        Operator Entered:  MAG DATA SOURCE
 CTRY.              Azerbaijan:  COUNTRY NAME
 UWI .            /AZE00000090:  UNIQUE WELL IDENTIFIER
 API .            /AZE00000090:  API NUMBER
 CNTY.                        :  COUNTY
 PROV.                        :  PROVINCE
 STAT.                        :  STATE
 LOC .                        :  LOCATION
 LMF .             Drill Floor:  LOG MEASURED FROM
 TVDS.m                  36.60:  TVDSS CORRECTN
 LATI.deg                40.08:  LATITUDE
 LONG.deg                51.24:  LONGITUDE
 WHNS.m                  -7.94:  WELL HEAD N/S
 WHEW.m                   1.56:  WELL HEAD E/W
 UTMX.m              520429.26:  UTM X
 UTMY.m             4438973.87:  UTM Y
 DFWL.m                   0.00:  DISTANCE FWL
 DFSL.m                   0.00:  DISTANCE FSL
 SDEP.m                1455.00:  START DEPTH
 TDD .m                4047.51:  TOTAL DEPTH (DRILLER)
 VSDR.deg               112.75:  VERT SEC DIRECT
 GVFD.g                   1.00:  GRAVITY FIELD
 MFLD.nT              50261.00:  MAGNETIC FIELD
 MDIP.deg                59.52:  MAGNETIC DIP
 MDEC.deg                 6.42:  MAGNETIC DECL
 GRDC.deg                 0.17:  GRID CORRECTION
 AZTC.deg                 6.25:  AZM TOTAL CORR
 EPD .m                   0.00:  ELEVATION
 EGL .m                   0.00:  GROUND ELEVATION
 WDMS.m                 121.00:  WD ELEV
 APD .m                  36.60:  DEPTH ABOVE PD
 AGAP.m                  36.60:  AIR GAP
 VSEW.m                   1.56:  VERT SEC E/W
 VSNS.m                  -7.94:  VERT SEC N/S
 DEP .m                1140.01:  DEPTH
 EKB .m                  36.60:  KB ELEVATION
 EDF .m                  36.60:  DF ELEVATION
 TDL .m                 169.50:  TOTAL DEPTH (LOGGER)
 CSGD.m                3875.01:  CASING BOTTOM (DRILLER)
 CSGL.m                3875.01:  CASING BOTTOM (LOGGER)
 CSGS.in                  7.63:  CASING SIZE
 CSGW.lbpf               23.50:  CASING WEIGHT
 VSC .                       0:  VS TO CLOSURE
 MAGU.                 1849206:  MAGUTM CHECKSUM
~Parameter Information Block
#MNEM.UNIT       Value        Description
#---------     -----------    ---------------------------
 AV  .mps                 1.90:  Ann Velocity 
 AVMX.mps                 2.54:  Max Ann Veloc 
 AZIF.deg               137.03:  Azm, Final 
 BHAT.        Rotary Steerable:  BHA Type 
 BREV.rev             23610.00:  Rev Bit Total 
 BROT.°/30m               0.80:  Build Rotating 
 BS  .in                  6.50:  Bit Size 
 BTPL.psig              110.00:  Bit Press Loss 
 CABU.                     Yes:  Customer Abuse 
 COMM.                     ÇV:  Run Comments 1 
 TCS .hr                 70.51:  Time Ciculation Ended 
 CV  .mps                 1.41:  Crit Velocity 
 CVMX.mps                 1.42:  Max Crit Veloc 
 DD1 .         Intigam Rahimov:  Direct Drillr 1 
 DD2 .          Rashad Gojayev:  Direct Drillr 2 
 DDSV.               Geo-Pilot:  DD Service 
 DEFF.%                 100.00:  % Det Eff 
 DLRX.°/30m               1.44:  Dogleg Rot Max 
 DLSO.°/30m               0.00:  Dogleg Oriented 
 DLSX.°/30m               0.00:  Dogleg Str Max 
 DRET.      03.05.00 01-Feb-20:  Drill End Time 
 DRST.      15.50.00 28-Jan-20:  Drill Start Tim 
 DTIM.hr                 24.70:  Time Drilling 
 EDEP.m                4047.51:  End Depth 
 ENG1.           Eldar Hajiyev:  Engineer 1 
 ENG2.          Rasim Hashimov:  Engineer 2 
 ENG3.          Rustam Safarov:  Engineer 3 
 ETIM.      22.00.00 01-Feb-20:  End Time 
 FLOI.gpm               370.00:  Flow In 
 FLON.gpm               300.00:  Flow In Min 
 FLOS.cptm                0.00:  Fluid Loss 
 FLOX.gpm               400.00:  Flow In Max 
 FTRO.       Formation Presure:  FTWD Run Obj 
 HFLO.                      No:  High Flow 
 HPRE.                      No:  High Pressure 
 HTEM.                      No:  High Temp 
 HYDO.m                   2.50:  Hydro Offset 
 IFIN.deg                39.54:  Inc, Final 
 IMAX.deg                41.14:  Inc Max 
 IMIN.deg                39.81:  Inc Min 
 IMND.m                4005.21:  Inc Min Depth 
 IMXD.m                3948.42:  Inc Max Depth 
 JARR.                      No:  Jarring 
 LETM.      03.05.00 01-Feb-20:  Log End Time 
 LOST.hr                     0:  Lost Rig Time 
 LSTM.      15.50.00 28-Jan-20:  Log Start Time 
 MDCL.ppm             37500.00:  Mud Chlorides 
 MDES.     Inversion Oil/Synthetic:  Mud Desc 
 DFD .sg                  1.32:  Mud Density 
 MDMN.sg                  1.32:  Dens Mud Min 
 MDMX.sg                  1.32:  Dens Mud Max 
 MOIL.                      55:  Run Mud Oil % 
 MOWR.                   70:30:  Run Mud OWR 
 MSND.                       0:  Run Mud Sand % 
 MSOL.                      17:  Run Mud Solids% 
 DFV .spqt               80.00:  Mud Viscosity 
 MWOD.in                  4.75:  MWD Tool OD 
 MWSI.                      No:  Serv Intrp, MWD 
 OTIM.hr                121.28:  Time Operating 
 PCON.           Look Like New:  Pad Condition 
 PMAX.psia             6171.00:  Press Op, Max 
 PV  .cP                 30.00:  Mud PV 
 RUN .                     300:  Run Number 
 ROPA.m/hr                5.45:  ROP Avg 
 ROPN.m/hr                3.00:  ROP Min 
 ROPX.m/hr               15.00:  ROP Max 
 RPMA.rpm               130.00:  RPM Surface Avg 
 RPMN.rpm                80.00:  RPM Surface Min 
 RPMX.rpm               140.00:  RPM Surface Max 
 RRUN.                     300:  Rig Run Number 
 RTIM.hr                 13.50:  Time Reaming 
 SAZI.deg               133.93:  Azm, Start 
 SDEP.m                3878.01:  Start Depth 
 SIDD.                      No:  Serv Intrp, DD 
 SINC.deg                40.28:  Inc, Start 
 SPPA.psig             4983.00:  SPP Avg 
 SPPN.psig             4370.00:  SPP Min 
 SPPX.psig             5300.00:  SPP Max 
 STIM.      18.33.36 27-Jan-20:  Start Time 
 SVCS.                 DD, MWD:  Services 
 SVER.                    9.20:  Sperry Version 
 TDAT.m                 169.50:  Tot Depth Attmp 
 TDDF.                      No:  Trip for DD 
 TDLG.m                 169.50:  Tot Depth Loggd 
 TFF .                      No:  Trip for Fail 
 TQAA.f-kp               13.25:  Torque Abs Avg 
 TQAN.f-kp               12.00:  Torque Abs Min 
 TQAX.f-kp               14.00:  Torque Abs Max 
 TRRT.°/30m               0.70:  Turn Rotating 
 MRT .                     ADR:  Maximum Recorded Temperature 
 TTMX.degC               92.16:  Max Tool Temp 
 VS01.       AZ90598764G12V7D4:  Virtual Str1 SN 
 VS02.         AZ90571342R12C4:  Virtual Str2 SN 
 VS03.      AZ90580010N2L2X1C4:  Virtual Str3 SN 
 VS04.        AZ90522266O7X1C4:  Virtual Str4 SN 
 VS05.           AZ90598768F11:  Virtual Str5 SN 
 VS06.     AZ90580006XZ1W1X1C4:  Virtual Str6 SN 
 WBMN.klb                 8.00:  WOB Min 
 WITN.            Peter Wilson:  Customer Rep 
 WOBA.klb                 9.88:  WOB Avg 
 WOBX.klb                10.00:  WOB Max 
 YP  .lhf2               27.00:  Yield Point 
~Curve Information Block
#MNEM.UNIT                 API CODE     Curve Description
#---------               -----------    ---------------------------
 TIME.HHMMSS            00 000 000 000:  GT Time & Date
 GTDEPTH.m              00 000 000 000:  GT Depth
 GTPQH.psia             00 000 000 000:  GT HR Quartz Pressure
 GTTQ.degC              00 000 000 000:  GT Quartz Temperature
 GTTN.NONE              00 000 000 000:  GT Test Number
 GTET.sec               00 000 000 000:  GT Elapsed Test Time
 GTTVD.m                00 000 000 000:  GT True Vertical Depth
#Other Information
#
#WARRANTY: Halliburton will use its best efforts to furnish customers with 
#accurate information and interpretations that are part of, and incident to, the services 
#provided.  However, Halliburton cannot and does not warrant the accuracy 
#or correctness of such information and interpretations.  Under no circumstances should any 
#such information or interpretation be relied upon as the sole basis for any drilling, 
#completion, production, or financial decision or any procedure involving any risk to the 
#safety of any drilling venture, drilling rig or its crew or any other third party.  The 
#Customer has full responsibility for all drilling, completion and production operation.  
#Halliburton makes no representations or warranties, either expressed or 
#implied, including, but not limited to, the implied warranties of merchantability or fitness 
#for a particular purpose, with respect to the services rendered.  In no event will 
#Halliburton be liable for failure to obtain any particular results or for 
#any damages, including, but not limited to, indirect, special or consequential damages, 
#resulting from the use of any information or interpretation provided by Halliburton.
#
~A           TIME           GTDEPTH  GTPQH  GTTQ  GTTN  GTET   GTTVD  
# ...
   14:11:47.087.31-Jan-2020 3945.01 2957.87 84.25 7.00 138.03 2971.20
   14:11:47.287.31-Jan-2020 3945.01 2957.87 84.25 7.00 138.23 2971.20
   14:11:47.487.31-Jan-2020 3945.01 2958.16 84.25 7.00 138.43 2971.20
   14:11:47.687.31-Jan-2020 3945.01 2957.77 84.25 7.00 138.63 2971.20
   14:11:47.887.31-Jan-2020 3945.01 2957.76 84.25 7.00 138.83 2971.20
   14:11:48.087.31-Jan-2020 3945.01 2957.75 84.25 7.00 139.03 2971.20
   14:11:48.287.31-Jan-2020 3945.01 2957.75 84.25 7.00 139.23 2971.20
   14:11:48.487.31-Jan-2020 3945.01 2957.96 84.25 7.00 139.43 2971.20
   14:11:48.687.31-Jan-2020 3945.01 2958.14 84.25 7.00 139.63 2971.20
   14:11:48.887.31-Jan-2020 3945.01 2958.16 84.25 7.00 139.83 2971.20
   14:11:49.087.31-Jan-2020 3945.01 2957.90 84.25 7.00 140.03 2971.20
   14:11:49.288.31-Jan-2020 3945.01 2957.90 84.25 7.00 140.23 2971.20
   14:11:49.488.31-Jan-2020 3945.01 2957.56 84.25 7.00 140.43 2971.20
   14:11:49.688.31-Jan-2020 3945.01 2957.81 84.25 7.00 140.63 2971.20
   14:11:49.888.31-Jan-2020 3945.01 2957.74 84.25 7.00 140.83 2971.20
   14:11:50.088.31-Jan-2020 3945.01 2957.99 84.25 7.00 141.03 2971.20
   14:11:50.288.31-Jan-2020 3945.01 2957.99 84.25 7.00 141.23 2971.20
   14:11:50.488.31-Jan-2020 3945.01 2957.52 84.24 7.00 141.43 2971.20
   14:11:50.688.31-Jan-2020 3945.01 2957.89 84.24 7.00 141.63 2971.20
   14:11:50.888.31-Jan-2020 3945.01 2957.69 84.24 7.00 141.83 2971.20
   14:11:51.088.31-Jan-2020 3945.01 2957.85 84.24 7.00 142.03 2971.20
   14:11:51.288.31-Jan-2020 3945.01 2957.85 84.24 7.00 142.23 2971.20
   14:11:51.488.31-Jan-2020 3945.01 2957.82 84.24 7.00 142.43 2971.20
   14:11:51.688.31-Jan-2020 3945.01 2957.88 84.24 7.00 142.63 2971.20
   14:11:51.888.31-Jan-2020 3945.01 2957.76 84.24 7.00 142.83 2971.20
   14:11:52.088.31-Jan-2020 3945.01 2957.93 84.24 7.00 143.03 2971.20
   14:11:52.288.31-Jan-2020 3945.01 2957.93 84.24 7.00 143.23 2971.20
   14:11:52.488.31-Jan-2020 3945.01 2957.49 84.24 7.00 143.43 2971.20
   14:11:52.688.31-Jan-2020 3945.01 2958.03 84.24 7.00 143.63 2971.20
   14:11:52.888.31-Jan-2020 3945.01 2958.15 84.24 7.00 143.83 2971.20
   14:11:53.088.31-Jan-2020 3945.01 2958.15 84.24 7.00 144.03 2971.20
   14:11:53.288.31-Jan-2020 3945.01 2958.15 84.24 7.00 144.23 2971.20
   14:11:53.489.31-Jan-2020 3945.01 3012.94 84.23 7.00 144.43 2971.20
   14:11:53.689.31-Jan-2020 3945.01 3013.17 84.23 7.00 144.63 2971.20
   14:11:53.889.31-Jan-2020 3945.01 3013.45 84.23 7.00 144.83 2971.20
   14:11:54.089.31-Jan-2020 3945.01 3013.52 84.23 7.00 145.03 2971.20
   14:11:54.289.31-Jan-2020 3945.01 3013.52 84.23 7.00 145.23 2971.20
   14:11:54.489.31-Jan-2020 3945.01 3013.60 84.23 7.00 145.43 2971.20
   14:11:54.689.31-Jan-2020 3945.01 3013.57 84.23 7.00 145.63 2971.20
   14:11:54.889.31-Jan-2020 3945.01 3013.79 84.23 7.00 145.83 2971.20
   14:11:55.089.31-Jan-2020 3945.01 3013.82 84.23 7.00 146.03 2971.20
   14:11:55.289.31-Jan-2020 3945.01 3013.82 84.23 7.00 146.23 2971.20
   14:11:55.489.31-Jan-2020 3945.01 3013.81 84.23 7.00 146.43 2971.20
   14:11:55.689.31-Jan-2020 3945.01 3013.86 84.23 7.00 146.63 2971.20
   14:11:55.889.31-Jan-2020 3945.01 3013.74 84.23 7.00 146.83 2971.20
   14:11:56.089.31-Jan-2020 3945.01 3013.96 84.23 7.00 147.03 2971.20
   14:11:56.289.31-Jan-2020 3945.01 3013.96 84.23 7.00 147.23 2971.20
   14:11:56.489.31-Jan-2020 3945.01 3013.93 84.22 7.00 147.43 2971.20
   14:11:56.689.31-Jan-2020 3945.01 3014.00 84.22 7.00 147.63 2971.20
   14:11:56.889.31-Jan-2020 3945.01 3013.94 84.22 7.00 147.83 2971.20
   14:11:57.089.31-Jan-2020 3945.01 3013.97 84.22 7.00 148.03 2971.20
   14:11:57.289.31-Jan-2020 3945.01 3013.97 84.22 7.00 148.23 2971.20
   14:11:57.489.31-Jan-2020 3945.01 3013.97 84.22 7.00 148.43 2971.20
   14:11:57.690.31-Jan-2020 3945.01 3014.06 84.22 7.00 148.63 2971.20
   14:11:57.890.31-Jan-2020 3945.01 3014.00 84.22 7.00 148.83 2971.20
   14:11:58.090.31-Jan-2020 3945.01 3014.03 84.22 7.00 149.03 2971.20
   14:11:58.290.31-Jan-2020 3945.01 3014.03 84.22 7.00 149.23 2971.20
   14:11:58.490.31-Jan-2020 3945.01 3013.99 84.22 7.00 149.44 2971.20
   14:11:58.690.31-Jan-2020 3945.01 3014.09 84.22 7.00 149.64 2971.20
   14:11:58.890.31-Jan-2020 3945.01 3014.06 84.22 7.00 149.84 2971.20
   14:11:59.090.31-Jan-2020 3945.01 3014.03 84.22 7.00 150.04 2971.20
   14:11:59.290.31-Jan-2020 3945.01 3014.03 84.22 7.00 150.24 2971.20
   14:11:59.490.31-Jan-2020 3945.01 3014.00 84.22 7.00 150.44 2971.20
   14:11:59.690.31-Jan-2020 3945.01 3014.04 84.21 7.00 150.64 2971.20
   14:11:59.890.31-Jan-2020 3945.01 3014.02 84.21 7.00 150.84 2971.20
   14:12:00.090.31-Jan-2020 3945.01 3014.02 84.21 7.00 151.04 2971.20
   14:12:00.290.31-Jan-2020 3945.01 3014.02 84.21 7.00 151.24 2971.20
   14:12:00.490.31-Jan-2020 3945.01 3013.99 84.21 7.00 151.44 2971.20
   14:12:00.690.31-Jan-2020 3945.01 3014.04 84.21 7.00 151.64 2971.20
   14:12:00.890.31-Jan-2020 3945.01 3014.00 84.21 7.00 151.84 2971.20
   14:12:01.090.31-Jan-2020 3945.01 3014.00 84.21 7.00 152.04 2971.20
   14:12:01.290.31-Jan-2020 3945.01 3014.00 84.21 7.00 152.24 2971.20
   14:12:01.490.31-Jan-2020 3945.01 3013.99 84.21 7.00 152.44 2971.20
   14:12:01.690.31-Jan-2020 3945.01 3014.05 84.21 7.00 152.64 2971.20
   14:12:01.890.31-Jan-2020 3945.01 3013.97 84.21 7.00 152.84 2971.20
   14:12:02.091.31-Jan-2020 3945.01 3014.02 84.21 7.00 153.04 2971.20
   14:12:02.291.31-Jan-2020 3945.01 3014.02 84.21 7.00 153.24 2971.20
   14:12:02.491.31-Jan-2020 3945.01 3014.04 84.21 7.00 153.44 2971.20
   14:12:02.691.31-Jan-2020 3945.01 3014.10 84.21 7.00 153.64 2971.20
   14:12:02.891.31-Jan-2020 3945.01 3014.08 84.21 7.00 153.84 2971.20
   14:12:03.091.31-Jan-2020 3945.01 3014.05 84.20 7.00 154.04 2971.20
   14:12:03.291.31-Jan-2020 3945.01 3014.05 84.20 7.00 154.24 2971.20
   14:12:03.491.31-Jan-2020 3945.01 3014.03 84.20 7.00 154.44 2971.20
   14:12:03.691.31-Jan-2020 3945.01 3014.08 84.20 7.00 154.64 2971.20
   14:12:03.891.31-Jan-2020 3945.01 3014.07 84.20 7.00 154.84 2971.20
   14:12:04.091.31-Jan-2020 3945.01 3014.04 84.20 7.00 155.04 2971.20
   14:12:04.291.31-Jan-2020 3945.01 3014.04 84.20 7.00 155.24 2971.20
   14:12:04.491.31-Jan-2020 3945.01 3014.00 84.20 7.00 155.44 2971.20
   14:12:04.691.31-Jan-2020 3945.01 3014.06 84.20 7.00 155.64 2971.20
   14:12:04.891.31-Jan-2020 3945.01 3014.09 84.20 7.00 155.84 2971.20
   14:12:05.091.31-Jan-2020 3945.01 3014.05 84.20 7.00 156.04 2971.20
   14:12:05.291.31-Jan-2020 3945.01 3014.05 84.20 7.00 156.24 2971.20
   14:12:05.491.31-Jan-2020 3945.01 3014.04 84.20 7.00 156.44 2971.20
   14:12:05.691.31-Jan-2020 3945.01 3014.11 84.20 7.00 156.64 2971.20
   14:12:05.891.31-Jan-2020 3945.01 3014.09 84.20 7.00 156.84 2971.20
   14:12:06.091.31-Jan-2020 3945.01 3014.07 84.20 7.00 157.04 2971.20
   14:12:06.292.31-Jan-2020 3945.01 3014.07 84.20 7.00 157.24 2971.20
   14:12:06.492.31-Jan-2020 3945.01 3014.07 84.19 7.00 157.44 2971.20
   14:12:06.692.31-Jan-2020 3945.01 3014.12 84.19 7.00 157.64 2971.20
   14:12:06.892.31-Jan-2020 3945.01 3014.13 84.19 7.00 157.84 2971.20
   14:12:07.092.31-Jan-2020 3945.01 3014.08 84.19 7.00 158.04 2971.20
   14:12:07.292.31-Jan-2020 3945.01 3014.08 84.19 7.00 158.24 2971.20
   14:12:07.492.31-Jan-2020 3945.01 3013.99 84.19 7.00 158.44 2971.20
   14:12:07.692.31-Jan-2020 3945.01 3014.07 84.19 7.00 158.64 2971.20
   14:12:07.892.31-Jan-2020 3945.01 3014.15 84.19 7.00 158.84 2971.20
   14:12:08.092.31-Jan-2020 3945.01 3014.09 84.19 7.00 159.04 2971.20
   14:12:08.292.31-Jan-2020 3945.01 3014.09 84.19 7.00 159.24 2971.20
   14:12:08.492.31-Jan-2020 3945.01 3013.96 84.19 7.00 159.44 2971.20
   14:12:08.692.31-Jan-2020 3945.01 3014.15 84.19 7.00 159.64 2971.20
   14:12:08.892.31-Jan-2020 3945.01 3014.15 84.19 7.00 159.84 2971.20
   14:12:09.092.31-Jan-2020 3945.01 3014.10 84.19 7.00 160.04 2971.20
   14:12:09.292.31-Jan-2020 3945.01 3014.10 84.19 7.00 160.24 2971.20
   14:12:09.492.31-Jan-2020 3945.01 3014.06 84.19 7.00 160.44 2971.20
   14:12:09.692.31-Jan-2020 3945.01 3014.09 84.18 7.00 160.64 2971.20
   14:12:09.892.31-Jan-2020 3945.01 3013.99 84.18 7.00 160.84 2971.20
