~Version Information
 VERS.                  2.0:   CWLS log ASCII Standard -VERSION 2.0
 WRAP.                   NO:   One line per depth step
~Well Information Block
#MNEM.UNIT     VALUE/NAME     DESCRIPTION
#---------     -----------    ---------------------------
 STRT.S             01:28:25 01-Feb-20: START TIME 01:28:25 01-Feb-20
 STOP.S             01:36:19 01-Feb-20: STOP TIME  01:36:19 01-Feb-20
 STEP.S                   0.00: STEP TIME
 NULL.                 -999.25: NULL VALUE
 DFWT.                        :  DIST FWL TEXT
 DFST.                        :  DIST FSL TEXT
 DMF .             Drill Floor:  DRILL MEAS FROM
 STIM.      09.30.00 26-Dec-19:  START TIME
 DATE.      08.00.00 20-Jan-20:  END TIME
 SPUD.               23-Nov-19:  SPUD DATE
 NREF.                    Grid:  NORTH REFERENCE
 HPTY.       Minimum Curvature:  HOLE POS TYPE
 DMOD.             Drill Model:  DRILL MOD DESC
 SVYD.                  Survey:  SURVEY DESC
 ILTD.               Lithology:  INTERP LTH DESC
 FTOP.          Formation Tops:  FORM TOPS DESC
 SON .        AZ-XX-0906192647:  JOB NUMBER
 WTYP.                Deviated:  WELL TYPE
 COMP.     BP Exploration (Caspian Sea) Ltd:  COMPANY
 BASE.              Azerbaijan:  LOGGING EQUIPMENT BASE LOCATION
 REGN.                 Eurasia:  REGION
 FLD .                     ACG:  FIELD NAME
 SRVC.              KCA Deutag:  CONTRACTOR
 MWDS.                    Baku:  MWD SHOP
 WELL.     A10 (Slot 20) - SCP:  WELL NAME
 JOBN.        AZ-XX-0906192647:  JOB TICKET NUMB
 RIG .                 Chirag1:  RIG NAME
 DCON.     Halliburton Sperry Drilling:  DIRECTNL CONTR
 UNIT.                     N/A:  LOGGING EQUIPMENT ID
 PDAT.          Mean Sea Level:  PERMANENT DATUM
 MDS .        Operator Entered:  MAG DATA SOURCE
 CTRY.              Azerbaijan:  COUNTRY NAME
 UWI .            /AZE00000090:  UNIQUE WELL IDENTIFIER
 API .            /AZE00000090:  API NUMBER
 CNTY.                        :  COUNTY
 PROV.                        :  PROVINCE
 STAT.                        :  STATE
 LOC .                        :  LOCATION
 LMF .             Drill Floor:  LOG MEASURED FROM
 TVDS.m                  36.60:  TVDSS CORRECTN
 LATI.deg                40.08:  LATITUDE
 LONG.deg                51.24:  LONGITUDE
 WHNS.m                  -7.94:  WELL HEAD N/S
 WHEW.m                   1.56:  WELL HEAD E/W
 UTMX.m              520429.26:  UTM X
 UTMY.m             4438973.87:  UTM Y
 DFWL.m                   0.00:  DISTANCE FWL
 DFSL.m                   0.00:  DISTANCE FSL
 SDEP.m                1455.00:  START DEPTH
 TDD .m                4047.51:  TOTAL DEPTH (DRILLER)
 VSDR.deg               112.75:  VERT SEC DIRECT
 GVFD.g                   1.00:  GRAVITY FIELD
 MFLD.nT              50261.00:  MAGNETIC FIELD
 MDIP.deg                59.52:  MAGNETIC DIP
 MDEC.deg                 6.42:  MAGNETIC DECL
 GRDC.deg                 0.17:  GRID CORRECTION
 AZTC.deg                 6.25:  AZM TOTAL CORR
 EPD .m                   0.00:  ELEVATION
 EGL .m                   0.00:  GROUND ELEVATION
 WDMS.m                 121.00:  WD ELEV
 APD .m                  36.60:  DEPTH ABOVE PD
 AGAP.m                  36.60:  AIR GAP
 VSEW.m                   1.56:  VERT SEC E/W
 VSNS.m                  -7.94:  VERT SEC N/S
 DEP .m                1140.01:  DEPTH
 EKB .m                  36.60:  KB ELEVATION
 EDF .m                  36.60:  DF ELEVATION
 TDL .m                 169.50:  TOTAL DEPTH (LOGGER)
 CSGD.m                3875.01:  CASING BOTTOM (DRILLER)
 CSGL.m                3875.01:  CASING BOTTOM (LOGGER)
 CSGS.in                  7.63:  CASING SIZE
 CSGW.lbpf               23.50:  CASING WEIGHT
 VSC .                       0:  VS TO CLOSURE
 MAGU.                 1849206:  MAGUTM CHECKSUM
~Parameter Information Block
#MNEM.UNIT       Value        Description
#---------     -----------    ---------------------------
 AV  .mps                 1.90:  Ann Velocity 
 AVMX.mps                 2.54:  Max Ann Veloc 
 AZIF.deg               137.03:  Azm, Final 
 BHAT.        Rotary Steerable:  BHA Type 
 BREV.rev             23610.00:  Rev Bit Total 
 BROT.°/30m               0.80:  Build Rotating 
 BS  .in                  6.50:  Bit Size 
 BTPL.psig              110.00:  Bit Press Loss 
 CABU.                     Yes:  Customer Abuse 
 COMM.                     ì…†:  Run Comments 1 
 TCS .hr                 70.51:  Time Ciculation Ended 
 CV  .mps                 1.41:  Crit Velocity 
 CVMX.mps                 1.42:  Max Crit Veloc 
 DD1 .         Intigam Rahimov:  Direct Drillr 1 
 DD2 .          Rashad Gojayev:  Direct Drillr 2 
 DDSV.               Geo-Pilot:  DD Service 
 DEFF.%                 100.00:  % Det Eff 
 DLRX.°/30m               1.44:  Dogleg Rot Max 
 DLSO.°/30m               0.00:  Dogleg Oriented 
 DLSX.°/30m               0.00:  Dogleg Str Max 
 DRET.      03.05.00 01-Feb-20:  Drill End Time 
 DRST.      15.50.00 28-Jan-20:  Drill Start Tim 
 DTIM.hr                 24.70:  Time Drilling 
 EDEP.m                4047.51:  End Depth 
 ENG1.           Eldar Hajiyev:  Engineer 1 
 ENG2.          Rasim Hashimov:  Engineer 2 
 ENG3.          Rustam Safarov:  Engineer 3 
 ETIM.      22.00.00 01-Feb-20:  End Time 
 FLOI.gpm               370.00:  Flow In 
 FLON.gpm               300.00:  Flow In Min 
 FLOS.cptm                0.00:  Fluid Loss 
 FLOX.gpm               400.00:  Flow In Max 
 FTRO.       Formation Presure:  FTWD Run Obj 
 HFLO.                      No:  High Flow 
 HPRE.                      No:  High Pressure 
 HTEM.                      No:  High Temp 
 HYDO.m                   2.50:  Hydro Offset 
 IFIN.deg                39.54:  Inc, Final 
 IMAX.deg                41.14:  Inc Max 
 IMIN.deg                39.81:  Inc Min 
 IMND.m                4005.21:  Inc Min Depth 
 IMXD.m                3948.42:  Inc Max Depth 
 JARR.                      No:  Jarring 
 LETM.      03.05.00 01-Feb-20:  Log End Time 
 LOST.hr                     0:  Lost Rig Time 
 LSTM.      15.50.00 28-Jan-20:  Log Start Time 
 MDCL.ppm             37500.00:  Mud Chlorides 
 MDES.     Inversion Oil/Synthetic:  Mud Desc 
 DFD .sg                  1.32:  Mud Density 
 MDMN.sg                  1.32:  Dens Mud Min 
 MDMX.sg                  1.32:  Dens Mud Max 
 MOIL.                      55:  Run Mud Oil % 
 MOWR.                   70:30:  Run Mud OWR 
 MSND.                       0:  Run Mud Sand % 
 MSOL.                      17:  Run Mud Solids% 
 DFV .spqt               80.00:  Mud Viscosity 
 MWOD.in                  4.75:  MWD Tool OD 
 MWSI.                      No:  Serv Intrp, MWD 
 OTIM.hr                121.28:  Time Operating 
 PCON.           Look Like New:  Pad Condition 
 PMAX.psia             6171.00:  Press Op, Max 
 PV  .cP                 30.00:  Mud PV 
 RUN .                     300:  Run Number 
 ROPA.m/hr                5.45:  ROP Avg 
 ROPN.m/hr                3.00:  ROP Min 
 ROPX.m/hr               15.00:  ROP Max 
 RPMA.rpm               130.00:  RPM Surface Avg 
 RPMN.rpm                80.00:  RPM Surface Min 
 RPMX.rpm               140.00:  RPM Surface Max 
 RRUN.                     300:  Rig Run Number 
 RTIM.hr                 13.50:  Time Reaming 
 SAZI.deg               133.93:  Azm, Start 
 SDEP.m                3878.01:  Start Depth 
 SIDD.                      No:  Serv Intrp, DD 
 SINC.deg                40.28:  Inc, Start 
 SPPA.psig             4983.00:  SPP Avg 
 SPPN.psig             4370.00:  SPP Min 
 SPPX.psig             5300.00:  SPP Max 
 STIM.      18.33.36 27-Jan-20:  Start Time 
 SVCS.                 DD, MWD:  Services 
 SVER.                    9.20:  Sperry Version 
 TDAT.m                 169.50:  Tot Depth Attmp 
 TDDF.                      No:  Trip for DD 
 TDLG.m                 169.50:  Tot Depth Loggd 
 TFF .                      No:  Trip for Fail 
 TQAA.f-kp               13.25:  Torque Abs Avg 
 TQAN.f-kp               12.00:  Torque Abs Min 
 TQAX.f-kp               14.00:  Torque Abs Max 
 TRRT.°/30m               0.70:  Turn Rotating 
 MRT .                     ADR:  Maximum Recorded Temperature 
 TTMX.degC               92.16:  Max Tool Temp 
 VS01.       AZ90598764G12V7D4:  Virtual Str1 SN 
 VS02.         AZ90571342R12C4:  Virtual Str2 SN 
 VS03.      AZ90580010N2L2X1C4:  Virtual Str3 SN 
 VS04.        AZ90522266O7X1C4:  Virtual Str4 SN 
 VS05.           AZ90598768F11:  Virtual Str5 SN 
 VS06.     AZ90580006XZ1W1X1C4:  Virtual Str6 SN 
 WBMN.klb                 8.00:  WOB Min 
 WITN.            Peter Wilson:  Customer Rep 
 WOBA.klb                 9.88:  WOB Avg 
 WOBX.klb                10.00:  WOB Max 
 YP  .lhf2               27.00:  Yield Point 
~Curve Information Block
#MNEM.UNIT                 API CODE     Curve Description
#---------               -----------    ---------------------------
 TIME.HHMMSS            00 000 000 000:  GT Time & Date
 GTDEPTH.m              00 000 000 000:  GT Depth
 GTPQH.psia             00 000 000 000:  GT HR Quartz Pressure
 GTTQ.degC              00 000 000 000:  GT Quartz Temperature
 GTTN.NONE              00 000 000 000:  GT Test Number
 GTET.sec               00 000 000 000:  GT Elapsed Test Time
 GTTVD.m                00 000 000 000:  GT True Vertical Depth
#Other Information
#
#WARRANTY: Halliburton will use its best efforts to furnish customers with 
#accurate information and interpretations that are part of, and incident to, the services 
#provided.  However, Halliburton cannot and does not warrant the accuracy 
#or correctness of such information and interpretations.  Under no circumstances should any 
#such information or interpretation be relied upon as the sole basis for any drilling, 
#completion, production, or financial decision or any procedure involving any risk to the 
#safety of any drilling venture, drilling rig or its crew or any other third party.  The 
#Customer has full responsibility for all drilling, completion and production operation.  
#Halliburton makes no representations or warranties, either expressed or 
#implied, including, but not limited to, the implied warranties of merchantability or fitness 
#for a particular purpose, with respect to the services rendered.  In no event will 
#Halliburton be liable for failure to obtain any particular results or for 
#any damages, including, but not limited to, indirect, special or consequential damages, 
#resulting from the use of any information or interpretation provided by Halliburton.
#
~A           TIME           GTDEPTH  GTPQH  GTTQ  GTTN   GTET   GTTVD  
# ...
   01:32:34.496.01-Feb-2020 3990.12 3216.55 84.58 11.00 249.47 3005.35
   01:32:34.697.01-Feb-2020 3990.12 3215.97 84.58 11.00 249.67 3005.35
   01:32:34.898.01-Feb-2020 3990.12 3216.19 84.58 11.00 249.87 3005.35
   01:32:35.098.01-Feb-2020 3990.12 3216.19 84.58 11.00 250.07 3005.35
   01:32:35.299.01-Feb-2020 3990.12 3216.31 84.58 11.00 250.28 3005.35
   01:32:35.500.01-Feb-2020 3990.12 3216.43 84.58 11.00 250.48 3005.35
   01:32:35.701.01-Feb-2020 3990.12 3216.47 84.58 11.00 250.68 3005.35
   01:32:35.901.01-Feb-2020 3990.12 3216.35 84.58 11.00 250.88 3005.35
   01:32:36.102.01-Feb-2020 3990.12 3216.35 84.58 11.00 251.08 3005.35
   01:32:36.303.01-Feb-2020 3990.12 3216.13 84.57 11.00 251.28 3005.35
   01:32:36.503.01-Feb-2020 3990.12 3216.17 84.57 11.00 251.48 3005.35
   01:32:36.704.01-Feb-2020 3990.12 3216.48 84.57 11.00 251.68 3005.35
   01:32:36.905.01-Feb-2020 3990.12 3216.47 84.57 11.00 251.88 3005.35
   01:32:37.105.01-Feb-2020 3990.12 3216.47 84.57 11.00 252.08 3005.35
   01:32:37.306.01-Feb-2020 3990.12 3216.57 84.57 11.00 252.28 3005.35
   01:32:37.507.01-Feb-2020 3990.12 3216.41 84.57 11.00 252.48 3005.35
   01:32:37.708.01-Feb-2020 3990.12 3216.50 84.57 11.00 252.68 3005.35
   01:32:37.908.01-Feb-2020 3990.12 3216.58 84.57 11.00 252.88 3005.35
   01:32:38.109.01-Feb-2020 3990.12 3216.58 84.57 11.00 253.08 3005.35
   01:32:38.310.01-Feb-2020 3990.12 3216.49 84.57 11.00 253.29 3005.35
   01:32:38.510.01-Feb-2020 3990.12 3216.50 84.57 11.00 253.49 3005.35
   01:32:38.711.01-Feb-2020 3990.12 3216.35 84.57 11.00 253.69 3005.35
   01:32:38.912.01-Feb-2020 3990.12 3216.44 84.57 11.00 253.89 3005.35
   01:32:39.112.01-Feb-2020 3990.12 3216.44 84.57 11.00 254.09 3005.35
   01:32:39.313.01-Feb-2020 3990.12 3216.39 84.57 11.00 254.29 3005.35
   01:32:39.514.01-Feb-2020 3990.12 3216.59 84.57 11.00 254.49 3005.35
   01:32:39.715.01-Feb-2020 3990.12 3216.54 84.57 11.00 254.69 3005.35
   01:32:39.915.01-Feb-2020 3990.12 3216.22 84.57 11.00 254.89 3005.35
   01:32:40.116.01-Feb-2020 3990.12 3216.22 84.57 11.00 255.09 3005.35
   01:32:40.317.01-Feb-2020 3990.12 3216.32 84.57 11.00 255.29 3005.35
   01:32:40.517.01-Feb-2020 3990.12 3216.48 84.57 11.00 255.49 3005.35
   01:32:40.718.01-Feb-2020 3990.12 3216.56 84.57 11.00 255.69 3005.35
   01:32:40.919.01-Feb-2020 3990.12 3216.46 84.56 11.00 255.89 3005.35
   01:32:41.120.01-Feb-2020 3990.12 3216.46 84.56 11.00 256.10 3005.35
   01:32:41.320.01-Feb-2020 3990.12 3216.55 84.56 11.00 256.30 3005.35
   01:32:41.521.01-Feb-2020 3990.12 3216.48 84.56 11.00 256.50 3005.35
   01:32:41.722.01-Feb-2020 3990.12 3216.63 84.56 11.00 256.70 3005.35
   01:32:41.922.01-Feb-2020 3990.12 3216.45 84.56 11.00 256.90 3005.35
   01:32:42.123.01-Feb-2020 3990.12 3216.45 84.56 11.00 257.10 3005.35
   01:32:42.324.01-Feb-2020 3990.12 3216.56 84.56 11.00 257.30 3005.35
   01:32:42.524.01-Feb-2020 3990.12 3216.44 84.56 11.00 257.50 3005.35
   01:32:42.725.01-Feb-2020 3990.12 3216.52 84.56 11.00 257.70 3005.35
   01:32:42.926.01-Feb-2020 3990.12 3216.60 84.56 11.00 257.90 3005.35
   01:32:43.127.01-Feb-2020 3990.12 3216.60 84.56 11.00 258.10 3005.35
   01:32:43.327.01-Feb-2020 3990.12 3216.33 84.56 11.00 258.30 3005.35
   01:32:43.528.01-Feb-2020 3990.12 3216.45 84.56 11.00 258.50 3005.35
   01:32:43.729.01-Feb-2020 3990.12 3216.47 84.56 11.00 258.70 3005.35
   01:32:43.929.01-Feb-2020 3990.12 3216.60 84.56 11.00 258.91 3005.35
   01:32:44.130.01-Feb-2020 3990.12 3216.60 84.56 11.00 259.11 3005.35
   01:32:44.331.01-Feb-2020 3990.12 3216.20 84.56 11.00 259.31 3005.35
   01:32:44.531.01-Feb-2020 3990.12 3216.42 84.56 11.00 259.51 3005.35
   01:32:44.732.01-Feb-2020 3990.12 3216.46 84.56 11.00 259.71 3005.35
   01:32:44.933.01-Feb-2020 3990.12 3216.63 84.56 11.00 259.91 3005.35
   01:32:45.134.01-Feb-2020 3990.12 3216.63 84.56 11.00 260.11 3005.35
   01:32:45.334.01-Feb-2020 3990.12 3216.71 84.56 11.00 260.31 3005.35
   01:32:45.535.01-Feb-2020 3990.12 3216.38 84.56 11.00 260.51 3005.35
   01:32:45.736.01-Feb-2020 3990.12 3216.43 84.55 11.00 260.71 3005.35
   01:32:45.936.01-Feb-2020 3990.12 3216.41 84.55 11.00 260.91 3005.35
   01:32:46.137.01-Feb-2020 3990.12 3216.41 84.55 11.00 261.11 3005.35
   01:32:46.338.01-Feb-2020 3990.12 3216.70 84.55 11.00 261.31 3005.35
   01:32:46.538.01-Feb-2020 3990.12 3216.32 84.55 11.00 261.51 3005.35
   01:32:46.739.01-Feb-2020 3990.12 3216.51 84.55 11.00 261.72 3005.35
   01:32:46.940.01-Feb-2020 3990.12 3216.51 84.55 11.00 261.92 3005.35
   01:32:47.141.01-Feb-2020 3990.12 3216.51 84.55 11.00 262.12 3005.35
   01:32:47.341.01-Feb-2020 3990.12 3216.78 84.55 11.00 262.32 3005.35
   01:32:47.542.01-Feb-2020 3990.12 3216.65 84.55 11.00 262.52 3005.35
   01:32:47.743.01-Feb-2020 3990.12 3216.76 84.55 11.00 262.72 3005.35
   01:32:47.943.01-Feb-2020 3990.12 3216.33 84.55 11.00 262.92 3005.35
   01:32:48.144.01-Feb-2020 3990.12 3216.33 84.55 11.00 263.12 3005.35
   01:32:48.345.01-Feb-2020 3990.12 3216.71 84.55 11.00 263.32 3005.35
   01:32:48.545.01-Feb-2020 3990.12 3216.75 84.55 11.00 263.52 3005.35
   01:32:48.746.01-Feb-2020 3990.12 3216.73 84.55 11.00 263.72 3005.35
   01:32:48.947.01-Feb-2020 3990.12 3216.81 84.55 11.00 263.92 3005.35
   01:32:49.148.01-Feb-2020 3990.12 3216.81 84.55 11.00 264.12 3005.35
   01:32:49.348.01-Feb-2020 3990.12 3216.68 84.55 11.00 264.32 3005.35
   01:32:49.549.01-Feb-2020 3990.12 3216.79 84.55 11.00 264.52 3005.35
   01:32:49.750.01-Feb-2020 3990.12 3216.62 84.55 11.00 264.73 3005.35
   01:32:49.950.01-Feb-2020 3990.12 3216.67 84.55 11.00 264.93 3005.35
   01:32:50.151.01-Feb-2020 3990.12 3216.67 84.55 11.00 265.13 3005.35
   01:32:50.352.01-Feb-2020 3990.12 3216.62 84.54 11.00 265.33 3005.35
   01:32:50.552.01-Feb-2020 3990.12 3216.62 84.54 11.00 265.53 3005.35
   01:32:50.753.01-Feb-2020 3990.12 3216.63 84.54 11.00 265.73 3005.35
   01:32:50.954.01-Feb-2020 3990.12 3216.64 84.54 11.00 265.93 3005.35
   01:32:51.155.01-Feb-2020 3990.12 3216.64 84.54 11.00 266.13 3005.35
   01:32:51.355.01-Feb-2020 3990.12 3216.75 84.54 11.00 266.33 3005.35
   01:32:51.556.01-Feb-2020 3990.12 3216.40 84.54 11.00 266.53 3005.35
   01:32:51.757.01-Feb-2020 3990.12 3216.62 84.54 11.00 266.73 3005.35
   01:32:51.957.01-Feb-2020 3990.12 3216.53 84.54 11.00 266.93 3005.35
   01:32:52.158.01-Feb-2020 3990.12 3216.53 84.54 11.00 267.13 3005.35
   01:32:52.359.01-Feb-2020 3990.12 3216.78 84.54 11.00 267.33 3005.35
   01:32:52.560.01-Feb-2020 3990.12 3216.73 84.54 11.00 267.54 3005.35
   01:32:52.760.01-Feb-2020 3990.12 3216.78 84.54 11.00 267.74 3005.35
   01:32:52.961.01-Feb-2020 3990.12 3216.74 84.54 11.00 267.94 3005.35
   01:32:53.162.01-Feb-2020 3990.12 3216.74 84.54 11.00 268.14 3005.35
   01:32:53.362.01-Feb-2020 3990.12 3216.79 84.54 11.00 268.34 3005.35
   01:32:53.563.01-Feb-2020 3990.12 3216.75 84.54 11.00 268.54 3005.35
   01:32:53.764.01-Feb-2020 3990.12 3216.74 84.54 11.00 268.74 3005.35
   01:32:53.964.01-Feb-2020 3990.12 3216.75 84.54 11.00 268.94 3005.35
   01:32:54.165.01-Feb-2020 3990.12 3216.75 84.54 11.00 269.14 3005.35
   01:32:54.366.01-Feb-2020 3990.12 3216.74 84.54 11.00 269.34 3005.35
   01:32:54.567.01-Feb-2020 3990.12 3216.81 84.54 11.00 269.54 3005.35
   01:32:54.767.01-Feb-2020 3990.12 3216.90 84.54 11.00 269.74 3005.35
   01:32:54.968.01-Feb-2020 3990.12 3216.52 84.54 11.00 269.94 3005.35
   01:32:55.169.01-Feb-2020 3990.12 3216.52 84.54 11.00 270.14 3005.35
   01:32:55.369.01-Feb-2020 3990.12 3216.72 84.53 11.00 270.35 3005.35
   01:32:55.570.01-Feb-2020 3990.12 3216.83 84.53 11.00 270.55 3005.35
   01:32:55.771.01-Feb-2020 3990.12 3216.84 84.53 11.00 270.75 3005.35
   01:32:55.971.01-Feb-2020 3990.12 3216.49 84.53 11.00 270.95 3005.35
   01:32:56.172.01-Feb-2020 3990.12 3216.49 84.53 11.00 271.15 3005.35
   01:32:56.373.01-Feb-2020 3990.12 3216.77 84.53 11.00 271.35 3005.35
   01:32:56.574.01-Feb-2020 3990.12 3216.85 84.53 11.00 271.55 3005.35
   01:32:56.774.01-Feb-2020 3990.12 3216.91 84.53 11.00 271.75 3005.35
   01:32:56.975.01-Feb-2020 3990.12 3216.97 84.53 11.00 271.95 3005.35
