~Version Information
 VERS.                  2.0:   CWLS log ASCII Standard -VERSION 2.0
 WRAP.                   NO:   One line per depth step
~Well Information Block
#MNEM.UNIT     VALUE/NAME     DESCRIPTION
#---------     -----------    ---------------------------
 STRT.S             19:01:08 30-Jan-20: START TIME 19:01:08 30-Jan-20
 STOP.S             19:07:38 30-Jan-20: STOP TIME  19:07:38 30-Jan-20
 STEP.S                   0.00: STEP TIME
 NULL.                 -999.25: NULL VALUE
 DFWT.                        :  DIST FWL TEXT
 DFST.                        :  DIST FSL TEXT
 DMF .             Drill Floor:  DRILL MEAS FROM
 STIM.      09.30.00 26-Dec-19:  START TIME
 DATE.      08.00.00 20-Jan-20:  END TIME
 SPUD.               23-Nov-19:  SPUD DATE
 NREF.                    Grid:  NORTH REFERENCE
 HPTY.       Minimum Curvature:  HOLE POS TYPE
 DMOD.             Drill Model:  DRILL MOD DESC
 SVYD.                  Survey:  SURVEY DESC
 ILTD.               Lithology:  INTERP LTH DESC
 FTOP.          Formation Tops:  FORM TOPS DESC
 SON .        AZ-XX-0906192647:  JOB NUMBER
 WTYP.                Deviated:  WELL TYPE
 COMP.     BP Exploration (Caspian Sea) Ltd:  COMPANY
 BASE.              Azerbaijan:  LOGGING EQUIPMENT BASE LOCATION
 REGN.                 Eurasia:  REGION
 FLD .                     ACG:  FIELD NAME
 SRVC.              KCA Deutag:  CONTRACTOR
 MWDS.                    Baku:  MWD SHOP
 WELL.     A10 (Slot 20) - SCP:  WELL NAME
 JOBN.        AZ-XX-0906192647:  JOB TICKET NUMB
 RIG .                 Chirag1:  RIG NAME
 DCON.     Halliburton Sperry Drilling:  DIRECTNL CONTR
 UNIT.                     N/A:  LOGGING EQUIPMENT ID
 PDAT.          Mean Sea Level:  PERMANENT DATUM
 MDS .        Operator Entered:  MAG DATA SOURCE
 CTRY.              Azerbaijan:  COUNTRY NAME
 UWI .            /AZE00000090:  UNIQUE WELL IDENTIFIER
 API .            /AZE00000090:  API NUMBER
 CNTY.                        :  COUNTY
 PROV.                        :  PROVINCE
 STAT.                        :  STATE
 LOC .                        :  LOCATION
 LMF .             Drill Floor:  LOG MEASURED FROM
 TVDS.m                  36.60:  TVDSS CORRECTN
 LATI.deg                40.08:  LATITUDE
 LONG.deg                51.24:  LONGITUDE
 WHNS.m                  -7.94:  WELL HEAD N/S
 WHEW.m                   1.56:  WELL HEAD E/W
 UTMX.m              520429.26:  UTM X
 UTMY.m             4438973.87:  UTM Y
 DFWL.m                   0.00:  DISTANCE FWL
 DFSL.m                   0.00:  DISTANCE FSL
 SDEP.m                1455.00:  START DEPTH
 TDD .m                4047.51:  TOTAL DEPTH (DRILLER)
 VSDR.deg               112.75:  VERT SEC DIRECT
 GVFD.g                   1.00:  GRAVITY FIELD
 MFLD.nT              50261.00:  MAGNETIC FIELD
 MDIP.deg                59.52:  MAGNETIC DIP
 MDEC.deg                 6.42:  MAGNETIC DECL
 GRDC.deg                 0.17:  GRID CORRECTION
 AZTC.deg                 6.25:  AZM TOTAL CORR
 EPD .m                   0.00:  ELEVATION
 EGL .m                   0.00:  GROUND ELEVATION
 WDMS.m                 121.00:  WD ELEV
 APD .m                  36.60:  DEPTH ABOVE PD
 AGAP.m                  36.60:  AIR GAP
 VSEW.m                   1.56:  VERT SEC E/W
 VSNS.m                  -7.94:  VERT SEC N/S
 DEP .m                1140.01:  DEPTH
 EKB .m                  36.60:  KB ELEVATION
 EDF .m                  36.60:  DF ELEVATION
 TDL .m                 169.50:  TOTAL DEPTH (LOGGER)
 CSGD.m                3875.01:  CASING BOTTOM (DRILLER)
 CSGL.m                3875.01:  CASING BOTTOM (LOGGER)
 CSGS.in                  7.63:  CASING SIZE
 CSGW.lbpf               23.50:  CASING WEIGHT
 VSC .                       0:  VS TO CLOSURE
 MAGU.                 1849206:  MAGUTM CHECKSUM
~Parameter Information Block
#MNEM.UNIT       Value        Description
#---------     -----------    ---------------------------
 AV  .mps                 1.90:  Ann Velocity 
 AVMX.mps                 2.54:  Max Ann Veloc 
 AZIF.deg               137.03:  Azm, Final 
 BHAT.        Rotary Steerable:  BHA Type 
 BREV.rev             23610.00:  Rev Bit Total 
 BROT.°/30m               0.80:  Build Rotating 
 BS  .in                  6.50:  Bit Size 
 BTPL.psig              110.00:  Bit Press Loss 
 CABU.                     Yes:  Customer Abuse 
 COMM.                     Ó€:  Run Comments 1 
 TCS .hr                 70.51:  Time Ciculation Ended 
 CV  .mps                 1.41:  Crit Velocity 
 CVMX.mps                 1.42:  Max Crit Veloc 
 DD1 .         Intigam Rahimov:  Direct Drillr 1 
 DD2 .          Rashad Gojayev:  Direct Drillr 2 
 DDSV.               Geo-Pilot:  DD Service 
 DEFF.%                 100.00:  % Det Eff 
 DLRX.°/30m               1.44:  Dogleg Rot Max 
 DLSO.°/30m               0.00:  Dogleg Oriented 
 DLSX.°/30m               0.00:  Dogleg Str Max 
 DRET.      03.05.00 01-Feb-20:  Drill End Time 
 DRST.      15.50.00 28-Jan-20:  Drill Start Tim 
 DTIM.hr                 24.70:  Time Drilling 
 EDEP.m                4047.51:  End Depth 
 ENG1.           Eldar Hajiyev:  Engineer 1 
 ENG2.          Rasim Hashimov:  Engineer 2 
 ENG3.          Rustam Safarov:  Engineer 3 
 ETIM.      22.00.00 01-Feb-20:  End Time 
 FLOI.gpm               370.00:  Flow In 
 FLON.gpm               300.00:  Flow In Min 
 FLOS.cptm                0.00:  Fluid Loss 
 FLOX.gpm               400.00:  Flow In Max 
 FTRO.       Formation Presure:  FTWD Run Obj 
 HFLO.                      No:  High Flow 
 HPRE.                      No:  High Pressure 
 HTEM.                      No:  High Temp 
 HYDO.m                   2.50:  Hydro Offset 
 IFIN.deg                39.54:  Inc, Final 
 IMAX.deg                41.14:  Inc Max 
 IMIN.deg                39.81:  Inc Min 
 IMND.m                4005.21:  Inc Min Depth 
 IMXD.m                3948.42:  Inc Max Depth 
 JARR.                      No:  Jarring 
 LETM.      03.05.00 01-Feb-20:  Log End Time 
 LOST.hr                     0:  Lost Rig Time 
 LSTM.      15.50.00 28-Jan-20:  Log Start Time 
 MDCL.ppm             37500.00:  Mud Chlorides 
 MDES.     Inversion Oil/Synthetic:  Mud Desc 
 DFD .sg                  1.32:  Mud Density 
 MDMN.sg                  1.32:  Dens Mud Min 
 MDMX.sg                  1.32:  Dens Mud Max 
 MOIL.                      55:  Run Mud Oil % 
 MOWR.                   70:30:  Run Mud OWR 
 MSND.                       0:  Run Mud Sand % 
 MSOL.                      17:  Run Mud Solids% 
 DFV .spqt               80.00:  Mud Viscosity 
 MWOD.in                  4.75:  MWD Tool OD 
 MWSI.                      No:  Serv Intrp, MWD 
 OTIM.hr                121.28:  Time Operating 
 PCON.           Look Like New:  Pad Condition 
 PMAX.psia             6171.00:  Press Op, Max 
 PV  .cP                 30.00:  Mud PV 
 RUN .                     300:  Run Number 
 ROPA.m/hr                5.45:  ROP Avg 
 ROPN.m/hr                3.00:  ROP Min 
 ROPX.m/hr               15.00:  ROP Max 
 RPMA.rpm               130.00:  RPM Surface Avg 
 RPMN.rpm                80.00:  RPM Surface Min 
 RPMX.rpm               140.00:  RPM Surface Max 
 RRUN.                     300:  Rig Run Number 
 RTIM.hr                 13.50:  Time Reaming 
 SAZI.deg               133.93:  Azm, Start 
 SDEP.m                3878.01:  Start Depth 
 SIDD.                      No:  Serv Intrp, DD 
 SINC.deg                40.28:  Inc, Start 
 SPPA.psig             4983.00:  SPP Avg 
 SPPN.psig             4370.00:  SPP Min 
 SPPX.psig             5300.00:  SPP Max 
 STIM.      18.33.36 27-Jan-20:  Start Time 
 SVCS.                 DD, MWD:  Services 
 SVER.                    9.20:  Sperry Version 
 TDAT.m                 169.50:  Tot Depth Attmp 
 TDDF.                      No:  Trip for DD 
 TDLG.m                 169.50:  Tot Depth Loggd 
 TFF .                      No:  Trip for Fail 
 TQAA.f-kp               13.25:  Torque Abs Avg 
 TQAN.f-kp               12.00:  Torque Abs Min 
 TQAX.f-kp               14.00:  Torque Abs Max 
 TRRT.°/30m               0.70:  Turn Rotating 
 MRT .                     ADR:  Maximum Recorded Temperature 
 TTMX.degC               92.16:  Max Tool Temp 
 VS01.       AZ90598764G12V7D4:  Virtual Str1 SN 
 VS02.         AZ90571342R12C4:  Virtual Str2 SN 
 VS03.      AZ90580010N2L2X1C4:  Virtual Str3 SN 
 VS04.        AZ90522266O7X1C4:  Virtual Str4 SN 
 VS05.           AZ90598768F11:  Virtual Str5 SN 
 VS06.     AZ90580006XZ1W1X1C4:  Virtual Str6 SN 
 WBMN.klb                 8.00:  WOB Min 
 WITN.            Peter Wilson:  Customer Rep 
 WOBA.klb                 9.88:  WOB Avg 
 WOBX.klb                10.00:  WOB Max 
 YP  .lhf2               27.00:  Yield Point 
~Curve Information Block
#MNEM.UNIT                 API CODE     Curve Description
#---------               -----------    ---------------------------
 TIME.HHMMSS            00 000 000 000:  GT Time & Date
 GTDEPTH.m              00 000 000 000:  GT Depth
 GTPQH.psia             00 000 000 000:  GT HR Quartz Pressure
 GTTQ.degC              00 000 000 000:  GT Quartz Temperature
 GTTN.NONE              00 000 000 000:  GT Test Number
 GTET.sec               00 000 000 000:  GT Elapsed Test Time
 GTTVD.m                00 000 000 000:  GT True Vertical Depth
#Other Information
#
#WARRANTY: Halliburton will use its best efforts to furnish customers with 
#accurate information and interpretations that are part of, and incident to, the services 
#provided.  However, Halliburton cannot and does not warrant the accuracy 
#or correctness of such information and interpretations.  Under no circumstances should any 
#such information or interpretation be relied upon as the sole basis for any drilling, 
#completion, production, or financial decision or any procedure involving any risk to the 
#safety of any drilling venture, drilling rig or its crew or any other third party.  The 
#Customer has full responsibility for all drilling, completion and production operation.  
#Halliburton makes no representations or warranties, either expressed or 
#implied, including, but not limited to, the implied warranties of merchantability or fitness 
#for a particular purpose, with respect to the services rendered.  In no event will 
#Halliburton be liable for failure to obtain any particular results or for 
#any damages, including, but not limited to, indirect, special or consequential damages, 
#resulting from the use of any information or interpretation provided by Halliburton.
#
~A           TIME           GTDEPTH  GTPQH  GTTQ  GTTN  GTET   GTTVD  
# ...
   19:06:07.559.30-Jan-2020 3884.01 2968.54 69.13 1.00 299.07 2925.13
   19:06:07.759.30-Jan-2020 3884.01 2968.54 69.13 1.00 299.27 2925.13
   19:06:07.959.30-Jan-2020 3884.01 2968.56 69.13 1.00 299.47 2925.13
   19:06:08.159.30-Jan-2020 3884.01 2968.52 69.13 1.00 299.67 2925.13
   19:06:08.359.30-Jan-2020 3884.01 2968.56 69.13 1.00 299.87 2925.13
   19:06:08.559.30-Jan-2020 3884.01 2968.52 69.13 1.00 300.07 2925.13
   19:06:08.759.30-Jan-2020 3884.01 2968.52 69.13 1.00 300.27 2925.13
   19:06:08.960.30-Jan-2020 3884.01 2968.57 69.13 1.00 300.47 2925.13
   19:06:09.160.30-Jan-2020 3884.01 2968.52 69.13 1.00 300.67 2925.13
   19:06:09.360.30-Jan-2020 3884.01 2968.54 69.13 1.00 300.87 2925.13
   19:06:09.560.30-Jan-2020 3884.01 2968.57 69.13 1.00 301.07 2925.13
   19:06:09.760.30-Jan-2020 3884.01 2968.57 69.13 1.00 301.27 2925.13
   19:06:09.960.30-Jan-2020 3884.01 2968.57 69.13 1.00 301.47 2925.13
   19:06:10.160.30-Jan-2020 3884.01 2968.25 69.13 1.00 301.67 2925.13
   19:06:10.360.30-Jan-2020 3884.01 2968.65 69.13 1.00 301.87 2925.13
   19:06:10.560.30-Jan-2020 3884.01 2968.57 69.13 1.00 302.07 2925.13
   19:06:10.760.30-Jan-2020 3884.01 2968.57 69.13 1.00 302.27 2925.13
   19:06:10.960.30-Jan-2020 3884.01 2968.59 69.13 1.00 302.47 2925.13
   19:06:11.160.30-Jan-2020 3884.01 2968.30 69.13 1.00 302.67 2925.13
   19:06:11.360.30-Jan-2020 3884.01 2968.66 69.13 1.00 302.87 2925.13
   19:06:11.560.30-Jan-2020 3884.01 2968.61 69.13 1.00 303.07 2925.13
   19:06:11.760.30-Jan-2020 3884.01 2968.61 69.13 1.00 303.27 2925.13
   19:06:11.960.30-Jan-2020 3884.01 2968.55 69.13 1.00 303.47 2925.13
   19:06:12.160.30-Jan-2020 3884.01 2968.56 69.13 1.00 303.67 2925.13
   19:06:12.360.30-Jan-2020 3884.01 2968.09 69.13 1.00 303.87 2925.13
   19:06:12.560.30-Jan-2020 3884.01 2968.76 69.13 1.00 304.07 2925.13
   19:06:12.760.30-Jan-2020 3884.01 2968.76 69.13 1.00 304.27 2925.13
   19:06:12.960.30-Jan-2020 3884.01 2968.64 69.13 1.00 304.47 2925.13
   19:06:13.161.30-Jan-2020 3884.01 2968.59 69.13 1.00 304.67 2925.13
   19:06:13.361.30-Jan-2020 3884.01 2968.06 69.13 1.00 304.87 2925.13
   19:06:13.561.30-Jan-2020 3884.01 2968.78 69.13 1.00 305.07 2925.13
   19:06:13.761.30-Jan-2020 3884.01 2968.78 69.13 1.00 305.27 2925.13
   19:06:13.961.30-Jan-2020 3884.01 2968.63 69.13 1.00 305.47 2925.13
   19:06:14.161.30-Jan-2020 3884.01 2968.55 69.13 1.00 305.67 2925.13
   19:06:14.361.30-Jan-2020 3884.01 2968.28 69.13 1.00 305.87 2925.13
   19:06:14.561.30-Jan-2020 3884.01 2968.58 69.13 1.00 306.07 2925.13
   19:06:14.761.30-Jan-2020 3884.01 2968.58 69.13 1.00 306.27 2925.13
   19:06:14.961.30-Jan-2020 3884.01 2968.61 69.13 1.00 306.47 2925.13
   19:06:15.161.30-Jan-2020 3884.01 2968.62 69.13 1.00 306.67 2925.13
   19:06:15.361.30-Jan-2020 3884.01 2968.60 69.13 1.00 306.87 2925.13
   19:06:15.561.30-Jan-2020 3884.01 2968.51 69.13 1.00 307.07 2925.13
   19:06:15.761.30-Jan-2020 3884.01 2968.51 69.13 1.00 307.27 2925.13
   19:06:15.961.30-Jan-2020 3884.01 2968.53 69.13 1.00 307.47 2925.13
   19:06:16.161.30-Jan-2020 3884.01 2968.58 69.13 1.00 307.67 2925.13
   19:06:16.361.30-Jan-2020 3884.01 2968.60 69.13 1.00 307.87 2925.13
   19:06:16.561.30-Jan-2020 3884.01 2968.52 69.13 1.00 308.07 2925.13
   19:06:16.761.30-Jan-2020 3884.01 2968.52 69.13 1.00 308.27 2925.13
   19:06:16.961.30-Jan-2020 3884.01 2968.56 69.13 1.00 308.47 2925.13
   19:06:17.161.30-Jan-2020 3884.01 2968.56 69.13 1.00 308.67 2925.13
   19:06:17.361.30-Jan-2020 3884.01 2968.60 69.13 1.00 308.87 2925.13
   19:06:17.562.30-Jan-2020 3884.01 2968.52 69.13 1.00 309.07 2925.13
   19:06:17.762.30-Jan-2020 3884.01 2968.52 69.13 1.00 309.27 2925.13
   19:06:17.962.30-Jan-2020 3884.01 2968.59 69.13 1.00 309.47 2925.13
   19:06:18.162.30-Jan-2020 3884.01 2968.12 69.13 1.00 309.67 2925.13
   19:06:18.362.30-Jan-2020 3884.01 2968.79 69.13 1.00 309.87 2925.13
   19:06:18.562.30-Jan-2020 3884.01 2968.63 69.13 1.00 310.07 2925.13
   19:06:18.762.30-Jan-2020 3884.01 2968.63 69.13 1.00 310.27 2925.13
   19:06:18.962.30-Jan-2020 3884.01 2968.58 69.13 1.00 310.47 2925.13
   19:06:19.162.30-Jan-2020 3884.01 2968.60 69.13 1.00 310.67 2925.13
   19:06:19.362.30-Jan-2020 3884.01 2968.55 69.13 1.00 310.87 2925.13
   19:06:19.562.30-Jan-2020 3884.01 2968.55 69.13 1.00 311.07 2925.13
   19:06:19.762.30-Jan-2020 3884.01 2968.55 69.13 1.00 311.27 2925.13
   19:06:19.962.30-Jan-2020 3884.01 2968.55 69.13 1.00 311.47 2925.13
   19:06:20.162.30-Jan-2020 3884.01 2968.58 69.13 1.00 311.67 2925.13
   19:06:20.362.30-Jan-2020 3884.01 2968.57 69.12 1.00 311.87 2925.13
   19:06:20.562.30-Jan-2020 3884.01 2968.57 69.12 1.00 312.07 2925.13
   19:06:20.762.30-Jan-2020 3884.01 2968.57 69.12 1.00 312.27 2925.13
   19:06:20.962.30-Jan-2020 3884.01 2968.59 69.12 1.00 312.47 2925.13
   19:06:21.162.30-Jan-2020 3884.01 2968.63 69.12 1.00 312.67 2925.13
   19:06:21.362.30-Jan-2020 3884.01 2968.30 69.12 1.00 312.87 2925.13
   19:06:21.562.30-Jan-2020 3884.01 2968.58 69.12 1.00 313.07 2925.13
   19:06:21.763.30-Jan-2020 3884.01 2968.58 69.12 1.00 313.27 2925.13
   19:06:21.963.30-Jan-2020 3884.01 2968.56 69.12 1.00 313.47 2925.13
   19:06:22.163.30-Jan-2020 3884.01 2968.55 69.12 1.00 313.67 2925.13
   19:06:22.363.30-Jan-2020 3884.01 2968.34 69.12 1.00 313.87 2925.13
   19:06:22.563.30-Jan-2020 3884.01 2968.63 69.12 1.00 314.07 2925.13
   19:06:22.763.30-Jan-2020 3884.01 2968.63 69.12 1.00 314.27 2925.13
   19:06:22.963.30-Jan-2020 3884.01 2968.58 69.12 1.00 314.47 2925.13
   19:06:23.163.30-Jan-2020 3884.01 2968.56 69.12 1.00 314.67 2925.13
   19:06:23.363.30-Jan-2020 3884.01 2968.57 69.12 1.00 314.87 2925.13
   19:06:23.563.30-Jan-2020 3884.01 2968.59 69.12 1.00 315.07 2925.13
   19:06:23.763.30-Jan-2020 3884.01 2968.59 69.12 1.00 315.27 2925.13
   19:06:23.963.30-Jan-2020 3884.01 2968.71 69.12 1.00 315.47 2925.13
   19:06:24.163.30-Jan-2020 3884.01 2968.60 69.12 1.00 315.67 2925.13
   19:06:24.363.30-Jan-2020 3884.01 2968.66 69.12 1.00 315.87 2925.13
   19:06:24.563.30-Jan-2020 3884.01 2968.61 69.12 1.00 316.07 2925.13
   19:06:24.763.30-Jan-2020 3884.01 2968.61 69.12 1.00 316.27 2925.13
   19:06:24.963.30-Jan-2020 3884.01 2968.76 69.12 1.00 316.47 2925.13
   19:06:25.163.30-Jan-2020 3884.01 2968.61 69.12 1.00 316.67 2925.13
   19:06:25.363.30-Jan-2020 3884.01 2968.62 69.12 1.00 316.87 2925.13
   19:06:25.563.30-Jan-2020 3884.01 2968.56 69.12 1.00 317.07 2925.13
   19:06:25.763.30-Jan-2020 3884.01 2968.56 69.12 1.00 317.27 2925.13
   19:06:25.963.30-Jan-2020 3884.01 2968.81 69.12 1.00 317.47 2925.13
   19:06:26.164.30-Jan-2020 3884.01 2968.61 69.12 1.00 317.67 2925.13
   19:06:26.364.30-Jan-2020 3884.01 2968.62 69.12 1.00 317.87 2925.13
   19:06:26.564.30-Jan-2020 3884.01 2968.68 69.12 1.00 318.07 2925.13
   19:06:26.764.30-Jan-2020 3884.01 2968.68 69.12 1.00 318.27 2925.13
   19:06:26.964.30-Jan-2020 3884.01 2968.53 69.12 1.00 318.47 2925.13
   19:06:27.164.30-Jan-2020 3884.01 2968.53 69.12 1.00 318.67 2925.13
   19:06:27.364.30-Jan-2020 3884.01 2968.52 69.12 1.00 318.87 2925.13
   19:06:27.564.30-Jan-2020 3884.01 2968.62 69.12 1.00 319.07 2925.13
   19:06:27.764.30-Jan-2020 3884.01 2968.62 69.12 1.00 319.27 2925.13
   19:06:27.964.30-Jan-2020 3884.01 2968.51 69.12 1.00 319.47 2925.13
   19:06:28.164.30-Jan-2020 3884.01 2968.56 69.12 1.00 319.67 2925.13
   19:06:28.364.30-Jan-2020 3884.01 2968.54 69.12 1.00 319.87 2925.13
   19:06:28.564.30-Jan-2020 3884.01 2968.59 69.12 1.00 320.07 2925.13
   19:06:28.764.30-Jan-2020 3884.01 2968.59 69.12 1.00 320.27 2925.13
   19:06:28.964.30-Jan-2020 3884.01 2968.52 69.12 1.00 320.47 2925.13
   19:06:29.164.30-Jan-2020 3884.01 2968.56 69.12 1.00 320.67 2925.13
   19:06:29.364.30-Jan-2020 3884.01 2968.63 69.12 1.00 320.87 2925.13
   19:06:29.564.30-Jan-2020 3884.01 2968.15 69.12 1.00 321.07 2925.13
   19:06:29.764.30-Jan-2020 3884.01 2968.15 69.12 1.00 321.27 2925.13
   19:06:29.964.30-Jan-2020 3884.01 2968.60 69.12 1.00 321.47 2925.13
   19:06:30.164.30-Jan-2020 3884.01 2968.60 69.12 1.00 321.67 2925.13
   19:06:30.365.30-Jan-2020 3884.01 2968.63 69.12 1.00 321.88 2925.13
