~Version Information
 VERS.                  2.0:   CWLS log ASCII Standard -VERSION 2.0
 WRAP.                   NO:   One line per depth step
~Well Information Block
#MNEM.UNIT     VALUE/NAME     DESCRIPTION
#---------     -----------    ---------------------------
 STRT.S             21:06:33 30-Jan-20: START TIME 21:06:33 30-Jan-20
 STOP.S             21:13:02 30-Jan-20: STOP TIME  21:13:02 30-Jan-20
 STEP.S                   0.00: STEP TIME
 NULL.                 -999.25: NULL VALUE
 DFWT.                        :  DIST FWL TEXT
 DFST.                        :  DIST FSL TEXT
 DMF .             Drill Floor:  DRILL MEAS FROM
 STIM.      09.30.00 26-Dec-19:  START TIME
 DATE.      08.00.00 20-Jan-20:  END TIME
 SPUD.               23-Nov-19:  SPUD DATE
 NREF.                    Grid:  NORTH REFERENCE
 HPTY.       Minimum Curvature:  HOLE POS TYPE
 DMOD.             Drill Model:  DRILL MOD DESC
 SVYD.                  Survey:  SURVEY DESC
 ILTD.               Lithology:  INTERP LTH DESC
 FTOP.          Formation Tops:  FORM TOPS DESC
 SON .        AZ-XX-0906192647:  JOB NUMBER
 WTYP.                Deviated:  WELL TYPE
 COMP.     BP Exploration (Caspian Sea) Ltd:  COMPANY
 BASE.              Azerbaijan:  LOGGING EQUIPMENT BASE LOCATION
 REGN.                 Eurasia:  REGION
 FLD .                     ACG:  FIELD NAME
 SRVC.              KCA Deutag:  CONTRACTOR
 MWDS.                    Baku:  MWD SHOP
 WELL.     A10 (Slot 20) - SCP:  WELL NAME
 JOBN.        AZ-XX-0906192647:  JOB TICKET NUMB
 RIG .                 Chirag1:  RIG NAME
 DCON.     Halliburton Sperry Drilling:  DIRECTNL CONTR
 UNIT.                     N/A:  LOGGING EQUIPMENT ID
 PDAT.          Mean Sea Level:  PERMANENT DATUM
 MDS .        Operator Entered:  MAG DATA SOURCE
 CTRY.              Azerbaijan:  COUNTRY NAME
 UWI .            /AZE00000090:  UNIQUE WELL IDENTIFIER
 API .            /AZE00000090:  API NUMBER
 CNTY.                        :  COUNTY
 PROV.                        :  PROVINCE
 STAT.                        :  STATE
 LOC .                        :  LOCATION
 LMF .             Drill Floor:  LOG MEASURED FROM
 TVDS.m                  36.60:  TVDSS CORRECTN
 LATI.deg                40.08:  LATITUDE
 LONG.deg                51.24:  LONGITUDE
 WHNS.m                  -7.94:  WELL HEAD N/S
 WHEW.m                   1.56:  WELL HEAD E/W
 UTMX.m              520429.26:  UTM X
 UTMY.m             4438973.87:  UTM Y
 DFWL.m                   0.00:  DISTANCE FWL
 DFSL.m                   0.00:  DISTANCE FSL
 SDEP.m                1455.00:  START DEPTH
 TDD .m                4047.51:  TOTAL DEPTH (DRILLER)
 VSDR.deg               112.75:  VERT SEC DIRECT
 GVFD.g                   1.00:  GRAVITY FIELD
 MFLD.nT              50261.00:  MAGNETIC FIELD
 MDIP.deg                59.52:  MAGNETIC DIP
 MDEC.deg                 6.42:  MAGNETIC DECL
 GRDC.deg                 0.17:  GRID CORRECTION
 AZTC.deg                 6.25:  AZM TOTAL CORR
 EPD .m                   0.00:  ELEVATION
 EGL .m                   0.00:  GROUND ELEVATION
 WDMS.m                 121.00:  WD ELEV
 APD .m                  36.60:  DEPTH ABOVE PD
 AGAP.m                  36.60:  AIR GAP
 VSEW.m                   1.56:  VERT SEC E/W
 VSNS.m                  -7.94:  VERT SEC N/S
 DEP .m                1140.01:  DEPTH
 EKB .m                  36.60:  KB ELEVATION
 EDF .m                  36.60:  DF ELEVATION
 TDL .m                 169.50:  TOTAL DEPTH (LOGGER)
 CSGD.m                3875.01:  CASING BOTTOM (DRILLER)
 CSGL.m                3875.01:  CASING BOTTOM (LOGGER)
 CSGS.in                  7.63:  CASING SIZE
 CSGW.lbpf               23.50:  CASING WEIGHT
 VSC .                       0:  VS TO CLOSURE
 MAGU.                 1849206:  MAGUTM CHECKSUM
~Parameter Information Block
#MNEM.UNIT       Value        Description
#---------     -----------    ---------------------------
 AV  .mps                 1.90:  Ann Velocity 
 AVMX.mps                 2.54:  Max Ann Veloc 
 AZIF.deg               137.03:  Azm, Final 
 BHAT.        Rotary Steerable:  BHA Type 
 BREV.rev             23610.00:  Rev Bit Total 
 BROT.°/30m               0.80:  Build Rotating 
 BS  .in                  6.50:  Bit Size 
 BTPL.psig              110.00:  Bit Press Loss 
 CABU.                     Yes:  Customer Abuse 
 TCS .hr                 70.51:  Time Ciculation Ended 
 CV  .mps                 1.41:  Crit Velocity 
 CVMX.mps                 1.42:  Max Crit Veloc 
 DD1 .         Intigam Rahimov:  Direct Drillr 1 
 DD2 .          Rashad Gojayev:  Direct Drillr 2 
 DDSV.               Geo-Pilot:  DD Service 
 DEFF.%                 100.00:  % Det Eff 
 DLRX.°/30m               1.44:  Dogleg Rot Max 
 DLSO.°/30m               0.00:  Dogleg Oriented 
 DLSX.°/30m               0.00:  Dogleg Str Max 
 DRET.      03.05.00 01-Feb-20:  Drill End Time 
 DRST.      15.50.00 28-Jan-20:  Drill Start Tim 
 DTIM.hr                 24.70:  Time Drilling 
 EDEP.m                4047.51:  End Depth 
 ENG1.           Eldar Hajiyev:  Engineer 1 
 ENG2.          Rasim Hashimov:  Engineer 2 
 ENG3.          Rustam Safarov:  Engineer 3 
 ETIM.      22.00.00 01-Feb-20:  End Time 
 FLOI.gpm               370.00:  Flow In 
 FLON.gpm               300.00:  Flow In Min 
 FLOS.cptm                0.00:  Fluid Loss 
 FLOX.gpm               400.00:  Flow In Max 
 FTRO.       Formation Presure:  FTWD Run Obj 
 HFLO.                      No:  High Flow 
 HPRE.                      No:  High Pressure 
 HTEM.                      No:  High Temp 
 HYDO.m                   2.50:  Hydro Offset 
 IFIN.deg                39.54:  Inc, Final 
 IMAX.deg                41.14:  Inc Max 
 IMIN.deg                39.81:  Inc Min 
 IMND.m                4005.21:  Inc Min Depth 
 IMXD.m                3948.42:  Inc Max Depth 
 JARR.                      No:  Jarring 
 LETM.      03.05.00 01-Feb-20:  Log End Time 
 LOST.hr                     0:  Lost Rig Time 
 LSTM.      15.50.00 28-Jan-20:  Log Start Time 
 MDCL.ppm             37500.00:  Mud Chlorides 
 MDES.     Inversion Oil/Synthetic:  Mud Desc 
 DFD .sg                  1.32:  Mud Density 
 MDMN.sg                  1.32:  Dens Mud Min 
 MDMX.sg                  1.32:  Dens Mud Max 
 MOIL.                      55:  Run Mud Oil % 
 MOWR.                   70:30:  Run Mud OWR 
 MSND.                       0:  Run Mud Sand % 
 MSOL.                      17:  Run Mud Solids% 
 DFV .spqt               80.00:  Mud Viscosity 
 MWOD.in                  4.75:  MWD Tool OD 
 MWSI.                      No:  Serv Intrp, MWD 
 OTIM.hr                121.28:  Time Operating 
 PCON.           Look Like New:  Pad Condition 
 PMAX.psia             6171.00:  Press Op, Max 
 PV  .cP                 30.00:  Mud PV 
 RUN .                     300:  Run Number 
 ROPA.m/hr                5.45:  ROP Avg 
 ROPN.m/hr                3.00:  ROP Min 
 ROPX.m/hr               15.00:  ROP Max 
 RPMA.rpm               130.00:  RPM Surface Avg 
 RPMN.rpm                80.00:  RPM Surface Min 
 RPMX.rpm               140.00:  RPM Surface Max 
 RRUN.                     300:  Rig Run Number 
 RTIM.hr                 13.50:  Time Reaming 
 SAZI.deg               133.93:  Azm, Start 
 SDEP.m                3878.01:  Start Depth 
 SIDD.                      No:  Serv Intrp, DD 
 SINC.deg                40.28:  Inc, Start 
 SPPA.psig             4983.00:  SPP Avg 
 SPPN.psig             4370.00:  SPP Min 
 SPPX.psig             5300.00:  SPP Max 
 STIM.      18.33.36 27-Jan-20:  Start Time 
 SVCS.                 DD, MWD:  Services 
 SVER.                    9.20:  Sperry Version 
 TDAT.m                 169.50:  Tot Depth Attmp 
 TDDF.                      No:  Trip for DD 
 TDLG.m                 169.50:  Tot Depth Loggd 
 TFF .                      No:  Trip for Fail 
 TQAA.f-kp               13.25:  Torque Abs Avg 
 TQAN.f-kp               12.00:  Torque Abs Min 
 TQAX.f-kp               14.00:  Torque Abs Max 
 TRRT.°/30m               0.70:  Turn Rotating 
 MRT .                     ADR:  Maximum Recorded Temperature 
 TTMX.degC               92.16:  Max Tool Temp 
 VS01.       AZ90598764G12V7D4:  Virtual Str1 SN 
 VS02.         AZ90571342R12C4:  Virtual Str2 SN 
 VS03.      AZ90580010N2L2X1C4:  Virtual Str3 SN 
 VS04.        AZ90522266O7X1C4:  Virtual Str4 SN 
 VS05.           AZ90598768F11:  Virtual Str5 SN 
 VS06.     AZ90580006XZ1W1X1C4:  Virtual Str6 SN 
 WBMN.klb                 8.00:  WOB Min 
 WITN.            Peter Wilson:  Customer Rep 
 WOBA.klb                 9.88:  WOB Avg 
 WOBX.klb                10.00:  WOB Max 
 YP  .lhf2               27.00:  Yield Point 
~Curve Information Block
#MNEM.UNIT                 API CODE     Curve Description
#---------               -----------    ---------------------------
 TIME.HHMMSS            00 000 000 000:  GT Time & Date
 GTDEPTH.m              00 000 000 000:  GT Depth
 GTPQH.psia             00 000 000 000:  GT HR Quartz Pressure
 GTTQ.degC              00 000 000 000:  GT Quartz Temperature
 GTTN.NONE              00 000 000 000:  GT Test Number
 GTET.sec               00 000 000 000:  GT Elapsed Test Time
 GTTVD.m                00 000 000 000:  GT True Vertical Depth
#Other Information
#
#WARRANTY: Halliburton will use its best efforts to furnish customers with 
#accurate information and interpretations that are part of, and incident to, the services 
#provided.  However, Halliburton cannot and does not warrant the accuracy 
#or correctness of such information and interpretations.  Under no circumstances should any 
#such information or interpretation be relied upon as the sole basis for any drilling, 
#completion, production, or financial decision or any procedure involving any risk to the 
#safety of any drilling venture, drilling rig or its crew or any other third party.  The 
#Customer has full responsibility for all drilling, completion and production operation.  
#Halliburton makes no representations or warranties, either expressed or 
#implied, including, but not limited to, the implied warranties of merchantability or fitness 
#for a particular purpose, with respect to the services rendered.  In no event will 
#Halliburton be liable for failure to obtain any particular results or for 
#any damages, including, but not limited to, indirect, special or consequential damages, 
#resulting from the use of any information or interpretation provided by Halliburton.
#
~A           TIME           GTDEPTH  GTPQH  GTTQ  GTTN  GTET   GTTVD  
# ...
   21:11:09.057.30-Jan-2020 3895.01 2980.58 72.47 2.00 276.05 2933.47
   21:11:09.257.30-Jan-2020 3895.01 2980.58 72.47 2.00 276.25 2933.47
   21:11:09.457.30-Jan-2020 3895.01 2980.11 72.47 2.00 276.45 2933.47
   21:11:09.657.30-Jan-2020 3895.01 2980.87 72.47 2.00 276.65 2933.47
   21:11:09.857.30-Jan-2020 3895.01 2980.83 72.47 2.00 276.85 2933.47
   21:11:10.057.30-Jan-2020 3895.01 2980.76 72.47 2.00 277.05 2933.47
   21:11:10.257.30-Jan-2020 3895.01 2980.76 72.47 2.00 277.25 2933.47
   21:11:10.457.30-Jan-2020 3895.01 2980.74 72.47 2.00 277.45 2933.47
   21:11:10.657.30-Jan-2020 3895.01 2980.71 72.47 2.00 277.65 2933.47
   21:11:10.857.30-Jan-2020 3895.01 2980.78 72.47 2.00 277.85 2933.47
   21:11:11.057.30-Jan-2020 3895.01 2980.74 72.47 2.00 278.05 2933.47
   21:11:11.257.30-Jan-2020 3895.01 2980.74 72.47 2.00 278.25 2933.47
   21:11:11.457.30-Jan-2020 3895.01 2980.69 72.47 2.00 278.45 2933.47
   21:11:11.657.30-Jan-2020 3895.01 2980.66 72.47 2.00 278.65 2933.47
   21:11:11.857.30-Jan-2020 3895.01 2980.70 72.47 2.00 278.85 2933.47
   21:11:12.057.30-Jan-2020 3895.01 2980.69 72.47 2.00 279.05 2933.47
   21:11:12.257.30-Jan-2020 3895.01 2980.69 72.47 2.00 279.25 2933.47
   21:11:12.457.30-Jan-2020 3895.01 2980.74 72.47 2.00 279.45 2933.47
   21:11:12.657.30-Jan-2020 3895.01 2980.23 72.47 2.00 279.65 2933.47
   21:11:12.857.30-Jan-2020 3895.01 2980.80 72.47 2.00 279.85 2933.47
   21:11:13.057.30-Jan-2020 3895.01 2980.85 72.47 2.00 280.05 2933.47
   21:11:13.257.30-Jan-2020 3895.01 2980.85 72.47 2.00 280.25 2933.47
   21:11:13.457.30-Jan-2020 3895.01 2980.81 72.46 2.00 280.45 2933.47
   21:11:13.657.30-Jan-2020 3895.01 2980.28 72.46 2.00 280.65 2933.47
   21:11:13.857.30-Jan-2020 3895.01 2980.90 72.46 2.00 280.85 2933.47
   21:11:14.058.30-Jan-2020 3895.01 2980.92 72.46 2.00 281.05 2933.47
   21:11:14.258.30-Jan-2020 3895.01 2980.92 72.46 2.00 281.25 2933.47
   21:11:14.458.30-Jan-2020 3895.01 2980.80 72.46 2.00 281.45 2933.47
   21:11:14.658.30-Jan-2020 3895.01 2980.83 72.46 2.00 281.65 2933.47
   21:11:14.858.30-Jan-2020 3895.01 2980.75 72.46 2.00 281.85 2933.47
   21:11:15.058.30-Jan-2020 3895.01 2980.24 72.46 2.00 282.05 2933.47
   21:11:15.258.30-Jan-2020 3895.01 2980.24 72.46 2.00 282.25 2933.47
   21:11:15.458.30-Jan-2020 3895.01 2980.86 72.46 2.00 282.45 2933.47
   21:11:15.658.30-Jan-2020 3895.01 2980.97 72.46 2.00 282.65 2933.47
   21:11:15.858.30-Jan-2020 3895.01 2980.87 72.46 2.00 282.85 2933.47
   21:11:16.058.30-Jan-2020 3895.01 2980.25 72.46 2.00 283.05 2933.47
   21:11:16.258.30-Jan-2020 3895.01 2980.25 72.46 2.00 283.25 2933.47
   21:11:16.458.30-Jan-2020 3895.01 2980.95 72.46 2.00 283.45 2933.47
   21:11:16.658.30-Jan-2020 3895.01 2980.99 72.46 2.00 283.65 2933.47
   21:11:16.858.30-Jan-2020 3895.01 2980.34 72.46 2.00 283.85 2933.47
   21:11:17.058.30-Jan-2020 3895.01 2980.95 72.46 2.00 284.05 2933.47
   21:11:17.258.30-Jan-2020 3895.01 2980.95 72.46 2.00 284.25 2933.47
   21:11:17.458.30-Jan-2020 3895.01 2980.92 72.46 2.00 284.45 2933.47
   21:11:17.658.30-Jan-2020 3895.01 2980.89 72.46 2.00 284.65 2933.47
   21:11:17.858.30-Jan-2020 3895.01 2980.95 72.46 2.00 284.85 2933.47
   21:11:18.058.30-Jan-2020 3895.01 2980.94 72.46 2.00 285.05 2933.47
   21:11:18.258.30-Jan-2020 3895.01 2980.94 72.46 2.00 285.25 2933.47
   21:11:18.458.30-Jan-2020 3895.01 2980.78 72.45 2.00 285.45 2933.47
   21:11:18.658.30-Jan-2020 3895.01 2980.74 72.45 2.00 285.65 2933.47
   21:11:18.858.30-Jan-2020 3895.01 2980.88 72.45 2.00 285.85 2933.47
   21:11:19.058.30-Jan-2020 3895.01 2980.84 72.45 2.00 286.05 2933.47
   21:11:19.258.30-Jan-2020 3895.01 2980.84 72.45 2.00 286.25 2933.47
   21:11:19.459.30-Jan-2020 3895.01 2980.76 72.45 2.00 286.45 2933.47
   21:11:19.659.30-Jan-2020 3895.01 2980.86 72.45 2.00 286.65 2933.47
   21:11:19.859.30-Jan-2020 3895.01 2980.82 72.45 2.00 286.85 2933.47
   21:11:20.059.30-Jan-2020 3895.01 2980.78 72.45 2.00 287.05 2933.47
   21:11:20.259.30-Jan-2020 3895.01 2980.78 72.45 2.00 287.25 2933.47
   21:11:20.459.30-Jan-2020 3895.01 2980.72 72.45 2.00 287.45 2933.47
   21:11:20.659.30-Jan-2020 3895.01 2980.65 72.45 2.00 287.65 2933.47
   21:11:20.859.30-Jan-2020 3895.01 2980.95 72.45 2.00 287.85 2933.47
   21:11:21.059.30-Jan-2020 3895.01 2980.93 72.45 2.00 288.05 2933.47
   21:11:21.259.30-Jan-2020 3895.01 2980.93 72.45 2.00 288.25 2933.47
   21:11:21.459.30-Jan-2020 3895.01 2980.86 72.45 2.00 288.45 2933.47
   21:11:21.659.30-Jan-2020 3895.01 2980.90 72.45 2.00 288.65 2933.47
   21:11:21.859.30-Jan-2020 3895.01 2980.90 72.45 2.00 288.85 2933.47
   21:11:22.059.30-Jan-2020 3895.01 2980.89 72.45 2.00 289.05 2933.47
   21:11:22.259.30-Jan-2020 3895.01 2980.89 72.45 2.00 289.25 2933.47
   21:11:22.459.30-Jan-2020 3895.01 2980.79 72.45 2.00 289.45 2933.47
   21:11:22.659.30-Jan-2020 3895.01 2980.81 72.45 2.00 289.65 2933.47
   21:11:22.859.30-Jan-2020 3895.01 2980.81 72.45 2.00 289.85 2933.47
   21:11:23.059.30-Jan-2020 3895.01 2980.80 72.45 2.00 290.05 2933.47
   21:11:23.259.30-Jan-2020 3895.01 2980.80 72.45 2.00 290.25 2933.47
   21:11:23.459.30-Jan-2020 3895.01 2980.94 72.44 2.00 290.45 2933.47
   21:11:23.659.30-Jan-2020 3895.01 2980.90 72.44 2.00 290.65 2933.47
   21:11:23.859.30-Jan-2020 3895.01 2980.32 72.44 2.00 290.85 2933.47
   21:11:24.059.30-Jan-2020 3895.01 2980.96 72.44 2.00 291.05 2933.47
   21:11:24.259.30-Jan-2020 3895.01 2980.96 72.44 2.00 291.25 2933.47
   21:11:24.459.30-Jan-2020 3895.01 2980.96 72.44 2.00 291.45 2933.47
   21:11:24.660.30-Jan-2020 3895.01 2980.87 72.44 2.00 291.65 2933.47
   21:11:24.860.30-Jan-2020 3895.01 2980.42 72.44 2.00 291.85 2933.47
   21:11:25.060.30-Jan-2020 3895.01 2981.06 72.44 2.00 292.06 2933.47
   21:11:25.260.30-Jan-2020 3895.01 2981.06 72.44 2.00 292.26 2933.47
   21:11:25.460.30-Jan-2020 3895.01 2980.97 72.44 2.00 292.46 2933.47
   21:11:25.660.30-Jan-2020 3895.01 2980.88 72.44 2.00 292.66 2933.47
   21:11:25.860.30-Jan-2020 3895.01 2980.88 72.44 2.00 292.86 2933.47
   21:11:26.060.30-Jan-2020 3895.01 2980.88 72.44 2.00 293.06 2933.47
   21:11:26.260.30-Jan-2020 3895.01 2980.88 72.44 2.00 293.26 2933.47
   21:11:26.460.30-Jan-2020 3895.01 2980.98 72.44 2.00 293.46 2933.47
   21:11:26.660.30-Jan-2020 3895.01 2981.02 72.44 2.00 293.66 2933.47
   21:11:26.860.30-Jan-2020 3895.01 2981.01 72.44 2.00 293.86 2933.47
   21:11:27.060.30-Jan-2020 3895.01 2980.36 72.44 2.00 294.06 2933.47
   21:11:27.260.30-Jan-2020 3895.01 2980.36 72.44 2.00 294.26 2933.47
   21:11:27.460.30-Jan-2020 3895.01 2981.01 72.44 2.00 294.46 2933.47
   21:11:27.660.30-Jan-2020 3895.01 2981.06 72.44 2.00 294.66 2933.47
   21:11:27.860.30-Jan-2020 3895.01 2980.42 72.44 2.00 294.86 2933.47
   21:11:28.060.30-Jan-2020 3895.01 2981.04 72.44 2.00 295.06 2933.47
   21:11:28.260.30-Jan-2020 3895.01 2981.04 72.44 2.00 295.26 2933.47
   21:11:28.460.30-Jan-2020 3895.01 2980.96 72.43 2.00 295.46 2933.47
   21:11:28.660.30-Jan-2020 3895.01 2981.02 72.43 2.00 295.66 2933.47
   21:11:28.860.30-Jan-2020 3895.01 2980.93 72.43 2.00 295.86 2933.47
   21:11:29.060.30-Jan-2020 3895.01 2981.04 72.43 2.00 296.06 2933.47
   21:11:29.260.30-Jan-2020 3895.01 2981.04 72.43 2.00 296.26 2933.47
   21:11:29.460.30-Jan-2020 3895.01 2980.84 72.43 2.00 296.46 2933.47
   21:11:29.660.30-Jan-2020 3895.01 2980.82 72.43 2.00 296.66 2933.47
   21:11:29.860.30-Jan-2020 3895.01 2980.86 72.43 2.00 296.86 2933.47
   21:11:30.061.30-Jan-2020 3895.01 2980.92 72.43 2.00 297.06 2933.47
   21:11:30.261.30-Jan-2020 3895.01 2980.92 72.43 2.00 297.26 2933.47
   21:11:30.461.30-Jan-2020 3895.01 2980.78 72.43 2.00 297.46 2933.47
   21:11:30.661.30-Jan-2020 3895.01 2980.86 72.43 2.00 297.66 2933.47
   21:11:30.861.30-Jan-2020 3895.01 2980.95 72.43 2.00 297.86 2933.47
   21:11:31.061.30-Jan-2020 3895.01 2980.86 72.43 2.00 298.06 2933.47
   21:11:31.261.30-Jan-2020 3895.01 2980.86 72.43 2.00 298.26 2933.47
   21:11:31.461.30-Jan-2020 3895.01 2980.84 72.43 2.00 298.46 2933.47
   21:11:31.661.30-Jan-2020 3895.01 2980.31 72.43 2.00 298.66 2933.47
   21:11:31.861.30-Jan-2020 3895.01 2981.07 72.43 2.00 298.86 2933.47
