~Version Information
 VERS.                  2.0:   CWLS log ASCII Standard -VERSION 2.0
 WRAP.                   NO:   One line per depth step
~Well Information Block
#MNEM.UNIT     VALUE/NAME     DESCRIPTION
#---------     -----------    ---------------------------
 STRT.S             04:12:25 01-Feb-20: START TIME 04:12:25 01-Feb-20
 STOP.S             04:20:20 01-Feb-20: STOP TIME  04:20:20 01-Feb-20
 STEP.S                   0.00: STEP TIME
 NULL.                 -999.25: NULL VALUE
 DFWT.                        :  DIST FWL TEXT
 DFST.                        :  DIST FSL TEXT
 DMF .             Drill Floor:  DRILL MEAS FROM
 STIM.      09.30.00 26-Dec-19:  START TIME
 DATE.      08.00.00 20-Jan-20:  END TIME
 SPUD.               23-Nov-19:  SPUD DATE
 NREF.                    Grid:  NORTH REFERENCE
 HPTY.       Minimum Curvature:  HOLE POS TYPE
 DMOD.             Drill Model:  DRILL MOD DESC
 SVYD.                  Survey:  SURVEY DESC
 ILTD.               Lithology:  INTERP LTH DESC
 FTOP.          Formation Tops:  FORM TOPS DESC
 SON .        AZ-XX-0906192647:  JOB NUMBER
 WTYP.                Deviated:  WELL TYPE
 COMP.     BP Exploration (Caspian Sea) Ltd:  COMPANY
 BASE.              Azerbaijan:  LOGGING EQUIPMENT BASE LOCATION
 REGN.                 Eurasia:  REGION
 FLD .                     ACG:  FIELD NAME
 SRVC.              KCA Deutag:  CONTRACTOR
 MWDS.                    Baku:  MWD SHOP
 WELL.     A10 (Slot 20) - SCP:  WELL NAME
 JOBN.        AZ-XX-0906192647:  JOB TICKET NUMB
 RIG .                 Chirag1:  RIG NAME
 DCON.     Halliburton Sperry Drilling:  DIRECTNL CONTR
 UNIT.                     N/A:  LOGGING EQUIPMENT ID
 PDAT.          Mean Sea Level:  PERMANENT DATUM
 MDS .        Operator Entered:  MAG DATA SOURCE
 CTRY.              Azerbaijan:  COUNTRY NAME
 UWI .            /AZE00000090:  UNIQUE WELL IDENTIFIER
 API .            /AZE00000090:  API NUMBER
 CNTY.                        :  COUNTY
 PROV.                        :  PROVINCE
 STAT.                        :  STATE
 LOC .                        :  LOCATION
 LMF .             Drill Floor:  LOG MEASURED FROM
 TVDS.m                  36.60:  TVDSS CORRECTN
 LATI.deg                40.08:  LATITUDE
 LONG.deg                51.24:  LONGITUDE
 WHNS.m                  -7.94:  WELL HEAD N/S
 WHEW.m                   1.56:  WELL HEAD E/W
 UTMX.m              520429.26:  UTM X
 UTMY.m             4438973.87:  UTM Y
 DFWL.m                   0.00:  DISTANCE FWL
 DFSL.m                   0.00:  DISTANCE FSL
 SDEP.m                1455.00:  START DEPTH
 TDD .m                4047.51:  TOTAL DEPTH (DRILLER)
 VSDR.deg               112.75:  VERT SEC DIRECT
 GVFD.g                   1.00:  GRAVITY FIELD
 MFLD.nT              50261.00:  MAGNETIC FIELD
 MDIP.deg                59.52:  MAGNETIC DIP
 MDEC.deg                 6.42:  MAGNETIC DECL
 GRDC.deg                 0.17:  GRID CORRECTION
 AZTC.deg                 6.25:  AZM TOTAL CORR
 EPD .m                   0.00:  ELEVATION
 EGL .m                   0.00:  GROUND ELEVATION
 WDMS.m                 121.00:  WD ELEV
 APD .m                  36.60:  DEPTH ABOVE PD
 AGAP.m                  36.60:  AIR GAP
 VSEW.m                   1.56:  VERT SEC E/W
 VSNS.m                  -7.94:  VERT SEC N/S
 DEP .m                1140.01:  DEPTH
 EKB .m                  36.60:  KB ELEVATION
 EDF .m                  36.60:  DF ELEVATION
 TDL .m                 169.50:  TOTAL DEPTH (LOGGER)
 CSGD.m                3875.01:  CASING BOTTOM (DRILLER)
 CSGL.m                3875.01:  CASING BOTTOM (LOGGER)
 CSGS.in                  7.63:  CASING SIZE
 CSGW.lbpf               23.50:  CASING WEIGHT
 VSC .                       0:  VS TO CLOSURE
 MAGU.                 1849206:  MAGUTM CHECKSUM
~Parameter Information Block
#MNEM.UNIT       Value        Description
#---------     -----------    ---------------------------
 AV  .mps                 1.90:  Ann Velocity 
 AVMX.mps                 2.54:  Max Ann Veloc 
 AZIF.deg               137.03:  Azm, Final 
 BHAT.        Rotary Steerable:  BHA Type 
 BREV.rev             23610.00:  Rev Bit Total 
 BROT.°/30m               0.80:  Build Rotating 
 BS  .in                  6.50:  Bit Size 
 BTPL.psig              110.00:  Bit Press Loss 
 CABU.                     Yes:  Customer Abuse 
 TCS .hr                 70.51:  Time Ciculation Ended 
 CV  .mps                 1.41:  Crit Velocity 
 CVMX.mps                 1.42:  Max Crit Veloc 
 DD1 .         Intigam Rahimov:  Direct Drillr 1 
 DD2 .          Rashad Gojayev:  Direct Drillr 2 
 DDSV.               Geo-Pilot:  DD Service 
 DEFF.%                 100.00:  % Det Eff 
 DLRX.°/30m               1.44:  Dogleg Rot Max 
 DLSO.°/30m               0.00:  Dogleg Oriented 
 DLSX.°/30m               0.00:  Dogleg Str Max 
 DRET.      03.05.00 01-Feb-20:  Drill End Time 
 DRST.      15.50.00 28-Jan-20:  Drill Start Tim 
 DTIM.hr                 24.70:  Time Drilling 
 EDEP.m                4047.51:  End Depth 
 ENG1.           Eldar Hajiyev:  Engineer 1 
 ENG2.          Rasim Hashimov:  Engineer 2 
 ENG3.          Rustam Safarov:  Engineer 3 
 ETIM.      22.00.00 01-Feb-20:  End Time 
 FLOI.gpm               370.00:  Flow In 
 FLON.gpm               300.00:  Flow In Min 
 FLOS.cptm                0.00:  Fluid Loss 
 FLOX.gpm               400.00:  Flow In Max 
 FTRO.       Formation Presure:  FTWD Run Obj 
 HFLO.                      No:  High Flow 
 HPRE.                      No:  High Pressure 
 HTEM.                      No:  High Temp 
 HYDO.m                   2.50:  Hydro Offset 
 IFIN.deg                39.54:  Inc, Final 
 IMAX.deg                41.14:  Inc Max 
 IMIN.deg                39.81:  Inc Min 
 IMND.m                4005.21:  Inc Min Depth 
 IMXD.m                3948.42:  Inc Max Depth 
 JARR.                      No:  Jarring 
 LETM.      03.05.00 01-Feb-20:  Log End Time 
 LOST.hr                     0:  Lost Rig Time 
 LSTM.      15.50.00 28-Jan-20:  Log Start Time 
 MDCL.ppm             37500.00:  Mud Chlorides 
 MDES.     Inversion Oil/Synthetic:  Mud Desc 
 DFD .sg                  1.32:  Mud Density 
 MDMN.sg                  1.32:  Dens Mud Min 
 MDMX.sg                  1.32:  Dens Mud Max 
 MOIL.                      55:  Run Mud Oil % 
 MOWR.                   70:30:  Run Mud OWR 
 MSND.                       0:  Run Mud Sand % 
 MSOL.                      17:  Run Mud Solids% 
 DFV .spqt               80.00:  Mud Viscosity 
 MWOD.in                  4.75:  MWD Tool OD 
 MWSI.                      No:  Serv Intrp, MWD 
 OTIM.hr                121.28:  Time Operating 
 PCON.           Look Like New:  Pad Condition 
 PMAX.psia             6171.00:  Press Op, Max 
 PV  .cP                 30.00:  Mud PV 
 RUN .                     300:  Run Number 
 ROPA.m/hr                5.45:  ROP Avg 
 ROPN.m/hr                3.00:  ROP Min 
 ROPX.m/hr               15.00:  ROP Max 
 RPMA.rpm               130.00:  RPM Surface Avg 
 RPMN.rpm                80.00:  RPM Surface Min 
 RPMX.rpm               140.00:  RPM Surface Max 
 RRUN.                     300:  Rig Run Number 
 RTIM.hr                 13.50:  Time Reaming 
 SAZI.deg               133.93:  Azm, Start 
 SDEP.m                3878.01:  Start Depth 
 SIDD.                      No:  Serv Intrp, DD 
 SINC.deg                40.28:  Inc, Start 
 SPPA.psig             4983.00:  SPP Avg 
 SPPN.psig             4370.00:  SPP Min 
 SPPX.psig             5300.00:  SPP Max 
 STIM.      18.33.36 27-Jan-20:  Start Time 
 SVCS.                 DD, MWD:  Services 
 SVER.                    9.20:  Sperry Version 
 TDAT.m                 169.50:  Tot Depth Attmp 
 TDDF.                      No:  Trip for DD 
 TDLG.m                 169.50:  Tot Depth Loggd 
 TFF .                      No:  Trip for Fail 
 TQAA.f-kp               13.25:  Torque Abs Avg 
 TQAN.f-kp               12.00:  Torque Abs Min 
 TQAX.f-kp               14.00:  Torque Abs Max 
 TRRT.°/30m               0.70:  Turn Rotating 
 MRT .                     ADR:  Maximum Recorded Temperature 
 TTMX.degC               92.16:  Max Tool Temp 
 VS01.       AZ90598764G12V7D4:  Virtual Str1 SN 
 VS02.         AZ90571342R12C4:  Virtual Str2 SN 
 VS03.      AZ90580010N2L2X1C4:  Virtual Str3 SN 
 VS04.        AZ90522266O7X1C4:  Virtual Str4 SN 
 VS05.           AZ90598768F11:  Virtual Str5 SN 
 VS06.     AZ90580006XZ1W1X1C4:  Virtual Str6 SN 
 WBMN.klb                 8.00:  WOB Min 
 WITN.            Peter Wilson:  Customer Rep 
 WOBA.klb                 9.88:  WOB Avg 
 WOBX.klb                10.00:  WOB Max 
 YP  .lhf2               27.00:  Yield Point 
~Curve Information Block
#MNEM.UNIT                 API CODE     Curve Description
#---------               -----------    ---------------------------
 TIME.HHMMSS            00 000 000 000:  GT Time & Date
 GTDEPTH.m              00 000 000 000:  GT Depth
 GTPQH.psia             00 000 000 000:  GT HR Quartz Pressure
 GTTQ.degC              00 000 000 000:  GT Quartz Temperature
 GTTN.NONE              00 000 000 000:  GT Test Number
 GTET.sec               00 000 000 000:  GT Elapsed Test Time
 GTTVD.m                00 000 000 000:  GT True Vertical Depth
#Other Information
#
#WARRANTY: Halliburton will use its best efforts to furnish customers with 
#accurate information and interpretations that are part of, and incident to, the services 
#provided.  However, Halliburton cannot and does not warrant the accuracy 
#or correctness of such information and interpretations.  Under no circumstances should any 
#such information or interpretation be relied upon as the sole basis for any drilling, 
#completion, production, or financial decision or any procedure involving any risk to the 
#safety of any drilling venture, drilling rig or its crew or any other third party.  The 
#Customer has full responsibility for all drilling, completion and production operation.  
#Halliburton makes no representations or warranties, either expressed or 
#implied, including, but not limited to, the implied warranties of merchantability or fitness 
#for a particular purpose, with respect to the services rendered.  In no event will 
#Halliburton be liable for failure to obtain any particular results or for 
#any damages, including, but not limited to, indirect, special or consequential damages, 
#resulting from the use of any information or interpretation provided by Halliburton.
#
~A           TIME           GTDEPTH  GTPQH  GTTQ  GTTN   GTET   GTTVD  
# ...
   04:15:04.186.01-Feb-2020 3998.51 3149.25 85.23 12.00 158.76 3011.77
   04:15:04.387.01-Feb-2020 3998.51 3149.15 85.23 12.00 158.96 3011.77
   04:15:04.588.01-Feb-2020 3998.51 3149.27 85.23 12.00 159.16 3011.77
   04:15:04.788.01-Feb-2020 3998.51 3149.21 85.23 12.00 159.36 3011.77
   04:15:04.989.01-Feb-2020 3998.51 3149.17 85.23 12.00 159.56 3011.77
   04:15:05.190.01-Feb-2020 3998.51 3149.17 85.23 12.00 159.76 3011.77
   04:15:05.390.01-Feb-2020 3998.51 3149.19 85.23 12.00 159.96 3011.77
   04:15:05.591.01-Feb-2020 3998.51 3149.19 85.23 12.00 160.16 3011.77
   04:15:05.792.01-Feb-2020 3998.51 3149.19 85.23 12.00 160.36 3011.77
   04:15:05.992.01-Feb-2020 3998.51 3149.16 85.23 12.00 160.56 3011.77
   04:15:06.193.01-Feb-2020 3998.51 3149.16 85.23 12.00 160.76 3011.77
   04:15:06.394.01-Feb-2020 3998.51 3149.34 85.23 12.00 160.96 3011.77
   04:15:06.595.01-Feb-2020 3998.51 3149.20 85.23 12.00 161.16 3011.77
   04:15:06.795.01-Feb-2020 3998.51 3149.27 85.23 12.00 161.36 3011.77
   04:15:06.996.01-Feb-2020 3998.51 3149.23 85.23 12.00 161.56 3011.77
   04:15:07.197.01-Feb-2020 3998.51 3149.23 85.23 12.00 161.77 3011.77
   04:15:07.397.01-Feb-2020 3998.51 3149.26 85.23 12.00 161.97 3011.77
   04:15:07.598.01-Feb-2020 3998.51 3149.24 85.22 12.00 162.17 3011.77
   04:15:07.799.01-Feb-2020 3998.51 3149.19 85.22 12.00 162.37 3011.77
   04:15:08.000.01-Feb-2020 3998.51 3149.25 85.22 12.00 162.57 3011.77
   04:15:08.200.01-Feb-2020 3998.51 3149.25 85.22 12.00 162.77 3011.77
   04:15:08.401.01-Feb-2020 3998.51 3149.19 85.22 12.00 162.97 3011.77
   04:15:08.602.01-Feb-2020 3998.51 3149.16 85.22 12.00 163.17 3011.77
   04:15:08.802.01-Feb-2020 3998.51 3149.20 85.22 12.00 163.37 3011.77
   04:15:09.003.01-Feb-2020 3998.51 3149.26 85.22 12.00 163.57 3011.77
   04:15:09.204.01-Feb-2020 3998.51 3149.26 85.22 12.00 163.77 3011.77
   04:15:09.404.01-Feb-2020 3998.51 3149.38 85.22 12.00 163.97 3011.77
   04:15:09.605.01-Feb-2020 3998.51 3149.26 85.22 12.00 164.17 3011.77
   04:15:09.806.01-Feb-2020 3998.51 3149.26 85.22 12.00 164.37 3011.77
   04:15:10.007.01-Feb-2020 3998.51 3149.26 85.22 12.00 164.58 3011.77
   04:15:10.207.01-Feb-2020 3998.51 3149.26 85.22 12.00 164.78 3011.77
   04:15:10.408.01-Feb-2020 3998.51 3119.52 85.22 12.00 164.98 3011.77
   04:15:10.609.01-Feb-2020 3998.51 3105.10 85.22 12.00 165.18 3011.77
   04:15:10.809.01-Feb-2020 3998.51 3104.89 85.22 12.00 165.38 3011.77
   04:15:11.010.01-Feb-2020 3998.51 3104.05 85.21 12.00 165.58 3011.77
   04:15:11.211.01-Feb-2020 3998.51 3104.05 85.21 12.00 165.78 3011.77
   04:15:11.411.01-Feb-2020 3998.51 3103.31 85.21 12.00 165.98 3011.77
   04:15:11.612.01-Feb-2020 3998.51 3104.13 85.21 12.00 166.18 3011.77
   04:15:11.813.01-Feb-2020 3998.51 3103.36 85.21 12.00 166.38 3011.77
   04:15:12.014.01-Feb-2020 3998.51 3103.76 85.21 12.00 166.58 3011.77
   04:15:12.214.01-Feb-2020 3998.51 3103.76 85.21 12.00 166.78 3011.77
   04:15:12.415.01-Feb-2020 3998.51 3102.10 85.21 12.00 166.98 3011.77
   04:15:12.616.01-Feb-2020 3998.51 3103.03 85.21 12.00 167.18 3011.77
   04:15:12.816.01-Feb-2020 3998.51 3102.07 85.21 12.00 167.39 3011.77
   04:15:13.017.01-Feb-2020 3998.51 3103.10 85.21 12.00 167.59 3011.77
   04:15:13.218.01-Feb-2020 3998.51 3103.10 85.21 12.00 167.79 3011.77
   04:15:13.418.01-Feb-2020 3998.51 3102.20 85.21 12.00 167.99 3011.77
   04:15:13.619.01-Feb-2020 3998.51 3102.32 85.21 12.00 168.19 3011.77
   04:15:13.820.01-Feb-2020 3998.51 3102.20 85.21 12.00 168.39 3011.77
   04:15:14.021.01-Feb-2020 3998.51 3102.28 85.21 12.00 168.59 3011.77
   04:15:14.221.01-Feb-2020 3998.51 3102.28 85.21 12.00 168.79 3011.77
   04:15:14.422.01-Feb-2020 3998.51 3102.07 85.21 12.00 168.99 3011.77
   04:15:14.623.01-Feb-2020 3998.51 3102.08 85.21 12.00 169.19 3011.77
   04:15:14.823.01-Feb-2020 3998.51 3102.07 85.20 12.00 169.39 3011.77
   04:15:15.024.01-Feb-2020 3998.51 3101.41 85.20 12.00 169.59 3011.77
   04:15:15.225.01-Feb-2020 3998.51 3101.41 85.20 12.00 169.79 3011.77
   04:15:15.425.01-Feb-2020 3998.51 3101.86 85.20 12.00 169.99 3011.77
   04:15:15.626.01-Feb-2020 3998.51 3100.95 85.20 12.00 170.20 3011.77
   04:15:15.827.01-Feb-2020 3998.51 3101.56 85.20 12.00 170.40 3011.77
   04:15:16.028.01-Feb-2020 3998.51 3101.74 85.20 12.00 170.60 3011.77
   04:15:16.228.01-Feb-2020 3998.51 3101.74 85.20 12.00 170.80 3011.77
   04:15:16.429.01-Feb-2020 3998.51 3101.29 85.20 12.00 171.00 3011.77
   04:15:16.630.01-Feb-2020 3998.51 3101.19 85.20 12.00 171.20 3011.77
   04:15:16.830.01-Feb-2020 3998.51 3102.15 85.20 12.00 171.40 3011.77
   04:15:17.031.01-Feb-2020 3998.51 3101.80 85.20 12.00 171.60 3011.77
   04:15:17.232.01-Feb-2020 3998.51 3101.80 85.20 12.00 171.80 3011.77
   04:15:17.432.01-Feb-2020 3998.51 3100.76 85.20 12.00 172.00 3011.77
   04:15:17.633.01-Feb-2020 3998.51 3102.10 85.20 12.00 172.20 3011.77
   04:15:17.834.01-Feb-2020 3998.51 3101.72 85.20 12.00 172.40 3011.77
   04:15:18.035.01-Feb-2020 3998.51 3101.57 85.20 12.00 172.60 3011.77
   04:15:18.235.01-Feb-2020 3998.51 3101.57 85.20 12.00 172.80 3011.77
   04:15:18.436.01-Feb-2020 3998.51 3101.46 85.19 12.00 173.00 3011.77
   04:15:18.637.01-Feb-2020 3998.51 3101.25 85.19 12.00 173.21 3011.77
   04:15:18.837.01-Feb-2020 3998.51 3101.38 85.19 12.00 173.41 3011.77
   04:15:19.038.01-Feb-2020 3998.51 3101.05 85.19 12.00 173.61 3011.77
   04:15:19.239.01-Feb-2020 3998.51 3101.05 85.19 12.00 173.81 3011.77
   04:15:19.440.01-Feb-2020 3998.51 3100.91 85.19 12.00 174.01 3011.77
   04:15:19.640.01-Feb-2020 3998.51 3100.92 85.19 12.00 174.21 3011.77
   04:15:19.841.01-Feb-2020 3998.51 3101.31 85.19 12.00 174.41 3011.77
   04:15:20.042.01-Feb-2020 3998.51 3100.74 85.19 12.00 174.61 3011.77
   04:15:20.242.01-Feb-2020 3998.51 3100.74 85.19 12.00 174.81 3011.77
   04:15:20.443.01-Feb-2020 3998.51 3105.69 85.19 12.00 175.01 3011.77
   04:15:20.644.01-Feb-2020 3998.51 3141.80 85.19 12.00 175.21 3011.77
   04:15:20.844.01-Feb-2020 3998.51 3145.22 85.19 12.00 175.41 3011.77
   04:15:21.045.01-Feb-2020 3998.51 3145.75 85.19 12.00 175.61 3011.77
   04:15:21.246.01-Feb-2020 3998.51 3145.75 85.19 12.00 175.81 3011.77
   04:15:21.447.01-Feb-2020 3998.51 3146.45 85.19 12.00 176.02 3011.77
   04:15:21.647.01-Feb-2020 3998.51 3146.56 85.19 12.00 176.22 3011.77
   04:15:21.848.01-Feb-2020 3998.51 3146.83 85.19 12.00 176.42 3011.77
   04:15:22.049.01-Feb-2020 3998.51 3146.95 85.18 12.00 176.62 3011.77
   04:15:22.249.01-Feb-2020 3998.51 3146.95 85.18 12.00 176.82 3011.77
   04:15:22.450.01-Feb-2020 3998.51 3147.27 85.18 12.00 177.02 3011.77
   04:15:22.651.01-Feb-2020 3998.51 3147.06 85.18 12.00 177.22 3011.77
   04:15:22.851.01-Feb-2020 3998.51 3147.56 85.18 12.00 177.42 3011.77
   04:15:23.052.01-Feb-2020 3998.51 3147.49 85.18 12.00 177.62 3011.77
   04:15:23.253.01-Feb-2020 3998.51 3147.49 85.18 12.00 177.82 3011.77
   04:15:23.454.01-Feb-2020 3998.51 3147.59 85.18 12.00 178.02 3011.77
   04:15:23.654.01-Feb-2020 3998.51 3147.64 85.18 12.00 178.22 3011.77
   04:15:23.855.01-Feb-2020 3998.51 3147.76 85.18 12.00 178.42 3011.77
   04:15:24.056.01-Feb-2020 3998.51 3147.58 85.18 12.00 178.62 3011.77
   04:15:24.256.01-Feb-2020 3998.51 3147.58 85.18 12.00 178.83 3011.77
   04:15:24.457.01-Feb-2020 3998.51 3147.88 85.18 12.00 179.03 3011.77
   04:15:24.658.01-Feb-2020 3998.51 3147.81 85.18 12.00 179.23 3011.77
   04:15:24.858.01-Feb-2020 3998.51 3147.95 85.18 12.00 179.43 3011.77
   04:15:25.059.01-Feb-2020 3998.51 3147.92 85.18 12.00 179.63 3011.77
   04:15:25.260.01-Feb-2020 3998.51 3147.92 85.18 12.00 179.83 3011.77
   04:15:25.461.01-Feb-2020 3998.51 3148.15 85.18 12.00 180.03 3011.77
   04:15:25.661.01-Feb-2020 3998.51 3148.07 85.18 12.00 180.23 3011.77
   04:15:25.862.01-Feb-2020 3998.51 3148.07 85.17 12.00 180.43 3011.77
   04:15:26.063.01-Feb-2020 3998.51 3148.13 85.17 12.00 180.63 3011.77
   04:15:26.263.01-Feb-2020 3998.51 3148.13 85.17 12.00 180.83 3011.77
   04:15:26.464.01-Feb-2020 3998.51 3148.11 85.17 12.00 181.03 3011.77
   04:15:26.665.01-Feb-2020 3998.51 3148.08 85.17 12.00 181.23 3011.77
