~Version Information
 VERS.                  2.0:   CWLS log ASCII Standard -VERSION 2.0
 WRAP.                   NO:   One line per depth step
~Well Information Block
#MNEM.UNIT     VALUE/NAME     DESCRIPTION
#---------     -----------    ---------------------------
 STRT.S             00:13:57 01-Feb-20: START TIME 00:13:57 01-Feb-20
 STOP.S             00:20:28 01-Feb-20: STOP TIME  00:20:28 01-Feb-20
 STEP.S                   0.00: STEP TIME
 NULL.                 -999.25: NULL VALUE
 DFWT.                        :  DIST FWL TEXT
 DFST.                        :  DIST FSL TEXT
 DMF .             Drill Floor:  DRILL MEAS FROM
 STIM.      09.30.00 26-Dec-19:  START TIME
 DATE.      08.00.00 20-Jan-20:  END TIME
 SPUD.               23-Nov-19:  SPUD DATE
 NREF.                    Grid:  NORTH REFERENCE
 HPTY.       Minimum Curvature:  HOLE POS TYPE
 DMOD.             Drill Model:  DRILL MOD DESC
 SVYD.                  Survey:  SURVEY DESC
 ILTD.               Lithology:  INTERP LTH DESC
 FTOP.          Formation Tops:  FORM TOPS DESC
 SON .        AZ-XX-0906192647:  JOB NUMBER
 WTYP.                Deviated:  WELL TYPE
 COMP.     BP Exploration (Caspian Sea) Ltd:  COMPANY
 BASE.              Azerbaijan:  LOGGING EQUIPMENT BASE LOCATION
 REGN.                 Eurasia:  REGION
 FLD .                     ACG:  FIELD NAME
 SRVC.              KCA Deutag:  CONTRACTOR
 MWDS.                    Baku:  MWD SHOP
 WELL.     A10 (Slot 20) - SCP:  WELL NAME
 JOBN.        AZ-XX-0906192647:  JOB TICKET NUMB
 RIG .                 Chirag1:  RIG NAME
 DCON.     Halliburton Sperry Drilling:  DIRECTNL CONTR
 UNIT.                     N/A:  LOGGING EQUIPMENT ID
 PDAT.          Mean Sea Level:  PERMANENT DATUM
 MDS .        Operator Entered:  MAG DATA SOURCE
 CTRY.              Azerbaijan:  COUNTRY NAME
 UWI .            /AZE00000090:  UNIQUE WELL IDENTIFIER
 API .            /AZE00000090:  API NUMBER
 CNTY.                        :  COUNTY
 PROV.                        :  PROVINCE
 STAT.                        :  STATE
 LOC .                        :  LOCATION
 LMF .             Drill Floor:  LOG MEASURED FROM
 TVDS.m                  36.60:  TVDSS CORRECTN
 LATI.deg                40.08:  LATITUDE
 LONG.deg                51.24:  LONGITUDE
 WHNS.m                  -7.94:  WELL HEAD N/S
 WHEW.m                   1.56:  WELL HEAD E/W
 UTMX.m              520429.26:  UTM X
 UTMY.m             4438973.87:  UTM Y
 DFWL.m                   0.00:  DISTANCE FWL
 DFSL.m                   0.00:  DISTANCE FSL
 SDEP.m                1455.00:  START DEPTH
 TDD .m                4047.51:  TOTAL DEPTH (DRILLER)
 VSDR.deg               112.75:  VERT SEC DIRECT
 GVFD.g                   1.00:  GRAVITY FIELD
 MFLD.nT              50261.00:  MAGNETIC FIELD
 MDIP.deg                59.52:  MAGNETIC DIP
 MDEC.deg                 6.42:  MAGNETIC DECL
 GRDC.deg                 0.17:  GRID CORRECTION
 AZTC.deg                 6.25:  AZM TOTAL CORR
 EPD .m                   0.00:  ELEVATION
 EGL .m                   0.00:  GROUND ELEVATION
 WDMS.m                 121.00:  WD ELEV
 APD .m                  36.60:  DEPTH ABOVE PD
 AGAP.m                  36.60:  AIR GAP
 VSEW.m                   1.56:  VERT SEC E/W
 VSNS.m                  -7.94:  VERT SEC N/S
 DEP .m                1140.01:  DEPTH
 EKB .m                  36.60:  KB ELEVATION
 EDF .m                  36.60:  DF ELEVATION
 TDL .m                 169.50:  TOTAL DEPTH (LOGGER)
 CSGD.m                3875.01:  CASING BOTTOM (DRILLER)
 CSGL.m                3875.01:  CASING BOTTOM (LOGGER)
 CSGS.in                  7.63:  CASING SIZE
 CSGW.lbpf               23.50:  CASING WEIGHT
 VSC .                       0:  VS TO CLOSURE
 MAGU.                 1849206:  MAGUTM CHECKSUM
~Parameter Information Block
#MNEM.UNIT       Value        Description
#---------     -----------    ---------------------------
 AV  .mps                 1.90:  Ann Velocity 
 AVMX.mps                 2.54:  Max Ann Veloc 
 AZIF.deg               137.03:  Azm, Final 
 BHAT.        Rotary Steerable:  BHA Type 
 BREV.rev             23610.00:  Rev Bit Total 
 BROT.°/30m               0.80:  Build Rotating 
 BS  .in                  6.50:  Bit Size 
 BTPL.psig              110.00:  Bit Press Loss 
 CABU.                     Yes:  Customer Abuse 
 TCS .hr                 70.51:  Time Ciculation Ended 
 CV  .mps                 1.41:  Crit Velocity 
 CVMX.mps                 1.42:  Max Crit Veloc 
 DD1 .         Intigam Rahimov:  Direct Drillr 1 
 DD2 .          Rashad Gojayev:  Direct Drillr 2 
 DDSV.               Geo-Pilot:  DD Service 
 DEFF.%                 100.00:  % Det Eff 
 DLRX.°/30m               1.44:  Dogleg Rot Max 
 DLSO.°/30m               0.00:  Dogleg Oriented 
 DLSX.°/30m               0.00:  Dogleg Str Max 
 DRET.      03.05.00 01-Feb-20:  Drill End Time 
 DRST.      15.50.00 28-Jan-20:  Drill Start Tim 
 DTIM.hr                 24.70:  Time Drilling 
 EDEP.m                4047.51:  End Depth 
 ENG1.           Eldar Hajiyev:  Engineer 1 
 ENG2.          Rasim Hashimov:  Engineer 2 
 ENG3.          Rustam Safarov:  Engineer 3 
 ETIM.      22.00.00 01-Feb-20:  End Time 
 FLOI.gpm               370.00:  Flow In 
 FLON.gpm               300.00:  Flow In Min 
 FLOS.cptm                0.00:  Fluid Loss 
 FLOX.gpm               400.00:  Flow In Max 
 FTRO.       Formation Presure:  FTWD Run Obj 
 HFLO.                      No:  High Flow 
 HPRE.                      No:  High Pressure 
 HTEM.                      No:  High Temp 
 HYDO.m                   2.50:  Hydro Offset 
 IFIN.deg                39.54:  Inc, Final 
 IMAX.deg                41.14:  Inc Max 
 IMIN.deg                39.81:  Inc Min 
 IMND.m                4005.21:  Inc Min Depth 
 IMXD.m                3948.42:  Inc Max Depth 
 JARR.                      No:  Jarring 
 LETM.      03.05.00 01-Feb-20:  Log End Time 
 LOST.hr                     0:  Lost Rig Time 
 LSTM.      15.50.00 28-Jan-20:  Log Start Time 
 MDCL.ppm             37500.00:  Mud Chlorides 
 MDES.     Inversion Oil/Synthetic:  Mud Desc 
 DFD .sg                  1.32:  Mud Density 
 MDMN.sg                  1.32:  Dens Mud Min 
 MDMX.sg                  1.32:  Dens Mud Max 
 MOIL.                      55:  Run Mud Oil % 
 MOWR.                   70:30:  Run Mud OWR 
 MSND.                       0:  Run Mud Sand % 
 MSOL.                      17:  Run Mud Solids% 
 DFV .spqt               80.00:  Mud Viscosity 
 MWOD.in                  4.75:  MWD Tool OD 
 MWSI.                      No:  Serv Intrp, MWD 
 OTIM.hr                121.28:  Time Operating 
 PCON.           Look Like New:  Pad Condition 
 PMAX.psia             6171.00:  Press Op, Max 
 PV  .cP                 30.00:  Mud PV 
 RUN .                     300:  Run Number 
 ROPA.m/hr                5.45:  ROP Avg 
 ROPN.m/hr                3.00:  ROP Min 
 ROPX.m/hr               15.00:  ROP Max 
 RPMA.rpm               130.00:  RPM Surface Avg 
 RPMN.rpm                80.00:  RPM Surface Min 
 RPMX.rpm               140.00:  RPM Surface Max 
 RRUN.                     300:  Rig Run Number 
 RTIM.hr                 13.50:  Time Reaming 
 SAZI.deg               133.93:  Azm, Start 
 SDEP.m                3878.01:  Start Depth 
 SIDD.                      No:  Serv Intrp, DD 
 SINC.deg                40.28:  Inc, Start 
 SPPA.psig             4983.00:  SPP Avg 
 SPPN.psig             4370.00:  SPP Min 
 SPPX.psig             5300.00:  SPP Max 
 STIM.      18.33.36 27-Jan-20:  Start Time 
 SVCS.                 DD, MWD:  Services 
 SVER.                    9.20:  Sperry Version 
 TDAT.m                 169.50:  Tot Depth Attmp 
 TDDF.                      No:  Trip for DD 
 TDLG.m                 169.50:  Tot Depth Loggd 
 TFF .                      No:  Trip for Fail 
 TQAA.f-kp               13.25:  Torque Abs Avg 
 TQAN.f-kp               12.00:  Torque Abs Min 
 TQAX.f-kp               14.00:  Torque Abs Max 
 TRRT.°/30m               0.70:  Turn Rotating 
 MRT .                     ADR:  Maximum Recorded Temperature 
 TTMX.degC               92.16:  Max Tool Temp 
 VS01.       AZ90598764G12V7D4:  Virtual Str1 SN 
 VS02.         AZ90571342R12C4:  Virtual Str2 SN 
 VS03.      AZ90580010N2L2X1C4:  Virtual Str3 SN 
 VS04.        AZ90522266O7X1C4:  Virtual Str4 SN 
 VS05.           AZ90598768F11:  Virtual Str5 SN 
 VS06.     AZ90580006XZ1W1X1C4:  Virtual Str6 SN 
 WBMN.klb                 8.00:  WOB Min 
 WITN.            Peter Wilson:  Customer Rep 
 WOBA.klb                 9.88:  WOB Avg 
 WOBX.klb                10.00:  WOB Max 
 YP  .lhf2               27.00:  Yield Point 
~Curve Information Block
#MNEM.UNIT                 API CODE     Curve Description
#---------               -----------    ---------------------------
 TIME.HHMMSS            00 000 000 000:  GT Time & Date
 GTDEPTH.m              00 000 000 000:  GT Depth
 GTPQH.psia             00 000 000 000:  GT HR Quartz Pressure
 GTTQ.degC              00 000 000 000:  GT Quartz Temperature
 GTTN.NONE              00 000 000 000:  GT Test Number
 GTET.sec               00 000 000 000:  GT Elapsed Test Time
 GTTVD.m                00 000 000 000:  GT True Vertical Depth
#Other Information
#
#WARRANTY: Halliburton will use its best efforts to furnish customers with 
#accurate information and interpretations that are part of, and incident to, the services 
#provided.  However, Halliburton cannot and does not warrant the accuracy 
#or correctness of such information and interpretations.  Under no circumstances should any 
#such information or interpretation be relied upon as the sole basis for any drilling, 
#completion, production, or financial decision or any procedure involving any risk to the 
#safety of any drilling venture, drilling rig or its crew or any other third party.  The 
#Customer has full responsibility for all drilling, completion and production operation.  
#Halliburton makes no representations or warranties, either expressed or 
#implied, including, but not limited to, the implied warranties of merchantability or fitness 
#for a particular purpose, with respect to the services rendered.  In no event will 
#Halliburton be liable for failure to obtain any particular results or for 
#any damages, including, but not limited to, indirect, special or consequential damages, 
#resulting from the use of any information or interpretation provided by Halliburton.
#
~A           TIME           GTDEPTH  GTPQH  GTTQ  GTTN   GTET   GTTVD  
# ...
   00:18:06.330.01-Feb-2020 3989.40 1895.30 86.77 10.00 248.62 3004.80
   00:18:06.530.01-Feb-2020 3989.40 1894.45 86.77 10.00 248.82 3004.80
   00:18:06.730.01-Feb-2020 3989.40 1894.37 86.77 10.00 249.02 3004.80
   00:18:06.930.01-Feb-2020 3989.40 1894.37 86.77 10.00 249.22 3004.80
   00:18:07.130.01-Feb-2020 3989.40 1894.76 86.77 10.00 249.42 3004.80
   00:18:07.330.01-Feb-2020 3989.40 1894.99 86.76 10.00 249.62 3004.80
   00:18:07.530.01-Feb-2020 3989.40 1894.54 86.76 10.00 249.82 3004.80
   00:18:07.730.01-Feb-2020 3989.40 1893.07 86.76 10.00 250.02 3004.80
   00:18:07.930.01-Feb-2020 3989.40 1893.07 86.76 10.00 250.22 3004.80
   00:18:08.130.01-Feb-2020 3989.40 1893.55 86.76 10.00 250.42 3004.80
   00:18:08.330.01-Feb-2020 3989.40 1896.36 86.76 10.00 250.62 3004.80
   00:18:08.530.01-Feb-2020 3989.40 1896.09 86.76 10.00 250.82 3004.80
   00:18:08.730.01-Feb-2020 3989.40 1929.21 86.76 10.00 251.02 3004.80
   00:18:08.930.01-Feb-2020 3989.40 1929.21 86.76 10.00 251.22 3004.80
   00:18:09.130.01-Feb-2020 3989.40 2484.73 86.76 10.00 251.42 3004.80
   00:18:09.330.01-Feb-2020 3989.40 2679.88 86.76 10.00 251.62 3004.80
   00:18:09.530.01-Feb-2020 3989.40 2816.15 86.76 10.00 251.82 3004.80
   00:18:09.730.01-Feb-2020 3989.40 2912.45 86.75 10.00 252.02 3004.80
   00:18:09.930.01-Feb-2020 3989.40 2912.45 86.75 10.00 252.22 3004.80
   00:18:10.130.01-Feb-2020 3989.40 3031.87 86.75 10.00 252.42 3004.80
   00:18:10.330.01-Feb-2020 3989.40 3068.96 86.75 10.00 252.62 3004.80
   00:18:10.530.01-Feb-2020 3989.40 3096.80 86.75 10.00 252.82 3004.80
   00:18:10.730.01-Feb-2020 3989.40 3118.43 86.75 10.00 253.02 3004.80
   00:18:10.930.01-Feb-2020 3989.40 3118.43 86.75 10.00 253.22 3004.80
   00:18:11.130.01-Feb-2020 3989.40 3147.20 86.75 10.00 253.42 3004.80
   00:18:11.330.01-Feb-2020 3989.40 3157.16 86.75 10.00 253.62 3004.80
   00:18:11.530.01-Feb-2020 3989.40 3164.63 86.75 10.00 253.82 3004.80
   00:18:11.730.01-Feb-2020 3989.40 3170.70 86.75 10.00 254.02 3004.80
   00:18:11.930.01-Feb-2020 3989.40 3170.70 86.75 10.00 254.22 3004.80
   00:18:12.130.01-Feb-2020 3989.40 3180.73 86.75 10.00 254.42 3004.80
   00:18:12.330.01-Feb-2020 3989.40 3184.43 86.75 10.00 254.62 3004.80
   00:18:12.530.01-Feb-2020 3989.40 3187.49 86.75 10.00 254.82 3004.80
   00:18:12.730.01-Feb-2020 3989.40 3190.11 86.75 10.00 255.02 3004.80
   00:18:12.930.01-Feb-2020 3989.40 3190.11 86.75 10.00 255.22 3004.80
   00:18:13.130.01-Feb-2020 3989.40 3194.21 86.74 10.00 255.42 3004.80
   00:18:13.330.01-Feb-2020 3989.40 3195.94 86.74 10.00 255.62 3004.80
   00:18:13.530.01-Feb-2020 3989.40 3197.44 86.74 10.00 255.82 3004.80
   00:18:13.730.01-Feb-2020 3989.40 3198.66 86.74 10.00 256.02 3004.80
   00:18:13.930.01-Feb-2020 3989.40 3198.66 86.74 10.00 256.22 3004.80
   00:18:14.130.01-Feb-2020 3989.40 3200.93 86.74 10.00 256.42 3004.80
   00:18:14.330.01-Feb-2020 3989.40 3201.79 86.74 10.00 256.62 3004.80
   00:18:14.530.01-Feb-2020 3989.40 3202.71 86.74 10.00 256.82 3004.80
   00:18:14.730.01-Feb-2020 3989.40 3203.59 86.74 10.00 257.02 3004.80
   00:18:14.931.01-Feb-2020 3989.40 3203.59 86.74 10.00 257.22 3004.80
   00:18:15.131.01-Feb-2020 3989.40 3205.14 86.74 10.00 257.42 3004.80
   00:18:15.331.01-Feb-2020 3989.40 3205.21 86.74 10.00 257.62 3004.80
   00:18:15.531.01-Feb-2020 3989.40 3205.65 86.74 10.00 257.82 3004.80
   00:18:15.731.01-Feb-2020 3989.40 3206.28 86.74 10.00 258.02 3004.80
   00:18:15.931.01-Feb-2020 3989.40 3206.28 86.74 10.00 258.22 3004.80
   00:18:16.131.01-Feb-2020 3989.40 3207.54 86.74 10.00 258.42 3004.80
   00:18:16.331.01-Feb-2020 3989.40 3208.08 86.74 10.00 258.62 3004.80
   00:18:16.531.01-Feb-2020 3989.40 3208.59 86.74 10.00 258.82 3004.80
   00:18:16.731.01-Feb-2020 3989.40 3209.05 86.74 10.00 259.02 3004.80
   00:18:16.931.01-Feb-2020 3989.40 3209.05 86.74 10.00 259.22 3004.80
   00:18:17.131.01-Feb-2020 3989.40 3209.89 86.74 10.00 259.42 3004.80
   00:18:17.331.01-Feb-2020 3989.40 3210.28 86.74 10.00 259.62 3004.80
   00:18:17.531.01-Feb-2020 3989.40 3210.67 86.74 10.00 259.82 3004.80
   00:18:17.731.01-Feb-2020 3989.40 3210.94 86.74 10.00 260.02 3004.80
   00:18:17.931.01-Feb-2020 3989.40 3210.94 86.74 10.00 260.22 3004.80
   00:18:18.131.01-Feb-2020 3989.40 3211.54 86.74 10.00 260.42 3004.80
   00:18:18.331.01-Feb-2020 3989.40 3211.85 86.74 10.00 260.62 3004.80
   00:18:18.531.01-Feb-2020 3989.40 3212.30 86.74 10.00 260.82 3004.80
   00:18:18.731.01-Feb-2020 3989.40 3212.20 86.73 10.00 261.02 3004.80
   00:18:18.931.01-Feb-2020 3989.40 3212.20 86.73 10.00 261.22 3004.80
   00:18:19.131.01-Feb-2020 3989.40 3212.82 86.73 10.00 261.42 3004.80
   00:18:19.331.01-Feb-2020 3989.40 3213.08 86.73 10.00 261.62 3004.80
   00:18:19.531.01-Feb-2020 3989.40 3213.34 86.73 10.00 261.82 3004.80
   00:18:19.731.01-Feb-2020 3989.40 3213.23 86.73 10.00 262.02 3004.80
   00:18:19.931.01-Feb-2020 3989.40 3213.23 86.73 10.00 262.22 3004.80
   00:18:20.131.01-Feb-2020 3989.40 3213.82 86.73 10.00 262.42 3004.80
   00:18:20.331.01-Feb-2020 3989.40 3214.11 86.73 10.00 262.62 3004.80
   00:18:20.531.01-Feb-2020 3989.40 3214.34 86.73 10.00 262.82 3004.80
   00:18:20.731.01-Feb-2020 3989.40 3214.36 86.73 10.00 263.02 3004.80
   00:18:20.931.01-Feb-2020 3989.40 3214.36 86.73 10.00 263.22 3004.80
   00:18:21.131.01-Feb-2020 3989.40 3214.68 86.73 10.00 263.42 3004.80
   00:18:21.331.01-Feb-2020 3989.40 3214.94 86.73 10.00 263.62 3004.80
   00:18:21.531.01-Feb-2020 3989.40 3215.07 86.73 10.00 263.82 3004.80
   00:18:21.731.01-Feb-2020 3989.40 3215.25 86.73 10.00 264.02 3004.80
   00:18:21.931.01-Feb-2020 3989.40 3215.25 86.73 10.00 264.22 3004.80
   00:18:22.131.01-Feb-2020 3989.40 3215.25 86.73 10.00 264.42 3004.80
   00:18:22.331.01-Feb-2020 3989.40 3215.56 86.73 10.00 264.62 3004.80
   00:18:22.531.01-Feb-2020 3989.40 3215.81 86.73 10.00 264.82 3004.80
   00:18:22.731.01-Feb-2020 3989.40 3215.98 86.73 10.00 265.02 3004.80
   00:18:22.931.01-Feb-2020 3989.40 3215.98 86.73 10.00 265.22 3004.80
   00:18:23.131.01-Feb-2020 3989.40 3216.12 86.73 10.00 265.42 3004.80
   00:18:23.331.01-Feb-2020 3989.40 3216.24 86.72 10.00 265.62 3004.80
   00:18:23.531.01-Feb-2020 3989.40 3216.43 86.72 10.00 265.82 3004.80
   00:18:23.731.01-Feb-2020 3989.40 3216.60 86.72 10.00 266.02 3004.80
   00:18:23.931.01-Feb-2020 3989.40 3216.60 86.72 10.00 266.22 3004.80
   00:18:24.131.01-Feb-2020 3989.40 3216.84 86.72 10.00 266.42 3004.80
   00:18:24.331.01-Feb-2020 3989.40 3216.88 86.72 10.00 266.62 3004.80
   00:18:24.531.01-Feb-2020 3989.40 3216.91 86.72 10.00 266.82 3004.80
   00:18:24.731.01-Feb-2020 3989.40 3217.05 86.72 10.00 267.02 3004.80
   00:18:24.931.01-Feb-2020 3989.40 3217.05 86.72 10.00 267.22 3004.80
   00:18:25.131.01-Feb-2020 3989.40 3217.21 86.72 10.00 267.42 3004.80
   00:18:25.331.01-Feb-2020 3989.40 3217.36 86.72 10.00 267.62 3004.80
   00:18:25.531.01-Feb-2020 3989.40 3217.31 86.72 10.00 267.82 3004.80
   00:18:25.731.01-Feb-2020 3989.40 3217.52 86.72 10.00 268.02 3004.80
   00:18:25.931.01-Feb-2020 3989.40 3217.52 86.72 10.00 268.22 3004.80
   00:18:26.131.01-Feb-2020 3989.40 3217.61 86.72 10.00 268.42 3004.80
   00:18:26.332.01-Feb-2020 3989.40 3217.77 86.72 10.00 268.62 3004.80
   00:18:26.532.01-Feb-2020 3989.40 3217.71 86.72 10.00 268.82 3004.80
   00:18:26.732.01-Feb-2020 3989.40 3217.67 86.72 10.00 269.02 3004.80
   00:18:26.932.01-Feb-2020 3989.40 3217.67 86.72 10.00 269.22 3004.80
   00:18:27.132.01-Feb-2020 3989.40 3217.94 86.72 10.00 269.42 3004.80
   00:18:27.332.01-Feb-2020 3989.40 3218.11 86.71 10.00 269.62 3004.80
   00:18:27.532.01-Feb-2020 3989.40 3218.29 86.71 10.00 269.82 3004.80
   00:18:27.732.01-Feb-2020 3989.40 3218.27 86.71 10.00 270.02 3004.80
   00:18:27.932.01-Feb-2020 3989.40 3218.27 86.71 10.00 270.22 3004.80
   00:18:28.132.01-Feb-2020 3989.40 3218.47 86.71 10.00 270.42 3004.80
   00:18:28.332.01-Feb-2020 3989.40 3218.48 86.71 10.00 270.62 3004.80
   00:18:28.532.01-Feb-2020 3989.40 3218.65 86.71 10.00 270.82 3004.80
   00:18:28.732.01-Feb-2020 3989.40 3218.63 86.71 10.00 271.02 3004.80
