~Version Information
 VERS.                  2.0:   CWLS log ASCII Standard -VERSION 2.0
 WRAP.                   NO:   One line per depth step
~Well Information Block
#MNEM.UNIT     VALUE/NAME     DESCRIPTION
#---------     -----------    ---------------------------
 STRT.S             09:13:27 31-Jan-20: START TIME 09:13:27 31-Jan-20
 STOP.S             09:19:57 31-Jan-20: STOP TIME  09:19:57 31-Jan-20
 STEP.S                   0.00: STEP TIME
 NULL.                 -999.25: NULL VALUE
 DFWT.                        :  DIST FWL TEXT
 DFST.                        :  DIST FSL TEXT
 DMF .             Drill Floor:  DRILL MEAS FROM
 STIM.      09.30.00 26-Dec-19:  START TIME
 DATE.      08.00.00 20-Jan-20:  END TIME
 SPUD.               23-Nov-19:  SPUD DATE
 NREF.                    Grid:  NORTH REFERENCE
 HPTY.       Minimum Curvature:  HOLE POS TYPE
 DMOD.             Drill Model:  DRILL MOD DESC
 SVYD.                  Survey:  SURVEY DESC
 ILTD.               Lithology:  INTERP LTH DESC
 FTOP.          Formation Tops:  FORM TOPS DESC
 SON .        AZ-XX-0906192647:  JOB NUMBER
 WTYP.                Deviated:  WELL TYPE
 COMP.     BP Exploration (Caspian Sea) Ltd:  COMPANY
 BASE.              Azerbaijan:  LOGGING EQUIPMENT BASE LOCATION
 REGN.                 Eurasia:  REGION
 FLD .                     ACG:  FIELD NAME
 SRVC.              KCA Deutag:  CONTRACTOR
 MWDS.                    Baku:  MWD SHOP
 WELL.     A10 (Slot 20) - SCP:  WELL NAME
 JOBN.        AZ-XX-0906192647:  JOB TICKET NUMB
 RIG .                 Chirag1:  RIG NAME
 DCON.     Halliburton Sperry Drilling:  DIRECTNL CONTR
 UNIT.                     N/A:  LOGGING EQUIPMENT ID
 PDAT.          Mean Sea Level:  PERMANENT DATUM
 MDS .        Operator Entered:  MAG DATA SOURCE
 CTRY.              Azerbaijan:  COUNTRY NAME
 UWI .            /AZE00000090:  UNIQUE WELL IDENTIFIER
 API .            /AZE00000090:  API NUMBER
 CNTY.                        :  COUNTY
 PROV.                        :  PROVINCE
 STAT.                        :  STATE
 LOC .                        :  LOCATION
 LMF .             Drill Floor:  LOG MEASURED FROM
 TVDS.m                  36.60:  TVDSS CORRECTN
 LATI.deg                40.08:  LATITUDE
 LONG.deg                51.24:  LONGITUDE
 WHNS.m                  -7.94:  WELL HEAD N/S
 WHEW.m                   1.56:  WELL HEAD E/W
 UTMX.m              520429.26:  UTM X
 UTMY.m             4438973.87:  UTM Y
 DFWL.m                   0.00:  DISTANCE FWL
 DFSL.m                   0.00:  DISTANCE FSL
 SDEP.m                1455.00:  START DEPTH
 TDD .m                4047.51:  TOTAL DEPTH (DRILLER)
 VSDR.deg               112.75:  VERT SEC DIRECT
 GVFD.g                   1.00:  GRAVITY FIELD
 MFLD.nT              50261.00:  MAGNETIC FIELD
 MDIP.deg                59.52:  MAGNETIC DIP
 MDEC.deg                 6.42:  MAGNETIC DECL
 GRDC.deg                 0.17:  GRID CORRECTION
 AZTC.deg                 6.25:  AZM TOTAL CORR
 EPD .m                   0.00:  ELEVATION
 EGL .m                   0.00:  GROUND ELEVATION
 WDMS.m                 121.00:  WD ELEV
 APD .m                  36.60:  DEPTH ABOVE PD
 AGAP.m                  36.60:  AIR GAP
 VSEW.m                   1.56:  VERT SEC E/W
 VSNS.m                  -7.94:  VERT SEC N/S
 DEP .m                1140.01:  DEPTH
 EKB .m                  36.60:  KB ELEVATION
 EDF .m                  36.60:  DF ELEVATION
 TDL .m                 169.50:  TOTAL DEPTH (LOGGER)
 CSGD.m                3875.01:  CASING BOTTOM (DRILLER)
 CSGL.m                3875.01:  CASING BOTTOM (LOGGER)
 CSGS.in                  7.63:  CASING SIZE
 CSGW.lbpf               23.50:  CASING WEIGHT
 VSC .                       0:  VS TO CLOSURE
 MAGU.                 1849206:  MAGUTM CHECKSUM
~Parameter Information Block
#MNEM.UNIT       Value        Description
#---------     -----------    ---------------------------
 AV  .mps                 1.90:  Ann Velocity 
 AVMX.mps                 2.54:  Max Ann Veloc 
 AZIF.deg               137.03:  Azm, Final 
 BHAT.        Rotary Steerable:  BHA Type 
 BREV.rev             23610.00:  Rev Bit Total 
 BROT.°/30m               0.80:  Build Rotating 
 BS  .in                  6.50:  Bit Size 
 BTPL.psig              110.00:  Bit Press Loss 
 CABU.                     Yes:  Customer Abuse 
 COMM.                     ФЮѓ:  Run Comments 1 
 TCS .hr                 70.51:  Time Ciculation Ended 
 CV  .mps                 1.41:  Crit Velocity 
 CVMX.mps                 1.42:  Max Crit Veloc 
 DD1 .         Intigam Rahimov:  Direct Drillr 1 
 DD2 .          Rashad Gojayev:  Direct Drillr 2 
 DDSV.               Geo-Pilot:  DD Service 
 DEFF.%                 100.00:  % Det Eff 
 DLRX.°/30m               1.44:  Dogleg Rot Max 
 DLSO.°/30m               0.00:  Dogleg Oriented 
 DLSX.°/30m               0.00:  Dogleg Str Max 
 DRET.      03.05.00 01-Feb-20:  Drill End Time 
 DRST.      15.50.00 28-Jan-20:  Drill Start Tim 
 DTIM.hr                 24.70:  Time Drilling 
 EDEP.m                4047.51:  End Depth 
 ENG1.           Eldar Hajiyev:  Engineer 1 
 ENG2.          Rasim Hashimov:  Engineer 2 
 ENG3.          Rustam Safarov:  Engineer 3 
 ETIM.      22.00.00 01-Feb-20:  End Time 
 FLOI.gpm               370.00:  Flow In 
 FLON.gpm               300.00:  Flow In Min 
 FLOS.cptm                0.00:  Fluid Loss 
 FLOX.gpm               400.00:  Flow In Max 
 FTRO.       Formation Presure:  FTWD Run Obj 
 HFLO.                      No:  High Flow 
 HPRE.                      No:  High Pressure 
 HTEM.                      No:  High Temp 
 HYDO.m                   2.50:  Hydro Offset 
 IFIN.deg                39.54:  Inc, Final 
 IMAX.deg                41.14:  Inc Max 
 IMIN.deg                39.81:  Inc Min 
 IMND.m                4005.21:  Inc Min Depth 
 IMXD.m                3948.42:  Inc Max Depth 
 JARR.                      No:  Jarring 
 LETM.      03.05.00 01-Feb-20:  Log End Time 
 LOST.hr                     0:  Lost Rig Time 
 LSTM.      15.50.00 28-Jan-20:  Log Start Time 
 MDCL.ppm             37500.00:  Mud Chlorides 
 MDES.     Inversion Oil/Synthetic:  Mud Desc 
 DFD .sg                  1.32:  Mud Density 
 MDMN.sg                  1.32:  Dens Mud Min 
 MDMX.sg                  1.32:  Dens Mud Max 
 MOIL.                      55:  Run Mud Oil % 
 MOWR.                   70:30:  Run Mud OWR 
 MSND.                       0:  Run Mud Sand % 
 MSOL.                      17:  Run Mud Solids% 
 DFV .spqt               80.00:  Mud Viscosity 
 MWOD.in                  4.75:  MWD Tool OD 
 MWSI.                      No:  Serv Intrp, MWD 
 OTIM.hr                121.28:  Time Operating 
 PCON.           Look Like New:  Pad Condition 
 PMAX.psia             6171.00:  Press Op, Max 
 PV  .cP                 30.00:  Mud PV 
 RUN .                     300:  Run Number 
 ROPA.m/hr                5.45:  ROP Avg 
 ROPN.m/hr                3.00:  ROP Min 
 ROPX.m/hr               15.00:  ROP Max 
 RPMA.rpm               130.00:  RPM Surface Avg 
 RPMN.rpm                80.00:  RPM Surface Min 
 RPMX.rpm               140.00:  RPM Surface Max 
 RRUN.                     300:  Rig Run Number 
 RTIM.hr                 13.50:  Time Reaming 
 SAZI.deg               133.93:  Azm, Start 
 SDEP.m                3878.01:  Start Depth 
 SIDD.                      No:  Serv Intrp, DD 
 SINC.deg                40.28:  Inc, Start 
 SPPA.psig             4983.00:  SPP Avg 
 SPPN.psig             4370.00:  SPP Min 
 SPPX.psig             5300.00:  SPP Max 
 STIM.      18.33.36 27-Jan-20:  Start Time 
 SVCS.                 DD, MWD:  Services 
 SVER.                    9.20:  Sperry Version 
 TDAT.m                 169.50:  Tot Depth Attmp 
 TDDF.                      No:  Trip for DD 
 TDLG.m                 169.50:  Tot Depth Loggd 
 TFF .                      No:  Trip for Fail 
 TQAA.f-kp               13.25:  Torque Abs Avg 
 TQAN.f-kp               12.00:  Torque Abs Min 
 TQAX.f-kp               14.00:  Torque Abs Max 
 TRRT.°/30m               0.70:  Turn Rotating 
 MRT .                     ADR:  Maximum Recorded Temperature 
 TTMX.degC               92.16:  Max Tool Temp 
 VS01.       AZ90598764G12V7D4:  Virtual Str1 SN 
 VS02.         AZ90571342R12C4:  Virtual Str2 SN 
 VS03.      AZ90580010N2L2X1C4:  Virtual Str3 SN 
 VS04.        AZ90522266O7X1C4:  Virtual Str4 SN 
 VS05.           AZ90598768F11:  Virtual Str5 SN 
 VS06.     AZ90580006XZ1W1X1C4:  Virtual Str6 SN 
 WBMN.klb                 8.00:  WOB Min 
 WITN.            Peter Wilson:  Customer Rep 
 WOBA.klb                 9.88:  WOB Avg 
 WOBX.klb                10.00:  WOB Max 
 YP  .lhf2               27.00:  Yield Point 
~Curve Information Block
#MNEM.UNIT                 API CODE     Curve Description
#---------               -----------    ---------------------------
 TIME.HHMMSS            00 000 000 000:  GT Time & Date
 GTDEPTH.m              00 000 000 000:  GT Depth
 GTPQH.psia             00 000 000 000:  GT HR Quartz Pressure
 GTTQ.degC              00 000 000 000:  GT Quartz Temperature
 GTTN.NONE              00 000 000 000:  GT Test Number
 GTET.sec               00 000 000 000:  GT Elapsed Test Time
 GTTVD.m                00 000 000 000:  GT True Vertical Depth
#Other Information
#
#WARRANTY: Halliburton will use its best efforts to furnish customers with 
#accurate information and interpretations that are part of, and incident to, the services 
#provided.  However, Halliburton cannot and does not warrant the accuracy 
#or correctness of such information and interpretations.  Under no circumstances should any 
#such information or interpretation be relied upon as the sole basis for any drilling, 
#completion, production, or financial decision or any procedure involving any risk to the 
#safety of any drilling venture, drilling rig or its crew or any other third party.  The 
#Customer has full responsibility for all drilling, completion and production operation.  
#Halliburton makes no representations or warranties, either expressed or 
#implied, including, but not limited to, the implied warranties of merchantability or fitness 
#for a particular purpose, with respect to the services rendered.  In no event will 
#Halliburton be liable for failure to obtain any particular results or for 
#any damages, including, but not limited to, indirect, special or consequential damages, 
#resulting from the use of any information or interpretation provided by Halliburton.
#
~A           TIME           GTDEPTH  GTPQH  GTTQ  GTTN  GTET   GTTVD  
# ...
   09:15:45.926.31-Jan-2020 3923.01 2970.78 80.55 5.00 138.03 2954.62
   09:15:46.126.31-Jan-2020 3923.01 2970.78 80.55 5.00 138.23 2954.62
   09:15:46.327.31-Jan-2020 3923.01 2971.51 80.55 5.00 138.43 2954.62
   09:15:46.527.31-Jan-2020 3923.01 2971.27 80.54 5.00 138.63 2954.62
   09:15:46.727.31-Jan-2020 3923.01 2971.07 80.54 5.00 138.83 2954.62
   09:15:46.927.31-Jan-2020 3923.01 2970.88 80.54 5.00 139.03 2954.62
   09:15:47.127.31-Jan-2020 3923.01 2970.88 80.54 5.00 139.23 2954.62
   09:15:47.327.31-Jan-2020 3923.01 2971.21 80.54 5.00 139.43 2954.62
   09:15:47.527.31-Jan-2020 3923.01 2971.17 80.54 5.00 139.63 2954.62
   09:15:47.727.31-Jan-2020 3923.01 2971.19 80.54 5.00 139.83 2954.62
   09:15:47.927.31-Jan-2020 3923.01 2971.08 80.54 5.00 140.03 2954.62
   09:15:48.127.31-Jan-2020 3923.01 2971.08 80.54 5.00 140.23 2954.62
   09:15:48.327.31-Jan-2020 3923.01 2970.68 80.54 5.00 140.43 2954.62
   09:15:48.527.31-Jan-2020 3923.01 2971.35 80.54 5.00 140.63 2954.62
   09:15:48.727.31-Jan-2020 3923.01 2971.16 80.54 5.00 140.83 2954.62
   09:15:48.927.31-Jan-2020 3923.01 2971.30 80.54 5.00 141.03 2954.62
   09:15:49.127.31-Jan-2020 3923.01 2971.30 80.54 5.00 141.23 2954.62
   09:15:49.327.31-Jan-2020 3923.01 2971.04 80.54 5.00 141.43 2954.62
   09:15:49.527.31-Jan-2020 3923.01 2970.89 80.54 5.00 141.63 2954.62
   09:15:49.727.31-Jan-2020 3923.01 2971.54 80.53 5.00 141.83 2954.62
   09:15:49.927.31-Jan-2020 3923.01 2971.21 80.53 5.00 142.03 2954.62
   09:15:50.127.31-Jan-2020 3923.01 2971.21 80.53 5.00 142.23 2954.62
   09:15:50.327.31-Jan-2020 3923.01 2973.42 80.53 5.00 142.43 2954.62
   09:15:50.528.31-Jan-2020 3923.01 2971.10 80.53 5.00 142.63 2954.62
   09:15:50.728.31-Jan-2020 3923.01 2970.89 80.53 5.00 142.83 2954.62
   09:15:50.928.31-Jan-2020 3923.01 2974.50 80.53 5.00 143.03 2954.62
   09:15:51.128.31-Jan-2020 3923.01 2974.50 80.53 5.00 143.23 2954.62
   09:15:51.328.31-Jan-2020 3923.01 2997.48 80.53 5.00 143.43 2954.62
   09:15:51.528.31-Jan-2020 3923.01 2997.53 80.53 5.00 143.63 2954.62
   09:15:51.728.31-Jan-2020 3923.01 2997.56 80.53 5.00 143.83 2954.62
   09:15:51.928.31-Jan-2020 3923.01 2997.58 80.53 5.00 144.03 2954.62
   09:15:52.128.31-Jan-2020 3923.01 2997.58 80.53 5.00 144.23 2954.62
   09:15:52.328.31-Jan-2020 3923.01 2997.66 80.53 5.00 144.43 2954.62
   09:15:52.528.31-Jan-2020 3923.01 2997.69 80.53 5.00 144.63 2954.62
   09:15:52.728.31-Jan-2020 3923.01 2997.69 80.53 5.00 144.83 2954.62
   09:15:52.928.31-Jan-2020 3923.01 2997.70 80.53 5.00 145.03 2954.62
   09:15:53.128.31-Jan-2020 3923.01 2997.70 80.53 5.00 145.23 2954.62
   09:15:53.328.31-Jan-2020 3923.01 2997.70 80.52 5.00 145.43 2954.62
   09:15:53.528.31-Jan-2020 3923.01 2997.74 80.52 5.00 145.63 2954.62
   09:15:53.728.31-Jan-2020 3923.01 2997.77 80.52 5.00 145.83 2954.62
   09:15:53.928.31-Jan-2020 3923.01 2997.76 80.52 5.00 146.03 2954.62
   09:15:54.128.31-Jan-2020 3923.01 2997.76 80.52 5.00 146.23 2954.62
   09:15:54.328.31-Jan-2020 3923.01 2997.77 80.52 5.00 146.43 2954.62
   09:15:54.528.31-Jan-2020 3923.01 2997.66 80.52 5.00 146.63 2954.62
   09:15:54.728.31-Jan-2020 3923.01 2997.89 80.52 5.00 146.83 2954.62
   09:15:54.929.31-Jan-2020 3923.01 2997.85 80.52 5.00 147.03 2954.62
   09:15:55.129.31-Jan-2020 3923.01 2997.85 80.52 5.00 147.23 2954.62
   09:15:55.329.31-Jan-2020 3923.01 2997.82 80.52 5.00 147.43 2954.62
   09:15:55.529.31-Jan-2020 3923.01 2997.82 80.52 5.00 147.63 2954.62
   09:15:55.729.31-Jan-2020 3923.01 2997.82 80.52 5.00 147.83 2954.62
   09:15:55.929.31-Jan-2020 3923.01 2997.81 80.52 5.00 148.03 2954.62
   09:15:56.129.31-Jan-2020 3923.01 2997.81 80.52 5.00 148.23 2954.62
   09:15:56.329.31-Jan-2020 3923.01 2997.82 80.52 5.00 148.43 2954.62
   09:15:56.529.31-Jan-2020 3923.01 2997.82 80.52 5.00 148.63 2954.62
   09:15:56.729.31-Jan-2020 3923.01 2997.82 80.51 5.00 148.83 2954.62
   09:15:56.929.31-Jan-2020 3923.01 2997.80 80.51 5.00 149.03 2954.62
   09:15:57.129.31-Jan-2020 3923.01 2997.80 80.51 5.00 149.23 2954.62
   09:15:57.329.31-Jan-2020 3923.01 2997.82 80.51 5.00 149.44 2954.62
   09:15:57.529.31-Jan-2020 3923.01 2997.84 80.51 5.00 149.64 2954.62
   09:15:57.729.31-Jan-2020 3923.01 2997.74 80.51 5.00 149.84 2954.62
   09:15:57.929.31-Jan-2020 3923.01 2997.88 80.51 5.00 150.04 2954.62
   09:15:58.129.31-Jan-2020 3923.01 2997.88 80.51 5.00 150.24 2954.62
   09:15:58.329.31-Jan-2020 3923.01 2997.86 80.51 5.00 150.44 2954.62
   09:15:58.529.31-Jan-2020 3923.01 2997.85 80.51 5.00 150.64 2954.62
   09:15:58.729.31-Jan-2020 3923.01 2997.75 80.51 5.00 150.84 2954.62
   09:15:58.929.31-Jan-2020 3923.01 2997.92 80.51 5.00 151.04 2954.62
   09:15:59.130.31-Jan-2020 3923.01 2997.92 80.51 5.00 151.24 2954.62
   09:15:59.330.31-Jan-2020 3923.01 2997.89 80.51 5.00 151.44 2954.62
   09:15:59.530.31-Jan-2020 3923.01 2997.87 80.51 5.00 151.64 2954.62
   09:15:59.730.31-Jan-2020 3923.01 2997.85 80.51 5.00 151.84 2954.62
   09:15:59.930.31-Jan-2020 3923.01 2997.86 80.51 5.00 152.04 2954.62
   09:16:00.130.31-Jan-2020 3923.01 2997.86 80.51 5.00 152.24 2954.62
   09:16:00.330.31-Jan-2020 3923.01 2997.95 80.50 5.00 152.44 2954.62
   09:16:00.530.31-Jan-2020 3923.01 2997.89 80.50 5.00 152.64 2954.62
   09:16:00.730.31-Jan-2020 3923.01 2997.89 80.50 5.00 152.84 2954.62
   09:16:00.930.31-Jan-2020 3923.01 2997.87 80.50 5.00 153.04 2954.62
   09:16:01.130.31-Jan-2020 3923.01 2997.87 80.50 5.00 153.24 2954.62
   09:16:01.330.31-Jan-2020 3923.01 2997.92 80.50 5.00 153.44 2954.62
   09:16:01.530.31-Jan-2020 3923.01 2997.88 80.50 5.00 153.64 2954.62
   09:16:01.730.31-Jan-2020 3923.01 2997.90 80.50 5.00 153.84 2954.62
   09:16:01.930.31-Jan-2020 3923.01 2997.87 80.50 5.00 154.04 2954.62
   09:16:02.130.31-Jan-2020 3923.01 2997.87 80.50 5.00 154.24 2954.62
   09:16:02.330.31-Jan-2020 3923.01 2997.95 80.50 5.00 154.44 2954.62
   09:16:02.530.31-Jan-2020 3923.01 2997.90 80.50 5.00 154.64 2954.62
   09:16:02.730.31-Jan-2020 3923.01 2997.89 80.50 5.00 154.84 2954.62
   09:16:02.930.31-Jan-2020 3923.01 2997.88 80.50 5.00 155.04 2954.62
   09:16:03.130.31-Jan-2020 3923.01 2997.88 80.50 5.00 155.24 2954.62
   09:16:03.330.31-Jan-2020 3923.01 2997.86 80.50 5.00 155.44 2954.62
   09:16:03.531.31-Jan-2020 3923.01 2997.86 80.50 5.00 155.64 2954.62
   09:16:03.731.31-Jan-2020 3923.01 2997.84 80.50 5.00 155.84 2954.62
   09:16:03.931.31-Jan-2020 3923.01 2997.85 80.49 5.00 156.04 2954.62
   09:16:04.131.31-Jan-2020 3923.01 2997.85 80.49 5.00 156.24 2954.62
   09:16:04.331.31-Jan-2020 3923.01 2997.84 80.49 5.00 156.44 2954.62
   09:16:04.531.31-Jan-2020 3923.01 2997.84 80.49 5.00 156.64 2954.62
   09:16:04.731.31-Jan-2020 3923.01 2997.82 80.49 5.00 156.84 2954.62
   09:16:04.931.31-Jan-2020 3923.01 2997.84 80.49 5.00 157.04 2954.62
   09:16:05.131.31-Jan-2020 3923.01 2997.84 80.49 5.00 157.24 2954.62
   09:16:05.331.31-Jan-2020 3923.01 2997.83 80.49 5.00 157.44 2954.62
   09:16:05.531.31-Jan-2020 3923.01 2997.83 80.49 5.00 157.64 2954.62
   09:16:05.731.31-Jan-2020 3923.01 2997.81 80.49 5.00 157.84 2954.62
   09:16:05.931.31-Jan-2020 3923.01 2997.77 80.49 5.00 158.04 2954.62
   09:16:06.131.31-Jan-2020 3923.01 2997.77 80.49 5.00 158.24 2954.62
   09:16:06.331.31-Jan-2020 3923.01 2997.86 80.49 5.00 158.44 2954.62
   09:16:06.531.31-Jan-2020 3923.01 2997.87 80.49 5.00 158.64 2954.62
   09:16:06.731.31-Jan-2020 3923.01 2997.84 80.49 5.00 158.84 2954.62
   09:16:06.931.31-Jan-2020 3923.01 2997.86 80.49 5.00 159.04 2954.62
   09:16:07.131.31-Jan-2020 3923.01 2997.86 80.49 5.00 159.24 2954.62
   09:16:07.331.31-Jan-2020 3923.01 2997.83 80.49 5.00 159.44 2954.62
   09:16:07.531.31-Jan-2020 3923.01 2997.83 80.48 5.00 159.64 2954.62
   09:16:07.732.31-Jan-2020 3923.01 2997.82 80.48 5.00 159.84 2954.62
   09:16:07.932.31-Jan-2020 3923.01 2997.84 80.48 5.00 160.04 2954.62
   09:16:08.132.31-Jan-2020 3923.01 2997.84 80.48 5.00 160.24 2954.62
   09:16:08.332.31-Jan-2020 3923.01 2997.82 80.48 5.00 160.44 2954.62
   09:16:08.532.31-Jan-2020 3923.01 2997.80 80.48 5.00 160.64 2954.62
   09:16:08.732.31-Jan-2020 3923.01 2997.83 80.48 5.00 160.84 2954.62
