~Version Information
 VERS.                  2.0:   CWLS log ASCII Standard -VERSION 2.0
 WRAP.                   NO:   One line per depth step
~Well Information Block
#MNEM.UNIT     VALUE/NAME     DESCRIPTION
#---------     -----------    ---------------------------
 STRT.S             01:40:55 31-Jan-20: START TIME 01:40:55 31-Jan-20
 STOP.S             01:47:23 31-Jan-20: STOP TIME  01:47:23 31-Jan-20
 STEP.S                   0.00: STEP TIME
 NULL.                 -999.25: NULL VALUE
 DFWT.                        :  DIST FWL TEXT
 DFST.                        :  DIST FSL TEXT
 DMF .             Drill Floor:  DRILL MEAS FROM
 STIM.      09.30.00 26-Dec-19:  START TIME
 DATE.      08.00.00 20-Jan-20:  END TIME
 SPUD.               23-Nov-19:  SPUD DATE
 NREF.                    Grid:  NORTH REFERENCE
 HPTY.       Minimum Curvature:  HOLE POS TYPE
 DMOD.             Drill Model:  DRILL MOD DESC
 SVYD.                  Survey:  SURVEY DESC
 ILTD.               Lithology:  INTERP LTH DESC
 FTOP.          Formation Tops:  FORM TOPS DESC
 SON .        AZ-XX-0906192647:  JOB NUMBER
 WTYP.                Deviated:  WELL TYPE
 COMP.     BP Exploration (Caspian Sea) Ltd:  COMPANY
 BASE.              Azerbaijan:  LOGGING EQUIPMENT BASE LOCATION
 REGN.                 Eurasia:  REGION
 FLD .                     ACG:  FIELD NAME
 SRVC.              KCA Deutag:  CONTRACTOR
 MWDS.                    Baku:  MWD SHOP
 WELL.     A10 (Slot 20) - SCP:  WELL NAME
 JOBN.        AZ-XX-0906192647:  JOB TICKET NUMB
 RIG .                 Chirag1:  RIG NAME
 DCON.     Halliburton Sperry Drilling:  DIRECTNL CONTR
 UNIT.                     N/A:  LOGGING EQUIPMENT ID
 PDAT.          Mean Sea Level:  PERMANENT DATUM
 MDS .        Operator Entered:  MAG DATA SOURCE
 CTRY.              Azerbaijan:  COUNTRY NAME
 UWI .            /AZE00000090:  UNIQUE WELL IDENTIFIER
 API .            /AZE00000090:  API NUMBER
 CNTY.                        :  COUNTY
 PROV.                        :  PROVINCE
 STAT.                        :  STATE
 LOC .                        :  LOCATION
 LMF .             Drill Floor:  LOG MEASURED FROM
 TVDS.m                  36.60:  TVDSS CORRECTN
 LATI.deg                40.08:  LATITUDE
 LONG.deg                51.24:  LONGITUDE
 WHNS.m                  -7.94:  WELL HEAD N/S
 WHEW.m                   1.56:  WELL HEAD E/W
 UTMX.m              520429.26:  UTM X
 UTMY.m             4438973.87:  UTM Y
 DFWL.m                   0.00:  DISTANCE FWL
 DFSL.m                   0.00:  DISTANCE FSL
 SDEP.m                1455.00:  START DEPTH
 TDD .m                4047.51:  TOTAL DEPTH (DRILLER)
 VSDR.deg               112.75:  VERT SEC DIRECT
 GVFD.g                   1.00:  GRAVITY FIELD
 MFLD.nT              50261.00:  MAGNETIC FIELD
 MDIP.deg                59.52:  MAGNETIC DIP
 MDEC.deg                 6.42:  MAGNETIC DECL
 GRDC.deg                 0.17:  GRID CORRECTION
 AZTC.deg                 6.25:  AZM TOTAL CORR
 EPD .m                   0.00:  ELEVATION
 EGL .m                   0.00:  GROUND ELEVATION
 WDMS.m                 121.00:  WD ELEV
 APD .m                  36.60:  DEPTH ABOVE PD
 AGAP.m                  36.60:  AIR GAP
 VSEW.m                   1.56:  VERT SEC E/W
 VSNS.m                  -7.94:  VERT SEC N/S
 DEP .m                1140.01:  DEPTH
 EKB .m                  36.60:  KB ELEVATION
 EDF .m                  36.60:  DF ELEVATION
 TDL .m                 169.50:  TOTAL DEPTH (LOGGER)
 CSGD.m                3875.01:  CASING BOTTOM (DRILLER)
 CSGL.m                3875.01:  CASING BOTTOM (LOGGER)
 CSGS.in                  7.63:  CASING SIZE
 CSGW.lbpf               23.50:  CASING WEIGHT
 VSC .                       0:  VS TO CLOSURE
 MAGU.                 1849206:  MAGUTM CHECKSUM
~Parameter Information Block
#MNEM.UNIT       Value        Description
#---------     -----------    ---------------------------
 AV  .mps                 1.90:  Ann Velocity 
 AVMX.mps                 2.54:  Max Ann Veloc 
 AZIF.deg               137.03:  Azm, Final 
 BHAT.        Rotary Steerable:  BHA Type 
 BREV.rev             23610.00:  Rev Bit Total 
 BROT.°/30m               0.80:  Build Rotating 
 BS  .in                  6.50:  Bit Size 
 BTPL.psig              110.00:  Bit Press Loss 
 CABU.                     Yes:  Customer Abuse 
 COMM.                     šn:  Run Comments 1 
 TCS .hr                 70.51:  Time Ciculation Ended 
 CV  .mps                 1.41:  Crit Velocity 
 CVMX.mps                 1.42:  Max Crit Veloc 
 DD1 .         Intigam Rahimov:  Direct Drillr 1 
 DD2 .          Rashad Gojayev:  Direct Drillr 2 
 DDSV.               Geo-Pilot:  DD Service 
 DEFF.%                 100.00:  % Det Eff 
 DLRX.°/30m               1.44:  Dogleg Rot Max 
 DLSO.°/30m               0.00:  Dogleg Oriented 
 DLSX.°/30m               0.00:  Dogleg Str Max 
 DRET.      03.05.00 01-Feb-20:  Drill End Time 
 DRST.      15.50.00 28-Jan-20:  Drill Start Tim 
 DTIM.hr                 24.70:  Time Drilling 
 EDEP.m                4047.51:  End Depth 
 ENG1.           Eldar Hajiyev:  Engineer 1 
 ENG2.          Rasim Hashimov:  Engineer 2 
 ENG3.          Rustam Safarov:  Engineer 3 
 ETIM.      22.00.00 01-Feb-20:  End Time 
 FLOI.gpm               370.00:  Flow In 
 FLON.gpm               300.00:  Flow In Min 
 FLOS.cptm                0.00:  Fluid Loss 
 FLOX.gpm               400.00:  Flow In Max 
 FTRO.       Formation Presure:  FTWD Run Obj 
 HFLO.                      No:  High Flow 
 HPRE.                      No:  High Pressure 
 HTEM.                      No:  High Temp 
 HYDO.m                   2.50:  Hydro Offset 
 IFIN.deg                39.54:  Inc, Final 
 IMAX.deg                41.14:  Inc Max 
 IMIN.deg                39.81:  Inc Min 
 IMND.m                4005.21:  Inc Min Depth 
 IMXD.m                3948.42:  Inc Max Depth 
 JARR.                      No:  Jarring 
 LETM.      03.05.00 01-Feb-20:  Log End Time 
 LOST.hr                     0:  Lost Rig Time 
 LSTM.      15.50.00 28-Jan-20:  Log Start Time 
 MDCL.ppm             37500.00:  Mud Chlorides 
 MDES.     Inversion Oil/Synthetic:  Mud Desc 
 DFD .sg                  1.32:  Mud Density 
 MDMN.sg                  1.32:  Dens Mud Min 
 MDMX.sg                  1.32:  Dens Mud Max 
 MOIL.                      55:  Run Mud Oil % 
 MOWR.                   70:30:  Run Mud OWR 
 MSND.                       0:  Run Mud Sand % 
 MSOL.                      17:  Run Mud Solids% 
 DFV .spqt               80.00:  Mud Viscosity 
 MWOD.in                  4.75:  MWD Tool OD 
 MWSI.                      No:  Serv Intrp, MWD 
 OTIM.hr                121.28:  Time Operating 
 PCON.           Look Like New:  Pad Condition 
 PMAX.psia             6171.00:  Press Op, Max 
 PV  .cP                 30.00:  Mud PV 
 RUN .                     300:  Run Number 
 ROPA.m/hr                5.45:  ROP Avg 
 ROPN.m/hr                3.00:  ROP Min 
 ROPX.m/hr               15.00:  ROP Max 
 RPMA.rpm               130.00:  RPM Surface Avg 
 RPMN.rpm                80.00:  RPM Surface Min 
 RPMX.rpm               140.00:  RPM Surface Max 
 RRUN.                     300:  Rig Run Number 
 RTIM.hr                 13.50:  Time Reaming 
 SAZI.deg               133.93:  Azm, Start 
 SDEP.m                3878.01:  Start Depth 
 SIDD.                      No:  Serv Intrp, DD 
 SINC.deg                40.28:  Inc, Start 
 SPPA.psig             4983.00:  SPP Avg 
 SPPN.psig             4370.00:  SPP Min 
 SPPX.psig             5300.00:  SPP Max 
 STIM.      18.33.36 27-Jan-20:  Start Time 
 SVCS.                 DD, MWD:  Services 
 SVER.                    9.20:  Sperry Version 
 TDAT.m                 169.50:  Tot Depth Attmp 
 TDDF.                      No:  Trip for DD 
 TDLG.m                 169.50:  Tot Depth Loggd 
 TFF .                      No:  Trip for Fail 
 TQAA.f-kp               13.25:  Torque Abs Avg 
 TQAN.f-kp               12.00:  Torque Abs Min 
 TQAX.f-kp               14.00:  Torque Abs Max 
 TRRT.°/30m               0.70:  Turn Rotating 
 MRT .                     ADR:  Maximum Recorded Temperature 
 TTMX.degC               92.16:  Max Tool Temp 
 VS01.       AZ90598764G12V7D4:  Virtual Str1 SN 
 VS02.         AZ90571342R12C4:  Virtual Str2 SN 
 VS03.      AZ90580010N2L2X1C4:  Virtual Str3 SN 
 VS04.        AZ90522266O7X1C4:  Virtual Str4 SN 
 VS05.           AZ90598768F11:  Virtual Str5 SN 
 VS06.     AZ90580006XZ1W1X1C4:  Virtual Str6 SN 
 WBMN.klb                 8.00:  WOB Min 
 WITN.            Peter Wilson:  Customer Rep 
 WOBA.klb                 9.88:  WOB Avg 
 WOBX.klb                10.00:  WOB Max 
 YP  .lhf2               27.00:  Yield Point 
~Curve Information Block
#MNEM.UNIT                 API CODE     Curve Description
#---------               -----------    ---------------------------
 TIME.HHMMSS            00 000 000 000:  GT Time & Date
 GTDEPTH.m              00 000 000 000:  GT Depth
 GTPQH.psia             00 000 000 000:  GT HR Quartz Pressure
 GTTQ.degC              00 000 000 000:  GT Quartz Temperature
 GTTN.NONE              00 000 000 000:  GT Test Number
 GTET.sec               00 000 000 000:  GT Elapsed Test Time
 GTTVD.m                00 000 000 000:  GT True Vertical Depth
#Other Information
#
#WARRANTY: Halliburton will use its best efforts to furnish customers with 
#accurate information and interpretations that are part of, and incident to, the services 
#provided.  However, Halliburton cannot and does not warrant the accuracy 
#or correctness of such information and interpretations.  Under no circumstances should any 
#such information or interpretation be relied upon as the sole basis for any drilling, 
#completion, production, or financial decision or any procedure involving any risk to the 
#safety of any drilling venture, drilling rig or its crew or any other third party.  The 
#Customer has full responsibility for all drilling, completion and production operation.  
#Halliburton makes no representations or warranties, either expressed or 
#implied, including, but not limited to, the implied warranties of merchantability or fitness 
#for a particular purpose, with respect to the services rendered.  In no event will 
#Halliburton be liable for failure to obtain any particular results or for 
#any damages, including, but not limited to, indirect, special or consequential damages, 
#resulting from the use of any information or interpretation provided by Halliburton.
#
~A           TIME           GTDEPTH  GTPQH  GTTQ  GTTN  GTET   GTTVD  
# ...
   01:42:04.076.31-Jan-2020 3902.01 2985.02 76.55 3.00  69.01 2938.77
   01:42:04.276.31-Jan-2020 3902.01 2985.02 76.55 3.00  69.21 2938.77
   01:42:04.476.31-Jan-2020 3902.01 2985.06 76.55 3.00  69.41 2938.77
   01:42:04.676.31-Jan-2020 3902.01 2984.95 76.55 3.00  69.61 2938.77
   01:42:04.876.31-Jan-2020 3902.01 2984.92 76.55 3.00  69.81 2938.77
   01:42:05.076.31-Jan-2020 3902.01 2985.09 76.55 3.00  70.01 2938.77
   01:42:05.276.31-Jan-2020 3902.01 2985.09 76.55 3.00  70.21 2938.77
   01:42:05.476.31-Jan-2020 3902.01 2985.04 76.55 3.00  70.41 2938.77
   01:42:05.676.31-Jan-2020 3902.01 2984.98 76.55 3.00  70.61 2938.77
   01:42:05.876.31-Jan-2020 3902.01 2985.05 76.55 3.00  70.81 2938.77
   01:42:06.076.31-Jan-2020 3902.01 2984.98 76.55 3.00  71.01 2938.77
   01:42:06.276.31-Jan-2020 3902.01 2984.98 76.55 3.00  71.21 2938.77
   01:42:06.476.31-Jan-2020 3902.01 2984.91 76.54 3.00  71.41 2938.77
   01:42:06.676.31-Jan-2020 3902.01 2985.03 76.54 3.00  71.61 2938.77
   01:42:06.876.31-Jan-2020 3902.01 2984.96 76.54 3.00  71.81 2938.77
   01:42:07.076.31-Jan-2020 3902.01 2984.93 76.54 3.00  72.01 2938.77
   01:42:07.276.31-Jan-2020 3902.01 2984.93 76.54 3.00  72.21 2938.77
   01:42:07.477.31-Jan-2020 3902.01 2984.91 76.54 3.00  72.41 2938.77
   01:42:07.677.31-Jan-2020 3902.01 2984.92 76.54 3.00  72.61 2938.77
   01:42:07.877.31-Jan-2020 3902.01 2984.95 76.54 3.00  72.81 2938.77
   01:42:08.077.31-Jan-2020 3902.01 2985.02 76.54 3.00  73.01 2938.77
   01:42:08.277.31-Jan-2020 3902.01 2985.02 76.54 3.00  73.21 2938.77
   01:42:08.477.31-Jan-2020 3902.01 2984.91 76.54 3.00  73.41 2938.77
   01:42:08.677.31-Jan-2020 3902.01 2984.94 76.54 3.00  73.61 2938.77
   01:42:08.877.31-Jan-2020 3902.01 2984.90 76.54 3.00  73.81 2938.77
   01:42:09.077.31-Jan-2020 3902.01 2984.78 76.54 3.00  74.01 2938.77
   01:42:09.277.31-Jan-2020 3902.01 2984.78 76.54 3.00  74.21 2938.77
   01:42:09.477.31-Jan-2020 3902.01 2984.98 76.53 3.00  74.41 2938.77
   01:42:09.677.31-Jan-2020 3902.01 2985.02 76.53 3.00  74.61 2938.77
   01:42:09.877.31-Jan-2020 3902.01 2985.01 76.53 3.00  74.81 2938.77
   01:42:10.077.31-Jan-2020 3902.01 2984.91 76.53 3.00  75.01 2938.77
   01:42:10.277.31-Jan-2020 3902.01 2984.91 76.53 3.00  75.21 2938.77
   01:42:10.477.31-Jan-2020 3902.01 2984.94 76.53 3.00  75.41 2938.77
   01:42:10.677.31-Jan-2020 3902.01 2984.95 76.53 3.00  75.61 2938.77
   01:42:10.877.31-Jan-2020 3902.01 2984.93 76.53 3.00  75.81 2938.77
   01:42:11.077.31-Jan-2020 3902.01 2984.96 76.53 3.00  76.01 2938.77
   01:42:11.277.31-Jan-2020 3902.01 2984.96 76.53 3.00  76.21 2938.77
   01:42:11.477.31-Jan-2020 3902.01 2984.96 76.53 3.00  76.41 2938.77
   01:42:11.677.31-Jan-2020 3902.01 2984.92 76.53 3.00  76.61 2938.77
   01:42:11.877.31-Jan-2020 3902.01 2985.05 76.52 3.00  76.81 2938.77
   01:42:12.077.31-Jan-2020 3902.01 2985.07 76.52 3.00  77.01 2938.77
   01:42:12.277.31-Jan-2020 3902.01 2985.07 76.52 3.00  77.21 2938.77
   01:42:12.477.31-Jan-2020 3902.01 2984.90 76.52 3.00  77.41 2938.77
   01:42:12.677.31-Jan-2020 3902.01 2984.93 76.52 3.00  77.61 2938.77
   01:42:12.877.31-Jan-2020 3902.01 2984.89 76.52 3.00  77.81 2938.77
   01:42:13.078.31-Jan-2020 3902.01 2985.09 76.52 3.00  78.01 2938.77
   01:42:13.278.31-Jan-2020 3902.01 2985.09 76.52 3.00  78.21 2938.77
   01:42:13.478.31-Jan-2020 3902.01 2984.97 76.52 3.00  78.41 2938.77
   01:42:13.678.31-Jan-2020 3902.01 2984.96 76.52 3.00  78.61 2938.77
   01:42:13.878.31-Jan-2020 3902.01 2984.94 76.52 3.00  78.81 2938.77
   01:42:14.078.31-Jan-2020 3902.01 2984.93 76.52 3.00  79.01 2938.77
   01:42:14.278.31-Jan-2020 3902.01 2984.93 76.52 3.00  79.21 2938.77
   01:42:14.478.31-Jan-2020 3902.01 2984.93 76.52 3.00  79.41 2938.77
   01:42:14.678.31-Jan-2020 3902.01 2984.68 76.51 3.00  79.61 2938.77
   01:42:14.878.31-Jan-2020 3902.01 2984.91 76.51 3.00  79.81 2938.77
   01:42:15.078.31-Jan-2020 3902.01 2985.08 76.51 3.00  80.01 2938.77
   01:42:15.278.31-Jan-2020 3902.01 2985.08 76.51 3.00  80.21 2938.77
   01:42:15.478.31-Jan-2020 3902.01 2984.96 76.51 3.00  80.41 2938.77
   01:42:15.678.31-Jan-2020 3902.01 2984.97 76.51 3.00  80.61 2938.77
   01:42:15.878.31-Jan-2020 3902.01 2984.97 76.51 3.00  80.81 2938.77
   01:42:16.078.31-Jan-2020 3902.01 2985.02 76.51 3.00  81.01 2938.77
   01:42:16.278.31-Jan-2020 3902.01 2985.02 76.51 3.00  81.21 2938.77
   01:42:16.478.31-Jan-2020 3902.01 2984.96 76.51 3.00  81.41 2938.77
   01:42:16.678.31-Jan-2020 3902.01 2984.93 76.51 3.00  81.61 2938.77
   01:42:16.878.31-Jan-2020 3902.01 2984.64 76.51 3.00  81.81 2938.77
   01:42:17.078.31-Jan-2020 3902.01 2984.97 76.51 3.00  82.01 2938.77
   01:42:17.278.31-Jan-2020 3902.01 2984.97 76.51 3.00  82.21 2938.77
   01:42:17.478.31-Jan-2020 3902.01 2984.97 76.51 3.00  82.41 2938.77
   01:42:17.678.31-Jan-2020 3902.01 2984.94 76.50 3.00  82.61 2938.77
   01:42:17.878.31-Jan-2020 3902.01 2984.92 76.50 3.00  82.82 2938.77
   01:42:18.078.31-Jan-2020 3902.01 2984.83 76.50 3.00  83.02 2938.77
   01:42:18.278.31-Jan-2020 3902.01 2984.83 76.50 3.00  83.22 2938.77
   01:42:18.478.31-Jan-2020 3902.01 2984.92 76.50 3.00  83.42 2938.77
   01:42:18.679.31-Jan-2020 3902.01 2984.88 76.50 3.00  83.62 2938.77
   01:42:18.879.31-Jan-2020 3902.01 2984.86 76.50 3.00  83.82 2938.77
   01:42:19.079.31-Jan-2020 3902.01 2984.85 76.50 3.00  84.02 2938.77
   01:42:19.279.31-Jan-2020 3902.01 2984.85 76.50 3.00  84.22 2938.77
   01:42:19.479.31-Jan-2020 3902.01 2984.84 76.50 3.00  84.42 2938.77
   01:42:19.679.31-Jan-2020 3902.01 2984.90 76.50 3.00  84.62 2938.77
   01:42:19.879.31-Jan-2020 3902.01 2984.97 76.50 3.00  84.82 2938.77
   01:42:20.079.31-Jan-2020 3902.01 2984.84 76.50 3.00  85.02 2938.77
   01:42:20.279.31-Jan-2020 3902.01 2984.84 76.50 3.00  85.22 2938.77
   01:42:20.479.31-Jan-2020 3902.01 2984.95 76.49 3.00  85.42 2938.77
   01:42:20.679.31-Jan-2020 3902.01 2984.53 76.49 3.00  85.62 2938.77
   01:42:20.879.31-Jan-2020 3902.01 2984.93 76.49 3.00  85.82 2938.77
   01:42:21.079.31-Jan-2020 3902.01 2985.02 76.49 3.00  86.02 2938.77
   01:42:21.279.31-Jan-2020 3902.01 2985.02 76.49 3.00  86.22 2938.77
   01:42:21.479.31-Jan-2020 3902.01 2985.11 76.49 3.00  86.42 2938.77
   01:42:21.679.31-Jan-2020 3902.01 2984.93 76.49 3.00  86.62 2938.77
   01:42:21.879.31-Jan-2020 3902.01 2984.93 76.49 3.00  86.82 2938.77
   01:42:22.079.31-Jan-2020 3902.01 2984.87 76.49 3.00  87.02 2938.77
   01:42:22.279.31-Jan-2020 3902.01 2984.87 76.49 3.00  87.22 2938.77
   01:42:22.479.31-Jan-2020 3902.01 2984.84 76.49 3.00  87.42 2938.77
   01:42:22.679.31-Jan-2020 3902.01 2984.88 76.49 3.00  87.62 2938.77
   01:42:22.879.31-Jan-2020 3902.01 2984.85 76.49 3.00  87.82 2938.77
   01:42:23.079.31-Jan-2020 3902.01 2984.90 76.49 3.00  88.02 2938.77
   01:42:23.279.31-Jan-2020 3902.01 2984.90 76.49 3.00  88.22 2938.77
   01:42:23.479.31-Jan-2020 3902.01 2984.81 76.49 3.00  88.42 2938.77
   01:42:23.679.31-Jan-2020 3902.01 2984.89 76.48 3.00  88.62 2938.77
   01:42:23.879.31-Jan-2020 3902.01 2984.57 76.48 3.00  88.82 2938.77
   01:42:24.080.31-Jan-2020 3902.01 2984.84 76.48 3.00  89.02 2938.77
   01:42:24.280.31-Jan-2020 3902.01 2984.84 76.48 3.00  89.22 2938.77
   01:42:24.480.31-Jan-2020 3902.01 2984.84 76.48 3.00  89.42 2938.77
   01:42:24.680.31-Jan-2020 3902.01 2984.88 76.48 3.00  89.62 2938.77
   01:42:24.880.31-Jan-2020 3902.01 2984.58 76.48 3.00  89.82 2938.77
   01:42:25.080.31-Jan-2020 3902.01 2984.94 76.48 3.00  90.02 2938.77
   01:42:25.280.31-Jan-2020 3902.01 2984.94 76.48 3.00  90.22 2938.77
   01:42:25.480.31-Jan-2020 3902.01 2984.85 76.48 3.00  90.42 2938.77
   01:42:25.680.31-Jan-2020 3902.01 2984.84 76.48 3.00  90.62 2938.77
   01:42:25.880.31-Jan-2020 3902.01 2984.84 76.48 3.00  90.82 2938.77
   01:42:26.080.31-Jan-2020 3902.01 2984.82 76.48 3.00  91.02 2938.77
   01:42:26.280.31-Jan-2020 3902.01 2984.82 76.48 3.00  91.22 2938.77
   01:42:26.480.31-Jan-2020 3902.01 2984.40 76.47 3.00  91.42 2938.77
   01:42:26.680.31-Jan-2020 3902.01 2984.91 76.47 3.00  91.62 2938.77
   01:42:26.880.31-Jan-2020 3902.01 2984.86 76.47 3.00  91.82 2938.77
