~Version Information
 VERS.                  2.0:   CWLS log ASCII Standard -VERSION 2.0
 WRAP.                   NO:   One line per depth step
~Well Information Block
#MNEM.UNIT     VALUE/NAME     DESCRIPTION
#---------     -----------    ---------------------------
 STRT.S             17:04:09 31-Jan-20: START TIME 17:04:09 31-Jan-20
 STOP.S             17:10:42 31-Jan-20: STOP TIME  17:10:42 31-Jan-20
 STEP.S                   0.00: STEP TIME
 NULL.                 -999.25: NULL VALUE
 DFWT.                        :  DIST FWL TEXT
 DFST.                        :  DIST FSL TEXT
 DMF .             Drill Floor:  DRILL MEAS FROM
 STIM.      09.30.00 26-Dec-19:  START TIME
 DATE.      08.00.00 20-Jan-20:  END TIME
 SPUD.               23-Nov-19:  SPUD DATE
 NREF.                    Grid:  NORTH REFERENCE
 HPTY.       Minimum Curvature:  HOLE POS TYPE
 DMOD.             Drill Model:  DRILL MOD DESC
 SVYD.                  Survey:  SURVEY DESC
 ILTD.               Lithology:  INTERP LTH DESC
 FTOP.          Formation Tops:  FORM TOPS DESC
 SON .        AZ-XX-0906192647:  JOB NUMBER
 WTYP.                Deviated:  WELL TYPE
 COMP.     BP Exploration (Caspian Sea) Ltd:  COMPANY
 BASE.              Azerbaijan:  LOGGING EQUIPMENT BASE LOCATION
 REGN.                 Eurasia:  REGION
 FLD .                     ACG:  FIELD NAME
 SRVC.              KCA Deutag:  CONTRACTOR
 MWDS.                    Baku:  MWD SHOP
 WELL.     A10 (Slot 20) - SCP:  WELL NAME
 JOBN.        AZ-XX-0906192647:  JOB TICKET NUMB
 RIG .                 Chirag1:  RIG NAME
 DCON.     Halliburton Sperry Drilling:  DIRECTNL CONTR
 UNIT.                     N/A:  LOGGING EQUIPMENT ID
 PDAT.          Mean Sea Level:  PERMANENT DATUM
 MDS .        Operator Entered:  MAG DATA SOURCE
 CTRY.              Azerbaijan:  COUNTRY NAME
 UWI .            /AZE00000090:  UNIQUE WELL IDENTIFIER
 API .            /AZE00000090:  API NUMBER
 CNTY.                        :  COUNTY
 PROV.                        :  PROVINCE
 STAT.                        :  STATE
 LOC .                        :  LOCATION
 LMF .             Drill Floor:  LOG MEASURED FROM
 TVDS.m                  36.60:  TVDSS CORRECTN
 LATI.deg                40.08:  LATITUDE
 LONG.deg                51.24:  LONGITUDE
 WHNS.m                  -7.94:  WELL HEAD N/S
 WHEW.m                   1.56:  WELL HEAD E/W
 UTMX.m              520429.26:  UTM X
 UTMY.m             4438973.87:  UTM Y
 DFWL.m                   0.00:  DISTANCE FWL
 DFSL.m                   0.00:  DISTANCE FSL
 SDEP.m                1455.00:  START DEPTH
 TDD .m                4047.51:  TOTAL DEPTH (DRILLER)
 VSDR.deg               112.75:  VERT SEC DIRECT
 GVFD.g                   1.00:  GRAVITY FIELD
 MFLD.nT              50261.00:  MAGNETIC FIELD
 MDIP.deg                59.52:  MAGNETIC DIP
 MDEC.deg                 6.42:  MAGNETIC DECL
 GRDC.deg                 0.17:  GRID CORRECTION
 AZTC.deg                 6.25:  AZM TOTAL CORR
 EPD .m                   0.00:  ELEVATION
 EGL .m                   0.00:  GROUND ELEVATION
 WDMS.m                 121.00:  WD ELEV
 APD .m                  36.60:  DEPTH ABOVE PD
 AGAP.m                  36.60:  AIR GAP
 VSEW.m                   1.56:  VERT SEC E/W
 VSNS.m                  -7.94:  VERT SEC N/S
 DEP .m                1140.01:  DEPTH
 EKB .m                  36.60:  KB ELEVATION
 EDF .m                  36.60:  DF ELEVATION
 TDL .m                 169.50:  TOTAL DEPTH (LOGGER)
 CSGD.m                3875.01:  CASING BOTTOM (DRILLER)
 CSGL.m                3875.01:  CASING BOTTOM (LOGGER)
 CSGS.in                  7.63:  CASING SIZE
 CSGW.lbpf               23.50:  CASING WEIGHT
 VSC .                       0:  VS TO CLOSURE
 MAGU.                 1849206:  MAGUTM CHECKSUM
~Parameter Information Block
#MNEM.UNIT       Value        Description
#---------     -----------    ---------------------------
 AV  .mps                 1.90:  Ann Velocity 
 AVMX.mps                 2.54:  Max Ann Veloc 
 AZIF.deg               137.03:  Azm, Final 
 BHAT.        Rotary Steerable:  BHA Type 
 BREV.rev             23610.00:  Rev Bit Total 
 BROT.°/30m               0.80:  Build Rotating 
 BS  .in                  6.50:  Bit Size 
 BTPL.psig              110.00:  Bit Press Loss 
 CABU.                     Yes:  Customer Abuse 
 COMM.                     D7Y:  Run Comments 1 
 TCS .hr                 70.51:  Time Ciculation Ended 
 CV  .mps                 1.41:  Crit Velocity 
 CVMX.mps                 1.42:  Max Crit Veloc 
 DD1 .         Intigam Rahimov:  Direct Drillr 1 
 DD2 .          Rashad Gojayev:  Direct Drillr 2 
 DDSV.               Geo-Pilot:  DD Service 
 DEFF.%                 100.00:  % Det Eff 
 DLRX.°/30m               1.44:  Dogleg Rot Max 
 DLSO.°/30m               0.00:  Dogleg Oriented 
 DLSX.°/30m               0.00:  Dogleg Str Max 
 DRET.      03.05.00 01-Feb-20:  Drill End Time 
 DRST.      15.50.00 28-Jan-20:  Drill Start Tim 
 DTIM.hr                 24.70:  Time Drilling 
 EDEP.m                4047.51:  End Depth 
 ENG1.           Eldar Hajiyev:  Engineer 1 
 ENG2.          Rasim Hashimov:  Engineer 2 
 ENG3.          Rustam Safarov:  Engineer 3 
 ETIM.      22.00.00 01-Feb-20:  End Time 
 FLOI.gpm               370.00:  Flow In 
 FLON.gpm               300.00:  Flow In Min 
 FLOS.cptm                0.00:  Fluid Loss 
 FLOX.gpm               400.00:  Flow In Max 
 FTRO.       Formation Presure:  FTWD Run Obj 
 HFLO.                      No:  High Flow 
 HPRE.                      No:  High Pressure 
 HTEM.                      No:  High Temp 
 HYDO.m                   2.50:  Hydro Offset 
 IFIN.deg                39.54:  Inc, Final 
 IMAX.deg                41.14:  Inc Max 
 IMIN.deg                39.81:  Inc Min 
 IMND.m                4005.21:  Inc Min Depth 
 IMXD.m                3948.42:  Inc Max Depth 
 JARR.                      No:  Jarring 
 LETM.      03.05.00 01-Feb-20:  Log End Time 
 LOST.hr                     0:  Lost Rig Time 
 LSTM.      15.50.00 28-Jan-20:  Log Start Time 
 MDCL.ppm             37500.00:  Mud Chlorides 
 MDES.     Inversion Oil/Synthetic:  Mud Desc 
 DFD .sg                  1.32:  Mud Density 
 MDMN.sg                  1.32:  Dens Mud Min 
 MDMX.sg                  1.32:  Dens Mud Max 
 MOIL.                      55:  Run Mud Oil % 
 MOWR.                   70:30:  Run Mud OWR 
 MSND.                       0:  Run Mud Sand % 
 MSOL.                      17:  Run Mud Solids% 
 DFV .spqt               80.00:  Mud Viscosity 
 MWOD.in                  4.75:  MWD Tool OD 
 MWSI.                      No:  Serv Intrp, MWD 
 OTIM.hr                121.28:  Time Operating 
 PCON.           Look Like New:  Pad Condition 
 PMAX.psia             6171.00:  Press Op, Max 
 PV  .cP                 30.00:  Mud PV 
 RUN .                     300:  Run Number 
 ROPA.m/hr                5.45:  ROP Avg 
 ROPN.m/hr                3.00:  ROP Min 
 ROPX.m/hr               15.00:  ROP Max 
 RPMA.rpm               130.00:  RPM Surface Avg 
 RPMN.rpm                80.00:  RPM Surface Min 
 RPMX.rpm               140.00:  RPM Surface Max 
 RRUN.                     300:  Rig Run Number 
 RTIM.hr                 13.50:  Time Reaming 
 SAZI.deg               133.93:  Azm, Start 
 SDEP.m                3878.01:  Start Depth 
 SIDD.                      No:  Serv Intrp, DD 
 SINC.deg                40.28:  Inc, Start 
 SPPA.psig             4983.00:  SPP Avg 
 SPPN.psig             4370.00:  SPP Min 
 SPPX.psig             5300.00:  SPP Max 
 STIM.      18.33.36 27-Jan-20:  Start Time 
 SVCS.                 DD, MWD:  Services 
 SVER.                    9.20:  Sperry Version 
 TDAT.m                 169.50:  Tot Depth Attmp 
 TDDF.                      No:  Trip for DD 
 TDLG.m                 169.50:  Tot Depth Loggd 
 TFF .                      No:  Trip for Fail 
 TQAA.f-kp               13.25:  Torque Abs Avg 
 TQAN.f-kp               12.00:  Torque Abs Min 
 TQAX.f-kp               14.00:  Torque Abs Max 
 TRRT.°/30m               0.70:  Turn Rotating 
 MRT .                     ADR:  Maximum Recorded Temperature 
 TTMX.degC               92.16:  Max Tool Temp 
 VS01.       AZ90598764G12V7D4:  Virtual Str1 SN 
 VS02.         AZ90571342R12C4:  Virtual Str2 SN 
 VS03.      AZ90580010N2L2X1C4:  Virtual Str3 SN 
 VS04.        AZ90522266O7X1C4:  Virtual Str4 SN 
 VS05.           AZ90598768F11:  Virtual Str5 SN 
 VS06.     AZ90580006XZ1W1X1C4:  Virtual Str6 SN 
 WBMN.klb                 8.00:  WOB Min 
 WITN.            Peter Wilson:  Customer Rep 
 WOBA.klb                 9.88:  WOB Avg 
 WOBX.klb                10.00:  WOB Max 
 YP  .lhf2               27.00:  Yield Point 
~Curve Information Block
#MNEM.UNIT                 API CODE     Curve Description
#---------               -----------    ---------------------------
 TIME.HHMMSS            00 000 000 000:  GT Time & Date
 GTDEPTH.m              00 000 000 000:  GT Depth
 GTPQH.psia             00 000 000 000:  GT HR Quartz Pressure
 GTTQ.degC              00 000 000 000:  GT Quartz Temperature
 GTTN.NONE              00 000 000 000:  GT Test Number
 GTET.sec               00 000 000 000:  GT Elapsed Test Time
 GTTVD.m                00 000 000 000:  GT True Vertical Depth
#Other Information
#
#WARRANTY: Halliburton will use its best efforts to furnish customers with 
#accurate information and interpretations that are part of, and incident to, the services 
#provided.  However, Halliburton cannot and does not warrant the accuracy 
#or correctness of such information and interpretations.  Under no circumstances should any 
#such information or interpretation be relied upon as the sole basis for any drilling, 
#completion, production, or financial decision or any procedure involving any risk to the 
#safety of any drilling venture, drilling rig or its crew or any other third party.  The 
#Customer has full responsibility for all drilling, completion and production operation.  
#Halliburton makes no representations or warranties, either expressed or 
#implied, including, but not limited to, the implied warranties of merchantability or fitness 
#for a particular purpose, with respect to the services rendered.  In no event will 
#Halliburton be liable for failure to obtain any particular results or for 
#any damages, including, but not limited to, indirect, special or consequential damages, 
#resulting from the use of any information or interpretation provided by Halliburton.
#
~A           TIME           GTDEPTH  GTPQH  GTTQ  GTTN  GTET   GTTVD  
# ...
   17:08:45.574.31-Jan-2020 3960.51 3519.80 85.19 8.00 276.06 2982.89
   17:08:45.774.31-Jan-2020 3960.51 3519.80 85.19 8.00 276.26 2982.89
   17:08:45.975.31-Jan-2020 3960.51 3519.67 85.19 8.00 276.46 2982.89
   17:08:46.175.31-Jan-2020 3960.51 3519.84 85.19 8.00 276.66 2982.89
   17:08:46.375.31-Jan-2020 3960.51 3519.76 85.18 8.00 276.86 2982.89
   17:08:46.575.31-Jan-2020 3960.51 3519.77 85.18 8.00 277.06 2982.89
   17:08:46.775.31-Jan-2020 3960.51 3519.77 85.18 8.00 277.26 2982.89
   17:08:46.975.31-Jan-2020 3960.51 3519.69 85.18 8.00 277.46 2982.89
   17:08:47.175.31-Jan-2020 3960.51 3519.97 85.18 8.00 277.67 2982.89
   17:08:47.375.31-Jan-2020 3960.51 3519.86 85.18 8.00 277.87 2982.89
   17:08:47.575.31-Jan-2020 3960.51 3519.50 85.18 8.00 278.07 2982.89
   17:08:47.775.31-Jan-2020 3960.51 3519.50 85.18 8.00 278.27 2982.89
   17:08:47.975.31-Jan-2020 3960.51 3519.78 85.18 8.00 278.47 2982.89
   17:08:48.175.31-Jan-2020 3960.51 3519.92 85.18 8.00 278.67 2982.89
   17:08:48.375.31-Jan-2020 3960.51 3519.73 85.18 8.00 278.87 2982.89
   17:08:48.575.31-Jan-2020 3960.51 3519.41 85.18 8.00 279.07 2982.89
   17:08:48.775.31-Jan-2020 3960.51 3519.41 85.18 8.00 279.27 2982.89
   17:08:48.975.31-Jan-2020 3960.51 3519.89 85.18 8.00 279.47 2982.89
   17:08:49.175.31-Jan-2020 3960.51 3520.07 85.18 8.00 279.67 2982.89
   17:08:49.375.31-Jan-2020 3960.51 3519.96 85.18 8.00 279.87 2982.89
   17:08:49.575.31-Jan-2020 3960.51 3519.91 85.18 8.00 280.07 2982.89
   17:08:49.775.31-Jan-2020 3960.51 3519.91 85.18 8.00 280.27 2982.89
   17:08:49.975.31-Jan-2020 3960.51 3519.50 85.18 8.00 280.47 2982.89
   17:08:50.176.31-Jan-2020 3960.51 3519.69 85.18 8.00 280.67 2982.89
   17:08:50.376.31-Jan-2020 3960.51 3519.91 85.17 8.00 280.87 2982.89
   17:08:50.576.31-Jan-2020 3960.51 3520.00 85.17 8.00 281.07 2982.89
   17:08:50.776.31-Jan-2020 3960.51 3520.00 85.17 8.00 281.27 2982.89
   17:08:50.976.31-Jan-2020 3960.51 3519.91 85.17 8.00 281.47 2982.89
   17:08:51.176.31-Jan-2020 3960.51 3519.46 85.17 8.00 281.67 2982.89
   17:08:51.376.31-Jan-2020 3960.51 3519.96 85.17 8.00 281.87 2982.89
   17:08:51.576.31-Jan-2020 3960.51 3520.05 85.17 8.00 282.07 2982.89
   17:08:51.776.31-Jan-2020 3960.51 3520.05 85.17 8.00 282.27 2982.89
   17:08:51.976.31-Jan-2020 3960.51 3519.93 85.17 8.00 282.47 2982.89
   17:08:52.176.31-Jan-2020 3960.51 3519.91 85.17 8.00 282.67 2982.89
   17:08:52.376.31-Jan-2020 3960.51 3519.57 85.17 8.00 282.87 2982.89
   17:08:52.576.31-Jan-2020 3960.51 3519.86 85.17 8.00 283.07 2982.89
   17:08:52.776.31-Jan-2020 3960.51 3519.86 85.17 8.00 283.27 2982.89
   17:08:52.976.31-Jan-2020 3960.51 3520.04 85.17 8.00 283.47 2982.89
   17:08:53.176.31-Jan-2020 3960.51 3520.14 85.17 8.00 283.67 2982.89
   17:08:53.376.31-Jan-2020 3960.51 3520.07 85.17 8.00 283.87 2982.89
   17:08:53.576.31-Jan-2020 3960.51 3519.88 85.17 8.00 284.07 2982.89
   17:08:53.776.31-Jan-2020 3960.51 3519.88 85.17 8.00 284.27 2982.89
   17:08:53.976.31-Jan-2020 3960.51 3519.87 85.17 8.00 284.47 2982.89
   17:08:54.176.31-Jan-2020 3960.51 3519.95 85.17 8.00 284.67 2982.89
   17:08:54.377.31-Jan-2020 3960.51 3519.97 85.16 8.00 284.87 2982.89
   17:08:54.577.31-Jan-2020 3960.51 3519.89 85.16 8.00 285.07 2982.89
   17:08:54.777.31-Jan-2020 3960.51 3519.89 85.16 8.00 285.27 2982.89
   17:08:54.977.31-Jan-2020 3960.51 3519.85 85.16 8.00 285.47 2982.89
   17:08:55.177.31-Jan-2020 3960.51 3519.88 85.16 8.00 285.67 2982.89
   17:08:55.377.31-Jan-2020 3960.51 3519.91 85.16 8.00 285.87 2982.89
   17:08:55.577.31-Jan-2020 3960.51 3519.88 85.16 8.00 286.07 2982.89
   17:08:55.777.31-Jan-2020 3960.51 3519.88 85.16 8.00 286.27 2982.89
   17:08:55.977.31-Jan-2020 3960.51 3519.59 85.16 8.00 286.47 2982.89
   17:08:56.177.31-Jan-2020 3960.51 3519.94 85.16 8.00 286.67 2982.89
   17:08:56.377.31-Jan-2020 3960.51 3519.98 85.16 8.00 286.87 2982.89
   17:08:56.577.31-Jan-2020 3960.51 3519.99 85.16 8.00 287.07 2982.89
   17:08:56.777.31-Jan-2020 3960.51 3519.99 85.16 8.00 287.27 2982.89
   17:08:56.977.31-Jan-2020 3960.51 3520.05 85.16 8.00 287.47 2982.89
   17:08:57.177.31-Jan-2020 3960.51 3520.02 85.16 8.00 287.67 2982.89
   17:08:57.377.31-Jan-2020 3960.51 3519.98 85.16 8.00 287.87 2982.89
   17:08:57.577.31-Jan-2020 3960.51 3519.92 85.16 8.00 288.07 2982.89
   17:08:57.777.31-Jan-2020 3960.51 3519.92 85.16 8.00 288.27 2982.89
   17:08:57.977.31-Jan-2020 3960.51 3519.95 85.16 8.00 288.47 2982.89
   17:08:58.177.31-Jan-2020 3960.51 3519.90 85.16 8.00 288.67 2982.89
   17:08:58.377.31-Jan-2020 3960.51 3519.89 85.15 8.00 288.87 2982.89
   17:08:58.577.31-Jan-2020 3960.51 3519.94 85.15 8.00 289.07 2982.89
   17:08:58.778.31-Jan-2020 3960.51 3519.94 85.15 8.00 289.27 2982.89
   17:08:58.978.31-Jan-2020 3960.51 3520.00 85.15 8.00 289.47 2982.89
   17:08:59.178.31-Jan-2020 3960.51 3519.99 85.15 8.00 289.67 2982.89
   17:08:59.378.31-Jan-2020 3960.51 3519.58 85.15 8.00 289.87 2982.89
   17:08:59.578.31-Jan-2020 3960.51 3519.92 85.15 8.00 290.07 2982.89
   17:08:59.778.31-Jan-2020 3960.51 3519.92 85.15 8.00 290.27 2982.89
   17:08:59.978.31-Jan-2020 3960.51 3520.03 85.15 8.00 290.47 2982.89
   17:09:00.178.31-Jan-2020 3960.51 3520.02 85.15 8.00 290.67 2982.89
   17:09:00.378.31-Jan-2020 3960.51 3519.61 85.15 8.00 290.87 2982.89
   17:09:00.578.31-Jan-2020 3960.51 3519.98 85.15 8.00 291.07 2982.89
   17:09:00.778.31-Jan-2020 3960.51 3519.98 85.15 8.00 291.27 2982.89
   17:09:00.978.31-Jan-2020 3960.51 3520.10 85.15 8.00 291.47 2982.89
   17:09:01.178.31-Jan-2020 3960.51 3520.09 85.15 8.00 291.67 2982.89
   17:09:01.378.31-Jan-2020 3960.51 3520.05 85.15 8.00 291.87 2982.89
   17:09:01.578.31-Jan-2020 3960.51 3520.02 85.15 8.00 292.07 2982.89
   17:09:01.778.31-Jan-2020 3960.51 3520.02 85.15 8.00 292.27 2982.89
   17:09:01.978.31-Jan-2020 3960.51 3519.64 85.15 8.00 292.47 2982.89
   17:09:02.178.31-Jan-2020 3960.51 3519.88 85.15 8.00 292.67 2982.89
   17:09:02.378.31-Jan-2020 3960.51 3520.12 85.14 8.00 292.87 2982.89
   17:09:02.578.31-Jan-2020 3960.51 3520.19 85.14 8.00 293.07 2982.89
   17:09:02.778.31-Jan-2020 3960.51 3520.19 85.14 8.00 293.27 2982.89
   17:09:02.979.31-Jan-2020 3960.51 3519.65 85.14 8.00 293.47 2982.89
   17:09:03.179.31-Jan-2020 3960.51 3519.90 85.14 8.00 293.67 2982.89
   17:09:03.379.31-Jan-2020 3960.51 3520.06 85.14 8.00 293.87 2982.89
   17:09:03.579.31-Jan-2020 3960.51 3520.17 85.14 8.00 294.07 2982.89
   17:09:03.779.31-Jan-2020 3960.51 3520.17 85.14 8.00 294.27 2982.89
   17:09:03.979.31-Jan-2020 3960.51 3519.99 85.14 8.00 294.47 2982.89
   17:09:04.179.31-Jan-2020 3960.51 3519.66 85.14 8.00 294.67 2982.89
   17:09:04.379.31-Jan-2020 3960.51 3519.94 85.14 8.00 294.87 2982.89
   17:09:04.579.31-Jan-2020 3960.51 3520.18 85.14 8.00 295.07 2982.89
   17:09:04.779.31-Jan-2020 3960.51 3520.18 85.14 8.00 295.27 2982.89
   17:09:04.979.31-Jan-2020 3960.51 3520.21 85.14 8.00 295.47 2982.89
   17:09:05.179.31-Jan-2020 3960.51 3520.20 85.14 8.00 295.67 2982.89
   17:09:05.379.31-Jan-2020 3960.51 3519.95 85.14 8.00 295.87 2982.89
   17:09:05.579.31-Jan-2020 3960.51 3519.99 85.14 8.00 296.07 2982.89
   17:09:05.779.31-Jan-2020 3960.51 3519.99 85.14 8.00 296.27 2982.89
   17:09:05.979.31-Jan-2020 3960.51 3520.03 85.14 8.00 296.47 2982.89
   17:09:06.179.31-Jan-2020 3960.51 3520.09 85.14 8.00 296.67 2982.89
   17:09:06.379.31-Jan-2020 3960.51 3519.91 85.13 8.00 296.87 2982.89
   17:09:06.579.31-Jan-2020 3960.51 3520.04 85.13 8.00 297.07 2982.89
   17:09:06.779.31-Jan-2020 3960.51 3520.04 85.13 8.00 297.27 2982.89
   17:09:06.979.31-Jan-2020 3960.51 3519.96 85.13 8.00 297.47 2982.89
   17:09:07.180.31-Jan-2020 3960.51 3520.14 85.13 8.00 297.67 2982.89
   17:09:07.380.31-Jan-2020 3960.51 3519.94 85.13 8.00 297.87 2982.89
   17:09:07.580.31-Jan-2020 3960.51 3520.04 85.13 8.00 298.07 2982.89
   17:09:07.780.31-Jan-2020 3960.51 3520.04 85.13 8.00 298.27 2982.89
   17:09:07.980.31-Jan-2020 3960.51 3519.89 85.13 8.00 298.47 2982.89
   17:09:08.180.31-Jan-2020 3960.51 3520.06 85.13 8.00 298.67 2982.89
   17:09:08.380.31-Jan-2020 3960.51 3519.99 85.13 8.00 298.87 2982.89
