~Version Information
 VERS.                  2.0:   CWLS log ASCII Standard -VERSION 2.0
 WRAP.                   NO:   One line per depth step
~Well Information Block
#MNEM.UNIT     VALUE/NAME     DESCRIPTION
#---------     -----------    ---------------------------
 STRT.S             01:40:55 31-Jan-20: START TIME 01:40:55 31-Jan-20
 STOP.S             01:47:23 31-Jan-20: STOP TIME  01:47:23 31-Jan-20
 STEP.S                   0.00: STEP TIME
 NULL.                 -999.25: NULL VALUE
 DFWT.                        :  DIST FWL TEXT
 DFST.                        :  DIST FSL TEXT
 DMF .             Drill Floor:  DRILL MEAS FROM
 STIM.      09.30.00 26-Dec-19:  START TIME
 DATE.      08.00.00 20-Jan-20:  END TIME
 SPUD.               23-Nov-19:  SPUD DATE
 NREF.                    Grid:  NORTH REFERENCE
 HPTY.       Minimum Curvature:  HOLE POS TYPE
 DMOD.             Drill Model:  DRILL MOD DESC
 SVYD.                  Survey:  SURVEY DESC
 ILTD.               Lithology:  INTERP LTH DESC
 FTOP.          Formation Tops:  FORM TOPS DESC
 SON .        AZ-XX-0906192647:  JOB NUMBER
 WTYP.                Deviated:  WELL TYPE
 COMP.     BP Exploration (Caspian Sea) Ltd:  COMPANY
 BASE.              Azerbaijan:  LOGGING EQUIPMENT BASE LOCATION
 REGN.                 Eurasia:  REGION
 FLD .                     ACG:  FIELD NAME
 SRVC.              KCA Deutag:  CONTRACTOR
 MWDS.                    Baku:  MWD SHOP
 WELL.     A10 (Slot 20) - SCP:  WELL NAME
 JOBN.        AZ-XX-0906192647:  JOB TICKET NUMB
 RIG .                 Chirag1:  RIG NAME
 DCON.     Halliburton Sperry Drilling:  DIRECTNL CONTR
 UNIT.                     N/A:  LOGGING EQUIPMENT ID
 PDAT.          Mean Sea Level:  PERMANENT DATUM
 MDS .        Operator Entered:  MAG DATA SOURCE
 CTRY.              Azerbaijan:  COUNTRY NAME
 UWI .            /AZE00000090:  UNIQUE WELL IDENTIFIER
 API .            /AZE00000090:  API NUMBER
 CNTY.                        :  COUNTY
 PROV.                        :  PROVINCE
 STAT.                        :  STATE
 LOC .                        :  LOCATION
 LMF .             Drill Floor:  LOG MEASURED FROM
 TVDS.m                  36.60:  TVDSS CORRECTN
 LATI.deg                40.08:  LATITUDE
 LONG.deg                51.24:  LONGITUDE
 WHNS.m                  -7.94:  WELL HEAD N/S
 WHEW.m                   1.56:  WELL HEAD E/W
 UTMX.m              520429.26:  UTM X
 UTMY.m             4438973.87:  UTM Y
 DFWL.m                   0.00:  DISTANCE FWL
 DFSL.m                   0.00:  DISTANCE FSL
 SDEP.m                1455.00:  START DEPTH
 TDD .m                4047.51:  TOTAL DEPTH (DRILLER)
 VSDR.deg               112.75:  VERT SEC DIRECT
 GVFD.g                   1.00:  GRAVITY FIELD
 MFLD.nT              50261.00:  MAGNETIC FIELD
 MDIP.deg                59.52:  MAGNETIC DIP
 MDEC.deg                 6.42:  MAGNETIC DECL
 GRDC.deg                 0.17:  GRID CORRECTION
 AZTC.deg                 6.25:  AZM TOTAL CORR
 EPD .m                   0.00:  ELEVATION
 EGL .m                   0.00:  GROUND ELEVATION
 WDMS.m                 121.00:  WD ELEV
 APD .m                  36.60:  DEPTH ABOVE PD
 AGAP.m                  36.60:  AIR GAP
 VSEW.m                   1.56:  VERT SEC E/W
 VSNS.m                  -7.94:  VERT SEC N/S
 DEP .m                1140.01:  DEPTH
 EKB .m                  36.60:  KB ELEVATION
 EDF .m                  36.60:  DF ELEVATION
 TDL .m                 169.50:  TOTAL DEPTH (LOGGER)
 CSGD.m                3875.01:  CASING BOTTOM (DRILLER)
 CSGL.m                3875.01:  CASING BOTTOM (LOGGER)
 CSGS.in                  7.63:  CASING SIZE
 CSGW.lbpf               23.50:  CASING WEIGHT
 VSC .                       0:  VS TO CLOSURE
 MAGU.                 1849206:  MAGUTM CHECKSUM
~Parameter Information Block
#MNEM.UNIT       Value        Description
#---------     -----------    ---------------------------
 AV  .mps                 1.90:  Ann Velocity 
 AVMX.mps                 2.54:  Max Ann Veloc 
 AZIF.deg               137.03:  Azm, Final 
 BHAT.        Rotary Steerable:  BHA Type 
 BREV.rev             23610.00:  Rev Bit Total 
 BROT.°/30m               0.80:  Build Rotating 
 BS  .in                  6.50:  Bit Size 
 BTPL.psig              110.00:  Bit Press Loss 
 CABU.                     Yes:  Customer Abuse 
 COMM.                     šn:  Run Comments 1 
 TCS .hr                 70.51:  Time Ciculation Ended 
 CV  .mps                 1.41:  Crit Velocity 
 CVMX.mps                 1.42:  Max Crit Veloc 
 DD1 .         Intigam Rahimov:  Direct Drillr 1 
 DD2 .          Rashad Gojayev:  Direct Drillr 2 
 DDSV.               Geo-Pilot:  DD Service 
 DEFF.%                 100.00:  % Det Eff 
 DLRX.°/30m               1.44:  Dogleg Rot Max 
 DLSO.°/30m               0.00:  Dogleg Oriented 
 DLSX.°/30m               0.00:  Dogleg Str Max 
 DRET.      03.05.00 01-Feb-20:  Drill End Time 
 DRST.      15.50.00 28-Jan-20:  Drill Start Tim 
 DTIM.hr                 24.70:  Time Drilling 
 EDEP.m                4047.51:  End Depth 
 ENG1.           Eldar Hajiyev:  Engineer 1 
 ENG2.          Rasim Hashimov:  Engineer 2 
 ENG3.          Rustam Safarov:  Engineer 3 
 ETIM.      22.00.00 01-Feb-20:  End Time 
 FLOI.gpm               370.00:  Flow In 
 FLON.gpm               300.00:  Flow In Min 
 FLOS.cptm                0.00:  Fluid Loss 
 FLOX.gpm               400.00:  Flow In Max 
 FTRO.       Formation Presure:  FTWD Run Obj 
 HFLO.                      No:  High Flow 
 HPRE.                      No:  High Pressure 
 HTEM.                      No:  High Temp 
 HYDO.m                   2.50:  Hydro Offset 
 IFIN.deg                39.54:  Inc, Final 
 IMAX.deg                41.14:  Inc Max 
 IMIN.deg                39.81:  Inc Min 
 IMND.m                4005.21:  Inc Min Depth 
 IMXD.m                3948.42:  Inc Max Depth 
 JARR.                      No:  Jarring 
 LETM.      03.05.00 01-Feb-20:  Log End Time 
 LOST.hr                     0:  Lost Rig Time 
 LSTM.      15.50.00 28-Jan-20:  Log Start Time 
 MDCL.ppm             37500.00:  Mud Chlorides 
 MDES.     Inversion Oil/Synthetic:  Mud Desc 
 DFD .sg                  1.32:  Mud Density 
 MDMN.sg                  1.32:  Dens Mud Min 
 MDMX.sg                  1.32:  Dens Mud Max 
 MOIL.                      55:  Run Mud Oil % 
 MOWR.                   70:30:  Run Mud OWR 
 MSND.                       0:  Run Mud Sand % 
 MSOL.                      17:  Run Mud Solids% 
 DFV .spqt               80.00:  Mud Viscosity 
 MWOD.in                  4.75:  MWD Tool OD 
 MWSI.                      No:  Serv Intrp, MWD 
 OTIM.hr                121.28:  Time Operating 
 PCON.           Look Like New:  Pad Condition 
 PMAX.psia             6171.00:  Press Op, Max 
 PV  .cP                 30.00:  Mud PV 
 RUN .                     300:  Run Number 
 ROPA.m/hr                5.45:  ROP Avg 
 ROPN.m/hr                3.00:  ROP Min 
 ROPX.m/hr               15.00:  ROP Max 
 RPMA.rpm               130.00:  RPM Surface Avg 
 RPMN.rpm                80.00:  RPM Surface Min 
 RPMX.rpm               140.00:  RPM Surface Max 
 RRUN.                     300:  Rig Run Number 
 RTIM.hr                 13.50:  Time Reaming 
 SAZI.deg               133.93:  Azm, Start 
 SDEP.m                3878.01:  Start Depth 
 SIDD.                      No:  Serv Intrp, DD 
 SINC.deg                40.28:  Inc, Start 
 SPPA.psig             4983.00:  SPP Avg 
 SPPN.psig             4370.00:  SPP Min 
 SPPX.psig             5300.00:  SPP Max 
 STIM.      18.33.36 27-Jan-20:  Start Time 
 SVCS.                 DD, MWD:  Services 
 SVER.                    9.20:  Sperry Version 
 TDAT.m                 169.50:  Tot Depth Attmp 
 TDDF.                      No:  Trip for DD 
 TDLG.m                 169.50:  Tot Depth Loggd 
 TFF .                      No:  Trip for Fail 
 TQAA.f-kp               13.25:  Torque Abs Avg 
 TQAN.f-kp               12.00:  Torque Abs Min 
 TQAX.f-kp               14.00:  Torque Abs Max 
 TRRT.°/30m               0.70:  Turn Rotating 
 MRT .                     ADR:  Maximum Recorded Temperature 
 TTMX.degC               92.16:  Max Tool Temp 
 VS01.       AZ90598764G12V7D4:  Virtual Str1 SN 
 VS02.         AZ90571342R12C4:  Virtual Str2 SN 
 VS03.      AZ90580010N2L2X1C4:  Virtual Str3 SN 
 VS04.        AZ90522266O7X1C4:  Virtual Str4 SN 
 VS05.           AZ90598768F11:  Virtual Str5 SN 
 VS06.     AZ90580006XZ1W1X1C4:  Virtual Str6 SN 
 WBMN.klb                 8.00:  WOB Min 
 WITN.            Peter Wilson:  Customer Rep 
 WOBA.klb                 9.88:  WOB Avg 
 WOBX.klb                10.00:  WOB Max 
 YP  .lhf2               27.00:  Yield Point 
~Curve Information Block
#MNEM.UNIT                 API CODE     Curve Description
#---------               -----------    ---------------------------
 TIME.HHMMSS            00 000 000 000:  GT Time & Date
 GTDEPTH.m              00 000 000 000:  GT Depth
 GTPQH.psia             00 000 000 000:  GT HR Quartz Pressure
 GTTQ.degC              00 000 000 000:  GT Quartz Temperature
 GTTN.NONE              00 000 000 000:  GT Test Number
 GTET.sec               00 000 000 000:  GT Elapsed Test Time
 GTTVD.m                00 000 000 000:  GT True Vertical Depth
#Other Information
#
#WARRANTY: Halliburton will use its best efforts to furnish customers with 
#accurate information and interpretations that are part of, and incident to, the services 
#provided.  However, Halliburton cannot and does not warrant the accuracy 
#or correctness of such information and interpretations.  Under no circumstances should any 
#such information or interpretation be relied upon as the sole basis for any drilling, 
#completion, production, or financial decision or any procedure involving any risk to the 
#safety of any drilling venture, drilling rig or its crew or any other third party.  The 
#Customer has full responsibility for all drilling, completion and production operation.  
#Halliburton makes no representations or warranties, either expressed or 
#implied, including, but not limited to, the implied warranties of merchantability or fitness 
#for a particular purpose, with respect to the services rendered.  In no event will 
#Halliburton be liable for failure to obtain any particular results or for 
#any damages, including, but not limited to, indirect, special or consequential damages, 
#resulting from the use of any information or interpretation provided by Halliburton.
#
~A           TIME           GTDEPTH  GTPQH  GTTQ  GTTN  GTET   GTTVD  
# ...
   01:43:13.088.31-Jan-2020 3902.01 1596.78 76.32 3.00 138.03 2938.77
   01:43:13.288.31-Jan-2020 3902.01 1596.78 76.32 3.00 138.23 2938.77
   01:43:13.488.31-Jan-2020 3902.01 1626.02 76.32 3.00 138.43 2938.77
   01:43:13.689.31-Jan-2020 3902.01 1639.22 76.32 3.00 138.63 2938.77
   01:43:13.889.31-Jan-2020 3902.01 1645.07 76.32 3.00 138.83 2938.77
   01:43:14.089.31-Jan-2020 3902.01 1643.56 76.32 3.00 139.03 2938.77
   01:43:14.289.31-Jan-2020 3902.01 1643.56 76.32 3.00 139.23 2938.77
   01:43:14.489.31-Jan-2020 3902.01 1651.87 76.32 3.00 139.43 2938.77
   01:43:14.689.31-Jan-2020 3902.01 1647.38 76.31 3.00 139.63 2938.77
   01:43:14.889.31-Jan-2020 3902.01 1641.04 76.31 3.00 139.83 2938.77
   01:43:15.089.31-Jan-2020 3902.01 1637.36 76.31 3.00 140.03 2938.77
   01:43:15.289.31-Jan-2020 3902.01 1637.36 76.31 3.00 140.23 2938.77
   01:43:15.489.31-Jan-2020 3902.01 1633.17 76.31 3.00 140.43 2938.77
   01:43:15.689.31-Jan-2020 3902.01 1629.63 76.31 3.00 140.63 2938.77
   01:43:15.889.31-Jan-2020 3902.01 1628.28 76.31 3.00 140.83 2938.77
   01:43:16.089.31-Jan-2020 3902.01 1624.66 76.31 3.00 141.03 2938.77
   01:43:16.289.31-Jan-2020 3902.01 1624.66 76.31 3.00 141.23 2938.77
   01:43:16.489.31-Jan-2020 3902.01 1619.75 76.31 3.00 141.43 2938.77
   01:43:16.689.31-Jan-2020 3902.01 1616.57 76.31 3.00 141.63 2938.77
   01:43:16.889.31-Jan-2020 3902.01 1616.38 76.31 3.00 141.83 2938.77
   01:43:17.089.31-Jan-2020 3902.01 1613.76 76.30 3.00 142.03 2938.77
   01:43:17.289.31-Jan-2020 3902.01 1613.76 76.30 3.00 142.23 2938.77
   01:43:17.489.31-Jan-2020 3902.01 1612.99 76.30 3.00 142.43 2938.77
   01:43:17.689.31-Jan-2020 3902.01 1611.83 76.30 3.00 142.63 2938.77
   01:43:17.889.31-Jan-2020 3902.01 1812.14 76.30 3.00 142.83 2938.77
   01:43:18.089.31-Jan-2020 3902.01 2200.03 76.30 3.00 143.03 2938.77
   01:43:18.289.31-Jan-2020 3902.01 2200.03 76.30 3.00 143.23 2938.77
   01:43:18.489.31-Jan-2020 3902.01 2647.07 76.30 3.00 143.43 2938.77
   01:43:18.689.31-Jan-2020 3902.01 2762.11 76.30 3.00 143.63 2938.77
   01:43:18.889.31-Jan-2020 3902.01 2836.50 76.30 3.00 143.83 2938.77
   01:43:19.089.31-Jan-2020 3902.01 2880.88 76.30 3.00 144.03 2938.77
   01:43:19.290.31-Jan-2020 3902.01 2880.88 76.30 3.00 144.23 2938.77
   01:43:19.490.31-Jan-2020 3902.01 2914.70 76.30 3.00 144.43 2938.77
   01:43:19.690.31-Jan-2020 3902.01 2951.21 76.29 3.00 144.63 2938.77
   01:43:19.890.31-Jan-2020 3902.01 2960.74 76.29 3.00 144.83 2938.77
   01:43:20.090.31-Jan-2020 3902.01 2967.05 76.29 3.00 145.03 2938.77
   01:43:20.290.31-Jan-2020 3902.01 2967.05 76.29 3.00 145.23 2938.77
   01:43:20.490.31-Jan-2020 3902.01 2973.99 76.29 3.00 145.43 2938.77
   01:43:20.690.31-Jan-2020 3902.01 2976.04 76.29 3.00 145.63 2938.77
   01:43:20.890.31-Jan-2020 3902.01 2977.40 76.29 3.00 145.83 2938.77
   01:43:21.090.31-Jan-2020 3902.01 2978.43 76.29 3.00 146.03 2938.77
   01:43:21.290.31-Jan-2020 3902.01 2978.43 76.29 3.00 146.23 2938.77
   01:43:21.490.31-Jan-2020 3902.01 2979.79 76.29 3.00 146.43 2938.77
   01:43:21.690.31-Jan-2020 3902.01 2980.15 76.29 3.00 146.63 2938.77
   01:43:21.890.31-Jan-2020 3902.01 2980.65 76.29 3.00 146.83 2938.77
   01:43:22.090.31-Jan-2020 3902.01 2981.41 76.29 3.00 147.03 2938.77
   01:43:22.290.31-Jan-2020 3902.01 2981.41 76.29 3.00 147.23 2938.77
   01:43:22.490.31-Jan-2020 3902.01 2978.94 76.29 3.00 147.43 2938.77
   01:43:22.690.31-Jan-2020 3902.01 2980.29 76.29 3.00 147.63 2938.77
   01:43:22.890.31-Jan-2020 3902.01 2980.97 76.29 3.00 147.83 2938.77
   01:43:23.090.31-Jan-2020 3902.01 2981.38 76.29 3.00 148.03 2938.77
   01:43:23.290.31-Jan-2020 3902.01 2981.38 76.29 3.00 148.23 2938.77
   01:43:23.490.31-Jan-2020 3902.01 2981.33 76.29 3.00 148.43 2938.77
   01:43:23.690.31-Jan-2020 3902.01 2982.17 76.29 3.00 148.63 2938.77
   01:43:23.890.31-Jan-2020 3902.01 2982.32 76.29 3.00 148.83 2938.77
   01:43:24.090.31-Jan-2020 3902.01 2982.34 76.28 3.00 149.03 2938.77
   01:43:24.290.31-Jan-2020 3902.01 2982.34 76.28 3.00 149.23 2938.77
   01:43:24.490.31-Jan-2020 3902.01 2982.29 76.28 3.00 149.43 2938.77
   01:43:24.691.31-Jan-2020 3902.01 2982.69 76.28 3.00 149.63 2938.77
   01:43:24.891.31-Jan-2020 3902.01 2982.69 76.28 3.00 149.83 2938.77
   01:43:25.091.31-Jan-2020 3902.01 2982.79 76.28 3.00 150.03 2938.77
   01:43:25.291.31-Jan-2020 3902.01 2982.79 76.28 3.00 150.23 2938.77
   01:43:25.491.31-Jan-2020 3902.01 2982.83 76.28 3.00 150.43 2938.77
   01:43:25.691.31-Jan-2020 3902.01 2982.80 76.28 3.00 150.63 2938.77
   01:43:25.891.31-Jan-2020 3902.01 2982.40 76.28 3.00 150.83 2938.77
   01:43:26.091.31-Jan-2020 3902.01 2983.07 76.28 3.00 151.03 2938.77
   01:43:26.291.31-Jan-2020 3902.01 2983.07 76.28 3.00 151.23 2938.77
   01:43:26.491.31-Jan-2020 3902.01 2983.18 76.28 3.00 151.43 2938.77
   01:43:26.691.31-Jan-2020 3902.01 2983.07 76.28 3.00 151.63 2938.77
   01:43:26.891.31-Jan-2020 3902.01 2983.06 76.28 3.00 151.83 2938.77
   01:43:27.091.31-Jan-2020 3902.01 2982.63 76.28 3.00 152.03 2938.77
   01:43:27.291.31-Jan-2020 3902.01 2982.63 76.28 3.00 152.23 2938.77
   01:43:27.491.31-Jan-2020 3902.01 2983.50 76.28 3.00 152.43 2938.77
   01:43:27.691.31-Jan-2020 3902.01 2983.35 76.28 3.00 152.63 2938.77
   01:43:27.891.31-Jan-2020 3902.01 2983.28 76.28 3.00 152.83 2938.77
   01:43:28.091.31-Jan-2020 3902.01 2983.28 76.28 3.00 153.03 2938.77
   01:43:28.291.31-Jan-2020 3902.01 2983.28 76.28 3.00 153.23 2938.77
   01:43:28.491.31-Jan-2020 3902.01 2983.30 76.28 3.00 153.43 2938.77
   01:43:28.691.31-Jan-2020 3902.01 2983.38 76.28 3.00 153.63 2938.77
   01:43:28.891.31-Jan-2020 3902.01 2983.39 76.28 3.00 153.83 2938.77
   01:43:29.091.31-Jan-2020 3902.01 2983.35 76.28 3.00 154.03 2938.77
   01:43:29.291.31-Jan-2020 3902.01 2983.35 76.28 3.00 154.23 2938.77
   01:43:29.491.31-Jan-2020 3902.01 2983.28 76.28 3.00 154.43 2938.77
   01:43:29.691.31-Jan-2020 3902.01 2983.33 76.28 3.00 154.63 2938.77
   01:43:29.891.31-Jan-2020 3902.01 2983.38 76.27 3.00 154.83 2938.77
   01:43:30.091.31-Jan-2020 3902.01 2983.56 76.27 3.00 155.03 2938.77
   01:43:30.292.31-Jan-2020 3902.01 2983.56 76.27 3.00 155.23 2938.77
   01:43:30.492.31-Jan-2020 3902.01 2983.45 76.27 3.00 155.43 2938.77
   01:43:30.692.31-Jan-2020 3902.01 2983.39 76.27 3.00 155.63 2938.77
   01:43:30.892.31-Jan-2020 3902.01 2982.99 76.27 3.00 155.83 2938.77
   01:43:31.092.31-Jan-2020 3902.01 2983.75 76.27 3.00 156.03 2938.77
   01:43:31.292.31-Jan-2020 3902.01 2983.75 76.27 3.00 156.23 2938.77
   01:43:31.492.31-Jan-2020 3902.01 2983.70 76.27 3.00 156.43 2938.77
   01:43:31.692.31-Jan-2020 3902.01 2983.67 76.27 3.00 156.63 2938.77
   01:43:31.892.31-Jan-2020 3902.01 2983.61 76.27 3.00 156.83 2938.77
   01:43:32.092.31-Jan-2020 3902.01 2983.60 76.27 3.00 157.03 2938.77
   01:43:32.292.31-Jan-2020 3902.01 2983.60 76.27 3.00 157.23 2938.77
   01:43:32.492.31-Jan-2020 3902.01 2983.64 76.27 3.00 157.43 2938.77
   01:43:32.692.31-Jan-2020 3902.01 2983.71 76.27 3.00 157.63 2938.77
   01:43:32.892.31-Jan-2020 3902.01 2983.64 76.27 3.00 157.83 2938.77
   01:43:33.092.31-Jan-2020 3902.01 2983.65 76.27 3.00 158.03 2938.77
   01:43:33.292.31-Jan-2020 3902.01 2983.65 76.27 3.00 158.23 2938.77
   01:43:33.492.31-Jan-2020 3902.01 2983.59 76.27 3.00 158.43 2938.77
   01:43:33.692.31-Jan-2020 3902.01 2983.70 76.27 3.00 158.63 2938.77
   01:43:33.892.31-Jan-2020 3902.01 2983.82 76.27 3.00 158.83 2938.77
   01:43:34.092.31-Jan-2020 3902.01 2983.29 76.27 3.00 159.03 2938.77
   01:43:34.292.31-Jan-2020 3902.01 2983.29 76.27 3.00 159.23 2938.77
   01:43:34.492.31-Jan-2020 3902.01 2983.93 76.26 3.00 159.43 2938.77
   01:43:34.692.31-Jan-2020 3902.01 2983.89 76.26 3.00 159.63 2938.77
   01:43:34.892.31-Jan-2020 3902.01 2983.82 76.26 3.00 159.83 2938.77
   01:43:35.092.31-Jan-2020 3902.01 2983.32 76.26 3.00 160.03 2938.77
   01:43:35.292.31-Jan-2020 3902.01 2983.32 76.26 3.00 160.23 2938.77
   01:43:35.492.31-Jan-2020 3902.01 2983.98 76.26 3.00 160.43 2938.77
   01:43:35.692.31-Jan-2020 3902.01 2983.93 76.26 3.00 160.63 2938.77
   01:43:35.893.31-Jan-2020 3902.01 2983.92 76.26 3.00 160.83 2938.77
