~Version Information
 VERS.                  2.0:   CWLS log ASCII Standard -VERSION 2.0
 WRAP.                   NO:   One line per depth step
~Well Information Block
#MNEM.UNIT     VALUE/NAME     DESCRIPTION
#---------     -----------    ---------------------------
 STRT.S             12:23:22 31-Jan-20: START TIME 12:23:22 31-Jan-20
 STOP.S             12:29:53 31-Jan-20: STOP TIME  12:29:53 31-Jan-20
 STEP.S                   0.00: STEP TIME
 NULL.                 -999.25: NULL VALUE
 DFWT.                        :  DIST FWL TEXT
 DFST.                        :  DIST FSL TEXT
 DMF .             Drill Floor:  DRILL MEAS FROM
 STIM.      09.30.00 26-Dec-19:  START TIME
 DATE.      08.00.00 20-Jan-20:  END TIME
 SPUD.               23-Nov-19:  SPUD DATE
 NREF.                    Grid:  NORTH REFERENCE
 HPTY.       Minimum Curvature:  HOLE POS TYPE
 DMOD.             Drill Model:  DRILL MOD DESC
 SVYD.                  Survey:  SURVEY DESC
 ILTD.               Lithology:  INTERP LTH DESC
 FTOP.          Formation Tops:  FORM TOPS DESC
 SON .        AZ-XX-0906192647:  JOB NUMBER
 WTYP.                Deviated:  WELL TYPE
 COMP.     BP Exploration (Caspian Sea) Ltd:  COMPANY
 BASE.              Azerbaijan:  LOGGING EQUIPMENT BASE LOCATION
 REGN.                 Eurasia:  REGION
 FLD .                     ACG:  FIELD NAME
 SRVC.              KCA Deutag:  CONTRACTOR
 MWDS.                    Baku:  MWD SHOP
 WELL.     A10 (Slot 20) - SCP:  WELL NAME
 JOBN.        AZ-XX-0906192647:  JOB TICKET NUMB
 RIG .                 Chirag1:  RIG NAME
 DCON.     Halliburton Sperry Drilling:  DIRECTNL CONTR
 UNIT.                     N/A:  LOGGING EQUIPMENT ID
 PDAT.          Mean Sea Level:  PERMANENT DATUM
 MDS .        Operator Entered:  MAG DATA SOURCE
 CTRY.              Azerbaijan:  COUNTRY NAME
 UWI .            /AZE00000090:  UNIQUE WELL IDENTIFIER
 API .            /AZE00000090:  API NUMBER
 CNTY.                        :  COUNTY
 PROV.                        :  PROVINCE
 STAT.                        :  STATE
 LOC .                        :  LOCATION
 LMF .             Drill Floor:  LOG MEASURED FROM
 TVDS.m                  36.60:  TVDSS CORRECTN
 LATI.deg                40.08:  LATITUDE
 LONG.deg                51.24:  LONGITUDE
 WHNS.m                  -7.94:  WELL HEAD N/S
 WHEW.m                   1.56:  WELL HEAD E/W
 UTMX.m              520429.26:  UTM X
 UTMY.m             4438973.87:  UTM Y
 DFWL.m                   0.00:  DISTANCE FWL
 DFSL.m                   0.00:  DISTANCE FSL
 SDEP.m                1455.00:  START DEPTH
 TDD .m                4047.51:  TOTAL DEPTH (DRILLER)
 VSDR.deg               112.75:  VERT SEC DIRECT
 GVFD.g                   1.00:  GRAVITY FIELD
 MFLD.nT              50261.00:  MAGNETIC FIELD
 MDIP.deg                59.52:  MAGNETIC DIP
 MDEC.deg                 6.42:  MAGNETIC DECL
 GRDC.deg                 0.17:  GRID CORRECTION
 AZTC.deg                 6.25:  AZM TOTAL CORR
 EPD .m                   0.00:  ELEVATION
 EGL .m                   0.00:  GROUND ELEVATION
 WDMS.m                 121.00:  WD ELEV
 APD .m                  36.60:  DEPTH ABOVE PD
 AGAP.m                  36.60:  AIR GAP
 VSEW.m                   1.56:  VERT SEC E/W
 VSNS.m                  -7.94:  VERT SEC N/S
 DEP .m                1140.01:  DEPTH
 EKB .m                  36.60:  KB ELEVATION
 EDF .m                  36.60:  DF ELEVATION
 TDL .m                 169.50:  TOTAL DEPTH (LOGGER)
 CSGD.m                3875.01:  CASING BOTTOM (DRILLER)
 CSGL.m                3875.01:  CASING BOTTOM (LOGGER)
 CSGS.in                  7.63:  CASING SIZE
 CSGW.lbpf               23.50:  CASING WEIGHT
 VSC .                       0:  VS TO CLOSURE
 MAGU.                 1849206:  MAGUTM CHECKSUM
~Parameter Information Block
#MNEM.UNIT       Value        Description
#---------     -----------    ---------------------------
 AV  .mps                 1.90:  Ann Velocity 
 AVMX.mps                 2.54:  Max Ann Veloc 
 AZIF.deg               137.03:  Azm, Final 
 BHAT.        Rotary Steerable:  BHA Type 
 BREV.rev             23610.00:  Rev Bit Total 
 BROT.°/30m               0.80:  Build Rotating 
 BS  .in                  6.50:  Bit Size 
 BTPL.psig              110.00:  Bit Press Loss 
 CABU.                     Yes:  Customer Abuse 
 COMM.                     Ô W:  Run Comments 1 
 TCS .hr                 70.51:  Time Ciculation Ended 
 CV  .mps                 1.41:  Crit Velocity 
 CVMX.mps                 1.42:  Max Crit Veloc 
 DD1 .         Intigam Rahimov:  Direct Drillr 1 
 DD2 .          Rashad Gojayev:  Direct Drillr 2 
 DDSV.               Geo-Pilot:  DD Service 
 DEFF.%                 100.00:  % Det Eff 
 DLRX.°/30m               1.44:  Dogleg Rot Max 
 DLSO.°/30m               0.00:  Dogleg Oriented 
 DLSX.°/30m               0.00:  Dogleg Str Max 
 DRET.      03.05.00 01-Feb-20:  Drill End Time 
 DRST.      15.50.00 28-Jan-20:  Drill Start Tim 
 DTIM.hr                 24.70:  Time Drilling 
 EDEP.m                4047.51:  End Depth 
 ENG1.           Eldar Hajiyev:  Engineer 1 
 ENG2.          Rasim Hashimov:  Engineer 2 
 ENG3.          Rustam Safarov:  Engineer 3 
 ETIM.      22.00.00 01-Feb-20:  End Time 
 FLOI.gpm               370.00:  Flow In 
 FLON.gpm               300.00:  Flow In Min 
 FLOS.cptm                0.00:  Fluid Loss 
 FLOX.gpm               400.00:  Flow In Max 
 FTRO.       Formation Presure:  FTWD Run Obj 
 HFLO.                      No:  High Flow 
 HPRE.                      No:  High Pressure 
 HTEM.                      No:  High Temp 
 HYDO.m                   2.50:  Hydro Offset 
 IFIN.deg                39.54:  Inc, Final 
 IMAX.deg                41.14:  Inc Max 
 IMIN.deg                39.81:  Inc Min 
 IMND.m                4005.21:  Inc Min Depth 
 IMXD.m                3948.42:  Inc Max Depth 
 JARR.                      No:  Jarring 
 LETM.      03.05.00 01-Feb-20:  Log End Time 
 LOST.hr                     0:  Lost Rig Time 
 LSTM.      15.50.00 28-Jan-20:  Log Start Time 
 MDCL.ppm             37500.00:  Mud Chlorides 
 MDES.     Inversion Oil/Synthetic:  Mud Desc 
 DFD .sg                  1.32:  Mud Density 
 MDMN.sg                  1.32:  Dens Mud Min 
 MDMX.sg                  1.32:  Dens Mud Max 
 MOIL.                      55:  Run Mud Oil % 
 MOWR.                   70:30:  Run Mud OWR 
 MSND.                       0:  Run Mud Sand % 
 MSOL.                      17:  Run Mud Solids% 
 DFV .spqt               80.00:  Mud Viscosity 
 MWOD.in                  4.75:  MWD Tool OD 
 MWSI.                      No:  Serv Intrp, MWD 
 OTIM.hr                121.28:  Time Operating 
 PCON.           Look Like New:  Pad Condition 
 PMAX.psia             6171.00:  Press Op, Max 
 PV  .cP                 30.00:  Mud PV 
 RUN .                     300:  Run Number 
 ROPA.m/hr                5.45:  ROP Avg 
 ROPN.m/hr                3.00:  ROP Min 
 ROPX.m/hr               15.00:  ROP Max 
 RPMA.rpm               130.00:  RPM Surface Avg 
 RPMN.rpm                80.00:  RPM Surface Min 
 RPMX.rpm               140.00:  RPM Surface Max 
 RRUN.                     300:  Rig Run Number 
 RTIM.hr                 13.50:  Time Reaming 
 SAZI.deg               133.93:  Azm, Start 
 SDEP.m                3878.01:  Start Depth 
 SIDD.                      No:  Serv Intrp, DD 
 SINC.deg                40.28:  Inc, Start 
 SPPA.psig             4983.00:  SPP Avg 
 SPPN.psig             4370.00:  SPP Min 
 SPPX.psig             5300.00:  SPP Max 
 STIM.      18.33.36 27-Jan-20:  Start Time 
 SVCS.                 DD, MWD:  Services 
 SVER.                    9.20:  Sperry Version 
 TDAT.m                 169.50:  Tot Depth Attmp 
 TDDF.                      No:  Trip for DD 
 TDLG.m                 169.50:  Tot Depth Loggd 
 TFF .                      No:  Trip for Fail 
 TQAA.f-kp               13.25:  Torque Abs Avg 
 TQAN.f-kp               12.00:  Torque Abs Min 
 TQAX.f-kp               14.00:  Torque Abs Max 
 TRRT.°/30m               0.70:  Turn Rotating 
 MRT .                     ADR:  Maximum Recorded Temperature 
 TTMX.degC               92.16:  Max Tool Temp 
 VS01.       AZ90598764G12V7D4:  Virtual Str1 SN 
 VS02.         AZ90571342R12C4:  Virtual Str2 SN 
 VS03.      AZ90580010N2L2X1C4:  Virtual Str3 SN 
 VS04.        AZ90522266O7X1C4:  Virtual Str4 SN 
 VS05.           AZ90598768F11:  Virtual Str5 SN 
 VS06.     AZ90580006XZ1W1X1C4:  Virtual Str6 SN 
 WBMN.klb                 8.00:  WOB Min 
 WITN.            Peter Wilson:  Customer Rep 
 WOBA.klb                 9.88:  WOB Avg 
 WOBX.klb                10.00:  WOB Max 
 YP  .lhf2               27.00:  Yield Point 
~Curve Information Block
#MNEM.UNIT                 API CODE     Curve Description
#---------               -----------    ---------------------------
 TIME.HHMMSS            00 000 000 000:  GT Time & Date
 GTDEPTH.m              00 000 000 000:  GT Depth
 GTPQH.psia             00 000 000 000:  GT HR Quartz Pressure
 GTTQ.degC              00 000 000 000:  GT Quartz Temperature
 GTTN.NONE              00 000 000 000:  GT Test Number
 GTET.sec               00 000 000 000:  GT Elapsed Test Time
 GTTVD.m                00 000 000 000:  GT True Vertical Depth
#Other Information
#
#WARRANTY: Halliburton will use its best efforts to furnish customers with 
#accurate information and interpretations that are part of, and incident to, the services 
#provided.  However, Halliburton cannot and does not warrant the accuracy 
#or correctness of such information and interpretations.  Under no circumstances should any 
#such information or interpretation be relied upon as the sole basis for any drilling, 
#completion, production, or financial decision or any procedure involving any risk to the 
#safety of any drilling venture, drilling rig or its crew or any other third party.  The 
#Customer has full responsibility for all drilling, completion and production operation.  
#Halliburton makes no representations or warranties, either expressed or 
#implied, including, but not limited to, the implied warranties of merchantability or fitness 
#for a particular purpose, with respect to the services rendered.  In no event will 
#Halliburton be liable for failure to obtain any particular results or for 
#any damages, including, but not limited to, indirect, special or consequential damages, 
#resulting from the use of any information or interpretation provided by Halliburton.
#
~A           TIME           GTDEPTH  GTPQH  GTTQ  GTTN  GTET   GTTVD  
# ...
   12:27:35.623.31-Jan-2020 3939.51 3003.40 82.94 6.00 253.06 2967.06
   12:27:35.823.31-Jan-2020 3939.51 3003.40 82.94 6.00 253.26 2967.06
   12:27:36.023.31-Jan-2020 3939.51 3009.43 82.94 6.00 253.46 2967.06
   12:27:36.223.31-Jan-2020 3939.51 3011.34 82.94 6.00 253.66 2967.06
   12:27:36.423.31-Jan-2020 3939.51 3011.81 82.94 6.00 253.86 2967.06
   12:27:36.623.31-Jan-2020 3939.51 3012.72 82.94 6.00 254.06 2967.06
   12:27:36.823.31-Jan-2020 3939.51 3012.72 82.94 6.00 254.26 2967.06
   12:27:37.023.31-Jan-2020 3939.51 3014.47 82.94 6.00 254.46 2967.06
   12:27:37.223.31-Jan-2020 3939.51 3015.02 82.94 6.00 254.66 2967.06
   12:27:37.423.31-Jan-2020 3939.51 3014.96 82.94 6.00 254.86 2967.06
   12:27:37.623.31-Jan-2020 3939.51 3015.58 82.94 6.00 255.06 2967.06
   12:27:37.823.31-Jan-2020 3939.51 3015.58 82.94 6.00 255.26 2967.06
   12:27:38.023.31-Jan-2020 3939.51 3016.49 82.94 6.00 255.46 2967.06
   12:27:38.223.31-Jan-2020 3939.51 3016.54 82.94 6.00 255.66 2967.06
   12:27:38.423.31-Jan-2020 3939.51 3016.69 82.94 6.00 255.86 2967.06
   12:27:38.623.31-Jan-2020 3939.51 3016.81 82.94 6.00 256.06 2967.06
   12:27:38.823.31-Jan-2020 3939.51 3016.81 82.94 6.00 256.26 2967.06
   12:27:39.023.31-Jan-2020 3939.51 3017.00 82.94 6.00 256.46 2967.06
   12:27:39.223.31-Jan-2020 3939.51 3017.17 82.94 6.00 256.66 2967.06
   12:27:39.423.31-Jan-2020 3939.51 3017.41 82.93 6.00 256.86 2967.06
   12:27:39.624.31-Jan-2020 3939.51 3017.51 82.93 6.00 257.06 2967.06
   12:27:39.824.31-Jan-2020 3939.51 3017.51 82.93 6.00 257.26 2967.06
   12:27:40.024.31-Jan-2020 3939.51 3017.14 82.93 6.00 257.46 2967.06
   12:27:40.224.31-Jan-2020 3939.51 3017.59 82.93 6.00 257.66 2967.06
   12:27:40.424.31-Jan-2020 3939.51 3017.88 82.93 6.00 257.86 2967.06
   12:27:40.624.31-Jan-2020 3939.51 3017.92 82.93 6.00 258.06 2967.06
   12:27:40.824.31-Jan-2020 3939.51 3017.92 82.93 6.00 258.26 2967.06
   12:27:41.024.31-Jan-2020 3939.51 3017.97 82.93 6.00 258.46 2967.06
   12:27:41.224.31-Jan-2020 3939.51 3018.06 82.93 6.00 258.66 2967.06
   12:27:41.424.31-Jan-2020 3939.51 3017.57 82.93 6.00 258.86 2967.06
   12:27:41.624.31-Jan-2020 3939.51 3018.13 82.93 6.00 259.06 2967.06
   12:27:41.824.31-Jan-2020 3939.51 3018.13 82.93 6.00 259.26 2967.06
   12:27:42.024.31-Jan-2020 3939.51 3018.38 82.93 6.00 259.46 2967.06
   12:27:42.224.31-Jan-2020 3939.51 3018.34 82.93 6.00 259.66 2967.06
   12:27:42.424.31-Jan-2020 3939.51 3018.28 82.93 6.00 259.86 2967.06
   12:27:42.624.31-Jan-2020 3939.51 3018.30 82.93 6.00 260.06 2967.06
   12:27:42.824.31-Jan-2020 3939.51 3018.30 82.93 6.00 260.26 2967.06
   12:27:43.024.31-Jan-2020 3939.51 3018.45 82.93 6.00 260.46 2967.06
   12:27:43.224.31-Jan-2020 3939.51 3018.49 82.93 6.00 260.66 2967.06
   12:27:43.424.31-Jan-2020 3939.51 3018.38 82.93 6.00 260.86 2967.06
   12:27:43.624.31-Jan-2020 3939.51 3018.36 82.93 6.00 261.06 2967.06
   12:27:43.825.31-Jan-2020 3939.51 3018.36 82.93 6.00 261.26 2967.06
   12:27:44.025.31-Jan-2020 3939.51 3018.42 82.93 6.00 261.46 2967.06
   12:27:44.225.31-Jan-2020 3939.51 3018.59 82.93 6.00 261.66 2967.06
   12:27:44.425.31-Jan-2020 3939.51 3018.70 82.93 6.00 261.86 2967.06
   12:27:44.625.31-Jan-2020 3939.51 3018.68 82.93 6.00 262.06 2967.06
   12:27:44.825.31-Jan-2020 3939.51 3018.68 82.93 6.00 262.26 2967.06
   12:27:45.025.31-Jan-2020 3939.51 3018.61 82.93 6.00 262.46 2967.06
   12:27:45.225.31-Jan-2020 3939.51 3018.31 82.93 6.00 262.66 2967.06
   12:27:45.425.31-Jan-2020 3939.51 3018.66 82.93 6.00 262.86 2967.06
   12:27:45.625.31-Jan-2020 3939.51 3018.84 82.93 6.00 263.06 2967.06
   12:27:45.825.31-Jan-2020 3939.51 3018.84 82.93 6.00 263.26 2967.06
   12:27:46.025.31-Jan-2020 3939.51 3018.94 82.92 6.00 263.46 2967.06
   12:27:46.225.31-Jan-2020 3939.51 3018.77 82.92 6.00 263.66 2967.06
   12:27:46.425.31-Jan-2020 3939.51 3018.83 82.92 6.00 263.86 2967.06
   12:27:46.625.31-Jan-2020 3939.51 3018.80 82.92 6.00 264.06 2967.06
   12:27:46.825.31-Jan-2020 3939.51 3018.80 82.92 6.00 264.26 2967.06
   12:27:47.025.31-Jan-2020 3939.51 3018.88 82.92 6.00 264.46 2967.06
   12:27:47.225.31-Jan-2020 3939.51 3018.86 82.92 6.00 264.66 2967.06
   12:27:47.425.31-Jan-2020 3939.51 3018.86 82.92 6.00 264.86 2967.06
   12:27:47.625.31-Jan-2020 3939.51 3018.85 82.92 6.00 265.06 2967.06
   12:27:47.825.31-Jan-2020 3939.51 3018.85 82.92 6.00 265.26 2967.06
   12:27:48.026.31-Jan-2020 3939.51 3018.93 82.92 6.00 265.46 2967.06
   12:27:48.226.31-Jan-2020 3939.51 3019.20 82.92 6.00 265.66 2967.06
   12:27:48.426.31-Jan-2020 3939.51 3018.56 82.92 6.00 265.86 2967.06
   12:27:48.626.31-Jan-2020 3939.51 3018.91 82.92 6.00 266.06 2967.06
   12:27:48.826.31-Jan-2020 3939.51 3018.91 82.92 6.00 266.26 2967.06
   12:27:49.026.31-Jan-2020 3939.51 3018.99 82.92 6.00 266.46 2967.06
   12:27:49.226.31-Jan-2020 3939.51 3019.15 82.92 6.00 266.66 2967.06
   12:27:49.426.31-Jan-2020 3939.51 3018.62 82.92 6.00 266.86 2967.06
   12:27:49.626.31-Jan-2020 3939.51 3019.05 82.92 6.00 267.06 2967.06
   12:27:49.826.31-Jan-2020 3939.51 3019.05 82.92 6.00 267.26 2967.06
   12:27:50.026.31-Jan-2020 3939.51 3019.25 82.92 6.00 267.46 2967.06
   12:27:50.226.31-Jan-2020 3939.51 3019.20 82.92 6.00 267.66 2967.06
   12:27:50.426.31-Jan-2020 3939.51 3019.24 82.92 6.00 267.86 2967.06
   12:27:50.626.31-Jan-2020 3939.51 3018.71 82.92 6.00 268.06 2967.06
   12:27:50.826.31-Jan-2020 3939.51 3018.71 82.92 6.00 268.26 2967.06
   12:27:51.026.31-Jan-2020 3939.51 3019.14 82.92 6.00 268.46 2967.06
   12:27:51.226.31-Jan-2020 3939.51 3019.19 82.92 6.00 268.66 2967.06
   12:27:51.426.31-Jan-2020 3939.51 3019.24 82.92 6.00 268.86 2967.06
   12:27:51.626.31-Jan-2020 3939.51 3019.22 82.91 6.00 269.06 2967.06
   12:27:51.826.31-Jan-2020 3939.51 3019.22 82.91 6.00 269.26 2967.06
   12:27:52.026.31-Jan-2020 3939.51 3018.99 82.91 6.00 269.46 2967.06
   12:27:52.226.31-Jan-2020 3939.51 3019.21 82.91 6.00 269.66 2967.06
   12:27:52.427.31-Jan-2020 3939.51 3019.30 82.91 6.00 269.86 2967.06
   12:27:52.627.31-Jan-2020 3939.51 3019.36 82.91 6.00 270.06 2967.06
   12:27:52.827.31-Jan-2020 3939.51 3019.36 82.91 6.00 270.26 2967.06
   12:27:53.027.31-Jan-2020 3939.51 3019.13 82.91 6.00 270.46 2967.06
   12:27:53.227.31-Jan-2020 3939.51 3019.26 82.91 6.00 270.66 2967.06
   12:27:53.427.31-Jan-2020 3939.51 3019.36 82.91 6.00 270.86 2967.06
   12:27:53.627.31-Jan-2020 3939.51 3019.50 82.91 6.00 271.06 2967.06
   12:27:53.827.31-Jan-2020 3939.51 3019.50 82.91 6.00 271.26 2967.06
   12:27:54.027.31-Jan-2020 3939.51 3019.31 82.91 6.00 271.46 2967.06
   12:27:54.227.31-Jan-2020 3939.51 3019.29 82.91 6.00 271.66 2967.06
   12:27:54.427.31-Jan-2020 3939.51 3019.23 82.91 6.00 271.86 2967.06
   12:27:54.627.31-Jan-2020 3939.51 3019.20 82.91 6.00 272.06 2967.06
   12:27:54.827.31-Jan-2020 3939.51 3019.20 82.91 6.00 272.26 2967.06
   12:27:55.027.31-Jan-2020 3939.51 3019.29 82.91 6.00 272.46 2967.06
   12:27:55.227.31-Jan-2020 3939.51 3019.26 82.91 6.00 272.66 2967.06
   12:27:55.427.31-Jan-2020 3939.51 3019.19 82.91 6.00 272.86 2967.06
   12:27:55.627.31-Jan-2020 3939.51 3019.21 82.91 6.00 273.06 2967.06
   12:27:55.827.31-Jan-2020 3939.51 3019.21 82.91 6.00 273.26 2967.06
   12:27:56.027.31-Jan-2020 3939.51 3019.25 82.91 6.00 273.46 2967.06
   12:27:56.227.31-Jan-2020 3939.51 3019.32 82.91 6.00 273.66 2967.06
   12:27:56.427.31-Jan-2020 3939.51 3019.22 82.90 6.00 273.86 2967.06
   12:27:56.628.31-Jan-2020 3939.51 3019.02 82.90 6.00 274.06 2967.06
   12:27:56.828.31-Jan-2020 3939.51 3019.02 82.90 6.00 274.26 2967.06
   12:27:57.028.31-Jan-2020 3939.51 3019.31 82.90 6.00 274.46 2967.06
   12:27:57.228.31-Jan-2020 3939.51 3019.37 82.90 6.00 274.66 2967.06
   12:27:57.428.31-Jan-2020 3939.51 3019.36 82.90 6.00 274.86 2967.06
   12:27:57.628.31-Jan-2020 3939.51 3019.36 82.90 6.00 275.06 2967.06
   12:27:57.828.31-Jan-2020 3939.51 3019.36 82.90 6.00 275.26 2967.06
   12:27:58.028.31-Jan-2020 3939.51 3019.30 82.90 6.00 275.46 2967.06
   12:27:58.228.31-Jan-2020 3939.51 3019.28 82.90 6.00 275.66 2967.06
   12:27:58.428.31-Jan-2020 3939.51 3019.32 82.90 6.00 275.86 2967.06
