~Version Information
 VERS.                  2.0:   CWLS log ASCII Standard -VERSION 2.0
 WRAP.                   NO:   One line per depth step
~Well Information Block
#MNEM.UNIT     VALUE/NAME     DESCRIPTION
#---------     -----------    ---------------------------
 STRT.S             00:13:57 01-Feb-20: START TIME 00:13:57 01-Feb-20
 STOP.S             00:20:28 01-Feb-20: STOP TIME  00:20:28 01-Feb-20
 STEP.S                   0.00: STEP TIME
 NULL.                 -999.25: NULL VALUE
 DFWT.                        :  DIST FWL TEXT
 DFST.                        :  DIST FSL TEXT
 DMF .             Drill Floor:  DRILL MEAS FROM
 STIM.      09.30.00 26-Dec-19:  START TIME
 DATE.      08.00.00 20-Jan-20:  END TIME
 SPUD.               23-Nov-19:  SPUD DATE
 NREF.                    Grid:  NORTH REFERENCE
 HPTY.       Minimum Curvature:  HOLE POS TYPE
 DMOD.             Drill Model:  DRILL MOD DESC
 SVYD.                  Survey:  SURVEY DESC
 ILTD.               Lithology:  INTERP LTH DESC
 FTOP.          Formation Tops:  FORM TOPS DESC
 SON .        AZ-XX-0906192647:  JOB NUMBER
 WTYP.                Deviated:  WELL TYPE
 COMP.     BP Exploration (Caspian Sea) Ltd:  COMPANY
 BASE.              Azerbaijan:  LOGGING EQUIPMENT BASE LOCATION
 REGN.                 Eurasia:  REGION
 FLD .                     ACG:  FIELD NAME
 SRVC.              KCA Deutag:  CONTRACTOR
 MWDS.                    Baku:  MWD SHOP
 WELL.     A10 (Slot 20) - SCP:  WELL NAME
 JOBN.        AZ-XX-0906192647:  JOB TICKET NUMB
 RIG .                 Chirag1:  RIG NAME
 DCON.     Halliburton Sperry Drilling:  DIRECTNL CONTR
 UNIT.                     N/A:  LOGGING EQUIPMENT ID
 PDAT.          Mean Sea Level:  PERMANENT DATUM
 MDS .        Operator Entered:  MAG DATA SOURCE
 CTRY.              Azerbaijan:  COUNTRY NAME
 UWI .            /AZE00000090:  UNIQUE WELL IDENTIFIER
 API .            /AZE00000090:  API NUMBER
 CNTY.                        :  COUNTY
 PROV.                        :  PROVINCE
 STAT.                        :  STATE
 LOC .                        :  LOCATION
 LMF .             Drill Floor:  LOG MEASURED FROM
 TVDS.m                  36.60:  TVDSS CORRECTN
 LATI.deg                40.08:  LATITUDE
 LONG.deg                51.24:  LONGITUDE
 WHNS.m                  -7.94:  WELL HEAD N/S
 WHEW.m                   1.56:  WELL HEAD E/W
 UTMX.m              520429.26:  UTM X
 UTMY.m             4438973.87:  UTM Y
 DFWL.m                   0.00:  DISTANCE FWL
 DFSL.m                   0.00:  DISTANCE FSL
 SDEP.m                1455.00:  START DEPTH
 TDD .m                4047.51:  TOTAL DEPTH (DRILLER)
 VSDR.deg               112.75:  VERT SEC DIRECT
 GVFD.g                   1.00:  GRAVITY FIELD
 MFLD.nT              50261.00:  MAGNETIC FIELD
 MDIP.deg                59.52:  MAGNETIC DIP
 MDEC.deg                 6.42:  MAGNETIC DECL
 GRDC.deg                 0.17:  GRID CORRECTION
 AZTC.deg                 6.25:  AZM TOTAL CORR
 EPD .m                   0.00:  ELEVATION
 EGL .m                   0.00:  GROUND ELEVATION
 WDMS.m                 121.00:  WD ELEV
 APD .m                  36.60:  DEPTH ABOVE PD
 AGAP.m                  36.60:  AIR GAP
 VSEW.m                   1.56:  VERT SEC E/W
 VSNS.m                  -7.94:  VERT SEC N/S
 DEP .m                1140.01:  DEPTH
 EKB .m                  36.60:  KB ELEVATION
 EDF .m                  36.60:  DF ELEVATION
 TDL .m                 169.50:  TOTAL DEPTH (LOGGER)
 CSGD.m                3875.01:  CASING BOTTOM (DRILLER)
 CSGL.m                3875.01:  CASING BOTTOM (LOGGER)
 CSGS.in                  7.63:  CASING SIZE
 CSGW.lbpf               23.50:  CASING WEIGHT
 VSC .                       0:  VS TO CLOSURE
 MAGU.                 1849206:  MAGUTM CHECKSUM
~Parameter Information Block
#MNEM.UNIT       Value        Description
#---------     -----------    ---------------------------
 AV  .mps                 1.90:  Ann Velocity 
 AVMX.mps                 2.54:  Max Ann Veloc 
 AZIF.deg               137.03:  Azm, Final 
 BHAT.        Rotary Steerable:  BHA Type 
 BREV.rev             23610.00:  Rev Bit Total 
 BROT.°/30m               0.80:  Build Rotating 
 BS  .in                  6.50:  Bit Size 
 BTPL.psig              110.00:  Bit Press Loss 
 CABU.                     Yes:  Customer Abuse 
 TCS .hr                 70.51:  Time Ciculation Ended 
 CV  .mps                 1.41:  Crit Velocity 
 CVMX.mps                 1.42:  Max Crit Veloc 
 DD1 .         Intigam Rahimov:  Direct Drillr 1 
 DD2 .          Rashad Gojayev:  Direct Drillr 2 
 DDSV.               Geo-Pilot:  DD Service 
 DEFF.%                 100.00:  % Det Eff 
 DLRX.°/30m               1.44:  Dogleg Rot Max 
 DLSO.°/30m               0.00:  Dogleg Oriented 
 DLSX.°/30m               0.00:  Dogleg Str Max 
 DRET.      03.05.00 01-Feb-20:  Drill End Time 
 DRST.      15.50.00 28-Jan-20:  Drill Start Tim 
 DTIM.hr                 24.70:  Time Drilling 
 EDEP.m                4047.51:  End Depth 
 ENG1.           Eldar Hajiyev:  Engineer 1 
 ENG2.          Rasim Hashimov:  Engineer 2 
 ENG3.          Rustam Safarov:  Engineer 3 
 ETIM.      22.00.00 01-Feb-20:  End Time 
 FLOI.gpm               370.00:  Flow In 
 FLON.gpm               300.00:  Flow In Min 
 FLOS.cptm                0.00:  Fluid Loss 
 FLOX.gpm               400.00:  Flow In Max 
 FTRO.       Formation Presure:  FTWD Run Obj 
 HFLO.                      No:  High Flow 
 HPRE.                      No:  High Pressure 
 HTEM.                      No:  High Temp 
 HYDO.m                   2.50:  Hydro Offset 
 IFIN.deg                39.54:  Inc, Final 
 IMAX.deg                41.14:  Inc Max 
 IMIN.deg                39.81:  Inc Min 
 IMND.m                4005.21:  Inc Min Depth 
 IMXD.m                3948.42:  Inc Max Depth 
 JARR.                      No:  Jarring 
 LETM.      03.05.00 01-Feb-20:  Log End Time 
 LOST.hr                     0:  Lost Rig Time 
 LSTM.      15.50.00 28-Jan-20:  Log Start Time 
 MDCL.ppm             37500.00:  Mud Chlorides 
 MDES.     Inversion Oil/Synthetic:  Mud Desc 
 DFD .sg                  1.32:  Mud Density 
 MDMN.sg                  1.32:  Dens Mud Min 
 MDMX.sg                  1.32:  Dens Mud Max 
 MOIL.                      55:  Run Mud Oil % 
 MOWR.                   70:30:  Run Mud OWR 
 MSND.                       0:  Run Mud Sand % 
 MSOL.                      17:  Run Mud Solids% 
 DFV .spqt               80.00:  Mud Viscosity 
 MWOD.in                  4.75:  MWD Tool OD 
 MWSI.                      No:  Serv Intrp, MWD 
 OTIM.hr                121.28:  Time Operating 
 PCON.           Look Like New:  Pad Condition 
 PMAX.psia             6171.00:  Press Op, Max 
 PV  .cP                 30.00:  Mud PV 
 RUN .                     300:  Run Number 
 ROPA.m/hr                5.45:  ROP Avg 
 ROPN.m/hr                3.00:  ROP Min 
 ROPX.m/hr               15.00:  ROP Max 
 RPMA.rpm               130.00:  RPM Surface Avg 
 RPMN.rpm                80.00:  RPM Surface Min 
 RPMX.rpm               140.00:  RPM Surface Max 
 RRUN.                     300:  Rig Run Number 
 RTIM.hr                 13.50:  Time Reaming 
 SAZI.deg               133.93:  Azm, Start 
 SDEP.m                3878.01:  Start Depth 
 SIDD.                      No:  Serv Intrp, DD 
 SINC.deg                40.28:  Inc, Start 
 SPPA.psig             4983.00:  SPP Avg 
 SPPN.psig             4370.00:  SPP Min 
 SPPX.psig             5300.00:  SPP Max 
 STIM.      18.33.36 27-Jan-20:  Start Time 
 SVCS.                 DD, MWD:  Services 
 SVER.                    9.20:  Sperry Version 
 TDAT.m                 169.50:  Tot Depth Attmp 
 TDDF.                      No:  Trip for DD 
 TDLG.m                 169.50:  Tot Depth Loggd 
 TFF .                      No:  Trip for Fail 
 TQAA.f-kp               13.25:  Torque Abs Avg 
 TQAN.f-kp               12.00:  Torque Abs Min 
 TQAX.f-kp               14.00:  Torque Abs Max 
 TRRT.°/30m               0.70:  Turn Rotating 
 MRT .                     ADR:  Maximum Recorded Temperature 
 TTMX.degC               92.16:  Max Tool Temp 
 VS01.       AZ90598764G12V7D4:  Virtual Str1 SN 
 VS02.         AZ90571342R12C4:  Virtual Str2 SN 
 VS03.      AZ90580010N2L2X1C4:  Virtual Str3 SN 
 VS04.        AZ90522266O7X1C4:  Virtual Str4 SN 
 VS05.           AZ90598768F11:  Virtual Str5 SN 
 VS06.     AZ90580006XZ1W1X1C4:  Virtual Str6 SN 
 WBMN.klb                 8.00:  WOB Min 
 WITN.            Peter Wilson:  Customer Rep 
 WOBA.klb                 9.88:  WOB Avg 
 WOBX.klb                10.00:  WOB Max 
 YP  .lhf2               27.00:  Yield Point 
~Curve Information Block
#MNEM.UNIT                 API CODE     Curve Description
#---------               -----------    ---------------------------
 TIME.HHMMSS            00 000 000 000:  GT Time & Date
 GTDEPTH.m              00 000 000 000:  GT Depth
 GTPQH.psia             00 000 000 000:  GT HR Quartz Pressure
 GTTQ.degC              00 000 000 000:  GT Quartz Temperature
 GTTN.NONE              00 000 000 000:  GT Test Number
 GTET.sec               00 000 000 000:  GT Elapsed Test Time
 GTTVD.m                00 000 000 000:  GT True Vertical Depth
#Other Information
#
#WARRANTY: Halliburton will use its best efforts to furnish customers with 
#accurate information and interpretations that are part of, and incident to, the services 
#provided.  However, Halliburton cannot and does not warrant the accuracy 
#or correctness of such information and interpretations.  Under no circumstances should any 
#such information or interpretation be relied upon as the sole basis for any drilling, 
#completion, production, or financial decision or any procedure involving any risk to the 
#safety of any drilling venture, drilling rig or its crew or any other third party.  The 
#Customer has full responsibility for all drilling, completion and production operation.  
#Halliburton makes no representations or warranties, either expressed or 
#implied, including, but not limited to, the implied warranties of merchantability or fitness 
#for a particular purpose, with respect to the services rendered.  In no event will 
#Halliburton be liable for failure to obtain any particular results or for 
#any damages, including, but not limited to, indirect, special or consequential damages, 
#resulting from the use of any information or interpretation provided by Halliburton.
#
~A           TIME           GTDEPTH  GTPQH  GTTQ  GTTN   GTET   GTTVD  
   00:13:57.708.01-Feb-2020 3989.40 6007.90 87.71 10.00   0.00 3004.80
   00:13:57.908.01-Feb-2020 3989.40 6007.90 87.71 10.00   0.20 3004.80
   00:13:58.108.01-Feb-2020 3989.40 6006.22 87.70 10.00   0.40 3004.80
   00:13:58.308.01-Feb-2020 3989.40 6005.26 87.70 10.00   0.60 3004.80
   00:13:58.508.01-Feb-2020 3989.40 6000.23 87.70 10.00   0.80 3004.80
   00:13:58.708.01-Feb-2020 3989.40 6001.72 87.70 10.00   1.00 3004.80
   00:13:58.908.01-Feb-2020 3989.40 6001.72 87.70 10.00   1.20 3004.80
   00:13:59.108.01-Feb-2020 3989.40 6002.05 87.70 10.00   1.40 3004.80
   00:13:59.308.01-Feb-2020 3989.40 6005.10 87.70 10.00   1.60 3004.80
   00:13:59.508.01-Feb-2020 3989.40 6004.67 87.70 10.00   1.80 3004.80
   00:13:59.708.01-Feb-2020 3989.40 6000.21 87.70 10.00   2.00 3004.80
   00:13:59.908.01-Feb-2020 3989.40 6000.21 87.70 10.00   2.20 3004.80
   00:14:00.108.01-Feb-2020 3989.40 6003.79 87.70 10.00   2.40 3004.80
   00:14:00.308.01-Feb-2020 3989.40 6007.11 87.70 10.00   2.60 3004.80
   00:14:00.508.01-Feb-2020 3989.40 6007.96 87.69 10.00   2.80 3004.80
   00:14:00.708.01-Feb-2020 3989.40 6007.63 87.69 10.00   3.00 3004.80
   00:14:00.908.01-Feb-2020 3989.40 6007.63 87.69 10.00   3.20 3004.80
   00:14:01.108.01-Feb-2020 3989.40 6007.20 87.69 10.00   3.40 3004.80
   00:14:01.308.01-Feb-2020 3989.40 6008.04 87.69 10.00   3.60 3004.80
   00:14:01.508.01-Feb-2020 3989.40 6011.04 87.69 10.00   3.80 3004.80
   00:14:01.708.01-Feb-2020 3989.40 6005.34 87.69 10.00   4.00 3004.80
   00:14:01.908.01-Feb-2020 3989.40 6005.34 87.69 10.00   4.20 3004.80
   00:14:02.108.01-Feb-2020 3989.40 6009.52 87.69 10.00   4.40 3004.80
   00:14:02.308.01-Feb-2020 3989.40 6009.70 87.69 10.00   4.60 3004.80
   00:14:02.508.01-Feb-2020 3989.40 6010.65 87.68 10.00   4.80 3004.80
   00:14:02.708.01-Feb-2020 3989.40 6010.18 87.68 10.00   5.00 3004.80
   00:14:02.908.01-Feb-2020 3989.40 6010.18 87.68 10.00   5.20 3004.80
   00:14:03.108.01-Feb-2020 3989.40 6006.06 87.68 10.00   5.40 3004.80
   00:14:03.308.01-Feb-2020 3989.40 6006.83 87.68 10.00   5.60 3004.80
   00:14:03.508.01-Feb-2020 3989.40 6008.85 87.68 10.00   5.80 3004.80
   00:14:03.708.01-Feb-2020 3989.40 6009.04 87.68 10.00   6.00 3004.80
   00:14:03.908.01-Feb-2020 3989.40 6009.04 87.68 10.00   6.20 3004.80
   00:14:04.108.01-Feb-2020 3989.40 6008.20 87.68 10.00   6.40 3004.80
   00:14:04.308.01-Feb-2020 3989.40 6006.67 87.68 10.00   6.60 3004.80
   00:14:04.508.01-Feb-2020 3989.40 6005.24 87.68 10.00   6.80 3004.80
   00:14:04.709.01-Feb-2020 3989.40 6007.87 87.67 10.00   7.00 3004.80
   00:14:04.909.01-Feb-2020 3989.40 6007.87 87.67 10.00   7.20 3004.80
   00:14:05.109.01-Feb-2020 3989.40 6005.58 87.67 10.00   7.40 3004.80
   00:14:05.309.01-Feb-2020 3989.40 6006.69 87.67 10.00   7.60 3004.80
   00:14:05.509.01-Feb-2020 3989.40 6004.16 87.67 10.00   7.80 3004.80
   00:14:05.709.01-Feb-2020 3989.40 6005.05 87.67 10.00   8.00 3004.80
   00:14:05.909.01-Feb-2020 3989.40 6005.05 87.67 10.00   8.20 3004.80
   00:14:06.109.01-Feb-2020 3989.40 6006.12 87.67 10.00   8.40 3004.80
   00:14:06.309.01-Feb-2020 3989.40 6008.39 87.67 10.00   8.60 3004.80
   00:14:06.509.01-Feb-2020 3989.40 6007.91 87.67 10.00   8.80 3004.80
   00:14:06.709.01-Feb-2020 3989.40 6007.16 87.67 10.00   9.00 3004.80
   00:14:06.909.01-Feb-2020 3989.40 6007.16 87.67 10.00   9.20 3004.80
   00:14:07.109.01-Feb-2020 3989.40 6010.28 87.66 10.00   9.40 3004.80
   00:14:07.309.01-Feb-2020 3989.40 6009.97 87.66 10.00   9.60 3004.80
   00:14:07.509.01-Feb-2020 3989.40 6005.95 87.66 10.00   9.80 3004.80
   00:14:07.709.01-Feb-2020 3989.40 6008.44 87.66 10.00  10.00 3004.80
   00:14:07.909.01-Feb-2020 3989.40 6008.44 87.66 10.00  10.20 3004.80
   00:14:08.109.01-Feb-2020 3989.40 6011.58 87.66 10.00  10.40 3004.80
   00:14:08.309.01-Feb-2020 3989.40 6010.70 87.66 10.00  10.60 3004.80
   00:14:08.509.01-Feb-2020 3989.40 6012.07 87.66 10.00  10.80 3004.80
   00:14:08.709.01-Feb-2020 3989.40 6012.12 87.66 10.00  11.00 3004.80
   00:14:08.909.01-Feb-2020 3989.40 6012.12 87.66 10.00  11.20 3004.80
   00:14:09.109.01-Feb-2020 3989.40 6012.75 87.65 10.00  11.40 3004.80
   00:14:09.309.01-Feb-2020 3989.40 6011.55 87.65 10.00  11.60 3004.80
   00:14:09.509.01-Feb-2020 3989.40 6011.70 87.65 10.00  11.80 3004.80
   00:14:09.709.01-Feb-2020 3989.40 6012.91 87.65 10.00  12.00 3004.80
   00:14:09.909.01-Feb-2020 3989.40 6012.91 87.65 10.00  12.20 3004.80
   00:14:10.109.01-Feb-2020 3989.40 6012.13 87.65 10.00  12.40 3004.80
   00:14:10.309.01-Feb-2020 3989.40 6012.19 87.65 10.00  12.60 3004.80
   00:14:10.509.01-Feb-2020 3989.40 6011.91 87.65 10.00  12.80 3004.80
   00:14:10.709.01-Feb-2020 3989.40 6012.98 87.65 10.00  13.00 3004.80
   00:14:10.909.01-Feb-2020 3989.40 6012.98 87.65 10.00  13.20 3004.80
   00:14:11.109.01-Feb-2020 3989.40 6009.02 87.65 10.00  13.40 3004.80
   00:14:11.309.01-Feb-2020 3989.40 6009.29 87.64 10.00  13.60 3004.80
   00:14:11.509.01-Feb-2020 3989.40 6011.12 87.64 10.00  13.80 3004.80
   00:14:11.709.01-Feb-2020 3989.40 6011.46 87.64 10.00  14.00 3004.80
   00:14:11.909.01-Feb-2020 3989.40 6011.46 87.64 10.00  14.20 3004.80
   00:14:12.109.01-Feb-2020 3989.40 6011.46 87.64 10.00  14.40 3004.80
   00:14:12.309.01-Feb-2020 3989.40 6009.98 87.64 10.00  14.60 3004.80
   00:14:12.509.01-Feb-2020 3989.40 6009.96 87.64 10.00  14.80 3004.80
   00:14:12.709.01-Feb-2020 3989.40 6011.61 87.64 10.00  15.00 3004.80
   00:14:12.909.01-Feb-2020 3989.40 6011.61 87.64 10.00  15.20 3004.80
   00:14:13.109.01-Feb-2020 3989.40 6012.54 87.64 10.00  15.40 3004.80
   00:14:13.309.01-Feb-2020 3989.40 6011.38 87.64 10.00  15.60 3004.80
   00:14:13.509.01-Feb-2020 3989.40 6007.49 87.63 10.00  15.80 3004.80
   00:14:13.709.01-Feb-2020 3989.40 6009.17 87.63 10.00  16.00 3004.80
   00:14:13.909.01-Feb-2020 3989.40 6009.17 87.63 10.00  16.20 3004.80
   00:14:14.109.01-Feb-2020 3989.40 6013.29 87.63 10.00  16.40 3004.80
   00:14:14.309.01-Feb-2020 3989.40 6013.06 87.63 10.00  16.60 3004.80
   00:14:14.509.01-Feb-2020 3989.40 6012.96 87.63 10.00  16.80 3004.80
   00:14:14.709.01-Feb-2020 3989.40 6008.72 87.63 10.00  17.00 3004.80
   00:14:14.909.01-Feb-2020 3989.40 6008.72 87.63 10.00  17.20 3004.80
   00:14:15.109.01-Feb-2020 3989.40 6012.11 87.63 10.00  17.40 3004.80
   00:14:15.309.01-Feb-2020 3989.40 6013.37 87.63 10.00  17.60 3004.80
   00:14:15.509.01-Feb-2020 3989.40 6007.01 87.63 10.00  17.80 3004.80
   00:14:15.709.01-Feb-2020 3989.40 6011.16 87.63 10.00  18.00 3004.80
   00:14:15.909.01-Feb-2020 3989.40 6011.16 87.63 10.00  18.20 3004.80
   00:14:16.110.01-Feb-2020 3989.40 6013.08 87.62 10.00  18.40 3004.80
   00:14:16.310.01-Feb-2020 3989.40 6021.05 87.62 10.00  18.60 3004.80
   00:14:16.510.01-Feb-2020 3989.40 6073.79 87.62 10.00  18.80 3004.80
   00:14:16.710.01-Feb-2020 3989.40 6201.64 87.62 10.00  19.00 3004.80
   00:14:16.910.01-Feb-2020 3989.40 6201.64 87.62 10.00  19.20 3004.80
   00:14:17.110.01-Feb-2020 3989.40 6545.27 87.62 10.00  19.40 3004.80
   00:14:17.310.01-Feb-2020 3989.40 6626.47 87.62 10.00  19.60 3004.80
   00:14:17.510.01-Feb-2020 3989.40 6615.90 87.62 10.00  19.80 3004.80
   00:14:17.710.01-Feb-2020 3989.40 6645.43 87.62 10.00  20.00 3004.80
   00:14:17.910.01-Feb-2020 3989.40 6645.43 87.62 10.00  20.20 3004.80
   00:14:18.110.01-Feb-2020 3989.40 6691.50 87.61 10.00  20.40 3004.80
   00:14:18.310.01-Feb-2020 3989.40 6730.48 87.61 10.00  20.60 3004.80
   00:14:18.510.01-Feb-2020 3989.40 6742.47 87.61 10.00  20.80 3004.80
   00:14:18.710.01-Feb-2020 3989.40 6756.96 87.61 10.00  21.00 3004.80
   00:14:18.910.01-Feb-2020 3989.40 6756.96 87.61 10.00  21.20 3004.80
   00:14:19.110.01-Feb-2020 3989.40 6743.53 87.61 10.00  21.40 3004.80
   00:14:19.310.01-Feb-2020 3989.40 6763.09 87.61 10.00  21.60 3004.80
   00:14:19.510.01-Feb-2020 3989.40 6771.70 87.61 10.00  21.80 3004.80
   00:14:19.710.01-Feb-2020 3989.40 6791.21 87.61 10.00  22.00 3004.80
   00:14:19.910.01-Feb-2020 3989.40 6791.21 87.61 10.00  22.20 3004.80
   00:14:20.110.01-Feb-2020 3989.40 6853.18 87.61 10.00  22.40 3004.80
