~Version Information
 VERS.                  2.0:   CWLS log ASCII Standard -VERSION 2.0
 WRAP.                   NO:   One line per depth step
~Well Information Block
#MNEM.UNIT     VALUE/NAME     DESCRIPTION
#---------     -----------    ---------------------------
 STRT.S             18:23:56 31-Jan-20: START TIME 18:23:56 31-Jan-20
 STOP.S             18:30:28 31-Jan-20: STOP TIME  18:30:28 31-Jan-20
 STEP.S                   0.00: STEP TIME
 NULL.                 -999.25: NULL VALUE
 DFWT.                        :  DIST FWL TEXT
 DFST.                        :  DIST FSL TEXT
 DMF .             Drill Floor:  DRILL MEAS FROM
 STIM.      09.30.00 26-Dec-19:  START TIME
 DATE.      08.00.00 20-Jan-20:  END TIME
 SPUD.               23-Nov-19:  SPUD DATE
 NREF.                    Grid:  NORTH REFERENCE
 HPTY.       Minimum Curvature:  HOLE POS TYPE
 DMOD.             Drill Model:  DRILL MOD DESC
 SVYD.                  Survey:  SURVEY DESC
 ILTD.               Lithology:  INTERP LTH DESC
 FTOP.          Formation Tops:  FORM TOPS DESC
 SON .        AZ-XX-0906192647:  JOB NUMBER
 WTYP.                Deviated:  WELL TYPE
 COMP.     BP Exploration (Caspian Sea) Ltd:  COMPANY
 BASE.              Azerbaijan:  LOGGING EQUIPMENT BASE LOCATION
 REGN.                 Eurasia:  REGION
 FLD .                     ACG:  FIELD NAME
 SRVC.              KCA Deutag:  CONTRACTOR
 MWDS.                    Baku:  MWD SHOP
 WELL.     A10 (Slot 20) - SCP:  WELL NAME
 JOBN.        AZ-XX-0906192647:  JOB TICKET NUMB
 RIG .                 Chirag1:  RIG NAME
 DCON.     Halliburton Sperry Drilling:  DIRECTNL CONTR
 UNIT.                     N/A:  LOGGING EQUIPMENT ID
 PDAT.          Mean Sea Level:  PERMANENT DATUM
 MDS .        Operator Entered:  MAG DATA SOURCE
 CTRY.              Azerbaijan:  COUNTRY NAME
 UWI .            /AZE00000090:  UNIQUE WELL IDENTIFIER
 API .            /AZE00000090:  API NUMBER
 CNTY.                        :  COUNTY
 PROV.                        :  PROVINCE
 STAT.                        :  STATE
 LOC .                        :  LOCATION
 LMF .             Drill Floor:  LOG MEASURED FROM
 TVDS.m                  36.60:  TVDSS CORRECTN
 LATI.deg                40.08:  LATITUDE
 LONG.deg                51.24:  LONGITUDE
 WHNS.m                  -7.94:  WELL HEAD N/S
 WHEW.m                   1.56:  WELL HEAD E/W
 UTMX.m              520429.26:  UTM X
 UTMY.m             4438973.87:  UTM Y
 DFWL.m                   0.00:  DISTANCE FWL
 DFSL.m                   0.00:  DISTANCE FSL
 SDEP.m                1455.00:  START DEPTH
 TDD .m                4047.51:  TOTAL DEPTH (DRILLER)
 VSDR.deg               112.75:  VERT SEC DIRECT
 GVFD.g                   1.00:  GRAVITY FIELD
 MFLD.nT              50261.00:  MAGNETIC FIELD
 MDIP.deg                59.52:  MAGNETIC DIP
 MDEC.deg                 6.42:  MAGNETIC DECL
 GRDC.deg                 0.17:  GRID CORRECTION
 AZTC.deg                 6.25:  AZM TOTAL CORR
 EPD .m                   0.00:  ELEVATION
 EGL .m                   0.00:  GROUND ELEVATION
 WDMS.m                 121.00:  WD ELEV
 APD .m                  36.60:  DEPTH ABOVE PD
 AGAP.m                  36.60:  AIR GAP
 VSEW.m                   1.56:  VERT SEC E/W
 VSNS.m                  -7.94:  VERT SEC N/S
 DEP .m                1140.01:  DEPTH
 EKB .m                  36.60:  KB ELEVATION
 EDF .m                  36.60:  DF ELEVATION
 TDL .m                 169.50:  TOTAL DEPTH (LOGGER)
 CSGD.m                3875.01:  CASING BOTTOM (DRILLER)
 CSGL.m                3875.01:  CASING BOTTOM (LOGGER)
 CSGS.in                  7.63:  CASING SIZE
 CSGW.lbpf               23.50:  CASING WEIGHT
 VSC .                       0:  VS TO CLOSURE
 MAGU.                 1849206:  MAGUTM CHECKSUM
~Parameter Information Block
#MNEM.UNIT       Value        Description
#---------     -----------    ---------------------------
 AV  .mps                 1.90:  Ann Velocity 
 AVMX.mps                 2.54:  Max Ann Veloc 
 AZIF.deg               137.03:  Azm, Final 
 BHAT.        Rotary Steerable:  BHA Type 
 BREV.rev             23610.00:  Rev Bit Total 
 BROT.°/30m               0.80:  Build Rotating 
 BS  .in                  6.50:  Bit Size 
 BTPL.psig              110.00:  Bit Press Loss 
 CABU.                     Yes:  Customer Abuse 
 COMM.                     ´>x:  Run Comments 1 
 TCS .hr                 70.51:  Time Ciculation Ended 
 CV  .mps                 1.41:  Crit Velocity 
 CVMX.mps                 1.42:  Max Crit Veloc 
 DD1 .         Intigam Rahimov:  Direct Drillr 1 
 DD2 .          Rashad Gojayev:  Direct Drillr 2 
 DDSV.               Geo-Pilot:  DD Service 
 DEFF.%                 100.00:  % Det Eff 
 DLRX.°/30m               1.44:  Dogleg Rot Max 
 DLSO.°/30m               0.00:  Dogleg Oriented 
 DLSX.°/30m               0.00:  Dogleg Str Max 
 DRET.      03.05.00 01-Feb-20:  Drill End Time 
 DRST.      15.50.00 28-Jan-20:  Drill Start Tim 
 DTIM.hr                 24.70:  Time Drilling 
 EDEP.m                4047.51:  End Depth 
 ENG1.           Eldar Hajiyev:  Engineer 1 
 ENG2.          Rasim Hashimov:  Engineer 2 
 ENG3.          Rustam Safarov:  Engineer 3 
 ETIM.      22.00.00 01-Feb-20:  End Time 
 FLOI.gpm               370.00:  Flow In 
 FLON.gpm               300.00:  Flow In Min 
 FLOS.cptm                0.00:  Fluid Loss 
 FLOX.gpm               400.00:  Flow In Max 
 FTRO.       Formation Presure:  FTWD Run Obj 
 HFLO.                      No:  High Flow 
 HPRE.                      No:  High Pressure 
 HTEM.                      No:  High Temp 
 HYDO.m                   2.50:  Hydro Offset 
 IFIN.deg                39.54:  Inc, Final 
 IMAX.deg                41.14:  Inc Max 
 IMIN.deg                39.81:  Inc Min 
 IMND.m                4005.21:  Inc Min Depth 
 IMXD.m                3948.42:  Inc Max Depth 
 JARR.                      No:  Jarring 
 LETM.      03.05.00 01-Feb-20:  Log End Time 
 LOST.hr                     0:  Lost Rig Time 
 LSTM.      15.50.00 28-Jan-20:  Log Start Time 
 MDCL.ppm             37500.00:  Mud Chlorides 
 MDES.     Inversion Oil/Synthetic:  Mud Desc 
 DFD .sg                  1.32:  Mud Density 
 MDMN.sg                  1.32:  Dens Mud Min 
 MDMX.sg                  1.32:  Dens Mud Max 
 MOIL.                      55:  Run Mud Oil % 
 MOWR.                   70:30:  Run Mud OWR 
 MSND.                       0:  Run Mud Sand % 
 MSOL.                      17:  Run Mud Solids% 
 DFV .spqt               80.00:  Mud Viscosity 
 MWOD.in                  4.75:  MWD Tool OD 
 MWSI.                      No:  Serv Intrp, MWD 
 OTIM.hr                121.28:  Time Operating 
 PCON.           Look Like New:  Pad Condition 
 PMAX.psia             6171.00:  Press Op, Max 
 PV  .cP                 30.00:  Mud PV 
 RUN .                     300:  Run Number 
 ROPA.m/hr                5.45:  ROP Avg 
 ROPN.m/hr                3.00:  ROP Min 
 ROPX.m/hr               15.00:  ROP Max 
 RPMA.rpm               130.00:  RPM Surface Avg 
 RPMN.rpm                80.00:  RPM Surface Min 
 RPMX.rpm               140.00:  RPM Surface Max 
 RRUN.                     300:  Rig Run Number 
 RTIM.hr                 13.50:  Time Reaming 
 SAZI.deg               133.93:  Azm, Start 
 SDEP.m                3878.01:  Start Depth 
 SIDD.                      No:  Serv Intrp, DD 
 SINC.deg                40.28:  Inc, Start 
 SPPA.psig             4983.00:  SPP Avg 
 SPPN.psig             4370.00:  SPP Min 
 SPPX.psig             5300.00:  SPP Max 
 STIM.      18.33.36 27-Jan-20:  Start Time 
 SVCS.                 DD, MWD:  Services 
 SVER.                    9.20:  Sperry Version 
 TDAT.m                 169.50:  Tot Depth Attmp 
 TDDF.                      No:  Trip for DD 
 TDLG.m                 169.50:  Tot Depth Loggd 
 TFF .                      No:  Trip for Fail 
 TQAA.f-kp               13.25:  Torque Abs Avg 
 TQAN.f-kp               12.00:  Torque Abs Min 
 TQAX.f-kp               14.00:  Torque Abs Max 
 TRRT.°/30m               0.70:  Turn Rotating 
 MRT .                     ADR:  Maximum Recorded Temperature 
 TTMX.degC               92.16:  Max Tool Temp 
 VS01.       AZ90598764G12V7D4:  Virtual Str1 SN 
 VS02.         AZ90571342R12C4:  Virtual Str2 SN 
 VS03.      AZ90580010N2L2X1C4:  Virtual Str3 SN 
 VS04.        AZ90522266O7X1C4:  Virtual Str4 SN 
 VS05.           AZ90598768F11:  Virtual Str5 SN 
 VS06.     AZ90580006XZ1W1X1C4:  Virtual Str6 SN 
 WBMN.klb                 8.00:  WOB Min 
 WITN.            Peter Wilson:  Customer Rep 
 WOBA.klb                 9.88:  WOB Avg 
 WOBX.klb                10.00:  WOB Max 
 YP  .lhf2               27.00:  Yield Point 
~Curve Information Block
#MNEM.UNIT                 API CODE     Curve Description
#---------               -----------    ---------------------------
 TIME.HHMMSS            00 000 000 000:  GT Time & Date
 GTDEPTH.m              00 000 000 000:  GT Depth
 GTPQH.psia             00 000 000 000:  GT HR Quartz Pressure
 GTTQ.degC              00 000 000 000:  GT Quartz Temperature
 GTTN.NONE              00 000 000 000:  GT Test Number
 GTET.sec               00 000 000 000:  GT Elapsed Test Time
 GTTVD.m                00 000 000 000:  GT True Vertical Depth
#Other Information
#
#WARRANTY: Halliburton will use its best efforts to furnish customers with 
#accurate information and interpretations that are part of, and incident to, the services 
#provided.  However, Halliburton cannot and does not warrant the accuracy 
#or correctness of such information and interpretations.  Under no circumstances should any 
#such information or interpretation be relied upon as the sole basis for any drilling, 
#completion, production, or financial decision or any procedure involving any risk to the 
#safety of any drilling venture, drilling rig or its crew or any other third party.  The 
#Customer has full responsibility for all drilling, completion and production operation.  
#Halliburton makes no representations or warranties, either expressed or 
#implied, including, but not limited to, the implied warranties of merchantability or fitness 
#for a particular purpose, with respect to the services rendered.  In no event will 
#Halliburton be liable for failure to obtain any particular results or for 
#any damages, including, but not limited to, indirect, special or consequential damages, 
#resulting from the use of any information or interpretation provided by Halliburton.
#
~A           TIME           GTDEPTH  GTPQH  GTTQ  GTTN  GTET   GTTVD  
# ...
   18:28:32.696.31-Jan-2020 3966.51 3852.69 84.72 9.00 276.06 2987.43
   18:28:32.896.31-Jan-2020 3966.51 3852.69 84.72 9.00 276.26 2987.43
   18:28:33.096.31-Jan-2020 3966.51 3852.94 84.72 9.00 276.46 2987.43
   18:28:33.296.31-Jan-2020 3966.51 3852.61 84.72 9.00 276.66 2987.43
   18:28:33.496.31-Jan-2020 3966.51 3852.75 84.72 9.00 276.86 2987.43
   18:28:33.696.31-Jan-2020 3966.51 3852.63 84.72 9.00 277.06 2987.43
   18:28:33.896.31-Jan-2020 3966.51 3852.63 84.72 9.00 277.26 2987.43
   18:28:34.096.31-Jan-2020 3966.51 3852.77 84.72 9.00 277.46 2987.43
   18:28:34.296.31-Jan-2020 3966.51 3852.50 84.72 9.00 277.67 2987.43
   18:28:34.496.31-Jan-2020 3966.51 3852.71 84.72 9.00 277.87 2987.43
   18:28:34.696.31-Jan-2020 3966.51 3852.60 84.71 9.00 278.07 2987.43
   18:28:34.896.31-Jan-2020 3966.51 3852.60 84.71 9.00 278.27 2987.43
   18:28:35.096.31-Jan-2020 3966.51 3852.79 84.71 9.00 278.47 2987.43
   18:28:35.296.31-Jan-2020 3966.51 3852.59 84.71 9.00 278.67 2987.43
   18:28:35.496.31-Jan-2020 3966.51 3852.71 84.71 9.00 278.87 2987.43
   18:28:35.697.31-Jan-2020 3966.51 3852.63 84.71 9.00 279.07 2987.43
   18:28:35.897.31-Jan-2020 3966.51 3852.63 84.71 9.00 279.27 2987.43
   18:28:36.097.31-Jan-2020 3966.51 3852.56 84.71 9.00 279.47 2987.43
   18:28:36.297.31-Jan-2020 3966.51 3852.56 84.71 9.00 279.67 2987.43
   18:28:36.497.31-Jan-2020 3966.51 3852.86 84.71 9.00 279.87 2987.43
   18:28:36.697.31-Jan-2020 3966.51 3852.79 84.71 9.00 280.07 2987.43
   18:28:36.897.31-Jan-2020 3966.51 3852.79 84.71 9.00 280.27 2987.43
   18:28:37.097.31-Jan-2020 3966.51 3852.81 84.71 9.00 280.47 2987.43
   18:28:37.297.31-Jan-2020 3966.51 3852.60 84.71 9.00 280.67 2987.43
   18:28:37.497.31-Jan-2020 3966.51 3852.75 84.71 9.00 280.87 2987.43
   18:28:37.697.31-Jan-2020 3966.51 3852.76 84.71 9.00 281.07 2987.43
   18:28:37.897.31-Jan-2020 3966.51 3852.76 84.71 9.00 281.27 2987.43
   18:28:38.097.31-Jan-2020 3966.51 3852.79 84.71 9.00 281.47 2987.43
   18:28:38.297.31-Jan-2020 3966.51 3852.60 84.71 9.00 281.67 2987.43
   18:28:38.497.31-Jan-2020 3966.51 3852.71 84.71 9.00 281.87 2987.43
   18:28:38.697.31-Jan-2020 3966.51 3852.67 84.71 9.00 282.07 2987.43
   18:28:38.897.31-Jan-2020 3966.51 3852.67 84.71 9.00 282.27 2987.43
   18:28:39.097.31-Jan-2020 3966.51 3852.85 84.71 9.00 282.47 2987.43
   18:28:39.297.31-Jan-2020 3966.51 3852.33 84.71 9.00 282.67 2987.43
   18:28:39.497.31-Jan-2020 3966.51 3852.78 84.71 9.00 282.87 2987.43
   18:28:39.697.31-Jan-2020 3966.51 3852.72 84.70 9.00 283.07 2987.43
   18:28:39.898.31-Jan-2020 3966.51 3852.72 84.70 9.00 283.27 2987.43
   18:28:40.098.31-Jan-2020 3966.51 3852.82 84.70 9.00 283.47 2987.43
   18:28:40.298.31-Jan-2020 3966.51 3852.34 84.70 9.00 283.67 2987.43
   18:28:40.498.31-Jan-2020 3966.51 3852.81 84.70 9.00 283.87 2987.43
   18:28:40.698.31-Jan-2020 3966.51 3852.79 84.70 9.00 284.07 2987.43
   18:28:40.898.31-Jan-2020 3966.51 3852.79 84.70 9.00 284.27 2987.43
   18:28:41.098.31-Jan-2020 3966.51 3852.83 84.70 9.00 284.47 2987.43
   18:28:41.298.31-Jan-2020 3966.51 3852.28 84.70 9.00 284.67 2987.43
   18:28:41.498.31-Jan-2020 3966.51 3852.89 84.70 9.00 284.87 2987.43
   18:28:41.698.31-Jan-2020 3966.51 3852.89 84.70 9.00 285.07 2987.43
   18:28:41.898.31-Jan-2020 3966.51 3852.89 84.70 9.00 285.27 2987.43
   18:28:42.098.31-Jan-2020 3966.51 3852.49 84.70 9.00 285.47 2987.43
   18:28:42.298.31-Jan-2020 3966.51 3852.85 84.70 9.00 285.67 2987.43
   18:28:42.498.31-Jan-2020 3966.51 3852.81 84.70 9.00 285.87 2987.43
   18:28:42.698.31-Jan-2020 3966.51 3852.87 84.70 9.00 286.07 2987.43
   18:28:42.898.31-Jan-2020 3966.51 3852.87 84.70 9.00 286.27 2987.43
   18:28:43.098.31-Jan-2020 3966.51 3852.81 84.70 9.00 286.47 2987.43
   18:28:43.298.31-Jan-2020 3966.51 3852.71 84.70 9.00 286.67 2987.43
   18:28:43.498.31-Jan-2020 3966.51 3852.62 84.70 9.00 286.87 2987.43
   18:28:43.698.31-Jan-2020 3966.51 3852.77 84.70 9.00 287.07 2987.43
   18:28:43.898.31-Jan-2020 3966.51 3852.77 84.70 9.00 287.27 2987.43
   18:28:44.099.31-Jan-2020 3966.51 3852.90 84.70 9.00 287.47 2987.43
   18:28:44.299.31-Jan-2020 3966.51 3852.91 84.70 9.00 287.67 2987.43
   18:28:44.499.31-Jan-2020 3966.51 3852.85 84.70 9.00 287.87 2987.43
   18:28:44.699.31-Jan-2020 3966.51 3852.81 84.70 9.00 288.07 2987.43
   18:28:44.899.31-Jan-2020 3966.51 3852.81 84.70 9.00 288.27 2987.43
   18:28:45.099.31-Jan-2020 3966.51 3852.85 84.69 9.00 288.47 2987.43
   18:28:45.299.31-Jan-2020 3966.51 3852.79 84.69 9.00 288.67 2987.43
   18:28:45.499.31-Jan-2020 3966.51 3852.73 84.69 9.00 288.87 2987.43
   18:28:45.699.31-Jan-2020 3966.51 3852.74 84.69 9.00 289.07 2987.43
   18:28:45.899.31-Jan-2020 3966.51 3852.74 84.69 9.00 289.27 2987.43
   18:28:46.099.31-Jan-2020 3966.51 3852.73 84.69 9.00 289.47 2987.43
   18:28:46.299.31-Jan-2020 3966.51 3852.79 84.69 9.00 289.67 2987.43
   18:28:46.499.31-Jan-2020 3966.51 3852.79 84.69 9.00 289.87 2987.43
   18:28:46.699.31-Jan-2020 3966.51 3852.75 84.69 9.00 290.07 2987.43
   18:28:46.899.31-Jan-2020 3966.51 3852.75 84.69 9.00 290.27 2987.43
   18:28:47.099.31-Jan-2020 3966.51 3852.42 84.69 9.00 290.47 2987.43
   18:28:47.299.31-Jan-2020 3966.51 3852.81 84.69 9.00 290.67 2987.43
   18:28:47.499.31-Jan-2020 3966.51 3852.75 84.69 9.00 290.87 2987.43
   18:28:47.699.31-Jan-2020 3966.51 3852.86 84.69 9.00 291.07 2987.43
   18:28:47.899.31-Jan-2020 3966.51 3852.86 84.69 9.00 291.27 2987.43
   18:28:48.099.31-Jan-2020 3966.51 3852.85 84.69 9.00 291.47 2987.43
   18:28:48.299.31-Jan-2020 3966.51 3852.79 84.69 9.00 291.67 2987.43
   18:28:48.500.31-Jan-2020 3966.51 3852.78 84.69 9.00 291.87 2987.43
   18:28:48.700.31-Jan-2020 3966.51 3852.78 84.69 9.00 292.07 2987.43
   18:28:48.900.31-Jan-2020 3966.51 3852.78 84.69 9.00 292.27 2987.43
   18:28:49.100.31-Jan-2020 3966.51 3852.81 84.69 9.00 292.47 2987.43
   18:28:49.300.31-Jan-2020 3966.51 3852.78 84.69 9.00 292.67 2987.43
   18:28:49.500.31-Jan-2020 3966.51 3852.77 84.69 9.00 292.87 2987.43
   18:28:49.700.31-Jan-2020 3966.51 3852.74 84.69 9.00 293.07 2987.43
   18:28:49.900.31-Jan-2020 3966.51 3852.74 84.69 9.00 293.27 2987.43
   18:28:50.100.31-Jan-2020 3966.51 3852.79 84.68 9.00 293.47 2987.43
   18:28:50.300.31-Jan-2020 3966.51 3852.81 84.68 9.00 293.67 2987.43
   18:28:50.500.31-Jan-2020 3966.51 3852.27 84.68 9.00 293.87 2987.43
   18:28:50.700.31-Jan-2020 3966.51 3852.97 84.68 9.00 294.07 2987.43
   18:28:50.900.31-Jan-2020 3966.51 3852.97 84.68 9.00 294.27 2987.43
   18:28:51.100.31-Jan-2020 3966.51 3852.83 84.68 9.00 294.47 2987.43
   18:28:51.300.31-Jan-2020 3966.51 3852.76 84.68 9.00 294.67 2987.43
   18:28:51.500.31-Jan-2020 3966.51 3852.28 84.68 9.00 294.87 2987.43
   18:28:51.700.31-Jan-2020 3966.51 3852.99 84.68 9.00 295.07 2987.43
   18:28:51.900.31-Jan-2020 3966.51 3852.99 84.68 9.00 295.27 2987.43
   18:28:52.100.31-Jan-2020 3966.51 3852.91 84.68 9.00 295.47 2987.43
   18:28:52.300.31-Jan-2020 3966.51 3852.76 84.68 9.00 295.67 2987.43
   18:28:52.500.31-Jan-2020 3966.51 3852.70 84.68 9.00 295.87 2987.43
   18:28:52.701.31-Jan-2020 3966.51 3852.78 84.68 9.00 296.07 2987.43
   18:28:52.901.31-Jan-2020 3966.51 3852.78 84.68 9.00 296.27 2987.43
   18:28:53.101.31-Jan-2020 3966.51 3852.84 84.68 9.00 296.47 2987.43
   18:28:53.301.31-Jan-2020 3966.51 3852.23 84.68 9.00 296.67 2987.43
   18:28:53.501.31-Jan-2020 3966.51 3853.17 84.68 9.00 296.87 2987.43
   18:28:53.701.31-Jan-2020 3966.51 3852.90 84.68 9.00 297.07 2987.43
   18:28:53.901.31-Jan-2020 3966.51 3852.90 84.68 9.00 297.27 2987.43
   18:28:54.101.31-Jan-2020 3966.51 3852.85 84.68 9.00 297.47 2987.43
   18:28:54.301.31-Jan-2020 3966.51 3852.80 84.68 9.00 297.67 2987.43
   18:28:54.501.31-Jan-2020 3966.51 3852.64 84.68 9.00 297.87 2987.43
   18:28:54.701.31-Jan-2020 3966.51 3852.86 84.68 9.00 298.07 2987.43
   18:28:54.901.31-Jan-2020 3966.51 3852.86 84.68 9.00 298.27 2987.43
   18:28:55.101.31-Jan-2020 3966.51 3852.87 84.67 9.00 298.47 2987.43
   18:28:55.301.31-Jan-2020 3966.51 3852.89 84.67 9.00 298.67 2987.43
   18:28:55.501.31-Jan-2020 3966.51 3853.08 84.67 9.00 298.87 2987.43
