~Version Information
 VERS.                  2.0:   CWLS log ASCII Standard -VERSION 2.0
 WRAP.                   NO:   One line per depth step
~Well Information Block
#MNEM.UNIT     VALUE/NAME     DESCRIPTION
#---------     -----------    ---------------------------
 STRT.S             17:04:09 31-Jan-20: START TIME 17:04:09 31-Jan-20
 STOP.S             17:10:42 31-Jan-20: STOP TIME  17:10:42 31-Jan-20
 STEP.S                   0.00: STEP TIME
 NULL.                 -999.25: NULL VALUE
 DFWT.                        :  DIST FWL TEXT
 DFST.                        :  DIST FSL TEXT
 DMF .             Drill Floor:  DRILL MEAS FROM
 STIM.      09.30.00 26-Dec-19:  START TIME
 DATE.      08.00.00 20-Jan-20:  END TIME
 SPUD.               23-Nov-19:  SPUD DATE
 NREF.                    Grid:  NORTH REFERENCE
 HPTY.       Minimum Curvature:  HOLE POS TYPE
 DMOD.             Drill Model:  DRILL MOD DESC
 SVYD.                  Survey:  SURVEY DESC
 ILTD.               Lithology:  INTERP LTH DESC
 FTOP.          Formation Tops:  FORM TOPS DESC
 SON .        AZ-XX-0906192647:  JOB NUMBER
 WTYP.                Deviated:  WELL TYPE
 COMP.     BP Exploration (Caspian Sea) Ltd:  COMPANY
 BASE.              Azerbaijan:  LOGGING EQUIPMENT BASE LOCATION
 REGN.                 Eurasia:  REGION
 FLD .                     ACG:  FIELD NAME
 SRVC.              KCA Deutag:  CONTRACTOR
 MWDS.                    Baku:  MWD SHOP
 WELL.     A10 (Slot 20) - SCP:  WELL NAME
 JOBN.        AZ-XX-0906192647:  JOB TICKET NUMB
 RIG .                 Chirag1:  RIG NAME
 DCON.     Halliburton Sperry Drilling:  DIRECTNL CONTR
 UNIT.                     N/A:  LOGGING EQUIPMENT ID
 PDAT.          Mean Sea Level:  PERMANENT DATUM
 MDS .        Operator Entered:  MAG DATA SOURCE
 CTRY.              Azerbaijan:  COUNTRY NAME
 UWI .            /AZE00000090:  UNIQUE WELL IDENTIFIER
 API .            /AZE00000090:  API NUMBER
 CNTY.                        :  COUNTY
 PROV.                        :  PROVINCE
 STAT.                        :  STATE
 LOC .                        :  LOCATION
 LMF .             Drill Floor:  LOG MEASURED FROM
 TVDS.m                  36.60:  TVDSS CORRECTN
 LATI.deg                40.08:  LATITUDE
 LONG.deg                51.24:  LONGITUDE
 WHNS.m                  -7.94:  WELL HEAD N/S
 WHEW.m                   1.56:  WELL HEAD E/W
 UTMX.m              520429.26:  UTM X
 UTMY.m             4438973.87:  UTM Y
 DFWL.m                   0.00:  DISTANCE FWL
 DFSL.m                   0.00:  DISTANCE FSL
 SDEP.m                1455.00:  START DEPTH
 TDD .m                4047.51:  TOTAL DEPTH (DRILLER)
 VSDR.deg               112.75:  VERT SEC DIRECT
 GVFD.g                   1.00:  GRAVITY FIELD
 MFLD.nT              50261.00:  MAGNETIC FIELD
 MDIP.deg                59.52:  MAGNETIC DIP
 MDEC.deg                 6.42:  MAGNETIC DECL
 GRDC.deg                 0.17:  GRID CORRECTION
 AZTC.deg                 6.25:  AZM TOTAL CORR
 EPD .m                   0.00:  ELEVATION
 EGL .m                   0.00:  GROUND ELEVATION
 WDMS.m                 121.00:  WD ELEV
 APD .m                  36.60:  DEPTH ABOVE PD
 AGAP.m                  36.60:  AIR GAP
 VSEW.m                   1.56:  VERT SEC E/W
 VSNS.m                  -7.94:  VERT SEC N/S
 DEP .m                1140.01:  DEPTH
 EKB .m                  36.60:  KB ELEVATION
 EDF .m                  36.60:  DF ELEVATION
 TDL .m                 169.50:  TOTAL DEPTH (LOGGER)
 CSGD.m                3875.01:  CASING BOTTOM (DRILLER)
 CSGL.m                3875.01:  CASING BOTTOM (LOGGER)
 CSGS.in                  7.63:  CASING SIZE
 CSGW.lbpf               23.50:  CASING WEIGHT
 VSC .                       0:  VS TO CLOSURE
 MAGU.                 1849206:  MAGUTM CHECKSUM
~Parameter Information Block
#MNEM.UNIT       Value        Description
#---------     -----------    ---------------------------
 AV  .mps                 1.90:  Ann Velocity 
 AVMX.mps                 2.54:  Max Ann Veloc 
 AZIF.deg               137.03:  Azm, Final 
 BHAT.        Rotary Steerable:  BHA Type 
 BREV.rev             23610.00:  Rev Bit Total 
 BROT.°/30m               0.80:  Build Rotating 
 BS  .in                  6.50:  Bit Size 
 BTPL.psig              110.00:  Bit Press Loss 
 CABU.                     Yes:  Customer Abuse 
 COMM.                     D7Y:  Run Comments 1 
 TCS .hr                 70.51:  Time Ciculation Ended 
 CV  .mps                 1.41:  Crit Velocity 
 CVMX.mps                 1.42:  Max Crit Veloc 
 DD1 .         Intigam Rahimov:  Direct Drillr 1 
 DD2 .          Rashad Gojayev:  Direct Drillr 2 
 DDSV.               Geo-Pilot:  DD Service 
 DEFF.%                 100.00:  % Det Eff 
 DLRX.°/30m               1.44:  Dogleg Rot Max 
 DLSO.°/30m               0.00:  Dogleg Oriented 
 DLSX.°/30m               0.00:  Dogleg Str Max 
 DRET.      03.05.00 01-Feb-20:  Drill End Time 
 DRST.      15.50.00 28-Jan-20:  Drill Start Tim 
 DTIM.hr                 24.70:  Time Drilling 
 EDEP.m                4047.51:  End Depth 
 ENG1.           Eldar Hajiyev:  Engineer 1 
 ENG2.          Rasim Hashimov:  Engineer 2 
 ENG3.          Rustam Safarov:  Engineer 3 
 ETIM.      22.00.00 01-Feb-20:  End Time 
 FLOI.gpm               370.00:  Flow In 
 FLON.gpm               300.00:  Flow In Min 
 FLOS.cptm                0.00:  Fluid Loss 
 FLOX.gpm               400.00:  Flow In Max 
 FTRO.       Formation Presure:  FTWD Run Obj 
 HFLO.                      No:  High Flow 
 HPRE.                      No:  High Pressure 
 HTEM.                      No:  High Temp 
 HYDO.m                   2.50:  Hydro Offset 
 IFIN.deg                39.54:  Inc, Final 
 IMAX.deg                41.14:  Inc Max 
 IMIN.deg                39.81:  Inc Min 
 IMND.m                4005.21:  Inc Min Depth 
 IMXD.m                3948.42:  Inc Max Depth 
 JARR.                      No:  Jarring 
 LETM.      03.05.00 01-Feb-20:  Log End Time 
 LOST.hr                     0:  Lost Rig Time 
 LSTM.      15.50.00 28-Jan-20:  Log Start Time 
 MDCL.ppm             37500.00:  Mud Chlorides 
 MDES.     Inversion Oil/Synthetic:  Mud Desc 
 DFD .sg                  1.32:  Mud Density 
 MDMN.sg                  1.32:  Dens Mud Min 
 MDMX.sg                  1.32:  Dens Mud Max 
 MOIL.                      55:  Run Mud Oil % 
 MOWR.                   70:30:  Run Mud OWR 
 MSND.                       0:  Run Mud Sand % 
 MSOL.                      17:  Run Mud Solids% 
 DFV .spqt               80.00:  Mud Viscosity 
 MWOD.in                  4.75:  MWD Tool OD 
 MWSI.                      No:  Serv Intrp, MWD 
 OTIM.hr                121.28:  Time Operating 
 PCON.           Look Like New:  Pad Condition 
 PMAX.psia             6171.00:  Press Op, Max 
 PV  .cP                 30.00:  Mud PV 
 RUN .                     300:  Run Number 
 ROPA.m/hr                5.45:  ROP Avg 
 ROPN.m/hr                3.00:  ROP Min 
 ROPX.m/hr               15.00:  ROP Max 
 RPMA.rpm               130.00:  RPM Surface Avg 
 RPMN.rpm                80.00:  RPM Surface Min 
 RPMX.rpm               140.00:  RPM Surface Max 
 RRUN.                     300:  Rig Run Number 
 RTIM.hr                 13.50:  Time Reaming 
 SAZI.deg               133.93:  Azm, Start 
 SDEP.m                3878.01:  Start Depth 
 SIDD.                      No:  Serv Intrp, DD 
 SINC.deg                40.28:  Inc, Start 
 SPPA.psig             4983.00:  SPP Avg 
 SPPN.psig             4370.00:  SPP Min 
 SPPX.psig             5300.00:  SPP Max 
 STIM.      18.33.36 27-Jan-20:  Start Time 
 SVCS.                 DD, MWD:  Services 
 SVER.                    9.20:  Sperry Version 
 TDAT.m                 169.50:  Tot Depth Attmp 
 TDDF.                      No:  Trip for DD 
 TDLG.m                 169.50:  Tot Depth Loggd 
 TFF .                      No:  Trip for Fail 
 TQAA.f-kp               13.25:  Torque Abs Avg 
 TQAN.f-kp               12.00:  Torque Abs Min 
 TQAX.f-kp               14.00:  Torque Abs Max 
 TRRT.°/30m               0.70:  Turn Rotating 
 MRT .                     ADR:  Maximum Recorded Temperature 
 TTMX.degC               92.16:  Max Tool Temp 
 VS01.       AZ90598764G12V7D4:  Virtual Str1 SN 
 VS02.         AZ90571342R12C4:  Virtual Str2 SN 
 VS03.      AZ90580010N2L2X1C4:  Virtual Str3 SN 
 VS04.        AZ90522266O7X1C4:  Virtual Str4 SN 
 VS05.           AZ90598768F11:  Virtual Str5 SN 
 VS06.     AZ90580006XZ1W1X1C4:  Virtual Str6 SN 
 WBMN.klb                 8.00:  WOB Min 
 WITN.            Peter Wilson:  Customer Rep 
 WOBA.klb                 9.88:  WOB Avg 
 WOBX.klb                10.00:  WOB Max 
 YP  .lhf2               27.00:  Yield Point 
~Curve Information Block
#MNEM.UNIT                 API CODE     Curve Description
#---------               -----------    ---------------------------
 TIME.HHMMSS            00 000 000 000:  GT Time & Date
 GTDEPTH.m              00 000 000 000:  GT Depth
 GTPQH.psia             00 000 000 000:  GT HR Quartz Pressure
 GTTQ.degC              00 000 000 000:  GT Quartz Temperature
 GTTN.NONE              00 000 000 000:  GT Test Number
 GTET.sec               00 000 000 000:  GT Elapsed Test Time
 GTTVD.m                00 000 000 000:  GT True Vertical Depth
#Other Information
#
#WARRANTY: Halliburton will use its best efforts to furnish customers with 
#accurate information and interpretations that are part of, and incident to, the services 
#provided.  However, Halliburton cannot and does not warrant the accuracy 
#or correctness of such information and interpretations.  Under no circumstances should any 
#such information or interpretation be relied upon as the sole basis for any drilling, 
#completion, production, or financial decision or any procedure involving any risk to the 
#safety of any drilling venture, drilling rig or its crew or any other third party.  The 
#Customer has full responsibility for all drilling, completion and production operation.  
#Halliburton makes no representations or warranties, either expressed or 
#implied, including, but not limited to, the implied warranties of merchantability or fitness 
#for a particular purpose, with respect to the services rendered.  In no event will 
#Halliburton be liable for failure to obtain any particular results or for 
#any damages, including, but not limited to, indirect, special or consequential damages, 
#resulting from the use of any information or interpretation provided by Halliburton.
#
~A           TIME           GTDEPTH  GTPQH  GTTQ  GTTN  GTET   GTTVD  
# ...
   17:05:18.526.31-Jan-2020 3960.51 3521.26 85.79 8.00  69.02 2982.89
   17:05:18.726.31-Jan-2020 3960.51 3521.26 85.79 8.00  69.22 2982.89
   17:05:18.926.31-Jan-2020 3960.51 3521.36 85.79 8.00  69.42 2982.89
   17:05:19.126.31-Jan-2020 3960.51 3521.39 85.79 8.00  69.62 2982.89
   17:05:19.326.31-Jan-2020 3960.51 3521.29 85.79 8.00  69.82 2982.89
   17:05:19.526.31-Jan-2020 3960.51 3521.35 85.79 8.00  70.02 2982.89
   17:05:19.726.31-Jan-2020 3960.51 3521.35 85.79 8.00  70.22 2982.89
   17:05:19.926.31-Jan-2020 3960.51 3520.74 85.79 8.00  70.42 2982.89
   17:05:20.126.31-Jan-2020 3960.51 3521.13 85.79 8.00  70.62 2982.89
   17:05:20.326.31-Jan-2020 3960.51 3521.36 85.79 8.00  70.82 2982.89
   17:05:20.526.31-Jan-2020 3960.51 3521.27 85.78 8.00  71.02 2982.89
   17:05:20.726.31-Jan-2020 3960.51 3521.27 85.78 8.00  71.22 2982.89
   17:05:20.927.31-Jan-2020 3960.51 3520.74 85.78 8.00  71.42 2982.89
   17:05:21.127.31-Jan-2020 3960.51 3521.15 85.78 8.00  71.62 2982.89
   17:05:21.327.31-Jan-2020 3960.51 3521.45 85.78 8.00  71.82 2982.89
   17:05:21.527.31-Jan-2020 3960.51 3521.35 85.78 8.00  72.02 2982.89
   17:05:21.727.31-Jan-2020 3960.51 3521.35 85.78 8.00  72.22 2982.89
   17:05:21.927.31-Jan-2020 3960.51 3521.59 85.78 8.00  72.42 2982.89
   17:05:22.127.31-Jan-2020 3960.51 3520.67 85.78 8.00  72.62 2982.89
   17:05:22.327.31-Jan-2020 3960.51 3521.07 85.78 8.00  72.82 2982.89
   17:05:22.527.31-Jan-2020 3960.51 3521.18 85.78 8.00  73.02 2982.89
   17:05:22.727.31-Jan-2020 3960.51 3521.18 85.78 8.00  73.22 2982.89
   17:05:22.927.31-Jan-2020 3960.51 3521.45 85.78 8.00  73.42 2982.89
   17:05:23.127.31-Jan-2020 3960.51 3521.55 85.78 8.00  73.62 2982.89
   17:05:23.327.31-Jan-2020 3960.51 3520.92 85.77 8.00  73.82 2982.89
   17:05:23.527.31-Jan-2020 3960.51 3521.07 85.77 8.00  74.02 2982.89
   17:05:23.727.31-Jan-2020 3960.51 3521.07 85.77 8.00  74.22 2982.89
   17:05:23.927.31-Jan-2020 3960.51 3521.40 85.77 8.00  74.42 2982.89
   17:05:24.127.31-Jan-2020 3960.51 3521.33 85.77 8.00  74.62 2982.89
   17:05:24.327.31-Jan-2020 3960.51 3521.34 85.77 8.00  74.82 2982.89
   17:05:24.527.31-Jan-2020 3960.51 3520.80 85.77 8.00  75.02 2982.89
   17:05:24.727.31-Jan-2020 3960.51 3520.80 85.77 8.00  75.22 2982.89
   17:05:24.927.31-Jan-2020 3960.51 3521.44 85.77 8.00  75.42 2982.89
   17:05:25.127.31-Jan-2020 3960.51 3521.43 85.77 8.00  75.62 2982.89
   17:05:25.328.31-Jan-2020 3960.51 3521.41 85.77 8.00  75.82 2982.89
   17:05:25.528.31-Jan-2020 3960.51 3521.27 85.77 8.00  76.02 2982.89
   17:05:25.728.31-Jan-2020 3960.51 3521.27 85.77 8.00  76.22 2982.89
   17:05:25.928.31-Jan-2020 3960.51 3521.24 85.77 8.00  76.42 2982.89
   17:05:26.128.31-Jan-2020 3960.51 3521.19 85.77 8.00  76.62 2982.89
   17:05:26.328.31-Jan-2020 3960.51 3521.32 85.76 8.00  76.82 2982.89
   17:05:26.528.31-Jan-2020 3960.51 3521.17 85.76 8.00  77.02 2982.89
   17:05:26.728.31-Jan-2020 3960.51 3521.17 85.76 8.00  77.22 2982.89
   17:05:26.928.31-Jan-2020 3960.51 3521.33 85.76 8.00  77.42 2982.89
   17:05:27.128.31-Jan-2020 3960.51 3521.08 85.76 8.00  77.62 2982.89
   17:05:27.328.31-Jan-2020 3960.51 3521.34 85.76 8.00  77.82 2982.89
   17:05:27.528.31-Jan-2020 3960.51 3521.26 85.76 8.00  78.02 2982.89
   17:05:27.728.31-Jan-2020 3960.51 3521.26 85.76 8.00  78.22 2982.89
   17:05:27.928.31-Jan-2020 3960.51 3521.51 85.76 8.00  78.42 2982.89
   17:05:28.128.31-Jan-2020 3960.51 3520.73 85.76 8.00  78.62 2982.89
   17:05:28.328.31-Jan-2020 3960.51 3521.25 85.76 8.00  78.82 2982.89
   17:05:28.528.31-Jan-2020 3960.51 3521.32 85.76 8.00  79.02 2982.89
   17:05:28.728.31-Jan-2020 3960.51 3521.32 85.76 8.00  79.22 2982.89
   17:05:28.928.31-Jan-2020 3960.51 3521.49 85.76 8.00  79.42 2982.89
   17:05:29.128.31-Jan-2020 3960.51 3521.29 85.76 8.00  79.62 2982.89
   17:05:29.328.31-Jan-2020 3960.51 3521.44 85.75 8.00  79.82 2982.89
   17:05:29.529.31-Jan-2020 3960.51 3521.32 85.75 8.00  80.02 2982.89
   17:05:29.729.31-Jan-2020 3960.51 3521.32 85.75 8.00  80.22 2982.89
   17:05:29.929.31-Jan-2020 3960.51 3521.27 85.75 8.00  80.42 2982.89
   17:05:30.129.31-Jan-2020 3960.51 3521.18 85.75 8.00  80.62 2982.89
   17:05:30.329.31-Jan-2020 3960.51 3521.45 85.75 8.00  80.82 2982.89
   17:05:30.529.31-Jan-2020 3960.51 3521.30 85.75 8.00  81.02 2982.89
   17:05:30.729.31-Jan-2020 3960.51 3521.30 85.75 8.00  81.22 2982.89
   17:05:30.929.31-Jan-2020 3960.51 3521.42 85.75 8.00  81.42 2982.89
   17:05:31.129.31-Jan-2020 3960.51 3521.22 85.75 8.00  81.62 2982.89
   17:05:31.329.31-Jan-2020 3960.51 3521.69 85.75 8.00  81.82 2982.89
   17:05:31.529.31-Jan-2020 3960.51 3520.65 85.75 8.00  82.02 2982.89
   17:05:31.729.31-Jan-2020 3960.51 3520.65 85.75 8.00  82.22 2982.89
   17:05:31.929.31-Jan-2020 3960.51 3521.47 85.75 8.00  82.42 2982.89
   17:05:32.129.31-Jan-2020 3960.51 3521.23 85.74 8.00  82.62 2982.89
   17:05:32.329.31-Jan-2020 3960.51 3521.69 85.74 8.00  82.82 2982.89
   17:05:32.529.31-Jan-2020 3960.51 3520.70 85.74 8.00  83.02 2982.89
   17:05:32.729.31-Jan-2020 3960.51 3520.70 85.74 8.00  83.22 2982.89
   17:05:32.929.31-Jan-2020 3960.51 3521.40 85.74 8.00  83.42 2982.89
   17:05:33.129.31-Jan-2020 3960.51 3521.25 85.74 8.00  83.62 2982.89
   17:05:33.329.31-Jan-2020 3960.51 3521.51 85.74 8.00  83.82 2982.89
   17:05:33.529.31-Jan-2020 3960.51 3521.52 85.74 8.00  84.02 2982.89
   17:05:33.729.31-Jan-2020 3960.51 3521.52 85.74 8.00  84.22 2982.89
   17:05:33.930.31-Jan-2020 3960.51 3521.28 85.74 8.00  84.42 2982.89
   17:05:34.130.31-Jan-2020 3960.51 3521.08 85.74 8.00  84.62 2982.89
   17:05:34.330.31-Jan-2020 3960.51 3521.39 85.74 8.00  84.82 2982.89
   17:05:34.530.31-Jan-2020 3960.51 3521.38 85.74 8.00  85.02 2982.89
   17:05:34.730.31-Jan-2020 3960.51 3521.38 85.74 8.00  85.22 2982.89
   17:05:34.930.31-Jan-2020 3960.51 3520.90 85.74 8.00  85.42 2982.89
   17:05:35.130.31-Jan-2020 3960.51 3520.81 85.74 8.00  85.62 2982.89
   17:05:35.330.31-Jan-2020 3960.51 3521.31 85.73 8.00  85.82 2982.89
   17:05:35.530.31-Jan-2020 3960.51 3521.48 85.73 8.00  86.02 2982.89
   17:05:35.730.31-Jan-2020 3960.51 3521.48 85.73 8.00  86.22 2982.89
   17:05:35.930.31-Jan-2020 3960.51 3521.47 85.73 8.00  86.42 2982.89
   17:05:36.130.31-Jan-2020 3960.51 3520.64 85.73 8.00  86.62 2982.89
   17:05:36.330.31-Jan-2020 3960.51 3521.18 85.73 8.00  86.82 2982.89
   17:05:36.530.31-Jan-2020 3960.51 3521.44 85.73 8.00  87.02 2982.89
   17:05:36.730.31-Jan-2020 3960.51 3521.44 85.73 8.00  87.22 2982.89
   17:05:36.930.31-Jan-2020 3960.51 3521.50 85.73 8.00  87.42 2982.89
   17:05:37.130.31-Jan-2020 3960.51 3521.18 85.73 8.00  87.62 2982.89
   17:05:37.330.31-Jan-2020 3960.51 3521.29 85.73 8.00  87.82 2982.89
   17:05:37.530.31-Jan-2020 3960.51 3521.17 85.73 8.00  88.02 2982.89
   17:05:37.730.31-Jan-2020 3960.51 3521.17 85.73 8.00  88.22 2982.89
   17:05:37.930.31-Jan-2020 3960.51 3521.50 85.73 8.00  88.42 2982.89
   17:05:38.131.31-Jan-2020 3960.51 3521.21 85.73 8.00  88.62 2982.89
   17:05:38.331.31-Jan-2020 3960.51 3521.28 85.72 8.00  88.82 2982.89
   17:05:38.531.31-Jan-2020 3960.51 3521.26 85.72 8.00  89.02 2982.89
   17:05:38.731.31-Jan-2020 3960.51 3521.26 85.72 8.00  89.22 2982.89
   17:05:38.931.31-Jan-2020 3960.51 3521.37 85.72 8.00  89.42 2982.89
   17:05:39.131.31-Jan-2020 3960.51 3521.20 85.72 8.00  89.62 2982.89
   17:05:39.331.31-Jan-2020 3960.51 3521.24 85.72 8.00  89.82 2982.89
   17:05:39.531.31-Jan-2020 3960.51 3521.57 85.72 8.00  90.02 2982.89
   17:05:39.731.31-Jan-2020 3960.51 3521.57 85.72 8.00  90.22 2982.89
   17:05:39.931.31-Jan-2020 3960.51 3521.33 85.72 8.00  90.42 2982.89
   17:05:40.131.31-Jan-2020 3960.51 3521.27 85.72 8.00  90.62 2982.89
   17:05:40.331.31-Jan-2020 3960.51 3521.29 85.72 8.00  90.82 2982.89
   17:05:40.531.31-Jan-2020 3960.51 3521.51 85.72 8.00  91.02 2982.89
   17:05:40.731.31-Jan-2020 3960.51 3521.51 85.72 8.00  91.22 2982.89
   17:05:40.931.31-Jan-2020 3960.51 3521.43 85.72 8.00  91.42 2982.89
   17:05:41.131.31-Jan-2020 3960.51 3521.20 85.72 8.00  91.62 2982.89
   17:05:41.331.31-Jan-2020 3960.51 3521.26 85.71 8.00  91.82 2982.89
