~Version Information
 VERS.                  2.0:   CWLS log ASCII Standard -VERSION 2.0
 WRAP.                   NO:   One line per depth step
~Well Information Block
#MNEM.UNIT     VALUE/NAME     DESCRIPTION
#---------     -----------    ---------------------------
 STRT.S             00:13:57 01-Feb-20: START TIME 00:13:57 01-Feb-20
 STOP.S             00:20:28 01-Feb-20: STOP TIME  00:20:28 01-Feb-20
 STEP.S                   0.00: STEP TIME
 NULL.                 -999.25: NULL VALUE
 DFWT.                        :  DIST FWL TEXT
 DFST.                        :  DIST FSL TEXT
 DMF .             Drill Floor:  DRILL MEAS FROM
 STIM.      09.30.00 26-Dec-19:  START TIME
 DATE.      08.00.00 20-Jan-20:  END TIME
 SPUD.               23-Nov-19:  SPUD DATE
 NREF.                    Grid:  NORTH REFERENCE
 HPTY.       Minimum Curvature:  HOLE POS TYPE
 DMOD.             Drill Model:  DRILL MOD DESC
 SVYD.                  Survey:  SURVEY DESC
 ILTD.               Lithology:  INTERP LTH DESC
 FTOP.          Formation Tops:  FORM TOPS DESC
 SON .        AZ-XX-0906192647:  JOB NUMBER
 WTYP.                Deviated:  WELL TYPE
 COMP.     BP Exploration (Caspian Sea) Ltd:  COMPANY
 BASE.              Azerbaijan:  LOGGING EQUIPMENT BASE LOCATION
 REGN.                 Eurasia:  REGION
 FLD .                     ACG:  FIELD NAME
 SRVC.              KCA Deutag:  CONTRACTOR
 MWDS.                    Baku:  MWD SHOP
 WELL.     A10 (Slot 20) - SCP:  WELL NAME
 JOBN.        AZ-XX-0906192647:  JOB TICKET NUMB
 RIG .                 Chirag1:  RIG NAME
 DCON.     Halliburton Sperry Drilling:  DIRECTNL CONTR
 UNIT.                     N/A:  LOGGING EQUIPMENT ID
 PDAT.          Mean Sea Level:  PERMANENT DATUM
 MDS .        Operator Entered:  MAG DATA SOURCE
 CTRY.              Azerbaijan:  COUNTRY NAME
 UWI .            /AZE00000090:  UNIQUE WELL IDENTIFIER
 API .            /AZE00000090:  API NUMBER
 CNTY.                        :  COUNTY
 PROV.                        :  PROVINCE
 STAT.                        :  STATE
 LOC .                        :  LOCATION
 LMF .             Drill Floor:  LOG MEASURED FROM
 TVDS.m                  36.60:  TVDSS CORRECTN
 LATI.deg                40.08:  LATITUDE
 LONG.deg                51.24:  LONGITUDE
 WHNS.m                  -7.94:  WELL HEAD N/S
 WHEW.m                   1.56:  WELL HEAD E/W
 UTMX.m              520429.26:  UTM X
 UTMY.m             4438973.87:  UTM Y
 DFWL.m                   0.00:  DISTANCE FWL
 DFSL.m                   0.00:  DISTANCE FSL
 SDEP.m                1455.00:  START DEPTH
 TDD .m                4047.51:  TOTAL DEPTH (DRILLER)
 VSDR.deg               112.75:  VERT SEC DIRECT
 GVFD.g                   1.00:  GRAVITY FIELD
 MFLD.nT              50261.00:  MAGNETIC FIELD
 MDIP.deg                59.52:  MAGNETIC DIP
 MDEC.deg                 6.42:  MAGNETIC DECL
 GRDC.deg                 0.17:  GRID CORRECTION
 AZTC.deg                 6.25:  AZM TOTAL CORR
 EPD .m                   0.00:  ELEVATION
 EGL .m                   0.00:  GROUND ELEVATION
 WDMS.m                 121.00:  WD ELEV
 APD .m                  36.60:  DEPTH ABOVE PD
 AGAP.m                  36.60:  AIR GAP
 VSEW.m                   1.56:  VERT SEC E/W
 VSNS.m                  -7.94:  VERT SEC N/S
 DEP .m                1140.01:  DEPTH
 EKB .m                  36.60:  KB ELEVATION
 EDF .m                  36.60:  DF ELEVATION
 TDL .m                 169.50:  TOTAL DEPTH (LOGGER)
 CSGD.m                3875.01:  CASING BOTTOM (DRILLER)
 CSGL.m                3875.01:  CASING BOTTOM (LOGGER)
 CSGS.in                  7.63:  CASING SIZE
 CSGW.lbpf               23.50:  CASING WEIGHT
 VSC .                       0:  VS TO CLOSURE
 MAGU.                 1849206:  MAGUTM CHECKSUM
~Parameter Information Block
#MNEM.UNIT       Value        Description
#---------     -----------    ---------------------------
 AV  .mps                 1.90:  Ann Velocity 
 AVMX.mps                 2.54:  Max Ann Veloc 
 AZIF.deg               137.03:  Azm, Final 
 BHAT.        Rotary Steerable:  BHA Type 
 BREV.rev             23610.00:  Rev Bit Total 
 BROT.°/30m               0.80:  Build Rotating 
 BS  .in                  6.50:  Bit Size 
 BTPL.psig              110.00:  Bit Press Loss 
 CABU.                     Yes:  Customer Abuse 
 TCS .hr                 70.51:  Time Ciculation Ended 
 CV  .mps                 1.41:  Crit Velocity 
 CVMX.mps                 1.42:  Max Crit Veloc 
 DD1 .         Intigam Rahimov:  Direct Drillr 1 
 DD2 .          Rashad Gojayev:  Direct Drillr 2 
 DDSV.               Geo-Pilot:  DD Service 
 DEFF.%                 100.00:  % Det Eff 
 DLRX.°/30m               1.44:  Dogleg Rot Max 
 DLSO.°/30m               0.00:  Dogleg Oriented 
 DLSX.°/30m               0.00:  Dogleg Str Max 
 DRET.      03.05.00 01-Feb-20:  Drill End Time 
 DRST.      15.50.00 28-Jan-20:  Drill Start Tim 
 DTIM.hr                 24.70:  Time Drilling 
 EDEP.m                4047.51:  End Depth 
 ENG1.           Eldar Hajiyev:  Engineer 1 
 ENG2.          Rasim Hashimov:  Engineer 2 
 ENG3.          Rustam Safarov:  Engineer 3 
 ETIM.      22.00.00 01-Feb-20:  End Time 
 FLOI.gpm               370.00:  Flow In 
 FLON.gpm               300.00:  Flow In Min 
 FLOS.cptm                0.00:  Fluid Loss 
 FLOX.gpm               400.00:  Flow In Max 
 FTRO.       Formation Presure:  FTWD Run Obj 
 HFLO.                      No:  High Flow 
 HPRE.                      No:  High Pressure 
 HTEM.                      No:  High Temp 
 HYDO.m                   2.50:  Hydro Offset 
 IFIN.deg                39.54:  Inc, Final 
 IMAX.deg                41.14:  Inc Max 
 IMIN.deg                39.81:  Inc Min 
 IMND.m                4005.21:  Inc Min Depth 
 IMXD.m                3948.42:  Inc Max Depth 
 JARR.                      No:  Jarring 
 LETM.      03.05.00 01-Feb-20:  Log End Time 
 LOST.hr                     0:  Lost Rig Time 
 LSTM.      15.50.00 28-Jan-20:  Log Start Time 
 MDCL.ppm             37500.00:  Mud Chlorides 
 MDES.     Inversion Oil/Synthetic:  Mud Desc 
 DFD .sg                  1.32:  Mud Density 
 MDMN.sg                  1.32:  Dens Mud Min 
 MDMX.sg                  1.32:  Dens Mud Max 
 MOIL.                      55:  Run Mud Oil % 
 MOWR.                   70:30:  Run Mud OWR 
 MSND.                       0:  Run Mud Sand % 
 MSOL.                      17:  Run Mud Solids% 
 DFV .spqt               80.00:  Mud Viscosity 
 MWOD.in                  4.75:  MWD Tool OD 
 MWSI.                      No:  Serv Intrp, MWD 
 OTIM.hr                121.28:  Time Operating 
 PCON.           Look Like New:  Pad Condition 
 PMAX.psia             6171.00:  Press Op, Max 
 PV  .cP                 30.00:  Mud PV 
 RUN .                     300:  Run Number 
 ROPA.m/hr                5.45:  ROP Avg 
 ROPN.m/hr                3.00:  ROP Min 
 ROPX.m/hr               15.00:  ROP Max 
 RPMA.rpm               130.00:  RPM Surface Avg 
 RPMN.rpm                80.00:  RPM Surface Min 
 RPMX.rpm               140.00:  RPM Surface Max 
 RRUN.                     300:  Rig Run Number 
 RTIM.hr                 13.50:  Time Reaming 
 SAZI.deg               133.93:  Azm, Start 
 SDEP.m                3878.01:  Start Depth 
 SIDD.                      No:  Serv Intrp, DD 
 SINC.deg                40.28:  Inc, Start 
 SPPA.psig             4983.00:  SPP Avg 
 SPPN.psig             4370.00:  SPP Min 
 SPPX.psig             5300.00:  SPP Max 
 STIM.      18.33.36 27-Jan-20:  Start Time 
 SVCS.                 DD, MWD:  Services 
 SVER.                    9.20:  Sperry Version 
 TDAT.m                 169.50:  Tot Depth Attmp 
 TDDF.                      No:  Trip for DD 
 TDLG.m                 169.50:  Tot Depth Loggd 
 TFF .                      No:  Trip for Fail 
 TQAA.f-kp               13.25:  Torque Abs Avg 
 TQAN.f-kp               12.00:  Torque Abs Min 
 TQAX.f-kp               14.00:  Torque Abs Max 
 TRRT.°/30m               0.70:  Turn Rotating 
 MRT .                     ADR:  Maximum Recorded Temperature 
 TTMX.degC               92.16:  Max Tool Temp 
 VS01.       AZ90598764G12V7D4:  Virtual Str1 SN 
 VS02.         AZ90571342R12C4:  Virtual Str2 SN 
 VS03.      AZ90580010N2L2X1C4:  Virtual Str3 SN 
 VS04.        AZ90522266O7X1C4:  Virtual Str4 SN 
 VS05.           AZ90598768F11:  Virtual Str5 SN 
 VS06.     AZ90580006XZ1W1X1C4:  Virtual Str6 SN 
 WBMN.klb                 8.00:  WOB Min 
 WITN.            Peter Wilson:  Customer Rep 
 WOBA.klb                 9.88:  WOB Avg 
 WOBX.klb                10.00:  WOB Max 
 YP  .lhf2               27.00:  Yield Point 
~Curve Information Block
#MNEM.UNIT                 API CODE     Curve Description
#---------               -----------    ---------------------------
 TIME.HHMMSS            00 000 000 000:  GT Time & Date
 GTDEPTH.m              00 000 000 000:  GT Depth
 GTPQH.psia             00 000 000 000:  GT HR Quartz Pressure
 GTTQ.degC              00 000 000 000:  GT Quartz Temperature
 GTTN.NONE              00 000 000 000:  GT Test Number
 GTET.sec               00 000 000 000:  GT Elapsed Test Time
 GTTVD.m                00 000 000 000:  GT True Vertical Depth
#Other Information
#
#WARRANTY: Halliburton will use its best efforts to furnish customers with 
#accurate information and interpretations that are part of, and incident to, the services 
#provided.  However, Halliburton cannot and does not warrant the accuracy 
#or correctness of such information and interpretations.  Under no circumstances should any 
#such information or interpretation be relied upon as the sole basis for any drilling, 
#completion, production, or financial decision or any procedure involving any risk to the 
#safety of any drilling venture, drilling rig or its crew or any other third party.  The 
#Customer has full responsibility for all drilling, completion and production operation.  
#Halliburton makes no representations or warranties, either expressed or 
#implied, including, but not limited to, the implied warranties of merchantability or fitness 
#for a particular purpose, with respect to the services rendered.  In no event will 
#Halliburton be liable for failure to obtain any particular results or for 
#any damages, including, but not limited to, indirect, special or consequential damages, 
#resulting from the use of any information or interpretation provided by Halliburton.
#
~A           TIME           GTDEPTH  GTPQH  GTTQ  GTTN   GTET   GTTVD  
# ...
   00:14:20.310.01-Feb-2020 3989.40 6875.43 87.61 10.00  22.60 3004.80
   00:14:20.510.01-Feb-2020 3989.40 6882.03 87.61 10.00  22.80 3004.80
   00:14:20.710.01-Feb-2020 3989.40 6887.41 87.60 10.00  23.00 3004.80
   00:14:20.910.01-Feb-2020 3989.40 6887.41 87.60 10.00  23.20 3004.80
   00:14:21.110.01-Feb-2020 3989.40 6895.86 87.60 10.00  23.40 3004.80
   00:14:21.310.01-Feb-2020 3989.40 6899.99 87.60 10.00  23.60 3004.80
   00:14:21.510.01-Feb-2020 3989.40 6903.31 87.60 10.00  23.80 3004.80
   00:14:21.710.01-Feb-2020 3989.40 6904.65 87.60 10.00  24.00 3004.80
   00:14:21.910.01-Feb-2020 3989.40 6904.65 87.60 10.00  24.20 3004.80
   00:14:22.110.01-Feb-2020 3989.40 6908.71 87.60 10.00  24.40 3004.80
   00:14:22.310.01-Feb-2020 3989.40 6908.77 87.60 10.00  24.60 3004.80
   00:14:22.510.01-Feb-2020 3989.40 6910.20 87.60 10.00  24.80 3004.80
   00:14:22.710.01-Feb-2020 3989.40 6910.81 87.60 10.00  25.00 3004.80
   00:14:22.910.01-Feb-2020 3989.40 6910.81 87.60 10.00  25.20 3004.80
   00:14:23.110.01-Feb-2020 3989.40 6912.05 87.60 10.00  25.40 3004.80
   00:14:23.310.01-Feb-2020 3989.40 6911.75 87.60 10.00  25.60 3004.80
   00:14:23.510.01-Feb-2020 3989.40 6911.88 87.60 10.00  25.80 3004.80
   00:14:23.710.01-Feb-2020 3989.40 6912.94 87.59 10.00  26.00 3004.80
   00:14:23.910.01-Feb-2020 3989.40 6912.94 87.59 10.00  26.20 3004.80
   00:14:24.110.01-Feb-2020 3989.40 6911.68 87.59 10.00  26.40 3004.80
   00:14:24.310.01-Feb-2020 3989.40 6906.33 87.59 10.00  26.60 3004.80
   00:14:24.510.01-Feb-2020 3989.40 6243.46 87.59 10.00  26.80 3004.80
   00:14:24.710.01-Feb-2020 3989.40 5776.36 87.59 10.00  27.00 3004.80
   00:14:24.910.01-Feb-2020 3989.40 5776.36 87.59 10.00  27.20 3004.80
   00:14:25.110.01-Feb-2020 3989.40 4807.96 87.59 10.00  27.40 3004.80
   00:14:25.310.01-Feb-2020 3989.40 4034.71 87.59 10.00  27.60 3004.80
   00:14:25.510.01-Feb-2020 3989.40 3279.36 87.59 10.00  27.80 3004.80
   00:14:25.710.01-Feb-2020 3989.40 2738.04 87.59 10.00  28.00 3004.80
   00:14:25.910.01-Feb-2020 3989.40 2738.04 87.59 10.00  28.20 3004.80
   00:14:26.110.01-Feb-2020 3989.40 2206.12 87.59 10.00  28.40 3004.80
   00:14:26.310.01-Feb-2020 3989.40 2057.12 87.58 10.00  28.60 3004.80
   00:14:26.510.01-Feb-2020 3989.40 1999.95 87.58 10.00  28.80 3004.80
   00:14:26.710.01-Feb-2020 3989.40 1991.55 87.58 10.00  29.00 3004.80
   00:14:26.910.01-Feb-2020 3989.40 1991.55 87.58 10.00  29.20 3004.80
   00:14:27.110.01-Feb-2020 3989.40 1975.85 87.58 10.00  29.40 3004.80
   00:14:27.310.01-Feb-2020 3989.40 1961.26 87.58 10.00  29.60 3004.80
   00:14:27.511.01-Feb-2020 3989.40 1951.30 87.58 10.00  29.80 3004.80
   00:14:27.711.01-Feb-2020 3989.40 1943.17 87.57 10.00  30.00 3004.80
   00:14:27.911.01-Feb-2020 3989.40 1943.17 87.57 10.00  30.20 3004.80
   00:14:28.111.01-Feb-2020 3989.40 1941.03 87.57 10.00  30.40 3004.80
   00:14:28.311.01-Feb-2020 3989.40 1934.89 87.57 10.00  30.60 3004.80
   00:14:28.511.01-Feb-2020 3989.40 1930.31 87.57 10.00  30.80 3004.80
   00:14:28.711.01-Feb-2020 3989.40 1925.67 87.57 10.00  31.00 3004.80
   00:14:28.911.01-Feb-2020 3989.40 1925.67 87.57 10.00  31.20 3004.80
   00:14:29.111.01-Feb-2020 3989.40 1920.22 87.56 10.00  31.40 3004.80
   00:14:29.311.01-Feb-2020 3989.40 1918.61 87.56 10.00  31.60 3004.80
   00:14:29.511.01-Feb-2020 3989.40 1915.17 87.56 10.00  31.80 3004.80
   00:14:29.711.01-Feb-2020 3989.40 1916.05 87.56 10.00  32.00 3004.80
   00:14:29.911.01-Feb-2020 3989.40 1916.05 87.56 10.00  32.20 3004.80
   00:14:30.111.01-Feb-2020 3989.40 1915.33 87.55 10.00  32.40 3004.80
   00:14:30.311.01-Feb-2020 3989.40 1916.68 87.55 10.00  32.60 3004.80
   00:14:30.511.01-Feb-2020 3989.40 1914.93 87.55 10.00  32.80 3004.80
   00:14:30.711.01-Feb-2020 3989.40 1912.48 87.55 10.00  33.00 3004.80
   00:14:30.911.01-Feb-2020 3989.40 1912.48 87.55 10.00  33.20 3004.80
   00:14:31.111.01-Feb-2020 3989.40 1906.29 87.54 10.00  33.40 3004.80
   00:14:31.311.01-Feb-2020 3989.40 1908.61 87.54 10.00  33.60 3004.80
   00:14:31.511.01-Feb-2020 3989.40 1906.94 87.54 10.00  33.80 3004.80
   00:14:31.711.01-Feb-2020 3989.40 1905.42 87.54 10.00  34.00 3004.80
   00:14:31.911.01-Feb-2020 3989.40 1905.42 87.54 10.00  34.20 3004.80
   00:14:32.111.01-Feb-2020 3989.40 1902.96 87.53 10.00  34.40 3004.80
   00:14:32.311.01-Feb-2020 3989.40 1902.79 87.53 10.00  34.60 3004.80
   00:14:32.511.01-Feb-2020 3989.40 1903.37 87.53 10.00  34.80 3004.80
   00:14:32.711.01-Feb-2020 3989.40 1903.60 87.53 10.00  35.00 3004.80
   00:14:32.911.01-Feb-2020 3989.40 1903.60 87.53 10.00  35.20 3004.80
   00:14:33.111.01-Feb-2020 3989.40 1907.57 87.52 10.00  35.40 3004.80
   00:14:33.311.01-Feb-2020 3989.40 1908.18 87.52 10.00  35.60 3004.80
   00:14:33.511.01-Feb-2020 3989.40 1907.32 87.52 10.00  35.80 3004.80
   00:14:33.711.01-Feb-2020 3989.40 1906.56 87.52 10.00  36.00 3004.80
   00:14:33.911.01-Feb-2020 3989.40 1906.56 87.52 10.00  36.20 3004.80
   00:14:34.111.01-Feb-2020 3989.40 1904.02 87.51 10.00  36.40 3004.80
   00:14:34.311.01-Feb-2020 3989.40 1904.48 87.51 10.00  36.60 3004.80
   00:14:34.511.01-Feb-2020 3989.40 2000.32 87.51 10.00  36.80 3004.80
   00:14:34.711.01-Feb-2020 3989.40 2406.16 87.51 10.00  37.00 3004.80
   00:14:34.911.01-Feb-2020 3989.40 2406.16 87.51 10.00  37.20 3004.80
   00:14:35.111.01-Feb-2020 3989.40 2860.75 87.51 10.00  37.40 3004.80
   00:14:35.311.01-Feb-2020 3989.40 2969.58 87.50 10.00  37.60 3004.80
   00:14:35.511.01-Feb-2020 3989.40 3037.63 87.50 10.00  37.80 3004.80
   00:14:35.711.01-Feb-2020 3989.40 3081.76 87.50 10.00  38.00 3004.80
   00:14:35.911.01-Feb-2020 3989.40 3081.76 87.50 10.00  38.20 3004.80
   00:14:36.111.01-Feb-2020 3989.40 3131.35 87.50 10.00  38.40 3004.80
   00:14:36.311.01-Feb-2020 3989.40 3146.31 87.50 10.00  38.60 3004.80
   00:14:36.511.01-Feb-2020 3989.40 3157.26 87.49 10.00  38.80 3004.80
   00:14:36.711.01-Feb-2020 3989.40 3165.05 87.49 10.00  39.00 3004.80
   00:14:36.911.01-Feb-2020 3989.40 3165.05 87.49 10.00  39.20 3004.80
   00:14:37.111.01-Feb-2020 3989.40 3176.34 87.49 10.00  39.40 3004.80
   00:14:37.311.01-Feb-2020 3989.40 3180.76 87.49 10.00  39.60 3004.80
   00:14:37.511.01-Feb-2020 3989.40 3184.10 87.49 10.00  39.80 3004.80
   00:14:37.711.01-Feb-2020 3989.40 3186.98 87.49 10.00  40.00 3004.80
   00:14:37.911.01-Feb-2020 3989.40 3186.98 87.49 10.00  40.20 3004.80
   00:14:38.111.01-Feb-2020 3989.40 3191.56 87.48 10.00  40.40 3004.80
   00:14:38.311.01-Feb-2020 3989.40 3193.18 87.48 10.00  40.60 3004.80
   00:14:38.511.01-Feb-2020 3989.40 3194.76 87.48 10.00  40.80 3004.80
   00:14:38.711.01-Feb-2020 3989.40 3196.30 87.48 10.00  41.00 3004.80
   00:14:38.912.01-Feb-2020 3989.40 3196.30 87.48 10.00  41.20 3004.80
   00:14:39.112.01-Feb-2020 3989.40 3198.81 87.48 10.00  41.40 3004.80
   00:14:39.312.01-Feb-2020 3989.40 3199.88 87.48 10.00  41.60 3004.80
   00:14:39.512.01-Feb-2020 3989.40 3200.76 87.48 10.00  41.80 3004.80
   00:14:39.712.01-Feb-2020 3989.40 3201.78 87.48 10.00  42.00 3004.80
   00:14:39.912.01-Feb-2020 3989.40 3201.78 87.48 10.00  42.20 3004.80
   00:14:40.112.01-Feb-2020 3989.40 3203.10 87.48 10.00  42.40 3004.80
   00:14:40.312.01-Feb-2020 3989.40 3203.79 87.47 10.00  42.60 3004.80
   00:14:40.512.01-Feb-2020 3989.40 3204.47 87.47 10.00  42.80 3004.80
   00:14:40.712.01-Feb-2020 3989.40 3205.09 87.47 10.00  43.00 3004.80
   00:14:40.912.01-Feb-2020 3989.40 3205.09 87.47 10.00  43.20 3004.80
   00:14:41.112.01-Feb-2020 3989.40 3206.05 87.47 10.00  43.40 3004.80
   00:14:41.312.01-Feb-2020 3989.40 3206.63 87.47 10.00  43.60 3004.80
   00:14:41.512.01-Feb-2020 3989.40 3207.21 87.47 10.00  43.80 3004.80
   00:14:41.712.01-Feb-2020 3989.40 3207.51 87.47 10.00  44.00 3004.80
   00:14:41.912.01-Feb-2020 3989.40 3207.51 87.47 10.00  44.20 3004.80
   00:14:42.112.01-Feb-2020 3989.40 3208.29 87.47 10.00  44.40 3004.80
   00:14:42.312.01-Feb-2020 3989.40 3208.57 87.47 10.00  44.60 3004.80
   00:14:42.512.01-Feb-2020 3989.40 3208.98 87.47 10.00  44.80 3004.80
   00:14:42.712.01-Feb-2020 3989.40 3209.22 87.46 10.00  45.00 3004.80
