~Version Information
 VERS.                  2.0:   CWLS log ASCII Standard -VERSION 2.0
 WRAP.                   NO:   One line per depth step
~Well Information Block
#MNEM.UNIT     VALUE/NAME     DESCRIPTION
#---------     -----------    ---------------------------
 STRT.S             06:25:21 31-Jan-20: START TIME 06:25:21 31-Jan-20
 STOP.S             06:31:52 31-Jan-20: STOP TIME  06:31:52 31-Jan-20
 STEP.S                   0.00: STEP TIME
 NULL.                 -999.25: NULL VALUE
 DFWT.                        :  DIST FWL TEXT
 DFST.                        :  DIST FSL TEXT
 DMF .             Drill Floor:  DRILL MEAS FROM
 STIM.      09.30.00 26-Dec-19:  START TIME
 DATE.      08.00.00 20-Jan-20:  END TIME
 SPUD.               23-Nov-19:  SPUD DATE
 NREF.                    Grid:  NORTH REFERENCE
 HPTY.       Minimum Curvature:  HOLE POS TYPE
 DMOD.             Drill Model:  DRILL MOD DESC
 SVYD.                  Survey:  SURVEY DESC
 ILTD.               Lithology:  INTERP LTH DESC
 FTOP.          Formation Tops:  FORM TOPS DESC
 SON .        AZ-XX-0906192647:  JOB NUMBER
 WTYP.                Deviated:  WELL TYPE
 COMP.     BP Exploration (Caspian Sea) Ltd:  COMPANY
 BASE.              Azerbaijan:  LOGGING EQUIPMENT BASE LOCATION
 REGN.                 Eurasia:  REGION
 FLD .                     ACG:  FIELD NAME
 SRVC.              KCA Deutag:  CONTRACTOR
 MWDS.                    Baku:  MWD SHOP
 WELL.     A10 (Slot 20) - SCP:  WELL NAME
 JOBN.        AZ-XX-0906192647:  JOB TICKET NUMB
 RIG .                 Chirag1:  RIG NAME
 DCON.     Halliburton Sperry Drilling:  DIRECTNL CONTR
 UNIT.                     N/A:  LOGGING EQUIPMENT ID
 PDAT.          Mean Sea Level:  PERMANENT DATUM
 MDS .        Operator Entered:  MAG DATA SOURCE
 CTRY.              Azerbaijan:  COUNTRY NAME
 UWI .            /AZE00000090:  UNIQUE WELL IDENTIFIER
 API .            /AZE00000090:  API NUMBER
 CNTY.                        :  COUNTY
 PROV.                        :  PROVINCE
 STAT.                        :  STATE
 LOC .                        :  LOCATION
 LMF .             Drill Floor:  LOG MEASURED FROM
 TVDS.m                  36.60:  TVDSS CORRECTN
 LATI.deg                40.08:  LATITUDE
 LONG.deg                51.24:  LONGITUDE
 WHNS.m                  -7.94:  WELL HEAD N/S
 WHEW.m                   1.56:  WELL HEAD E/W
 UTMX.m              520429.26:  UTM X
 UTMY.m             4438973.87:  UTM Y
 DFWL.m                   0.00:  DISTANCE FWL
 DFSL.m                   0.00:  DISTANCE FSL
 SDEP.m                1455.00:  START DEPTH
 TDD .m                4047.51:  TOTAL DEPTH (DRILLER)
 VSDR.deg               112.75:  VERT SEC DIRECT
 GVFD.g                   1.00:  GRAVITY FIELD
 MFLD.nT              50261.00:  MAGNETIC FIELD
 MDIP.deg                59.52:  MAGNETIC DIP
 MDEC.deg                 6.42:  MAGNETIC DECL
 GRDC.deg                 0.17:  GRID CORRECTION
 AZTC.deg                 6.25:  AZM TOTAL CORR
 EPD .m                   0.00:  ELEVATION
 EGL .m                   0.00:  GROUND ELEVATION
 WDMS.m                 121.00:  WD ELEV
 APD .m                  36.60:  DEPTH ABOVE PD
 AGAP.m                  36.60:  AIR GAP
 VSEW.m                   1.56:  VERT SEC E/W
 VSNS.m                  -7.94:  VERT SEC N/S
 DEP .m                1140.01:  DEPTH
 EKB .m                  36.60:  KB ELEVATION
 EDF .m                  36.60:  DF ELEVATION
 TDL .m                 169.50:  TOTAL DEPTH (LOGGER)
 CSGD.m                3875.01:  CASING BOTTOM (DRILLER)
 CSGL.m                3875.01:  CASING BOTTOM (LOGGER)
 CSGS.in                  7.63:  CASING SIZE
 CSGW.lbpf               23.50:  CASING WEIGHT
 VSC .                       0:  VS TO CLOSURE
 MAGU.                 1849206:  MAGUTM CHECKSUM
~Parameter Information Block
#MNEM.UNIT       Value        Description
#---------     -----------    ---------------------------
 AV  .mps                 1.90:  Ann Velocity 
 AVMX.mps                 2.54:  Max Ann Veloc 
 AZIF.deg               137.03:  Azm, Final 
 BHAT.        Rotary Steerable:  BHA Type 
 BREV.rev             23610.00:  Rev Bit Total 
 BROT.°/30m               0.80:  Build Rotating 
 BS  .in                  6.50:  Bit Size 
 BTPL.psig              110.00:  Bit Press Loss 
 CABU.                     Yes:  Customer Abuse 
 COMM.                     Ð„:  Run Comments 1 
 TCS .hr                 70.51:  Time Ciculation Ended 
 CV  .mps                 1.41:  Crit Velocity 
 CVMX.mps                 1.42:  Max Crit Veloc 
 DD1 .         Intigam Rahimov:  Direct Drillr 1 
 DD2 .          Rashad Gojayev:  Direct Drillr 2 
 DDSV.               Geo-Pilot:  DD Service 
 DEFF.%                 100.00:  % Det Eff 
 DLRX.°/30m               1.44:  Dogleg Rot Max 
 DLSO.°/30m               0.00:  Dogleg Oriented 
 DLSX.°/30m               0.00:  Dogleg Str Max 
 DRET.      03.05.00 01-Feb-20:  Drill End Time 
 DRST.      15.50.00 28-Jan-20:  Drill Start Tim 
 DTIM.hr                 24.70:  Time Drilling 
 EDEP.m                4047.51:  End Depth 
 ENG1.           Eldar Hajiyev:  Engineer 1 
 ENG2.          Rasim Hashimov:  Engineer 2 
 ENG3.          Rustam Safarov:  Engineer 3 
 ETIM.      22.00.00 01-Feb-20:  End Time 
 FLOI.gpm               370.00:  Flow In 
 FLON.gpm               300.00:  Flow In Min 
 FLOS.cptm                0.00:  Fluid Loss 
 FLOX.gpm               400.00:  Flow In Max 
 FTRO.       Formation Presure:  FTWD Run Obj 
 HFLO.                      No:  High Flow 
 HPRE.                      No:  High Pressure 
 HTEM.                      No:  High Temp 
 HYDO.m                   2.50:  Hydro Offset 
 IFIN.deg                39.54:  Inc, Final 
 IMAX.deg                41.14:  Inc Max 
 IMIN.deg                39.81:  Inc Min 
 IMND.m                4005.21:  Inc Min Depth 
 IMXD.m                3948.42:  Inc Max Depth 
 JARR.                      No:  Jarring 
 LETM.      03.05.00 01-Feb-20:  Log End Time 
 LOST.hr                     0:  Lost Rig Time 
 LSTM.      15.50.00 28-Jan-20:  Log Start Time 
 MDCL.ppm             37500.00:  Mud Chlorides 
 MDES.     Inversion Oil/Synthetic:  Mud Desc 
 DFD .sg                  1.32:  Mud Density 
 MDMN.sg                  1.32:  Dens Mud Min 
 MDMX.sg                  1.32:  Dens Mud Max 
 MOIL.                      55:  Run Mud Oil % 
 MOWR.                   70:30:  Run Mud OWR 
 MSND.                       0:  Run Mud Sand % 
 MSOL.                      17:  Run Mud Solids% 
 DFV .spqt               80.00:  Mud Viscosity 
 MWOD.in                  4.75:  MWD Tool OD 
 MWSI.                      No:  Serv Intrp, MWD 
 OTIM.hr                121.28:  Time Operating 
 PCON.           Look Like New:  Pad Condition 
 PMAX.psia             6171.00:  Press Op, Max 
 PV  .cP                 30.00:  Mud PV 
 RUN .                     300:  Run Number 
 ROPA.m/hr                5.45:  ROP Avg 
 ROPN.m/hr                3.00:  ROP Min 
 ROPX.m/hr               15.00:  ROP Max 
 RPMA.rpm               130.00:  RPM Surface Avg 
 RPMN.rpm                80.00:  RPM Surface Min 
 RPMX.rpm               140.00:  RPM Surface Max 
 RRUN.                     300:  Rig Run Number 
 RTIM.hr                 13.50:  Time Reaming 
 SAZI.deg               133.93:  Azm, Start 
 SDEP.m                3878.01:  Start Depth 
 SIDD.                      No:  Serv Intrp, DD 
 SINC.deg                40.28:  Inc, Start 
 SPPA.psig             4983.00:  SPP Avg 
 SPPN.psig             4370.00:  SPP Min 
 SPPX.psig             5300.00:  SPP Max 
 STIM.      18.33.36 27-Jan-20:  Start Time 
 SVCS.                 DD, MWD:  Services 
 SVER.                    9.20:  Sperry Version 
 TDAT.m                 169.50:  Tot Depth Attmp 
 TDDF.                      No:  Trip for DD 
 TDLG.m                 169.50:  Tot Depth Loggd 
 TFF .                      No:  Trip for Fail 
 TQAA.f-kp               13.25:  Torque Abs Avg 
 TQAN.f-kp               12.00:  Torque Abs Min 
 TQAX.f-kp               14.00:  Torque Abs Max 
 TRRT.°/30m               0.70:  Turn Rotating 
 MRT .                     ADR:  Maximum Recorded Temperature 
 TTMX.degC               92.16:  Max Tool Temp 
 VS01.       AZ90598764G12V7D4:  Virtual Str1 SN 
 VS02.         AZ90571342R12C4:  Virtual Str2 SN 
 VS03.      AZ90580010N2L2X1C4:  Virtual Str3 SN 
 VS04.        AZ90522266O7X1C4:  Virtual Str4 SN 
 VS05.           AZ90598768F11:  Virtual Str5 SN 
 VS06.     AZ90580006XZ1W1X1C4:  Virtual Str6 SN 
 WBMN.klb                 8.00:  WOB Min 
 WITN.            Peter Wilson:  Customer Rep 
 WOBA.klb                 9.88:  WOB Avg 
 WOBX.klb                10.00:  WOB Max 
 YP  .lhf2               27.00:  Yield Point 
~Curve Information Block
#MNEM.UNIT                 API CODE     Curve Description
#---------               -----------    ---------------------------
 TIME.HHMMSS            00 000 000 000:  GT Time & Date
 GTDEPTH.m              00 000 000 000:  GT Depth
 GTPQH.psia             00 000 000 000:  GT HR Quartz Pressure
 GTTQ.degC              00 000 000 000:  GT Quartz Temperature
 GTTN.NONE              00 000 000 000:  GT Test Number
 GTET.sec               00 000 000 000:  GT Elapsed Test Time
 GTTVD.m                00 000 000 000:  GT True Vertical Depth
#Other Information
#
#WARRANTY: Halliburton will use its best efforts to furnish customers with 
#accurate information and interpretations that are part of, and incident to, the services 
#provided.  However, Halliburton cannot and does not warrant the accuracy 
#or correctness of such information and interpretations.  Under no circumstances should any 
#such information or interpretation be relied upon as the sole basis for any drilling, 
#completion, production, or financial decision or any procedure involving any risk to the 
#safety of any drilling venture, drilling rig or its crew or any other third party.  The 
#Customer has full responsibility for all drilling, completion and production operation.  
#Halliburton makes no representations or warranties, either expressed or 
#implied, including, but not limited to, the implied warranties of merchantability or fitness 
#for a particular purpose, with respect to the services rendered.  In no event will 
#Halliburton be liable for failure to obtain any particular results or for 
#any damages, including, but not limited to, indirect, special or consequential damages, 
#resulting from the use of any information or interpretation provided by Halliburton.
#
~A           TIME           GTDEPTH  GTPQH  GTTQ  GTTN  GTET   GTTVD  
# ...
   06:29:34.779.31-Jan-2020 3914.01 2993.00 78.52 4.00 253.05 2947.83
   06:29:34.979.31-Jan-2020 3914.01 2993.00 78.52 4.00 253.25 2947.83
   06:29:35.179.31-Jan-2020 3914.01 2993.03 78.52 4.00 253.45 2947.83
   06:29:35.379.31-Jan-2020 3914.01 2993.05 78.52 4.00 253.65 2947.83
   06:29:35.579.31-Jan-2020 3914.01 2993.08 78.52 4.00 253.85 2947.83
   06:29:35.779.31-Jan-2020 3914.01 2993.10 78.52 4.00 254.05 2947.83
   06:29:35.979.31-Jan-2020 3914.01 2993.10 78.52 4.00 254.25 2947.83
   06:29:36.179.31-Jan-2020 3914.01 2993.18 78.52 4.00 254.45 2947.83
   06:29:36.379.31-Jan-2020 3914.01 2993.19 78.52 4.00 254.65 2947.83
   06:29:36.579.31-Jan-2020 3914.01 2993.22 78.52 4.00 254.85 2947.83
   06:29:36.779.31-Jan-2020 3914.01 2993.22 78.52 4.00 255.05 2947.83
   06:29:36.979.31-Jan-2020 3914.01 2993.22 78.52 4.00 255.25 2947.83
   06:29:37.179.31-Jan-2020 3914.01 2993.29 78.52 4.00 255.45 2947.83
   06:29:37.379.31-Jan-2020 3914.01 2993.37 78.52 4.00 255.65 2947.83
   06:29:37.579.31-Jan-2020 3914.01 2993.20 78.52 4.00 255.85 2947.83
   06:29:37.779.31-Jan-2020 3914.01 2993.47 78.52 4.00 256.05 2947.83
   06:29:37.979.31-Jan-2020 3914.01 2993.47 78.52 4.00 256.25 2947.83
   06:29:38.180.31-Jan-2020 3914.01 2993.44 78.52 4.00 256.45 2947.83
   06:29:38.380.31-Jan-2020 3914.01 2993.44 78.51 4.00 256.65 2947.83
   06:29:38.580.31-Jan-2020 3914.01 2993.28 78.51 4.00 256.85 2947.83
   06:29:38.780.31-Jan-2020 3914.01 2993.64 78.51 4.00 257.05 2947.83
   06:29:38.980.31-Jan-2020 3914.01 2993.64 78.51 4.00 257.25 2947.83
   06:29:39.180.31-Jan-2020 3914.01 2993.54 78.51 4.00 257.45 2947.83
   06:29:39.380.31-Jan-2020 3914.01 2993.52 78.51 4.00 257.65 2947.83
   06:29:39.580.31-Jan-2020 3914.01 2993.51 78.51 4.00 257.85 2947.83
   06:29:39.780.31-Jan-2020 3914.01 2993.25 78.51 4.00 258.05 2947.83
   06:29:39.980.31-Jan-2020 3914.01 2993.25 78.51 4.00 258.25 2947.83
   06:29:40.180.31-Jan-2020 3914.01 2993.60 78.51 4.00 258.45 2947.83
   06:29:40.380.31-Jan-2020 3914.01 2993.58 78.51 4.00 258.65 2947.83
   06:29:40.580.31-Jan-2020 3914.01 2993.60 78.51 4.00 258.85 2947.83
   06:29:40.780.31-Jan-2020 3914.01 2993.56 78.51 4.00 259.05 2947.83
   06:29:40.980.31-Jan-2020 3914.01 2993.56 78.51 4.00 259.25 2947.83
   06:29:41.180.31-Jan-2020 3914.01 2993.44 78.51 4.00 259.45 2947.83
   06:29:41.380.31-Jan-2020 3914.01 2993.68 78.51 4.00 259.65 2947.83
   06:29:41.580.31-Jan-2020 3914.01 2993.67 78.51 4.00 259.85 2947.83
   06:29:41.780.31-Jan-2020 3914.01 2993.61 78.51 4.00 260.05 2947.83
   06:29:41.980.31-Jan-2020 3914.01 2993.61 78.51 4.00 260.25 2947.83
   06:29:42.180.31-Jan-2020 3914.01 2993.57 78.51 4.00 260.45 2947.83
   06:29:42.380.31-Jan-2020 3914.01 2993.59 78.50 4.00 260.65 2947.83
   06:29:42.580.31-Jan-2020 3914.01 2993.43 78.50 4.00 260.85 2947.83
   06:29:42.780.31-Jan-2020 3914.01 2993.78 78.50 4.00 261.05 2947.83
   06:29:42.980.31-Jan-2020 3914.01 2993.78 78.50 4.00 261.25 2947.83
   06:29:43.181.31-Jan-2020 3914.01 2993.63 78.50 4.00 261.45 2947.83
   06:29:43.381.31-Jan-2020 3914.01 2993.62 78.50 4.00 261.65 2947.83
   06:29:43.581.31-Jan-2020 3914.01 2993.60 78.50 4.00 261.85 2947.83
   06:29:43.781.31-Jan-2020 3914.01 2993.61 78.50 4.00 262.05 2947.83
   06:29:43.981.31-Jan-2020 3914.01 2993.61 78.50 4.00 262.25 2947.83
   06:29:44.181.31-Jan-2020 3914.01 2993.61 78.50 4.00 262.45 2947.83
   06:29:44.381.31-Jan-2020 3914.01 2993.60 78.50 4.00 262.65 2947.83
   06:29:44.581.31-Jan-2020 3914.01 2993.58 78.50 4.00 262.85 2947.83
   06:29:44.781.31-Jan-2020 3914.01 2993.57 78.50 4.00 263.05 2947.83
   06:29:44.981.31-Jan-2020 3914.01 2993.57 78.50 4.00 263.25 2947.83
   06:29:45.181.31-Jan-2020 3914.01 2993.57 78.50 4.00 263.45 2947.83
   06:29:45.381.31-Jan-2020 3914.01 2993.58 78.50 4.00 263.65 2947.83
   06:29:45.581.31-Jan-2020 3914.01 2993.63 78.50 4.00 263.85 2947.83
   06:29:45.781.31-Jan-2020 3914.01 2993.59 78.50 4.00 264.05 2947.83
   06:29:45.981.31-Jan-2020 3914.01 2993.59 78.50 4.00 264.25 2947.83
   06:29:46.181.31-Jan-2020 3914.01 2993.57 78.49 4.00 264.45 2947.83
   06:29:46.381.31-Jan-2020 3914.01 2993.36 78.49 4.00 264.65 2947.83
   06:29:46.581.31-Jan-2020 3914.01 2993.87 78.49 4.00 264.85 2947.83
   06:29:46.781.31-Jan-2020 3914.01 2993.71 78.49 4.00 265.05 2947.83
   06:29:46.981.31-Jan-2020 3914.01 2993.71 78.49 4.00 265.25 2947.83
   06:29:47.181.31-Jan-2020 3914.01 2993.67 78.49 4.00 265.45 2947.83
   06:29:47.381.31-Jan-2020 3914.01 2993.64 78.49 4.00 265.65 2947.83
   06:29:47.581.31-Jan-2020 3914.01 2993.64 78.49 4.00 265.85 2947.83
   06:29:47.781.31-Jan-2020 3914.01 2993.63 78.49 4.00 266.05 2947.83
   06:29:47.982.31-Jan-2020 3914.01 2993.63 78.49 4.00 266.25 2947.83
   06:29:48.182.31-Jan-2020 3914.01 2993.64 78.49 4.00 266.45 2947.83
   06:29:48.382.31-Jan-2020 3914.01 2993.60 78.49 4.00 266.65 2947.83
   06:29:48.582.31-Jan-2020 3914.01 2993.63 78.49 4.00 266.85 2947.83
   06:29:48.782.31-Jan-2020 3914.01 2993.60 78.49 4.00 267.05 2947.83
   06:29:48.982.31-Jan-2020 3914.01 2993.60 78.49 4.00 267.25 2947.83
   06:29:49.182.31-Jan-2020 3914.01 2993.63 78.49 4.00 267.45 2947.83
   06:29:49.382.31-Jan-2020 3914.01 2993.67 78.49 4.00 267.65 2947.83
   06:29:49.582.31-Jan-2020 3914.01 2993.47 78.49 4.00 267.85 2947.83
   06:29:49.782.31-Jan-2020 3914.01 2993.75 78.49 4.00 268.05 2947.83
   06:29:49.982.31-Jan-2020 3914.01 2993.75 78.49 4.00 268.25 2947.83
   06:29:50.182.31-Jan-2020 3914.01 2993.70 78.48 4.00 268.45 2947.83
   06:29:50.382.31-Jan-2020 3914.01 2993.67 78.48 4.00 268.65 2947.83
   06:29:50.582.31-Jan-2020 3914.01 2993.46 78.48 4.00 268.85 2947.83
   06:29:50.782.31-Jan-2020 3914.01 2993.83 78.48 4.00 269.05 2947.83
   06:29:50.982.31-Jan-2020 3914.01 2993.83 78.48 4.00 269.25 2947.83
   06:29:51.182.31-Jan-2020 3914.01 2993.71 78.48 4.00 269.45 2947.83
   06:29:51.382.31-Jan-2020 3914.01 2993.71 78.48 4.00 269.65 2947.83
   06:29:51.582.31-Jan-2020 3914.01 2993.70 78.48 4.00 269.85 2947.83
   06:29:51.782.31-Jan-2020 3914.01 2993.69 78.48 4.00 270.05 2947.83
   06:29:51.982.31-Jan-2020 3914.01 2993.69 78.48 4.00 270.25 2947.83
   06:29:52.182.31-Jan-2020 3914.01 2993.82 78.48 4.00 270.45 2947.83
   06:29:52.382.31-Jan-2020 3914.01 2993.74 78.48 4.00 270.65 2947.83
   06:29:52.582.31-Jan-2020 3914.01 2993.78 78.48 4.00 270.85 2947.83
   06:29:52.782.31-Jan-2020 3914.01 2993.72 78.48 4.00 271.06 2947.83
   06:29:52.983.31-Jan-2020 3914.01 2993.72 78.48 4.00 271.26 2947.83
   06:29:53.183.31-Jan-2020 3914.01 2993.57 78.48 4.00 271.46 2947.83
   06:29:53.383.31-Jan-2020 3914.01 2993.79 78.48 4.00 271.66 2947.83
   06:29:53.583.31-Jan-2020 3914.01 2993.79 78.48 4.00 271.86 2947.83
   06:29:53.783.31-Jan-2020 3914.01 2993.73 78.48 4.00 272.06 2947.83
   06:29:53.983.31-Jan-2020 3914.01 2993.73 78.48 4.00 272.26 2947.83
   06:29:54.183.31-Jan-2020 3914.01 2993.70 78.47 4.00 272.46 2947.83
   06:29:54.383.31-Jan-2020 3914.01 2993.69 78.47 4.00 272.66 2947.83
   06:29:54.583.31-Jan-2020 3914.01 2993.41 78.47 4.00 272.86 2947.83
   06:29:54.783.31-Jan-2020 3914.01 2993.93 78.47 4.00 273.06 2947.83
   06:29:54.983.31-Jan-2020 3914.01 2993.93 78.47 4.00 273.26 2947.83
   06:29:55.183.31-Jan-2020 3914.01 2993.74 78.47 4.00 273.46 2947.83
   06:29:55.383.31-Jan-2020 3914.01 2993.70 78.47 4.00 273.66 2947.83
   06:29:55.583.31-Jan-2020 3914.01 2993.69 78.47 4.00 273.86 2947.83
   06:29:55.783.31-Jan-2020 3914.01 2993.70 78.47 4.00 274.06 2947.83
   06:29:55.983.31-Jan-2020 3914.01 2993.70 78.47 4.00 274.26 2947.83
   06:29:56.183.31-Jan-2020 3914.01 2993.68 78.47 4.00 274.46 2947.83
   06:29:56.383.31-Jan-2020 3914.01 2993.69 78.47 4.00 274.66 2947.83
   06:29:56.583.31-Jan-2020 3914.01 2993.67 78.47 4.00 274.86 2947.83
   06:29:56.783.31-Jan-2020 3914.01 2993.64 78.47 4.00 275.06 2947.83
   06:29:56.983.31-Jan-2020 3914.01 2993.64 78.47 4.00 275.26 2947.83
   06:29:57.183.31-Jan-2020 3914.01 2993.65 78.47 4.00 275.46 2947.83
   06:29:57.383.31-Jan-2020 3914.01 2993.67 78.47 4.00 275.66 2947.83
   06:29:57.583.31-Jan-2020 3914.01 2993.70 78.47 4.00 275.86 2947.83
