~Version Information
 VERS.                  2.0:   CWLS log ASCII Standard -VERSION 2.0
 WRAP.                   NO:   One line per depth step
~Well Information Block
#MNEM.UNIT     VALUE/NAME     DESCRIPTION
#---------     -----------    ---------------------------
 STRT.S             19:01:08 30-Jan-20: START TIME 19:01:08 30-Jan-20
 STOP.S             19:07:38 30-Jan-20: STOP TIME  19:07:38 30-Jan-20
 STEP.S                   0.00: STEP TIME
 NULL.                 -999.25: NULL VALUE
 DFWT.                        :  DIST FWL TEXT
 DFST.                        :  DIST FSL TEXT
 DMF .             Drill Floor:  DRILL MEAS FROM
 STIM.      09.30.00 26-Dec-19:  START TIME
 DATE.      08.00.00 20-Jan-20:  END TIME
 SPUD.               23-Nov-19:  SPUD DATE
 NREF.                    Grid:  NORTH REFERENCE
 HPTY.       Minimum Curvature:  HOLE POS TYPE
 DMOD.             Drill Model:  DRILL MOD DESC
 SVYD.                  Survey:  SURVEY DESC
 ILTD.               Lithology:  INTERP LTH DESC
 FTOP.          Formation Tops:  FORM TOPS DESC
 SON .        AZ-XX-0906192647:  JOB NUMBER
 WTYP.                Deviated:  WELL TYPE
 COMP.     BP Exploration (Caspian Sea) Ltd:  COMPANY
 BASE.              Azerbaijan:  LOGGING EQUIPMENT BASE LOCATION
 REGN.                 Eurasia:  REGION
 FLD .                     ACG:  FIELD NAME
 SRVC.              KCA Deutag:  CONTRACTOR
 MWDS.                    Baku:  MWD SHOP
 WELL.     A10 (Slot 20) - SCP:  WELL NAME
 JOBN.        AZ-XX-0906192647:  JOB TICKET NUMB
 RIG .                 Chirag1:  RIG NAME
 DCON.     Halliburton Sperry Drilling:  DIRECTNL CONTR
 UNIT.                     N/A:  LOGGING EQUIPMENT ID
 PDAT.          Mean Sea Level:  PERMANENT DATUM
 MDS .        Operator Entered:  MAG DATA SOURCE
 CTRY.              Azerbaijan:  COUNTRY NAME
 UWI .            /AZE00000090:  UNIQUE WELL IDENTIFIER
 API .            /AZE00000090:  API NUMBER
 CNTY.                        :  COUNTY
 PROV.                        :  PROVINCE
 STAT.                        :  STATE
 LOC .                        :  LOCATION
 LMF .             Drill Floor:  LOG MEASURED FROM
 TVDS.m                  36.60:  TVDSS CORRECTN
 LATI.deg                40.08:  LATITUDE
 LONG.deg                51.24:  LONGITUDE
 WHNS.m                  -7.94:  WELL HEAD N/S
 WHEW.m                   1.56:  WELL HEAD E/W
 UTMX.m              520429.26:  UTM X
 UTMY.m             4438973.87:  UTM Y
 DFWL.m                   0.00:  DISTANCE FWL
 DFSL.m                   0.00:  DISTANCE FSL
 SDEP.m                1455.00:  START DEPTH
 TDD .m                4047.51:  TOTAL DEPTH (DRILLER)
 VSDR.deg               112.75:  VERT SEC DIRECT
 GVFD.g                   1.00:  GRAVITY FIELD
 MFLD.nT              50261.00:  MAGNETIC FIELD
 MDIP.deg                59.52:  MAGNETIC DIP
 MDEC.deg                 6.42:  MAGNETIC DECL
 GRDC.deg                 0.17:  GRID CORRECTION
 AZTC.deg                 6.25:  AZM TOTAL CORR
 EPD .m                   0.00:  ELEVATION
 EGL .m                   0.00:  GROUND ELEVATION
 WDMS.m                 121.00:  WD ELEV
 APD .m                  36.60:  DEPTH ABOVE PD
 AGAP.m                  36.60:  AIR GAP
 VSEW.m                   1.56:  VERT SEC E/W
 VSNS.m                  -7.94:  VERT SEC N/S
 DEP .m                1140.01:  DEPTH
 EKB .m                  36.60:  KB ELEVATION
 EDF .m                  36.60:  DF ELEVATION
 TDL .m                 169.50:  TOTAL DEPTH (LOGGER)
 CSGD.m                3875.01:  CASING BOTTOM (DRILLER)
 CSGL.m                3875.01:  CASING BOTTOM (LOGGER)
 CSGS.in                  7.63:  CASING SIZE
 CSGW.lbpf               23.50:  CASING WEIGHT
 VSC .                       0:  VS TO CLOSURE
 MAGU.                 1849206:  MAGUTM CHECKSUM
~Parameter Information Block
#MNEM.UNIT       Value        Description
#---------     -----------    ---------------------------
 AV  .mps                 1.90:  Ann Velocity 
 AVMX.mps                 2.54:  Max Ann Veloc 
 AZIF.deg               137.03:  Azm, Final 
 BHAT.        Rotary Steerable:  BHA Type 
 BREV.rev             23610.00:  Rev Bit Total 
 BROT.°/30m               0.80:  Build Rotating 
 BS  .in                  6.50:  Bit Size 
 BTPL.psig              110.00:  Bit Press Loss 
 CABU.                     Yes:  Customer Abuse 
 COMM.                     Ó€:  Run Comments 1 
 TCS .hr                 70.51:  Time Ciculation Ended 
 CV  .mps                 1.41:  Crit Velocity 
 CVMX.mps                 1.42:  Max Crit Veloc 
 DD1 .         Intigam Rahimov:  Direct Drillr 1 
 DD2 .          Rashad Gojayev:  Direct Drillr 2 
 DDSV.               Geo-Pilot:  DD Service 
 DEFF.%                 100.00:  % Det Eff 
 DLRX.°/30m               1.44:  Dogleg Rot Max 
 DLSO.°/30m               0.00:  Dogleg Oriented 
 DLSX.°/30m               0.00:  Dogleg Str Max 
 DRET.      03.05.00 01-Feb-20:  Drill End Time 
 DRST.      15.50.00 28-Jan-20:  Drill Start Tim 
 DTIM.hr                 24.70:  Time Drilling 
 EDEP.m                4047.51:  End Depth 
 ENG1.           Eldar Hajiyev:  Engineer 1 
 ENG2.          Rasim Hashimov:  Engineer 2 
 ENG3.          Rustam Safarov:  Engineer 3 
 ETIM.      22.00.00 01-Feb-20:  End Time 
 FLOI.gpm               370.00:  Flow In 
 FLON.gpm               300.00:  Flow In Min 
 FLOS.cptm                0.00:  Fluid Loss 
 FLOX.gpm               400.00:  Flow In Max 
 FTRO.       Formation Presure:  FTWD Run Obj 
 HFLO.                      No:  High Flow 
 HPRE.                      No:  High Pressure 
 HTEM.                      No:  High Temp 
 HYDO.m                   2.50:  Hydro Offset 
 IFIN.deg                39.54:  Inc, Final 
 IMAX.deg                41.14:  Inc Max 
 IMIN.deg                39.81:  Inc Min 
 IMND.m                4005.21:  Inc Min Depth 
 IMXD.m                3948.42:  Inc Max Depth 
 JARR.                      No:  Jarring 
 LETM.      03.05.00 01-Feb-20:  Log End Time 
 LOST.hr                     0:  Lost Rig Time 
 LSTM.      15.50.00 28-Jan-20:  Log Start Time 
 MDCL.ppm             37500.00:  Mud Chlorides 
 MDES.     Inversion Oil/Synthetic:  Mud Desc 
 DFD .sg                  1.32:  Mud Density 
 MDMN.sg                  1.32:  Dens Mud Min 
 MDMX.sg                  1.32:  Dens Mud Max 
 MOIL.                      55:  Run Mud Oil % 
 MOWR.                   70:30:  Run Mud OWR 
 MSND.                       0:  Run Mud Sand % 
 MSOL.                      17:  Run Mud Solids% 
 DFV .spqt               80.00:  Mud Viscosity 
 MWOD.in                  4.75:  MWD Tool OD 
 MWSI.                      No:  Serv Intrp, MWD 
 OTIM.hr                121.28:  Time Operating 
 PCON.           Look Like New:  Pad Condition 
 PMAX.psia             6171.00:  Press Op, Max 
 PV  .cP                 30.00:  Mud PV 
 RUN .                     300:  Run Number 
 ROPA.m/hr                5.45:  ROP Avg 
 ROPN.m/hr                3.00:  ROP Min 
 ROPX.m/hr               15.00:  ROP Max 
 RPMA.rpm               130.00:  RPM Surface Avg 
 RPMN.rpm                80.00:  RPM Surface Min 
 RPMX.rpm               140.00:  RPM Surface Max 
 RRUN.                     300:  Rig Run Number 
 RTIM.hr                 13.50:  Time Reaming 
 SAZI.deg               133.93:  Azm, Start 
 SDEP.m                3878.01:  Start Depth 
 SIDD.                      No:  Serv Intrp, DD 
 SINC.deg                40.28:  Inc, Start 
 SPPA.psig             4983.00:  SPP Avg 
 SPPN.psig             4370.00:  SPP Min 
 SPPX.psig             5300.00:  SPP Max 
 STIM.      18.33.36 27-Jan-20:  Start Time 
 SVCS.                 DD, MWD:  Services 
 SVER.                    9.20:  Sperry Version 
 TDAT.m                 169.50:  Tot Depth Attmp 
 TDDF.                      No:  Trip for DD 
 TDLG.m                 169.50:  Tot Depth Loggd 
 TFF .                      No:  Trip for Fail 
 TQAA.f-kp               13.25:  Torque Abs Avg 
 TQAN.f-kp               12.00:  Torque Abs Min 
 TQAX.f-kp               14.00:  Torque Abs Max 
 TRRT.°/30m               0.70:  Turn Rotating 
 MRT .                     ADR:  Maximum Recorded Temperature 
 TTMX.degC               92.16:  Max Tool Temp 
 VS01.       AZ90598764G12V7D4:  Virtual Str1 SN 
 VS02.         AZ90571342R12C4:  Virtual Str2 SN 
 VS03.      AZ90580010N2L2X1C4:  Virtual Str3 SN 
 VS04.        AZ90522266O7X1C4:  Virtual Str4 SN 
 VS05.           AZ90598768F11:  Virtual Str5 SN 
 VS06.     AZ90580006XZ1W1X1C4:  Virtual Str6 SN 
 WBMN.klb                 8.00:  WOB Min 
 WITN.            Peter Wilson:  Customer Rep 
 WOBA.klb                 9.88:  WOB Avg 
 WOBX.klb                10.00:  WOB Max 
 YP  .lhf2               27.00:  Yield Point 
~Curve Information Block
#MNEM.UNIT                 API CODE     Curve Description
#---------               -----------    ---------------------------
 TIME.HHMMSS            00 000 000 000:  GT Time & Date
 GTDEPTH.m              00 000 000 000:  GT Depth
 GTPQH.psia             00 000 000 000:  GT HR Quartz Pressure
 GTTQ.degC              00 000 000 000:  GT Quartz Temperature
 GTTN.NONE              00 000 000 000:  GT Test Number
 GTET.sec               00 000 000 000:  GT Elapsed Test Time
 GTTVD.m                00 000 000 000:  GT True Vertical Depth
#Other Information
#
#WARRANTY: Halliburton will use its best efforts to furnish customers with 
#accurate information and interpretations that are part of, and incident to, the services 
#provided.  However, Halliburton cannot and does not warrant the accuracy 
#or correctness of such information and interpretations.  Under no circumstances should any 
#such information or interpretation be relied upon as the sole basis for any drilling, 
#completion, production, or financial decision or any procedure involving any risk to the 
#safety of any drilling venture, drilling rig or its crew or any other third party.  The 
#Customer has full responsibility for all drilling, completion and production operation.  
#Halliburton makes no representations or warranties, either expressed or 
#implied, including, but not limited to, the implied warranties of merchantability or fitness 
#for a particular purpose, with respect to the services rendered.  In no event will 
#Halliburton be liable for failure to obtain any particular results or for 
#any damages, including, but not limited to, indirect, special or consequential damages, 
#resulting from the use of any information or interpretation provided by Halliburton.
#
~A           TIME           GTDEPTH  GTPQH  GTTQ  GTTN  GTET   GTTVD  
# ...
   19:05:21.548.30-Jan-2020 3884.01 2967.71 69.14 1.00 253.06 2925.13
   19:05:21.749.30-Jan-2020 3884.01 2967.71 69.14 1.00 253.26 2925.13
   19:05:21.949.30-Jan-2020 3884.01 2967.65 69.14 1.00 253.46 2925.13
   19:05:22.149.30-Jan-2020 3884.01 2967.71 69.14 1.00 253.66 2925.13
   19:05:22.349.30-Jan-2020 3884.01 2967.72 69.14 1.00 253.86 2925.13
   19:05:22.549.30-Jan-2020 3884.01 2967.74 69.14 1.00 254.06 2925.13
   19:05:22.749.30-Jan-2020 3884.01 2967.74 69.14 1.00 254.26 2925.13
   19:05:22.949.30-Jan-2020 3884.01 2967.78 69.14 1.00 254.46 2925.13
   19:05:23.149.30-Jan-2020 3884.01 2967.85 69.14 1.00 254.66 2925.13
   19:05:23.349.30-Jan-2020 3884.01 2967.90 69.14 1.00 254.86 2925.13
   19:05:23.549.30-Jan-2020 3884.01 2967.90 69.14 1.00 255.06 2925.13
   19:05:23.749.30-Jan-2020 3884.01 2967.90 69.14 1.00 255.26 2925.13
   19:05:23.949.30-Jan-2020 3884.01 2967.92 69.14 1.00 255.46 2925.13
   19:05:24.149.30-Jan-2020 3884.01 2968.03 69.14 1.00 255.66 2925.13
   19:05:24.349.30-Jan-2020 3884.01 2968.10 69.14 1.00 255.86 2925.13
   19:05:24.549.30-Jan-2020 3884.01 2967.64 69.14 1.00 256.06 2925.13
   19:05:24.749.30-Jan-2020 3884.01 2967.64 69.14 1.00 256.26 2925.13
   19:05:24.949.30-Jan-2020 3884.01 2968.14 69.14 1.00 256.46 2925.13
   19:05:25.149.30-Jan-2020 3884.01 2968.10 69.14 1.00 256.66 2925.13
   19:05:25.349.30-Jan-2020 3884.01 2968.20 69.14 1.00 256.86 2925.13
   19:05:25.549.30-Jan-2020 3884.01 2967.78 69.14 1.00 257.06 2925.13
   19:05:25.749.30-Jan-2020 3884.01 2967.78 69.14 1.00 257.26 2925.13
   19:05:25.950.30-Jan-2020 3884.01 2968.26 69.14 1.00 257.46 2925.13
   19:05:26.150.30-Jan-2020 3884.01 2968.21 69.14 1.00 257.66 2925.13
   19:05:26.350.30-Jan-2020 3884.01 2968.26 69.14 1.00 257.86 2925.13
   19:05:26.550.30-Jan-2020 3884.01 2967.85 69.14 1.00 258.06 2925.13
   19:05:26.750.30-Jan-2020 3884.01 2967.85 69.14 1.00 258.26 2925.13
   19:05:26.950.30-Jan-2020 3884.01 2968.26 69.14 1.00 258.46 2925.13
   19:05:27.150.30-Jan-2020 3884.01 2968.26 69.14 1.00 258.66 2925.13
   19:05:27.350.30-Jan-2020 3884.01 2968.31 69.14 1.00 258.86 2925.13
   19:05:27.550.30-Jan-2020 3884.01 2967.89 69.14 1.00 259.06 2925.13
   19:05:27.750.30-Jan-2020 3884.01 2967.89 69.14 1.00 259.26 2925.13
   19:05:27.950.30-Jan-2020 3884.01 2968.32 69.14 1.00 259.46 2925.13
   19:05:28.150.30-Jan-2020 3884.01 2968.36 69.14 1.00 259.66 2925.13
   19:05:28.350.30-Jan-2020 3884.01 2968.34 69.14 1.00 259.86 2925.13
   19:05:28.550.30-Jan-2020 3884.01 2968.30 69.14 1.00 260.06 2925.13
   19:05:28.750.30-Jan-2020 3884.01 2968.30 69.14 1.00 260.26 2925.13
   19:05:28.950.30-Jan-2020 3884.01 2968.01 69.14 1.00 260.46 2925.13
   19:05:29.150.30-Jan-2020 3884.01 2968.37 69.14 1.00 260.66 2925.13
   19:05:29.350.30-Jan-2020 3884.01 2968.49 69.14 1.00 260.86 2925.13
   19:05:29.550.30-Jan-2020 3884.01 2968.42 69.14 1.00 261.06 2925.13
   19:05:29.750.30-Jan-2020 3884.01 2968.42 69.14 1.00 261.26 2925.13
   19:05:29.950.30-Jan-2020 3884.01 2968.28 69.14 1.00 261.46 2925.13
   19:05:30.150.30-Jan-2020 3884.01 2968.34 69.14 1.00 261.66 2925.13
   19:05:30.351.30-Jan-2020 3884.01 2968.37 69.14 1.00 261.86 2925.13
   19:05:30.551.30-Jan-2020 3884.01 2968.35 69.14 1.00 262.06 2925.13
   19:05:30.751.30-Jan-2020 3884.01 2968.35 69.14 1.00 262.26 2925.13
   19:05:30.951.30-Jan-2020 3884.01 2968.28 69.14 1.00 262.46 2925.13
   19:05:31.151.30-Jan-2020 3884.01 2968.32 69.14 1.00 262.66 2925.13
   19:05:31.351.30-Jan-2020 3884.01 2968.34 69.14 1.00 262.86 2925.13
   19:05:31.551.30-Jan-2020 3884.01 2968.29 69.14 1.00 263.06 2925.13
   19:05:31.751.30-Jan-2020 3884.01 2968.29 69.14 1.00 263.26 2925.13
   19:05:31.951.30-Jan-2020 3884.01 2968.38 69.14 1.00 263.46 2925.13
   19:05:32.151.30-Jan-2020 3884.01 2968.32 69.14 1.00 263.66 2925.13
   19:05:32.351.30-Jan-2020 3884.01 2968.36 69.14 1.00 263.86 2925.13
   19:05:32.551.30-Jan-2020 3884.01 2968.35 69.14 1.00 264.06 2925.13
   19:05:32.751.30-Jan-2020 3884.01 2968.35 69.14 1.00 264.26 2925.13
   19:05:32.951.30-Jan-2020 3884.01 2968.62 69.14 1.00 264.46 2925.13
   19:05:33.151.30-Jan-2020 3884.01 2968.43 69.14 1.00 264.66 2925.13
   19:05:33.351.30-Jan-2020 3884.01 2968.45 69.14 1.00 264.86 2925.13
   19:05:33.551.30-Jan-2020 3884.01 2968.42 69.14 1.00 265.06 2925.13
   19:05:33.751.30-Jan-2020 3884.01 2968.42 69.14 1.00 265.26 2925.13
   19:05:33.951.30-Jan-2020 3884.01 2968.39 69.14 1.00 265.46 2925.13
   19:05:34.151.30-Jan-2020 3884.01 2968.38 69.14 1.00 265.66 2925.13
   19:05:34.351.30-Jan-2020 3884.01 2968.42 69.14 1.00 265.86 2925.13
   19:05:34.552.30-Jan-2020 3884.01 2968.44 69.14 1.00 266.06 2925.13
   19:05:34.752.30-Jan-2020 3884.01 2968.44 69.14 1.00 266.26 2925.13
   19:05:34.952.30-Jan-2020 3884.01 2968.38 69.14 1.00 266.46 2925.13
   19:05:35.152.30-Jan-2020 3884.01 2968.37 69.14 1.00 266.66 2925.13
   19:05:35.352.30-Jan-2020 3884.01 2968.35 69.14 1.00 266.86 2925.13
   19:05:35.552.30-Jan-2020 3884.01 2968.47 69.14 1.00 267.06 2925.13
   19:05:35.752.30-Jan-2020 3884.01 2968.47 69.14 1.00 267.26 2925.13
   19:05:35.952.30-Jan-2020 3884.01 2968.12 69.14 1.00 267.46 2925.13
   19:05:36.152.30-Jan-2020 3884.01 2968.42 69.14 1.00 267.66 2925.13
   19:05:36.352.30-Jan-2020 3884.01 2968.45 69.14 1.00 267.86 2925.13
   19:05:36.552.30-Jan-2020 3884.01 2968.44 69.14 1.00 268.06 2925.13
   19:05:36.752.30-Jan-2020 3884.01 2968.44 69.14 1.00 268.26 2925.13
   19:05:36.952.30-Jan-2020 3884.01 2968.17 69.14 1.00 268.46 2925.13
   19:05:37.152.30-Jan-2020 3884.01 2968.52 69.14 1.00 268.66 2925.13
   19:05:37.352.30-Jan-2020 3884.01 2968.53 69.14 1.00 268.86 2925.13
   19:05:37.552.30-Jan-2020 3884.01 2968.45 69.14 1.00 269.06 2925.13
   19:05:37.752.30-Jan-2020 3884.01 2968.45 69.14 1.00 269.26 2925.13
   19:05:37.952.30-Jan-2020 3884.01 2968.43 69.14 1.00 269.46 2925.13
   19:05:38.152.30-Jan-2020 3884.01 2968.49 69.14 1.00 269.66 2925.13
   19:05:38.352.30-Jan-2020 3884.01 2968.06 69.14 1.00 269.86 2925.13
   19:05:38.552.30-Jan-2020 3884.01 2968.57 69.14 1.00 270.06 2925.13
   19:05:38.752.30-Jan-2020 3884.01 2968.57 69.14 1.00 270.26 2925.13
   19:05:38.953.30-Jan-2020 3884.01 2968.55 69.14 1.00 270.46 2925.13
   19:05:39.153.30-Jan-2020 3884.01 2968.50 69.14 1.00 270.66 2925.13
   19:05:39.353.30-Jan-2020 3884.01 2968.09 69.14 1.00 270.86 2925.13
   19:05:39.553.30-Jan-2020 3884.01 2968.62 69.14 1.00 271.06 2925.13
   19:05:39.753.30-Jan-2020 3884.01 2968.62 69.14 1.00 271.26 2925.13
   19:05:39.953.30-Jan-2020 3884.01 2968.56 69.14 1.00 271.46 2925.13
   19:05:40.153.30-Jan-2020 3884.01 2968.43 69.14 1.00 271.66 2925.13
   19:05:40.353.30-Jan-2020 3884.01 2968.00 69.14 1.00 271.86 2925.13
   19:05:40.553.30-Jan-2020 3884.01 2968.72 69.14 1.00 272.06 2925.13
   19:05:40.753.30-Jan-2020 3884.01 2968.72 69.14 1.00 272.26 2925.13
   19:05:40.953.30-Jan-2020 3884.01 2968.55 69.13 1.00 272.46 2925.13
   19:05:41.153.30-Jan-2020 3884.01 2968.54 69.13 1.00 272.66 2925.13
   19:05:41.353.30-Jan-2020 3884.01 2968.49 69.14 1.00 272.86 2925.13
   19:05:41.553.30-Jan-2020 3884.01 2968.45 69.13 1.00 273.06 2925.13
   19:05:41.753.30-Jan-2020 3884.01 2968.45 69.13 1.00 273.26 2925.13
   19:05:41.953.30-Jan-2020 3884.01 2968.47 69.13 1.00 273.46 2925.13
   19:05:42.153.30-Jan-2020 3884.01 2968.54 69.13 1.00 273.66 2925.13
   19:05:42.353.30-Jan-2020 3884.01 2968.45 69.13 1.00 273.86 2925.13
   19:05:42.553.30-Jan-2020 3884.01 2968.44 69.13 1.00 274.06 2925.13
   19:05:42.753.30-Jan-2020 3884.01 2968.44 69.13 1.00 274.26 2925.13
   19:05:42.953.30-Jan-2020 3884.01 2968.44 69.13 1.00 274.46 2925.13
   19:05:43.154.30-Jan-2020 3884.01 2968.52 69.13 1.00 274.66 2925.13
   19:05:43.354.30-Jan-2020 3884.01 2968.47 69.13 1.00 274.86 2925.13
   19:05:43.554.30-Jan-2020 3884.01 2968.43 69.13 1.00 275.06 2925.13
   19:05:43.754.30-Jan-2020 3884.01 2968.43 69.13 1.00 275.26 2925.13
   19:05:43.954.30-Jan-2020 3884.01 2968.51 69.13 1.00 275.46 2925.13
   19:05:44.154.30-Jan-2020 3884.01 2968.11 69.13 1.00 275.66 2925.13
   19:05:44.354.30-Jan-2020 3884.01 2968.64 69.13 1.00 275.86 2925.13
