~Version Information
 VERS.                  2.0:   CWLS log ASCII Standard -VERSION 2.0
 WRAP.                   NO:   One line per depth step
~Well Information Block
#MNEM.UNIT     VALUE/NAME     DESCRIPTION
#---------     -----------    ---------------------------
 STRT.S             19:01:08 30-Jan-20: START TIME 19:01:08 30-Jan-20
 STOP.S             19:07:38 30-Jan-20: STOP TIME  19:07:38 30-Jan-20
 STEP.S                   0.00: STEP TIME
 NULL.                 -999.25: NULL VALUE
 DFWT.                        :  DIST FWL TEXT
 DFST.                        :  DIST FSL TEXT
 DMF .             Drill Floor:  DRILL MEAS FROM
 STIM.      09.30.00 26-Dec-19:  START TIME
 DATE.      08.00.00 20-Jan-20:  END TIME
 SPUD.               23-Nov-19:  SPUD DATE
 NREF.                    Grid:  NORTH REFERENCE
 HPTY.       Minimum Curvature:  HOLE POS TYPE
 DMOD.             Drill Model:  DRILL MOD DESC
 SVYD.                  Survey:  SURVEY DESC
 ILTD.               Lithology:  INTERP LTH DESC
 FTOP.          Formation Tops:  FORM TOPS DESC
 SON .        AZ-XX-0906192647:  JOB NUMBER
 WTYP.                Deviated:  WELL TYPE
 COMP.     BP Exploration (Caspian Sea) Ltd:  COMPANY
 BASE.              Azerbaijan:  LOGGING EQUIPMENT BASE LOCATION
 REGN.                 Eurasia:  REGION
 FLD .                     ACG:  FIELD NAME
 SRVC.              KCA Deutag:  CONTRACTOR
 MWDS.                    Baku:  MWD SHOP
 WELL.     A10 (Slot 20) - SCP:  WELL NAME
 JOBN.        AZ-XX-0906192647:  JOB TICKET NUMB
 RIG .                 Chirag1:  RIG NAME
 DCON.     Halliburton Sperry Drilling:  DIRECTNL CONTR
 UNIT.                     N/A:  LOGGING EQUIPMENT ID
 PDAT.          Mean Sea Level:  PERMANENT DATUM
 MDS .        Operator Entered:  MAG DATA SOURCE
 CTRY.              Azerbaijan:  COUNTRY NAME
 UWI .            /AZE00000090:  UNIQUE WELL IDENTIFIER
 API .            /AZE00000090:  API NUMBER
 CNTY.                        :  COUNTY
 PROV.                        :  PROVINCE
 STAT.                        :  STATE
 LOC .                        :  LOCATION
 LMF .             Drill Floor:  LOG MEASURED FROM
 TVDS.m                  36.60:  TVDSS CORRECTN
 LATI.deg                40.08:  LATITUDE
 LONG.deg                51.24:  LONGITUDE
 WHNS.m                  -7.94:  WELL HEAD N/S
 WHEW.m                   1.56:  WELL HEAD E/W
 UTMX.m              520429.26:  UTM X
 UTMY.m             4438973.87:  UTM Y
 DFWL.m                   0.00:  DISTANCE FWL
 DFSL.m                   0.00:  DISTANCE FSL
 SDEP.m                1455.00:  START DEPTH
 TDD .m                4047.51:  TOTAL DEPTH (DRILLER)
 VSDR.deg               112.75:  VERT SEC DIRECT
 GVFD.g                   1.00:  GRAVITY FIELD
 MFLD.nT              50261.00:  MAGNETIC FIELD
 MDIP.deg                59.52:  MAGNETIC DIP
 MDEC.deg                 6.42:  MAGNETIC DECL
 GRDC.deg                 0.17:  GRID CORRECTION
 AZTC.deg                 6.25:  AZM TOTAL CORR
 EPD .m                   0.00:  ELEVATION
 EGL .m                   0.00:  GROUND ELEVATION
 WDMS.m                 121.00:  WD ELEV
 APD .m                  36.60:  DEPTH ABOVE PD
 AGAP.m                  36.60:  AIR GAP
 VSEW.m                   1.56:  VERT SEC E/W
 VSNS.m                  -7.94:  VERT SEC N/S
 DEP .m                1140.01:  DEPTH
 EKB .m                  36.60:  KB ELEVATION
 EDF .m                  36.60:  DF ELEVATION
 TDL .m                 169.50:  TOTAL DEPTH (LOGGER)
 CSGD.m                3875.01:  CASING BOTTOM (DRILLER)
 CSGL.m                3875.01:  CASING BOTTOM (LOGGER)
 CSGS.in                  7.63:  CASING SIZE
 CSGW.lbpf               23.50:  CASING WEIGHT
 VSC .                       0:  VS TO CLOSURE
 MAGU.                 1849206:  MAGUTM CHECKSUM
~Parameter Information Block
#MNEM.UNIT       Value        Description
#---------     -----------    ---------------------------
 AV  .mps                 1.90:  Ann Velocity 
 AVMX.mps                 2.54:  Max Ann Veloc 
 AZIF.deg               137.03:  Azm, Final 
 BHAT.        Rotary Steerable:  BHA Type 
 BREV.rev             23610.00:  Rev Bit Total 
 BROT.°/30m               0.80:  Build Rotating 
 BS  .in                  6.50:  Bit Size 
 BTPL.psig              110.00:  Bit Press Loss 
 CABU.                     Yes:  Customer Abuse 
 COMM.                     Ó€:  Run Comments 1 
 TCS .hr                 70.51:  Time Ciculation Ended 
 CV  .mps                 1.41:  Crit Velocity 
 CVMX.mps                 1.42:  Max Crit Veloc 
 DD1 .         Intigam Rahimov:  Direct Drillr 1 
 DD2 .          Rashad Gojayev:  Direct Drillr 2 
 DDSV.               Geo-Pilot:  DD Service 
 DEFF.%                 100.00:  % Det Eff 
 DLRX.°/30m               1.44:  Dogleg Rot Max 
 DLSO.°/30m               0.00:  Dogleg Oriented 
 DLSX.°/30m               0.00:  Dogleg Str Max 
 DRET.      03.05.00 01-Feb-20:  Drill End Time 
 DRST.      15.50.00 28-Jan-20:  Drill Start Tim 
 DTIM.hr                 24.70:  Time Drilling 
 EDEP.m                4047.51:  End Depth 
 ENG1.           Eldar Hajiyev:  Engineer 1 
 ENG2.          Rasim Hashimov:  Engineer 2 
 ENG3.          Rustam Safarov:  Engineer 3 
 ETIM.      22.00.00 01-Feb-20:  End Time 
 FLOI.gpm               370.00:  Flow In 
 FLON.gpm               300.00:  Flow In Min 
 FLOS.cptm                0.00:  Fluid Loss 
 FLOX.gpm               400.00:  Flow In Max 
 FTRO.       Formation Presure:  FTWD Run Obj 
 HFLO.                      No:  High Flow 
 HPRE.                      No:  High Pressure 
 HTEM.                      No:  High Temp 
 HYDO.m                   2.50:  Hydro Offset 
 IFIN.deg                39.54:  Inc, Final 
 IMAX.deg                41.14:  Inc Max 
 IMIN.deg                39.81:  Inc Min 
 IMND.m                4005.21:  Inc Min Depth 
 IMXD.m                3948.42:  Inc Max Depth 
 JARR.                      No:  Jarring 
 LETM.      03.05.00 01-Feb-20:  Log End Time 
 LOST.hr                     0:  Lost Rig Time 
 LSTM.      15.50.00 28-Jan-20:  Log Start Time 
 MDCL.ppm             37500.00:  Mud Chlorides 
 MDES.     Inversion Oil/Synthetic:  Mud Desc 
 DFD .sg                  1.32:  Mud Density 
 MDMN.sg                  1.32:  Dens Mud Min 
 MDMX.sg                  1.32:  Dens Mud Max 
 MOIL.                      55:  Run Mud Oil % 
 MOWR.                   70:30:  Run Mud OWR 
 MSND.                       0:  Run Mud Sand % 
 MSOL.                      17:  Run Mud Solids% 
 DFV .spqt               80.00:  Mud Viscosity 
 MWOD.in                  4.75:  MWD Tool OD 
 MWSI.                      No:  Serv Intrp, MWD 
 OTIM.hr                121.28:  Time Operating 
 PCON.           Look Like New:  Pad Condition 
 PMAX.psia             6171.00:  Press Op, Max 
 PV  .cP                 30.00:  Mud PV 
 RUN .                     300:  Run Number 
 ROPA.m/hr                5.45:  ROP Avg 
 ROPN.m/hr                3.00:  ROP Min 
 ROPX.m/hr               15.00:  ROP Max 
 RPMA.rpm               130.00:  RPM Surface Avg 
 RPMN.rpm                80.00:  RPM Surface Min 
 RPMX.rpm               140.00:  RPM Surface Max 
 RRUN.                     300:  Rig Run Number 
 RTIM.hr                 13.50:  Time Reaming 
 SAZI.deg               133.93:  Azm, Start 
 SDEP.m                3878.01:  Start Depth 
 SIDD.                      No:  Serv Intrp, DD 
 SINC.deg                40.28:  Inc, Start 
 SPPA.psig             4983.00:  SPP Avg 
 SPPN.psig             4370.00:  SPP Min 
 SPPX.psig             5300.00:  SPP Max 
 STIM.      18.33.36 27-Jan-20:  Start Time 
 SVCS.                 DD, MWD:  Services 
 SVER.                    9.20:  Sperry Version 
 TDAT.m                 169.50:  Tot Depth Attmp 
 TDDF.                      No:  Trip for DD 
 TDLG.m                 169.50:  Tot Depth Loggd 
 TFF .                      No:  Trip for Fail 
 TQAA.f-kp               13.25:  Torque Abs Avg 
 TQAN.f-kp               12.00:  Torque Abs Min 
 TQAX.f-kp               14.00:  Torque Abs Max 
 TRRT.°/30m               0.70:  Turn Rotating 
 MRT .                     ADR:  Maximum Recorded Temperature 
 TTMX.degC               92.16:  Max Tool Temp 
 VS01.       AZ90598764G12V7D4:  Virtual Str1 SN 
 VS02.         AZ90571342R12C4:  Virtual Str2 SN 
 VS03.      AZ90580010N2L2X1C4:  Virtual Str3 SN 
 VS04.        AZ90522266O7X1C4:  Virtual Str4 SN 
 VS05.           AZ90598768F11:  Virtual Str5 SN 
 VS06.     AZ90580006XZ1W1X1C4:  Virtual Str6 SN 
 WBMN.klb                 8.00:  WOB Min 
 WITN.            Peter Wilson:  Customer Rep 
 WOBA.klb                 9.88:  WOB Avg 
 WOBX.klb                10.00:  WOB Max 
 YP  .lhf2               27.00:  Yield Point 
~Curve Information Block
#MNEM.UNIT                 API CODE     Curve Description
#---------               -----------    ---------------------------
 TIME.HHMMSS            00 000 000 000:  GT Time & Date
 GTDEPTH.m              00 000 000 000:  GT Depth
 GTPQH.psia             00 000 000 000:  GT HR Quartz Pressure
 GTTQ.degC              00 000 000 000:  GT Quartz Temperature
 GTTN.NONE              00 000 000 000:  GT Test Number
 GTET.sec               00 000 000 000:  GT Elapsed Test Time
 GTTVD.m                00 000 000 000:  GT True Vertical Depth
#Other Information
#
#WARRANTY: Halliburton will use its best efforts to furnish customers with 
#accurate information and interpretations that are part of, and incident to, the services 
#provided.  However, Halliburton cannot and does not warrant the accuracy 
#or correctness of such information and interpretations.  Under no circumstances should any 
#such information or interpretation be relied upon as the sole basis for any drilling, 
#completion, production, or financial decision or any procedure involving any risk to the 
#safety of any drilling venture, drilling rig or its crew or any other third party.  The 
#Customer has full responsibility for all drilling, completion and production operation.  
#Halliburton makes no representations or warranties, either expressed or 
#implied, including, but not limited to, the implied warranties of merchantability or fitness 
#for a particular purpose, with respect to the services rendered.  In no event will 
#Halliburton be liable for failure to obtain any particular results or for 
#any damages, including, but not limited to, indirect, special or consequential damages, 
#resulting from the use of any information or interpretation provided by Halliburton.
#
~A           TIME           GTDEPTH  GTPQH  GTTQ  GTTN  GTET   GTTVD  
# ...
   19:03:26.522.30-Jan-2020 3884.01 2606.70 69.22 1.00 138.03 2925.13
   19:03:26.722.30-Jan-2020 3884.01 2606.70 69.22 1.00 138.23 2925.13
   19:03:26.922.30-Jan-2020 3884.01 2607.76 69.22 1.00 138.43 2925.13
   19:03:27.122.30-Jan-2020 3884.01 2607.64 69.22 1.00 138.63 2925.13
   19:03:27.322.30-Jan-2020 3884.01 2608.53 69.22 1.00 138.83 2925.13
   19:03:27.522.30-Jan-2020 3884.01 2604.93 69.22 1.00 139.03 2925.13
   19:03:27.722.30-Jan-2020 3884.01 2604.93 69.22 1.00 139.23 2925.13
   19:03:27.922.30-Jan-2020 3884.01 2607.91 69.22 1.00 139.43 2925.13
   19:03:28.122.30-Jan-2020 3884.01 2607.22 69.22 1.00 139.63 2925.13
   19:03:28.322.30-Jan-2020 3884.01 2609.35 69.22 1.00 139.83 2925.13
   19:03:28.522.30-Jan-2020 3884.01 2608.66 69.22 1.00 140.03 2925.13
   19:03:28.722.30-Jan-2020 3884.01 2608.66 69.22 1.00 140.23 2925.13
   19:03:28.922.30-Jan-2020 3884.01 2607.66 69.22 1.00 140.43 2925.13
   19:03:29.122.30-Jan-2020 3884.01 2607.38 69.22 1.00 140.63 2925.13
   19:03:29.322.30-Jan-2020 3884.01 2608.53 69.22 1.00 140.83 2925.13
   19:03:29.522.30-Jan-2020 3884.01 2608.19 69.21 1.00 141.03 2925.13
   19:03:29.722.30-Jan-2020 3884.01 2608.19 69.21 1.00 141.23 2925.13
   19:03:29.922.30-Jan-2020 3884.01 2609.73 69.21 1.00 141.43 2925.13
   19:03:30.122.30-Jan-2020 3884.01 2607.61 69.21 1.00 141.63 2925.13
   19:03:30.323.30-Jan-2020 3884.01 2609.28 69.21 1.00 141.83 2925.13
   19:03:30.523.30-Jan-2020 3884.01 2610.53 69.21 1.00 142.03 2925.13
   19:03:30.723.30-Jan-2020 3884.01 2610.53 69.21 1.00 142.23 2925.13
   19:03:30.923.30-Jan-2020 3884.01 2610.47 69.21 1.00 142.43 2925.13
   19:03:31.123.30-Jan-2020 3884.01 2609.91 69.21 1.00 142.63 2925.13
   19:03:31.323.30-Jan-2020 3884.01 2607.90 69.21 1.00 142.83 2925.13
   19:03:31.523.30-Jan-2020 3884.01 2771.25 69.21 1.00 143.03 2925.13
   19:03:31.723.30-Jan-2020 3884.01 2771.25 69.21 1.00 143.23 2925.13
   19:03:31.923.30-Jan-2020 3884.01 2958.42 69.21 1.00 143.43 2925.13
   19:03:32.123.30-Jan-2020 3884.01 2964.20 69.21 1.00 143.63 2925.13
   19:03:32.323.30-Jan-2020 3884.01 2965.51 69.21 1.00 143.83 2925.13
   19:03:32.523.30-Jan-2020 3884.01 2966.00 69.21 1.00 144.03 2925.13
   19:03:32.723.30-Jan-2020 3884.01 2966.00 69.21 1.00 144.23 2925.13
   19:03:32.923.30-Jan-2020 3884.01 2966.71 69.21 1.00 144.43 2925.13
   19:03:33.123.30-Jan-2020 3884.01 2966.62 69.21 1.00 144.63 2925.13
   19:03:33.323.30-Jan-2020 3884.01 2967.20 69.21 1.00 144.83 2925.13
   19:03:33.523.30-Jan-2020 3884.01 2967.31 69.21 1.00 145.03 2925.13
   19:03:33.723.30-Jan-2020 3884.01 2967.31 69.21 1.00 145.23 2925.13
   19:03:33.923.30-Jan-2020 3884.01 2967.53 69.21 1.00 145.43 2925.13
   19:03:34.123.30-Jan-2020 3884.01 2967.27 69.21 1.00 145.63 2925.13
   19:03:34.323.30-Jan-2020 3884.01 2967.96 69.21 1.00 145.83 2925.13
   19:03:34.524.30-Jan-2020 3884.01 2967.88 69.21 1.00 146.03 2925.13
   19:03:34.724.30-Jan-2020 3884.01 2967.88 69.21 1.00 146.23 2925.13
   19:03:34.924.30-Jan-2020 3884.01 2967.89 69.21 1.00 146.43 2925.13
   19:03:35.124.30-Jan-2020 3884.01 2967.97 69.21 1.00 146.63 2925.13
   19:03:35.324.30-Jan-2020 3884.01 2967.81 69.21 1.00 146.83 2925.13
   19:03:35.524.30-Jan-2020 3884.01 2968.20 69.21 1.00 147.03 2925.13
   19:03:35.724.30-Jan-2020 3884.01 2968.20 69.21 1.00 147.23 2925.13
   19:03:35.924.30-Jan-2020 3884.01 2968.24 69.21 1.00 147.43 2925.13
   19:03:36.124.30-Jan-2020 3884.01 2968.15 69.21 1.00 147.63 2925.13
   19:03:36.324.30-Jan-2020 3884.01 2968.15 69.21 1.00 147.83 2925.13
   19:03:36.524.30-Jan-2020 3884.01 2968.16 69.21 1.00 148.03 2925.13
   19:03:36.724.30-Jan-2020 3884.01 2968.16 69.21 1.00 148.23 2925.13
   19:03:36.924.30-Jan-2020 3884.01 2968.31 69.21 1.00 148.43 2925.13
   19:03:37.124.30-Jan-2020 3884.01 2968.26 69.21 1.00 148.63 2925.13
   19:03:37.324.30-Jan-2020 3884.01 2968.22 69.21 1.00 148.83 2925.13
   19:03:37.524.30-Jan-2020 3884.01 2968.27 69.21 1.00 149.03 2925.13
   19:03:37.724.30-Jan-2020 3884.01 2968.27 69.21 1.00 149.23 2925.13
   19:03:37.924.30-Jan-2020 3884.01 2968.29 69.21 1.00 149.43 2925.13
   19:03:38.124.30-Jan-2020 3884.01 2968.39 69.21 1.00 149.63 2925.13
   19:03:38.324.30-Jan-2020 3884.01 2968.31 69.21 1.00 149.83 2925.13
   19:03:38.524.30-Jan-2020 3884.01 2968.36 69.21 1.00 150.03 2925.13
   19:03:38.725.30-Jan-2020 3884.01 2968.36 69.21 1.00 150.24 2925.13
   19:03:38.925.30-Jan-2020 3884.01 2968.20 69.21 1.00 150.44 2925.13
   19:03:39.125.30-Jan-2020 3884.01 2968.50 69.21 1.00 150.64 2925.13
   19:03:39.325.30-Jan-2020 3884.01 2968.52 69.21 1.00 150.84 2925.13
   19:03:39.525.30-Jan-2020 3884.01 2968.51 69.21 1.00 151.04 2925.13
   19:03:39.725.30-Jan-2020 3884.01 2968.51 69.21 1.00 151.24 2925.13
   19:03:39.925.30-Jan-2020 3884.01 2968.50 69.21 1.00 151.44 2925.13
   19:03:40.125.30-Jan-2020 3884.01 2968.49 69.20 1.00 151.64 2925.13
   19:03:40.325.30-Jan-2020 3884.01 2968.49 69.20 1.00 151.84 2925.13
   19:03:40.525.30-Jan-2020 3884.01 2968.47 69.20 1.00 152.04 2925.13
   19:03:40.725.30-Jan-2020 3884.01 2968.47 69.20 1.00 152.24 2925.13
   19:03:40.925.30-Jan-2020 3884.01 2968.51 69.20 1.00 152.44 2925.13
   19:03:41.125.30-Jan-2020 3884.01 2968.52 69.20 1.00 152.64 2925.13
   19:03:41.325.30-Jan-2020 3884.01 2968.52 69.20 1.00 152.84 2925.13
   19:03:41.525.30-Jan-2020 3884.01 2968.48 69.20 1.00 153.04 2925.13
   19:03:41.725.30-Jan-2020 3884.01 2968.48 69.20 1.00 153.24 2925.13
   19:03:41.925.30-Jan-2020 3884.01 2968.60 69.20 1.00 153.44 2925.13
   19:03:42.125.30-Jan-2020 3884.01 2968.31 69.20 1.00 153.64 2925.13
   19:03:42.325.30-Jan-2020 3884.01 2968.61 69.20 1.00 153.84 2925.13
   19:03:42.525.30-Jan-2020 3884.01 2968.62 69.20 1.00 154.04 2925.13
   19:03:42.725.30-Jan-2020 3884.01 2968.62 69.20 1.00 154.24 2925.13
   19:03:42.925.30-Jan-2020 3884.01 2968.62 69.20 1.00 154.44 2925.13
   19:03:43.126.30-Jan-2020 3884.01 2968.39 69.20 1.00 154.64 2925.13
   19:03:43.326.30-Jan-2020 3884.01 2968.68 69.20 1.00 154.84 2925.13
   19:03:43.526.30-Jan-2020 3884.01 2968.73 69.20 1.00 155.04 2925.13
   19:03:43.726.30-Jan-2020 3884.01 2968.73 69.20 1.00 155.24 2925.13
   19:03:43.926.30-Jan-2020 3884.01 2968.65 69.20 1.00 155.44 2925.13
   19:03:44.126.30-Jan-2020 3884.01 2968.62 69.20 1.00 155.64 2925.13
   19:03:44.326.30-Jan-2020 3884.01 2968.20 69.20 1.00 155.84 2925.13
   19:03:44.526.30-Jan-2020 3884.01 2968.91 69.20 1.00 156.04 2925.13
   19:03:44.726.30-Jan-2020 3884.01 2968.91 69.20 1.00 156.24 2925.13
   19:03:44.926.30-Jan-2020 3884.01 2968.71 69.20 1.00 156.44 2925.13
   19:03:45.126.30-Jan-2020 3884.01 2968.79 69.20 1.00 156.64 2925.13
   19:03:45.326.30-Jan-2020 3884.01 2968.25 69.20 1.00 156.84 2925.13
   19:03:45.526.30-Jan-2020 3884.01 2968.82 69.20 1.00 157.04 2925.13
   19:03:45.726.30-Jan-2020 3884.01 2968.82 69.20 1.00 157.24 2925.13
   19:03:45.926.30-Jan-2020 3884.01 2968.71 69.20 1.00 157.44 2925.13
   19:03:46.126.30-Jan-2020 3884.01 2968.73 69.20 1.00 157.64 2925.13
   19:03:46.326.30-Jan-2020 3884.01 2968.63 69.20 1.00 157.84 2925.13
   19:03:46.526.30-Jan-2020 3884.01 2968.66 69.20 1.00 158.04 2925.13
   19:03:46.726.30-Jan-2020 3884.01 2968.66 69.20 1.00 158.24 2925.13
   19:03:46.926.30-Jan-2020 3884.01 2968.91 69.20 1.00 158.44 2925.13
   19:03:47.126.30-Jan-2020 3884.01 2968.81 69.20 1.00 158.64 2925.13
   19:03:47.327.30-Jan-2020 3884.01 2968.76 69.20 1.00 158.84 2925.13
   19:03:47.527.30-Jan-2020 3884.01 2968.66 69.20 1.00 159.04 2925.13
   19:03:47.727.30-Jan-2020 3884.01 2968.66 69.20 1.00 159.24 2925.13
   19:03:47.927.30-Jan-2020 3884.01 2968.65 69.20 1.00 159.44 2925.13
   19:03:48.127.30-Jan-2020 3884.01 2968.73 69.20 1.00 159.64 2925.13
   19:03:48.327.30-Jan-2020 3884.01 2968.72 69.20 1.00 159.84 2925.13
   19:03:48.527.30-Jan-2020 3884.01 2968.64 69.20 1.00 160.04 2925.13
   19:03:48.727.30-Jan-2020 3884.01 2968.64 69.20 1.00 160.24 2925.13
   19:03:48.927.30-Jan-2020 3884.01 2968.69 69.20 1.00 160.44 2925.13
   19:03:49.127.30-Jan-2020 3884.01 2968.67 69.20 1.00 160.64 2925.13
   19:03:49.327.30-Jan-2020 3884.01 2968.69 69.20 1.00 160.84 2925.13
