~Version Information
 VERS.                  2.0:   CWLS log ASCII Standard -VERSION 2.0
 WRAP.                   NO:   One line per depth step
~Well Information Block
#MNEM.UNIT     VALUE/NAME     DESCRIPTION
#---------     -----------    ---------------------------
 STRT.S             17:04:09 31-Jan-20: START TIME 17:04:09 31-Jan-20
 STOP.S             17:10:42 31-Jan-20: STOP TIME  17:10:42 31-Jan-20
 STEP.S                   0.00: STEP TIME
 NULL.                 -999.25: NULL VALUE
 DFWT.                        :  DIST FWL TEXT
 DFST.                        :  DIST FSL TEXT
 DMF .             Drill Floor:  DRILL MEAS FROM
 STIM.      09.30.00 26-Dec-19:  START TIME
 DATE.      08.00.00 20-Jan-20:  END TIME
 SPUD.               23-Nov-19:  SPUD DATE
 NREF.                    Grid:  NORTH REFERENCE
 HPTY.       Minimum Curvature:  HOLE POS TYPE
 DMOD.             Drill Model:  DRILL MOD DESC
 SVYD.                  Survey:  SURVEY DESC
 ILTD.               Lithology:  INTERP LTH DESC
 FTOP.          Formation Tops:  FORM TOPS DESC
 SON .        AZ-XX-0906192647:  JOB NUMBER
 WTYP.                Deviated:  WELL TYPE
 COMP.     BP Exploration (Caspian Sea) Ltd:  COMPANY
 BASE.              Azerbaijan:  LOGGING EQUIPMENT BASE LOCATION
 REGN.                 Eurasia:  REGION
 FLD .                     ACG:  FIELD NAME
 SRVC.              KCA Deutag:  CONTRACTOR
 MWDS.                    Baku:  MWD SHOP
 WELL.     A10 (Slot 20) - SCP:  WELL NAME
 JOBN.        AZ-XX-0906192647:  JOB TICKET NUMB
 RIG .                 Chirag1:  RIG NAME
 DCON.     Halliburton Sperry Drilling:  DIRECTNL CONTR
 UNIT.                     N/A:  LOGGING EQUIPMENT ID
 PDAT.          Mean Sea Level:  PERMANENT DATUM
 MDS .        Operator Entered:  MAG DATA SOURCE
 CTRY.              Azerbaijan:  COUNTRY NAME
 UWI .            /AZE00000090:  UNIQUE WELL IDENTIFIER
 API .            /AZE00000090:  API NUMBER
 CNTY.                        :  COUNTY
 PROV.                        :  PROVINCE
 STAT.                        :  STATE
 LOC .                        :  LOCATION
 LMF .             Drill Floor:  LOG MEASURED FROM
 TVDS.m                  36.60:  TVDSS CORRECTN
 LATI.deg                40.08:  LATITUDE
 LONG.deg                51.24:  LONGITUDE
 WHNS.m                  -7.94:  WELL HEAD N/S
 WHEW.m                   1.56:  WELL HEAD E/W
 UTMX.m              520429.26:  UTM X
 UTMY.m             4438973.87:  UTM Y
 DFWL.m                   0.00:  DISTANCE FWL
 DFSL.m                   0.00:  DISTANCE FSL
 SDEP.m                1455.00:  START DEPTH
 TDD .m                4047.51:  TOTAL DEPTH (DRILLER)
 VSDR.deg               112.75:  VERT SEC DIRECT
 GVFD.g                   1.00:  GRAVITY FIELD
 MFLD.nT              50261.00:  MAGNETIC FIELD
 MDIP.deg                59.52:  MAGNETIC DIP
 MDEC.deg                 6.42:  MAGNETIC DECL
 GRDC.deg                 0.17:  GRID CORRECTION
 AZTC.deg                 6.25:  AZM TOTAL CORR
 EPD .m                   0.00:  ELEVATION
 EGL .m                   0.00:  GROUND ELEVATION
 WDMS.m                 121.00:  WD ELEV
 APD .m                  36.60:  DEPTH ABOVE PD
 AGAP.m                  36.60:  AIR GAP
 VSEW.m                   1.56:  VERT SEC E/W
 VSNS.m                  -7.94:  VERT SEC N/S
 DEP .m                1140.01:  DEPTH
 EKB .m                  36.60:  KB ELEVATION
 EDF .m                  36.60:  DF ELEVATION
 TDL .m                 169.50:  TOTAL DEPTH (LOGGER)
 CSGD.m                3875.01:  CASING BOTTOM (DRILLER)
 CSGL.m                3875.01:  CASING BOTTOM (LOGGER)
 CSGS.in                  7.63:  CASING SIZE
 CSGW.lbpf               23.50:  CASING WEIGHT
 VSC .                       0:  VS TO CLOSURE
 MAGU.                 1849206:  MAGUTM CHECKSUM
~Parameter Information Block
#MNEM.UNIT       Value        Description
#---------     -----------    ---------------------------
 AV  .mps                 1.90:  Ann Velocity 
 AVMX.mps                 2.54:  Max Ann Veloc 
 AZIF.deg               137.03:  Azm, Final 
 BHAT.        Rotary Steerable:  BHA Type 
 BREV.rev             23610.00:  Rev Bit Total 
 BROT.°/30m               0.80:  Build Rotating 
 BS  .in                  6.50:  Bit Size 
 BTPL.psig              110.00:  Bit Press Loss 
 CABU.                     Yes:  Customer Abuse 
 COMM.                     D7Y:  Run Comments 1 
 TCS .hr                 70.51:  Time Ciculation Ended 
 CV  .mps                 1.41:  Crit Velocity 
 CVMX.mps                 1.42:  Max Crit Veloc 
 DD1 .         Intigam Rahimov:  Direct Drillr 1 
 DD2 .          Rashad Gojayev:  Direct Drillr 2 
 DDSV.               Geo-Pilot:  DD Service 
 DEFF.%                 100.00:  % Det Eff 
 DLRX.°/30m               1.44:  Dogleg Rot Max 
 DLSO.°/30m               0.00:  Dogleg Oriented 
 DLSX.°/30m               0.00:  Dogleg Str Max 
 DRET.      03.05.00 01-Feb-20:  Drill End Time 
 DRST.      15.50.00 28-Jan-20:  Drill Start Tim 
 DTIM.hr                 24.70:  Time Drilling 
 EDEP.m                4047.51:  End Depth 
 ENG1.           Eldar Hajiyev:  Engineer 1 
 ENG2.          Rasim Hashimov:  Engineer 2 
 ENG3.          Rustam Safarov:  Engineer 3 
 ETIM.      22.00.00 01-Feb-20:  End Time 
 FLOI.gpm               370.00:  Flow In 
 FLON.gpm               300.00:  Flow In Min 
 FLOS.cptm                0.00:  Fluid Loss 
 FLOX.gpm               400.00:  Flow In Max 
 FTRO.       Formation Presure:  FTWD Run Obj 
 HFLO.                      No:  High Flow 
 HPRE.                      No:  High Pressure 
 HTEM.                      No:  High Temp 
 HYDO.m                   2.50:  Hydro Offset 
 IFIN.deg                39.54:  Inc, Final 
 IMAX.deg                41.14:  Inc Max 
 IMIN.deg                39.81:  Inc Min 
 IMND.m                4005.21:  Inc Min Depth 
 IMXD.m                3948.42:  Inc Max Depth 
 JARR.                      No:  Jarring 
 LETM.      03.05.00 01-Feb-20:  Log End Time 
 LOST.hr                     0:  Lost Rig Time 
 LSTM.      15.50.00 28-Jan-20:  Log Start Time 
 MDCL.ppm             37500.00:  Mud Chlorides 
 MDES.     Inversion Oil/Synthetic:  Mud Desc 
 DFD .sg                  1.32:  Mud Density 
 MDMN.sg                  1.32:  Dens Mud Min 
 MDMX.sg                  1.32:  Dens Mud Max 
 MOIL.                      55:  Run Mud Oil % 
 MOWR.                   70:30:  Run Mud OWR 
 MSND.                       0:  Run Mud Sand % 
 MSOL.                      17:  Run Mud Solids% 
 DFV .spqt               80.00:  Mud Viscosity 
 MWOD.in                  4.75:  MWD Tool OD 
 MWSI.                      No:  Serv Intrp, MWD 
 OTIM.hr                121.28:  Time Operating 
 PCON.           Look Like New:  Pad Condition 
 PMAX.psia             6171.00:  Press Op, Max 
 PV  .cP                 30.00:  Mud PV 
 RUN .                     300:  Run Number 
 ROPA.m/hr                5.45:  ROP Avg 
 ROPN.m/hr                3.00:  ROP Min 
 ROPX.m/hr               15.00:  ROP Max 
 RPMA.rpm               130.00:  RPM Surface Avg 
 RPMN.rpm                80.00:  RPM Surface Min 
 RPMX.rpm               140.00:  RPM Surface Max 
 RRUN.                     300:  Rig Run Number 
 RTIM.hr                 13.50:  Time Reaming 
 SAZI.deg               133.93:  Azm, Start 
 SDEP.m                3878.01:  Start Depth 
 SIDD.                      No:  Serv Intrp, DD 
 SINC.deg                40.28:  Inc, Start 
 SPPA.psig             4983.00:  SPP Avg 
 SPPN.psig             4370.00:  SPP Min 
 SPPX.psig             5300.00:  SPP Max 
 STIM.      18.33.36 27-Jan-20:  Start Time 
 SVCS.                 DD, MWD:  Services 
 SVER.                    9.20:  Sperry Version 
 TDAT.m                 169.50:  Tot Depth Attmp 
 TDDF.                      No:  Trip for DD 
 TDLG.m                 169.50:  Tot Depth Loggd 
 TFF .                      No:  Trip for Fail 
 TQAA.f-kp               13.25:  Torque Abs Avg 
 TQAN.f-kp               12.00:  Torque Abs Min 
 TQAX.f-kp               14.00:  Torque Abs Max 
 TRRT.°/30m               0.70:  Turn Rotating 
 MRT .                     ADR:  Maximum Recorded Temperature 
 TTMX.degC               92.16:  Max Tool Temp 
 VS01.       AZ90598764G12V7D4:  Virtual Str1 SN 
 VS02.         AZ90571342R12C4:  Virtual Str2 SN 
 VS03.      AZ90580010N2L2X1C4:  Virtual Str3 SN 
 VS04.        AZ90522266O7X1C4:  Virtual Str4 SN 
 VS05.           AZ90598768F11:  Virtual Str5 SN 
 VS06.     AZ90580006XZ1W1X1C4:  Virtual Str6 SN 
 WBMN.klb                 8.00:  WOB Min 
 WITN.            Peter Wilson:  Customer Rep 
 WOBA.klb                 9.88:  WOB Avg 
 WOBX.klb                10.00:  WOB Max 
 YP  .lhf2               27.00:  Yield Point 
~Curve Information Block
#MNEM.UNIT                 API CODE     Curve Description
#---------               -----------    ---------------------------
 TIME.HHMMSS            00 000 000 000:  GT Time & Date
 GTDEPTH.m              00 000 000 000:  GT Depth
 GTPQH.psia             00 000 000 000:  GT HR Quartz Pressure
 GTTQ.degC              00 000 000 000:  GT Quartz Temperature
 GTTN.NONE              00 000 000 000:  GT Test Number
 GTET.sec               00 000 000 000:  GT Elapsed Test Time
 GTTVD.m                00 000 000 000:  GT True Vertical Depth
#Other Information
#
#WARRANTY: Halliburton will use its best efforts to furnish customers with 
#accurate information and interpretations that are part of, and incident to, the services 
#provided.  However, Halliburton cannot and does not warrant the accuracy 
#or correctness of such information and interpretations.  Under no circumstances should any 
#such information or interpretation be relied upon as the sole basis for any drilling, 
#completion, production, or financial decision or any procedure involving any risk to the 
#safety of any drilling venture, drilling rig or its crew or any other third party.  The 
#Customer has full responsibility for all drilling, completion and production operation.  
#Halliburton makes no representations or warranties, either expressed or 
#implied, including, but not limited to, the implied warranties of merchantability or fitness 
#for a particular purpose, with respect to the services rendered.  In no event will 
#Halliburton be liable for failure to obtain any particular results or for 
#any damages, including, but not limited to, indirect, special or consequential damages, 
#resulting from the use of any information or interpretation provided by Halliburton.
#
~A           TIME           GTDEPTH  GTPQH  GTTQ  GTTN  GTET   GTTVD  
# ...
   17:04:32.515.31-Jan-2020 3960.51 6853.08 86.01 8.00  23.01 2982.89
   17:04:32.715.31-Jan-2020 3960.51 6853.08 86.01 8.00  23.21 2982.89
   17:04:32.915.31-Jan-2020 3960.51 6879.49 86.00 8.00  23.41 2982.89
   17:04:33.115.31-Jan-2020 3960.51 6887.77 86.00 8.00  23.61 2982.89
   17:04:33.315.31-Jan-2020 3960.51 6889.57 86.00 8.00  23.81 2982.89
   17:04:33.515.31-Jan-2020 3960.51 6900.07 86.00 8.00  24.01 2982.89
   17:04:33.715.31-Jan-2020 3960.51 6900.07 86.00 8.00  24.21 2982.89
   17:04:33.915.31-Jan-2020 3960.51 6900.60 86.00 8.00  24.41 2982.89
   17:04:34.116.31-Jan-2020 3960.51 6905.51 86.00 8.00  24.61 2982.89
   17:04:34.316.31-Jan-2020 3960.51 6911.44 86.00 8.00  24.81 2982.89
   17:04:34.516.31-Jan-2020 3960.51 6912.99 86.00 8.00  25.01 2982.89
   17:04:34.716.31-Jan-2020 3960.51 6912.99 86.00 8.00  25.21 2982.89
   17:04:34.916.31-Jan-2020 3960.51 6914.21 86.00 8.00  25.41 2982.89
   17:04:35.116.31-Jan-2020 3960.51 6917.24 86.00 8.00  25.61 2982.89
   17:04:35.316.31-Jan-2020 3960.51 6918.89 86.00 8.00  25.81 2982.89
   17:04:35.516.31-Jan-2020 3960.51 6922.19 86.00 8.00  26.01 2982.89
   17:04:35.716.31-Jan-2020 3960.51 6922.19 86.00 8.00  26.21 2982.89
   17:04:35.916.31-Jan-2020 3960.51 6917.90 85.99 8.00  26.41 2982.89
   17:04:36.116.31-Jan-2020 3960.51 6918.90 85.99 8.00  26.61 2982.89
   17:04:36.316.31-Jan-2020 3960.51 6919.33 85.99 8.00  26.81 2982.89
   17:04:36.516.31-Jan-2020 3960.51 6918.96 85.99 8.00  27.01 2982.89
   17:04:36.716.31-Jan-2020 3960.51 6918.96 85.99 8.00  27.21 2982.89
   17:04:36.916.31-Jan-2020 3960.51 6916.16 85.99 8.00  27.41 2982.89
   17:04:37.116.31-Jan-2020 3960.51 6916.34 85.99 8.00  27.61 2982.89
   17:04:37.316.31-Jan-2020 3960.51 6915.03 85.99 8.00  27.81 2982.89
   17:04:37.516.31-Jan-2020 3960.51 6914.22 85.99 8.00  28.01 2982.89
   17:04:37.716.31-Jan-2020 3960.51 6914.22 85.99 8.00  28.21 2982.89
   17:04:37.916.31-Jan-2020 3960.51 6914.31 85.99 8.00  28.41 2982.89
   17:04:38.116.31-Jan-2020 3960.51 6534.13 85.99 8.00  28.61 2982.89
   17:04:38.317.31-Jan-2020 3960.51 5761.03 85.99 8.00  28.81 2982.89
   17:04:38.517.31-Jan-2020 3960.51 5252.04 85.99 8.00  29.01 2982.89
   17:04:38.717.31-Jan-2020 3960.51 5252.04 85.99 8.00  29.21 2982.89
   17:04:38.917.31-Jan-2020 3960.51 3653.80 85.98 8.00  29.41 2982.89
   17:04:39.117.31-Jan-2020 3960.51 3061.59 85.98 8.00  29.61 2982.89
   17:04:39.317.31-Jan-2020 3960.51 2833.61 85.98 8.00  29.81 2982.89
   17:04:39.517.31-Jan-2020 3960.51 2780.40 85.98 8.00  30.01 2982.89
   17:04:39.717.31-Jan-2020 3960.51 2780.40 85.98 8.00  30.21 2982.89
   17:04:39.917.31-Jan-2020 3960.51 2966.00 85.98 8.00  30.41 2982.89
   17:04:40.117.31-Jan-2020 3960.51 3011.92 85.98 8.00  30.61 2982.89
   17:04:40.317.31-Jan-2020 3960.51 3074.68 85.98 8.00  30.81 2982.89
   17:04:40.517.31-Jan-2020 3960.51 3014.04 85.98 8.00  31.01 2982.89
   17:04:40.717.31-Jan-2020 3960.51 3014.04 85.98 8.00  31.21 2982.89
   17:04:40.917.31-Jan-2020 3960.51 2907.11 85.97 8.00  31.41 2982.89
   17:04:41.117.31-Jan-2020 3960.51 2899.33 85.97 8.00  31.61 2982.89
   17:04:41.317.31-Jan-2020 3960.51 2881.27 85.97 8.00  31.81 2982.89
   17:04:41.517.31-Jan-2020 3960.51 2866.25 85.97 8.00  32.01 2982.89
   17:04:41.717.31-Jan-2020 3960.51 2866.25 85.97 8.00  32.21 2982.89
   17:04:41.917.31-Jan-2020 3960.51 2856.16 85.97 8.00  32.41 2982.89
   17:04:42.117.31-Jan-2020 3960.51 2853.49 85.96 8.00  32.61 2982.89
   17:04:42.317.31-Jan-2020 3960.51 2854.24 85.96 8.00  32.81 2982.89
   17:04:42.518.31-Jan-2020 3960.51 2855.82 85.96 8.00  33.01 2982.89
   17:04:42.718.31-Jan-2020 3960.51 2855.82 85.96 8.00  33.21 2982.89
   17:04:42.918.31-Jan-2020 3960.51 2868.14 85.96 8.00  33.41 2982.89
   17:04:43.118.31-Jan-2020 3960.51 2899.80 85.96 8.00  33.61 2982.89
   17:04:43.318.31-Jan-2020 3960.51 2885.19 85.96 8.00  33.81 2982.89
   17:04:43.518.31-Jan-2020 3960.51 2871.68 85.95 8.00  34.01 2982.89
   17:04:43.718.31-Jan-2020 3960.51 2871.68 85.95 8.00  34.21 2982.89
   17:04:43.918.31-Jan-2020 3960.51 2858.76 85.95 8.00  34.41 2982.89
   17:04:44.118.31-Jan-2020 3960.51 2854.52 85.95 8.00  34.61 2982.89
   17:04:44.318.31-Jan-2020 3960.51 2852.94 85.95 8.00  34.81 2982.89
   17:04:44.518.31-Jan-2020 3960.51 2852.61 85.94 8.00  35.01 2982.89
   17:04:44.718.31-Jan-2020 3960.51 2852.61 85.94 8.00  35.21 2982.89
   17:04:44.918.31-Jan-2020 3960.51 2851.08 85.94 8.00  35.41 2982.89
   17:04:45.118.31-Jan-2020 3960.51 2850.94 85.94 8.00  35.61 2982.89
   17:04:45.318.31-Jan-2020 3960.51 2850.43 85.94 8.00  35.81 2982.89
   17:04:45.518.31-Jan-2020 3960.51 2850.85 85.94 8.00  36.01 2982.89
   17:04:45.718.31-Jan-2020 3960.51 2850.85 85.94 8.00  36.21 2982.89
   17:04:45.918.31-Jan-2020 3960.51 2846.93 85.93 8.00  36.41 2982.89
   17:04:46.118.31-Jan-2020 3960.51 2846.48 85.93 8.00  36.61 2982.89
   17:04:46.318.31-Jan-2020 3960.51 2848.24 85.93 8.00  36.81 2982.89
   17:04:46.518.31-Jan-2020 3960.51 2848.33 85.93 8.00  37.01 2982.89
   17:04:46.718.31-Jan-2020 3960.51 2848.33 85.93 8.00  37.21 2982.89
   17:04:46.919.31-Jan-2020 3960.51 2846.93 85.93 8.00  37.41 2982.89
   17:04:47.119.31-Jan-2020 3960.51 2847.03 85.92 8.00  37.61 2982.89
   17:04:47.319.31-Jan-2020 3960.51 2846.70 85.92 8.00  37.81 2982.89
   17:04:47.519.31-Jan-2020 3960.51 2846.03 85.92 8.00  38.01 2982.89
   17:04:47.719.31-Jan-2020 3960.51 2846.03 85.92 8.00  38.21 2982.89
   17:04:47.919.31-Jan-2020 3960.51 2845.00 85.92 8.00  38.41 2982.89
   17:04:48.119.31-Jan-2020 3960.51 2875.17 85.92 8.00  38.61 2982.89
   17:04:48.319.31-Jan-2020 3960.51 3186.36 85.91 8.00  38.81 2982.89
   17:04:48.519.31-Jan-2020 3960.51 3371.39 85.91 8.00  39.01 2982.89
   17:04:48.719.31-Jan-2020 3960.51 3371.39 85.91 8.00  39.21 2982.89
   17:04:48.919.31-Jan-2020 3960.51 3483.66 85.91 8.00  39.41 2982.89
   17:04:49.119.31-Jan-2020 3960.51 3498.78 85.91 8.00  39.61 2982.89
   17:04:49.319.31-Jan-2020 3960.51 3506.20 85.91 8.00  39.81 2982.89
   17:04:49.519.31-Jan-2020 3960.51 3509.57 85.91 8.00  40.01 2982.89
   17:04:49.719.31-Jan-2020 3960.51 3509.57 85.91 8.00  40.21 2982.89
   17:04:49.919.31-Jan-2020 3960.51 3513.43 85.91 8.00  40.41 2982.89
   17:04:50.119.31-Jan-2020 3960.51 3514.39 85.90 8.00  40.61 2982.89
   17:04:50.319.31-Jan-2020 3960.51 3515.25 85.90 8.00  40.81 2982.89
   17:04:50.519.31-Jan-2020 3960.51 3515.68 85.90 8.00  41.01 2982.89
   17:04:50.719.31-Jan-2020 3960.51 3515.68 85.90 8.00  41.21 2982.89
   17:04:50.919.31-Jan-2020 3960.51 3516.82 85.90 8.00  41.41 2982.89
   17:04:51.120.31-Jan-2020 3960.51 3516.96 85.90 8.00  41.61 2982.89
   17:04:51.320.31-Jan-2020 3960.51 3517.39 85.90 8.00  41.81 2982.89
   17:04:51.520.31-Jan-2020 3960.51 3517.24 85.90 8.00  42.01 2982.89
   17:04:51.720.31-Jan-2020 3960.51 3517.24 85.90 8.00  42.21 2982.89
   17:04:51.920.31-Jan-2020 3960.51 3518.13 85.89 8.00  42.41 2982.89
   17:04:52.120.31-Jan-2020 3960.51 3518.18 85.89 8.00  42.61 2982.89
   17:04:52.320.31-Jan-2020 3960.51 3518.56 85.89 8.00  42.81 2982.89
   17:04:52.520.31-Jan-2020 3960.51 3518.62 85.89 8.00  43.01 2982.89
   17:04:52.720.31-Jan-2020 3960.51 3518.62 85.89 8.00  43.21 2982.89
   17:04:52.920.31-Jan-2020 3960.51 3518.91 85.89 8.00  43.41 2982.89
   17:04:53.120.31-Jan-2020 3960.51 3518.94 85.89 8.00  43.61 2982.89
   17:04:53.320.31-Jan-2020 3960.51 3519.07 85.89 8.00  43.81 2982.89
   17:04:53.520.31-Jan-2020 3960.51 3519.01 85.89 8.00  44.01 2982.89
   17:04:53.720.31-Jan-2020 3960.51 3519.01 85.89 8.00  44.21 2982.89
   17:04:53.920.31-Jan-2020 3960.51 3519.34 85.88 8.00  44.41 2982.89
   17:04:54.120.31-Jan-2020 3960.51 3519.16 85.88 8.00  44.61 2982.89
   17:04:54.320.31-Jan-2020 3960.51 3519.46 85.88 8.00  44.81 2982.89
   17:04:54.520.31-Jan-2020 3960.51 3519.46 85.88 8.00  45.01 2982.89
   17:04:54.720.31-Jan-2020 3960.51 3519.46 85.88 8.00  45.21 2982.89
   17:04:54.920.31-Jan-2020 3960.51 3519.92 85.88 8.00  45.41 2982.89
   17:04:55.120.31-Jan-2020 3960.51 3518.99 85.88 8.00  45.61 2982.89
   17:04:55.321.31-Jan-2020 3960.51 3519.64 85.88 8.00  45.81 2982.89
