~Version Information
 VERS.                  2.0:   CWLS log ASCII Standard -VERSION 2.0
 WRAP.                   NO:   One line per depth step
~Well Information Block
#MNEM.UNIT     VALUE/NAME     DESCRIPTION
#---------     -----------    ---------------------------
 STRT.S             18:23:56 31-Jan-20: START TIME 18:23:56 31-Jan-20
 STOP.S             18:30:28 31-Jan-20: STOP TIME  18:30:28 31-Jan-20
 STEP.S                   0.00: STEP TIME
 NULL.                 -999.25: NULL VALUE
 DFWT.                        :  DIST FWL TEXT
 DFST.                        :  DIST FSL TEXT
 DMF .             Drill Floor:  DRILL MEAS FROM
 STIM.      09.30.00 26-Dec-19:  START TIME
 DATE.      08.00.00 20-Jan-20:  END TIME
 SPUD.               23-Nov-19:  SPUD DATE
 NREF.                    Grid:  NORTH REFERENCE
 HPTY.       Minimum Curvature:  HOLE POS TYPE
 DMOD.             Drill Model:  DRILL MOD DESC
 SVYD.                  Survey:  SURVEY DESC
 ILTD.               Lithology:  INTERP LTH DESC
 FTOP.          Formation Tops:  FORM TOPS DESC
 SON .        AZ-XX-0906192647:  JOB NUMBER
 WTYP.                Deviated:  WELL TYPE
 COMP.     BP Exploration (Caspian Sea) Ltd:  COMPANY
 BASE.              Azerbaijan:  LOGGING EQUIPMENT BASE LOCATION
 REGN.                 Eurasia:  REGION
 FLD .                     ACG:  FIELD NAME
 SRVC.              KCA Deutag:  CONTRACTOR
 MWDS.                    Baku:  MWD SHOP
 WELL.     A10 (Slot 20) - SCP:  WELL NAME
 JOBN.        AZ-XX-0906192647:  JOB TICKET NUMB
 RIG .                 Chirag1:  RIG NAME
 DCON.     Halliburton Sperry Drilling:  DIRECTNL CONTR
 UNIT.                     N/A:  LOGGING EQUIPMENT ID
 PDAT.          Mean Sea Level:  PERMANENT DATUM
 MDS .        Operator Entered:  MAG DATA SOURCE
 CTRY.              Azerbaijan:  COUNTRY NAME
 UWI .            /AZE00000090:  UNIQUE WELL IDENTIFIER
 API .            /AZE00000090:  API NUMBER
 CNTY.                        :  COUNTY
 PROV.                        :  PROVINCE
 STAT.                        :  STATE
 LOC .                        :  LOCATION
 LMF .             Drill Floor:  LOG MEASURED FROM
 TVDS.m                  36.60:  TVDSS CORRECTN
 LATI.deg                40.08:  LATITUDE
 LONG.deg                51.24:  LONGITUDE
 WHNS.m                  -7.94:  WELL HEAD N/S
 WHEW.m                   1.56:  WELL HEAD E/W
 UTMX.m              520429.26:  UTM X
 UTMY.m             4438973.87:  UTM Y
 DFWL.m                   0.00:  DISTANCE FWL
 DFSL.m                   0.00:  DISTANCE FSL
 SDEP.m                1455.00:  START DEPTH
 TDD .m                4047.51:  TOTAL DEPTH (DRILLER)
 VSDR.deg               112.75:  VERT SEC DIRECT
 GVFD.g                   1.00:  GRAVITY FIELD
 MFLD.nT              50261.00:  MAGNETIC FIELD
 MDIP.deg                59.52:  MAGNETIC DIP
 MDEC.deg                 6.42:  MAGNETIC DECL
 GRDC.deg                 0.17:  GRID CORRECTION
 AZTC.deg                 6.25:  AZM TOTAL CORR
 EPD .m                   0.00:  ELEVATION
 EGL .m                   0.00:  GROUND ELEVATION
 WDMS.m                 121.00:  WD ELEV
 APD .m                  36.60:  DEPTH ABOVE PD
 AGAP.m                  36.60:  AIR GAP
 VSEW.m                   1.56:  VERT SEC E/W
 VSNS.m                  -7.94:  VERT SEC N/S
 DEP .m                1140.01:  DEPTH
 EKB .m                  36.60:  KB ELEVATION
 EDF .m                  36.60:  DF ELEVATION
 TDL .m                 169.50:  TOTAL DEPTH (LOGGER)
 CSGD.m                3875.01:  CASING BOTTOM (DRILLER)
 CSGL.m                3875.01:  CASING BOTTOM (LOGGER)
 CSGS.in                  7.63:  CASING SIZE
 CSGW.lbpf               23.50:  CASING WEIGHT
 VSC .                       0:  VS TO CLOSURE
 MAGU.                 1849206:  MAGUTM CHECKSUM
~Parameter Information Block
#MNEM.UNIT       Value        Description
#---------     -----------    ---------------------------
 AV  .mps                 1.90:  Ann Velocity 
 AVMX.mps                 2.54:  Max Ann Veloc 
 AZIF.deg               137.03:  Azm, Final 
 BHAT.        Rotary Steerable:  BHA Type 
 BREV.rev             23610.00:  Rev Bit Total 
 BROT.°/30m               0.80:  Build Rotating 
 BS  .in                  6.50:  Bit Size 
 BTPL.psig              110.00:  Bit Press Loss 
 CABU.                     Yes:  Customer Abuse 
 COMM.                     ´>x:  Run Comments 1 
 TCS .hr                 70.51:  Time Ciculation Ended 
 CV  .mps                 1.41:  Crit Velocity 
 CVMX.mps                 1.42:  Max Crit Veloc 
 DD1 .         Intigam Rahimov:  Direct Drillr 1 
 DD2 .          Rashad Gojayev:  Direct Drillr 2 
 DDSV.               Geo-Pilot:  DD Service 
 DEFF.%                 100.00:  % Det Eff 
 DLRX.°/30m               1.44:  Dogleg Rot Max 
 DLSO.°/30m               0.00:  Dogleg Oriented 
 DLSX.°/30m               0.00:  Dogleg Str Max 
 DRET.      03.05.00 01-Feb-20:  Drill End Time 
 DRST.      15.50.00 28-Jan-20:  Drill Start Tim 
 DTIM.hr                 24.70:  Time Drilling 
 EDEP.m                4047.51:  End Depth 
 ENG1.           Eldar Hajiyev:  Engineer 1 
 ENG2.          Rasim Hashimov:  Engineer 2 
 ENG3.          Rustam Safarov:  Engineer 3 
 ETIM.      22.00.00 01-Feb-20:  End Time 
 FLOI.gpm               370.00:  Flow In 
 FLON.gpm               300.00:  Flow In Min 
 FLOS.cptm                0.00:  Fluid Loss 
 FLOX.gpm               400.00:  Flow In Max 
 FTRO.       Formation Presure:  FTWD Run Obj 
 HFLO.                      No:  High Flow 
 HPRE.                      No:  High Pressure 
 HTEM.                      No:  High Temp 
 HYDO.m                   2.50:  Hydro Offset 
 IFIN.deg                39.54:  Inc, Final 
 IMAX.deg                41.14:  Inc Max 
 IMIN.deg                39.81:  Inc Min 
 IMND.m                4005.21:  Inc Min Depth 
 IMXD.m                3948.42:  Inc Max Depth 
 JARR.                      No:  Jarring 
 LETM.      03.05.00 01-Feb-20:  Log End Time 
 LOST.hr                     0:  Lost Rig Time 
 LSTM.      15.50.00 28-Jan-20:  Log Start Time 
 MDCL.ppm             37500.00:  Mud Chlorides 
 MDES.     Inversion Oil/Synthetic:  Mud Desc 
 DFD .sg                  1.32:  Mud Density 
 MDMN.sg                  1.32:  Dens Mud Min 
 MDMX.sg                  1.32:  Dens Mud Max 
 MOIL.                      55:  Run Mud Oil % 
 MOWR.                   70:30:  Run Mud OWR 
 MSND.                       0:  Run Mud Sand % 
 MSOL.                      17:  Run Mud Solids% 
 DFV .spqt               80.00:  Mud Viscosity 
 MWOD.in                  4.75:  MWD Tool OD 
 MWSI.                      No:  Serv Intrp, MWD 
 OTIM.hr                121.28:  Time Operating 
 PCON.           Look Like New:  Pad Condition 
 PMAX.psia             6171.00:  Press Op, Max 
 PV  .cP                 30.00:  Mud PV 
 RUN .                     300:  Run Number 
 ROPA.m/hr                5.45:  ROP Avg 
 ROPN.m/hr                3.00:  ROP Min 
 ROPX.m/hr               15.00:  ROP Max 
 RPMA.rpm               130.00:  RPM Surface Avg 
 RPMN.rpm                80.00:  RPM Surface Min 
 RPMX.rpm               140.00:  RPM Surface Max 
 RRUN.                     300:  Rig Run Number 
 RTIM.hr                 13.50:  Time Reaming 
 SAZI.deg               133.93:  Azm, Start 
 SDEP.m                3878.01:  Start Depth 
 SIDD.                      No:  Serv Intrp, DD 
 SINC.deg                40.28:  Inc, Start 
 SPPA.psig             4983.00:  SPP Avg 
 SPPN.psig             4370.00:  SPP Min 
 SPPX.psig             5300.00:  SPP Max 
 STIM.      18.33.36 27-Jan-20:  Start Time 
 SVCS.                 DD, MWD:  Services 
 SVER.                    9.20:  Sperry Version 
 TDAT.m                 169.50:  Tot Depth Attmp 
 TDDF.                      No:  Trip for DD 
 TDLG.m                 169.50:  Tot Depth Loggd 
 TFF .                      No:  Trip for Fail 
 TQAA.f-kp               13.25:  Torque Abs Avg 
 TQAN.f-kp               12.00:  Torque Abs Min 
 TQAX.f-kp               14.00:  Torque Abs Max 
 TRRT.°/30m               0.70:  Turn Rotating 
 MRT .                     ADR:  Maximum Recorded Temperature 
 TTMX.degC               92.16:  Max Tool Temp 
 VS01.       AZ90598764G12V7D4:  Virtual Str1 SN 
 VS02.         AZ90571342R12C4:  Virtual Str2 SN 
 VS03.      AZ90580010N2L2X1C4:  Virtual Str3 SN 
 VS04.        AZ90522266O7X1C4:  Virtual Str4 SN 
 VS05.           AZ90598768F11:  Virtual Str5 SN 
 VS06.     AZ90580006XZ1W1X1C4:  Virtual Str6 SN 
 WBMN.klb                 8.00:  WOB Min 
 WITN.            Peter Wilson:  Customer Rep 
 WOBA.klb                 9.88:  WOB Avg 
 WOBX.klb                10.00:  WOB Max 
 YP  .lhf2               27.00:  Yield Point 
~Curve Information Block
#MNEM.UNIT                 API CODE     Curve Description
#---------               -----------    ---------------------------
 TIME.HHMMSS            00 000 000 000:  GT Time & Date
 GTDEPTH.m              00 000 000 000:  GT Depth
 GTPQH.psia             00 000 000 000:  GT HR Quartz Pressure
 GTTQ.degC              00 000 000 000:  GT Quartz Temperature
 GTTN.NONE              00 000 000 000:  GT Test Number
 GTET.sec               00 000 000 000:  GT Elapsed Test Time
 GTTVD.m                00 000 000 000:  GT True Vertical Depth
#Other Information
#
#WARRANTY: Halliburton will use its best efforts to furnish customers with 
#accurate information and interpretations that are part of, and incident to, the services 
#provided.  However, Halliburton cannot and does not warrant the accuracy 
#or correctness of such information and interpretations.  Under no circumstances should any 
#such information or interpretation be relied upon as the sole basis for any drilling, 
#completion, production, or financial decision or any procedure involving any risk to the 
#safety of any drilling venture, drilling rig or its crew or any other third party.  The 
#Customer has full responsibility for all drilling, completion and production operation.  
#Halliburton makes no representations or warranties, either expressed or 
#implied, including, but not limited to, the implied warranties of merchantability or fitness 
#for a particular purpose, with respect to the services rendered.  In no event will 
#Halliburton be liable for failure to obtain any particular results or for 
#any damages, including, but not limited to, indirect, special or consequential damages, 
#resulting from the use of any information or interpretation provided by Halliburton.
#
~A           TIME           GTDEPTH  GTPQH  GTTQ  GTTN  GTET   GTTVD  
# ...
   18:25:28.653.31-Jan-2020 3966.51 3853.44 85.15 9.00  92.02 2987.43
   18:25:28.853.31-Jan-2020 3966.51 3853.44 85.15 9.00  92.22 2987.43
   18:25:29.053.31-Jan-2020 3966.51 3853.28 85.15 9.00  92.42 2987.43
   18:25:29.253.31-Jan-2020 3966.51 3853.19 85.14 9.00  92.62 2987.43
   18:25:29.453.31-Jan-2020 3966.51 3853.24 85.14 9.00  92.82 2987.43
   18:25:29.653.31-Jan-2020 3966.51 3853.27 85.14 9.00  93.02 2987.43
   18:25:29.853.31-Jan-2020 3966.51 3853.27 85.14 9.00  93.22 2987.43
   18:25:30.053.31-Jan-2020 3966.51 3853.24 85.14 9.00  93.42 2987.43
   18:25:30.253.31-Jan-2020 3966.51 3852.90 85.14 9.00  93.62 2987.43
   18:25:30.453.31-Jan-2020 3966.51 3853.54 85.14 9.00  93.82 2987.43
   18:25:30.653.31-Jan-2020 3966.51 3853.39 85.14 9.00  94.02 2987.43
   18:25:30.853.31-Jan-2020 3966.51 3853.39 85.14 9.00  94.22 2987.43
   18:25:31.053.31-Jan-2020 3966.51 3853.22 85.14 9.00  94.42 2987.43
   18:25:31.253.31-Jan-2020 3966.51 3853.40 85.14 9.00  94.62 2987.43
   18:25:31.453.31-Jan-2020 3966.51 3853.42 85.14 9.00  94.82 2987.43
   18:25:31.653.31-Jan-2020 3966.51 3852.83 85.14 9.00  95.02 2987.43
   18:25:31.853.31-Jan-2020 3966.51 3852.83 85.14 9.00  95.22 2987.43
   18:25:32.054.31-Jan-2020 3966.51 3853.24 85.14 9.00  95.42 2987.43
   18:25:32.254.31-Jan-2020 3966.51 3853.45 85.14 9.00  95.62 2987.43
   18:25:32.454.31-Jan-2020 3966.51 3853.39 85.14 9.00  95.82 2987.43
   18:25:32.654.31-Jan-2020 3966.51 3853.30 85.13 9.00  96.02 2987.43
   18:25:32.854.31-Jan-2020 3966.51 3853.30 85.13 9.00  96.22 2987.43
   18:25:33.054.31-Jan-2020 3966.51 3853.23 85.13 9.00  96.42 2987.43
   18:25:33.254.31-Jan-2020 3966.51 3853.41 85.13 9.00  96.62 2987.43
   18:25:33.454.31-Jan-2020 3966.51 3853.29 85.13 9.00  96.82 2987.43
   18:25:33.654.31-Jan-2020 3966.51 3853.23 85.13 9.00  97.02 2987.43
   18:25:33.854.31-Jan-2020 3966.51 3853.23 85.13 9.00  97.22 2987.43
   18:25:34.054.31-Jan-2020 3966.51 3853.22 85.13 9.00  97.42 2987.43
   18:25:34.254.31-Jan-2020 3966.51 3853.32 85.13 9.00  97.62 2987.43
   18:25:34.454.31-Jan-2020 3966.51 3853.30 85.13 9.00  97.82 2987.43
   18:25:34.654.31-Jan-2020 3966.51 3853.33 85.13 9.00  98.02 2987.43
   18:25:34.854.31-Jan-2020 3966.51 3853.33 85.13 9.00  98.22 2987.43
   18:25:35.054.31-Jan-2020 3966.51 3853.26 85.13 9.00  98.42 2987.43
   18:25:35.254.31-Jan-2020 3966.51 3853.39 85.13 9.00  98.62 2987.43
   18:25:35.454.31-Jan-2020 3966.51 3853.00 85.13 9.00  98.82 2987.43
   18:25:35.654.31-Jan-2020 3966.51 3853.25 85.13 9.00  99.02 2987.43
   18:25:35.854.31-Jan-2020 3966.51 3853.25 85.13 9.00  99.22 2987.43
   18:25:36.054.31-Jan-2020 3966.51 3853.38 85.13 9.00  99.42 2987.43
   18:25:36.255.31-Jan-2020 3966.51 3853.37 85.13 9.00  99.62 2987.43
   18:25:36.455.31-Jan-2020 3966.51 3853.31 85.12 9.00  99.82 2987.43
   18:25:36.655.31-Jan-2020 3966.51 3853.31 85.12 9.00 100.02 2987.43
   18:25:36.855.31-Jan-2020 3966.51 3853.31 85.12 9.00 100.22 2987.43
   18:25:37.055.31-Jan-2020 3966.51 3853.38 85.12 9.00 100.42 2987.43
   18:25:37.255.31-Jan-2020 3966.51 3853.33 85.12 9.00 100.62 2987.43
   18:25:37.455.31-Jan-2020 3966.51 3853.32 85.12 9.00 100.82 2987.43
   18:25:37.655.31-Jan-2020 3966.51 3853.32 85.12 9.00 101.02 2987.43
   18:25:37.855.31-Jan-2020 3966.51 3853.32 85.12 9.00 101.22 2987.43
   18:25:38.055.31-Jan-2020 3966.51 3853.29 85.12 9.00 101.42 2987.43
   18:25:38.255.31-Jan-2020 3966.51 3853.31 85.12 9.00 101.62 2987.43
   18:25:38.455.31-Jan-2020 3966.51 3853.36 85.12 9.00 101.82 2987.43
   18:25:38.655.31-Jan-2020 3966.51 3853.10 85.12 9.00 102.02 2987.43
   18:25:38.855.31-Jan-2020 3966.51 3853.10 85.12 9.00 102.22 2987.43
   18:25:39.055.31-Jan-2020 3966.51 3853.30 85.12 9.00 102.42 2987.43
   18:25:39.255.31-Jan-2020 3966.51 3853.35 85.12 9.00 102.62 2987.43
   18:25:39.455.31-Jan-2020 3966.51 3853.28 85.12 9.00 102.82 2987.43
   18:25:39.655.31-Jan-2020 3966.51 3853.08 85.12 9.00 103.02 2987.43
   18:25:39.855.31-Jan-2020 3966.51 3853.08 85.12 9.00 103.22 2987.43
   18:25:40.055.31-Jan-2020 3966.51 3853.35 85.11 9.00 103.42 2987.43
   18:25:40.255.31-Jan-2020 3966.51 3853.42 85.11 9.00 103.62 2987.43
   18:25:40.455.31-Jan-2020 3966.51 3853.42 85.11 9.00 103.82 2987.43
   18:25:40.656.31-Jan-2020 3966.51 3852.88 85.11 9.00 104.02 2987.43
   18:25:40.856.31-Jan-2020 3966.51 3852.88 85.11 9.00 104.22 2987.43
   18:25:41.056.31-Jan-2020 3966.51 3853.44 85.11 9.00 104.42 2987.43
   18:25:41.256.31-Jan-2020 3966.51 3853.34 85.11 9.00 104.62 2987.43
   18:25:41.456.31-Jan-2020 3966.51 3853.29 85.11 9.00 104.82 2987.43
   18:25:41.656.31-Jan-2020 3966.51 3853.10 85.11 9.00 105.02 2987.43
   18:25:41.856.31-Jan-2020 3966.51 3853.10 85.11 9.00 105.22 2987.43
   18:25:42.056.31-Jan-2020 3966.51 3853.44 85.11 9.00 105.42 2987.43
   18:25:42.256.31-Jan-2020 3966.51 3853.39 85.11 9.00 105.62 2987.43
   18:25:42.456.31-Jan-2020 3966.51 3853.26 85.11 9.00 105.82 2987.43
   18:25:42.656.31-Jan-2020 3966.51 3853.43 85.11 9.00 106.02 2987.43
   18:25:42.856.31-Jan-2020 3966.51 3853.43 85.11 9.00 106.22 2987.43
   18:25:43.056.31-Jan-2020 3966.51 3853.35 85.11 9.00 106.42 2987.43
   18:25:43.256.31-Jan-2020 3966.51 3853.25 85.11 9.00 106.62 2987.43
   18:25:43.456.31-Jan-2020 3966.51 3853.31 85.11 9.00 106.83 2987.43
   18:25:43.656.31-Jan-2020 3966.51 3853.54 85.11 9.00 107.03 2987.43
   18:25:43.856.31-Jan-2020 3966.51 3853.54 85.11 9.00 107.23 2987.43
   18:25:44.056.31-Jan-2020 3966.51 3853.36 85.10 9.00 107.43 2987.43
   18:25:44.256.31-Jan-2020 3966.51 3853.26 85.10 9.00 107.63 2987.43
   18:25:44.456.31-Jan-2020 3966.51 3853.25 85.10 9.00 107.83 2987.43
   18:25:44.656.31-Jan-2020 3966.51 3853.44 85.10 9.00 108.03 2987.43
   18:25:44.857.31-Jan-2020 3966.51 3853.44 85.10 9.00 108.23 2987.43
   18:25:45.057.31-Jan-2020 3966.51 3853.28 85.10 9.00 108.43 2987.43
   18:25:45.257.31-Jan-2020 3966.51 3853.30 85.10 9.00 108.63 2987.43
   18:25:45.457.31-Jan-2020 3966.51 3853.16 85.10 9.00 108.83 2987.43
   18:25:45.657.31-Jan-2020 3966.51 3853.35 85.10 9.00 109.03 2987.43
   18:25:45.857.31-Jan-2020 3966.51 3853.35 85.10 9.00 109.23 2987.43
   18:25:46.057.31-Jan-2020 3966.51 3853.31 85.10 9.00 109.43 2987.43
   18:25:46.257.31-Jan-2020 3966.51 3853.33 85.10 9.00 109.63 2987.43
   18:25:46.457.31-Jan-2020 3966.51 3853.18 85.10 9.00 109.83 2987.43
   18:25:46.657.31-Jan-2020 3966.51 3852.87 85.10 9.00 110.03 2987.43
   18:25:46.857.31-Jan-2020 3966.51 3852.87 85.10 9.00 110.23 2987.43
   18:25:47.057.31-Jan-2020 3966.51 3853.36 85.10 9.00 110.43 2987.43
   18:25:47.257.31-Jan-2020 3966.51 3853.42 85.10 9.00 110.63 2987.43
   18:25:47.457.31-Jan-2020 3966.51 3853.26 85.10 9.00 110.83 2987.43
   18:25:47.657.31-Jan-2020 3966.51 3853.43 85.09 9.00 111.03 2987.43
   18:25:47.857.31-Jan-2020 3966.51 3853.43 85.09 9.00 111.23 2987.43
   18:25:48.057.31-Jan-2020 3966.51 3853.32 85.09 9.00 111.43 2987.43
   18:25:48.257.31-Jan-2020 3966.51 3853.40 85.09 9.00 111.63 2987.43
   18:25:48.457.31-Jan-2020 3966.51 3853.21 85.09 9.00 111.83 2987.43
   18:25:48.657.31-Jan-2020 3966.51 3853.40 85.09 9.00 112.03 2987.43
   18:25:48.857.31-Jan-2020 3966.51 3853.40 85.09 9.00 112.23 2987.43
   18:25:49.058.31-Jan-2020 3966.51 3853.25 85.09 9.00 112.43 2987.43
   18:25:49.258.31-Jan-2020 3966.51 3853.36 85.09 9.00 112.63 2987.43
   18:25:49.458.31-Jan-2020 3966.51 3853.11 85.09 9.00 112.83 2987.43
   18:25:49.658.31-Jan-2020 3966.51 3853.47 85.09 9.00 113.03 2987.43
   18:25:49.858.31-Jan-2020 3966.51 3853.47 85.09 9.00 113.23 2987.43
   18:25:50.058.31-Jan-2020 3966.51 3852.79 85.09 9.00 113.43 2987.43
   18:25:50.258.31-Jan-2020 3966.51 3853.48 85.09 9.00 113.63 2987.43
   18:25:50.458.31-Jan-2020 3966.51 3853.23 85.09 9.00 113.83 2987.43
   18:25:50.658.31-Jan-2020 3966.51 3853.39 85.09 9.00 114.03 2987.43
   18:25:50.858.31-Jan-2020 3966.51 3853.39 85.09 9.00 114.23 2987.43
   18:25:51.058.31-Jan-2020 3966.51 3852.73 85.09 9.00 114.43 2987.43
   18:25:51.258.31-Jan-2020 3966.51 3853.55 85.09 9.00 114.63 2987.43
   18:25:51.458.31-Jan-2020 3966.51 3853.28 85.08 9.00 114.83 2987.43
