~Version Information
 VERS.                  2.0:   CWLS log ASCII Standard -VERSION 2.0
 WRAP.                   NO:   One line per depth step
~Well Information Block
#MNEM.UNIT     VALUE/NAME     DESCRIPTION
#---------     -----------    ---------------------------
 STRT.S             01:28:25 01-Feb-20: START TIME 01:28:25 01-Feb-20
 STOP.S             01:36:19 01-Feb-20: STOP TIME  01:36:19 01-Feb-20
 STEP.S                   0.00: STEP TIME
 NULL.                 -999.25: NULL VALUE
 DFWT.                        :  DIST FWL TEXT
 DFST.                        :  DIST FSL TEXT
 DMF .             Drill Floor:  DRILL MEAS FROM
 STIM.      09.30.00 26-Dec-19:  START TIME
 DATE.      08.00.00 20-Jan-20:  END TIME
 SPUD.               23-Nov-19:  SPUD DATE
 NREF.                    Grid:  NORTH REFERENCE
 HPTY.       Minimum Curvature:  HOLE POS TYPE
 DMOD.             Drill Model:  DRILL MOD DESC
 SVYD.                  Survey:  SURVEY DESC
 ILTD.               Lithology:  INTERP LTH DESC
 FTOP.          Formation Tops:  FORM TOPS DESC
 SON .        AZ-XX-0906192647:  JOB NUMBER
 WTYP.                Deviated:  WELL TYPE
 COMP.     BP Exploration (Caspian Sea) Ltd:  COMPANY
 BASE.              Azerbaijan:  LOGGING EQUIPMENT BASE LOCATION
 REGN.                 Eurasia:  REGION
 FLD .                     ACG:  FIELD NAME
 SRVC.              KCA Deutag:  CONTRACTOR
 MWDS.                    Baku:  MWD SHOP
 WELL.     A10 (Slot 20) - SCP:  WELL NAME
 JOBN.        AZ-XX-0906192647:  JOB TICKET NUMB
 RIG .                 Chirag1:  RIG NAME
 DCON.     Halliburton Sperry Drilling:  DIRECTNL CONTR
 UNIT.                     N/A:  LOGGING EQUIPMENT ID
 PDAT.          Mean Sea Level:  PERMANENT DATUM
 MDS .        Operator Entered:  MAG DATA SOURCE
 CTRY.              Azerbaijan:  COUNTRY NAME
 UWI .            /AZE00000090:  UNIQUE WELL IDENTIFIER
 API .            /AZE00000090:  API NUMBER
 CNTY.                        :  COUNTY
 PROV.                        :  PROVINCE
 STAT.                        :  STATE
 LOC .                        :  LOCATION
 LMF .             Drill Floor:  LOG MEASURED FROM
 TVDS.m                  36.60:  TVDSS CORRECTN
 LATI.deg                40.08:  LATITUDE
 LONG.deg                51.24:  LONGITUDE
 WHNS.m                  -7.94:  WELL HEAD N/S
 WHEW.m                   1.56:  WELL HEAD E/W
 UTMX.m              520429.26:  UTM X
 UTMY.m             4438973.87:  UTM Y
 DFWL.m                   0.00:  DISTANCE FWL
 DFSL.m                   0.00:  DISTANCE FSL
 SDEP.m                1455.00:  START DEPTH
 TDD .m                4047.51:  TOTAL DEPTH (DRILLER)
 VSDR.deg               112.75:  VERT SEC DIRECT
 GVFD.g                   1.00:  GRAVITY FIELD
 MFLD.nT              50261.00:  MAGNETIC FIELD
 MDIP.deg                59.52:  MAGNETIC DIP
 MDEC.deg                 6.42:  MAGNETIC DECL
 GRDC.deg                 0.17:  GRID CORRECTION
 AZTC.deg                 6.25:  AZM TOTAL CORR
 EPD .m                   0.00:  ELEVATION
 EGL .m                   0.00:  GROUND ELEVATION
 WDMS.m                 121.00:  WD ELEV
 APD .m                  36.60:  DEPTH ABOVE PD
 AGAP.m                  36.60:  AIR GAP
 VSEW.m                   1.56:  VERT SEC E/W
 VSNS.m                  -7.94:  VERT SEC N/S
 DEP .m                1140.01:  DEPTH
 EKB .m                  36.60:  KB ELEVATION
 EDF .m                  36.60:  DF ELEVATION
 TDL .m                 169.50:  TOTAL DEPTH (LOGGER)
 CSGD.m                3875.01:  CASING BOTTOM (DRILLER)
 CSGL.m                3875.01:  CASING BOTTOM (LOGGER)
 CSGS.in                  7.63:  CASING SIZE
 CSGW.lbpf               23.50:  CASING WEIGHT
 VSC .                       0:  VS TO CLOSURE
 MAGU.                 1849206:  MAGUTM CHECKSUM
~Parameter Information Block
#MNEM.UNIT       Value        Description
#---------     -----------    ---------------------------
 AV  .mps                 1.90:  Ann Velocity 
 AVMX.mps                 2.54:  Max Ann Veloc 
 AZIF.deg               137.03:  Azm, Final 
 BHAT.        Rotary Steerable:  BHA Type 
 BREV.rev             23610.00:  Rev Bit Total 
 BROT.°/30m               0.80:  Build Rotating 
 BS  .in                  6.50:  Bit Size 
 BTPL.psig              110.00:  Bit Press Loss 
 CABU.                     Yes:  Customer Abuse 
 COMM.                     ì…†:  Run Comments 1 
 TCS .hr                 70.51:  Time Ciculation Ended 
 CV  .mps                 1.41:  Crit Velocity 
 CVMX.mps                 1.42:  Max Crit Veloc 
 DD1 .         Intigam Rahimov:  Direct Drillr 1 
 DD2 .          Rashad Gojayev:  Direct Drillr 2 
 DDSV.               Geo-Pilot:  DD Service 
 DEFF.%                 100.00:  % Det Eff 
 DLRX.°/30m               1.44:  Dogleg Rot Max 
 DLSO.°/30m               0.00:  Dogleg Oriented 
 DLSX.°/30m               0.00:  Dogleg Str Max 
 DRET.      03.05.00 01-Feb-20:  Drill End Time 
 DRST.      15.50.00 28-Jan-20:  Drill Start Tim 
 DTIM.hr                 24.70:  Time Drilling 
 EDEP.m                4047.51:  End Depth 
 ENG1.           Eldar Hajiyev:  Engineer 1 
 ENG2.          Rasim Hashimov:  Engineer 2 
 ENG3.          Rustam Safarov:  Engineer 3 
 ETIM.      22.00.00 01-Feb-20:  End Time 
 FLOI.gpm               370.00:  Flow In 
 FLON.gpm               300.00:  Flow In Min 
 FLOS.cptm                0.00:  Fluid Loss 
 FLOX.gpm               400.00:  Flow In Max 
 FTRO.       Formation Presure:  FTWD Run Obj 
 HFLO.                      No:  High Flow 
 HPRE.                      No:  High Pressure 
 HTEM.                      No:  High Temp 
 HYDO.m                   2.50:  Hydro Offset 
 IFIN.deg                39.54:  Inc, Final 
 IMAX.deg                41.14:  Inc Max 
 IMIN.deg                39.81:  Inc Min 
 IMND.m                4005.21:  Inc Min Depth 
 IMXD.m                3948.42:  Inc Max Depth 
 JARR.                      No:  Jarring 
 LETM.      03.05.00 01-Feb-20:  Log End Time 
 LOST.hr                     0:  Lost Rig Time 
 LSTM.      15.50.00 28-Jan-20:  Log Start Time 
 MDCL.ppm             37500.00:  Mud Chlorides 
 MDES.     Inversion Oil/Synthetic:  Mud Desc 
 DFD .sg                  1.32:  Mud Density 
 MDMN.sg                  1.32:  Dens Mud Min 
 MDMX.sg                  1.32:  Dens Mud Max 
 MOIL.                      55:  Run Mud Oil % 
 MOWR.                   70:30:  Run Mud OWR 
 MSND.                       0:  Run Mud Sand % 
 MSOL.                      17:  Run Mud Solids% 
 DFV .spqt               80.00:  Mud Viscosity 
 MWOD.in                  4.75:  MWD Tool OD 
 MWSI.                      No:  Serv Intrp, MWD 
 OTIM.hr                121.28:  Time Operating 
 PCON.           Look Like New:  Pad Condition 
 PMAX.psia             6171.00:  Press Op, Max 
 PV  .cP                 30.00:  Mud PV 
 RUN .                     300:  Run Number 
 ROPA.m/hr                5.45:  ROP Avg 
 ROPN.m/hr                3.00:  ROP Min 
 ROPX.m/hr               15.00:  ROP Max 
 RPMA.rpm               130.00:  RPM Surface Avg 
 RPMN.rpm                80.00:  RPM Surface Min 
 RPMX.rpm               140.00:  RPM Surface Max 
 RRUN.                     300:  Rig Run Number 
 RTIM.hr                 13.50:  Time Reaming 
 SAZI.deg               133.93:  Azm, Start 
 SDEP.m                3878.01:  Start Depth 
 SIDD.                      No:  Serv Intrp, DD 
 SINC.deg                40.28:  Inc, Start 
 SPPA.psig             4983.00:  SPP Avg 
 SPPN.psig             4370.00:  SPP Min 
 SPPX.psig             5300.00:  SPP Max 
 STIM.      18.33.36 27-Jan-20:  Start Time 
 SVCS.                 DD, MWD:  Services 
 SVER.                    9.20:  Sperry Version 
 TDAT.m                 169.50:  Tot Depth Attmp 
 TDDF.                      No:  Trip for DD 
 TDLG.m                 169.50:  Tot Depth Loggd 
 TFF .                      No:  Trip for Fail 
 TQAA.f-kp               13.25:  Torque Abs Avg 
 TQAN.f-kp               12.00:  Torque Abs Min 
 TQAX.f-kp               14.00:  Torque Abs Max 
 TRRT.°/30m               0.70:  Turn Rotating 
 MRT .                     ADR:  Maximum Recorded Temperature 
 TTMX.degC               92.16:  Max Tool Temp 
 VS01.       AZ90598764G12V7D4:  Virtual Str1 SN 
 VS02.         AZ90571342R12C4:  Virtual Str2 SN 
 VS03.      AZ90580010N2L2X1C4:  Virtual Str3 SN 
 VS04.        AZ90522266O7X1C4:  Virtual Str4 SN 
 VS05.           AZ90598768F11:  Virtual Str5 SN 
 VS06.     AZ90580006XZ1W1X1C4:  Virtual Str6 SN 
 WBMN.klb                 8.00:  WOB Min 
 WITN.            Peter Wilson:  Customer Rep 
 WOBA.klb                 9.88:  WOB Avg 
 WOBX.klb                10.00:  WOB Max 
 YP  .lhf2               27.00:  Yield Point 
~Curve Information Block
#MNEM.UNIT                 API CODE     Curve Description
#---------               -----------    ---------------------------
 TIME.HHMMSS            00 000 000 000:  GT Time & Date
 GTDEPTH.m              00 000 000 000:  GT Depth
 GTPQH.psia             00 000 000 000:  GT HR Quartz Pressure
 GTTQ.degC              00 000 000 000:  GT Quartz Temperature
 GTTN.NONE              00 000 000 000:  GT Test Number
 GTET.sec               00 000 000 000:  GT Elapsed Test Time
 GTTVD.m                00 000 000 000:  GT True Vertical Depth
#Other Information
#
#WARRANTY: Halliburton will use its best efforts to furnish customers with 
#accurate information and interpretations that are part of, and incident to, the services 
#provided.  However, Halliburton cannot and does not warrant the accuracy 
#or correctness of such information and interpretations.  Under no circumstances should any 
#such information or interpretation be relied upon as the sole basis for any drilling, 
#completion, production, or financial decision or any procedure involving any risk to the 
#safety of any drilling venture, drilling rig or its crew or any other third party.  The 
#Customer has full responsibility for all drilling, completion and production operation.  
#Halliburton makes no representations or warranties, either expressed or 
#implied, including, but not limited to, the implied warranties of merchantability or fitness 
#for a particular purpose, with respect to the services rendered.  In no event will 
#Halliburton be liable for failure to obtain any particular results or for 
#any damages, including, but not limited to, indirect, special or consequential damages, 
#resulting from the use of any information or interpretation provided by Halliburton.
#
~A           TIME           GTDEPTH  GTPQH  GTTQ  GTTN   GTET   GTTVD  
# ...
   01:30:18.421.01-Feb-2020 3990.12 3215.34 84.88 11.00 113.40 3005.35
   01:30:18.621.01-Feb-2020 3990.12 3215.34 84.88 11.00 113.60 3005.35
   01:30:18.822.01-Feb-2020 3990.12 3215.33 84.87 11.00 113.80 3005.35
   01:30:19.023.01-Feb-2020 3990.12 3215.63 84.87 11.00 114.00 3005.35
   01:30:19.223.01-Feb-2020 3990.12 3214.99 84.87 11.00 114.20 3005.35
   01:30:19.424.01-Feb-2020 3990.12 3215.22 84.87 11.00 114.40 3005.35
   01:30:19.625.01-Feb-2020 3990.12 3215.22 84.87 11.00 114.60 3005.35
   01:30:19.825.01-Feb-2020 3990.12 3215.39 84.87 11.00 114.80 3005.35
   01:30:20.026.01-Feb-2020 3990.12 3215.37 84.87 11.00 115.00 3005.35
   01:30:20.227.01-Feb-2020 3990.12 3215.53 84.87 11.00 115.20 3005.35
   01:30:20.428.01-Feb-2020 3990.12 3215.48 84.87 11.00 115.40 3005.35
   01:30:20.628.01-Feb-2020 3990.12 3215.48 84.87 11.00 115.60 3005.35
   01:30:20.829.01-Feb-2020 3990.12 3215.54 84.87 11.00 115.80 3005.35
   01:30:21.030.01-Feb-2020 3990.12 3215.46 84.87 11.00 116.01 3005.35
   01:30:21.230.01-Feb-2020 3990.12 3215.54 84.87 11.00 116.21 3005.35
   01:30:21.431.01-Feb-2020 3990.12 3215.56 84.87 11.00 116.41 3005.35
   01:30:21.632.01-Feb-2020 3990.12 3215.56 84.87 11.00 116.61 3005.35
   01:30:21.832.01-Feb-2020 3990.12 3215.48 84.87 11.00 116.81 3005.35
   01:30:22.033.01-Feb-2020 3990.12 3215.50 84.87 11.00 117.01 3005.35
   01:30:22.234.01-Feb-2020 3990.12 3215.59 84.87 11.00 117.21 3005.35
   01:30:22.435.01-Feb-2020 3990.12 3215.46 84.87 11.00 117.41 3005.35
   01:30:22.635.01-Feb-2020 3990.12 3215.46 84.87 11.00 117.61 3005.35
   01:30:22.836.01-Feb-2020 3990.12 3215.44 84.87 11.00 117.81 3005.35
   01:30:23.037.01-Feb-2020 3990.12 3215.56 84.87 11.00 118.01 3005.35
   01:30:23.237.01-Feb-2020 3990.12 3215.58 84.86 11.00 118.21 3005.35
   01:30:23.438.01-Feb-2020 3990.12 3215.42 84.86 11.00 118.41 3005.35
   01:30:23.639.01-Feb-2020 3990.12 3215.42 84.86 11.00 118.61 3005.35
   01:30:23.840.01-Feb-2020 3990.12 3215.33 84.86 11.00 118.82 3005.35
   01:30:24.040.01-Feb-2020 3990.12 3215.57 84.86 11.00 119.02 3005.35
   01:30:24.241.01-Feb-2020 3990.12 3215.55 84.86 11.00 119.22 3005.35
   01:30:24.442.01-Feb-2020 3990.12 3215.59 84.86 11.00 119.42 3005.35
   01:30:24.642.01-Feb-2020 3990.12 3215.59 84.86 11.00 119.62 3005.35
   01:30:24.843.01-Feb-2020 3990.12 3215.26 84.86 11.00 119.82 3005.35
   01:30:25.044.01-Feb-2020 3990.12 3215.44 84.86 11.00 120.02 3005.35
   01:30:25.244.01-Feb-2020 3990.12 3215.52 84.86 11.00 120.22 3005.35
   01:30:25.445.01-Feb-2020 3990.12 3215.61 84.86 11.00 120.42 3005.35
   01:30:25.646.01-Feb-2020 3990.12 3215.61 84.86 11.00 120.62 3005.35
   01:30:25.847.01-Feb-2020 3990.12 3215.20 84.86 11.00 120.82 3005.35
   01:30:26.047.01-Feb-2020 3990.12 3215.46 84.86 11.00 121.02 3005.35
   01:30:26.248.01-Feb-2020 3990.12 3215.51 84.86 11.00 121.22 3005.35
   01:30:26.449.01-Feb-2020 3990.12 3215.61 84.86 11.00 121.42 3005.35
   01:30:26.649.01-Feb-2020 3990.12 3215.61 84.86 11.00 121.63 3005.35
   01:30:26.850.01-Feb-2020 3990.12 3215.73 84.86 11.00 121.83 3005.35
   01:30:27.051.01-Feb-2020 3990.12 3215.75 84.86 11.00 122.03 3005.35
   01:30:27.251.01-Feb-2020 3990.12 3215.53 84.86 11.00 122.23 3005.35
   01:30:27.452.01-Feb-2020 3990.12 3215.41 84.85 11.00 122.43 3005.35
   01:30:27.653.01-Feb-2020 3990.12 3215.41 84.85 11.00 122.63 3005.35
   01:30:27.854.01-Feb-2020 3990.12 3215.75 84.85 11.00 122.83 3005.35
   01:30:28.054.01-Feb-2020 3990.12 3215.84 84.85 11.00 123.03 3005.35
   01:30:28.255.01-Feb-2020 3990.12 3215.76 84.85 11.00 123.23 3005.35
   01:30:28.456.01-Feb-2020 3990.12 3215.75 84.85 11.00 123.43 3005.35
   01:30:28.656.01-Feb-2020 3990.12 3215.75 84.85 11.00 123.63 3005.35
   01:30:28.857.01-Feb-2020 3990.12 3215.79 84.85 11.00 123.83 3005.35
   01:30:29.058.01-Feb-2020 3990.12 3215.73 84.85 11.00 124.03 3005.35
   01:30:29.258.01-Feb-2020 3990.12 3215.74 84.85 11.00 124.23 3005.35
   01:30:29.459.01-Feb-2020 3990.12 3215.78 84.85 11.00 124.44 3005.35
   01:30:29.660.01-Feb-2020 3990.12 3215.78 84.85 11.00 124.64 3005.35
   01:30:29.861.01-Feb-2020 3990.12 3215.65 84.85 11.00 124.84 3005.35
   01:30:30.061.01-Feb-2020 3990.12 3215.62 84.85 11.00 125.04 3005.35
   01:30:30.262.01-Feb-2020 3990.12 3215.62 84.85 11.00 125.24 3005.35
   01:30:30.463.01-Feb-2020 3990.12 3215.78 84.85 11.00 125.44 3005.35
   01:30:30.663.01-Feb-2020 3990.12 3215.78 84.85 11.00 125.64 3005.35
   01:30:30.864.01-Feb-2020 3990.12 3215.91 84.85 11.00 125.84 3005.35
   01:30:31.065.01-Feb-2020 3990.12 3215.26 84.85 11.00 126.04 3005.35
   01:30:31.265.01-Feb-2020 3990.12 3215.61 84.85 11.00 126.24 3005.35
   01:30:31.466.01-Feb-2020 3990.12 3215.73 84.85 11.00 126.44 3005.35
   01:30:31.667.01-Feb-2020 3990.12 3215.73 84.85 11.00 126.64 3005.35
   01:30:31.868.01-Feb-2020 3990.12 3215.76 84.84 11.00 126.84 3005.35
   01:30:32.068.01-Feb-2020 3990.12 3215.87 84.84 11.00 127.04 3005.35
   01:30:32.269.01-Feb-2020 3990.12 3215.88 84.84 11.00 127.24 3005.35
   01:30:32.470.01-Feb-2020 3990.12 3215.83 84.84 11.00 127.45 3005.35
   01:30:32.670.01-Feb-2020 3990.12 3215.83 84.84 11.00 127.65 3005.35
   01:30:32.871.01-Feb-2020 3990.12 3215.87 84.84 11.00 127.85 3005.35
   01:30:33.072.01-Feb-2020 3990.12 3215.78 84.84 11.00 128.05 3005.35
   01:30:33.272.01-Feb-2020 3990.12 3215.88 84.84 11.00 128.25 3005.35
   01:30:33.473.01-Feb-2020 3990.12 3215.75 84.84 11.00 128.45 3005.35
   01:30:33.674.01-Feb-2020 3990.12 3215.75 84.84 11.00 128.65 3005.35
   01:30:33.875.01-Feb-2020 3990.12 3215.79 84.84 11.00 128.85 3005.35
   01:30:34.075.01-Feb-2020 3990.12 3215.86 84.84 11.00 129.05 3005.35
   01:30:34.276.01-Feb-2020 3990.12 3215.78 84.84 11.00 129.25 3005.35
   01:30:34.477.01-Feb-2020 3990.12 3215.76 84.84 11.00 129.45 3005.35
   01:30:34.677.01-Feb-2020 3990.12 3215.76 84.84 11.00 129.65 3005.35
   01:30:34.878.01-Feb-2020 3990.12 3215.94 84.84 11.00 129.85 3005.35
   01:30:35.079.01-Feb-2020 3990.12 3215.86 84.84 11.00 130.05 3005.35
   01:30:35.280.01-Feb-2020 3990.12 3215.62 84.84 11.00 130.26 3005.35
   01:30:35.480.01-Feb-2020 3990.12 3215.63 84.84 11.00 130.46 3005.35
   01:30:35.681.01-Feb-2020 3990.12 3215.63 84.84 11.00 130.66 3005.35
   01:30:35.882.01-Feb-2020 3990.12 3215.86 84.84 11.00 130.86 3005.35
   01:30:36.082.01-Feb-2020 3990.12 3216.01 84.84 11.00 131.06 3005.35
   01:30:36.283.01-Feb-2020 3990.12 3215.96 84.83 11.00 131.26 3005.35
   01:30:36.484.01-Feb-2020 3990.12 3216.10 84.83 11.00 131.46 3005.35
   01:30:36.684.01-Feb-2020 3990.12 3216.10 84.83 11.00 131.66 3005.35
   01:30:36.885.01-Feb-2020 3990.12 3215.70 84.83 11.00 131.86 3005.35
   01:30:37.086.01-Feb-2020 3990.12 3215.81 84.83 11.00 132.06 3005.35
   01:30:37.287.01-Feb-2020 3990.12 3215.84 84.83 11.00 132.26 3005.35
   01:30:37.487.01-Feb-2020 3990.12 3216.08 84.83 11.00 132.46 3005.35
   01:30:37.688.01-Feb-2020 3990.12 3216.08 84.83 11.00 132.66 3005.35
   01:30:37.889.01-Feb-2020 3990.12 3215.68 84.83 11.00 132.86 3005.35
   01:30:38.089.01-Feb-2020 3990.12 3215.78 84.83 11.00 133.07 3005.35
   01:30:38.290.01-Feb-2020 3990.12 3216.02 84.83 11.00 133.27 3005.35
   01:30:38.491.01-Feb-2020 3990.12 3215.92 84.83 11.00 133.47 3005.35
   01:30:38.691.01-Feb-2020 3990.12 3215.92 84.83 11.00 133.67 3005.35
   01:30:38.892.01-Feb-2020 3990.12 3216.01 84.83 11.00 133.87 3005.35
   01:30:39.093.01-Feb-2020 3990.12 3215.67 84.83 11.00 134.07 3005.35
   01:30:39.294.01-Feb-2020 3990.12 3215.79 84.83 11.00 134.27 3005.35
   01:30:39.494.01-Feb-2020 3990.12 3215.80 84.83 11.00 134.47 3005.35
   01:30:39.695.01-Feb-2020 3990.12 3215.80 84.83 11.00 134.67 3005.35
   01:30:39.896.01-Feb-2020 3990.12 3216.13 84.83 11.00 134.87 3005.35
   01:30:40.096.01-Feb-2020 3990.12 3216.08 84.83 11.00 135.07 3005.35
   01:30:40.297.01-Feb-2020 3990.12 3216.00 84.83 11.00 135.27 3005.35
   01:30:40.498.01-Feb-2020 3990.12 3216.12 84.83 11.00 135.47 3005.35
   01:30:40.698.01-Feb-2020 3990.12 3216.12 84.83 11.00 135.67 3005.35
   01:30:40.899.01-Feb-2020 3990.12 3215.98 84.82 11.00 135.88 3005.35
