~Version Information
 VERS.                  2.0:   CWLS log ASCII Standard -VERSION 2.0
 WRAP.                   NO:   One line per depth step
~Well Information Block
#MNEM.UNIT     VALUE/NAME     DESCRIPTION
#---------     -----------    ---------------------------
 STRT.S             09:13:27 31-Jan-20: START TIME 09:13:27 31-Jan-20
 STOP.S             09:19:57 31-Jan-20: STOP TIME  09:19:57 31-Jan-20
 STEP.S                   0.00: STEP TIME
 NULL.                 -999.25: NULL VALUE
 DFWT.                        :  DIST FWL TEXT
 DFST.                        :  DIST FSL TEXT
 DMF .             Drill Floor:  DRILL MEAS FROM
 STIM.      09.30.00 26-Dec-19:  START TIME
 DATE.      08.00.00 20-Jan-20:  END TIME
 SPUD.               23-Nov-19:  SPUD DATE
 NREF.                    Grid:  NORTH REFERENCE
 HPTY.       Minimum Curvature:  HOLE POS TYPE
 DMOD.             Drill Model:  DRILL MOD DESC
 SVYD.                  Survey:  SURVEY DESC
 ILTD.               Lithology:  INTERP LTH DESC
 FTOP.          Formation Tops:  FORM TOPS DESC
 SON .        AZ-XX-0906192647:  JOB NUMBER
 WTYP.                Deviated:  WELL TYPE
 COMP.     BP Exploration (Caspian Sea) Ltd:  COMPANY
 BASE.              Azerbaijan:  LOGGING EQUIPMENT BASE LOCATION
 REGN.                 Eurasia:  REGION
 FLD .                     ACG:  FIELD NAME
 SRVC.              KCA Deutag:  CONTRACTOR
 MWDS.                    Baku:  MWD SHOP
 WELL.     A10 (Slot 20) - SCP:  WELL NAME
 JOBN.        AZ-XX-0906192647:  JOB TICKET NUMB
 RIG .                 Chirag1:  RIG NAME
 DCON.     Halliburton Sperry Drilling:  DIRECTNL CONTR
 UNIT.                     N/A:  LOGGING EQUIPMENT ID
 PDAT.          Mean Sea Level:  PERMANENT DATUM
 MDS .        Operator Entered:  MAG DATA SOURCE
 CTRY.              Azerbaijan:  COUNTRY NAME
 UWI .            /AZE00000090:  UNIQUE WELL IDENTIFIER
 API .            /AZE00000090:  API NUMBER
 CNTY.                        :  COUNTY
 PROV.                        :  PROVINCE
 STAT.                        :  STATE
 LOC .                        :  LOCATION
 LMF .             Drill Floor:  LOG MEASURED FROM
 TVDS.m                  36.60:  TVDSS CORRECTN
 LATI.deg                40.08:  LATITUDE
 LONG.deg                51.24:  LONGITUDE
 WHNS.m                  -7.94:  WELL HEAD N/S
 WHEW.m                   1.56:  WELL HEAD E/W
 UTMX.m              520429.26:  UTM X
 UTMY.m             4438973.87:  UTM Y
 DFWL.m                   0.00:  DISTANCE FWL
 DFSL.m                   0.00:  DISTANCE FSL
 SDEP.m                1455.00:  START DEPTH
 TDD .m                4047.51:  TOTAL DEPTH (DRILLER)
 VSDR.deg               112.75:  VERT SEC DIRECT
 GVFD.g                   1.00:  GRAVITY FIELD
 MFLD.nT              50261.00:  MAGNETIC FIELD
 MDIP.deg                59.52:  MAGNETIC DIP
 MDEC.deg                 6.42:  MAGNETIC DECL
 GRDC.deg                 0.17:  GRID CORRECTION
 AZTC.deg                 6.25:  AZM TOTAL CORR
 EPD .m                   0.00:  ELEVATION
 EGL .m                   0.00:  GROUND ELEVATION
 WDMS.m                 121.00:  WD ELEV
 APD .m                  36.60:  DEPTH ABOVE PD
 AGAP.m                  36.60:  AIR GAP
 VSEW.m                   1.56:  VERT SEC E/W
 VSNS.m                  -7.94:  VERT SEC N/S
 DEP .m                1140.01:  DEPTH
 EKB .m                  36.60:  KB ELEVATION
 EDF .m                  36.60:  DF ELEVATION
 TDL .m                 169.50:  TOTAL DEPTH (LOGGER)
 CSGD.m                3875.01:  CASING BOTTOM (DRILLER)
 CSGL.m                3875.01:  CASING BOTTOM (LOGGER)
 CSGS.in                  7.63:  CASING SIZE
 CSGW.lbpf               23.50:  CASING WEIGHT
 VSC .                       0:  VS TO CLOSURE
 MAGU.                 1849206:  MAGUTM CHECKSUM
~Parameter Information Block
#MNEM.UNIT       Value        Description
#---------     -----------    ---------------------------
 AV  .mps                 1.90:  Ann Velocity 
 AVMX.mps                 2.54:  Max Ann Veloc 
 AZIF.deg               137.03:  Azm, Final 
 BHAT.        Rotary Steerable:  BHA Type 
 BREV.rev             23610.00:  Rev Bit Total 
 BROT.°/30m               0.80:  Build Rotating 
 BS  .in                  6.50:  Bit Size 
 BTPL.psig              110.00:  Bit Press Loss 
 CABU.                     Yes:  Customer Abuse 
 COMM.                     ФЮѓ:  Run Comments 1 
 TCS .hr                 70.51:  Time Ciculation Ended 
 CV  .mps                 1.41:  Crit Velocity 
 CVMX.mps                 1.42:  Max Crit Veloc 
 DD1 .         Intigam Rahimov:  Direct Drillr 1 
 DD2 .          Rashad Gojayev:  Direct Drillr 2 
 DDSV.               Geo-Pilot:  DD Service 
 DEFF.%                 100.00:  % Det Eff 
 DLRX.°/30m               1.44:  Dogleg Rot Max 
 DLSO.°/30m               0.00:  Dogleg Oriented 
 DLSX.°/30m               0.00:  Dogleg Str Max 
 DRET.      03.05.00 01-Feb-20:  Drill End Time 
 DRST.      15.50.00 28-Jan-20:  Drill Start Tim 
 DTIM.hr                 24.70:  Time Drilling 
 EDEP.m                4047.51:  End Depth 
 ENG1.           Eldar Hajiyev:  Engineer 1 
 ENG2.          Rasim Hashimov:  Engineer 2 
 ENG3.          Rustam Safarov:  Engineer 3 
 ETIM.      22.00.00 01-Feb-20:  End Time 
 FLOI.gpm               370.00:  Flow In 
 FLON.gpm               300.00:  Flow In Min 
 FLOS.cptm                0.00:  Fluid Loss 
 FLOX.gpm               400.00:  Flow In Max 
 FTRO.       Formation Presure:  FTWD Run Obj 
 HFLO.                      No:  High Flow 
 HPRE.                      No:  High Pressure 
 HTEM.                      No:  High Temp 
 HYDO.m                   2.50:  Hydro Offset 
 IFIN.deg                39.54:  Inc, Final 
 IMAX.deg                41.14:  Inc Max 
 IMIN.deg                39.81:  Inc Min 
 IMND.m                4005.21:  Inc Min Depth 
 IMXD.m                3948.42:  Inc Max Depth 
 JARR.                      No:  Jarring 
 LETM.      03.05.00 01-Feb-20:  Log End Time 
 LOST.hr                     0:  Lost Rig Time 
 LSTM.      15.50.00 28-Jan-20:  Log Start Time 
 MDCL.ppm             37500.00:  Mud Chlorides 
 MDES.     Inversion Oil/Synthetic:  Mud Desc 
 DFD .sg                  1.32:  Mud Density 
 MDMN.sg                  1.32:  Dens Mud Min 
 MDMX.sg                  1.32:  Dens Mud Max 
 MOIL.                      55:  Run Mud Oil % 
 MOWR.                   70:30:  Run Mud OWR 
 MSND.                       0:  Run Mud Sand % 
 MSOL.                      17:  Run Mud Solids% 
 DFV .spqt               80.00:  Mud Viscosity 
 MWOD.in                  4.75:  MWD Tool OD 
 MWSI.                      No:  Serv Intrp, MWD 
 OTIM.hr                121.28:  Time Operating 
 PCON.           Look Like New:  Pad Condition 
 PMAX.psia             6171.00:  Press Op, Max 
 PV  .cP                 30.00:  Mud PV 
 RUN .                     300:  Run Number 
 ROPA.m/hr                5.45:  ROP Avg 
 ROPN.m/hr                3.00:  ROP Min 
 ROPX.m/hr               15.00:  ROP Max 
 RPMA.rpm               130.00:  RPM Surface Avg 
 RPMN.rpm                80.00:  RPM Surface Min 
 RPMX.rpm               140.00:  RPM Surface Max 
 RRUN.                     300:  Rig Run Number 
 RTIM.hr                 13.50:  Time Reaming 
 SAZI.deg               133.93:  Azm, Start 
 SDEP.m                3878.01:  Start Depth 
 SIDD.                      No:  Serv Intrp, DD 
 SINC.deg                40.28:  Inc, Start 
 SPPA.psig             4983.00:  SPP Avg 
 SPPN.psig             4370.00:  SPP Min 
 SPPX.psig             5300.00:  SPP Max 
 STIM.      18.33.36 27-Jan-20:  Start Time 
 SVCS.                 DD, MWD:  Services 
 SVER.                    9.20:  Sperry Version 
 TDAT.m                 169.50:  Tot Depth Attmp 
 TDDF.                      No:  Trip for DD 
 TDLG.m                 169.50:  Tot Depth Loggd 
 TFF .                      No:  Trip for Fail 
 TQAA.f-kp               13.25:  Torque Abs Avg 
 TQAN.f-kp               12.00:  Torque Abs Min 
 TQAX.f-kp               14.00:  Torque Abs Max 
 TRRT.°/30m               0.70:  Turn Rotating 
 MRT .                     ADR:  Maximum Recorded Temperature 
 TTMX.degC               92.16:  Max Tool Temp 
 VS01.       AZ90598764G12V7D4:  Virtual Str1 SN 
 VS02.         AZ90571342R12C4:  Virtual Str2 SN 
 VS03.      AZ90580010N2L2X1C4:  Virtual Str3 SN 
 VS04.        AZ90522266O7X1C4:  Virtual Str4 SN 
 VS05.           AZ90598768F11:  Virtual Str5 SN 
 VS06.     AZ90580006XZ1W1X1C4:  Virtual Str6 SN 
 WBMN.klb                 8.00:  WOB Min 
 WITN.            Peter Wilson:  Customer Rep 
 WOBA.klb                 9.88:  WOB Avg 
 WOBX.klb                10.00:  WOB Max 
 YP  .lhf2               27.00:  Yield Point 
~Curve Information Block
#MNEM.UNIT                 API CODE     Curve Description
#---------               -----------    ---------------------------
 TIME.HHMMSS            00 000 000 000:  GT Time & Date
 GTDEPTH.m              00 000 000 000:  GT Depth
 GTPQH.psia             00 000 000 000:  GT HR Quartz Pressure
 GTTQ.degC              00 000 000 000:  GT Quartz Temperature
 GTTN.NONE              00 000 000 000:  GT Test Number
 GTET.sec               00 000 000 000:  GT Elapsed Test Time
 GTTVD.m                00 000 000 000:  GT True Vertical Depth
#Other Information
#
#WARRANTY: Halliburton will use its best efforts to furnish customers with 
#accurate information and interpretations that are part of, and incident to, the services 
#provided.  However, Halliburton cannot and does not warrant the accuracy 
#or correctness of such information and interpretations.  Under no circumstances should any 
#such information or interpretation be relied upon as the sole basis for any drilling, 
#completion, production, or financial decision or any procedure involving any risk to the 
#safety of any drilling venture, drilling rig or its crew or any other third party.  The 
#Customer has full responsibility for all drilling, completion and production operation.  
#Halliburton makes no representations or warranties, either expressed or 
#implied, including, but not limited to, the implied warranties of merchantability or fitness 
#for a particular purpose, with respect to the services rendered.  In no event will 
#Halliburton be liable for failure to obtain any particular results or for 
#any damages, including, but not limited to, indirect, special or consequential damages, 
#resulting from the use of any information or interpretation provided by Halliburton.
#
~A           TIME           GTDEPTH  GTPQH  GTTQ  GTTN  GTET   GTTVD  
# ...
   09:18:03.959.31-Jan-2020 3923.01 2997.75 80.18 5.00 276.06 2954.62
   09:18:04.159.31-Jan-2020 3923.01 2997.75 80.18 5.00 276.26 2954.62
   09:18:04.359.31-Jan-2020 3923.01 2997.71 80.18 5.00 276.46 2954.62
   09:18:04.559.31-Jan-2020 3923.01 2997.67 80.18 5.00 276.66 2954.62
   09:18:04.759.31-Jan-2020 3923.01 2997.66 80.18 5.00 276.86 2954.62
   09:18:04.959.31-Jan-2020 3923.01 2997.67 80.18 5.00 277.06 2954.62
   09:18:05.159.31-Jan-2020 3923.01 2997.67 80.18 5.00 277.26 2954.62
   09:18:05.359.31-Jan-2020 3923.01 2997.65 80.17 5.00 277.46 2954.62
   09:18:05.559.31-Jan-2020 3923.01 2997.65 80.17 5.00 277.67 2954.62
   09:18:05.759.31-Jan-2020 3923.01 2997.65 80.17 5.00 277.87 2954.62
   09:18:05.959.31-Jan-2020 3923.01 2997.65 80.17 5.00 278.07 2954.62
   09:18:06.159.31-Jan-2020 3923.01 2997.65 80.17 5.00 278.27 2954.62
   09:18:06.359.31-Jan-2020 3923.01 2997.62 80.17 5.00 278.47 2954.62
   09:18:06.559.31-Jan-2020 3923.01 2997.63 80.17 5.00 278.67 2954.62
   09:18:06.759.31-Jan-2020 3923.01 2997.64 80.17 5.00 278.87 2954.62
   09:18:06.959.31-Jan-2020 3923.01 2997.57 80.17 5.00 279.07 2954.62
   09:18:07.160.31-Jan-2020 3923.01 2997.57 80.17 5.00 279.27 2954.62
   09:18:07.360.31-Jan-2020 3923.01 2997.68 80.17 5.00 279.47 2954.62
   09:18:07.560.31-Jan-2020 3923.01 2997.67 80.17 5.00 279.67 2954.62
   09:18:07.760.31-Jan-2020 3923.01 2997.67 80.17 5.00 279.87 2954.62
   09:18:07.960.31-Jan-2020 3923.01 2997.58 80.17 5.00 280.07 2954.62
   09:18:08.160.31-Jan-2020 3923.01 2997.58 80.17 5.00 280.27 2954.62
   09:18:08.360.31-Jan-2020 3923.01 2997.70 80.17 5.00 280.47 2954.62
   09:18:08.560.31-Jan-2020 3923.01 2997.70 80.17 5.00 280.67 2954.62
   09:18:08.760.31-Jan-2020 3923.01 2997.68 80.17 5.00 280.87 2954.62
   09:18:08.960.31-Jan-2020 3923.01 2997.68 80.17 5.00 281.07 2954.62
   09:18:09.160.31-Jan-2020 3923.01 2997.68 80.17 5.00 281.27 2954.62
   09:18:09.360.31-Jan-2020 3923.01 2997.57 80.16 5.00 281.47 2954.62
   09:18:09.560.31-Jan-2020 3923.01 2997.72 80.16 5.00 281.67 2954.62
   09:18:09.760.31-Jan-2020 3923.01 2997.70 80.16 5.00 281.87 2954.62
   09:18:09.960.31-Jan-2020 3923.01 2997.72 80.16 5.00 282.07 2954.62
   09:18:10.160.31-Jan-2020 3923.01 2997.72 80.16 5.00 282.27 2954.62
   09:18:10.360.31-Jan-2020 3923.01 2997.68 80.16 5.00 282.47 2954.62
   09:18:10.560.31-Jan-2020 3923.01 2997.55 80.16 5.00 282.67 2954.62
   09:18:10.760.31-Jan-2020 3923.01 2997.77 80.16 5.00 282.87 2954.62
   09:18:10.960.31-Jan-2020 3923.01 2997.74 80.16 5.00 283.07 2954.62
   09:18:11.160.31-Jan-2020 3923.01 2997.74 80.16 5.00 283.27 2954.62
   09:18:11.360.31-Jan-2020 3923.01 2997.68 80.16 5.00 283.47 2954.62
   09:18:11.561.31-Jan-2020 3923.01 2997.68 80.16 5.00 283.67 2954.62
   09:18:11.761.31-Jan-2020 3923.01 2997.66 80.16 5.00 283.87 2954.62
   09:18:11.961.31-Jan-2020 3923.01 2997.64 80.16 5.00 284.07 2954.62
   09:18:12.161.31-Jan-2020 3923.01 2997.64 80.16 5.00 284.27 2954.62
   09:18:12.361.31-Jan-2020 3923.01 2997.72 80.16 5.00 284.47 2954.62
   09:18:12.561.31-Jan-2020 3923.01 2997.70 80.16 5.00 284.67 2954.62
   09:18:12.761.31-Jan-2020 3923.01 2997.67 80.16 5.00 284.87 2954.62
   09:18:12.961.31-Jan-2020 3923.01 2997.68 80.16 5.00 285.07 2954.62
   09:18:13.161.31-Jan-2020 3923.01 2997.68 80.16 5.00 285.27 2954.62
   09:18:13.361.31-Jan-2020 3923.01 2997.66 80.15 5.00 285.47 2954.62
   09:18:13.561.31-Jan-2020 3923.01 2997.67 80.15 5.00 285.67 2954.62
   09:18:13.761.31-Jan-2020 3923.01 2997.67 80.15 5.00 285.87 2954.62
   09:18:13.961.31-Jan-2020 3923.01 2997.66 80.15 5.00 286.07 2954.62
   09:18:14.161.31-Jan-2020 3923.01 2997.66 80.15 5.00 286.27 2954.62
   09:18:14.361.31-Jan-2020 3923.01 2997.64 80.15 5.00 286.47 2954.62
   09:18:14.561.31-Jan-2020 3923.01 2997.64 80.15 5.00 286.67 2954.62
   09:18:14.761.31-Jan-2020 3923.01 2997.66 80.15 5.00 286.87 2954.62
   09:18:14.961.31-Jan-2020 3923.01 2997.66 80.15 5.00 287.07 2954.62
   09:18:15.161.31-Jan-2020 3923.01 2997.66 80.15 5.00 287.27 2954.62
   09:18:15.361.31-Jan-2020 3923.01 2997.64 80.15 5.00 287.47 2954.62
   09:18:15.561.31-Jan-2020 3923.01 2997.55 80.15 5.00 287.67 2954.62
   09:18:15.762.31-Jan-2020 3923.01 2997.72 80.15 5.00 287.87 2954.62
   09:18:15.962.31-Jan-2020 3923.01 2997.69 80.15 5.00 288.07 2954.62
   09:18:16.162.31-Jan-2020 3923.01 2997.69 80.15 5.00 288.27 2954.62
   09:18:16.362.31-Jan-2020 3923.01 2997.67 80.15 5.00 288.47 2954.62
   09:18:16.562.31-Jan-2020 3923.01 2997.67 80.15 5.00 288.67 2954.62
   09:18:16.762.31-Jan-2020 3923.01 2997.66 80.15 5.00 288.87 2954.62
   09:18:16.962.31-Jan-2020 3923.01 2997.66 80.15 5.00 289.07 2954.62
   09:18:17.162.31-Jan-2020 3923.01 2997.66 80.15 5.00 289.27 2954.62
   09:18:17.362.31-Jan-2020 3923.01 2997.65 80.14 5.00 289.47 2954.62
   09:18:17.562.31-Jan-2020 3923.01 2997.66 80.14 5.00 289.67 2954.62
   09:18:17.762.31-Jan-2020 3923.01 2997.65 80.14 5.00 289.87 2954.62
   09:18:17.962.31-Jan-2020 3923.01 2997.64 80.14 5.00 290.07 2954.62
   09:18:18.162.31-Jan-2020 3923.01 2997.64 80.14 5.00 290.27 2954.62
   09:18:18.362.31-Jan-2020 3923.01 2997.62 80.14 5.00 290.47 2954.62
   09:18:18.562.31-Jan-2020 3923.01 2997.66 80.14 5.00 290.67 2954.62
   09:18:18.762.31-Jan-2020 3923.01 2997.65 80.14 5.00 290.87 2954.62
   09:18:18.962.31-Jan-2020 3923.01 2997.60 80.14 5.00 291.07 2954.62
   09:18:19.162.31-Jan-2020 3923.01 2997.60 80.14 5.00 291.27 2954.62
   09:18:19.362.31-Jan-2020 3923.01 2997.69 80.14 5.00 291.47 2954.62
   09:18:19.562.31-Jan-2020 3923.01 2997.69 80.14 5.00 291.67 2954.62
   09:18:19.762.31-Jan-2020 3923.01 2997.67 80.14 5.00 291.87 2954.62
   09:18:19.963.31-Jan-2020 3923.01 2997.63 80.14 5.00 292.07 2954.62
   09:18:20.163.31-Jan-2020 3923.01 2997.63 80.14 5.00 292.27 2954.62
   09:18:20.363.31-Jan-2020 3923.01 2997.71 80.14 5.00 292.47 2954.62
   09:18:20.563.31-Jan-2020 3923.01 2997.69 80.14 5.00 292.67 2954.62
   09:18:20.763.31-Jan-2020 3923.01 2997.69 80.14 5.00 292.87 2954.62
   09:18:20.963.31-Jan-2020 3923.01 2997.69 80.14 5.00 293.07 2954.62
   09:18:21.163.31-Jan-2020 3923.01 2997.69 80.14 5.00 293.27 2954.62
   09:18:21.363.31-Jan-2020 3923.01 2997.62 80.13 5.00 293.47 2954.62
   09:18:21.563.31-Jan-2020 3923.01 2997.72 80.13 5.00 293.67 2954.62
   09:18:21.763.31-Jan-2020 3923.01 2997.73 80.13 5.00 293.87 2954.62
   09:18:21.963.31-Jan-2020 3923.01 2997.70 80.13 5.00 294.07 2954.62
   09:18:22.163.31-Jan-2020 3923.01 2997.70 80.13 5.00 294.27 2954.62
   09:18:22.363.31-Jan-2020 3923.01 2997.60 80.13 5.00 294.47 2954.62
   09:18:22.563.31-Jan-2020 3923.01 2997.74 80.13 5.00 294.67 2954.62
   09:18:22.763.31-Jan-2020 3923.01 2997.72 80.13 5.00 294.87 2954.62
   09:18:22.963.31-Jan-2020 3923.01 2997.71 80.13 5.00 295.07 2954.62
   09:18:23.163.31-Jan-2020 3923.01 2997.71 80.13 5.00 295.27 2954.62
   09:18:23.363.31-Jan-2020 3923.01 2997.68 80.13 5.00 295.47 2954.62
   09:18:23.563.31-Jan-2020 3923.01 2997.69 80.13 5.00 295.67 2954.62
   09:18:23.763.31-Jan-2020 3923.01 2997.61 80.13 5.00 295.87 2954.62
   09:18:23.963.31-Jan-2020 3923.01 2997.74 80.13 5.00 296.07 2954.62
   09:18:24.163.31-Jan-2020 3923.01 2997.74 80.13 5.00 296.27 2954.62
   09:18:24.364.31-Jan-2020 3923.01 2997.71 80.13 5.00 296.47 2954.62
   09:18:24.564.31-Jan-2020 3923.01 2997.69 80.13 5.00 296.67 2954.62
   09:18:24.764.31-Jan-2020 3923.01 2997.68 80.13 5.00 296.87 2954.62
   09:18:24.964.31-Jan-2020 3923.01 2997.67 80.13 5.00 297.07 2954.62
   09:18:25.164.31-Jan-2020 3923.01 2997.67 80.13 5.00 297.27 2954.62
   09:18:25.364.31-Jan-2020 3923.01 2997.70 80.12 5.00 297.47 2954.62
   09:18:25.564.31-Jan-2020 3923.01 2997.68 80.12 5.00 297.67 2954.62
   09:18:25.764.31-Jan-2020 3923.01 2997.66 80.12 5.00 297.87 2954.62
   09:18:25.964.31-Jan-2020 3923.01 2997.65 80.12 5.00 298.07 2954.62
   09:18:26.164.31-Jan-2020 3923.01 2997.65 80.12 5.00 298.27 2954.62
   09:18:26.364.31-Jan-2020 3923.01 2997.65 80.12 5.00 298.47 2954.62
   09:18:26.564.31-Jan-2020 3923.01 2997.67 80.12 5.00 298.67 2954.62
   09:18:26.764.31-Jan-2020 3923.01 2997.65 80.12 5.00 298.87 2954.62
