~Version Information
 VERS.                  2.0:   CWLS log ASCII Standard -VERSION 2.0
 WRAP.                   NO:   One line per depth step
~Well Information Block
#MNEM.UNIT     VALUE/NAME     DESCRIPTION
#---------     -----------    ---------------------------
 STRT.S             01:40:55 31-Jan-20: START TIME 01:40:55 31-Jan-20
 STOP.S             01:47:23 31-Jan-20: STOP TIME  01:47:23 31-Jan-20
 STEP.S                   0.00: STEP TIME
 NULL.                 -999.25: NULL VALUE
 DFWT.                        :  DIST FWL TEXT
 DFST.                        :  DIST FSL TEXT
 DMF .             Drill Floor:  DRILL MEAS FROM
 STIM.      09.30.00 26-Dec-19:  START TIME
 DATE.      08.00.00 20-Jan-20:  END TIME
 SPUD.               23-Nov-19:  SPUD DATE
 NREF.                    Grid:  NORTH REFERENCE
 HPTY.       Minimum Curvature:  HOLE POS TYPE
 DMOD.             Drill Model:  DRILL MOD DESC
 SVYD.                  Survey:  SURVEY DESC
 ILTD.               Lithology:  INTERP LTH DESC
 FTOP.          Formation Tops:  FORM TOPS DESC
 SON .        AZ-XX-0906192647:  JOB NUMBER
 WTYP.                Deviated:  WELL TYPE
 COMP.     BP Exploration (Caspian Sea) Ltd:  COMPANY
 BASE.              Azerbaijan:  LOGGING EQUIPMENT BASE LOCATION
 REGN.                 Eurasia:  REGION
 FLD .                     ACG:  FIELD NAME
 SRVC.              KCA Deutag:  CONTRACTOR
 MWDS.                    Baku:  MWD SHOP
 WELL.     A10 (Slot 20) - SCP:  WELL NAME
 JOBN.        AZ-XX-0906192647:  JOB TICKET NUMB
 RIG .                 Chirag1:  RIG NAME
 DCON.     Halliburton Sperry Drilling:  DIRECTNL CONTR
 UNIT.                     N/A:  LOGGING EQUIPMENT ID
 PDAT.          Mean Sea Level:  PERMANENT DATUM
 MDS .        Operator Entered:  MAG DATA SOURCE
 CTRY.              Azerbaijan:  COUNTRY NAME
 UWI .            /AZE00000090:  UNIQUE WELL IDENTIFIER
 API .            /AZE00000090:  API NUMBER
 CNTY.                        :  COUNTY
 PROV.                        :  PROVINCE
 STAT.                        :  STATE
 LOC .                        :  LOCATION
 LMF .             Drill Floor:  LOG MEASURED FROM
 TVDS.m                  36.60:  TVDSS CORRECTN
 LATI.deg                40.08:  LATITUDE
 LONG.deg                51.24:  LONGITUDE
 WHNS.m                  -7.94:  WELL HEAD N/S
 WHEW.m                   1.56:  WELL HEAD E/W
 UTMX.m              520429.26:  UTM X
 UTMY.m             4438973.87:  UTM Y
 DFWL.m                   0.00:  DISTANCE FWL
 DFSL.m                   0.00:  DISTANCE FSL
 SDEP.m                1455.00:  START DEPTH
 TDD .m                4047.51:  TOTAL DEPTH (DRILLER)
 VSDR.deg               112.75:  VERT SEC DIRECT
 GVFD.g                   1.00:  GRAVITY FIELD
 MFLD.nT              50261.00:  MAGNETIC FIELD
 MDIP.deg                59.52:  MAGNETIC DIP
 MDEC.deg                 6.42:  MAGNETIC DECL
 GRDC.deg                 0.17:  GRID CORRECTION
 AZTC.deg                 6.25:  AZM TOTAL CORR
 EPD .m                   0.00:  ELEVATION
 EGL .m                   0.00:  GROUND ELEVATION
 WDMS.m                 121.00:  WD ELEV
 APD .m                  36.60:  DEPTH ABOVE PD
 AGAP.m                  36.60:  AIR GAP
 VSEW.m                   1.56:  VERT SEC E/W
 VSNS.m                  -7.94:  VERT SEC N/S
 DEP .m                1140.01:  DEPTH
 EKB .m                  36.60:  KB ELEVATION
 EDF .m                  36.60:  DF ELEVATION
 TDL .m                 169.50:  TOTAL DEPTH (LOGGER)
 CSGD.m                3875.01:  CASING BOTTOM (DRILLER)
 CSGL.m                3875.01:  CASING BOTTOM (LOGGER)
 CSGS.in                  7.63:  CASING SIZE
 CSGW.lbpf               23.50:  CASING WEIGHT
 VSC .                       0:  VS TO CLOSURE
 MAGU.                 1849206:  MAGUTM CHECKSUM
~Parameter Information Block
#MNEM.UNIT       Value        Description
#---------     -----------    ---------------------------
 AV  .mps                 1.90:  Ann Velocity 
 AVMX.mps                 2.54:  Max Ann Veloc 
 AZIF.deg               137.03:  Azm, Final 
 BHAT.        Rotary Steerable:  BHA Type 
 BREV.rev             23610.00:  Rev Bit Total 
 BROT.°/30m               0.80:  Build Rotating 
 BS  .in                  6.50:  Bit Size 
 BTPL.psig              110.00:  Bit Press Loss 
 CABU.                     Yes:  Customer Abuse 
 COMM.                     šn:  Run Comments 1 
 TCS .hr                 70.51:  Time Ciculation Ended 
 CV  .mps                 1.41:  Crit Velocity 
 CVMX.mps                 1.42:  Max Crit Veloc 
 DD1 .         Intigam Rahimov:  Direct Drillr 1 
 DD2 .          Rashad Gojayev:  Direct Drillr 2 
 DDSV.               Geo-Pilot:  DD Service 
 DEFF.%                 100.00:  % Det Eff 
 DLRX.°/30m               1.44:  Dogleg Rot Max 
 DLSO.°/30m               0.00:  Dogleg Oriented 
 DLSX.°/30m               0.00:  Dogleg Str Max 
 DRET.      03.05.00 01-Feb-20:  Drill End Time 
 DRST.      15.50.00 28-Jan-20:  Drill Start Tim 
 DTIM.hr                 24.70:  Time Drilling 
 EDEP.m                4047.51:  End Depth 
 ENG1.           Eldar Hajiyev:  Engineer 1 
 ENG2.          Rasim Hashimov:  Engineer 2 
 ENG3.          Rustam Safarov:  Engineer 3 
 ETIM.      22.00.00 01-Feb-20:  End Time 
 FLOI.gpm               370.00:  Flow In 
 FLON.gpm               300.00:  Flow In Min 
 FLOS.cptm                0.00:  Fluid Loss 
 FLOX.gpm               400.00:  Flow In Max 
 FTRO.       Formation Presure:  FTWD Run Obj 
 HFLO.                      No:  High Flow 
 HPRE.                      No:  High Pressure 
 HTEM.                      No:  High Temp 
 HYDO.m                   2.50:  Hydro Offset 
 IFIN.deg                39.54:  Inc, Final 
 IMAX.deg                41.14:  Inc Max 
 IMIN.deg                39.81:  Inc Min 
 IMND.m                4005.21:  Inc Min Depth 
 IMXD.m                3948.42:  Inc Max Depth 
 JARR.                      No:  Jarring 
 LETM.      03.05.00 01-Feb-20:  Log End Time 
 LOST.hr                     0:  Lost Rig Time 
 LSTM.      15.50.00 28-Jan-20:  Log Start Time 
 MDCL.ppm             37500.00:  Mud Chlorides 
 MDES.     Inversion Oil/Synthetic:  Mud Desc 
 DFD .sg                  1.32:  Mud Density 
 MDMN.sg                  1.32:  Dens Mud Min 
 MDMX.sg                  1.32:  Dens Mud Max 
 MOIL.                      55:  Run Mud Oil % 
 MOWR.                   70:30:  Run Mud OWR 
 MSND.                       0:  Run Mud Sand % 
 MSOL.                      17:  Run Mud Solids% 
 DFV .spqt               80.00:  Mud Viscosity 
 MWOD.in                  4.75:  MWD Tool OD 
 MWSI.                      No:  Serv Intrp, MWD 
 OTIM.hr                121.28:  Time Operating 
 PCON.           Look Like New:  Pad Condition 
 PMAX.psia             6171.00:  Press Op, Max 
 PV  .cP                 30.00:  Mud PV 
 RUN .                     300:  Run Number 
 ROPA.m/hr                5.45:  ROP Avg 
 ROPN.m/hr                3.00:  ROP Min 
 ROPX.m/hr               15.00:  ROP Max 
 RPMA.rpm               130.00:  RPM Surface Avg 
 RPMN.rpm                80.00:  RPM Surface Min 
 RPMX.rpm               140.00:  RPM Surface Max 
 RRUN.                     300:  Rig Run Number 
 RTIM.hr                 13.50:  Time Reaming 
 SAZI.deg               133.93:  Azm, Start 
 SDEP.m                3878.01:  Start Depth 
 SIDD.                      No:  Serv Intrp, DD 
 SINC.deg                40.28:  Inc, Start 
 SPPA.psig             4983.00:  SPP Avg 
 SPPN.psig             4370.00:  SPP Min 
 SPPX.psig             5300.00:  SPP Max 
 STIM.      18.33.36 27-Jan-20:  Start Time 
 SVCS.                 DD, MWD:  Services 
 SVER.                    9.20:  Sperry Version 
 TDAT.m                 169.50:  Tot Depth Attmp 
 TDDF.                      No:  Trip for DD 
 TDLG.m                 169.50:  Tot Depth Loggd 
 TFF .                      No:  Trip for Fail 
 TQAA.f-kp               13.25:  Torque Abs Avg 
 TQAN.f-kp               12.00:  Torque Abs Min 
 TQAX.f-kp               14.00:  Torque Abs Max 
 TRRT.°/30m               0.70:  Turn Rotating 
 MRT .                     ADR:  Maximum Recorded Temperature 
 TTMX.degC               92.16:  Max Tool Temp 
 VS01.       AZ90598764G12V7D4:  Virtual Str1 SN 
 VS02.         AZ90571342R12C4:  Virtual Str2 SN 
 VS03.      AZ90580010N2L2X1C4:  Virtual Str3 SN 
 VS04.        AZ90522266O7X1C4:  Virtual Str4 SN 
 VS05.           AZ90598768F11:  Virtual Str5 SN 
 VS06.     AZ90580006XZ1W1X1C4:  Virtual Str6 SN 
 WBMN.klb                 8.00:  WOB Min 
 WITN.            Peter Wilson:  Customer Rep 
 WOBA.klb                 9.88:  WOB Avg 
 WOBX.klb                10.00:  WOB Max 
 YP  .lhf2               27.00:  Yield Point 
~Curve Information Block
#MNEM.UNIT                 API CODE     Curve Description
#---------               -----------    ---------------------------
 TIME.HHMMSS            00 000 000 000:  GT Time & Date
 GTDEPTH.m              00 000 000 000:  GT Depth
 GTPQH.psia             00 000 000 000:  GT HR Quartz Pressure
 GTTQ.degC              00 000 000 000:  GT Quartz Temperature
 GTTN.NONE              00 000 000 000:  GT Test Number
 GTET.sec               00 000 000 000:  GT Elapsed Test Time
 GTTVD.m                00 000 000 000:  GT True Vertical Depth
#Other Information
#
#WARRANTY: Halliburton will use its best efforts to furnish customers with 
#accurate information and interpretations that are part of, and incident to, the services 
#provided.  However, Halliburton cannot and does not warrant the accuracy 
#or correctness of such information and interpretations.  Under no circumstances should any 
#such information or interpretation be relied upon as the sole basis for any drilling, 
#completion, production, or financial decision or any procedure involving any risk to the 
#safety of any drilling venture, drilling rig or its crew or any other third party.  The 
#Customer has full responsibility for all drilling, completion and production operation.  
#Halliburton makes no representations or warranties, either expressed or 
#implied, including, but not limited to, the implied warranties of merchantability or fitness 
#for a particular purpose, with respect to the services rendered.  In no event will 
#Halliburton be liable for failure to obtain any particular results or for 
#any damages, including, but not limited to, indirect, special or consequential damages, 
#resulting from the use of any information or interpretation provided by Halliburton.
#
~A           TIME           GTDEPTH  GTPQH  GTTQ  GTTN  GTET   GTTVD  
# ...
   01:45:31.113.31-Jan-2020 3902.01 2983.62 76.00 3.00 276.05 2938.77
   01:45:31.313.31-Jan-2020 3902.01 2983.62 76.00 3.00 276.25 2938.77
   01:45:31.513.31-Jan-2020 3902.01 2983.65 76.00 3.00 276.45 2938.77
   01:45:31.714.31-Jan-2020 3902.01 2983.25 76.00 3.00 276.65 2938.77
   01:45:31.914.31-Jan-2020 3902.01 2983.65 75.99 3.00 276.85 2938.77
   01:45:32.114.31-Jan-2020 3902.01 2983.75 75.99 3.00 277.05 2938.77
   01:45:32.314.31-Jan-2020 3902.01 2983.75 75.99 3.00 277.25 2938.77
   01:45:32.514.31-Jan-2020 3902.01 2983.71 75.99 3.00 277.45 2938.77
   01:45:32.714.31-Jan-2020 3902.01 2983.22 75.99 3.00 277.65 2938.77
   01:45:32.914.31-Jan-2020 3902.01 2983.72 75.99 3.00 277.85 2938.77
   01:45:33.114.31-Jan-2020 3902.01 2983.73 75.99 3.00 278.05 2938.77
   01:45:33.314.31-Jan-2020 3902.01 2983.73 75.99 3.00 278.25 2938.77
   01:45:33.514.31-Jan-2020 3902.01 2983.67 75.99 3.00 278.45 2938.77
   01:45:33.714.31-Jan-2020 3902.01 2983.37 75.99 3.00 278.65 2938.77
   01:45:33.914.31-Jan-2020 3902.01 2983.68 75.99 3.00 278.85 2938.77
   01:45:34.114.31-Jan-2020 3902.01 2983.73 75.99 3.00 279.05 2938.77
   01:45:34.314.31-Jan-2020 3902.01 2983.73 75.99 3.00 279.25 2938.77
   01:45:34.514.31-Jan-2020 3902.01 2983.78 75.99 3.00 279.45 2938.77
   01:45:34.714.31-Jan-2020 3902.01 2983.69 75.99 3.00 279.65 2938.77
   01:45:34.914.31-Jan-2020 3902.01 2983.64 75.99 3.00 279.85 2938.77
   01:45:35.114.31-Jan-2020 3902.01 2983.59 75.99 3.00 280.05 2938.77
   01:45:35.314.31-Jan-2020 3902.01 2983.59 75.99 3.00 280.25 2938.77
   01:45:35.514.31-Jan-2020 3902.01 2983.67 75.99 3.00 280.45 2938.77
   01:45:35.714.31-Jan-2020 3902.01 2983.66 75.99 3.00 280.65 2938.77
   01:45:35.914.31-Jan-2020 3902.01 2983.63 75.99 3.00 280.85 2938.77
   01:45:36.114.31-Jan-2020 3902.01 2983.61 75.99 3.00 281.05 2938.77
   01:45:36.314.31-Jan-2020 3902.01 2983.61 75.99 3.00 281.25 2938.77
   01:45:36.514.31-Jan-2020 3902.01 2983.61 75.99 3.00 281.45 2938.77
   01:45:36.714.31-Jan-2020 3902.01 2983.66 75.99 3.00 281.65 2938.77
   01:45:36.914.31-Jan-2020 3902.01 2983.66 75.99 3.00 281.85 2938.77
   01:45:37.115.31-Jan-2020 3902.01 2983.60 75.98 3.00 282.05 2938.77
   01:45:37.315.31-Jan-2020 3902.01 2983.60 75.98 3.00 282.25 2938.77
   01:45:37.515.31-Jan-2020 3902.01 2983.27 75.98 3.00 282.45 2938.77
   01:45:37.715.31-Jan-2020 3902.01 2983.73 75.98 3.00 282.65 2938.77
   01:45:37.915.31-Jan-2020 3902.01 2983.71 75.98 3.00 282.85 2938.77
   01:45:38.115.31-Jan-2020 3902.01 2983.71 75.98 3.00 283.05 2938.77
   01:45:38.315.31-Jan-2020 3902.01 2983.71 75.98 3.00 283.25 2938.77
   01:45:38.515.31-Jan-2020 3902.01 2983.69 75.98 3.00 283.45 2938.77
   01:45:38.715.31-Jan-2020 3902.01 2983.66 75.98 3.00 283.65 2938.77
   01:45:38.915.31-Jan-2020 3902.01 2983.64 75.98 3.00 283.85 2938.77
   01:45:39.115.31-Jan-2020 3902.01 2983.62 75.98 3.00 284.05 2938.77
   01:45:39.315.31-Jan-2020 3902.01 2983.62 75.98 3.00 284.25 2938.77
   01:45:39.515.31-Jan-2020 3902.01 2983.64 75.98 3.00 284.45 2938.77
   01:45:39.715.31-Jan-2020 3902.01 2983.60 75.98 3.00 284.65 2938.77
   01:45:39.915.31-Jan-2020 3902.01 2983.64 75.98 3.00 284.85 2938.77
   01:45:40.115.31-Jan-2020 3902.01 2983.60 75.98 3.00 285.05 2938.77
   01:45:40.315.31-Jan-2020 3902.01 2983.60 75.98 3.00 285.25 2938.77
   01:45:40.515.31-Jan-2020 3902.01 2983.68 75.98 3.00 285.45 2938.77
   01:45:40.715.31-Jan-2020 3902.01 2983.37 75.98 3.00 285.65 2938.77
   01:45:40.915.31-Jan-2020 3902.01 2983.69 75.98 3.00 285.85 2938.77
   01:45:41.115.31-Jan-2020 3902.01 2983.71 75.98 3.00 286.05 2938.77
   01:45:41.315.31-Jan-2020 3902.01 2983.71 75.98 3.00 286.25 2938.77
   01:45:41.515.31-Jan-2020 3902.01 2983.71 75.98 3.00 286.45 2938.77
   01:45:41.715.31-Jan-2020 3902.01 2983.40 75.98 3.00 286.65 2938.77
   01:45:41.915.31-Jan-2020 3902.01 2983.77 75.98 3.00 286.85 2938.77
   01:45:42.115.31-Jan-2020 3902.01 2983.78 75.98 3.00 287.05 2938.77
   01:45:42.315.31-Jan-2020 3902.01 2983.78 75.98 3.00 287.25 2938.77
   01:45:42.515.31-Jan-2020 3902.01 2983.73 75.97 3.00 287.45 2938.77
   01:45:42.716.31-Jan-2020 3902.01 2983.67 75.97 3.00 287.65 2938.77
   01:45:42.916.31-Jan-2020 3902.01 2983.67 75.97 3.00 287.85 2938.77
   01:45:43.116.31-Jan-2020 3902.01 2983.56 75.97 3.00 288.05 2938.77
   01:45:43.316.31-Jan-2020 3902.01 2983.56 75.97 3.00 288.25 2938.77
   01:45:43.516.31-Jan-2020 3902.01 2983.78 75.97 3.00 288.45 2938.77
   01:45:43.716.31-Jan-2020 3902.01 2983.82 75.97 3.00 288.65 2938.77
   01:45:43.916.31-Jan-2020 3902.01 2983.74 75.97 3.00 288.85 2938.77
   01:45:44.116.31-Jan-2020 3902.01 2983.44 75.97 3.00 289.05 2938.77
   01:45:44.316.31-Jan-2020 3902.01 2983.44 75.97 3.00 289.25 2938.77
   01:45:44.516.31-Jan-2020 3902.01 2983.80 75.97 3.00 289.45 2938.77
   01:45:44.716.31-Jan-2020 3902.01 2983.80 75.97 3.00 289.65 2938.77
   01:45:44.916.31-Jan-2020 3902.01 2983.75 75.97 3.00 289.85 2938.77
   01:45:45.116.31-Jan-2020 3902.01 2983.81 75.97 3.00 290.05 2938.77
   01:45:45.316.31-Jan-2020 3902.01 2983.81 75.97 3.00 290.25 2938.77
   01:45:45.516.31-Jan-2020 3902.01 2983.83 75.97 3.00 290.45 2938.77
   01:45:45.716.31-Jan-2020 3902.01 2983.80 75.97 3.00 290.65 2938.77
   01:45:45.916.31-Jan-2020 3902.01 2983.82 75.97 3.00 290.85 2938.77
   01:45:46.116.31-Jan-2020 3902.01 2983.86 75.97 3.00 291.05 2938.77
   01:45:46.316.31-Jan-2020 3902.01 2983.86 75.97 3.00 291.25 2938.77
   01:45:46.516.31-Jan-2020 3902.01 2983.71 75.97 3.00 291.45 2938.77
   01:45:46.716.31-Jan-2020 3902.01 2983.67 75.97 3.00 291.65 2938.77
   01:45:46.916.31-Jan-2020 3902.01 2983.76 75.97 3.00 291.85 2938.77
   01:45:47.116.31-Jan-2020 3902.01 2983.77 75.97 3.00 292.05 2938.77
   01:45:47.316.31-Jan-2020 3902.01 2983.77 75.97 3.00 292.25 2938.77
   01:45:47.516.31-Jan-2020 3902.01 2983.67 75.97 3.00 292.45 2938.77
   01:45:47.716.31-Jan-2020 3902.01 2983.66 75.96 3.00 292.65 2938.77
   01:45:47.916.31-Jan-2020 3902.01 2983.66 75.96 3.00 292.85 2938.77
   01:45:48.117.31-Jan-2020 3902.01 2983.72 75.96 3.00 293.05 2938.77
   01:45:48.317.31-Jan-2020 3902.01 2983.72 75.96 3.00 293.25 2938.77
   01:45:48.517.31-Jan-2020 3902.01 2983.69 75.96 3.00 293.45 2938.77
   01:45:48.717.31-Jan-2020 3902.01 2983.68 75.96 3.00 293.65 2938.77
   01:45:48.917.31-Jan-2020 3902.01 2983.61 75.96 3.00 293.85 2938.77
   01:45:49.117.31-Jan-2020 3902.01 2983.56 75.96 3.00 294.05 2938.77
   01:45:49.317.31-Jan-2020 3902.01 2983.56 75.96 3.00 294.25 2938.77
   01:45:49.517.31-Jan-2020 3902.01 2983.79 75.96 3.00 294.45 2938.77
   01:45:49.717.31-Jan-2020 3902.01 2983.77 75.96 3.00 294.65 2938.77
   01:45:49.917.31-Jan-2020 3902.01 2983.77 75.96 3.00 294.85 2938.77
   01:45:50.117.31-Jan-2020 3902.01 2983.73 75.96 3.00 295.05 2938.77
   01:45:50.317.31-Jan-2020 3902.01 2983.73 75.96 3.00 295.25 2938.77
   01:45:50.517.31-Jan-2020 3902.01 2983.68 75.96 3.00 295.45 2938.77
   01:45:50.717.31-Jan-2020 3902.01 2983.71 75.96 3.00 295.65 2938.77
   01:45:50.917.31-Jan-2020 3902.01 2983.68 75.96 3.00 295.85 2938.77
   01:45:51.117.31-Jan-2020 3902.01 2983.67 75.96 3.00 296.05 2938.77
   01:45:51.317.31-Jan-2020 3902.01 2983.67 75.96 3.00 296.25 2938.77
   01:45:51.517.31-Jan-2020 3902.01 2983.68 75.96 3.00 296.45 2938.77
   01:45:51.717.31-Jan-2020 3902.01 2983.67 75.96 3.00 296.65 2938.77
   01:45:51.917.31-Jan-2020 3902.01 2983.71 75.96 3.00 296.85 2938.77
   01:45:52.117.31-Jan-2020 3902.01 2983.78 75.96 3.00 297.05 2938.77
   01:45:52.317.31-Jan-2020 3902.01 2983.78 75.96 3.00 297.25 2938.77
   01:45:52.517.31-Jan-2020 3902.01 2983.78 75.96 3.00 297.45 2938.77
   01:45:52.717.31-Jan-2020 3902.01 2983.72 75.95 3.00 297.65 2938.77
   01:45:52.917.31-Jan-2020 3902.01 2983.73 75.95 3.00 297.85 2938.77
   01:45:53.117.31-Jan-2020 3902.01 2983.82 75.95 3.00 298.05 2938.77
   01:45:53.317.31-Jan-2020 3902.01 2983.82 75.95 3.00 298.25 2938.77
   01:45:53.517.31-Jan-2020 3902.01 2983.82 75.95 3.00 298.45 2938.77
   01:45:53.718.31-Jan-2020 3902.01 2983.78 75.95 3.00 298.65 2938.77
   01:45:53.918.31-Jan-2020 3902.01 2983.78 75.95 3.00 298.85 2938.77
