~Version Information
 VERS.                  2.0:   CWLS log ASCII Standard -VERSION 2.0
 WRAP.                   NO:   One line per depth step
~Well Information Block
#MNEM.UNIT     VALUE/NAME     DESCRIPTION
#---------     -----------    ---------------------------
 STRT.S             01:40:55 31-Jan-20: START TIME 01:40:55 31-Jan-20
 STOP.S             01:47:23 31-Jan-20: STOP TIME  01:47:23 31-Jan-20
 STEP.S                   0.00: STEP TIME
 NULL.                 -999.25: NULL VALUE
 DFWT.                        :  DIST FWL TEXT
 DFST.                        :  DIST FSL TEXT
 DMF .             Drill Floor:  DRILL MEAS FROM
 STIM.      09.30.00 26-Dec-19:  START TIME
 DATE.      08.00.00 20-Jan-20:  END TIME
 SPUD.               23-Nov-19:  SPUD DATE
 NREF.                    Grid:  NORTH REFERENCE
 HPTY.       Minimum Curvature:  HOLE POS TYPE
 DMOD.             Drill Model:  DRILL MOD DESC
 SVYD.                  Survey:  SURVEY DESC
 ILTD.               Lithology:  INTERP LTH DESC
 FTOP.          Formation Tops:  FORM TOPS DESC
 SON .        AZ-XX-0906192647:  JOB NUMBER
 WTYP.                Deviated:  WELL TYPE
 COMP.     BP Exploration (Caspian Sea) Ltd:  COMPANY
 BASE.              Azerbaijan:  LOGGING EQUIPMENT BASE LOCATION
 REGN.                 Eurasia:  REGION
 FLD .                     ACG:  FIELD NAME
 SRVC.              KCA Deutag:  CONTRACTOR
 MWDS.                    Baku:  MWD SHOP
 WELL.     A10 (Slot 20) - SCP:  WELL NAME
 JOBN.        AZ-XX-0906192647:  JOB TICKET NUMB
 RIG .                 Chirag1:  RIG NAME
 DCON.     Halliburton Sperry Drilling:  DIRECTNL CONTR
 UNIT.                     N/A:  LOGGING EQUIPMENT ID
 PDAT.          Mean Sea Level:  PERMANENT DATUM
 MDS .        Operator Entered:  MAG DATA SOURCE
 CTRY.              Azerbaijan:  COUNTRY NAME
 UWI .            /AZE00000090:  UNIQUE WELL IDENTIFIER
 API .            /AZE00000090:  API NUMBER
 CNTY.                        :  COUNTY
 PROV.                        :  PROVINCE
 STAT.                        :  STATE
 LOC .                        :  LOCATION
 LMF .             Drill Floor:  LOG MEASURED FROM
 TVDS.m                  36.60:  TVDSS CORRECTN
 LATI.deg                40.08:  LATITUDE
 LONG.deg                51.24:  LONGITUDE
 WHNS.m                  -7.94:  WELL HEAD N/S
 WHEW.m                   1.56:  WELL HEAD E/W
 UTMX.m              520429.26:  UTM X
 UTMY.m             4438973.87:  UTM Y
 DFWL.m                   0.00:  DISTANCE FWL
 DFSL.m                   0.00:  DISTANCE FSL
 SDEP.m                1455.00:  START DEPTH
 TDD .m                4047.51:  TOTAL DEPTH (DRILLER)
 VSDR.deg               112.75:  VERT SEC DIRECT
 GVFD.g                   1.00:  GRAVITY FIELD
 MFLD.nT              50261.00:  MAGNETIC FIELD
 MDIP.deg                59.52:  MAGNETIC DIP
 MDEC.deg                 6.42:  MAGNETIC DECL
 GRDC.deg                 0.17:  GRID CORRECTION
 AZTC.deg                 6.25:  AZM TOTAL CORR
 EPD .m                   0.00:  ELEVATION
 EGL .m                   0.00:  GROUND ELEVATION
 WDMS.m                 121.00:  WD ELEV
 APD .m                  36.60:  DEPTH ABOVE PD
 AGAP.m                  36.60:  AIR GAP
 VSEW.m                   1.56:  VERT SEC E/W
 VSNS.m                  -7.94:  VERT SEC N/S
 DEP .m                1140.01:  DEPTH
 EKB .m                  36.60:  KB ELEVATION
 EDF .m                  36.60:  DF ELEVATION
 TDL .m                 169.50:  TOTAL DEPTH (LOGGER)
 CSGD.m                3875.01:  CASING BOTTOM (DRILLER)
 CSGL.m                3875.01:  CASING BOTTOM (LOGGER)
 CSGS.in                  7.63:  CASING SIZE
 CSGW.lbpf               23.50:  CASING WEIGHT
 VSC .                       0:  VS TO CLOSURE
 MAGU.                 1849206:  MAGUTM CHECKSUM
~Parameter Information Block
#MNEM.UNIT       Value        Description
#---------     -----------    ---------------------------
 AV  .mps                 1.90:  Ann Velocity 
 AVMX.mps                 2.54:  Max Ann Veloc 
 AZIF.deg               137.03:  Azm, Final 
 BHAT.        Rotary Steerable:  BHA Type 
 BREV.rev             23610.00:  Rev Bit Total 
 BROT.°/30m               0.80:  Build Rotating 
 BS  .in                  6.50:  Bit Size 
 BTPL.psig              110.00:  Bit Press Loss 
 CABU.                     Yes:  Customer Abuse 
 COMM.                     šn:  Run Comments 1 
 TCS .hr                 70.51:  Time Ciculation Ended 
 CV  .mps                 1.41:  Crit Velocity 
 CVMX.mps                 1.42:  Max Crit Veloc 
 DD1 .         Intigam Rahimov:  Direct Drillr 1 
 DD2 .          Rashad Gojayev:  Direct Drillr 2 
 DDSV.               Geo-Pilot:  DD Service 
 DEFF.%                 100.00:  % Det Eff 
 DLRX.°/30m               1.44:  Dogleg Rot Max 
 DLSO.°/30m               0.00:  Dogleg Oriented 
 DLSX.°/30m               0.00:  Dogleg Str Max 
 DRET.      03.05.00 01-Feb-20:  Drill End Time 
 DRST.      15.50.00 28-Jan-20:  Drill Start Tim 
 DTIM.hr                 24.70:  Time Drilling 
 EDEP.m                4047.51:  End Depth 
 ENG1.           Eldar Hajiyev:  Engineer 1 
 ENG2.          Rasim Hashimov:  Engineer 2 
 ENG3.          Rustam Safarov:  Engineer 3 
 ETIM.      22.00.00 01-Feb-20:  End Time 
 FLOI.gpm               370.00:  Flow In 
 FLON.gpm               300.00:  Flow In Min 
 FLOS.cptm                0.00:  Fluid Loss 
 FLOX.gpm               400.00:  Flow In Max 
 FTRO.       Formation Presure:  FTWD Run Obj 
 HFLO.                      No:  High Flow 
 HPRE.                      No:  High Pressure 
 HTEM.                      No:  High Temp 
 HYDO.m                   2.50:  Hydro Offset 
 IFIN.deg                39.54:  Inc, Final 
 IMAX.deg                41.14:  Inc Max 
 IMIN.deg                39.81:  Inc Min 
 IMND.m                4005.21:  Inc Min Depth 
 IMXD.m                3948.42:  Inc Max Depth 
 JARR.                      No:  Jarring 
 LETM.      03.05.00 01-Feb-20:  Log End Time 
 LOST.hr                     0:  Lost Rig Time 
 LSTM.      15.50.00 28-Jan-20:  Log Start Time 
 MDCL.ppm             37500.00:  Mud Chlorides 
 MDES.     Inversion Oil/Synthetic:  Mud Desc 
 DFD .sg                  1.32:  Mud Density 
 MDMN.sg                  1.32:  Dens Mud Min 
 MDMX.sg                  1.32:  Dens Mud Max 
 MOIL.                      55:  Run Mud Oil % 
 MOWR.                   70:30:  Run Mud OWR 
 MSND.                       0:  Run Mud Sand % 
 MSOL.                      17:  Run Mud Solids% 
 DFV .spqt               80.00:  Mud Viscosity 
 MWOD.in                  4.75:  MWD Tool OD 
 MWSI.                      No:  Serv Intrp, MWD 
 OTIM.hr                121.28:  Time Operating 
 PCON.           Look Like New:  Pad Condition 
 PMAX.psia             6171.00:  Press Op, Max 
 PV  .cP                 30.00:  Mud PV 
 RUN .                     300:  Run Number 
 ROPA.m/hr                5.45:  ROP Avg 
 ROPN.m/hr                3.00:  ROP Min 
 ROPX.m/hr               15.00:  ROP Max 
 RPMA.rpm               130.00:  RPM Surface Avg 
 RPMN.rpm                80.00:  RPM Surface Min 
 RPMX.rpm               140.00:  RPM Surface Max 
 RRUN.                     300:  Rig Run Number 
 RTIM.hr                 13.50:  Time Reaming 
 SAZI.deg               133.93:  Azm, Start 
 SDEP.m                3878.01:  Start Depth 
 SIDD.                      No:  Serv Intrp, DD 
 SINC.deg                40.28:  Inc, Start 
 SPPA.psig             4983.00:  SPP Avg 
 SPPN.psig             4370.00:  SPP Min 
 SPPX.psig             5300.00:  SPP Max 
 STIM.      18.33.36 27-Jan-20:  Start Time 
 SVCS.                 DD, MWD:  Services 
 SVER.                    9.20:  Sperry Version 
 TDAT.m                 169.50:  Tot Depth Attmp 
 TDDF.                      No:  Trip for DD 
 TDLG.m                 169.50:  Tot Depth Loggd 
 TFF .                      No:  Trip for Fail 
 TQAA.f-kp               13.25:  Torque Abs Avg 
 TQAN.f-kp               12.00:  Torque Abs Min 
 TQAX.f-kp               14.00:  Torque Abs Max 
 TRRT.°/30m               0.70:  Turn Rotating 
 MRT .                     ADR:  Maximum Recorded Temperature 
 TTMX.degC               92.16:  Max Tool Temp 
 VS01.       AZ90598764G12V7D4:  Virtual Str1 SN 
 VS02.         AZ90571342R12C4:  Virtual Str2 SN 
 VS03.      AZ90580010N2L2X1C4:  Virtual Str3 SN 
 VS04.        AZ90522266O7X1C4:  Virtual Str4 SN 
 VS05.           AZ90598768F11:  Virtual Str5 SN 
 VS06.     AZ90580006XZ1W1X1C4:  Virtual Str6 SN 
 WBMN.klb                 8.00:  WOB Min 
 WITN.            Peter Wilson:  Customer Rep 
 WOBA.klb                 9.88:  WOB Avg 
 WOBX.klb                10.00:  WOB Max 
 YP  .lhf2               27.00:  Yield Point 
~Curve Information Block
#MNEM.UNIT                 API CODE     Curve Description
#---------               -----------    ---------------------------
 TIME.HHMMSS            00 000 000 000:  GT Time & Date
 GTDEPTH.m              00 000 000 000:  GT Depth
 GTPQH.psia             00 000 000 000:  GT HR Quartz Pressure
 GTTQ.degC              00 000 000 000:  GT Quartz Temperature
 GTTN.NONE              00 000 000 000:  GT Test Number
 GTET.sec               00 000 000 000:  GT Elapsed Test Time
 GTTVD.m                00 000 000 000:  GT True Vertical Depth
#Other Information
#
#WARRANTY: Halliburton will use its best efforts to furnish customers with 
#accurate information and interpretations that are part of, and incident to, the services 
#provided.  However, Halliburton cannot and does not warrant the accuracy 
#or correctness of such information and interpretations.  Under no circumstances should any 
#such information or interpretation be relied upon as the sole basis for any drilling, 
#completion, production, or financial decision or any procedure involving any risk to the 
#safety of any drilling venture, drilling rig or its crew or any other third party.  The 
#Customer has full responsibility for all drilling, completion and production operation.  
#Halliburton makes no representations or warranties, either expressed or 
#implied, including, but not limited to, the implied warranties of merchantability or fitness 
#for a particular purpose, with respect to the services rendered.  In no event will 
#Halliburton be liable for failure to obtain any particular results or for 
#any damages, including, but not limited to, indirect, special or consequential damages, 
#resulting from the use of any information or interpretation provided by Halliburton.
#
~A           TIME           GTDEPTH  GTPQH  GTTQ  GTTN  GTET   GTTVD  
# ...
   01:46:40.126.31-Jan-2020 3902.01 2983.79 75.87 3.00 345.06 2938.77
   01:46:40.326.31-Jan-2020 3902.01 2983.79 75.87 3.00 345.26 2938.77
   01:46:40.526.31-Jan-2020 3902.01 2983.82 75.87 3.00 345.46 2938.77
   01:46:40.726.31-Jan-2020 3902.01 2983.37 75.87 3.00 345.66 2938.77
   01:46:40.926.31-Jan-2020 3902.01 2983.81 75.87 3.00 345.86 2938.77
   01:46:41.126.31-Jan-2020 3902.01 2983.91 75.87 3.00 346.06 2938.77
   01:46:41.326.31-Jan-2020 3902.01 2983.91 75.87 3.00 346.26 2938.77
   01:46:41.526.31-Jan-2020 3902.01 2984.31 75.86 3.00 346.46 2938.77
   01:46:41.726.31-Jan-2020 3902.01 2969.09 75.86 3.00 346.66 2938.77
   01:46:41.926.31-Jan-2020 3902.01 3081.82 75.86 3.00 346.86 2938.77
   01:46:42.126.31-Jan-2020 3902.01 4324.80 75.86 3.00 347.06 2938.77
   01:46:42.326.31-Jan-2020 3902.01 4324.80 75.86 3.00 347.26 2938.77
   01:46:42.526.31-Jan-2020 3902.01 5986.63 75.86 3.00 347.46 2938.77
   01:46:42.726.31-Jan-2020 3902.01 5976.03 75.86 3.00 347.66 2938.77
   01:46:42.926.31-Jan-2020 3902.01 5986.24 75.86 3.00 347.86 2938.77
   01:46:43.126.31-Jan-2020 3902.01 5987.52 75.86 3.00 348.06 2938.77
   01:46:43.327.31-Jan-2020 3902.01 5987.52 75.86 3.00 348.26 2938.77
   01:46:43.527.31-Jan-2020 3902.01 5991.09 75.86 3.00 348.46 2938.77
   01:46:43.727.31-Jan-2020 3902.01 5991.77 75.86 3.00 348.66 2938.77
   01:46:43.927.31-Jan-2020 3902.01 5990.75 75.86 3.00 348.86 2938.77
   01:46:44.127.31-Jan-2020 3902.01 5990.77 75.86 3.00 349.06 2938.77
   01:46:44.327.31-Jan-2020 3902.01 5990.77 75.86 3.00 349.26 2938.77
   01:46:44.527.31-Jan-2020 3902.01 5994.07 75.86 3.00 349.46 2938.77
   01:46:44.727.31-Jan-2020 3902.01 5994.43 75.86 3.00 349.66 2938.77
   01:46:44.927.31-Jan-2020 3902.01 5994.06 75.86 3.00 349.86 2938.77
   01:46:45.127.31-Jan-2020 3902.01 5993.65 75.86 3.00 350.06 2938.77
   01:46:45.327.31-Jan-2020 3902.01 5993.65 75.86 3.00 350.26 2938.77
   01:46:45.527.31-Jan-2020 3902.01 5994.53 75.86 3.00 350.46 2938.77
   01:46:45.727.31-Jan-2020 3902.01 5995.93 75.86 3.00 350.66 2938.77
   01:46:45.927.31-Jan-2020 3902.01 5995.65 75.86 3.00 350.86 2938.77
   01:46:46.127.31-Jan-2020 3902.01 5995.15 75.86 3.00 351.06 2938.77
   01:46:46.327.31-Jan-2020 3902.01 5995.15 75.86 3.00 351.26 2938.77
   01:46:46.527.31-Jan-2020 3902.01 5985.65 75.87 3.00 351.46 2938.77
   01:46:46.727.31-Jan-2020 3902.01 5995.87 75.87 3.00 351.66 2938.77
   01:46:46.927.31-Jan-2020 3902.01 5995.57 75.87 3.00 351.86 2938.77
   01:46:47.127.31-Jan-2020 3902.01 5996.33 75.87 3.00 352.06 2938.77
   01:46:47.327.31-Jan-2020 3902.01 5996.33 75.87 3.00 352.26 2938.77
   01:46:47.527.31-Jan-2020 3902.01 5997.35 75.87 3.00 352.46 2938.77
   01:46:47.727.31-Jan-2020 3902.01 5996.71 75.87 3.00 352.66 2938.77
   01:46:47.927.31-Jan-2020 3902.01 5996.06 75.87 3.00 352.86 2938.77
   01:46:48.127.31-Jan-2020 3902.01 5995.46 75.87 3.00 353.06 2938.77
   01:46:48.327.31-Jan-2020 3902.01 5995.46 75.87 3.00 353.26 2938.77
   01:46:48.527.31-Jan-2020 3902.01 5995.84 75.87 3.00 353.46 2938.77
   01:46:48.727.31-Jan-2020 3902.01 5995.61 75.87 3.00 353.66 2938.77
   01:46:48.928.31-Jan-2020 3902.01 5995.47 75.87 3.00 353.86 2938.77
   01:46:49.128.31-Jan-2020 3902.01 5995.19 75.87 3.00 354.06 2938.77
   01:46:49.328.31-Jan-2020 3902.01 5995.19 75.87 3.00 354.26 2938.77
   01:46:49.528.31-Jan-2020 3902.01 5997.77 75.87 3.00 354.46 2938.77
   01:46:49.728.31-Jan-2020 3902.01 5986.75 75.87 3.00 354.66 2938.77
   01:46:49.928.31-Jan-2020 3902.01 5995.18 75.87 3.00 354.86 2938.77
   01:46:50.128.31-Jan-2020 3902.01 5995.16 75.87 3.00 355.06 2938.77
   01:46:50.328.31-Jan-2020 3902.01 5995.16 75.87 3.00 355.26 2938.77
   01:46:50.528.31-Jan-2020 3902.01 5995.52 75.87 3.00 355.46 2938.77
   01:46:50.728.31-Jan-2020 3902.01 5985.84 75.87 3.00 355.66 2938.77
   01:46:50.928.31-Jan-2020 3902.01 5995.83 75.87 3.00 355.86 2938.77
   01:46:51.128.31-Jan-2020 3902.01 5996.28 75.87 3.00 356.06 2938.77
   01:46:51.328.31-Jan-2020 3902.01 5996.28 75.87 3.00 356.26 2938.77
   01:46:51.528.31-Jan-2020 3902.01 5996.80 75.87 3.00 356.46 2938.77
   01:46:51.728.31-Jan-2020 3902.01 5996.19 75.87 3.00 356.66 2938.77
   01:46:51.928.31-Jan-2020 3902.01 5995.98 75.87 3.00 356.86 2938.77
   01:46:52.128.31-Jan-2020 3902.01 5990.21 75.87 3.00 357.06 2938.77
   01:46:52.328.31-Jan-2020 3902.01 5990.21 75.87 3.00 357.26 2938.77
   01:46:52.528.31-Jan-2020 3902.01 5995.82 75.87 3.00 357.46 2938.77
   01:46:52.728.31-Jan-2020 3902.01 5997.25 75.87 3.00 357.66 2938.77
   01:46:52.928.31-Jan-2020 3902.01 5996.43 75.87 3.00 357.86 2938.77
   01:46:53.128.31-Jan-2020 3902.01 5986.21 75.87 3.00 358.06 2938.77
   01:46:53.328.31-Jan-2020 3902.01 5986.21 75.87 3.00 358.26 2938.77
   01:46:53.528.31-Jan-2020 3902.01 5995.42 75.87 3.00 358.46 2938.77
   01:46:53.728.31-Jan-2020 3902.01 5997.21 75.87 3.00 358.67 2938.77
   01:46:53.928.31-Jan-2020 3902.01 5996.40 75.87 3.00 358.87 2938.77
   01:46:54.128.31-Jan-2020 3902.01 5993.94 75.87 3.00 359.07 2938.77
   01:46:54.329.31-Jan-2020 3902.01 5993.94 75.87 3.00 359.27 2938.77
   01:46:54.529.31-Jan-2020 3902.01 5994.78 75.87 3.00 359.47 2938.77
   01:46:54.729.31-Jan-2020 3902.01 5995.21 75.87 3.00 359.67 2938.77
   01:46:54.929.31-Jan-2020 3902.01 5996.48 75.87 3.00 359.87 2938.77
   01:46:55.129.31-Jan-2020 3902.01 5997.62 75.87 3.00 360.07 2938.77
   01:46:55.329.31-Jan-2020 3902.01 5997.62 75.87 3.00 360.27 2938.77
   01:46:55.529.31-Jan-2020 3902.01 5995.17 75.87 3.00 360.47 2938.77
   01:46:55.729.31-Jan-2020 3902.01 5994.60 75.87 3.00 360.67 2938.77
   01:46:55.929.31-Jan-2020 3902.01 5995.87 75.87 3.00 360.87 2938.77
   01:46:56.129.31-Jan-2020 3902.01 5996.67 75.87 3.00 361.07 2938.77
   01:46:56.329.31-Jan-2020 3902.01 5996.67 75.87 3.00 361.27 2938.77
   01:46:56.529.31-Jan-2020 3902.01 5995.20 75.87 3.00 361.47 2938.77
   01:46:56.729.31-Jan-2020 3902.01 5994.35 75.87 3.00 361.67 2938.77
   01:46:56.929.31-Jan-2020 3902.01 5994.23 75.87 3.00 361.87 2938.77
   01:46:57.129.31-Jan-2020 3902.01 5996.03 75.87 3.00 362.07 2938.77
   01:46:57.329.31-Jan-2020 3902.01 5996.03 75.87 3.00 362.27 2938.77
   01:46:57.529.31-Jan-2020 3902.01 5995.56 75.87 3.00 362.47 2938.77
   01:46:57.729.31-Jan-2020 3902.01 5995.88 75.87 3.00 362.67 2938.77
   01:46:57.929.31-Jan-2020 3902.01 5985.58 75.87 3.00 362.87 2938.77
   01:46:58.129.31-Jan-2020 3902.01 5995.23 75.87 3.00 363.07 2938.77
   01:46:58.329.31-Jan-2020 3902.01 5995.23 75.87 3.00 363.27 2938.77
   01:46:58.529.31-Jan-2020 3902.01 5996.49 75.87 3.00 363.47 2938.77
   01:46:58.729.31-Jan-2020 3902.01 5996.79 75.87 3.00 363.67 2938.77
   01:46:58.929.31-Jan-2020 3902.01 5997.37 75.87 3.00 363.87 2938.77
   01:46:59.129.31-Jan-2020 3902.01 5997.07 75.87 3.00 364.07 2938.77
   01:46:59.329.31-Jan-2020 3902.01 5997.07 75.87 3.00 364.27 2938.77
   01:46:59.529.31-Jan-2020 3902.01 5996.53 75.87 3.00 364.47 2938.77
   01:46:59.729.31-Jan-2020 3902.01 5996.16 75.87 3.00 364.67 2938.77
   01:46:59.930.31-Jan-2020 3902.01 5996.09 75.87 3.00 364.87 2938.77
   01:47:00.130.31-Jan-2020 3902.01 5996.00 75.87 3.00 365.07 2938.77
   01:47:00.330.31-Jan-2020 3902.01 5996.00 75.87 3.00 365.27 2938.77
   01:47:00.530.31-Jan-2020 3902.01 5995.78 75.87 3.00 365.47 2938.77
   01:47:00.730.31-Jan-2020 3902.01 5996.87 75.87 3.00 365.67 2938.77
   01:47:00.930.31-Jan-2020 3902.01 5997.59 75.87 3.00 365.87 2938.77
   01:47:01.130.31-Jan-2020 3902.01 5996.90 75.87 3.00 366.07 2938.77
   01:47:01.330.31-Jan-2020 3902.01 5996.90 75.87 3.00 366.27 2938.77
   01:47:01.530.31-Jan-2020 3902.01 5987.77 75.87 3.00 366.47 2938.77
   01:47:01.730.31-Jan-2020 3902.01 5995.01 75.87 3.00 366.67 2938.77
   01:47:01.930.31-Jan-2020 3902.01 5994.91 75.87 3.00 366.87 2938.77
   01:47:02.130.31-Jan-2020 3902.01 5995.92 75.87 3.00 367.07 2938.77
   01:47:02.330.31-Jan-2020 3902.01 5995.92 75.87 3.00 367.27 2938.77
   01:47:02.530.31-Jan-2020 3902.01 5987.58 75.87 3.00 367.47 2938.77
   01:47:02.730.31-Jan-2020 3902.01 5995.47 75.87 3.00 367.67 2938.77
   01:47:02.930.31-Jan-2020 3902.01 5995.66 75.87 3.00 367.87 2938.77
