~Version Information
 VERS.                  2.0:   CWLS log ASCII Standard -VERSION 2.0
 WRAP.                   NO:   One line per depth step
~Well Information Block
#MNEM.UNIT     VALUE/NAME     DESCRIPTION
#---------     -----------    ---------------------------
 STRT.S             00:13:57 01-Feb-20: START TIME 00:13:57 01-Feb-20
 STOP.S             00:20:28 01-Feb-20: STOP TIME  00:20:28 01-Feb-20
 STEP.S                   0.00: STEP TIME
 NULL.                 -999.25: NULL VALUE
 DFWT.                        :  DIST FWL TEXT
 DFST.                        :  DIST FSL TEXT
 DMF .             Drill Floor:  DRILL MEAS FROM
 STIM.      09.30.00 26-Dec-19:  START TIME
 DATE.      08.00.00 20-Jan-20:  END TIME
 SPUD.               23-Nov-19:  SPUD DATE
 NREF.                    Grid:  NORTH REFERENCE
 HPTY.       Minimum Curvature:  HOLE POS TYPE
 DMOD.             Drill Model:  DRILL MOD DESC
 SVYD.                  Survey:  SURVEY DESC
 ILTD.               Lithology:  INTERP LTH DESC
 FTOP.          Formation Tops:  FORM TOPS DESC
 SON .        AZ-XX-0906192647:  JOB NUMBER
 WTYP.                Deviated:  WELL TYPE
 COMP.     BP Exploration (Caspian Sea) Ltd:  COMPANY
 BASE.              Azerbaijan:  LOGGING EQUIPMENT BASE LOCATION
 REGN.                 Eurasia:  REGION
 FLD .                     ACG:  FIELD NAME
 SRVC.              KCA Deutag:  CONTRACTOR
 MWDS.                    Baku:  MWD SHOP
 WELL.     A10 (Slot 20) - SCP:  WELL NAME
 JOBN.        AZ-XX-0906192647:  JOB TICKET NUMB
 RIG .                 Chirag1:  RIG NAME
 DCON.     Halliburton Sperry Drilling:  DIRECTNL CONTR
 UNIT.                     N/A:  LOGGING EQUIPMENT ID
 PDAT.          Mean Sea Level:  PERMANENT DATUM
 MDS .        Operator Entered:  MAG DATA SOURCE
 CTRY.              Azerbaijan:  COUNTRY NAME
 UWI .            /AZE00000090:  UNIQUE WELL IDENTIFIER
 API .            /AZE00000090:  API NUMBER
 CNTY.                        :  COUNTY
 PROV.                        :  PROVINCE
 STAT.                        :  STATE
 LOC .                        :  LOCATION
 LMF .             Drill Floor:  LOG MEASURED FROM
 TVDS.m                  36.60:  TVDSS CORRECTN
 LATI.deg                40.08:  LATITUDE
 LONG.deg                51.24:  LONGITUDE
 WHNS.m                  -7.94:  WELL HEAD N/S
 WHEW.m                   1.56:  WELL HEAD E/W
 UTMX.m              520429.26:  UTM X
 UTMY.m             4438973.87:  UTM Y
 DFWL.m                   0.00:  DISTANCE FWL
 DFSL.m                   0.00:  DISTANCE FSL
 SDEP.m                1455.00:  START DEPTH
 TDD .m                4047.51:  TOTAL DEPTH (DRILLER)
 VSDR.deg               112.75:  VERT SEC DIRECT
 GVFD.g                   1.00:  GRAVITY FIELD
 MFLD.nT              50261.00:  MAGNETIC FIELD
 MDIP.deg                59.52:  MAGNETIC DIP
 MDEC.deg                 6.42:  MAGNETIC DECL
 GRDC.deg                 0.17:  GRID CORRECTION
 AZTC.deg                 6.25:  AZM TOTAL CORR
 EPD .m                   0.00:  ELEVATION
 EGL .m                   0.00:  GROUND ELEVATION
 WDMS.m                 121.00:  WD ELEV
 APD .m                  36.60:  DEPTH ABOVE PD
 AGAP.m                  36.60:  AIR GAP
 VSEW.m                   1.56:  VERT SEC E/W
 VSNS.m                  -7.94:  VERT SEC N/S
 DEP .m                1140.01:  DEPTH
 EKB .m                  36.60:  KB ELEVATION
 EDF .m                  36.60:  DF ELEVATION
 TDL .m                 169.50:  TOTAL DEPTH (LOGGER)
 CSGD.m                3875.01:  CASING BOTTOM (DRILLER)
 CSGL.m                3875.01:  CASING BOTTOM (LOGGER)
 CSGS.in                  7.63:  CASING SIZE
 CSGW.lbpf               23.50:  CASING WEIGHT
 VSC .                       0:  VS TO CLOSURE
 MAGU.                 1849206:  MAGUTM CHECKSUM
~Parameter Information Block
#MNEM.UNIT       Value        Description
#---------     -----------    ---------------------------
 AV  .mps                 1.90:  Ann Velocity 
 AVMX.mps                 2.54:  Max Ann Veloc 
 AZIF.deg               137.03:  Azm, Final 
 BHAT.        Rotary Steerable:  BHA Type 
 BREV.rev             23610.00:  Rev Bit Total 
 BROT.°/30m               0.80:  Build Rotating 
 BS  .in                  6.50:  Bit Size 
 BTPL.psig              110.00:  Bit Press Loss 
 CABU.                     Yes:  Customer Abuse 
 TCS .hr                 70.51:  Time Ciculation Ended 
 CV  .mps                 1.41:  Crit Velocity 
 CVMX.mps                 1.42:  Max Crit Veloc 
 DD1 .         Intigam Rahimov:  Direct Drillr 1 
 DD2 .          Rashad Gojayev:  Direct Drillr 2 
 DDSV.               Geo-Pilot:  DD Service 
 DEFF.%                 100.00:  % Det Eff 
 DLRX.°/30m               1.44:  Dogleg Rot Max 
 DLSO.°/30m               0.00:  Dogleg Oriented 
 DLSX.°/30m               0.00:  Dogleg Str Max 
 DRET.      03.05.00 01-Feb-20:  Drill End Time 
 DRST.      15.50.00 28-Jan-20:  Drill Start Tim 
 DTIM.hr                 24.70:  Time Drilling 
 EDEP.m                4047.51:  End Depth 
 ENG1.           Eldar Hajiyev:  Engineer 1 
 ENG2.          Rasim Hashimov:  Engineer 2 
 ENG3.          Rustam Safarov:  Engineer 3 
 ETIM.      22.00.00 01-Feb-20:  End Time 
 FLOI.gpm               370.00:  Flow In 
 FLON.gpm               300.00:  Flow In Min 
 FLOS.cptm                0.00:  Fluid Loss 
 FLOX.gpm               400.00:  Flow In Max 
 FTRO.       Formation Presure:  FTWD Run Obj 
 HFLO.                      No:  High Flow 
 HPRE.                      No:  High Pressure 
 HTEM.                      No:  High Temp 
 HYDO.m                   2.50:  Hydro Offset 
 IFIN.deg                39.54:  Inc, Final 
 IMAX.deg                41.14:  Inc Max 
 IMIN.deg                39.81:  Inc Min 
 IMND.m                4005.21:  Inc Min Depth 
 IMXD.m                3948.42:  Inc Max Depth 
 JARR.                      No:  Jarring 
 LETM.      03.05.00 01-Feb-20:  Log End Time 
 LOST.hr                     0:  Lost Rig Time 
 LSTM.      15.50.00 28-Jan-20:  Log Start Time 
 MDCL.ppm             37500.00:  Mud Chlorides 
 MDES.     Inversion Oil/Synthetic:  Mud Desc 
 DFD .sg                  1.32:  Mud Density 
 MDMN.sg                  1.32:  Dens Mud Min 
 MDMX.sg                  1.32:  Dens Mud Max 
 MOIL.                      55:  Run Mud Oil % 
 MOWR.                   70:30:  Run Mud OWR 
 MSND.                       0:  Run Mud Sand % 
 MSOL.                      17:  Run Mud Solids% 
 DFV .spqt               80.00:  Mud Viscosity 
 MWOD.in                  4.75:  MWD Tool OD 
 MWSI.                      No:  Serv Intrp, MWD 
 OTIM.hr                121.28:  Time Operating 
 PCON.           Look Like New:  Pad Condition 
 PMAX.psia             6171.00:  Press Op, Max 
 PV  .cP                 30.00:  Mud PV 
 RUN .                     300:  Run Number 
 ROPA.m/hr                5.45:  ROP Avg 
 ROPN.m/hr                3.00:  ROP Min 
 ROPX.m/hr               15.00:  ROP Max 
 RPMA.rpm               130.00:  RPM Surface Avg 
 RPMN.rpm                80.00:  RPM Surface Min 
 RPMX.rpm               140.00:  RPM Surface Max 
 RRUN.                     300:  Rig Run Number 
 RTIM.hr                 13.50:  Time Reaming 
 SAZI.deg               133.93:  Azm, Start 
 SDEP.m                3878.01:  Start Depth 
 SIDD.                      No:  Serv Intrp, DD 
 SINC.deg                40.28:  Inc, Start 
 SPPA.psig             4983.00:  SPP Avg 
 SPPN.psig             4370.00:  SPP Min 
 SPPX.psig             5300.00:  SPP Max 
 STIM.      18.33.36 27-Jan-20:  Start Time 
 SVCS.                 DD, MWD:  Services 
 SVER.                    9.20:  Sperry Version 
 TDAT.m                 169.50:  Tot Depth Attmp 
 TDDF.                      No:  Trip for DD 
 TDLG.m                 169.50:  Tot Depth Loggd 
 TFF .                      No:  Trip for Fail 
 TQAA.f-kp               13.25:  Torque Abs Avg 
 TQAN.f-kp               12.00:  Torque Abs Min 
 TQAX.f-kp               14.00:  Torque Abs Max 
 TRRT.°/30m               0.70:  Turn Rotating 
 MRT .                     ADR:  Maximum Recorded Temperature 
 TTMX.degC               92.16:  Max Tool Temp 
 VS01.       AZ90598764G12V7D4:  Virtual Str1 SN 
 VS02.         AZ90571342R12C4:  Virtual Str2 SN 
 VS03.      AZ90580010N2L2X1C4:  Virtual Str3 SN 
 VS04.        AZ90522266O7X1C4:  Virtual Str4 SN 
 VS05.           AZ90598768F11:  Virtual Str5 SN 
 VS06.     AZ90580006XZ1W1X1C4:  Virtual Str6 SN 
 WBMN.klb                 8.00:  WOB Min 
 WITN.            Peter Wilson:  Customer Rep 
 WOBA.klb                 9.88:  WOB Avg 
 WOBX.klb                10.00:  WOB Max 
 YP  .lhf2               27.00:  Yield Point 
~Curve Information Block
#MNEM.UNIT                 API CODE     Curve Description
#---------               -----------    ---------------------------
 TIME.HHMMSS            00 000 000 000:  GT Time & Date
 GTDEPTH.m              00 000 000 000:  GT Depth
 GTPQH.psia             00 000 000 000:  GT HR Quartz Pressure
 GTTQ.degC              00 000 000 000:  GT Quartz Temperature
 GTTN.NONE              00 000 000 000:  GT Test Number
 GTET.sec               00 000 000 000:  GT Elapsed Test Time
 GTTVD.m                00 000 000 000:  GT True Vertical Depth
#Other Information
#
#WARRANTY: Halliburton will use its best efforts to furnish customers with 
#accurate information and interpretations that are part of, and incident to, the services 
#provided.  However, Halliburton cannot and does not warrant the accuracy 
#or correctness of such information and interpretations.  Under no circumstances should any 
#such information or interpretation be relied upon as the sole basis for any drilling, 
#completion, production, or financial decision or any procedure involving any risk to the 
#safety of any drilling venture, drilling rig or its crew or any other third party.  The 
#Customer has full responsibility for all drilling, completion and production operation.  
#Halliburton makes no representations or warranties, either expressed or 
#implied, including, but not limited to, the implied warranties of merchantability or fitness 
#for a particular purpose, with respect to the services rendered.  In no event will 
#Halliburton be liable for failure to obtain any particular results or for 
#any damages, including, but not limited to, indirect, special or consequential damages, 
#resulting from the use of any information or interpretation provided by Halliburton.
#
~A           TIME           GTDEPTH  GTPQH  GTTQ  GTTN   GTET   GTTVD  
# ...
   00:17:43.728.01-Feb-2020 3989.40 3223.23 86.85 10.00 226.02 3004.80
   00:17:43.928.01-Feb-2020 3989.40 3223.23 86.85 10.00 226.22 3004.80
   00:17:44.128.01-Feb-2020 3989.40 3223.15 86.85 10.00 226.42 3004.80
   00:17:44.328.01-Feb-2020 3989.40 3223.17 86.84 10.00 226.62 3004.80
   00:17:44.528.01-Feb-2020 3989.40 3223.31 86.84 10.00 226.82 3004.80
   00:17:44.728.01-Feb-2020 3989.40 3223.37 86.84 10.00 227.02 3004.80
   00:17:44.928.01-Feb-2020 3989.40 3223.37 86.84 10.00 227.22 3004.80
   00:17:45.128.01-Feb-2020 3989.40 3223.50 86.84 10.00 227.42 3004.80
   00:17:45.328.01-Feb-2020 3989.40 3223.41 86.84 10.00 227.62 3004.80
   00:17:45.528.01-Feb-2020 3989.40 3223.24 86.84 10.00 227.82 3004.80
   00:17:45.728.01-Feb-2020 3989.40 3223.37 86.84 10.00 228.02 3004.80
   00:17:45.928.01-Feb-2020 3989.40 3223.37 86.84 10.00 228.22 3004.80
   00:17:46.128.01-Feb-2020 3989.40 3223.51 86.84 10.00 228.42 3004.80
   00:17:46.328.01-Feb-2020 3989.40 3223.59 86.84 10.00 228.62 3004.80
   00:17:46.528.01-Feb-2020 3989.40 3223.11 86.84 10.00 228.82 3004.80
   00:17:46.728.01-Feb-2020 3989.40 3223.40 86.84 10.00 229.02 3004.80
   00:17:46.928.01-Feb-2020 3989.40 3223.40 86.84 10.00 229.22 3004.80
   00:17:47.128.01-Feb-2020 3989.40 3223.39 86.84 10.00 229.42 3004.80
   00:17:47.328.01-Feb-2020 3989.40 3223.52 86.84 10.00 229.62 3004.80
   00:17:47.528.01-Feb-2020 3989.40 3223.41 86.83 10.00 229.82 3004.80
   00:17:47.728.01-Feb-2020 3989.40 3223.59 86.83 10.00 230.02 3004.80
   00:17:47.928.01-Feb-2020 3989.40 3223.59 86.83 10.00 230.22 3004.80
   00:17:48.128.01-Feb-2020 3989.40 3223.28 86.83 10.00 230.42 3004.80
   00:17:48.328.01-Feb-2020 3989.40 3223.47 86.83 10.00 230.62 3004.80
   00:17:48.528.01-Feb-2020 3989.40 3223.55 86.83 10.00 230.82 3004.80
   00:17:48.728.01-Feb-2020 3989.40 3223.53 86.83 10.00 231.02 3004.80
   00:17:48.928.01-Feb-2020 3989.40 3223.53 86.83 10.00 231.22 3004.80
   00:17:49.128.01-Feb-2020 3989.40 3223.53 86.83 10.00 231.42 3004.80
   00:17:49.328.01-Feb-2020 3989.40 3223.43 86.83 10.00 231.62 3004.80
   00:17:49.528.01-Feb-2020 3989.40 3223.58 86.83 10.00 231.82 3004.80
   00:17:49.728.01-Feb-2020 3989.40 3223.50 86.83 10.00 232.02 3004.80
   00:17:49.928.01-Feb-2020 3989.40 3223.50 86.83 10.00 232.22 3004.80
   00:17:50.128.01-Feb-2020 3989.40 3223.55 86.83 10.00 232.42 3004.80
   00:17:50.328.01-Feb-2020 3989.40 3223.47 86.83 10.00 232.62 3004.80
   00:17:50.528.01-Feb-2020 3989.40 3223.49 86.83 10.00 232.82 3004.80
   00:17:50.728.01-Feb-2020 3989.40 3223.53 86.83 10.00 233.02 3004.80
   00:17:50.928.01-Feb-2020 3989.40 3223.53 86.83 10.00 233.22 3004.80
   00:17:51.128.01-Feb-2020 3989.40 3223.54 86.82 10.00 233.42 3004.80
   00:17:51.328.01-Feb-2020 3989.40 3223.57 86.82 10.00 233.62 3004.80
   00:17:51.528.01-Feb-2020 3989.40 3223.56 86.82 10.00 233.82 3004.80
   00:17:51.728.01-Feb-2020 3989.40 3223.45 86.82 10.00 234.02 3004.80
   00:17:51.928.01-Feb-2020 3989.40 3223.45 86.82 10.00 234.22 3004.80
   00:17:52.129.01-Feb-2020 3989.40 3223.54 86.82 10.00 234.42 3004.80
   00:17:52.329.01-Feb-2020 3989.40 3223.59 86.82 10.00 234.62 3004.80
   00:17:52.529.01-Feb-2020 3989.40 3223.55 86.82 10.00 234.82 3004.80
   00:17:52.729.01-Feb-2020 3989.40 3223.56 86.82 10.00 235.02 3004.80
   00:17:52.929.01-Feb-2020 3989.40 3223.56 86.82 10.00 235.22 3004.80
   00:17:53.129.01-Feb-2020 3989.40 3223.58 86.82 10.00 235.42 3004.80
   00:17:53.329.01-Feb-2020 3989.40 3223.58 86.82 10.00 235.62 3004.80
   00:17:53.529.01-Feb-2020 3989.40 3223.58 86.82 10.00 235.82 3004.80
   00:17:53.729.01-Feb-2020 3989.40 3223.53 86.82 10.00 236.02 3004.80
   00:17:53.929.01-Feb-2020 3989.40 3223.53 86.82 10.00 236.22 3004.80
   00:17:54.129.01-Feb-2020 3989.40 3223.60 86.81 10.00 236.42 3004.80
   00:17:54.329.01-Feb-2020 3989.40 3223.58 86.81 10.00 236.62 3004.80
   00:17:54.529.01-Feb-2020 3989.40 3223.58 86.81 10.00 236.82 3004.80
   00:17:54.729.01-Feb-2020 3989.40 3223.70 86.81 10.00 237.02 3004.80
   00:17:54.929.01-Feb-2020 3989.40 3223.70 86.81 10.00 237.22 3004.80
   00:17:55.129.01-Feb-2020 3989.40 3223.57 86.81 10.00 237.42 3004.80
   00:17:55.329.01-Feb-2020 3989.40 3223.63 86.81 10.00 237.62 3004.80
   00:17:55.529.01-Feb-2020 3989.40 3223.66 86.81 10.00 237.82 3004.80
   00:17:55.729.01-Feb-2020 3989.40 3223.77 86.81 10.00 238.02 3004.80
   00:17:55.929.01-Feb-2020 3989.40 3223.77 86.81 10.00 238.22 3004.80
   00:17:56.129.01-Feb-2020 3989.40 3223.61 86.81 10.00 238.42 3004.80
   00:17:56.329.01-Feb-2020 3989.40 3223.74 86.81 10.00 238.62 3004.80
   00:17:56.529.01-Feb-2020 3989.40 3223.75 86.81 10.00 238.82 3004.80
   00:17:56.729.01-Feb-2020 3989.40 3223.78 86.81 10.00 239.02 3004.80
   00:17:56.929.01-Feb-2020 3989.40 3223.78 86.81 10.00 239.22 3004.80
   00:17:57.129.01-Feb-2020 3989.40 3223.52 86.81 10.00 239.42 3004.80
   00:17:57.329.01-Feb-2020 3989.40 3223.62 86.81 10.00 239.62 3004.80
   00:17:57.529.01-Feb-2020 3989.40 3223.62 86.80 10.00 239.82 3004.80
   00:17:57.729.01-Feb-2020 3989.40 3223.65 86.80 10.00 240.02 3004.80
   00:17:57.929.01-Feb-2020 3989.40 3223.65 86.80 10.00 240.22 3004.80
   00:17:58.129.01-Feb-2020 3989.40 3223.82 86.80 10.00 240.42 3004.80
   00:17:58.329.01-Feb-2020 3989.40 3221.82 86.80 10.00 240.62 3004.80
   00:17:58.529.01-Feb-2020 3989.40 3073.69 86.80 10.00 240.82 3004.80
   00:17:58.729.01-Feb-2020 3989.40 2697.87 86.80 10.00 241.02 3004.80
   00:17:58.929.01-Feb-2020 3989.40 2697.87 86.80 10.00 241.22 3004.80
   00:17:59.129.01-Feb-2020 3989.40 2297.46 86.80 10.00 241.42 3004.80
   00:17:59.329.01-Feb-2020 3989.40 2189.04 86.80 10.00 241.62 3004.80
   00:17:59.529.01-Feb-2020 3989.40 2115.79 86.80 10.00 241.82 3004.80
   00:17:59.729.01-Feb-2020 3989.40 2062.47 86.80 10.00 242.02 3004.80
   00:17:59.929.01-Feb-2020 3989.40 2062.47 86.80 10.00 242.22 3004.80
   00:18:00.129.01-Feb-2020 3989.40 1993.01 86.80 10.00 242.42 3004.80
   00:18:00.329.01-Feb-2020 3989.40 1972.90 86.80 10.00 242.62 3004.80
   00:18:00.529.01-Feb-2020 3989.40 1956.18 86.80 10.00 242.82 3004.80
   00:18:00.729.01-Feb-2020 3989.40 1945.75 86.79 10.00 243.02 3004.80
   00:18:00.929.01-Feb-2020 3989.40 1945.75 86.79 10.00 243.22 3004.80
   00:18:01.129.01-Feb-2020 3989.40 1929.66 86.79 10.00 243.42 3004.80
   00:18:01.329.01-Feb-2020 3989.40 1927.42 86.79 10.00 243.62 3004.80
   00:18:01.529.01-Feb-2020 3989.40 1920.60 86.79 10.00 243.82 3004.80
   00:18:01.729.01-Feb-2020 3989.40 1917.02 86.79 10.00 244.02 3004.80
   00:18:01.929.01-Feb-2020 3989.40 1917.02 86.79 10.00 244.22 3004.80
   00:18:02.129.01-Feb-2020 3989.40 1912.10 86.79 10.00 244.42 3004.80
   00:18:02.329.01-Feb-2020 3989.40 1911.38 86.79 10.00 244.62 3004.80
   00:18:02.529.01-Feb-2020 3989.40 1908.96 86.79 10.00 244.82 3004.80
   00:18:02.729.01-Feb-2020 3989.40 1904.71 86.79 10.00 245.02 3004.80
   00:18:02.929.01-Feb-2020 3989.40 1904.71 86.79 10.00 245.22 3004.80
   00:18:03.129.01-Feb-2020 3989.40 1905.00 86.78 10.00 245.42 3004.80
   00:18:03.329.01-Feb-2020 3989.40 1902.39 86.78 10.00 245.62 3004.80
   00:18:03.530.01-Feb-2020 3989.40 1901.46 86.78 10.00 245.82 3004.80
   00:18:03.730.01-Feb-2020 3989.40 1903.51 86.78 10.00 246.02 3004.80
   00:18:03.930.01-Feb-2020 3989.40 1903.51 86.78 10.00 246.22 3004.80
   00:18:04.130.01-Feb-2020 3989.40 1902.47 86.78 10.00 246.42 3004.80
   00:18:04.330.01-Feb-2020 3989.40 1901.07 86.78 10.00 246.62 3004.80
   00:18:04.530.01-Feb-2020 3989.40 1901.29 86.78 10.00 246.82 3004.80
   00:18:04.730.01-Feb-2020 3989.40 1899.16 86.78 10.00 247.02 3004.80
   00:18:04.930.01-Feb-2020 3989.40 1899.16 86.78 10.00 247.22 3004.80
   00:18:05.130.01-Feb-2020 3989.40 1896.22 86.77 10.00 247.42 3004.80
   00:18:05.330.01-Feb-2020 3989.40 1896.71 86.77 10.00 247.62 3004.80
   00:18:05.530.01-Feb-2020 3989.40 1897.69 86.77 10.00 247.82 3004.80
   00:18:05.730.01-Feb-2020 3989.40 1899.52 86.77 10.00 248.02 3004.80
   00:18:05.930.01-Feb-2020 3989.40 1899.52 86.77 10.00 248.22 3004.80
   00:18:06.130.01-Feb-2020 3989.40 1895.13 86.77 10.00 248.42 3004.80
