~Version Information
 VERS.                  2.0:   CWLS log ASCII Standard -VERSION 2.0
 WRAP.                   NO:   One line per depth step
~Well Information Block
#MNEM.UNIT     VALUE/NAME     DESCRIPTION
#---------     -----------    ---------------------------
 STRT.S             01:28:25 01-Feb-20: START TIME 01:28:25 01-Feb-20
 STOP.S             01:36:19 01-Feb-20: STOP TIME  01:36:19 01-Feb-20
 STEP.S                   0.00: STEP TIME
 NULL.                 -999.25: NULL VALUE
 DFWT.                        :  DIST FWL TEXT
 DFST.                        :  DIST FSL TEXT
 DMF .             Drill Floor:  DRILL MEAS FROM
 STIM.      09.30.00 26-Dec-19:  START TIME
 DATE.      08.00.00 20-Jan-20:  END TIME
 SPUD.               23-Nov-19:  SPUD DATE
 NREF.                    Grid:  NORTH REFERENCE
 HPTY.       Minimum Curvature:  HOLE POS TYPE
 DMOD.             Drill Model:  DRILL MOD DESC
 SVYD.                  Survey:  SURVEY DESC
 ILTD.               Lithology:  INTERP LTH DESC
 FTOP.          Formation Tops:  FORM TOPS DESC
 SON .        AZ-XX-0906192647:  JOB NUMBER
 WTYP.                Deviated:  WELL TYPE
 COMP.     BP Exploration (Caspian Sea) Ltd:  COMPANY
 BASE.              Azerbaijan:  LOGGING EQUIPMENT BASE LOCATION
 REGN.                 Eurasia:  REGION
 FLD .                     ACG:  FIELD NAME
 SRVC.              KCA Deutag:  CONTRACTOR
 MWDS.                    Baku:  MWD SHOP
 WELL.     A10 (Slot 20) - SCP:  WELL NAME
 JOBN.        AZ-XX-0906192647:  JOB TICKET NUMB
 RIG .                 Chirag1:  RIG NAME
 DCON.     Halliburton Sperry Drilling:  DIRECTNL CONTR
 UNIT.                     N/A:  LOGGING EQUIPMENT ID
 PDAT.          Mean Sea Level:  PERMANENT DATUM
 MDS .        Operator Entered:  MAG DATA SOURCE
 CTRY.              Azerbaijan:  COUNTRY NAME
 UWI .            /AZE00000090:  UNIQUE WELL IDENTIFIER
 API .            /AZE00000090:  API NUMBER
 CNTY.                        :  COUNTY
 PROV.                        :  PROVINCE
 STAT.                        :  STATE
 LOC .                        :  LOCATION
 LMF .             Drill Floor:  LOG MEASURED FROM
 TVDS.m                  36.60:  TVDSS CORRECTN
 LATI.deg                40.08:  LATITUDE
 LONG.deg                51.24:  LONGITUDE
 WHNS.m                  -7.94:  WELL HEAD N/S
 WHEW.m                   1.56:  WELL HEAD E/W
 UTMX.m              520429.26:  UTM X
 UTMY.m             4438973.87:  UTM Y
 DFWL.m                   0.00:  DISTANCE FWL
 DFSL.m                   0.00:  DISTANCE FSL
 SDEP.m                1455.00:  START DEPTH
 TDD .m                4047.51:  TOTAL DEPTH (DRILLER)
 VSDR.deg               112.75:  VERT SEC DIRECT
 GVFD.g                   1.00:  GRAVITY FIELD
 MFLD.nT              50261.00:  MAGNETIC FIELD
 MDIP.deg                59.52:  MAGNETIC DIP
 MDEC.deg                 6.42:  MAGNETIC DECL
 GRDC.deg                 0.17:  GRID CORRECTION
 AZTC.deg                 6.25:  AZM TOTAL CORR
 EPD .m                   0.00:  ELEVATION
 EGL .m                   0.00:  GROUND ELEVATION
 WDMS.m                 121.00:  WD ELEV
 APD .m                  36.60:  DEPTH ABOVE PD
 AGAP.m                  36.60:  AIR GAP
 VSEW.m                   1.56:  VERT SEC E/W
 VSNS.m                  -7.94:  VERT SEC N/S
 DEP .m                1140.01:  DEPTH
 EKB .m                  36.60:  KB ELEVATION
 EDF .m                  36.60:  DF ELEVATION
 TDL .m                 169.50:  TOTAL DEPTH (LOGGER)
 CSGD.m                3875.01:  CASING BOTTOM (DRILLER)
 CSGL.m                3875.01:  CASING BOTTOM (LOGGER)
 CSGS.in                  7.63:  CASING SIZE
 CSGW.lbpf               23.50:  CASING WEIGHT
 VSC .                       0:  VS TO CLOSURE
 MAGU.                 1849206:  MAGUTM CHECKSUM
~Parameter Information Block
#MNEM.UNIT       Value        Description
#---------     -----------    ---------------------------
 AV  .mps                 1.90:  Ann Velocity 
 AVMX.mps                 2.54:  Max Ann Veloc 
 AZIF.deg               137.03:  Azm, Final 
 BHAT.        Rotary Steerable:  BHA Type 
 BREV.rev             23610.00:  Rev Bit Total 
 BROT.°/30m               0.80:  Build Rotating 
 BS  .in                  6.50:  Bit Size 
 BTPL.psig              110.00:  Bit Press Loss 
 CABU.                     Yes:  Customer Abuse 
 COMM.                     ì…†:  Run Comments 1 
 TCS .hr                 70.51:  Time Ciculation Ended 
 CV  .mps                 1.41:  Crit Velocity 
 CVMX.mps                 1.42:  Max Crit Veloc 
 DD1 .         Intigam Rahimov:  Direct Drillr 1 
 DD2 .          Rashad Gojayev:  Direct Drillr 2 
 DDSV.               Geo-Pilot:  DD Service 
 DEFF.%                 100.00:  % Det Eff 
 DLRX.°/30m               1.44:  Dogleg Rot Max 
 DLSO.°/30m               0.00:  Dogleg Oriented 
 DLSX.°/30m               0.00:  Dogleg Str Max 
 DRET.      03.05.00 01-Feb-20:  Drill End Time 
 DRST.      15.50.00 28-Jan-20:  Drill Start Tim 
 DTIM.hr                 24.70:  Time Drilling 
 EDEP.m                4047.51:  End Depth 
 ENG1.           Eldar Hajiyev:  Engineer 1 
 ENG2.          Rasim Hashimov:  Engineer 2 
 ENG3.          Rustam Safarov:  Engineer 3 
 ETIM.      22.00.00 01-Feb-20:  End Time 
 FLOI.gpm               370.00:  Flow In 
 FLON.gpm               300.00:  Flow In Min 
 FLOS.cptm                0.00:  Fluid Loss 
 FLOX.gpm               400.00:  Flow In Max 
 FTRO.       Formation Presure:  FTWD Run Obj 
 HFLO.                      No:  High Flow 
 HPRE.                      No:  High Pressure 
 HTEM.                      No:  High Temp 
 HYDO.m                   2.50:  Hydro Offset 
 IFIN.deg                39.54:  Inc, Final 
 IMAX.deg                41.14:  Inc Max 
 IMIN.deg                39.81:  Inc Min 
 IMND.m                4005.21:  Inc Min Depth 
 IMXD.m                3948.42:  Inc Max Depth 
 JARR.                      No:  Jarring 
 LETM.      03.05.00 01-Feb-20:  Log End Time 
 LOST.hr                     0:  Lost Rig Time 
 LSTM.      15.50.00 28-Jan-20:  Log Start Time 
 MDCL.ppm             37500.00:  Mud Chlorides 
 MDES.     Inversion Oil/Synthetic:  Mud Desc 
 DFD .sg                  1.32:  Mud Density 
 MDMN.sg                  1.32:  Dens Mud Min 
 MDMX.sg                  1.32:  Dens Mud Max 
 MOIL.                      55:  Run Mud Oil % 
 MOWR.                   70:30:  Run Mud OWR 
 MSND.                       0:  Run Mud Sand % 
 MSOL.                      17:  Run Mud Solids% 
 DFV .spqt               80.00:  Mud Viscosity 
 MWOD.in                  4.75:  MWD Tool OD 
 MWSI.                      No:  Serv Intrp, MWD 
 OTIM.hr                121.28:  Time Operating 
 PCON.           Look Like New:  Pad Condition 
 PMAX.psia             6171.00:  Press Op, Max 
 PV  .cP                 30.00:  Mud PV 
 RUN .                     300:  Run Number 
 ROPA.m/hr                5.45:  ROP Avg 
 ROPN.m/hr                3.00:  ROP Min 
 ROPX.m/hr               15.00:  ROP Max 
 RPMA.rpm               130.00:  RPM Surface Avg 
 RPMN.rpm                80.00:  RPM Surface Min 
 RPMX.rpm               140.00:  RPM Surface Max 
 RRUN.                     300:  Rig Run Number 
 RTIM.hr                 13.50:  Time Reaming 
 SAZI.deg               133.93:  Azm, Start 
 SDEP.m                3878.01:  Start Depth 
 SIDD.                      No:  Serv Intrp, DD 
 SINC.deg                40.28:  Inc, Start 
 SPPA.psig             4983.00:  SPP Avg 
 SPPN.psig             4370.00:  SPP Min 
 SPPX.psig             5300.00:  SPP Max 
 STIM.      18.33.36 27-Jan-20:  Start Time 
 SVCS.                 DD, MWD:  Services 
 SVER.                    9.20:  Sperry Version 
 TDAT.m                 169.50:  Tot Depth Attmp 
 TDDF.                      No:  Trip for DD 
 TDLG.m                 169.50:  Tot Depth Loggd 
 TFF .                      No:  Trip for Fail 
 TQAA.f-kp               13.25:  Torque Abs Avg 
 TQAN.f-kp               12.00:  Torque Abs Min 
 TQAX.f-kp               14.00:  Torque Abs Max 
 TRRT.°/30m               0.70:  Turn Rotating 
 MRT .                     ADR:  Maximum Recorded Temperature 
 TTMX.degC               92.16:  Max Tool Temp 
 VS01.       AZ90598764G12V7D4:  Virtual Str1 SN 
 VS02.         AZ90571342R12C4:  Virtual Str2 SN 
 VS03.      AZ90580010N2L2X1C4:  Virtual Str3 SN 
 VS04.        AZ90522266O7X1C4:  Virtual Str4 SN 
 VS05.           AZ90598768F11:  Virtual Str5 SN 
 VS06.     AZ90580006XZ1W1X1C4:  Virtual Str6 SN 
 WBMN.klb                 8.00:  WOB Min 
 WITN.            Peter Wilson:  Customer Rep 
 WOBA.klb                 9.88:  WOB Avg 
 WOBX.klb                10.00:  WOB Max 
 YP  .lhf2               27.00:  Yield Point 
~Curve Information Block
#MNEM.UNIT                 API CODE     Curve Description
#---------               -----------    ---------------------------
 TIME.HHMMSS            00 000 000 000:  GT Time & Date
 GTDEPTH.m              00 000 000 000:  GT Depth
 GTPQH.psia             00 000 000 000:  GT HR Quartz Pressure
 GTTQ.degC              00 000 000 000:  GT Quartz Temperature
 GTTN.NONE              00 000 000 000:  GT Test Number
 GTET.sec               00 000 000 000:  GT Elapsed Test Time
 GTTVD.m                00 000 000 000:  GT True Vertical Depth
#Other Information
#
#WARRANTY: Halliburton will use its best efforts to furnish customers with 
#accurate information and interpretations that are part of, and incident to, the services 
#provided.  However, Halliburton cannot and does not warrant the accuracy 
#or correctness of such information and interpretations.  Under no circumstances should any 
#such information or interpretation be relied upon as the sole basis for any drilling, 
#completion, production, or financial decision or any procedure involving any risk to the 
#safety of any drilling venture, drilling rig or its crew or any other third party.  The 
#Customer has full responsibility for all drilling, completion and production operation.  
#Halliburton makes no representations or warranties, either expressed or 
#implied, including, but not limited to, the implied warranties of merchantability or fitness 
#for a particular purpose, with respect to the services rendered.  In no event will 
#Halliburton be liable for failure to obtain any particular results or for 
#any damages, including, but not limited to, indirect, special or consequential damages, 
#resulting from the use of any information or interpretation provided by Halliburton.
#
~A           TIME           GTDEPTH  GTPQH  GTTQ  GTTN   GTET   GTTVD  
# ...
   01:35:35.931.01-Feb-2020 3990.12 3217.73 84.21 11.00 430.91 3005.35
   01:35:36.131.01-Feb-2020 3990.12 3217.82 84.21 11.00 431.11 3005.35
   01:35:36.332.01-Feb-2020 3990.12 3217.72 84.21 11.00 431.31 3005.35
   01:35:36.533.01-Feb-2020 3990.12 3217.69 84.21 11.00 431.51 3005.35
   01:35:36.734.01-Feb-2020 3990.12 3217.69 84.21 11.00 431.71 3005.35
   01:35:36.934.01-Feb-2020 3990.12 3217.69 84.21 11.00 431.91 3005.35
   01:35:37.135.01-Feb-2020 3990.12 3217.81 84.21 11.00 432.11 3005.35
   01:35:37.336.01-Feb-2020 3990.12 3217.85 84.21 11.00 432.31 3005.35
   01:35:37.536.01-Feb-2020 3990.12 3217.60 84.21 11.00 432.51 3005.35
   01:35:37.737.01-Feb-2020 3990.12 3217.60 84.21 11.00 432.71 3005.35
   01:35:37.938.01-Feb-2020 3990.12 3217.88 84.20 11.00 432.91 3005.35
   01:35:38.138.01-Feb-2020 3990.12 3217.43 84.20 11.00 433.11 3005.35
   01:35:38.339.01-Feb-2020 3990.12 3217.65 84.20 11.00 433.32 3005.35
   01:35:38.540.01-Feb-2020 3990.12 3217.73 84.20 11.00 433.52 3005.35
   01:35:38.741.01-Feb-2020 3990.12 3217.73 84.20 11.00 433.72 3005.35
   01:35:38.941.01-Feb-2020 3990.12 3217.73 84.20 11.00 433.92 3005.35
   01:35:39.142.01-Feb-2020 3990.12 3217.36 84.20 11.00 434.12 3005.35
   01:35:39.343.01-Feb-2020 3990.12 3217.54 84.20 11.00 434.32 3005.35
   01:35:39.543.01-Feb-2020 3990.12 3217.79 84.20 11.00 434.52 3005.35
   01:35:39.744.01-Feb-2020 3990.12 3217.79 84.20 11.00 434.72 3005.35
   01:35:39.945.01-Feb-2020 3990.12 3217.82 84.20 11.00 434.92 3005.35
   01:35:40.145.01-Feb-2020 3990.12 3217.91 84.20 11.00 435.12 3005.35
   01:35:40.346.01-Feb-2020 3990.12 3217.41 84.20 11.00 435.32 3005.35
   01:35:40.547.01-Feb-2020 3990.12 3217.69 84.20 11.00 435.52 3005.35
   01:35:40.748.01-Feb-2020 3990.12 3217.69 84.20 11.00 435.72 3005.35
   01:35:40.948.01-Feb-2020 3990.12 3217.69 84.20 11.00 435.92 3005.35
   01:35:41.149.01-Feb-2020 3990.12 3218.03 84.20 11.00 436.12 3005.35
   01:35:41.350.01-Feb-2020 3990.12 3217.38 84.20 11.00 436.33 3005.35
   01:35:41.550.01-Feb-2020 3990.12 3217.59 84.20 11.00 436.53 3005.35
   01:35:41.751.01-Feb-2020 3990.12 3217.59 84.20 11.00 436.73 3005.35
   01:35:41.952.01-Feb-2020 3990.12 3217.75 84.20 11.00 436.93 3005.35
   01:35:42.152.01-Feb-2020 3990.12 3217.91 84.20 11.00 437.13 3005.35
   01:35:42.353.01-Feb-2020 3990.12 3217.93 84.20 11.00 437.33 3005.35
   01:35:42.554.01-Feb-2020 3990.12 3217.77 84.20 11.00 437.53 3005.35
   01:35:42.755.01-Feb-2020 3990.12 3217.77 84.20 11.00 437.73 3005.35
   01:35:42.955.01-Feb-2020 3990.12 3217.68 84.19 11.00 437.93 3005.35
   01:35:43.156.01-Feb-2020 3990.12 3217.69 84.19 11.00 438.13 3005.35
   01:35:43.357.01-Feb-2020 3990.12 3217.97 84.19 11.00 438.33 3005.35
   01:35:43.557.01-Feb-2020 3990.12 3217.94 84.19 11.00 438.53 3005.35
   01:35:43.758.01-Feb-2020 3990.12 3217.94 84.19 11.00 438.73 3005.35
   01:35:43.959.01-Feb-2020 3990.12 3217.95 84.19 11.00 438.93 3005.35
   01:35:44.160.01-Feb-2020 3990.12 3217.83 84.19 11.00 439.14 3005.35
   01:35:44.360.01-Feb-2020 3990.12 3217.91 84.19 11.00 439.34 3005.35
   01:35:44.561.01-Feb-2020 3990.12 3217.95 84.19 11.00 439.54 3005.35
   01:35:44.762.01-Feb-2020 3990.12 3217.95 84.19 11.00 439.74 3005.35
   01:35:44.962.01-Feb-2020 3990.12 3217.86 84.19 11.00 439.94 3005.35
   01:35:45.163.01-Feb-2020 3990.12 3217.83 84.19 11.00 440.14 3005.35
   01:35:45.364.01-Feb-2020 3990.12 3217.72 84.19 11.00 440.34 3005.35
   01:35:45.564.01-Feb-2020 3990.12 3217.81 84.19 11.00 440.54 3005.35
   01:35:45.765.01-Feb-2020 3990.12 3217.81 84.19 11.00 440.74 3005.35
   01:35:45.966.01-Feb-2020 3990.12 3217.81 84.19 11.00 440.94 3005.35
   01:35:46.167.01-Feb-2020 3990.12 3217.88 84.19 11.00 441.14 3005.35
   01:35:46.367.01-Feb-2020 3990.12 3217.93 84.19 11.00 441.34 3005.35
   01:35:46.568.01-Feb-2020 3990.12 3221.19 84.19 11.00 441.54 3005.35
   01:35:46.769.01-Feb-2020 3990.12 3221.19 84.19 11.00 441.74 3005.35
   01:35:46.969.01-Feb-2020 3990.12 3592.16 84.19 11.00 441.95 3005.35
   01:35:47.170.01-Feb-2020 3990.12 6012.01 84.19 11.00 442.15 3005.35
   01:35:47.371.01-Feb-2020 3990.12 6013.96 84.19 11.00 442.35 3005.35
   01:35:47.571.01-Feb-2020 3990.12 6012.93 84.19 11.00 442.55 3005.35
   01:35:47.772.01-Feb-2020 3990.12 6012.93 84.19 11.00 442.75 3005.35
   01:35:47.973.01-Feb-2020 3990.12 6014.80 84.19 11.00 442.95 3005.35
   01:35:48.174.01-Feb-2020 3990.12 6014.95 84.19 11.00 443.15 3005.35
   01:35:48.374.01-Feb-2020 3990.12 6016.97 84.18 11.00 443.35 3005.35
   01:35:48.575.01-Feb-2020 3990.12 6016.67 84.18 11.00 443.55 3005.35
   01:35:48.776.01-Feb-2020 3990.12 6016.67 84.18 11.00 443.75 3005.35
   01:35:48.976.01-Feb-2020 3990.12 6018.92 84.18 11.00 443.95 3005.35
   01:35:49.177.01-Feb-2020 3990.12 6017.71 84.18 11.00 444.15 3005.35
   01:35:49.378.01-Feb-2020 3990.12 6019.11 84.18 11.00 444.35 3005.35
   01:35:49.578.01-Feb-2020 3990.12 6020.55 84.19 11.00 444.55 3005.35
   01:35:49.779.01-Feb-2020 3990.12 6020.55 84.19 11.00 444.76 3005.35
   01:35:49.980.01-Feb-2020 3990.12 6020.65 84.19 11.00 444.96 3005.35
   01:35:50.181.01-Feb-2020 3990.12 6018.87 84.19 11.00 445.16 3005.35
   01:35:50.381.01-Feb-2020 3990.12 6020.18 84.19 11.00 445.36 3005.35
   01:35:50.582.01-Feb-2020 3990.12 6020.86 84.19 11.00 445.56 3005.35
   01:35:50.783.01-Feb-2020 3990.12 6020.86 84.19 11.00 445.76 3005.35
   01:35:50.983.01-Feb-2020 3990.12 6019.45 84.19 11.00 445.96 3005.35
   01:35:51.184.01-Feb-2020 3990.12 6018.66 84.19 11.00 446.16 3005.35
   01:35:51.385.01-Feb-2020 3990.12 6020.75 84.19 11.00 446.36 3005.35
   01:35:51.585.01-Feb-2020 3990.12 6021.76 84.19 11.00 446.56 3005.35
   01:35:51.786.01-Feb-2020 3990.12 6021.76 84.19 11.00 446.76 3005.35
   01:35:51.987.01-Feb-2020 3990.12 6016.38 84.19 11.00 446.96 3005.35
   01:35:52.188.01-Feb-2020 3990.12 6021.06 84.19 11.00 447.16 3005.35
   01:35:52.388.01-Feb-2020 3990.12 6019.33 84.19 11.00 447.36 3005.35
   01:35:52.589.01-Feb-2020 3990.12 6020.32 84.19 11.00 447.56 3005.35
   01:35:52.790.01-Feb-2020 3990.12 6020.32 84.19 11.00 447.77 3005.35
   01:35:52.990.01-Feb-2020 3990.12 6020.17 84.19 11.00 447.97 3005.35
   01:35:53.191.01-Feb-2020 3990.12 6018.13 84.19 11.00 448.17 3005.35
   01:35:53.392.01-Feb-2020 3990.12 6018.24 84.19 11.00 448.37 3005.35
   01:35:53.592.01-Feb-2020 3990.12 6020.27 84.19 11.00 448.57 3005.35
   01:35:53.793.01-Feb-2020 3990.12 6020.27 84.19 11.00 448.77 3005.35
   01:35:53.994.01-Feb-2020 3990.12 6022.24 84.19 11.00 448.97 3005.35
   01:35:54.195.01-Feb-2020 3990.12 6021.59 84.19 11.00 449.17 3005.35
   01:35:54.395.01-Feb-2020 3990.12 6021.91 84.19 11.00 449.37 3005.35
   01:35:54.596.01-Feb-2020 3990.12 6015.29 84.19 11.00 449.57 3005.35
   01:35:54.797.01-Feb-2020 3990.12 6015.29 84.19 11.00 449.77 3005.35
   01:35:54.997.01-Feb-2020 3990.12 6020.44 84.19 11.00 449.97 3005.35
   01:35:55.198.01-Feb-2020 3990.12 6022.93 84.19 11.00 450.17 3005.35
   01:35:55.399.01-Feb-2020 3990.12 6022.82 84.19 11.00 450.37 3005.35
   01:35:55.600.01-Feb-2020 3990.12 6022.56 84.19 11.00 450.58 3005.35
   01:35:55.800.01-Feb-2020 3990.12 6022.56 84.19 11.00 450.78 3005.35
   01:35:56.001.01-Feb-2020 3990.12 6022.21 84.19 11.00 450.98 3005.35
   01:35:56.202.01-Feb-2020 3990.12 6022.47 84.19 11.00 451.18 3005.35
   01:35:56.402.01-Feb-2020 3990.12 6022.20 84.19 11.00 451.38 3005.35
   01:35:56.603.01-Feb-2020 3990.12 6021.64 84.19 11.00 451.58 3005.35
   01:35:56.804.01-Feb-2020 3990.12 6021.64 84.19 11.00 451.78 3005.35
   01:35:57.004.01-Feb-2020 3990.12 6021.47 84.19 11.00 451.98 3005.35
   01:35:57.205.01-Feb-2020 3990.12 6020.55 84.19 11.00 452.18 3005.35
   01:35:57.406.01-Feb-2020 3990.12 6020.20 84.19 11.00 452.38 3005.35
   01:35:57.607.01-Feb-2020 3990.12 6021.16 84.19 11.00 452.58 3005.35
   01:35:57.807.01-Feb-2020 3990.12 6021.16 84.19 11.00 452.78 3005.35
   01:35:58.008.01-Feb-2020 3990.12 6021.69 84.19 11.00 452.98 3005.35
   01:35:58.209.01-Feb-2020 3990.12 6016.33 84.19 11.00 453.18 3005.35
   01:35:58.409.01-Feb-2020 3990.12 6019.83 84.19 11.00 453.39 3005.35
