~Version Information
 VERS.                  2.0:   CWLS log ASCII Standard -VERSION 2.0
 WRAP.                   NO:   One line per depth step
~Well Information Block
#MNEM.UNIT     VALUE/NAME     DESCRIPTION
#---------     -----------    ---------------------------
 STRT.S             17:04:09 31-Jan-20: START TIME 17:04:09 31-Jan-20
 STOP.S             17:10:42 31-Jan-20: STOP TIME  17:10:42 31-Jan-20
 STEP.S                   0.00: STEP TIME
 NULL.                 -999.25: NULL VALUE
 DFWT.                        :  DIST FWL TEXT
 DFST.                        :  DIST FSL TEXT
 DMF .             Drill Floor:  DRILL MEAS FROM
 STIM.      09.30.00 26-Dec-19:  START TIME
 DATE.      08.00.00 20-Jan-20:  END TIME
 SPUD.               23-Nov-19:  SPUD DATE
 NREF.                    Grid:  NORTH REFERENCE
 HPTY.       Minimum Curvature:  HOLE POS TYPE
 DMOD.             Drill Model:  DRILL MOD DESC
 SVYD.                  Survey:  SURVEY DESC
 ILTD.               Lithology:  INTERP LTH DESC
 FTOP.          Formation Tops:  FORM TOPS DESC
 SON .        AZ-XX-0906192647:  JOB NUMBER
 WTYP.                Deviated:  WELL TYPE
 COMP.     BP Exploration (Caspian Sea) Ltd:  COMPANY
 BASE.              Azerbaijan:  LOGGING EQUIPMENT BASE LOCATION
 REGN.                 Eurasia:  REGION
 FLD .                     ACG:  FIELD NAME
 SRVC.              KCA Deutag:  CONTRACTOR
 MWDS.                    Baku:  MWD SHOP
 WELL.     A10 (Slot 20) - SCP:  WELL NAME
 JOBN.        AZ-XX-0906192647:  JOB TICKET NUMB
 RIG .                 Chirag1:  RIG NAME
 DCON.     Halliburton Sperry Drilling:  DIRECTNL CONTR
 UNIT.                     N/A:  LOGGING EQUIPMENT ID
 PDAT.          Mean Sea Level:  PERMANENT DATUM
 MDS .        Operator Entered:  MAG DATA SOURCE
 CTRY.              Azerbaijan:  COUNTRY NAME
 UWI .            /AZE00000090:  UNIQUE WELL IDENTIFIER
 API .            /AZE00000090:  API NUMBER
 CNTY.                        :  COUNTY
 PROV.                        :  PROVINCE
 STAT.                        :  STATE
 LOC .                        :  LOCATION
 LMF .             Drill Floor:  LOG MEASURED FROM
 TVDS.m                  36.60:  TVDSS CORRECTN
 LATI.deg                40.08:  LATITUDE
 LONG.deg                51.24:  LONGITUDE
 WHNS.m                  -7.94:  WELL HEAD N/S
 WHEW.m                   1.56:  WELL HEAD E/W
 UTMX.m              520429.26:  UTM X
 UTMY.m             4438973.87:  UTM Y
 DFWL.m                   0.00:  DISTANCE FWL
 DFSL.m                   0.00:  DISTANCE FSL
 SDEP.m                1455.00:  START DEPTH
 TDD .m                4047.51:  TOTAL DEPTH (DRILLER)
 VSDR.deg               112.75:  VERT SEC DIRECT
 GVFD.g                   1.00:  GRAVITY FIELD
 MFLD.nT              50261.00:  MAGNETIC FIELD
 MDIP.deg                59.52:  MAGNETIC DIP
 MDEC.deg                 6.42:  MAGNETIC DECL
 GRDC.deg                 0.17:  GRID CORRECTION
 AZTC.deg                 6.25:  AZM TOTAL CORR
 EPD .m                   0.00:  ELEVATION
 EGL .m                   0.00:  GROUND ELEVATION
 WDMS.m                 121.00:  WD ELEV
 APD .m                  36.60:  DEPTH ABOVE PD
 AGAP.m                  36.60:  AIR GAP
 VSEW.m                   1.56:  VERT SEC E/W
 VSNS.m                  -7.94:  VERT SEC N/S
 DEP .m                1140.01:  DEPTH
 EKB .m                  36.60:  KB ELEVATION
 EDF .m                  36.60:  DF ELEVATION
 TDL .m                 169.50:  TOTAL DEPTH (LOGGER)
 CSGD.m                3875.01:  CASING BOTTOM (DRILLER)
 CSGL.m                3875.01:  CASING BOTTOM (LOGGER)
 CSGS.in                  7.63:  CASING SIZE
 CSGW.lbpf               23.50:  CASING WEIGHT
 VSC .                       0:  VS TO CLOSURE
 MAGU.                 1849206:  MAGUTM CHECKSUM
~Parameter Information Block
#MNEM.UNIT       Value        Description
#---------     -----------    ---------------------------
 AV  .mps                 1.90:  Ann Velocity 
 AVMX.mps                 2.54:  Max Ann Veloc 
 AZIF.deg               137.03:  Azm, Final 
 BHAT.        Rotary Steerable:  BHA Type 
 BREV.rev             23610.00:  Rev Bit Total 
 BROT.°/30m               0.80:  Build Rotating 
 BS  .in                  6.50:  Bit Size 
 BTPL.psig              110.00:  Bit Press Loss 
 CABU.                     Yes:  Customer Abuse 
 COMM.                     D7Y:  Run Comments 1 
 TCS .hr                 70.51:  Time Ciculation Ended 
 CV  .mps                 1.41:  Crit Velocity 
 CVMX.mps                 1.42:  Max Crit Veloc 
 DD1 .         Intigam Rahimov:  Direct Drillr 1 
 DD2 .          Rashad Gojayev:  Direct Drillr 2 
 DDSV.               Geo-Pilot:  DD Service 
 DEFF.%                 100.00:  % Det Eff 
 DLRX.°/30m               1.44:  Dogleg Rot Max 
 DLSO.°/30m               0.00:  Dogleg Oriented 
 DLSX.°/30m               0.00:  Dogleg Str Max 
 DRET.      03.05.00 01-Feb-20:  Drill End Time 
 DRST.      15.50.00 28-Jan-20:  Drill Start Tim 
 DTIM.hr                 24.70:  Time Drilling 
 EDEP.m                4047.51:  End Depth 
 ENG1.           Eldar Hajiyev:  Engineer 1 
 ENG2.          Rasim Hashimov:  Engineer 2 
 ENG3.          Rustam Safarov:  Engineer 3 
 ETIM.      22.00.00 01-Feb-20:  End Time 
 FLOI.gpm               370.00:  Flow In 
 FLON.gpm               300.00:  Flow In Min 
 FLOS.cptm                0.00:  Fluid Loss 
 FLOX.gpm               400.00:  Flow In Max 
 FTRO.       Formation Presure:  FTWD Run Obj 
 HFLO.                      No:  High Flow 
 HPRE.                      No:  High Pressure 
 HTEM.                      No:  High Temp 
 HYDO.m                   2.50:  Hydro Offset 
 IFIN.deg                39.54:  Inc, Final 
 IMAX.deg                41.14:  Inc Max 
 IMIN.deg                39.81:  Inc Min 
 IMND.m                4005.21:  Inc Min Depth 
 IMXD.m                3948.42:  Inc Max Depth 
 JARR.                      No:  Jarring 
 LETM.      03.05.00 01-Feb-20:  Log End Time 
 LOST.hr                     0:  Lost Rig Time 
 LSTM.      15.50.00 28-Jan-20:  Log Start Time 
 MDCL.ppm             37500.00:  Mud Chlorides 
 MDES.     Inversion Oil/Synthetic:  Mud Desc 
 DFD .sg                  1.32:  Mud Density 
 MDMN.sg                  1.32:  Dens Mud Min 
 MDMX.sg                  1.32:  Dens Mud Max 
 MOIL.                      55:  Run Mud Oil % 
 MOWR.                   70:30:  Run Mud OWR 
 MSND.                       0:  Run Mud Sand % 
 MSOL.                      17:  Run Mud Solids% 
 DFV .spqt               80.00:  Mud Viscosity 
 MWOD.in                  4.75:  MWD Tool OD 
 MWSI.                      No:  Serv Intrp, MWD 
 OTIM.hr                121.28:  Time Operating 
 PCON.           Look Like New:  Pad Condition 
 PMAX.psia             6171.00:  Press Op, Max 
 PV  .cP                 30.00:  Mud PV 
 RUN .                     300:  Run Number 
 ROPA.m/hr                5.45:  ROP Avg 
 ROPN.m/hr                3.00:  ROP Min 
 ROPX.m/hr               15.00:  ROP Max 
 RPMA.rpm               130.00:  RPM Surface Avg 
 RPMN.rpm                80.00:  RPM Surface Min 
 RPMX.rpm               140.00:  RPM Surface Max 
 RRUN.                     300:  Rig Run Number 
 RTIM.hr                 13.50:  Time Reaming 
 SAZI.deg               133.93:  Azm, Start 
 SDEP.m                3878.01:  Start Depth 
 SIDD.                      No:  Serv Intrp, DD 
 SINC.deg                40.28:  Inc, Start 
 SPPA.psig             4983.00:  SPP Avg 
 SPPN.psig             4370.00:  SPP Min 
 SPPX.psig             5300.00:  SPP Max 
 STIM.      18.33.36 27-Jan-20:  Start Time 
 SVCS.                 DD, MWD:  Services 
 SVER.                    9.20:  Sperry Version 
 TDAT.m                 169.50:  Tot Depth Attmp 
 TDDF.                      No:  Trip for DD 
 TDLG.m                 169.50:  Tot Depth Loggd 
 TFF .                      No:  Trip for Fail 
 TQAA.f-kp               13.25:  Torque Abs Avg 
 TQAN.f-kp               12.00:  Torque Abs Min 
 TQAX.f-kp               14.00:  Torque Abs Max 
 TRRT.°/30m               0.70:  Turn Rotating 
 MRT .                     ADR:  Maximum Recorded Temperature 
 TTMX.degC               92.16:  Max Tool Temp 
 VS01.       AZ90598764G12V7D4:  Virtual Str1 SN 
 VS02.         AZ90571342R12C4:  Virtual Str2 SN 
 VS03.      AZ90580010N2L2X1C4:  Virtual Str3 SN 
 VS04.        AZ90522266O7X1C4:  Virtual Str4 SN 
 VS05.           AZ90598768F11:  Virtual Str5 SN 
 VS06.     AZ90580006XZ1W1X1C4:  Virtual Str6 SN 
 WBMN.klb                 8.00:  WOB Min 
 WITN.            Peter Wilson:  Customer Rep 
 WOBA.klb                 9.88:  WOB Avg 
 WOBX.klb                10.00:  WOB Max 
 YP  .lhf2               27.00:  Yield Point 
~Curve Information Block
#MNEM.UNIT                 API CODE     Curve Description
#---------               -----------    ---------------------------
 TIME.HHMMSS            00 000 000 000:  GT Time & Date
 GTDEPTH.m              00 000 000 000:  GT Depth
 GTPQH.psia             00 000 000 000:  GT HR Quartz Pressure
 GTTQ.degC              00 000 000 000:  GT Quartz Temperature
 GTTN.NONE              00 000 000 000:  GT Test Number
 GTET.sec               00 000 000 000:  GT Elapsed Test Time
 GTTVD.m                00 000 000 000:  GT True Vertical Depth
#Other Information
#
#WARRANTY: Halliburton will use its best efforts to furnish customers with 
#accurate information and interpretations that are part of, and incident to, the services 
#provided.  However, Halliburton cannot and does not warrant the accuracy 
#or correctness of such information and interpretations.  Under no circumstances should any 
#such information or interpretation be relied upon as the sole basis for any drilling, 
#completion, production, or financial decision or any procedure involving any risk to the 
#safety of any drilling venture, drilling rig or its crew or any other third party.  The 
#Customer has full responsibility for all drilling, completion and production operation.  
#Halliburton makes no representations or warranties, either expressed or 
#implied, including, but not limited to, the implied warranties of merchantability or fitness 
#for a particular purpose, with respect to the services rendered.  In no event will 
#Halliburton be liable for failure to obtain any particular results or for 
#any damages, including, but not limited to, indirect, special or consequential damages, 
#resulting from the use of any information or interpretation provided by Halliburton.
#
~A           TIME           GTDEPTH  GTPQH  GTTQ  GTTN  GTET   GTTVD  
# ...
   17:07:59.564.31-Jan-2020 3960.51 3520.53 85.31 8.00 230.05 2982.89
   17:07:59.764.31-Jan-2020 3960.51 3520.53 85.31 8.00 230.25 2982.89
   17:07:59.964.31-Jan-2020 3960.51 3520.27 85.31 8.00 230.45 2982.89
   17:08:00.164.31-Jan-2020 3960.51 3520.44 85.31 8.00 230.65 2982.89
   17:08:00.364.31-Jan-2020 3960.51 3520.23 85.30 8.00 230.85 2982.89
   17:08:00.564.31-Jan-2020 3960.51 3520.43 85.30 8.00 231.05 2982.89
   17:08:00.764.31-Jan-2020 3960.51 3520.43 85.30 8.00 231.25 2982.89
   17:08:00.964.31-Jan-2020 3960.51 3520.31 85.30 8.00 231.45 2982.89
   17:08:01.164.31-Jan-2020 3960.51 3520.32 85.30 8.00 231.65 2982.89
   17:08:01.364.31-Jan-2020 3960.51 3519.99 85.30 8.00 231.85 2982.89
   17:08:01.564.31-Jan-2020 3960.51 3520.32 85.30 8.00 232.05 2982.89
   17:08:01.764.31-Jan-2020 3960.51 3520.32 85.30 8.00 232.25 2982.89
   17:08:01.964.31-Jan-2020 3960.51 3520.34 85.30 8.00 232.45 2982.89
   17:08:02.164.31-Jan-2020 3960.51 3520.44 85.30 8.00 232.65 2982.89
   17:08:02.364.31-Jan-2020 3960.51 3520.01 85.30 8.00 232.85 2982.89
   17:08:02.564.31-Jan-2020 3960.51 3520.41 85.30 8.00 233.05 2982.89
   17:08:02.764.31-Jan-2020 3960.51 3520.41 85.30 8.00 233.25 2982.89
   17:08:02.964.31-Jan-2020 3960.51 3520.40 85.30 8.00 233.45 2982.89
   17:08:03.165.31-Jan-2020 3960.51 3520.48 85.30 8.00 233.65 2982.89
   17:08:03.365.31-Jan-2020 3960.51 3520.14 85.30 8.00 233.85 2982.89
   17:08:03.565.31-Jan-2020 3960.51 3520.13 85.30 8.00 234.05 2982.89
   17:08:03.765.31-Jan-2020 3960.51 3520.13 85.30 8.00 234.25 2982.89
   17:08:03.965.31-Jan-2020 3960.51 3520.27 85.30 8.00 234.45 2982.89
   17:08:04.165.31-Jan-2020 3960.51 3520.59 85.29 8.00 234.65 2982.89
   17:08:04.365.31-Jan-2020 3960.51 3520.45 85.29 8.00 234.86 2982.89
   17:08:04.565.31-Jan-2020 3960.51 3520.32 85.29 8.00 235.06 2982.89
   17:08:04.765.31-Jan-2020 3960.51 3520.32 85.29 8.00 235.26 2982.89
   17:08:04.965.31-Jan-2020 3960.51 3520.23 85.29 8.00 235.46 2982.89
   17:08:05.165.31-Jan-2020 3960.51 3520.62 85.29 8.00 235.66 2982.89
   17:08:05.365.31-Jan-2020 3960.51 3520.49 85.29 8.00 235.86 2982.89
   17:08:05.565.31-Jan-2020 3960.51 3520.40 85.29 8.00 236.06 2982.89
   17:08:05.765.31-Jan-2020 3960.51 3520.40 85.29 8.00 236.26 2982.89
   17:08:05.965.31-Jan-2020 3960.51 3520.25 85.29 8.00 236.46 2982.89
   17:08:06.165.31-Jan-2020 3960.51 3520.55 85.29 8.00 236.66 2982.89
   17:08:06.365.31-Jan-2020 3960.51 3520.43 85.29 8.00 236.86 2982.89
   17:08:06.565.31-Jan-2020 3960.51 3520.51 85.29 8.00 237.06 2982.89
   17:08:06.765.31-Jan-2020 3960.51 3520.51 85.29 8.00 237.26 2982.89
   17:08:06.965.31-Jan-2020 3960.51 3520.37 85.29 8.00 237.46 2982.89
   17:08:07.165.31-Jan-2020 3960.51 3520.44 85.29 8.00 237.66 2982.89
   17:08:07.365.31-Jan-2020 3960.51 3520.25 85.29 8.00 237.86 2982.89
   17:08:07.566.31-Jan-2020 3960.51 3520.40 85.29 8.00 238.06 2982.89
   17:08:07.766.31-Jan-2020 3960.51 3520.40 85.29 8.00 238.26 2982.89
   17:08:07.966.31-Jan-2020 3960.51 3520.30 85.28 8.00 238.46 2982.89
   17:08:08.166.31-Jan-2020 3960.51 3520.42 85.28 8.00 238.66 2982.89
   17:08:08.366.31-Jan-2020 3960.51 3520.25 85.28 8.00 238.86 2982.89
   17:08:08.566.31-Jan-2020 3960.51 3520.32 85.28 8.00 239.06 2982.89
   17:08:08.766.31-Jan-2020 3960.51 3520.32 85.28 8.00 239.26 2982.89
   17:08:08.966.31-Jan-2020 3960.51 3520.29 85.28 8.00 239.46 2982.89
   17:08:09.166.31-Jan-2020 3960.51 3520.56 85.28 8.00 239.66 2982.89
   17:08:09.366.31-Jan-2020 3960.51 3519.82 85.28 8.00 239.86 2982.89
   17:08:09.566.31-Jan-2020 3960.51 3520.18 85.28 8.00 240.06 2982.89
   17:08:09.766.31-Jan-2020 3960.51 3520.18 85.28 8.00 240.26 2982.89
   17:08:09.966.31-Jan-2020 3960.51 3520.35 85.28 8.00 240.46 2982.89
   17:08:10.166.31-Jan-2020 3960.51 3520.46 85.28 8.00 240.66 2982.89
   17:08:10.366.31-Jan-2020 3960.51 3520.36 85.28 8.00 240.86 2982.89
   17:08:10.566.31-Jan-2020 3960.51 3520.38 85.28 8.00 241.06 2982.89
   17:08:10.766.31-Jan-2020 3960.51 3520.38 85.28 8.00 241.26 2982.89
   17:08:10.966.31-Jan-2020 3960.51 3520.30 85.28 8.00 241.46 2982.89
   17:08:11.166.31-Jan-2020 3960.51 3520.42 85.28 8.00 241.66 2982.89
   17:08:11.366.31-Jan-2020 3960.51 3520.38 85.28 8.00 241.86 2982.89
   17:08:11.566.31-Jan-2020 3960.51 3520.41 85.28 8.00 242.06 2982.89
   17:08:11.767.31-Jan-2020 3960.51 3520.41 85.28 8.00 242.26 2982.89
   17:08:11.967.31-Jan-2020 3960.51 3520.19 85.27 8.00 242.46 2982.89
   17:08:12.167.31-Jan-2020 3960.51 3494.74 85.27 8.00 242.66 2982.89
   17:08:12.367.31-Jan-2020 3960.51 3226.54 85.27 8.00 242.86 2982.89
   17:08:12.567.31-Jan-2020 3960.51 3041.50 85.27 8.00 243.06 2982.89
   17:08:12.767.31-Jan-2020 3960.51 3041.50 85.27 8.00 243.26 2982.89
   17:08:12.967.31-Jan-2020 3960.51 2915.29 85.27 8.00 243.46 2982.89
   17:08:13.167.31-Jan-2020 3960.51 2894.56 85.27 8.00 243.66 2982.89
   17:08:13.367.31-Jan-2020 3960.51 2881.91 85.27 8.00 243.86 2982.89
   17:08:13.567.31-Jan-2020 3960.51 2873.86 85.27 8.00 244.06 2982.89
   17:08:13.767.31-Jan-2020 3960.51 2873.86 85.27 8.00 244.26 2982.89
   17:08:13.967.31-Jan-2020 3960.51 2868.48 85.27 8.00 244.46 2982.89
   17:08:14.167.31-Jan-2020 3960.51 2866.61 85.27 8.00 244.66 2982.89
   17:08:14.367.31-Jan-2020 3960.51 2862.78 85.27 8.00 244.86 2982.89
   17:08:14.567.31-Jan-2020 3960.51 2863.12 85.27 8.00 245.06 2982.89
   17:08:14.767.31-Jan-2020 3960.51 2863.12 85.27 8.00 245.26 2982.89
   17:08:14.967.31-Jan-2020 3960.51 2858.86 85.27 8.00 245.46 2982.89
   17:08:15.167.31-Jan-2020 3960.51 2861.53 85.26 8.00 245.66 2982.89
   17:08:15.367.31-Jan-2020 3960.51 2861.88 85.26 8.00 245.86 2982.89
   17:08:15.567.31-Jan-2020 3960.51 2860.89 85.26 8.00 246.06 2982.89
   17:08:15.767.31-Jan-2020 3960.51 2860.89 85.26 8.00 246.26 2982.89
   17:08:15.968.31-Jan-2020 3960.51 2855.05 85.26 8.00 246.46 2982.89
   17:08:16.168.31-Jan-2020 3960.51 2854.76 85.26 8.00 246.66 2982.89
   17:08:16.368.31-Jan-2020 3960.51 2855.70 85.26 8.00 246.86 2982.89
   17:08:16.568.31-Jan-2020 3960.51 2854.82 85.26 8.00 247.06 2982.89
   17:08:16.768.31-Jan-2020 3960.51 2854.82 85.26 8.00 247.26 2982.89
   17:08:16.968.31-Jan-2020 3960.51 2854.14 85.26 8.00 247.46 2982.89
   17:08:17.168.31-Jan-2020 3960.51 2852.42 85.26 8.00 247.66 2982.89
   17:08:17.368.31-Jan-2020 3960.51 2856.96 85.26 8.00 247.86 2982.89
   17:08:17.568.31-Jan-2020 3960.51 2857.77 85.26 8.00 248.06 2982.89
   17:08:17.768.31-Jan-2020 3960.51 2857.77 85.26 8.00 248.26 2982.89
   17:08:17.968.31-Jan-2020 3960.51 2858.97 85.26 8.00 248.46 2982.89
   17:08:18.168.31-Jan-2020 3960.51 2857.08 85.25 8.00 248.66 2982.89
   17:08:18.368.31-Jan-2020 3960.51 2856.90 85.25 8.00 248.86 2982.89
   17:08:18.568.31-Jan-2020 3960.51 2856.70 85.25 8.00 249.06 2982.89
   17:08:18.768.31-Jan-2020 3960.51 2856.70 85.25 8.00 249.26 2982.89
   17:08:18.968.31-Jan-2020 3960.51 2855.19 85.25 8.00 249.46 2982.89
   17:08:19.168.31-Jan-2020 3960.51 2856.12 85.25 8.00 249.66 2982.89
   17:08:19.368.31-Jan-2020 3960.51 2855.90 85.25 8.00 249.86 2982.89
   17:08:19.568.31-Jan-2020 3960.51 2854.82 85.25 8.00 250.06 2982.89
   17:08:19.768.31-Jan-2020 3960.51 2854.82 85.25 8.00 250.26 2982.89
   17:08:19.968.31-Jan-2020 3960.51 2856.54 85.25 8.00 250.46 2982.89
   17:08:20.168.31-Jan-2020 3960.51 2858.52 85.25 8.00 250.66 2982.89
   17:08:20.369.31-Jan-2020 3960.51 2857.35 85.25 8.00 250.86 2982.89
   17:08:20.569.31-Jan-2020 3960.51 2857.18 85.25 8.00 251.06 2982.89
   17:08:20.769.31-Jan-2020 3960.51 2857.18 85.25 8.00 251.26 2982.89
   17:08:20.969.31-Jan-2020 3960.51 2856.65 85.24 8.00 251.46 2982.89
   17:08:21.169.31-Jan-2020 3960.51 2855.54 85.24 8.00 251.66 2982.89
   17:08:21.369.31-Jan-2020 3960.51 2855.39 85.24 8.00 251.86 2982.89
   17:08:21.569.31-Jan-2020 3960.51 2855.20 85.24 8.00 252.06 2982.89
   17:08:21.769.31-Jan-2020 3960.51 2855.20 85.24 8.00 252.26 2982.89
   17:08:21.969.31-Jan-2020 3960.51 2857.87 85.24 8.00 252.46 2982.89
   17:08:22.169.31-Jan-2020 3960.51 2858.36 85.24 8.00 252.66 2982.89
   17:08:22.369.31-Jan-2020 3960.51 2857.07 85.24 8.00 252.86 2982.89
