~Version Information
 VERS.                  2.0:   CWLS log ASCII Standard -VERSION 2.0
 WRAP.                   NO:   One line per depth step
~Well Information Block
#MNEM.UNIT     VALUE/NAME     DESCRIPTION
#---------     -----------    ---------------------------
 STRT.S             01:40:55 31-Jan-20: START TIME 01:40:55 31-Jan-20
 STOP.S             01:47:23 31-Jan-20: STOP TIME  01:47:23 31-Jan-20
 STEP.S                   0.00: STEP TIME
 NULL.                 -999.25: NULL VALUE
 DFWT.                        :  DIST FWL TEXT
 DFST.                        :  DIST FSL TEXT
 DMF .             Drill Floor:  DRILL MEAS FROM
 STIM.      09.30.00 26-Dec-19:  START TIME
 DATE.      08.00.00 20-Jan-20:  END TIME
 SPUD.               23-Nov-19:  SPUD DATE
 NREF.                    Grid:  NORTH REFERENCE
 HPTY.       Minimum Curvature:  HOLE POS TYPE
 DMOD.             Drill Model:  DRILL MOD DESC
 SVYD.                  Survey:  SURVEY DESC
 ILTD.               Lithology:  INTERP LTH DESC
 FTOP.          Formation Tops:  FORM TOPS DESC
 SON .        AZ-XX-0906192647:  JOB NUMBER
 WTYP.                Deviated:  WELL TYPE
 COMP.     BP Exploration (Caspian Sea) Ltd:  COMPANY
 BASE.              Azerbaijan:  LOGGING EQUIPMENT BASE LOCATION
 REGN.                 Eurasia:  REGION
 FLD .                     ACG:  FIELD NAME
 SRVC.              KCA Deutag:  CONTRACTOR
 MWDS.                    Baku:  MWD SHOP
 WELL.     A10 (Slot 20) - SCP:  WELL NAME
 JOBN.        AZ-XX-0906192647:  JOB TICKET NUMB
 RIG .                 Chirag1:  RIG NAME
 DCON.     Halliburton Sperry Drilling:  DIRECTNL CONTR
 UNIT.                     N/A:  LOGGING EQUIPMENT ID
 PDAT.          Mean Sea Level:  PERMANENT DATUM
 MDS .        Operator Entered:  MAG DATA SOURCE
 CTRY.              Azerbaijan:  COUNTRY NAME
 UWI .            /AZE00000090:  UNIQUE WELL IDENTIFIER
 API .            /AZE00000090:  API NUMBER
 CNTY.                        :  COUNTY
 PROV.                        :  PROVINCE
 STAT.                        :  STATE
 LOC .                        :  LOCATION
 LMF .             Drill Floor:  LOG MEASURED FROM
 TVDS.m                  36.60:  TVDSS CORRECTN
 LATI.deg                40.08:  LATITUDE
 LONG.deg                51.24:  LONGITUDE
 WHNS.m                  -7.94:  WELL HEAD N/S
 WHEW.m                   1.56:  WELL HEAD E/W
 UTMX.m              520429.26:  UTM X
 UTMY.m             4438973.87:  UTM Y
 DFWL.m                   0.00:  DISTANCE FWL
 DFSL.m                   0.00:  DISTANCE FSL
 SDEP.m                1455.00:  START DEPTH
 TDD .m                4047.51:  TOTAL DEPTH (DRILLER)
 VSDR.deg               112.75:  VERT SEC DIRECT
 GVFD.g                   1.00:  GRAVITY FIELD
 MFLD.nT              50261.00:  MAGNETIC FIELD
 MDIP.deg                59.52:  MAGNETIC DIP
 MDEC.deg                 6.42:  MAGNETIC DECL
 GRDC.deg                 0.17:  GRID CORRECTION
 AZTC.deg                 6.25:  AZM TOTAL CORR
 EPD .m                   0.00:  ELEVATION
 EGL .m                   0.00:  GROUND ELEVATION
 WDMS.m                 121.00:  WD ELEV
 APD .m                  36.60:  DEPTH ABOVE PD
 AGAP.m                  36.60:  AIR GAP
 VSEW.m                   1.56:  VERT SEC E/W
 VSNS.m                  -7.94:  VERT SEC N/S
 DEP .m                1140.01:  DEPTH
 EKB .m                  36.60:  KB ELEVATION
 EDF .m                  36.60:  DF ELEVATION
 TDL .m                 169.50:  TOTAL DEPTH (LOGGER)
 CSGD.m                3875.01:  CASING BOTTOM (DRILLER)
 CSGL.m                3875.01:  CASING BOTTOM (LOGGER)
 CSGS.in                  7.63:  CASING SIZE
 CSGW.lbpf               23.50:  CASING WEIGHT
 VSC .                       0:  VS TO CLOSURE
 MAGU.                 1849206:  MAGUTM CHECKSUM
~Parameter Information Block
#MNEM.UNIT       Value        Description
#---------     -----------    ---------------------------
 AV  .mps                 1.90:  Ann Velocity 
 AVMX.mps                 2.54:  Max Ann Veloc 
 AZIF.deg               137.03:  Azm, Final 
 BHAT.        Rotary Steerable:  BHA Type 
 BREV.rev             23610.00:  Rev Bit Total 
 BROT.°/30m               0.80:  Build Rotating 
 BS  .in                  6.50:  Bit Size 
 BTPL.psig              110.00:  Bit Press Loss 
 CABU.                     Yes:  Customer Abuse 
 COMM.                     šn:  Run Comments 1 
 TCS .hr                 70.51:  Time Ciculation Ended 
 CV  .mps                 1.41:  Crit Velocity 
 CVMX.mps                 1.42:  Max Crit Veloc 
 DD1 .         Intigam Rahimov:  Direct Drillr 1 
 DD2 .          Rashad Gojayev:  Direct Drillr 2 
 DDSV.               Geo-Pilot:  DD Service 
 DEFF.%                 100.00:  % Det Eff 
 DLRX.°/30m               1.44:  Dogleg Rot Max 
 DLSO.°/30m               0.00:  Dogleg Oriented 
 DLSX.°/30m               0.00:  Dogleg Str Max 
 DRET.      03.05.00 01-Feb-20:  Drill End Time 
 DRST.      15.50.00 28-Jan-20:  Drill Start Tim 
 DTIM.hr                 24.70:  Time Drilling 
 EDEP.m                4047.51:  End Depth 
 ENG1.           Eldar Hajiyev:  Engineer 1 
 ENG2.          Rasim Hashimov:  Engineer 2 
 ENG3.          Rustam Safarov:  Engineer 3 
 ETIM.      22.00.00 01-Feb-20:  End Time 
 FLOI.gpm               370.00:  Flow In 
 FLON.gpm               300.00:  Flow In Min 
 FLOS.cptm                0.00:  Fluid Loss 
 FLOX.gpm               400.00:  Flow In Max 
 FTRO.       Formation Presure:  FTWD Run Obj 
 HFLO.                      No:  High Flow 
 HPRE.                      No:  High Pressure 
 HTEM.                      No:  High Temp 
 HYDO.m                   2.50:  Hydro Offset 
 IFIN.deg                39.54:  Inc, Final 
 IMAX.deg                41.14:  Inc Max 
 IMIN.deg                39.81:  Inc Min 
 IMND.m                4005.21:  Inc Min Depth 
 IMXD.m                3948.42:  Inc Max Depth 
 JARR.                      No:  Jarring 
 LETM.      03.05.00 01-Feb-20:  Log End Time 
 LOST.hr                     0:  Lost Rig Time 
 LSTM.      15.50.00 28-Jan-20:  Log Start Time 
 MDCL.ppm             37500.00:  Mud Chlorides 
 MDES.     Inversion Oil/Synthetic:  Mud Desc 
 DFD .sg                  1.32:  Mud Density 
 MDMN.sg                  1.32:  Dens Mud Min 
 MDMX.sg                  1.32:  Dens Mud Max 
 MOIL.                      55:  Run Mud Oil % 
 MOWR.                   70:30:  Run Mud OWR 
 MSND.                       0:  Run Mud Sand % 
 MSOL.                      17:  Run Mud Solids% 
 DFV .spqt               80.00:  Mud Viscosity 
 MWOD.in                  4.75:  MWD Tool OD 
 MWSI.                      No:  Serv Intrp, MWD 
 OTIM.hr                121.28:  Time Operating 
 PCON.           Look Like New:  Pad Condition 
 PMAX.psia             6171.00:  Press Op, Max 
 PV  .cP                 30.00:  Mud PV 
 RUN .                     300:  Run Number 
 ROPA.m/hr                5.45:  ROP Avg 
 ROPN.m/hr                3.00:  ROP Min 
 ROPX.m/hr               15.00:  ROP Max 
 RPMA.rpm               130.00:  RPM Surface Avg 
 RPMN.rpm                80.00:  RPM Surface Min 
 RPMX.rpm               140.00:  RPM Surface Max 
 RRUN.                     300:  Rig Run Number 
 RTIM.hr                 13.50:  Time Reaming 
 SAZI.deg               133.93:  Azm, Start 
 SDEP.m                3878.01:  Start Depth 
 SIDD.                      No:  Serv Intrp, DD 
 SINC.deg                40.28:  Inc, Start 
 SPPA.psig             4983.00:  SPP Avg 
 SPPN.psig             4370.00:  SPP Min 
 SPPX.psig             5300.00:  SPP Max 
 STIM.      18.33.36 27-Jan-20:  Start Time 
 SVCS.                 DD, MWD:  Services 
 SVER.                    9.20:  Sperry Version 
 TDAT.m                 169.50:  Tot Depth Attmp 
 TDDF.                      No:  Trip for DD 
 TDLG.m                 169.50:  Tot Depth Loggd 
 TFF .                      No:  Trip for Fail 
 TQAA.f-kp               13.25:  Torque Abs Avg 
 TQAN.f-kp               12.00:  Torque Abs Min 
 TQAX.f-kp               14.00:  Torque Abs Max 
 TRRT.°/30m               0.70:  Turn Rotating 
 MRT .                     ADR:  Maximum Recorded Temperature 
 TTMX.degC               92.16:  Max Tool Temp 
 VS01.       AZ90598764G12V7D4:  Virtual Str1 SN 
 VS02.         AZ90571342R12C4:  Virtual Str2 SN 
 VS03.      AZ90580010N2L2X1C4:  Virtual Str3 SN 
 VS04.        AZ90522266O7X1C4:  Virtual Str4 SN 
 VS05.           AZ90598768F11:  Virtual Str5 SN 
 VS06.     AZ90580006XZ1W1X1C4:  Virtual Str6 SN 
 WBMN.klb                 8.00:  WOB Min 
 WITN.            Peter Wilson:  Customer Rep 
 WOBA.klb                 9.88:  WOB Avg 
 WOBX.klb                10.00:  WOB Max 
 YP  .lhf2               27.00:  Yield Point 
~Curve Information Block
#MNEM.UNIT                 API CODE     Curve Description
#---------               -----------    ---------------------------
 TIME.HHMMSS            00 000 000 000:  GT Time & Date
 GTDEPTH.m              00 000 000 000:  GT Depth
 GTPQH.psia             00 000 000 000:  GT HR Quartz Pressure
 GTTQ.degC              00 000 000 000:  GT Quartz Temperature
 GTTN.NONE              00 000 000 000:  GT Test Number
 GTET.sec               00 000 000 000:  GT Elapsed Test Time
 GTTVD.m                00 000 000 000:  GT True Vertical Depth
#Other Information
#
#WARRANTY: Halliburton will use its best efforts to furnish customers with 
#accurate information and interpretations that are part of, and incident to, the services 
#provided.  However, Halliburton cannot and does not warrant the accuracy 
#or correctness of such information and interpretations.  Under no circumstances should any 
#such information or interpretation be relied upon as the sole basis for any drilling, 
#completion, production, or financial decision or any procedure involving any risk to the 
#safety of any drilling venture, drilling rig or its crew or any other third party.  The 
#Customer has full responsibility for all drilling, completion and production operation.  
#Halliburton makes no representations or warranties, either expressed or 
#implied, including, but not limited to, the implied warranties of merchantability or fitness 
#for a particular purpose, with respect to the services rendered.  In no event will 
#Halliburton be liable for failure to obtain any particular results or for 
#any damages, including, but not limited to, indirect, special or consequential damages, 
#resulting from the use of any information or interpretation provided by Halliburton.
#
~A           TIME           GTDEPTH  GTPQH  GTTQ  GTTN  GTET   GTTVD  
# ...
   01:44:45.105.31-Jan-2020 3902.01 2983.97 76.09 3.00 230.04 2938.77
   01:44:45.305.31-Jan-2020 3902.01 2983.97 76.09 3.00 230.24 2938.77
   01:44:45.505.31-Jan-2020 3902.01 2983.74 76.09 3.00 230.44 2938.77
   01:44:45.705.31-Jan-2020 3902.01 2984.13 76.09 3.00 230.64 2938.77
   01:44:45.905.31-Jan-2020 3902.01 2984.12 76.09 3.00 230.84 2938.77
   01:44:46.105.31-Jan-2020 3902.01 2984.04 76.09 3.00 231.04 2938.77
   01:44:46.305.31-Jan-2020 3902.01 2984.04 76.09 3.00 231.24 2938.77
   01:44:46.505.31-Jan-2020 3902.01 2984.12 76.09 3.00 231.44 2938.77
   01:44:46.705.31-Jan-2020 3902.01 2984.17 76.09 3.00 231.64 2938.77
   01:44:46.905.31-Jan-2020 3902.01 2984.17 76.09 3.00 231.84 2938.77
   01:44:47.105.31-Jan-2020 3902.01 2984.09 76.09 3.00 232.04 2938.77
   01:44:47.305.31-Jan-2020 3902.01 2984.09 76.09 3.00 232.24 2938.77
   01:44:47.506.31-Jan-2020 3902.01 2983.62 76.09 3.00 232.44 2938.77
   01:44:47.706.31-Jan-2020 3902.01 2984.23 76.09 3.00 232.64 2938.77
   01:44:47.906.31-Jan-2020 3902.01 2984.12 76.09 3.00 232.84 2938.77
   01:44:48.106.31-Jan-2020 3902.01 2984.16 76.09 3.00 233.04 2938.77
   01:44:48.306.31-Jan-2020 3902.01 2984.16 76.09 3.00 233.24 2938.77
   01:44:48.506.31-Jan-2020 3902.01 2984.07 76.09 3.00 233.44 2938.77
   01:44:48.706.31-Jan-2020 3902.01 2983.94 76.09 3.00 233.64 2938.77
   01:44:48.906.31-Jan-2020 3902.01 2983.97 76.09 3.00 233.84 2938.77
   01:44:49.106.31-Jan-2020 3902.01 2984.02 76.09 3.00 234.04 2938.77
   01:44:49.306.31-Jan-2020 3902.01 2984.02 76.09 3.00 234.24 2938.77
   01:44:49.506.31-Jan-2020 3902.01 2984.00 76.08 3.00 234.44 2938.77
   01:44:49.706.31-Jan-2020 3902.01 2983.98 76.08 3.00 234.64 2938.77
   01:44:49.906.31-Jan-2020 3902.01 2983.95 76.08 3.00 234.84 2938.77
   01:44:50.106.31-Jan-2020 3902.01 2983.96 76.08 3.00 235.04 2938.77
   01:44:50.306.31-Jan-2020 3902.01 2983.96 76.08 3.00 235.24 2938.77
   01:44:50.506.31-Jan-2020 3902.01 2984.02 76.08 3.00 235.44 2938.77
   01:44:50.706.31-Jan-2020 3902.01 2983.94 76.08 3.00 235.64 2938.77
   01:44:50.906.31-Jan-2020 3902.01 2983.92 76.08 3.00 235.84 2938.77
   01:44:51.106.31-Jan-2020 3902.01 2983.63 76.08 3.00 236.04 2938.77
   01:44:51.306.31-Jan-2020 3902.01 2983.63 76.08 3.00 236.24 2938.77
   01:44:51.506.31-Jan-2020 3902.01 2984.12 76.08 3.00 236.44 2938.77
   01:44:51.706.31-Jan-2020 3902.01 2984.10 76.08 3.00 236.64 2938.77
   01:44:51.906.31-Jan-2020 3902.01 2984.09 76.08 3.00 236.84 2938.77
   01:44:52.106.31-Jan-2020 3902.01 2984.06 76.08 3.00 237.04 2938.77
   01:44:52.306.31-Jan-2020 3902.01 2984.06 76.08 3.00 237.24 2938.77
   01:44:52.506.31-Jan-2020 3902.01 2983.99 76.08 3.00 237.44 2938.77
   01:44:52.706.31-Jan-2020 3902.01 2983.98 76.08 3.00 237.64 2938.77
   01:44:52.906.31-Jan-2020 3902.01 2983.98 76.08 3.00 237.84 2938.77
   01:44:53.107.31-Jan-2020 3902.01 2983.97 76.08 3.00 238.04 2938.77
   01:44:53.307.31-Jan-2020 3902.01 2983.97 76.08 3.00 238.24 2938.77
   01:44:53.507.31-Jan-2020 3902.01 2983.95 76.08 3.00 238.44 2938.77
   01:44:53.707.31-Jan-2020 3902.01 2983.95 76.08 3.00 238.64 2938.77
   01:44:53.907.31-Jan-2020 3902.01 2983.96 76.08 3.00 238.84 2938.77
   01:44:54.107.31-Jan-2020 3902.01 2984.05 76.07 3.00 239.04 2938.77
   01:44:54.307.31-Jan-2020 3902.01 2984.05 76.07 3.00 239.24 2938.77
   01:44:54.507.31-Jan-2020 3902.01 2973.90 76.07 3.00 239.44 2938.77
   01:44:54.707.31-Jan-2020 3902.01 2670.24 76.07 3.00 239.64 2938.77
   01:44:54.907.31-Jan-2020 3902.01 2334.37 76.07 3.00 239.84 2938.77
   01:44:55.107.31-Jan-2020 3902.01 2122.99 76.07 3.00 240.04 2938.77
   01:44:55.307.31-Jan-2020 3902.01 2122.99 76.07 3.00 240.24 2938.77
   01:44:55.507.31-Jan-2020 3902.01 1876.18 76.07 3.00 240.44 2938.77
   01:44:55.707.31-Jan-2020 3902.01 1809.61 76.07 3.00 240.64 2938.77
   01:44:55.907.31-Jan-2020 3902.01 1758.73 76.07 3.00 240.84 2938.77
   01:44:56.107.31-Jan-2020 3902.01 1723.62 76.07 3.00 241.04 2938.77
   01:44:56.307.31-Jan-2020 3902.01 1723.62 76.07 3.00 241.24 2938.77
   01:44:56.507.31-Jan-2020 3902.01 1677.11 76.07 3.00 241.44 2938.77
   01:44:56.707.31-Jan-2020 3902.01 1663.85 76.07 3.00 241.64 2938.77
   01:44:56.907.31-Jan-2020 3902.01 1648.47 76.07 3.00 241.84 2938.77
   01:44:57.107.31-Jan-2020 3902.01 1641.53 76.07 3.00 242.04 2938.77
   01:44:57.307.31-Jan-2020 3902.01 1641.53 76.07 3.00 242.24 2938.77
   01:44:57.507.31-Jan-2020 3902.01 1639.69 76.07 3.00 242.44 2938.77
   01:44:57.707.31-Jan-2020 3902.01 1628.57 76.07 3.00 242.64 2938.77
   01:44:57.907.31-Jan-2020 3902.01 1626.39 76.06 3.00 242.84 2938.77
   01:44:58.107.31-Jan-2020 3902.01 1623.64 76.06 3.00 243.04 2938.77
   01:44:58.307.31-Jan-2020 3902.01 1623.64 76.06 3.00 243.24 2938.77
   01:44:58.508.31-Jan-2020 3902.01 1616.59 76.06 3.00 243.44 2938.77
   01:44:58.708.31-Jan-2020 3902.01 1612.72 76.06 3.00 243.64 2938.77
   01:44:58.908.31-Jan-2020 3902.01 1610.29 76.06 3.00 243.84 2938.77
   01:44:59.108.31-Jan-2020 3902.01 1605.15 76.06 3.00 244.04 2938.77
   01:44:59.308.31-Jan-2020 3902.01 1605.15 76.06 3.00 244.24 2938.77
   01:44:59.508.31-Jan-2020 3902.01 1606.92 76.06 3.00 244.44 2938.77
   01:44:59.708.31-Jan-2020 3902.01 1607.07 76.06 3.00 244.64 2938.77
   01:44:59.908.31-Jan-2020 3902.01 1606.50 76.06 3.00 244.84 2938.77
   01:45:00.108.31-Jan-2020 3902.01 1602.95 76.06 3.00 245.04 2938.77
   01:45:00.308.31-Jan-2020 3902.01 1602.95 76.06 3.00 245.24 2938.77
   01:45:00.508.31-Jan-2020 3902.01 1596.50 76.05 3.00 245.44 2938.77
   01:45:00.708.31-Jan-2020 3902.01 1596.98 76.05 3.00 245.64 2938.77
   01:45:00.908.31-Jan-2020 3902.01 1596.71 76.05 3.00 245.84 2938.77
   01:45:01.108.31-Jan-2020 3902.01 1593.18 76.05 3.00 246.04 2938.77
   01:45:01.308.31-Jan-2020 3902.01 1593.18 76.05 3.00 246.24 2938.77
   01:45:01.508.31-Jan-2020 3902.01 1588.48 76.05 3.00 246.44 2938.77
   01:45:01.708.31-Jan-2020 3902.01 1586.48 76.05 3.00 246.64 2938.77
   01:45:01.908.31-Jan-2020 3902.01 1585.47 76.05 3.00 246.84 2938.77
   01:45:02.108.31-Jan-2020 3902.01 1585.25 76.05 3.00 247.04 2938.77
   01:45:02.308.31-Jan-2020 3902.01 1585.25 76.05 3.00 247.24 2938.77
   01:45:02.508.31-Jan-2020 3902.01 1585.34 76.05 3.00 247.44 2938.77
   01:45:02.708.31-Jan-2020 3902.01 1587.16 76.05 3.00 247.64 2938.77
   01:45:02.908.31-Jan-2020 3902.01 1582.28 76.05 3.00 247.84 2938.77
   01:45:03.108.31-Jan-2020 3902.01 1586.86 76.04 3.00 248.04 2938.77
   01:45:03.308.31-Jan-2020 3902.01 1586.86 76.04 3.00 248.24 2938.77
   01:45:03.508.31-Jan-2020 3902.01 1589.23 76.04 3.00 248.45 2938.77
   01:45:03.708.31-Jan-2020 3902.01 1587.95 76.04 3.00 248.65 2938.77
   01:45:03.908.31-Jan-2020 3902.01 1587.74 76.04 3.00 248.85 2938.77
   01:45:04.109.31-Jan-2020 3902.01 1588.03 76.04 3.00 249.05 2938.77
   01:45:04.309.31-Jan-2020 3902.01 1588.03 76.04 3.00 249.25 2938.77
   01:45:04.509.31-Jan-2020 3902.01 1587.48 76.04 3.00 249.45 2938.77
   01:45:04.709.31-Jan-2020 3902.01 1586.03 76.04 3.00 249.65 2938.77
   01:45:04.909.31-Jan-2020 3902.01 1744.55 76.04 3.00 249.85 2938.77
   01:45:05.109.31-Jan-2020 3902.01 2088.88 76.04 3.00 250.05 2938.77
   01:45:05.309.31-Jan-2020 3902.01 2088.88 76.04 3.00 250.25 2938.77
   01:45:05.509.31-Jan-2020 3902.01 2553.84 76.04 3.00 250.45 2938.77
   01:45:05.709.31-Jan-2020 3902.01 2686.69 76.04 3.00 250.65 2938.77
   01:45:05.909.31-Jan-2020 3902.01 2777.85 76.04 3.00 250.85 2938.77
   01:45:06.109.31-Jan-2020 3902.01 2839.33 76.03 3.00 251.05 2938.77
   01:45:06.309.31-Jan-2020 3902.01 2839.33 76.03 3.00 251.25 2938.77
   01:45:06.509.31-Jan-2020 3902.01 2911.88 76.03 3.00 251.45 2938.77
   01:45:06.709.31-Jan-2020 3902.01 2932.27 76.03 3.00 251.65 2938.77
   01:45:06.909.31-Jan-2020 3902.01 2946.18 76.03 3.00 251.85 2938.77
   01:45:07.109.31-Jan-2020 3902.01 2955.30 76.03 3.00 252.05 2938.77
   01:45:07.309.31-Jan-2020 3902.01 2955.30 76.03 3.00 252.25 2938.77
   01:45:07.509.31-Jan-2020 3902.01 2967.30 76.03 3.00 252.45 2938.77
   01:45:07.709.31-Jan-2020 3902.01 2970.87 76.03 3.00 252.65 2938.77
   01:45:07.909.31-Jan-2020 3902.01 2973.42 76.03 3.00 252.85 2938.77
