~Version Information
 VERS.                  2.0:   CWLS log ASCII Standard -VERSION 2.0
 WRAP.                   NO:   One line per depth step
~Well Information Block
#MNEM.UNIT     VALUE/NAME     DESCRIPTION
#---------     -----------    ---------------------------
 STRT.S             21:06:33 30-Jan-20: START TIME 21:06:33 30-Jan-20
 STOP.S             21:13:02 30-Jan-20: STOP TIME  21:13:02 30-Jan-20
 STEP.S                   0.00: STEP TIME
 NULL.                 -999.25: NULL VALUE
 DFWT.                        :  DIST FWL TEXT
 DFST.                        :  DIST FSL TEXT
 DMF .             Drill Floor:  DRILL MEAS FROM
 STIM.      09.30.00 26-Dec-19:  START TIME
 DATE.      08.00.00 20-Jan-20:  END TIME
 SPUD.               23-Nov-19:  SPUD DATE
 NREF.                    Grid:  NORTH REFERENCE
 HPTY.       Minimum Curvature:  HOLE POS TYPE
 DMOD.             Drill Model:  DRILL MOD DESC
 SVYD.                  Survey:  SURVEY DESC
 ILTD.               Lithology:  INTERP LTH DESC
 FTOP.          Formation Tops:  FORM TOPS DESC
 SON .        AZ-XX-0906192647:  JOB NUMBER
 WTYP.                Deviated:  WELL TYPE
 COMP.     BP Exploration (Caspian Sea) Ltd:  COMPANY
 BASE.              Azerbaijan:  LOGGING EQUIPMENT BASE LOCATION
 REGN.                 Eurasia:  REGION
 FLD .                     ACG:  FIELD NAME
 SRVC.              KCA Deutag:  CONTRACTOR
 MWDS.                    Baku:  MWD SHOP
 WELL.     A10 (Slot 20) - SCP:  WELL NAME
 JOBN.        AZ-XX-0906192647:  JOB TICKET NUMB
 RIG .                 Chirag1:  RIG NAME
 DCON.     Halliburton Sperry Drilling:  DIRECTNL CONTR
 UNIT.                     N/A:  LOGGING EQUIPMENT ID
 PDAT.          Mean Sea Level:  PERMANENT DATUM
 MDS .        Operator Entered:  MAG DATA SOURCE
 CTRY.              Azerbaijan:  COUNTRY NAME
 UWI .            /AZE00000090:  UNIQUE WELL IDENTIFIER
 API .            /AZE00000090:  API NUMBER
 CNTY.                        :  COUNTY
 PROV.                        :  PROVINCE
 STAT.                        :  STATE
 LOC .                        :  LOCATION
 LMF .             Drill Floor:  LOG MEASURED FROM
 TVDS.m                  36.60:  TVDSS CORRECTN
 LATI.deg                40.08:  LATITUDE
 LONG.deg                51.24:  LONGITUDE
 WHNS.m                  -7.94:  WELL HEAD N/S
 WHEW.m                   1.56:  WELL HEAD E/W
 UTMX.m              520429.26:  UTM X
 UTMY.m             4438973.87:  UTM Y
 DFWL.m                   0.00:  DISTANCE FWL
 DFSL.m                   0.00:  DISTANCE FSL
 SDEP.m                1455.00:  START DEPTH
 TDD .m                4047.51:  TOTAL DEPTH (DRILLER)
 VSDR.deg               112.75:  VERT SEC DIRECT
 GVFD.g                   1.00:  GRAVITY FIELD
 MFLD.nT              50261.00:  MAGNETIC FIELD
 MDIP.deg                59.52:  MAGNETIC DIP
 MDEC.deg                 6.42:  MAGNETIC DECL
 GRDC.deg                 0.17:  GRID CORRECTION
 AZTC.deg                 6.25:  AZM TOTAL CORR
 EPD .m                   0.00:  ELEVATION
 EGL .m                   0.00:  GROUND ELEVATION
 WDMS.m                 121.00:  WD ELEV
 APD .m                  36.60:  DEPTH ABOVE PD
 AGAP.m                  36.60:  AIR GAP
 VSEW.m                   1.56:  VERT SEC E/W
 VSNS.m                  -7.94:  VERT SEC N/S
 DEP .m                1140.01:  DEPTH
 EKB .m                  36.60:  KB ELEVATION
 EDF .m                  36.60:  DF ELEVATION
 TDL .m                 169.50:  TOTAL DEPTH (LOGGER)
 CSGD.m                3875.01:  CASING BOTTOM (DRILLER)
 CSGL.m                3875.01:  CASING BOTTOM (LOGGER)
 CSGS.in                  7.63:  CASING SIZE
 CSGW.lbpf               23.50:  CASING WEIGHT
 VSC .                       0:  VS TO CLOSURE
 MAGU.                 1849206:  MAGUTM CHECKSUM
~Parameter Information Block
#MNEM.UNIT       Value        Description
#---------     -----------    ---------------------------
 AV  .mps                 1.90:  Ann Velocity 
 AVMX.mps                 2.54:  Max Ann Veloc 
 AZIF.deg               137.03:  Azm, Final 
 BHAT.        Rotary Steerable:  BHA Type 
 BREV.rev             23610.00:  Rev Bit Total 
 BROT.°/30m               0.80:  Build Rotating 
 BS  .in                  6.50:  Bit Size 
 BTPL.psig              110.00:  Bit Press Loss 
 CABU.                     Yes:  Customer Abuse 
 TCS .hr                 70.51:  Time Ciculation Ended 
 CV  .mps                 1.41:  Crit Velocity 
 CVMX.mps                 1.42:  Max Crit Veloc 
 DD1 .         Intigam Rahimov:  Direct Drillr 1 
 DD2 .          Rashad Gojayev:  Direct Drillr 2 
 DDSV.               Geo-Pilot:  DD Service 
 DEFF.%                 100.00:  % Det Eff 
 DLRX.°/30m               1.44:  Dogleg Rot Max 
 DLSO.°/30m               0.00:  Dogleg Oriented 
 DLSX.°/30m               0.00:  Dogleg Str Max 
 DRET.      03.05.00 01-Feb-20:  Drill End Time 
 DRST.      15.50.00 28-Jan-20:  Drill Start Tim 
 DTIM.hr                 24.70:  Time Drilling 
 EDEP.m                4047.51:  End Depth 
 ENG1.           Eldar Hajiyev:  Engineer 1 
 ENG2.          Rasim Hashimov:  Engineer 2 
 ENG3.          Rustam Safarov:  Engineer 3 
 ETIM.      22.00.00 01-Feb-20:  End Time 
 FLOI.gpm               370.00:  Flow In 
 FLON.gpm               300.00:  Flow In Min 
 FLOS.cptm                0.00:  Fluid Loss 
 FLOX.gpm               400.00:  Flow In Max 
 FTRO.       Formation Presure:  FTWD Run Obj 
 HFLO.                      No:  High Flow 
 HPRE.                      No:  High Pressure 
 HTEM.                      No:  High Temp 
 HYDO.m                   2.50:  Hydro Offset 
 IFIN.deg                39.54:  Inc, Final 
 IMAX.deg                41.14:  Inc Max 
 IMIN.deg                39.81:  Inc Min 
 IMND.m                4005.21:  Inc Min Depth 
 IMXD.m                3948.42:  Inc Max Depth 
 JARR.                      No:  Jarring 
 LETM.      03.05.00 01-Feb-20:  Log End Time 
 LOST.hr                     0:  Lost Rig Time 
 LSTM.      15.50.00 28-Jan-20:  Log Start Time 
 MDCL.ppm             37500.00:  Mud Chlorides 
 MDES.     Inversion Oil/Synthetic:  Mud Desc 
 DFD .sg                  1.32:  Mud Density 
 MDMN.sg                  1.32:  Dens Mud Min 
 MDMX.sg                  1.32:  Dens Mud Max 
 MOIL.                      55:  Run Mud Oil % 
 MOWR.                   70:30:  Run Mud OWR 
 MSND.                       0:  Run Mud Sand % 
 MSOL.                      17:  Run Mud Solids% 
 DFV .spqt               80.00:  Mud Viscosity 
 MWOD.in                  4.75:  MWD Tool OD 
 MWSI.                      No:  Serv Intrp, MWD 
 OTIM.hr                121.28:  Time Operating 
 PCON.           Look Like New:  Pad Condition 
 PMAX.psia             6171.00:  Press Op, Max 
 PV  .cP                 30.00:  Mud PV 
 RUN .                     300:  Run Number 
 ROPA.m/hr                5.45:  ROP Avg 
 ROPN.m/hr                3.00:  ROP Min 
 ROPX.m/hr               15.00:  ROP Max 
 RPMA.rpm               130.00:  RPM Surface Avg 
 RPMN.rpm                80.00:  RPM Surface Min 
 RPMX.rpm               140.00:  RPM Surface Max 
 RRUN.                     300:  Rig Run Number 
 RTIM.hr                 13.50:  Time Reaming 
 SAZI.deg               133.93:  Azm, Start 
 SDEP.m                3878.01:  Start Depth 
 SIDD.                      No:  Serv Intrp, DD 
 SINC.deg                40.28:  Inc, Start 
 SPPA.psig             4983.00:  SPP Avg 
 SPPN.psig             4370.00:  SPP Min 
 SPPX.psig             5300.00:  SPP Max 
 STIM.      18.33.36 27-Jan-20:  Start Time 
 SVCS.                 DD, MWD:  Services 
 SVER.                    9.20:  Sperry Version 
 TDAT.m                 169.50:  Tot Depth Attmp 
 TDDF.                      No:  Trip for DD 
 TDLG.m                 169.50:  Tot Depth Loggd 
 TFF .                      No:  Trip for Fail 
 TQAA.f-kp               13.25:  Torque Abs Avg 
 TQAN.f-kp               12.00:  Torque Abs Min 
 TQAX.f-kp               14.00:  Torque Abs Max 
 TRRT.°/30m               0.70:  Turn Rotating 
 MRT .                     ADR:  Maximum Recorded Temperature 
 TTMX.degC               92.16:  Max Tool Temp 
 VS01.       AZ90598764G12V7D4:  Virtual Str1 SN 
 VS02.         AZ90571342R12C4:  Virtual Str2 SN 
 VS03.      AZ90580010N2L2X1C4:  Virtual Str3 SN 
 VS04.        AZ90522266O7X1C4:  Virtual Str4 SN 
 VS05.           AZ90598768F11:  Virtual Str5 SN 
 VS06.     AZ90580006XZ1W1X1C4:  Virtual Str6 SN 
 WBMN.klb                 8.00:  WOB Min 
 WITN.            Peter Wilson:  Customer Rep 
 WOBA.klb                 9.88:  WOB Avg 
 WOBX.klb                10.00:  WOB Max 
 YP  .lhf2               27.00:  Yield Point 
~Curve Information Block
#MNEM.UNIT                 API CODE     Curve Description
#---------               -----------    ---------------------------
 TIME.HHMMSS            00 000 000 000:  GT Time & Date
 GTDEPTH.m              00 000 000 000:  GT Depth
 GTPQH.psia             00 000 000 000:  GT HR Quartz Pressure
 GTTQ.degC              00 000 000 000:  GT Quartz Temperature
 GTTN.NONE              00 000 000 000:  GT Test Number
 GTET.sec               00 000 000 000:  GT Elapsed Test Time
 GTTVD.m                00 000 000 000:  GT True Vertical Depth
#Other Information
#
#WARRANTY: Halliburton will use its best efforts to furnish customers with 
#accurate information and interpretations that are part of, and incident to, the services 
#provided.  However, Halliburton cannot and does not warrant the accuracy 
#or correctness of such information and interpretations.  Under no circumstances should any 
#such information or interpretation be relied upon as the sole basis for any drilling, 
#completion, production, or financial decision or any procedure involving any risk to the 
#safety of any drilling venture, drilling rig or its crew or any other third party.  The 
#Customer has full responsibility for all drilling, completion and production operation.  
#Halliburton makes no representations or warranties, either expressed or 
#implied, including, but not limited to, the implied warranties of merchantability or fitness 
#for a particular purpose, with respect to the services rendered.  In no event will 
#Halliburton be liable for failure to obtain any particular results or for 
#any damages, including, but not limited to, indirect, special or consequential damages, 
#resulting from the use of any information or interpretation provided by Halliburton.
#
~A           TIME           GTDEPTH  GTPQH  GTTQ  GTTN  GTET   GTTVD  
# ...
   21:10:46.052.30-Jan-2020 3895.01 2975.57 72.51 2.00 253.05 2933.47
   21:10:46.252.30-Jan-2020 3895.01 2975.57 72.51 2.00 253.25 2933.47
   21:10:46.452.30-Jan-2020 3895.01 2976.40 72.51 2.00 253.45 2933.47
   21:10:46.652.30-Jan-2020 3895.01 2976.60 72.51 2.00 253.65 2933.47
   21:10:46.852.30-Jan-2020 3895.01 2976.79 72.51 2.00 253.85 2933.47
   21:10:47.052.30-Jan-2020 3895.01 2977.10 72.51 2.00 254.05 2933.47
   21:10:47.252.30-Jan-2020 3895.01 2977.10 72.51 2.00 254.25 2933.47
   21:10:47.453.30-Jan-2020 3895.01 2977.55 72.51 2.00 254.45 2933.47
   21:10:47.653.30-Jan-2020 3895.01 2977.67 72.51 2.00 254.65 2933.47
   21:10:47.853.30-Jan-2020 3895.01 2977.86 72.51 2.00 254.85 2933.47
   21:10:48.053.30-Jan-2020 3895.01 2977.92 72.51 2.00 255.05 2933.47
   21:10:48.253.30-Jan-2020 3895.01 2977.92 72.51 2.00 255.25 2933.47
   21:10:48.453.30-Jan-2020 3895.01 2978.10 72.51 2.00 255.45 2933.47
   21:10:48.653.30-Jan-2020 3895.01 2978.30 72.51 2.00 255.65 2933.47
   21:10:48.853.30-Jan-2020 3895.01 2978.37 72.51 2.00 255.85 2933.47
   21:10:49.053.30-Jan-2020 3895.01 2978.44 72.51 2.00 256.05 2933.47
   21:10:49.253.30-Jan-2020 3895.01 2978.44 72.51 2.00 256.25 2933.47
   21:10:49.453.30-Jan-2020 3895.01 2978.65 72.51 2.00 256.45 2933.47
   21:10:49.653.30-Jan-2020 3895.01 2978.70 72.51 2.00 256.65 2933.47
   21:10:49.853.30-Jan-2020 3895.01 2978.79 72.51 2.00 256.85 2933.47
   21:10:50.053.30-Jan-2020 3895.01 2978.98 72.51 2.00 257.05 2933.47
   21:10:50.253.30-Jan-2020 3895.01 2978.98 72.51 2.00 257.25 2933.47
   21:10:50.453.30-Jan-2020 3895.01 2978.52 72.51 2.00 257.45 2933.47
   21:10:50.653.30-Jan-2020 3895.01 2979.23 72.51 2.00 257.65 2933.47
   21:10:50.853.30-Jan-2020 3895.01 2979.22 72.51 2.00 257.85 2933.47
   21:10:51.053.30-Jan-2020 3895.01 2979.28 72.51 2.00 258.05 2933.47
   21:10:51.253.30-Jan-2020 3895.01 2979.28 72.51 2.00 258.25 2933.47
   21:10:51.453.30-Jan-2020 3895.01 2978.85 72.51 2.00 258.45 2933.47
   21:10:51.653.30-Jan-2020 3895.01 2979.61 72.51 2.00 258.65 2933.47
   21:10:51.853.30-Jan-2020 3895.01 2979.53 72.51 2.00 258.85 2933.47
   21:10:52.053.30-Jan-2020 3895.01 2979.56 72.51 2.00 259.05 2933.47
   21:10:52.253.30-Jan-2020 3895.01 2979.56 72.51 2.00 259.25 2933.47
   21:10:52.453.30-Jan-2020 3895.01 2979.51 72.50 2.00 259.45 2933.47
   21:10:52.653.30-Jan-2020 3895.01 2979.03 72.50 2.00 259.65 2933.47
   21:10:52.854.30-Jan-2020 3895.01 2979.73 72.50 2.00 259.85 2933.47
   21:10:53.054.30-Jan-2020 3895.01 2979.70 72.50 2.00 260.05 2933.47
   21:10:53.254.30-Jan-2020 3895.01 2979.70 72.50 2.00 260.25 2933.47
   21:10:53.454.30-Jan-2020 3895.01 2979.61 72.50 2.00 260.45 2933.47
   21:10:53.654.30-Jan-2020 3895.01 2979.55 72.50 2.00 260.65 2933.47
   21:10:53.854.30-Jan-2020 3895.01 2979.89 72.50 2.00 260.85 2933.47
   21:10:54.054.30-Jan-2020 3895.01 2979.88 72.50 2.00 261.05 2933.47
   21:10:54.254.30-Jan-2020 3895.01 2979.88 72.50 2.00 261.25 2933.47
   21:10:54.454.30-Jan-2020 3895.01 2979.97 72.50 2.00 261.45 2933.47
   21:10:54.654.30-Jan-2020 3895.01 2979.30 72.50 2.00 261.65 2933.47
   21:10:54.854.30-Jan-2020 3895.01 2980.07 72.50 2.00 261.85 2933.47
   21:10:55.054.30-Jan-2020 3895.01 2980.00 72.50 2.00 262.05 2933.47
   21:10:55.254.30-Jan-2020 3895.01 2980.00 72.50 2.00 262.25 2933.47
   21:10:55.454.30-Jan-2020 3895.01 2980.17 72.50 2.00 262.45 2933.47
   21:10:55.654.30-Jan-2020 3895.01 2980.16 72.50 2.00 262.65 2933.47
   21:10:55.854.30-Jan-2020 3895.01 2980.08 72.50 2.00 262.85 2933.47
   21:10:56.054.30-Jan-2020 3895.01 2980.00 72.50 2.00 263.05 2933.47
   21:10:56.254.30-Jan-2020 3895.01 2980.00 72.50 2.00 263.25 2933.47
   21:10:56.454.30-Jan-2020 3895.01 2979.99 72.50 2.00 263.45 2933.47
   21:10:56.654.30-Jan-2020 3895.01 2980.09 72.50 2.00 263.65 2933.47
   21:10:56.854.30-Jan-2020 3895.01 2980.04 72.50 2.00 263.85 2933.47
   21:10:57.054.30-Jan-2020 3895.01 2980.08 72.50 2.00 264.05 2933.47
   21:10:57.254.30-Jan-2020 3895.01 2980.08 72.50 2.00 264.25 2933.47
   21:10:57.454.30-Jan-2020 3895.01 2980.19 72.50 2.00 264.45 2933.47
   21:10:57.654.30-Jan-2020 3895.01 2980.25 72.50 2.00 264.65 2933.47
   21:10:57.854.30-Jan-2020 3895.01 2980.15 72.50 2.00 264.85 2933.47
   21:10:58.055.30-Jan-2020 3895.01 2980.18 72.49 2.00 265.05 2933.47
   21:10:58.255.30-Jan-2020 3895.01 2980.18 72.49 2.00 265.25 2933.47
   21:10:58.455.30-Jan-2020 3895.01 2979.73 72.49 2.00 265.45 2933.47
   21:10:58.655.30-Jan-2020 3895.01 2980.44 72.49 2.00 265.65 2933.47
   21:10:58.855.30-Jan-2020 3895.01 2980.37 72.49 2.00 265.85 2933.47
   21:10:59.055.30-Jan-2020 3895.01 2980.40 72.49 2.00 266.05 2933.47
   21:10:59.255.30-Jan-2020 3895.01 2980.40 72.49 2.00 266.25 2933.47
   21:10:59.455.30-Jan-2020 3895.01 2980.39 72.49 2.00 266.45 2933.47
   21:10:59.655.30-Jan-2020 3895.01 2980.41 72.49 2.00 266.65 2933.47
   21:10:59.855.30-Jan-2020 3895.01 2980.35 72.49 2.00 266.85 2933.47
   21:11:00.055.30-Jan-2020 3895.01 2980.33 72.49 2.00 267.05 2933.47
   21:11:00.255.30-Jan-2020 3895.01 2980.33 72.49 2.00 267.25 2933.47
   21:11:00.455.30-Jan-2020 3895.01 2980.36 72.49 2.00 267.45 2933.47
   21:11:00.655.30-Jan-2020 3895.01 2980.38 72.49 2.00 267.65 2933.47
   21:11:00.855.30-Jan-2020 3895.01 2980.38 72.49 2.00 267.85 2933.47
   21:11:01.055.30-Jan-2020 3895.01 2980.36 72.49 2.00 268.05 2933.47
   21:11:01.255.30-Jan-2020 3895.01 2980.36 72.49 2.00 268.25 2933.47
   21:11:01.455.30-Jan-2020 3895.01 2980.54 72.49 2.00 268.45 2933.47
   21:11:01.655.30-Jan-2020 3895.01 2979.91 72.49 2.00 268.65 2933.47
   21:11:01.855.30-Jan-2020 3895.01 2980.63 72.49 2.00 268.85 2933.47
   21:11:02.055.30-Jan-2020 3895.01 2980.51 72.49 2.00 269.05 2933.47
   21:11:02.255.30-Jan-2020 3895.01 2980.51 72.49 2.00 269.25 2933.47
   21:11:02.455.30-Jan-2020 3895.01 2980.52 72.49 2.00 269.45 2933.47
   21:11:02.655.30-Jan-2020 3895.01 2979.96 72.49 2.00 269.65 2933.47
   21:11:02.855.30-Jan-2020 3895.01 2980.76 72.49 2.00 269.85 2933.47
   21:11:03.055.30-Jan-2020 3895.01 2980.64 72.49 2.00 270.05 2933.47
   21:11:03.255.30-Jan-2020 3895.01 2980.64 72.49 2.00 270.25 2933.47
   21:11:03.456.30-Jan-2020 3895.01 2980.60 72.48 2.00 270.45 2933.47
   21:11:03.656.30-Jan-2020 3895.01 2980.52 72.48 2.00 270.65 2933.47
   21:11:03.856.30-Jan-2020 3895.01 2980.55 72.48 2.00 270.85 2933.47
   21:11:04.056.30-Jan-2020 3895.01 2980.00 72.48 2.00 271.05 2933.47
   21:11:04.256.30-Jan-2020 3895.01 2980.00 72.48 2.00 271.25 2933.47
   21:11:04.456.30-Jan-2020 3895.01 2980.59 72.48 2.00 271.45 2933.47
   21:11:04.656.30-Jan-2020 3895.01 2980.75 72.48 2.00 271.65 2933.47
   21:11:04.856.30-Jan-2020 3895.01 2980.09 72.48 2.00 271.85 2933.47
   21:11:05.056.30-Jan-2020 3895.01 2980.71 72.48 2.00 272.05 2933.47
   21:11:05.256.30-Jan-2020 3895.01 2980.71 72.48 2.00 272.25 2933.47
   21:11:05.456.30-Jan-2020 3895.01 2980.78 72.48 2.00 272.45 2933.47
   21:11:05.656.30-Jan-2020 3895.01 2980.25 72.48 2.00 272.65 2933.47
   21:11:05.856.30-Jan-2020 3895.01 2980.72 72.48 2.00 272.85 2933.47
   21:11:06.056.30-Jan-2020 3895.01 2980.73 72.48 2.00 273.05 2933.47
   21:11:06.256.30-Jan-2020 3895.01 2980.73 72.48 2.00 273.25 2933.47
   21:11:06.456.30-Jan-2020 3895.01 2980.71 72.48 2.00 273.45 2933.47
   21:11:06.656.30-Jan-2020 3895.01 2980.73 72.48 2.00 273.65 2933.47
   21:11:06.856.30-Jan-2020 3895.01 2980.69 72.48 2.00 273.85 2933.47
   21:11:07.056.30-Jan-2020 3895.01 2980.78 72.48 2.00 274.05 2933.47
   21:11:07.256.30-Jan-2020 3895.01 2980.78 72.48 2.00 274.25 2933.47
   21:11:07.456.30-Jan-2020 3895.01 2980.56 72.48 2.00 274.45 2933.47
   21:11:07.656.30-Jan-2020 3895.01 2980.63 72.48 2.00 274.65 2933.47
   21:11:07.856.30-Jan-2020 3895.01 2980.69 72.48 2.00 274.85 2933.47
   21:11:08.056.30-Jan-2020 3895.01 2980.63 72.48 2.00 275.05 2933.47
   21:11:08.256.30-Jan-2020 3895.01 2980.63 72.48 2.00 275.25 2933.47
   21:11:08.456.30-Jan-2020 3895.01 2980.58 72.48 2.00 275.45 2933.47
   21:11:08.656.30-Jan-2020 3895.01 2980.72 72.47 2.00 275.65 2933.47
   21:11:08.857.30-Jan-2020 3895.01 2980.65 72.47 2.00 275.85 2933.47
