~Version Information
 VERS.                  2.0:   CWLS log ASCII Standard -VERSION 2.0
 WRAP.                   NO:   One line per depth step
~Well Information Block
#MNEM.UNIT     VALUE/NAME     DESCRIPTION
#---------     -----------    ---------------------------
 STRT.S             01:40:55 31-Jan-20: START TIME 01:40:55 31-Jan-20
 STOP.S             01:47:23 31-Jan-20: STOP TIME  01:47:23 31-Jan-20
 STEP.S                   0.00: STEP TIME
 NULL.                 -999.25: NULL VALUE
 DFWT.                        :  DIST FWL TEXT
 DFST.                        :  DIST FSL TEXT
 DMF .             Drill Floor:  DRILL MEAS FROM
 STIM.      09.30.00 26-Dec-19:  START TIME
 DATE.      08.00.00 20-Jan-20:  END TIME
 SPUD.               23-Nov-19:  SPUD DATE
 NREF.                    Grid:  NORTH REFERENCE
 HPTY.       Minimum Curvature:  HOLE POS TYPE
 DMOD.             Drill Model:  DRILL MOD DESC
 SVYD.                  Survey:  SURVEY DESC
 ILTD.               Lithology:  INTERP LTH DESC
 FTOP.          Formation Tops:  FORM TOPS DESC
 SON .        AZ-XX-0906192647:  JOB NUMBER
 WTYP.                Deviated:  WELL TYPE
 COMP.     BP Exploration (Caspian Sea) Ltd:  COMPANY
 BASE.              Azerbaijan:  LOGGING EQUIPMENT BASE LOCATION
 REGN.                 Eurasia:  REGION
 FLD .                     ACG:  FIELD NAME
 SRVC.              KCA Deutag:  CONTRACTOR
 MWDS.                    Baku:  MWD SHOP
 WELL.     A10 (Slot 20) - SCP:  WELL NAME
 JOBN.        AZ-XX-0906192647:  JOB TICKET NUMB
 RIG .                 Chirag1:  RIG NAME
 DCON.     Halliburton Sperry Drilling:  DIRECTNL CONTR
 UNIT.                     N/A:  LOGGING EQUIPMENT ID
 PDAT.          Mean Sea Level:  PERMANENT DATUM
 MDS .        Operator Entered:  MAG DATA SOURCE
 CTRY.              Azerbaijan:  COUNTRY NAME
 UWI .            /AZE00000090:  UNIQUE WELL IDENTIFIER
 API .            /AZE00000090:  API NUMBER
 CNTY.                        :  COUNTY
 PROV.                        :  PROVINCE
 STAT.                        :  STATE
 LOC .                        :  LOCATION
 LMF .             Drill Floor:  LOG MEASURED FROM
 TVDS.m                  36.60:  TVDSS CORRECTN
 LATI.deg                40.08:  LATITUDE
 LONG.deg                51.24:  LONGITUDE
 WHNS.m                  -7.94:  WELL HEAD N/S
 WHEW.m                   1.56:  WELL HEAD E/W
 UTMX.m              520429.26:  UTM X
 UTMY.m             4438973.87:  UTM Y
 DFWL.m                   0.00:  DISTANCE FWL
 DFSL.m                   0.00:  DISTANCE FSL
 SDEP.m                1455.00:  START DEPTH
 TDD .m                4047.51:  TOTAL DEPTH (DRILLER)
 VSDR.deg               112.75:  VERT SEC DIRECT
 GVFD.g                   1.00:  GRAVITY FIELD
 MFLD.nT              50261.00:  MAGNETIC FIELD
 MDIP.deg                59.52:  MAGNETIC DIP
 MDEC.deg                 6.42:  MAGNETIC DECL
 GRDC.deg                 0.17:  GRID CORRECTION
 AZTC.deg                 6.25:  AZM TOTAL CORR
 EPD .m                   0.00:  ELEVATION
 EGL .m                   0.00:  GROUND ELEVATION
 WDMS.m                 121.00:  WD ELEV
 APD .m                  36.60:  DEPTH ABOVE PD
 AGAP.m                  36.60:  AIR GAP
 VSEW.m                   1.56:  VERT SEC E/W
 VSNS.m                  -7.94:  VERT SEC N/S
 DEP .m                1140.01:  DEPTH
 EKB .m                  36.60:  KB ELEVATION
 EDF .m                  36.60:  DF ELEVATION
 TDL .m                 169.50:  TOTAL DEPTH (LOGGER)
 CSGD.m                3875.01:  CASING BOTTOM (DRILLER)
 CSGL.m                3875.01:  CASING BOTTOM (LOGGER)
 CSGS.in                  7.63:  CASING SIZE
 CSGW.lbpf               23.50:  CASING WEIGHT
 VSC .                       0:  VS TO CLOSURE
 MAGU.                 1849206:  MAGUTM CHECKSUM
~Parameter Information Block
#MNEM.UNIT       Value        Description
#---------     -----------    ---------------------------
 AV  .mps                 1.90:  Ann Velocity 
 AVMX.mps                 2.54:  Max Ann Veloc 
 AZIF.deg               137.03:  Azm, Final 
 BHAT.        Rotary Steerable:  BHA Type 
 BREV.rev             23610.00:  Rev Bit Total 
 BROT.°/30m               0.80:  Build Rotating 
 BS  .in                  6.50:  Bit Size 
 BTPL.psig              110.00:  Bit Press Loss 
 CABU.                     Yes:  Customer Abuse 
 COMM.                     šn:  Run Comments 1 
 TCS .hr                 70.51:  Time Ciculation Ended 
 CV  .mps                 1.41:  Crit Velocity 
 CVMX.mps                 1.42:  Max Crit Veloc 
 DD1 .         Intigam Rahimov:  Direct Drillr 1 
 DD2 .          Rashad Gojayev:  Direct Drillr 2 
 DDSV.               Geo-Pilot:  DD Service 
 DEFF.%                 100.00:  % Det Eff 
 DLRX.°/30m               1.44:  Dogleg Rot Max 
 DLSO.°/30m               0.00:  Dogleg Oriented 
 DLSX.°/30m               0.00:  Dogleg Str Max 
 DRET.      03.05.00 01-Feb-20:  Drill End Time 
 DRST.      15.50.00 28-Jan-20:  Drill Start Tim 
 DTIM.hr                 24.70:  Time Drilling 
 EDEP.m                4047.51:  End Depth 
 ENG1.           Eldar Hajiyev:  Engineer 1 
 ENG2.          Rasim Hashimov:  Engineer 2 
 ENG3.          Rustam Safarov:  Engineer 3 
 ETIM.      22.00.00 01-Feb-20:  End Time 
 FLOI.gpm               370.00:  Flow In 
 FLON.gpm               300.00:  Flow In Min 
 FLOS.cptm                0.00:  Fluid Loss 
 FLOX.gpm               400.00:  Flow In Max 
 FTRO.       Formation Presure:  FTWD Run Obj 
 HFLO.                      No:  High Flow 
 HPRE.                      No:  High Pressure 
 HTEM.                      No:  High Temp 
 HYDO.m                   2.50:  Hydro Offset 
 IFIN.deg                39.54:  Inc, Final 
 IMAX.deg                41.14:  Inc Max 
 IMIN.deg                39.81:  Inc Min 
 IMND.m                4005.21:  Inc Min Depth 
 IMXD.m                3948.42:  Inc Max Depth 
 JARR.                      No:  Jarring 
 LETM.      03.05.00 01-Feb-20:  Log End Time 
 LOST.hr                     0:  Lost Rig Time 
 LSTM.      15.50.00 28-Jan-20:  Log Start Time 
 MDCL.ppm             37500.00:  Mud Chlorides 
 MDES.     Inversion Oil/Synthetic:  Mud Desc 
 DFD .sg                  1.32:  Mud Density 
 MDMN.sg                  1.32:  Dens Mud Min 
 MDMX.sg                  1.32:  Dens Mud Max 
 MOIL.                      55:  Run Mud Oil % 
 MOWR.                   70:30:  Run Mud OWR 
 MSND.                       0:  Run Mud Sand % 
 MSOL.                      17:  Run Mud Solids% 
 DFV .spqt               80.00:  Mud Viscosity 
 MWOD.in                  4.75:  MWD Tool OD 
 MWSI.                      No:  Serv Intrp, MWD 
 OTIM.hr                121.28:  Time Operating 
 PCON.           Look Like New:  Pad Condition 
 PMAX.psia             6171.00:  Press Op, Max 
 PV  .cP                 30.00:  Mud PV 
 RUN .                     300:  Run Number 
 ROPA.m/hr                5.45:  ROP Avg 
 ROPN.m/hr                3.00:  ROP Min 
 ROPX.m/hr               15.00:  ROP Max 
 RPMA.rpm               130.00:  RPM Surface Avg 
 RPMN.rpm                80.00:  RPM Surface Min 
 RPMX.rpm               140.00:  RPM Surface Max 
 RRUN.                     300:  Rig Run Number 
 RTIM.hr                 13.50:  Time Reaming 
 SAZI.deg               133.93:  Azm, Start 
 SDEP.m                3878.01:  Start Depth 
 SIDD.                      No:  Serv Intrp, DD 
 SINC.deg                40.28:  Inc, Start 
 SPPA.psig             4983.00:  SPP Avg 
 SPPN.psig             4370.00:  SPP Min 
 SPPX.psig             5300.00:  SPP Max 
 STIM.      18.33.36 27-Jan-20:  Start Time 
 SVCS.                 DD, MWD:  Services 
 SVER.                    9.20:  Sperry Version 
 TDAT.m                 169.50:  Tot Depth Attmp 
 TDDF.                      No:  Trip for DD 
 TDLG.m                 169.50:  Tot Depth Loggd 
 TFF .                      No:  Trip for Fail 
 TQAA.f-kp               13.25:  Torque Abs Avg 
 TQAN.f-kp               12.00:  Torque Abs Min 
 TQAX.f-kp               14.00:  Torque Abs Max 
 TRRT.°/30m               0.70:  Turn Rotating 
 MRT .                     ADR:  Maximum Recorded Temperature 
 TTMX.degC               92.16:  Max Tool Temp 
 VS01.       AZ90598764G12V7D4:  Virtual Str1 SN 
 VS02.         AZ90571342R12C4:  Virtual Str2 SN 
 VS03.      AZ90580010N2L2X1C4:  Virtual Str3 SN 
 VS04.        AZ90522266O7X1C4:  Virtual Str4 SN 
 VS05.           AZ90598768F11:  Virtual Str5 SN 
 VS06.     AZ90580006XZ1W1X1C4:  Virtual Str6 SN 
 WBMN.klb                 8.00:  WOB Min 
 WITN.            Peter Wilson:  Customer Rep 
 WOBA.klb                 9.88:  WOB Avg 
 WOBX.klb                10.00:  WOB Max 
 YP  .lhf2               27.00:  Yield Point 
~Curve Information Block
#MNEM.UNIT                 API CODE     Curve Description
#---------               -----------    ---------------------------
 TIME.HHMMSS            00 000 000 000:  GT Time & Date
 GTDEPTH.m              00 000 000 000:  GT Depth
 GTPQH.psia             00 000 000 000:  GT HR Quartz Pressure
 GTTQ.degC              00 000 000 000:  GT Quartz Temperature
 GTTN.NONE              00 000 000 000:  GT Test Number
 GTET.sec               00 000 000 000:  GT Elapsed Test Time
 GTTVD.m                00 000 000 000:  GT True Vertical Depth
#Other Information
#
#WARRANTY: Halliburton will use its best efforts to furnish customers with 
#accurate information and interpretations that are part of, and incident to, the services 
#provided.  However, Halliburton cannot and does not warrant the accuracy 
#or correctness of such information and interpretations.  Under no circumstances should any 
#such information or interpretation be relied upon as the sole basis for any drilling, 
#completion, production, or financial decision or any procedure involving any risk to the 
#safety of any drilling venture, drilling rig or its crew or any other third party.  The 
#Customer has full responsibility for all drilling, completion and production operation.  
#Halliburton makes no representations or warranties, either expressed or 
#implied, including, but not limited to, the implied warranties of merchantability or fitness 
#for a particular purpose, with respect to the services rendered.  In no event will 
#Halliburton be liable for failure to obtain any particular results or for 
#any damages, including, but not limited to, indirect, special or consequential damages, 
#resulting from the use of any information or interpretation provided by Halliburton.
#
~A           TIME           GTDEPTH  GTPQH  GTTQ  GTTN  GTET   GTTVD  
# ...
   01:45:54.118.31-Jan-2020 3902.01 2983.78 75.95 3.00 299.05 2938.77
   01:45:54.318.31-Jan-2020 3902.01 2983.78 75.95 3.00 299.25 2938.77
   01:45:54.518.31-Jan-2020 3902.01 2983.76 75.95 3.00 299.45 2938.77
   01:45:54.718.31-Jan-2020 3902.01 2983.33 75.95 3.00 299.65 2938.77
   01:45:54.918.31-Jan-2020 3902.01 2983.81 75.95 3.00 299.85 2938.77
   01:45:55.118.31-Jan-2020 3902.01 2983.88 75.95 3.00 300.05 2938.77
   01:45:55.318.31-Jan-2020 3902.01 2983.88 75.95 3.00 300.25 2938.77
   01:45:55.518.31-Jan-2020 3902.01 2983.84 75.95 3.00 300.45 2938.77
   01:45:55.718.31-Jan-2020 3902.01 2983.39 75.95 3.00 300.65 2938.77
   01:45:55.918.31-Jan-2020 3902.01 2983.80 75.95 3.00 300.85 2938.77
   01:45:56.118.31-Jan-2020 3902.01 2983.86 75.95 3.00 301.05 2938.77
   01:45:56.318.31-Jan-2020 3902.01 2983.86 75.95 3.00 301.25 2938.77
   01:45:56.518.31-Jan-2020 3902.01 2983.76 75.95 3.00 301.45 2938.77
   01:45:56.718.31-Jan-2020 3902.01 2983.44 75.95 3.00 301.65 2938.77
   01:45:56.918.31-Jan-2020 3902.01 2983.81 75.95 3.00 301.85 2938.77
   01:45:57.118.31-Jan-2020 3902.01 2983.84 75.95 3.00 302.05 2938.77
   01:45:57.318.31-Jan-2020 3902.01 2983.84 75.95 3.00 302.25 2938.77
   01:45:57.518.31-Jan-2020 3902.01 2983.88 75.95 3.00 302.45 2938.77
   01:45:57.718.31-Jan-2020 3902.01 2983.84 75.95 3.00 302.65 2938.77
   01:45:57.918.31-Jan-2020 3902.01 2983.77 75.94 3.00 302.85 2938.77
   01:45:58.118.31-Jan-2020 3902.01 2983.68 75.94 3.00 303.05 2938.77
   01:45:58.318.31-Jan-2020 3902.01 2983.68 75.94 3.00 303.25 2938.77
   01:45:58.518.31-Jan-2020 3902.01 2983.78 75.94 3.00 303.46 2938.77
   01:45:58.718.31-Jan-2020 3902.01 2983.75 75.94 3.00 303.66 2938.77
   01:45:58.918.31-Jan-2020 3902.01 2983.71 75.94 3.00 303.86 2938.77
   01:45:59.118.31-Jan-2020 3902.01 2983.69 75.94 3.00 304.06 2938.77
   01:45:59.319.31-Jan-2020 3902.01 2983.69 75.94 3.00 304.26 2938.77
   01:45:59.519.31-Jan-2020 3902.01 2983.72 75.94 3.00 304.46 2938.77
   01:45:59.719.31-Jan-2020 3902.01 2983.76 75.94 3.00 304.66 2938.77
   01:45:59.919.31-Jan-2020 3902.01 2983.73 75.94 3.00 304.86 2938.77
   01:46:00.119.31-Jan-2020 3902.01 2983.68 75.94 3.00 305.06 2938.77
   01:46:00.319.31-Jan-2020 3902.01 2983.68 75.94 3.00 305.26 2938.77
   01:46:00.519.31-Jan-2020 3902.01 2983.40 75.94 3.00 305.46 2938.77
   01:46:00.719.31-Jan-2020 3902.01 2983.81 75.94 3.00 305.66 2938.77
   01:46:00.919.31-Jan-2020 3902.01 2983.78 75.94 3.00 305.86 2938.77
   01:46:01.119.31-Jan-2020 3902.01 2983.79 75.94 3.00 306.06 2938.77
   01:46:01.319.31-Jan-2020 3902.01 2983.79 75.94 3.00 306.26 2938.77
   01:46:01.519.31-Jan-2020 3902.01 2983.80 75.94 3.00 306.46 2938.77
   01:46:01.719.31-Jan-2020 3902.01 2983.74 75.94 3.00 306.66 2938.77
   01:46:01.919.31-Jan-2020 3902.01 2983.73 75.94 3.00 306.86 2938.77
   01:46:02.119.31-Jan-2020 3902.01 2983.70 75.94 3.00 307.06 2938.77
   01:46:02.319.31-Jan-2020 3902.01 2983.70 75.94 3.00 307.26 2938.77
   01:46:02.519.31-Jan-2020 3902.01 2983.72 75.94 3.00 307.46 2938.77
   01:46:02.719.31-Jan-2020 3902.01 2983.70 75.94 3.00 307.66 2938.77
   01:46:02.919.31-Jan-2020 3902.01 2983.71 75.94 3.00 307.86 2938.77
   01:46:03.119.31-Jan-2020 3902.01 2983.70 75.94 3.00 308.06 2938.77
   01:46:03.319.31-Jan-2020 3902.01 2983.70 75.94 3.00 308.26 2938.77
   01:46:03.519.31-Jan-2020 3902.01 2983.77 75.93 3.00 308.46 2938.77
   01:46:03.719.31-Jan-2020 3902.01 2983.40 75.93 3.00 308.66 2938.77
   01:46:03.919.31-Jan-2020 3902.01 2983.75 75.93 3.00 308.86 2938.77
   01:46:04.119.31-Jan-2020 3902.01 2983.77 75.93 3.00 309.06 2938.77
   01:46:04.319.31-Jan-2020 3902.01 2983.77 75.93 3.00 309.26 2938.77
   01:46:04.519.31-Jan-2020 3902.01 2983.75 75.93 3.00 309.46 2938.77
   01:46:04.720.31-Jan-2020 3902.01 2983.45 75.93 3.00 309.66 2938.77
   01:46:04.920.31-Jan-2020 3902.01 2983.85 75.93 3.00 309.86 2938.77
   01:46:05.120.31-Jan-2020 3902.01 2983.84 75.93 3.00 310.06 2938.77
   01:46:05.320.31-Jan-2020 3902.01 2983.84 75.93 3.00 310.26 2938.77
   01:46:05.520.31-Jan-2020 3902.01 2983.81 75.93 3.00 310.46 2938.77
   01:46:05.720.31-Jan-2020 3902.01 2983.76 75.93 3.00 310.66 2938.77
   01:46:05.920.31-Jan-2020 3902.01 2983.77 75.93 3.00 310.86 2938.77
   01:46:06.120.31-Jan-2020 3902.01 2983.64 75.93 3.00 311.06 2938.77
   01:46:06.320.31-Jan-2020 3902.01 2983.64 75.93 3.00 311.26 2938.77
   01:46:06.520.31-Jan-2020 3902.01 2983.81 75.93 3.00 311.46 2938.77
   01:46:06.720.31-Jan-2020 3902.01 2983.87 75.93 3.00 311.66 2938.77
   01:46:06.920.31-Jan-2020 3902.01 2983.82 75.93 3.00 311.86 2938.77
   01:46:07.120.31-Jan-2020 3902.01 2983.45 75.93 3.00 312.06 2938.77
   01:46:07.320.31-Jan-2020 3902.01 2983.45 75.93 3.00 312.26 2938.77
   01:46:07.520.31-Jan-2020 3902.01 2983.85 75.93 3.00 312.46 2938.77
   01:46:07.720.31-Jan-2020 3902.01 2983.88 75.93 3.00 312.66 2938.77
   01:46:07.920.31-Jan-2020 3902.01 2983.81 75.93 3.00 312.86 2938.77
   01:46:08.120.31-Jan-2020 3902.01 2983.83 75.93 3.00 313.06 2938.77
   01:46:08.320.31-Jan-2020 3902.01 2983.83 75.93 3.00 313.26 2938.77
   01:46:08.520.31-Jan-2020 3902.01 2983.90 75.92 3.00 313.46 2938.77
   01:46:08.720.31-Jan-2020 3902.01 2983.86 75.92 3.00 313.66 2938.77
   01:46:08.920.31-Jan-2020 3902.01 2983.87 75.92 3.00 313.86 2938.77
   01:46:09.120.31-Jan-2020 3902.01 2983.90 75.92 3.00 314.06 2938.77
   01:46:09.320.31-Jan-2020 3902.01 2983.90 75.92 3.00 314.26 2938.77
   01:46:09.520.31-Jan-2020 3902.01 2983.73 75.92 3.00 314.46 2938.77
   01:46:09.720.31-Jan-2020 3902.01 2983.74 75.92 3.00 314.66 2938.77
   01:46:09.920.31-Jan-2020 3902.01 2983.77 75.92 3.00 314.86 2938.77
   01:46:10.120.31-Jan-2020 3902.01 2983.81 75.92 3.00 315.06 2938.77
   01:46:10.321.31-Jan-2020 3902.01 2983.81 75.92 3.00 315.26 2938.77
   01:46:10.521.31-Jan-2020 3902.01 2983.77 75.92 3.00 315.46 2938.77
   01:46:10.721.31-Jan-2020 3902.01 2983.71 75.92 3.00 315.66 2938.77
   01:46:10.921.31-Jan-2020 3902.01 2983.72 75.92 3.00 315.86 2938.77
   01:46:11.121.31-Jan-2020 3902.01 2983.78 75.92 3.00 316.06 2938.77
   01:46:11.321.31-Jan-2020 3902.01 2983.78 75.92 3.00 316.26 2938.77
   01:46:11.521.31-Jan-2020 3902.01 2983.73 75.92 3.00 316.46 2938.77
   01:46:11.721.31-Jan-2020 3902.01 2983.72 75.92 3.00 316.66 2938.77
   01:46:11.921.31-Jan-2020 3902.01 2983.61 75.92 3.00 316.86 2938.77
   01:46:12.121.31-Jan-2020 3902.01 2983.60 75.92 3.00 317.06 2938.77
   01:46:12.321.31-Jan-2020 3902.01 2983.60 75.92 3.00 317.26 2938.77
   01:46:12.521.31-Jan-2020 3902.01 2983.81 75.92 3.00 317.46 2938.77
   01:46:12.721.31-Jan-2020 3902.01 2983.79 75.92 3.00 317.66 2938.77
   01:46:12.921.31-Jan-2020 3902.01 2983.81 75.92 3.00 317.86 2938.77
   01:46:13.121.31-Jan-2020 3902.01 2983.79 75.92 3.00 318.06 2938.77
   01:46:13.321.31-Jan-2020 3902.01 2983.79 75.92 3.00 318.26 2938.77
   01:46:13.521.31-Jan-2020 3902.01 2983.72 75.92 3.00 318.46 2938.77
   01:46:13.721.31-Jan-2020 3902.01 2983.73 75.92 3.00 318.66 2938.77
   01:46:13.921.31-Jan-2020 3902.01 2983.73 75.91 3.00 318.86 2938.77
   01:46:14.121.31-Jan-2020 3902.01 2983.73 75.91 3.00 319.06 2938.77
   01:46:14.321.31-Jan-2020 3902.01 2983.73 75.91 3.00 319.26 2938.77
   01:46:14.521.31-Jan-2020 3902.01 2983.71 75.91 3.00 319.46 2938.77
   01:46:14.721.31-Jan-2020 3902.01 2983.72 75.91 3.00 319.66 2938.77
   01:46:14.921.31-Jan-2020 3902.01 2983.81 75.91 3.00 319.86 2938.77
   01:46:15.121.31-Jan-2020 3902.01 2983.85 75.91 3.00 320.06 2938.77
   01:46:15.321.31-Jan-2020 3902.01 2983.85 75.91 3.00 320.26 2938.77
   01:46:15.521.31-Jan-2020 3902.01 2983.79 75.91 3.00 320.46 2938.77
   01:46:15.722.31-Jan-2020 3902.01 2983.80 75.91 3.00 320.66 2938.77
   01:46:15.922.31-Jan-2020 3902.01 2983.75 75.91 3.00 320.86 2938.77
   01:46:16.122.31-Jan-2020 3902.01 2983.89 75.91 3.00 321.06 2938.77
   01:46:16.322.31-Jan-2020 3902.01 2983.89 75.91 3.00 321.26 2938.77
   01:46:16.522.31-Jan-2020 3902.01 2983.88 75.91 3.00 321.46 2938.77
   01:46:16.722.31-Jan-2020 3902.01 2983.84 75.91 3.00 321.66 2938.77
   01:46:16.922.31-Jan-2020 3902.01 2983.83 75.91 3.00 321.86 2938.77
