~Version Information
 VERS.                  2.0:   CWLS log ASCII Standard -VERSION 2.0
 WRAP.                   NO:   One line per depth step
~Well Information Block
#MNEM.UNIT     VALUE/NAME     DESCRIPTION
#---------     -----------    ---------------------------
 STRT.S             04:12:25 01-Feb-20: START TIME 04:12:25 01-Feb-20
 STOP.S             04:20:20 01-Feb-20: STOP TIME  04:20:20 01-Feb-20
 STEP.S                   0.00: STEP TIME
 NULL.                 -999.25: NULL VALUE
 DFWT.                        :  DIST FWL TEXT
 DFST.                        :  DIST FSL TEXT
 DMF .             Drill Floor:  DRILL MEAS FROM
 STIM.      09.30.00 26-Dec-19:  START TIME
 DATE.      08.00.00 20-Jan-20:  END TIME
 SPUD.               23-Nov-19:  SPUD DATE
 NREF.                    Grid:  NORTH REFERENCE
 HPTY.       Minimum Curvature:  HOLE POS TYPE
 DMOD.             Drill Model:  DRILL MOD DESC
 SVYD.                  Survey:  SURVEY DESC
 ILTD.               Lithology:  INTERP LTH DESC
 FTOP.          Formation Tops:  FORM TOPS DESC
 SON .        AZ-XX-0906192647:  JOB NUMBER
 WTYP.                Deviated:  WELL TYPE
 COMP.     BP Exploration (Caspian Sea) Ltd:  COMPANY
 BASE.              Azerbaijan:  LOGGING EQUIPMENT BASE LOCATION
 REGN.                 Eurasia:  REGION
 FLD .                     ACG:  FIELD NAME
 SRVC.              KCA Deutag:  CONTRACTOR
 MWDS.                    Baku:  MWD SHOP
 WELL.     A10 (Slot 20) - SCP:  WELL NAME
 JOBN.        AZ-XX-0906192647:  JOB TICKET NUMB
 RIG .                 Chirag1:  RIG NAME
 DCON.     Halliburton Sperry Drilling:  DIRECTNL CONTR
 UNIT.                     N/A:  LOGGING EQUIPMENT ID
 PDAT.          Mean Sea Level:  PERMANENT DATUM
 MDS .        Operator Entered:  MAG DATA SOURCE
 CTRY.              Azerbaijan:  COUNTRY NAME
 UWI .            /AZE00000090:  UNIQUE WELL IDENTIFIER
 API .            /AZE00000090:  API NUMBER
 CNTY.                        :  COUNTY
 PROV.                        :  PROVINCE
 STAT.                        :  STATE
 LOC .                        :  LOCATION
 LMF .             Drill Floor:  LOG MEASURED FROM
 TVDS.m                  36.60:  TVDSS CORRECTN
 LATI.deg                40.08:  LATITUDE
 LONG.deg                51.24:  LONGITUDE
 WHNS.m                  -7.94:  WELL HEAD N/S
 WHEW.m                   1.56:  WELL HEAD E/W
 UTMX.m              520429.26:  UTM X
 UTMY.m             4438973.87:  UTM Y
 DFWL.m                   0.00:  DISTANCE FWL
 DFSL.m                   0.00:  DISTANCE FSL
 SDEP.m                1455.00:  START DEPTH
 TDD .m                4047.51:  TOTAL DEPTH (DRILLER)
 VSDR.deg               112.75:  VERT SEC DIRECT
 GVFD.g                   1.00:  GRAVITY FIELD
 MFLD.nT              50261.00:  MAGNETIC FIELD
 MDIP.deg                59.52:  MAGNETIC DIP
 MDEC.deg                 6.42:  MAGNETIC DECL
 GRDC.deg                 0.17:  GRID CORRECTION
 AZTC.deg                 6.25:  AZM TOTAL CORR
 EPD .m                   0.00:  ELEVATION
 EGL .m                   0.00:  GROUND ELEVATION
 WDMS.m                 121.00:  WD ELEV
 APD .m                  36.60:  DEPTH ABOVE PD
 AGAP.m                  36.60:  AIR GAP
 VSEW.m                   1.56:  VERT SEC E/W
 VSNS.m                  -7.94:  VERT SEC N/S
 DEP .m                1140.01:  DEPTH
 EKB .m                  36.60:  KB ELEVATION
 EDF .m                  36.60:  DF ELEVATION
 TDL .m                 169.50:  TOTAL DEPTH (LOGGER)
 CSGD.m                3875.01:  CASING BOTTOM (DRILLER)
 CSGL.m                3875.01:  CASING BOTTOM (LOGGER)
 CSGS.in                  7.63:  CASING SIZE
 CSGW.lbpf               23.50:  CASING WEIGHT
 VSC .                       0:  VS TO CLOSURE
 MAGU.                 1849206:  MAGUTM CHECKSUM
~Parameter Information Block
#MNEM.UNIT       Value        Description
#---------     -----------    ---------------------------
 AV  .mps                 1.90:  Ann Velocity 
 AVMX.mps                 2.54:  Max Ann Veloc 
 AZIF.deg               137.03:  Azm, Final 
 BHAT.        Rotary Steerable:  BHA Type 
 BREV.rev             23610.00:  Rev Bit Total 
 BROT.°/30m               0.80:  Build Rotating 
 BS  .in                  6.50:  Bit Size 
 BTPL.psig              110.00:  Bit Press Loss 
 CABU.                     Yes:  Customer Abuse 
 TCS .hr                 70.51:  Time Ciculation Ended 
 CV  .mps                 1.41:  Crit Velocity 
 CVMX.mps                 1.42:  Max Crit Veloc 
 DD1 .         Intigam Rahimov:  Direct Drillr 1 
 DD2 .          Rashad Gojayev:  Direct Drillr 2 
 DDSV.               Geo-Pilot:  DD Service 
 DEFF.%                 100.00:  % Det Eff 
 DLRX.°/30m               1.44:  Dogleg Rot Max 
 DLSO.°/30m               0.00:  Dogleg Oriented 
 DLSX.°/30m               0.00:  Dogleg Str Max 
 DRET.      03.05.00 01-Feb-20:  Drill End Time 
 DRST.      15.50.00 28-Jan-20:  Drill Start Tim 
 DTIM.hr                 24.70:  Time Drilling 
 EDEP.m                4047.51:  End Depth 
 ENG1.           Eldar Hajiyev:  Engineer 1 
 ENG2.          Rasim Hashimov:  Engineer 2 
 ENG3.          Rustam Safarov:  Engineer 3 
 ETIM.      22.00.00 01-Feb-20:  End Time 
 FLOI.gpm               370.00:  Flow In 
 FLON.gpm               300.00:  Flow In Min 
 FLOS.cptm                0.00:  Fluid Loss 
 FLOX.gpm               400.00:  Flow In Max 
 FTRO.       Formation Presure:  FTWD Run Obj 
 HFLO.                      No:  High Flow 
 HPRE.                      No:  High Pressure 
 HTEM.                      No:  High Temp 
 HYDO.m                   2.50:  Hydro Offset 
 IFIN.deg                39.54:  Inc, Final 
 IMAX.deg                41.14:  Inc Max 
 IMIN.deg                39.81:  Inc Min 
 IMND.m                4005.21:  Inc Min Depth 
 IMXD.m                3948.42:  Inc Max Depth 
 JARR.                      No:  Jarring 
 LETM.      03.05.00 01-Feb-20:  Log End Time 
 LOST.hr                     0:  Lost Rig Time 
 LSTM.      15.50.00 28-Jan-20:  Log Start Time 
 MDCL.ppm             37500.00:  Mud Chlorides 
 MDES.     Inversion Oil/Synthetic:  Mud Desc 
 DFD .sg                  1.32:  Mud Density 
 MDMN.sg                  1.32:  Dens Mud Min 
 MDMX.sg                  1.32:  Dens Mud Max 
 MOIL.                      55:  Run Mud Oil % 
 MOWR.                   70:30:  Run Mud OWR 
 MSND.                       0:  Run Mud Sand % 
 MSOL.                      17:  Run Mud Solids% 
 DFV .spqt               80.00:  Mud Viscosity 
 MWOD.in                  4.75:  MWD Tool OD 
 MWSI.                      No:  Serv Intrp, MWD 
 OTIM.hr                121.28:  Time Operating 
 PCON.           Look Like New:  Pad Condition 
 PMAX.psia             6171.00:  Press Op, Max 
 PV  .cP                 30.00:  Mud PV 
 RUN .                     300:  Run Number 
 ROPA.m/hr                5.45:  ROP Avg 
 ROPN.m/hr                3.00:  ROP Min 
 ROPX.m/hr               15.00:  ROP Max 
 RPMA.rpm               130.00:  RPM Surface Avg 
 RPMN.rpm                80.00:  RPM Surface Min 
 RPMX.rpm               140.00:  RPM Surface Max 
 RRUN.                     300:  Rig Run Number 
 RTIM.hr                 13.50:  Time Reaming 
 SAZI.deg               133.93:  Azm, Start 
 SDEP.m                3878.01:  Start Depth 
 SIDD.                      No:  Serv Intrp, DD 
 SINC.deg                40.28:  Inc, Start 
 SPPA.psig             4983.00:  SPP Avg 
 SPPN.psig             4370.00:  SPP Min 
 SPPX.psig             5300.00:  SPP Max 
 STIM.      18.33.36 27-Jan-20:  Start Time 
 SVCS.                 DD, MWD:  Services 
 SVER.                    9.20:  Sperry Version 
 TDAT.m                 169.50:  Tot Depth Attmp 
 TDDF.                      No:  Trip for DD 
 TDLG.m                 169.50:  Tot Depth Loggd 
 TFF .                      No:  Trip for Fail 
 TQAA.f-kp               13.25:  Torque Abs Avg 
 TQAN.f-kp               12.00:  Torque Abs Min 
 TQAX.f-kp               14.00:  Torque Abs Max 
 TRRT.°/30m               0.70:  Turn Rotating 
 MRT .                     ADR:  Maximum Recorded Temperature 
 TTMX.degC               92.16:  Max Tool Temp 
 VS01.       AZ90598764G12V7D4:  Virtual Str1 SN 
 VS02.         AZ90571342R12C4:  Virtual Str2 SN 
 VS03.      AZ90580010N2L2X1C4:  Virtual Str3 SN 
 VS04.        AZ90522266O7X1C4:  Virtual Str4 SN 
 VS05.           AZ90598768F11:  Virtual Str5 SN 
 VS06.     AZ90580006XZ1W1X1C4:  Virtual Str6 SN 
 WBMN.klb                 8.00:  WOB Min 
 WITN.            Peter Wilson:  Customer Rep 
 WOBA.klb                 9.88:  WOB Avg 
 WOBX.klb                10.00:  WOB Max 
 YP  .lhf2               27.00:  Yield Point 
~Curve Information Block
#MNEM.UNIT                 API CODE     Curve Description
#---------               -----------    ---------------------------
 TIME.HHMMSS            00 000 000 000:  GT Time & Date
 GTDEPTH.m              00 000 000 000:  GT Depth
 GTPQH.psia             00 000 000 000:  GT HR Quartz Pressure
 GTTQ.degC              00 000 000 000:  GT Quartz Temperature
 GTTN.NONE              00 000 000 000:  GT Test Number
 GTET.sec               00 000 000 000:  GT Elapsed Test Time
 GTTVD.m                00 000 000 000:  GT True Vertical Depth
#Other Information
#
#WARRANTY: Halliburton will use its best efforts to furnish customers with 
#accurate information and interpretations that are part of, and incident to, the services 
#provided.  However, Halliburton cannot and does not warrant the accuracy 
#or correctness of such information and interpretations.  Under no circumstances should any 
#such information or interpretation be relied upon as the sole basis for any drilling, 
#completion, production, or financial decision or any procedure involving any risk to the 
#safety of any drilling venture, drilling rig or its crew or any other third party.  The 
#Customer has full responsibility for all drilling, completion and production operation.  
#Halliburton makes no representations or warranties, either expressed or 
#implied, including, but not limited to, the implied warranties of merchantability or fitness 
#for a particular purpose, with respect to the services rendered.  In no event will 
#Halliburton be liable for failure to obtain any particular results or for 
#any damages, including, but not limited to, indirect, special or consequential damages, 
#resulting from the use of any information or interpretation provided by Halliburton.
#
~A           TIME           GTDEPTH  GTPQH  GTTQ  GTTN   GTET   GTTVD  
# ...
   04:13:33.469.01-Feb-2020 3998.51 3149.21 85.50 12.00  68.04 3011.77
   04:13:33.670.01-Feb-2020 3998.51 3149.20 85.50 12.00  68.24 3011.77
   04:13:33.870.01-Feb-2020 3998.51 3149.20 85.50 12.00  68.44 3011.77
   04:13:34.071.01-Feb-2020 3998.51 3149.32 85.50 12.00  68.64 3011.77
   04:13:34.272.01-Feb-2020 3998.51 3149.29 85.50 12.00  68.84 3011.77
   04:13:34.472.01-Feb-2020 3998.51 3149.25 85.50 12.00  69.04 3011.77
   04:13:34.673.01-Feb-2020 3998.51 3149.26 85.50 12.00  69.24 3011.77
   04:13:34.874.01-Feb-2020 3998.51 3149.26 85.50 12.00  69.44 3011.77
   04:13:35.075.01-Feb-2020 3998.51 3149.25 85.50 12.00  69.64 3011.77
   04:13:35.275.01-Feb-2020 3998.51 3149.29 85.50 12.00  69.84 3011.77
   04:13:35.476.01-Feb-2020 3998.51 3149.30 85.50 12.00  70.04 3011.77
   04:13:35.677.01-Feb-2020 3998.51 3149.28 85.50 12.00  70.25 3011.77
   04:13:35.877.01-Feb-2020 3998.51 3149.28 85.50 12.00  70.45 3011.77
   04:13:36.078.01-Feb-2020 3998.51 3149.26 85.49 12.00  70.65 3011.77
   04:13:36.279.01-Feb-2020 3998.51 3149.28 85.49 12.00  70.85 3011.77
   04:13:36.480.01-Feb-2020 3998.51 3149.35 85.49 12.00  71.05 3011.77
   04:13:36.680.01-Feb-2020 3998.51 3149.30 85.49 12.00  71.25 3011.77
   04:13:36.881.01-Feb-2020 3998.51 3149.30 85.49 12.00  71.45 3011.77
   04:13:37.082.01-Feb-2020 3998.51 3149.52 85.49 12.00  71.65 3011.77
   04:13:37.282.01-Feb-2020 3998.51 3149.25 85.49 12.00  71.85 3011.77
   04:13:37.483.01-Feb-2020 3998.51 3149.36 85.49 12.00  72.05 3011.77
   04:13:37.684.01-Feb-2020 3998.51 3149.28 85.49 12.00  72.25 3011.77
   04:13:37.884.01-Feb-2020 3998.51 3149.28 85.49 12.00  72.45 3011.77
   04:13:38.085.01-Feb-2020 3998.51 3149.50 85.49 12.00  72.65 3011.77
   04:13:38.286.01-Feb-2020 3998.51 3149.24 85.49 12.00  72.85 3011.77
   04:13:38.487.01-Feb-2020 3998.51 3149.30 85.49 12.00  73.06 3011.77
   04:13:38.687.01-Feb-2020 3998.51 3149.34 85.49 12.00  73.26 3011.77
   04:13:38.888.01-Feb-2020 3998.51 3149.34 85.49 12.00  73.46 3011.77
   04:13:39.089.01-Feb-2020 3998.51 3149.19 85.49 12.00  73.66 3011.77
   04:13:39.289.01-Feb-2020 3998.51 3149.39 85.48 12.00  73.86 3011.77
   04:13:39.490.01-Feb-2020 3998.51 3149.24 85.48 12.00  74.06 3011.77
   04:13:39.691.01-Feb-2020 3998.51 3149.35 85.48 12.00  74.26 3011.77
   04:13:39.891.01-Feb-2020 3998.51 3149.35 85.48 12.00  74.46 3011.77
   04:13:40.092.01-Feb-2020 3998.51 3149.08 85.48 12.00  74.66 3011.77
   04:13:40.293.01-Feb-2020 3998.51 3149.54 85.48 12.00  74.86 3011.77
   04:13:40.494.01-Feb-2020 3998.51 3149.17 85.48 12.00  75.06 3011.77
   04:13:40.694.01-Feb-2020 3998.51 3149.33 85.48 12.00  75.26 3011.77
   04:13:40.895.01-Feb-2020 3998.51 3149.33 85.48 12.00  75.46 3011.77
   04:13:41.096.01-Feb-2020 3998.51 3149.28 85.48 12.00  75.66 3011.77
   04:13:41.296.01-Feb-2020 3998.51 3149.31 85.48 12.00  75.87 3011.77
   04:13:41.497.01-Feb-2020 3998.51 3149.21 85.48 12.00  76.07 3011.77
   04:13:41.698.01-Feb-2020 3998.51 3149.19 85.48 12.00  76.27 3011.77
   04:13:41.898.01-Feb-2020 3998.51 3149.19 85.48 12.00  76.47 3011.77
   04:13:42.099.01-Feb-2020 3998.51 3149.30 85.47 12.00  76.67 3011.77
   04:13:42.300.01-Feb-2020 3998.51 3149.35 85.47 12.00  76.87 3011.77
   04:13:42.501.01-Feb-2020 3998.51 3149.36 85.47 12.00  77.07 3011.77
   04:13:42.701.01-Feb-2020 3998.51 3149.29 85.47 12.00  77.27 3011.77
   04:13:42.902.01-Feb-2020 3998.51 3149.29 85.47 12.00  77.47 3011.77
   04:13:43.103.01-Feb-2020 3998.51 3149.37 85.47 12.00  77.67 3011.77
   04:13:43.303.01-Feb-2020 3998.51 3149.32 85.47 12.00  77.87 3011.77
   04:13:43.504.01-Feb-2020 3998.51 3149.35 85.47 12.00  78.07 3011.77
   04:13:43.705.01-Feb-2020 3998.51 3149.35 85.47 12.00  78.27 3011.77
   04:13:43.905.01-Feb-2020 3998.51 3149.35 85.47 12.00  78.47 3011.77
   04:13:44.106.01-Feb-2020 3998.51 3149.33 85.47 12.00  78.68 3011.77
   04:13:44.307.01-Feb-2020 3998.51 3149.33 85.47 12.00  78.88 3011.77
   04:13:44.508.01-Feb-2020 3998.51 3149.36 85.47 12.00  79.08 3011.77
   04:13:44.708.01-Feb-2020 3998.51 3149.35 85.47 12.00  79.28 3011.77
   04:13:44.909.01-Feb-2020 3998.51 3149.35 85.47 12.00  79.48 3011.77
   04:13:45.110.01-Feb-2020 3998.51 3149.04 85.47 12.00  79.68 3011.77
   04:13:45.310.01-Feb-2020 3998.51 3149.51 85.46 12.00  79.88 3011.77
   04:13:45.511.01-Feb-2020 3998.51 3149.33 85.46 12.00  80.08 3011.77
   04:13:45.712.01-Feb-2020 3998.51 3149.38 85.46 12.00  80.28 3011.77
   04:13:45.912.01-Feb-2020 3998.51 3149.38 85.46 12.00  80.48 3011.77
   04:13:46.113.01-Feb-2020 3998.51 3149.35 85.46 12.00  80.68 3011.77
   04:13:46.314.01-Feb-2020 3998.51 3149.36 85.46 12.00  80.88 3011.77
   04:13:46.515.01-Feb-2020 3998.51 3149.40 85.46 12.00  81.08 3011.77
   04:13:46.715.01-Feb-2020 3998.51 3149.37 85.46 12.00  81.28 3011.77
   04:13:46.916.01-Feb-2020 3998.51 3149.37 85.46 12.00  81.48 3011.77
   04:13:47.117.01-Feb-2020 3998.51 3149.36 85.46 12.00  81.69 3011.77
   04:13:47.317.01-Feb-2020 3998.51 3149.37 85.46 12.00  81.89 3011.77
   04:13:47.518.01-Feb-2020 3998.51 3149.39 85.46 12.00  82.09 3011.77
   04:13:47.719.01-Feb-2020 3998.51 3149.36 85.46 12.00  82.29 3011.77
   04:13:47.920.01-Feb-2020 3998.51 3149.36 85.46 12.00  82.49 3011.77
   04:13:48.120.01-Feb-2020 3998.51 3149.41 85.46 12.00  82.69 3011.77
   04:13:48.321.01-Feb-2020 3998.51 3149.36 85.46 12.00  82.89 3011.77
   04:13:48.522.01-Feb-2020 3998.51 3149.26 85.45 12.00  83.09 3011.77
   04:13:48.722.01-Feb-2020 3998.51 3149.35 85.45 12.00  83.29 3011.77
   04:13:48.923.01-Feb-2020 3998.51 3149.35 85.45 12.00  83.49 3011.77
   04:13:49.124.01-Feb-2020 3998.51 3149.33 85.45 12.00  83.69 3011.77
   04:13:49.324.01-Feb-2020 3998.51 3149.39 85.45 12.00  83.89 3011.77
   04:13:49.525.01-Feb-2020 3998.51 3149.27 85.45 12.00  84.09 3011.77
   04:13:49.726.01-Feb-2020 3998.51 3149.28 85.45 12.00  84.29 3011.77
   04:13:49.927.01-Feb-2020 3998.51 3149.28 85.45 12.00  84.50 3011.77
   04:13:50.127.01-Feb-2020 3998.51 3149.36 85.45 12.00  84.70 3011.77
   04:13:50.328.01-Feb-2020 3998.51 3149.13 85.45 12.00  84.90 3011.77
   04:13:50.529.01-Feb-2020 3998.51 3149.54 85.45 12.00  85.10 3011.77
   04:13:50.729.01-Feb-2020 3998.51 3149.34 85.45 12.00  85.30 3011.77
   04:13:50.930.01-Feb-2020 3998.51 3149.34 85.45 12.00  85.50 3011.77
   04:13:51.131.01-Feb-2020 3998.51 3149.32 85.45 12.00  85.70 3011.77
   04:13:51.331.01-Feb-2020 3998.51 3149.36 85.45 12.00  85.90 3011.77
   04:13:51.532.01-Feb-2020 3998.51 3149.51 85.44 12.00  86.10 3011.77
   04:13:51.733.01-Feb-2020 3998.51 3149.15 85.44 12.00  86.30 3011.77
   04:13:51.934.01-Feb-2020 3998.51 3149.15 85.44 12.00  86.50 3011.77
   04:13:52.134.01-Feb-2020 3998.51 3149.46 85.44 12.00  86.70 3011.77
   04:13:52.335.01-Feb-2020 3998.51 3149.30 85.44 12.00  86.90 3011.77
   04:13:52.536.01-Feb-2020 3998.51 3149.43 85.44 12.00  87.10 3011.77
   04:13:52.736.01-Feb-2020 3998.51 3149.36 85.44 12.00  87.31 3011.77
   04:13:52.937.01-Feb-2020 3998.51 3149.36 85.44 12.00  87.51 3011.77
   04:13:53.138.01-Feb-2020 3998.51 3149.58 85.44 12.00  87.71 3011.77
   04:13:53.338.01-Feb-2020 3998.51 3149.37 85.44 12.00  87.91 3011.77
   04:13:53.539.01-Feb-2020 3998.51 3149.41 85.44 12.00  88.11 3011.77
   04:13:53.740.01-Feb-2020 3998.51 3149.48 85.44 12.00  88.31 3011.77
   04:13:53.941.01-Feb-2020 3998.51 3149.48 85.44 12.00  88.51 3011.77
   04:13:54.141.01-Feb-2020 3998.51 3149.41 85.44 12.00  88.71 3011.77
   04:13:54.342.01-Feb-2020 3998.51 3149.40 85.44 12.00  88.91 3011.77
   04:13:54.543.01-Feb-2020 3998.51 3149.33 85.44 12.00  89.11 3011.77
   04:13:54.743.01-Feb-2020 3998.51 3149.42 85.44 12.00  89.31 3011.77
   04:13:54.944.01-Feb-2020 3998.51 3149.42 85.44 12.00  89.51 3011.77
   04:13:55.145.01-Feb-2020 3998.51 3149.38 85.43 12.00  89.71 3011.77
   04:13:55.345.01-Feb-2020 3998.51 3149.44 85.43 12.00  89.91 3011.77
   04:13:55.546.01-Feb-2020 3998.51 3149.33 85.43 12.00  90.12 3011.77
   04:13:55.747.01-Feb-2020 3998.51 3149.33 85.43 12.00  90.32 3011.77
   04:13:55.948.01-Feb-2020 3998.51 3149.33 85.43 12.00  90.52 3011.77
