~Version Information
 VERS.                  2.0:   CWLS log ASCII Standard -VERSION 2.0
 WRAP.                   NO:   One line per depth step
~Well Information Block
#MNEM.UNIT     VALUE/NAME     DESCRIPTION
#---------     -----------    ---------------------------
 STRT.S             14:09:29 31-Jan-20: START TIME 14:09:29 31-Jan-20
 STOP.S             14:15:59 31-Jan-20: STOP TIME  14:15:59 31-Jan-20
 STEP.S                   0.00: STEP TIME
 NULL.                 -999.25: NULL VALUE
 DFWT.                        :  DIST FWL TEXT
 DFST.                        :  DIST FSL TEXT
 DMF .             Drill Floor:  DRILL MEAS FROM
 STIM.      09.30.00 26-Dec-19:  START TIME
 DATE.      08.00.00 20-Jan-20:  END TIME
 SPUD.               23-Nov-19:  SPUD DATE
 NREF.                    Grid:  NORTH REFERENCE
 HPTY.       Minimum Curvature:  HOLE POS TYPE
 DMOD.             Drill Model:  DRILL MOD DESC
 SVYD.                  Survey:  SURVEY DESC
 ILTD.               Lithology:  INTERP LTH DESC
 FTOP.          Formation Tops:  FORM TOPS DESC
 SON .        AZ-XX-0906192647:  JOB NUMBER
 WTYP.                Deviated:  WELL TYPE
 COMP.     BP Exploration (Caspian Sea) Ltd:  COMPANY
 BASE.              Azerbaijan:  LOGGING EQUIPMENT BASE LOCATION
 REGN.                 Eurasia:  REGION
 FLD .                     ACG:  FIELD NAME
 SRVC.              KCA Deutag:  CONTRACTOR
 MWDS.                    Baku:  MWD SHOP
 WELL.     A10 (Slot 20) - SCP:  WELL NAME
 JOBN.        AZ-XX-0906192647:  JOB TICKET NUMB
 RIG .                 Chirag1:  RIG NAME
 DCON.     Halliburton Sperry Drilling:  DIRECTNL CONTR
 UNIT.                     N/A:  LOGGING EQUIPMENT ID
 PDAT.          Mean Sea Level:  PERMANENT DATUM
 MDS .        Operator Entered:  MAG DATA SOURCE
 CTRY.              Azerbaijan:  COUNTRY NAME
 UWI .            /AZE00000090:  UNIQUE WELL IDENTIFIER
 API .            /AZE00000090:  API NUMBER
 CNTY.                        :  COUNTY
 PROV.                        :  PROVINCE
 STAT.                        :  STATE
 LOC .                        :  LOCATION
 LMF .             Drill Floor:  LOG MEASURED FROM
 TVDS.m                  36.60:  TVDSS CORRECTN
 LATI.deg                40.08:  LATITUDE
 LONG.deg                51.24:  LONGITUDE
 WHNS.m                  -7.94:  WELL HEAD N/S
 WHEW.m                   1.56:  WELL HEAD E/W
 UTMX.m              520429.26:  UTM X
 UTMY.m             4438973.87:  UTM Y
 DFWL.m                   0.00:  DISTANCE FWL
 DFSL.m                   0.00:  DISTANCE FSL
 SDEP.m                1455.00:  START DEPTH
 TDD .m                4047.51:  TOTAL DEPTH (DRILLER)
 VSDR.deg               112.75:  VERT SEC DIRECT
 GVFD.g                   1.00:  GRAVITY FIELD
 MFLD.nT              50261.00:  MAGNETIC FIELD
 MDIP.deg                59.52:  MAGNETIC DIP
 MDEC.deg                 6.42:  MAGNETIC DECL
 GRDC.deg                 0.17:  GRID CORRECTION
 AZTC.deg                 6.25:  AZM TOTAL CORR
 EPD .m                   0.00:  ELEVATION
 EGL .m                   0.00:  GROUND ELEVATION
 WDMS.m                 121.00:  WD ELEV
 APD .m                  36.60:  DEPTH ABOVE PD
 AGAP.m                  36.60:  AIR GAP
 VSEW.m                   1.56:  VERT SEC E/W
 VSNS.m                  -7.94:  VERT SEC N/S
 DEP .m                1140.01:  DEPTH
 EKB .m                  36.60:  KB ELEVATION
 EDF .m                  36.60:  DF ELEVATION
 TDL .m                 169.50:  TOTAL DEPTH (LOGGER)
 CSGD.m                3875.01:  CASING BOTTOM (DRILLER)
 CSGL.m                3875.01:  CASING BOTTOM (LOGGER)
 CSGS.in                  7.63:  CASING SIZE
 CSGW.lbpf               23.50:  CASING WEIGHT
 VSC .                       0:  VS TO CLOSURE
 MAGU.                 1849206:  MAGUTM CHECKSUM
~Parameter Information Block
#MNEM.UNIT       Value        Description
#---------     -----------    ---------------------------
 AV  .mps                 1.90:  Ann Velocity 
 AVMX.mps                 2.54:  Max Ann Veloc 
 AZIF.deg               137.03:  Azm, Final 
 BHAT.        Rotary Steerable:  BHA Type 
 BREV.rev             23610.00:  Rev Bit Total 
 BROT.°/30m               0.80:  Build Rotating 
 BS  .in                  6.50:  Bit Size 
 BTPL.psig              110.00:  Bit Press Loss 
 CABU.                     Yes:  Customer Abuse 
 COMM.                     ÇV:  Run Comments 1 
 TCS .hr                 70.51:  Time Ciculation Ended 
 CV  .mps                 1.41:  Crit Velocity 
 CVMX.mps                 1.42:  Max Crit Veloc 
 DD1 .         Intigam Rahimov:  Direct Drillr 1 
 DD2 .          Rashad Gojayev:  Direct Drillr 2 
 DDSV.               Geo-Pilot:  DD Service 
 DEFF.%                 100.00:  % Det Eff 
 DLRX.°/30m               1.44:  Dogleg Rot Max 
 DLSO.°/30m               0.00:  Dogleg Oriented 
 DLSX.°/30m               0.00:  Dogleg Str Max 
 DRET.      03.05.00 01-Feb-20:  Drill End Time 
 DRST.      15.50.00 28-Jan-20:  Drill Start Tim 
 DTIM.hr                 24.70:  Time Drilling 
 EDEP.m                4047.51:  End Depth 
 ENG1.           Eldar Hajiyev:  Engineer 1 
 ENG2.          Rasim Hashimov:  Engineer 2 
 ENG3.          Rustam Safarov:  Engineer 3 
 ETIM.      22.00.00 01-Feb-20:  End Time 
 FLOI.gpm               370.00:  Flow In 
 FLON.gpm               300.00:  Flow In Min 
 FLOS.cptm                0.00:  Fluid Loss 
 FLOX.gpm               400.00:  Flow In Max 
 FTRO.       Formation Presure:  FTWD Run Obj 
 HFLO.                      No:  High Flow 
 HPRE.                      No:  High Pressure 
 HTEM.                      No:  High Temp 
 HYDO.m                   2.50:  Hydro Offset 
 IFIN.deg                39.54:  Inc, Final 
 IMAX.deg                41.14:  Inc Max 
 IMIN.deg                39.81:  Inc Min 
 IMND.m                4005.21:  Inc Min Depth 
 IMXD.m                3948.42:  Inc Max Depth 
 JARR.                      No:  Jarring 
 LETM.      03.05.00 01-Feb-20:  Log End Time 
 LOST.hr                     0:  Lost Rig Time 
 LSTM.      15.50.00 28-Jan-20:  Log Start Time 
 MDCL.ppm             37500.00:  Mud Chlorides 
 MDES.     Inversion Oil/Synthetic:  Mud Desc 
 DFD .sg                  1.32:  Mud Density 
 MDMN.sg                  1.32:  Dens Mud Min 
 MDMX.sg                  1.32:  Dens Mud Max 
 MOIL.                      55:  Run Mud Oil % 
 MOWR.                   70:30:  Run Mud OWR 
 MSND.                       0:  Run Mud Sand % 
 MSOL.                      17:  Run Mud Solids% 
 DFV .spqt               80.00:  Mud Viscosity 
 MWOD.in                  4.75:  MWD Tool OD 
 MWSI.                      No:  Serv Intrp, MWD 
 OTIM.hr                121.28:  Time Operating 
 PCON.           Look Like New:  Pad Condition 
 PMAX.psia             6171.00:  Press Op, Max 
 PV  .cP                 30.00:  Mud PV 
 RUN .                     300:  Run Number 
 ROPA.m/hr                5.45:  ROP Avg 
 ROPN.m/hr                3.00:  ROP Min 
 ROPX.m/hr               15.00:  ROP Max 
 RPMA.rpm               130.00:  RPM Surface Avg 
 RPMN.rpm                80.00:  RPM Surface Min 
 RPMX.rpm               140.00:  RPM Surface Max 
 RRUN.                     300:  Rig Run Number 
 RTIM.hr                 13.50:  Time Reaming 
 SAZI.deg               133.93:  Azm, Start 
 SDEP.m                3878.01:  Start Depth 
 SIDD.                      No:  Serv Intrp, DD 
 SINC.deg                40.28:  Inc, Start 
 SPPA.psig             4983.00:  SPP Avg 
 SPPN.psig             4370.00:  SPP Min 
 SPPX.psig             5300.00:  SPP Max 
 STIM.      18.33.36 27-Jan-20:  Start Time 
 SVCS.                 DD, MWD:  Services 
 SVER.                    9.20:  Sperry Version 
 TDAT.m                 169.50:  Tot Depth Attmp 
 TDDF.                      No:  Trip for DD 
 TDLG.m                 169.50:  Tot Depth Loggd 
 TFF .                      No:  Trip for Fail 
 TQAA.f-kp               13.25:  Torque Abs Avg 
 TQAN.f-kp               12.00:  Torque Abs Min 
 TQAX.f-kp               14.00:  Torque Abs Max 
 TRRT.°/30m               0.70:  Turn Rotating 
 MRT .                     ADR:  Maximum Recorded Temperature 
 TTMX.degC               92.16:  Max Tool Temp 
 VS01.       AZ90598764G12V7D4:  Virtual Str1 SN 
 VS02.         AZ90571342R12C4:  Virtual Str2 SN 
 VS03.      AZ90580010N2L2X1C4:  Virtual Str3 SN 
 VS04.        AZ90522266O7X1C4:  Virtual Str4 SN 
 VS05.           AZ90598768F11:  Virtual Str5 SN 
 VS06.     AZ90580006XZ1W1X1C4:  Virtual Str6 SN 
 WBMN.klb                 8.00:  WOB Min 
 WITN.            Peter Wilson:  Customer Rep 
 WOBA.klb                 9.88:  WOB Avg 
 WOBX.klb                10.00:  WOB Max 
 YP  .lhf2               27.00:  Yield Point 
~Curve Information Block
#MNEM.UNIT                 API CODE     Curve Description
#---------               -----------    ---------------------------
 TIME.HHMMSS            00 000 000 000:  GT Time & Date
 GTDEPTH.m              00 000 000 000:  GT Depth
 GTPQH.psia             00 000 000 000:  GT HR Quartz Pressure
 GTTQ.degC              00 000 000 000:  GT Quartz Temperature
 GTTN.NONE              00 000 000 000:  GT Test Number
 GTET.sec               00 000 000 000:  GT Elapsed Test Time
 GTTVD.m                00 000 000 000:  GT True Vertical Depth
#Other Information
#
#WARRANTY: Halliburton will use its best efforts to furnish customers with 
#accurate information and interpretations that are part of, and incident to, the services 
#provided.  However, Halliburton cannot and does not warrant the accuracy 
#or correctness of such information and interpretations.  Under no circumstances should any 
#such information or interpretation be relied upon as the sole basis for any drilling, 
#completion, production, or financial decision or any procedure involving any risk to the 
#safety of any drilling venture, drilling rig or its crew or any other third party.  The 
#Customer has full responsibility for all drilling, completion and production operation.  
#Halliburton makes no representations or warranties, either expressed or 
#implied, including, but not limited to, the implied warranties of merchantability or fitness 
#for a particular purpose, with respect to the services rendered.  In no event will 
#Halliburton be liable for failure to obtain any particular results or for 
#any damages, including, but not limited to, indirect, special or consequential damages, 
#resulting from the use of any information or interpretation provided by Halliburton.
#
~A           TIME           GTDEPTH  GTPQH  GTTQ  GTTN  GTET   GTTVD  
# ...
   14:09:52.060.31-Jan-2020 3945.01 6596.06 84.72 7.00  23.01 2971.20
   14:09:52.260.31-Jan-2020 3945.01 6596.06 84.72 7.00  23.21 2971.20
   14:09:52.460.31-Jan-2020 3945.01 6607.42 84.72 7.00  23.41 2971.20
   14:09:52.660.31-Jan-2020 3945.01 6605.68 84.72 7.00  23.61 2971.20
   14:09:52.860.31-Jan-2020 3945.01 6612.43 84.72 7.00  23.81 2971.20
   14:09:53.060.31-Jan-2020 3945.01 6615.39 84.72 7.00  24.01 2971.20
   14:09:53.260.31-Jan-2020 3945.01 6615.39 84.72 7.00  24.21 2971.20
   14:09:53.460.31-Jan-2020 3945.01 6621.30 84.72 7.00  24.41 2971.20
   14:09:53.660.31-Jan-2020 3945.01 6622.46 84.71 7.00  24.61 2971.20
   14:09:53.861.31-Jan-2020 3945.01 6625.39 84.71 7.00  24.81 2971.20
   14:09:54.061.31-Jan-2020 3945.01 6626.90 84.71 7.00  25.01 2971.20
   14:09:54.261.31-Jan-2020 3945.01 6626.90 84.71 7.00  25.21 2971.20
   14:09:54.461.31-Jan-2020 3945.01 6630.63 84.71 7.00  25.41 2971.20
   14:09:54.661.31-Jan-2020 3945.01 6630.61 84.71 7.00  25.61 2971.20
   14:09:54.861.31-Jan-2020 3945.01 6632.50 84.71 7.00  25.81 2971.20
   14:09:55.061.31-Jan-2020 3945.01 6632.46 84.71 7.00  26.01 2971.20
   14:09:55.261.31-Jan-2020 3945.01 6632.46 84.71 7.00  26.21 2971.20
   14:09:55.461.31-Jan-2020 3945.01 6635.35 84.71 7.00  26.41 2971.20
   14:09:55.661.31-Jan-2020 3945.01 6635.91 84.71 7.00  26.61 2971.20
   14:09:55.861.31-Jan-2020 3945.01 6569.97 84.71 7.00  26.81 2971.20
   14:09:56.061.31-Jan-2020 3945.01 5898.89 84.71 7.00  27.01 2971.20
   14:09:56.261.31-Jan-2020 3945.01 5898.89 84.71 7.00  27.21 2971.20
   14:09:56.461.31-Jan-2020 3945.01 4984.54 84.70 7.00  27.41 2971.20
   14:09:56.661.31-Jan-2020 3945.01 4187.53 84.70 7.00  27.61 2971.20
   14:09:56.861.31-Jan-2020 3945.01 3407.89 84.70 7.00  27.81 2971.20
   14:09:57.061.31-Jan-2020 3945.01 2958.08 84.70 7.00  28.01 2971.20
   14:09:57.261.31-Jan-2020 3945.01 2958.08 84.70 7.00  28.21 2971.20
   14:09:57.461.31-Jan-2020 3945.01 2957.75 84.70 7.00  28.41 2971.20
   14:09:57.661.31-Jan-2020 3945.01 2954.86 84.70 7.00  28.61 2971.20
   14:09:57.861.31-Jan-2020 3945.01 2953.46 84.70 7.00  28.81 2971.20
   14:09:58.061.31-Jan-2020 3945.01 2953.27 84.70 7.00  29.01 2971.20
   14:09:58.262.31-Jan-2020 3945.01 2953.27 84.70 7.00  29.21 2971.20
   14:09:58.462.31-Jan-2020 3945.01 2966.04 84.69 7.00  29.41 2971.20
   14:09:58.662.31-Jan-2020 3945.01 2960.76 84.69 7.00  29.61 2971.20
   14:09:58.862.31-Jan-2020 3945.01 2959.42 84.69 7.00  29.81 2971.20
   14:09:59.062.31-Jan-2020 3945.01 2958.72 84.69 7.00  30.01 2971.20
   14:09:59.262.31-Jan-2020 3945.01 2958.72 84.69 7.00  30.21 2971.20
   14:09:59.462.31-Jan-2020 3945.01 2959.31 84.69 7.00  30.41 2971.20
   14:09:59.662.31-Jan-2020 3945.01 2957.67 84.69 7.00  30.61 2971.20
   14:09:59.862.31-Jan-2020 3945.01 2958.23 84.68 7.00  30.81 2971.20
   14:10:00.062.31-Jan-2020 3945.01 2957.58 84.68 7.00  31.01 2971.20
   14:10:00.262.31-Jan-2020 3945.01 2957.58 84.68 7.00  31.21 2971.20
   14:10:00.462.31-Jan-2020 3945.01 2958.47 84.68 7.00  31.41 2971.20
   14:10:00.662.31-Jan-2020 3945.01 2960.40 84.68 7.00  31.61 2971.20
   14:10:00.862.31-Jan-2020 3945.01 2960.39 84.68 7.00  31.81 2971.20
   14:10:01.062.31-Jan-2020 3945.01 2958.37 84.68 7.00  32.01 2971.20
   14:10:01.262.31-Jan-2020 3945.01 2958.37 84.68 7.00  32.21 2971.20
   14:10:01.462.31-Jan-2020 3945.01 2957.66 84.67 7.00  32.41 2971.20
   14:10:01.662.31-Jan-2020 3945.01 2957.74 84.67 7.00  32.61 2971.20
   14:10:01.862.31-Jan-2020 3945.01 2958.09 84.67 7.00  32.81 2971.20
   14:10:02.062.31-Jan-2020 3945.01 2957.32 84.67 7.00  33.01 2971.20
   14:10:02.262.31-Jan-2020 3945.01 2957.32 84.67 7.00  33.21 2971.20
   14:10:02.463.31-Jan-2020 3945.01 2957.72 84.66 7.00  33.41 2971.20
   14:10:02.663.31-Jan-2020 3945.01 2957.35 84.66 7.00  33.61 2971.20
   14:10:02.863.31-Jan-2020 3945.01 2957.52 84.66 7.00  33.81 2971.20
   14:10:03.063.31-Jan-2020 3945.01 2957.39 84.66 7.00  34.01 2971.20
   14:10:03.263.31-Jan-2020 3945.01 2957.39 84.66 7.00  34.21 2971.20
   14:10:03.463.31-Jan-2020 3945.01 2957.16 84.66 7.00  34.41 2971.20
   14:10:03.663.31-Jan-2020 3945.01 2957.11 84.65 7.00  34.61 2971.20
   14:10:03.863.31-Jan-2020 3945.01 2957.74 84.65 7.00  34.81 2971.20
   14:10:04.063.31-Jan-2020 3945.01 2957.22 84.65 7.00  35.01 2971.20
   14:10:04.263.31-Jan-2020 3945.01 2957.22 84.65 7.00  35.21 2971.20
   14:10:04.463.31-Jan-2020 3945.01 2958.03 84.65 7.00  35.41 2971.20
   14:10:04.663.31-Jan-2020 3945.01 2957.54 84.65 7.00  35.61 2971.20
   14:10:04.863.31-Jan-2020 3945.01 2957.87 84.64 7.00  35.81 2971.20
   14:10:05.063.31-Jan-2020 3945.01 2957.32 84.64 7.00  36.01 2971.20
   14:10:05.263.31-Jan-2020 3945.01 2957.32 84.64 7.00  36.21 2971.20
   14:10:05.463.31-Jan-2020 3945.01 2957.74 84.64 7.00  36.41 2971.20
   14:10:05.663.31-Jan-2020 3945.01 2957.24 84.64 7.00  36.61 2971.20
   14:10:05.863.31-Jan-2020 3945.01 2957.51 84.64 7.00  36.81 2971.20
   14:10:06.063.31-Jan-2020 3945.01 2998.24 84.64 7.00  37.01 2971.20
   14:10:06.263.31-Jan-2020 3945.01 2998.24 84.64 7.00  37.21 2971.20
   14:10:06.463.31-Jan-2020 3945.01 3013.52 84.63 7.00  37.41 2971.20
   14:10:06.664.31-Jan-2020 3945.01 3013.59 84.63 7.00  37.61 2971.20
   14:10:06.864.31-Jan-2020 3945.01 3013.71 84.63 7.00  37.81 2971.20
   14:10:07.064.31-Jan-2020 3945.01 3013.76 84.63 7.00  38.01 2971.20
   14:10:07.264.31-Jan-2020 3945.01 3013.76 84.63 7.00  38.21 2971.20
   14:10:07.464.31-Jan-2020 3945.01 3013.93 84.63 7.00  38.41 2971.20
   14:10:07.664.31-Jan-2020 3945.01 3013.89 84.62 7.00  38.61 2971.20
   14:10:07.864.31-Jan-2020 3945.01 3013.99 84.62 7.00  38.81 2971.20
   14:10:08.064.31-Jan-2020 3945.01 3014.08 84.62 7.00  39.01 2971.20
   14:10:08.264.31-Jan-2020 3945.01 3014.08 84.62 7.00  39.21 2971.20
   14:10:08.464.31-Jan-2020 3945.01 3014.14 84.62 7.00  39.41 2971.20
   14:10:08.664.31-Jan-2020 3945.01 3014.08 84.62 7.00  39.61 2971.20
   14:10:08.864.31-Jan-2020 3945.01 3014.18 84.62 7.00  39.81 2971.20
   14:10:09.064.31-Jan-2020 3945.01 3014.20 84.62 7.00  40.01 2971.20
   14:10:09.264.31-Jan-2020 3945.01 3014.20 84.62 7.00  40.21 2971.20
   14:10:09.464.31-Jan-2020 3945.01 3014.27 84.61 7.00  40.41 2971.20
   14:10:09.664.31-Jan-2020 3945.01 3014.24 84.61 7.00  40.61 2971.20
   14:10:09.864.31-Jan-2020 3945.01 3014.32 84.61 7.00  40.81 2971.20
   14:10:10.064.31-Jan-2020 3945.01 3014.32 84.61 7.00  41.01 2971.20
   14:10:10.264.31-Jan-2020 3945.01 3014.32 84.61 7.00  41.21 2971.20
   14:10:10.464.31-Jan-2020 3945.01 3014.34 84.61 7.00  41.41 2971.20
   14:10:10.664.31-Jan-2020 3945.01 3014.37 84.61 7.00  41.61 2971.20
   14:10:10.864.31-Jan-2020 3945.01 3014.38 84.61 7.00  41.81 2971.20
   14:10:11.065.31-Jan-2020 3945.01 3014.38 84.60 7.00  42.01 2971.20
   14:10:11.265.31-Jan-2020 3945.01 3014.38 84.60 7.00  42.21 2971.20
   14:10:11.465.31-Jan-2020 3945.01 3014.25 84.60 7.00  42.41 2971.20
   14:10:11.665.31-Jan-2020 3945.01 3014.43 84.60 7.00  42.61 2971.20
   14:10:11.865.31-Jan-2020 3945.01 3014.43 84.60 7.00  42.81 2971.20
   14:10:12.065.31-Jan-2020 3945.01 3014.42 84.60 7.00  43.01 2971.20
   14:10:12.265.31-Jan-2020 3945.01 3014.42 84.60 7.00  43.21 2971.20
   14:10:12.465.31-Jan-2020 3945.01 3014.44 84.60 7.00  43.41 2971.20
   14:10:12.665.31-Jan-2020 3945.01 3014.50 84.60 7.00  43.61 2971.20
   14:10:12.865.31-Jan-2020 3945.01 3014.36 84.60 7.00  43.81 2971.20
   14:10:13.065.31-Jan-2020 3945.01 3014.45 84.59 7.00  44.01 2971.20
   14:10:13.265.31-Jan-2020 3945.01 3014.45 84.59 7.00  44.21 2971.20
   14:10:13.465.31-Jan-2020 3945.01 3014.49 84.59 7.00  44.41 2971.20
   14:10:13.665.31-Jan-2020 3945.01 3014.50 84.59 7.00  44.61 2971.20
   14:10:13.865.31-Jan-2020 3945.01 3014.52 84.59 7.00  44.81 2971.20
   14:10:14.065.31-Jan-2020 3945.01 3014.50 84.59 7.00  45.01 2971.20
   14:10:14.265.31-Jan-2020 3945.01 3014.50 84.59 7.00  45.21 2971.20
   14:10:14.465.31-Jan-2020 3945.01 3014.56 84.59 7.00  45.41 2971.20
   14:10:14.665.31-Jan-2020 3945.01 3014.58 84.59 7.00  45.61 2971.20
   14:10:14.865.31-Jan-2020 3945.01 3014.54 84.59 7.00  45.81 2971.20
