~Version Information
 VERS.                  2.0:   CWLS log ASCII Standard -VERSION 2.0
 WRAP.                   NO:   One line per depth step
~Well Information Block
#MNEM.UNIT     VALUE/NAME     DESCRIPTION
#---------     -----------    ---------------------------
 STRT.S             00:13:57 01-Feb-20: START TIME 00:13:57 01-Feb-20
 STOP.S             00:20:28 01-Feb-20: STOP TIME  00:20:28 01-Feb-20
 STEP.S                   0.00: STEP TIME
 NULL.                 -999.25: NULL VALUE
 DFWT.                        :  DIST FWL TEXT
 DFST.                        :  DIST FSL TEXT
 DMF .             Drill Floor:  DRILL MEAS FROM
 STIM.      09.30.00 26-Dec-19:  START TIME
 DATE.      08.00.00 20-Jan-20:  END TIME
 SPUD.               23-Nov-19:  SPUD DATE
 NREF.                    Grid:  NORTH REFERENCE
 HPTY.       Minimum Curvature:  HOLE POS TYPE
 DMOD.             Drill Model:  DRILL MOD DESC
 SVYD.                  Survey:  SURVEY DESC
 ILTD.               Lithology:  INTERP LTH DESC
 FTOP.          Formation Tops:  FORM TOPS DESC
 SON .        AZ-XX-0906192647:  JOB NUMBER
 WTYP.                Deviated:  WELL TYPE
 COMP.     BP Exploration (Caspian Sea) Ltd:  COMPANY
 BASE.              Azerbaijan:  LOGGING EQUIPMENT BASE LOCATION
 REGN.                 Eurasia:  REGION
 FLD .                     ACG:  FIELD NAME
 SRVC.              KCA Deutag:  CONTRACTOR
 MWDS.                    Baku:  MWD SHOP
 WELL.     A10 (Slot 20) - SCP:  WELL NAME
 JOBN.        AZ-XX-0906192647:  JOB TICKET NUMB
 RIG .                 Chirag1:  RIG NAME
 DCON.     Halliburton Sperry Drilling:  DIRECTNL CONTR
 UNIT.                     N/A:  LOGGING EQUIPMENT ID
 PDAT.          Mean Sea Level:  PERMANENT DATUM
 MDS .        Operator Entered:  MAG DATA SOURCE
 CTRY.              Azerbaijan:  COUNTRY NAME
 UWI .            /AZE00000090:  UNIQUE WELL IDENTIFIER
 API .            /AZE00000090:  API NUMBER
 CNTY.                        :  COUNTY
 PROV.                        :  PROVINCE
 STAT.                        :  STATE
 LOC .                        :  LOCATION
 LMF .             Drill Floor:  LOG MEASURED FROM
 TVDS.m                  36.60:  TVDSS CORRECTN
 LATI.deg                40.08:  LATITUDE
 LONG.deg                51.24:  LONGITUDE
 WHNS.m                  -7.94:  WELL HEAD N/S
 WHEW.m                   1.56:  WELL HEAD E/W
 UTMX.m              520429.26:  UTM X
 UTMY.m             4438973.87:  UTM Y
 DFWL.m                   0.00:  DISTANCE FWL
 DFSL.m                   0.00:  DISTANCE FSL
 SDEP.m                1455.00:  START DEPTH
 TDD .m                4047.51:  TOTAL DEPTH (DRILLER)
 VSDR.deg               112.75:  VERT SEC DIRECT
 GVFD.g                   1.00:  GRAVITY FIELD
 MFLD.nT              50261.00:  MAGNETIC FIELD
 MDIP.deg                59.52:  MAGNETIC DIP
 MDEC.deg                 6.42:  MAGNETIC DECL
 GRDC.deg                 0.17:  GRID CORRECTION
 AZTC.deg                 6.25:  AZM TOTAL CORR
 EPD .m                   0.00:  ELEVATION
 EGL .m                   0.00:  GROUND ELEVATION
 WDMS.m                 121.00:  WD ELEV
 APD .m                  36.60:  DEPTH ABOVE PD
 AGAP.m                  36.60:  AIR GAP
 VSEW.m                   1.56:  VERT SEC E/W
 VSNS.m                  -7.94:  VERT SEC N/S
 DEP .m                1140.01:  DEPTH
 EKB .m                  36.60:  KB ELEVATION
 EDF .m                  36.60:  DF ELEVATION
 TDL .m                 169.50:  TOTAL DEPTH (LOGGER)
 CSGD.m                3875.01:  CASING BOTTOM (DRILLER)
 CSGL.m                3875.01:  CASING BOTTOM (LOGGER)
 CSGS.in                  7.63:  CASING SIZE
 CSGW.lbpf               23.50:  CASING WEIGHT
 VSC .                       0:  VS TO CLOSURE
 MAGU.                 1849206:  MAGUTM CHECKSUM
~Parameter Information Block
#MNEM.UNIT       Value        Description
#---------     -----------    ---------------------------
 AV  .mps                 1.90:  Ann Velocity 
 AVMX.mps                 2.54:  Max Ann Veloc 
 AZIF.deg               137.03:  Azm, Final 
 BHAT.        Rotary Steerable:  BHA Type 
 BREV.rev             23610.00:  Rev Bit Total 
 BROT.°/30m               0.80:  Build Rotating 
 BS  .in                  6.50:  Bit Size 
 BTPL.psig              110.00:  Bit Press Loss 
 CABU.                     Yes:  Customer Abuse 
 TCS .hr                 70.51:  Time Ciculation Ended 
 CV  .mps                 1.41:  Crit Velocity 
 CVMX.mps                 1.42:  Max Crit Veloc 
 DD1 .         Intigam Rahimov:  Direct Drillr 1 
 DD2 .          Rashad Gojayev:  Direct Drillr 2 
 DDSV.               Geo-Pilot:  DD Service 
 DEFF.%                 100.00:  % Det Eff 
 DLRX.°/30m               1.44:  Dogleg Rot Max 
 DLSO.°/30m               0.00:  Dogleg Oriented 
 DLSX.°/30m               0.00:  Dogleg Str Max 
 DRET.      03.05.00 01-Feb-20:  Drill End Time 
 DRST.      15.50.00 28-Jan-20:  Drill Start Tim 
 DTIM.hr                 24.70:  Time Drilling 
 EDEP.m                4047.51:  End Depth 
 ENG1.           Eldar Hajiyev:  Engineer 1 
 ENG2.          Rasim Hashimov:  Engineer 2 
 ENG3.          Rustam Safarov:  Engineer 3 
 ETIM.      22.00.00 01-Feb-20:  End Time 
 FLOI.gpm               370.00:  Flow In 
 FLON.gpm               300.00:  Flow In Min 
 FLOS.cptm                0.00:  Fluid Loss 
 FLOX.gpm               400.00:  Flow In Max 
 FTRO.       Formation Presure:  FTWD Run Obj 
 HFLO.                      No:  High Flow 
 HPRE.                      No:  High Pressure 
 HTEM.                      No:  High Temp 
 HYDO.m                   2.50:  Hydro Offset 
 IFIN.deg                39.54:  Inc, Final 
 IMAX.deg                41.14:  Inc Max 
 IMIN.deg                39.81:  Inc Min 
 IMND.m                4005.21:  Inc Min Depth 
 IMXD.m                3948.42:  Inc Max Depth 
 JARR.                      No:  Jarring 
 LETM.      03.05.00 01-Feb-20:  Log End Time 
 LOST.hr                     0:  Lost Rig Time 
 LSTM.      15.50.00 28-Jan-20:  Log Start Time 
 MDCL.ppm             37500.00:  Mud Chlorides 
 MDES.     Inversion Oil/Synthetic:  Mud Desc 
 DFD .sg                  1.32:  Mud Density 
 MDMN.sg                  1.32:  Dens Mud Min 
 MDMX.sg                  1.32:  Dens Mud Max 
 MOIL.                      55:  Run Mud Oil % 
 MOWR.                   70:30:  Run Mud OWR 
 MSND.                       0:  Run Mud Sand % 
 MSOL.                      17:  Run Mud Solids% 
 DFV .spqt               80.00:  Mud Viscosity 
 MWOD.in                  4.75:  MWD Tool OD 
 MWSI.                      No:  Serv Intrp, MWD 
 OTIM.hr                121.28:  Time Operating 
 PCON.           Look Like New:  Pad Condition 
 PMAX.psia             6171.00:  Press Op, Max 
 PV  .cP                 30.00:  Mud PV 
 RUN .                     300:  Run Number 
 ROPA.m/hr                5.45:  ROP Avg 
 ROPN.m/hr                3.00:  ROP Min 
 ROPX.m/hr               15.00:  ROP Max 
 RPMA.rpm               130.00:  RPM Surface Avg 
 RPMN.rpm                80.00:  RPM Surface Min 
 RPMX.rpm               140.00:  RPM Surface Max 
 RRUN.                     300:  Rig Run Number 
 RTIM.hr                 13.50:  Time Reaming 
 SAZI.deg               133.93:  Azm, Start 
 SDEP.m                3878.01:  Start Depth 
 SIDD.                      No:  Serv Intrp, DD 
 SINC.deg                40.28:  Inc, Start 
 SPPA.psig             4983.00:  SPP Avg 
 SPPN.psig             4370.00:  SPP Min 
 SPPX.psig             5300.00:  SPP Max 
 STIM.      18.33.36 27-Jan-20:  Start Time 
 SVCS.                 DD, MWD:  Services 
 SVER.                    9.20:  Sperry Version 
 TDAT.m                 169.50:  Tot Depth Attmp 
 TDDF.                      No:  Trip for DD 
 TDLG.m                 169.50:  Tot Depth Loggd 
 TFF .                      No:  Trip for Fail 
 TQAA.f-kp               13.25:  Torque Abs Avg 
 TQAN.f-kp               12.00:  Torque Abs Min 
 TQAX.f-kp               14.00:  Torque Abs Max 
 TRRT.°/30m               0.70:  Turn Rotating 
 MRT .                     ADR:  Maximum Recorded Temperature 
 TTMX.degC               92.16:  Max Tool Temp 
 VS01.       AZ90598764G12V7D4:  Virtual Str1 SN 
 VS02.         AZ90571342R12C4:  Virtual Str2 SN 
 VS03.      AZ90580010N2L2X1C4:  Virtual Str3 SN 
 VS04.        AZ90522266O7X1C4:  Virtual Str4 SN 
 VS05.           AZ90598768F11:  Virtual Str5 SN 
 VS06.     AZ90580006XZ1W1X1C4:  Virtual Str6 SN 
 WBMN.klb                 8.00:  WOB Min 
 WITN.            Peter Wilson:  Customer Rep 
 WOBA.klb                 9.88:  WOB Avg 
 WOBX.klb                10.00:  WOB Max 
 YP  .lhf2               27.00:  Yield Point 
~Curve Information Block
#MNEM.UNIT                 API CODE     Curve Description
#---------               -----------    ---------------------------
 TIME.HHMMSS            00 000 000 000:  GT Time & Date
 GTDEPTH.m              00 000 000 000:  GT Depth
 GTPQH.psia             00 000 000 000:  GT HR Quartz Pressure
 GTTQ.degC              00 000 000 000:  GT Quartz Temperature
 GTTN.NONE              00 000 000 000:  GT Test Number
 GTET.sec               00 000 000 000:  GT Elapsed Test Time
 GTTVD.m                00 000 000 000:  GT True Vertical Depth
#Other Information
#
#WARRANTY: Halliburton will use its best efforts to furnish customers with 
#accurate information and interpretations that are part of, and incident to, the services 
#provided.  However, Halliburton cannot and does not warrant the accuracy 
#or correctness of such information and interpretations.  Under no circumstances should any 
#such information or interpretation be relied upon as the sole basis for any drilling, 
#completion, production, or financial decision or any procedure involving any risk to the 
#safety of any drilling venture, drilling rig or its crew or any other third party.  The 
#Customer has full responsibility for all drilling, completion and production operation.  
#Halliburton makes no representations or warranties, either expressed or 
#implied, including, but not limited to, the implied warranties of merchantability or fitness 
#for a particular purpose, with respect to the services rendered.  In no event will 
#Halliburton be liable for failure to obtain any particular results or for 
#any damages, including, but not limited to, indirect, special or consequential damages, 
#resulting from the use of any information or interpretation provided by Halliburton.
#
~A           TIME           GTDEPTH  GTPQH  GTTQ  GTTN   GTET   GTTVD  
# ...
   00:14:42.912.01-Feb-2020 3989.40 3209.22 87.46 10.00  45.20 3004.80
   00:14:43.112.01-Feb-2020 3989.40 3209.95 87.46 10.00  45.40 3004.80
   00:14:43.312.01-Feb-2020 3989.40 3210.21 87.46 10.00  45.60 3004.80
   00:14:43.512.01-Feb-2020 3989.40 3210.50 87.46 10.00  45.80 3004.80
   00:14:43.712.01-Feb-2020 3989.40 3210.80 87.46 10.00  46.00 3004.80
   00:14:43.912.01-Feb-2020 3989.40 3210.80 87.46 10.00  46.20 3004.80
   00:14:44.112.01-Feb-2020 3989.40 3211.24 87.46 10.00  46.40 3004.80
   00:14:44.312.01-Feb-2020 3989.40 3211.50 87.46 10.00  46.60 3004.80
   00:14:44.512.01-Feb-2020 3989.40 3211.48 87.46 10.00  46.80 3004.80
   00:14:44.712.01-Feb-2020 3989.40 3211.87 87.46 10.00  47.00 3004.80
   00:14:44.912.01-Feb-2020 3989.40 3211.87 87.46 10.00  47.20 3004.80
   00:14:45.112.01-Feb-2020 3989.40 3212.32 87.46 10.00  47.40 3004.80
   00:14:45.312.01-Feb-2020 3989.40 3212.60 87.45 10.00  47.60 3004.80
   00:14:45.512.01-Feb-2020 3989.40 3212.79 87.45 10.00  47.80 3004.80
   00:14:45.712.01-Feb-2020 3989.40 3212.91 87.45 10.00  48.00 3004.80
   00:14:45.912.01-Feb-2020 3989.40 3212.91 87.45 10.00  48.20 3004.80
   00:14:46.112.01-Feb-2020 3989.40 3213.24 87.45 10.00  48.40 3004.80
   00:14:46.312.01-Feb-2020 3989.40 3213.44 87.45 10.00  48.60 3004.80
   00:14:46.512.01-Feb-2020 3989.40 3213.64 87.45 10.00  48.80 3004.80
   00:14:46.712.01-Feb-2020 3989.40 3213.65 87.45 10.00  49.00 3004.80
   00:14:46.912.01-Feb-2020 3989.40 3213.65 87.45 10.00  49.20 3004.80
   00:14:47.112.01-Feb-2020 3989.40 3214.03 87.45 10.00  49.40 3004.80
   00:14:47.312.01-Feb-2020 3989.40 3214.09 87.45 10.00  49.60 3004.80
   00:14:47.512.01-Feb-2020 3989.40 3214.41 87.45 10.00  49.80 3004.80
   00:14:47.712.01-Feb-2020 3989.40 3214.50 87.45 10.00  50.00 3004.80
   00:14:47.912.01-Feb-2020 3989.40 3214.50 87.45 10.00  50.20 3004.80
   00:14:48.112.01-Feb-2020 3989.40 3214.65 87.44 10.00  50.40 3004.80
   00:14:48.312.01-Feb-2020 3989.40 3214.68 87.44 10.00  50.60 3004.80
   00:14:48.512.01-Feb-2020 3989.40 3214.88 87.44 10.00  50.80 3004.80
   00:14:48.712.01-Feb-2020 3989.40 3215.07 87.44 10.00  51.00 3004.80
   00:14:48.912.01-Feb-2020 3989.40 3215.07 87.44 10.00  51.20 3004.80
   00:14:49.112.01-Feb-2020 3989.40 3214.93 87.44 10.00  51.40 3004.80
   00:14:49.312.01-Feb-2020 3989.40 3215.32 87.44 10.00  51.60 3004.80
   00:14:49.512.01-Feb-2020 3989.40 3215.45 87.44 10.00  51.80 3004.80
   00:14:49.712.01-Feb-2020 3989.40 3215.68 87.44 10.00  52.00 3004.80
   00:14:49.912.01-Feb-2020 3989.40 3215.68 87.44 10.00  52.20 3004.80
   00:14:50.113.01-Feb-2020 3989.40 3215.72 87.44 10.00  52.40 3004.80
   00:14:50.313.01-Feb-2020 3989.40 3215.74 87.44 10.00  52.60 3004.80
   00:14:50.513.01-Feb-2020 3989.40 3215.78 87.43 10.00  52.80 3004.80
   00:14:50.713.01-Feb-2020 3989.40 3215.91 87.43 10.00  53.00 3004.80
   00:14:50.913.01-Feb-2020 3989.40 3215.91 87.43 10.00  53.20 3004.80
   00:14:51.113.01-Feb-2020 3989.40 3216.22 87.43 10.00  53.40 3004.80
   00:14:51.313.01-Feb-2020 3989.40 3216.42 87.43 10.00  53.60 3004.80
   00:14:51.513.01-Feb-2020 3989.40 3216.27 87.43 10.00  53.80 3004.80
   00:14:51.713.01-Feb-2020 3989.40 3216.38 87.43 10.00  54.00 3004.80
   00:14:51.913.01-Feb-2020 3989.40 3216.38 87.43 10.00  54.20 3004.80
   00:14:52.113.01-Feb-2020 3989.40 3216.72 87.43 10.00  54.40 3004.80
   00:14:52.313.01-Feb-2020 3989.40 3216.78 87.43 10.00  54.60 3004.80
   00:14:52.513.01-Feb-2020 3989.40 3216.62 87.43 10.00  54.80 3004.80
   00:14:52.713.01-Feb-2020 3989.40 3216.72 87.43 10.00  55.00 3004.80
   00:14:52.913.01-Feb-2020 3989.40 3216.72 87.43 10.00  55.20 3004.80
   00:14:53.113.01-Feb-2020 3989.40 3217.12 87.42 10.00  55.40 3004.80
   00:14:53.313.01-Feb-2020 3989.40 3217.12 87.42 10.00  55.60 3004.80
   00:14:53.513.01-Feb-2020 3989.40 3217.26 87.42 10.00  55.80 3004.80
   00:14:53.713.01-Feb-2020 3989.40 3217.24 87.42 10.00  56.00 3004.80
   00:14:53.913.01-Feb-2020 3989.40 3217.24 87.42 10.00  56.20 3004.80
   00:14:54.113.01-Feb-2020 3989.40 3217.24 87.42 10.00  56.40 3004.80
   00:14:54.313.01-Feb-2020 3989.40 3217.33 87.42 10.00  56.60 3004.80
   00:14:54.513.01-Feb-2020 3989.40 3217.33 87.42 10.00  56.80 3004.80
   00:14:54.713.01-Feb-2020 3989.40 3217.61 87.42 10.00  57.01 3004.80
   00:14:54.913.01-Feb-2020 3989.40 3217.61 87.42 10.00  57.21 3004.80
   00:14:55.113.01-Feb-2020 3989.40 3217.59 87.42 10.00  57.41 3004.80
   00:14:55.313.01-Feb-2020 3989.40 3217.71 87.42 10.00  57.61 3004.80
   00:14:55.513.01-Feb-2020 3989.40 3217.70 87.42 10.00  57.81 3004.80
   00:14:55.713.01-Feb-2020 3989.40 3217.85 87.41 10.00  58.01 3004.80
   00:14:55.913.01-Feb-2020 3989.40 3217.85 87.41 10.00  58.21 3004.80
   00:14:56.113.01-Feb-2020 3989.40 3217.86 87.41 10.00  58.41 3004.80
   00:14:56.313.01-Feb-2020 3989.40 3218.04 87.41 10.00  58.61 3004.80
   00:14:56.513.01-Feb-2020 3989.40 3218.04 87.41 10.00  58.81 3004.80
   00:14:56.713.01-Feb-2020 3989.40 3218.12 87.41 10.00  59.01 3004.80
   00:14:56.913.01-Feb-2020 3989.40 3218.12 87.41 10.00  59.21 3004.80
   00:14:57.113.01-Feb-2020 3989.40 3218.17 87.41 10.00  59.41 3004.80
   00:14:57.313.01-Feb-2020 3989.40 3218.35 87.41 10.00  59.61 3004.80
   00:14:57.513.01-Feb-2020 3989.40 3218.13 87.41 10.00  59.81 3004.80
   00:14:57.713.01-Feb-2020 3989.40 3218.26 87.41 10.00  60.01 3004.80
   00:14:57.913.01-Feb-2020 3989.40 3218.26 87.41 10.00  60.21 3004.80
   00:14:58.113.01-Feb-2020 3989.40 3218.41 87.40 10.00  60.41 3004.80
   00:14:58.313.01-Feb-2020 3989.40 3218.48 87.40 10.00  60.61 3004.80
   00:14:58.513.01-Feb-2020 3989.40 3218.54 87.40 10.00  60.81 3004.80
   00:14:58.713.01-Feb-2020 3989.40 3218.55 87.40 10.00  61.01 3004.80
   00:14:58.913.01-Feb-2020 3989.40 3218.55 87.40 10.00  61.21 3004.80
   00:14:59.113.01-Feb-2020 3989.40 3218.66 87.40 10.00  61.41 3004.80
   00:14:59.313.01-Feb-2020 3989.40 3218.67 87.40 10.00  61.61 3004.80
   00:14:59.513.01-Feb-2020 3989.40 3218.72 87.40 10.00  61.81 3004.80
   00:14:59.713.01-Feb-2020 3989.40 3218.78 87.40 10.00  62.01 3004.80
   00:14:59.913.01-Feb-2020 3989.40 3218.78 87.40 10.00  62.21 3004.80
   00:15:00.113.01-Feb-2020 3989.40 3218.83 87.40 10.00  62.41 3004.80
   00:15:00.313.01-Feb-2020 3989.40 3218.86 87.40 10.00  62.61 3004.80
   00:15:00.513.01-Feb-2020 3989.40 3218.88 87.40 10.00  62.81 3004.80
   00:15:00.713.01-Feb-2020 3989.40 3219.02 87.39 10.00  63.01 3004.80
   00:15:00.913.01-Feb-2020 3989.40 3219.02 87.39 10.00  63.21 3004.80
   00:15:01.113.01-Feb-2020 3989.40 3218.92 87.39 10.00  63.41 3004.80
   00:15:01.313.01-Feb-2020 3989.40 3219.03 87.39 10.00  63.61 3004.80
   00:15:01.514.01-Feb-2020 3989.40 3219.05 87.39 10.00  63.81 3004.80
   00:15:01.714.01-Feb-2020 3989.40 3219.14 87.39 10.00  64.01 3004.80
   00:15:01.914.01-Feb-2020 3989.40 3219.14 87.39 10.00  64.21 3004.80
   00:15:02.114.01-Feb-2020 3989.40 3219.09 87.39 10.00  64.41 3004.80
   00:15:02.314.01-Feb-2020 3989.40 3219.21 87.39 10.00  64.61 3004.80
   00:15:02.514.01-Feb-2020 3989.40 3219.33 87.39 10.00  64.81 3004.80
   00:15:02.714.01-Feb-2020 3989.40 3219.36 87.39 10.00  65.01 3004.80
   00:15:02.914.01-Feb-2020 3989.40 3219.36 87.39 10.00  65.21 3004.80
   00:15:03.114.01-Feb-2020 3989.40 3219.21 87.39 10.00  65.41 3004.80
   00:15:03.314.01-Feb-2020 3989.40 3219.29 87.38 10.00  65.61 3004.80
   00:15:03.514.01-Feb-2020 3989.40 3219.33 87.38 10.00  65.81 3004.80
   00:15:03.714.01-Feb-2020 3989.40 3219.51 87.38 10.00  66.01 3004.80
   00:15:03.914.01-Feb-2020 3989.40 3219.51 87.38 10.00  66.21 3004.80
   00:15:04.114.01-Feb-2020 3989.40 3219.26 87.38 10.00  66.41 3004.80
   00:15:04.314.01-Feb-2020 3989.40 3219.53 87.38 10.00  66.61 3004.80
   00:15:04.514.01-Feb-2020 3989.40 3219.57 87.38 10.00  66.81 3004.80
   00:15:04.714.01-Feb-2020 3989.40 3219.68 87.38 10.00  67.01 3004.80
   00:15:04.914.01-Feb-2020 3989.40 3219.68 87.38 10.00  67.21 3004.80
   00:15:05.114.01-Feb-2020 3989.40 3219.63 87.38 10.00  67.41 3004.80
   00:15:05.314.01-Feb-2020 3989.40 3219.84 87.38 10.00  67.61 3004.80
