~Version Information
 VERS.                  2.0:   CWLS log ASCII Standard -VERSION 2.0
 WRAP.                   NO:   One line per depth step
~Well Information Block
#MNEM.UNIT     VALUE/NAME     DESCRIPTION
#---------     -----------    ---------------------------
 STRT.S             00:13:57 01-Feb-20: START TIME 00:13:57 01-Feb-20
 STOP.S             00:20:28 01-Feb-20: STOP TIME  00:20:28 01-Feb-20
 STEP.S                   0.00: STEP TIME
 NULL.                 -999.25: NULL VALUE
 DFWT.                        :  DIST FWL TEXT
 DFST.                        :  DIST FSL TEXT
 DMF .             Drill Floor:  DRILL MEAS FROM
 STIM.      09.30.00 26-Dec-19:  START TIME
 DATE.      08.00.00 20-Jan-20:  END TIME
 SPUD.               23-Nov-19:  SPUD DATE
 NREF.                    Grid:  NORTH REFERENCE
 HPTY.       Minimum Curvature:  HOLE POS TYPE
 DMOD.             Drill Model:  DRILL MOD DESC
 SVYD.                  Survey:  SURVEY DESC
 ILTD.               Lithology:  INTERP LTH DESC
 FTOP.          Formation Tops:  FORM TOPS DESC
 SON .        AZ-XX-0906192647:  JOB NUMBER
 WTYP.                Deviated:  WELL TYPE
 COMP.     BP Exploration (Caspian Sea) Ltd:  COMPANY
 BASE.              Azerbaijan:  LOGGING EQUIPMENT BASE LOCATION
 REGN.                 Eurasia:  REGION
 FLD .                     ACG:  FIELD NAME
 SRVC.              KCA Deutag:  CONTRACTOR
 MWDS.                    Baku:  MWD SHOP
 WELL.     A10 (Slot 20) - SCP:  WELL NAME
 JOBN.        AZ-XX-0906192647:  JOB TICKET NUMB
 RIG .                 Chirag1:  RIG NAME
 DCON.     Halliburton Sperry Drilling:  DIRECTNL CONTR
 UNIT.                     N/A:  LOGGING EQUIPMENT ID
 PDAT.          Mean Sea Level:  PERMANENT DATUM
 MDS .        Operator Entered:  MAG DATA SOURCE
 CTRY.              Azerbaijan:  COUNTRY NAME
 UWI .            /AZE00000090:  UNIQUE WELL IDENTIFIER
 API .            /AZE00000090:  API NUMBER
 CNTY.                        :  COUNTY
 PROV.                        :  PROVINCE
 STAT.                        :  STATE
 LOC .                        :  LOCATION
 LMF .             Drill Floor:  LOG MEASURED FROM
 TVDS.m                  36.60:  TVDSS CORRECTN
 LATI.deg                40.08:  LATITUDE
 LONG.deg                51.24:  LONGITUDE
 WHNS.m                  -7.94:  WELL HEAD N/S
 WHEW.m                   1.56:  WELL HEAD E/W
 UTMX.m              520429.26:  UTM X
 UTMY.m             4438973.87:  UTM Y
 DFWL.m                   0.00:  DISTANCE FWL
 DFSL.m                   0.00:  DISTANCE FSL
 SDEP.m                1455.00:  START DEPTH
 TDD .m                4047.51:  TOTAL DEPTH (DRILLER)
 VSDR.deg               112.75:  VERT SEC DIRECT
 GVFD.g                   1.00:  GRAVITY FIELD
 MFLD.nT              50261.00:  MAGNETIC FIELD
 MDIP.deg                59.52:  MAGNETIC DIP
 MDEC.deg                 6.42:  MAGNETIC DECL
 GRDC.deg                 0.17:  GRID CORRECTION
 AZTC.deg                 6.25:  AZM TOTAL CORR
 EPD .m                   0.00:  ELEVATION
 EGL .m                   0.00:  GROUND ELEVATION
 WDMS.m                 121.00:  WD ELEV
 APD .m                  36.60:  DEPTH ABOVE PD
 AGAP.m                  36.60:  AIR GAP
 VSEW.m                   1.56:  VERT SEC E/W
 VSNS.m                  -7.94:  VERT SEC N/S
 DEP .m                1140.01:  DEPTH
 EKB .m                  36.60:  KB ELEVATION
 EDF .m                  36.60:  DF ELEVATION
 TDL .m                 169.50:  TOTAL DEPTH (LOGGER)
 CSGD.m                3875.01:  CASING BOTTOM (DRILLER)
 CSGL.m                3875.01:  CASING BOTTOM (LOGGER)
 CSGS.in                  7.63:  CASING SIZE
 CSGW.lbpf               23.50:  CASING WEIGHT
 VSC .                       0:  VS TO CLOSURE
 MAGU.                 1849206:  MAGUTM CHECKSUM
~Parameter Information Block
#MNEM.UNIT       Value        Description
#---------     -----------    ---------------------------
 AV  .mps                 1.90:  Ann Velocity 
 AVMX.mps                 2.54:  Max Ann Veloc 
 AZIF.deg               137.03:  Azm, Final 
 BHAT.        Rotary Steerable:  BHA Type 
 BREV.rev             23610.00:  Rev Bit Total 
 BROT.°/30m               0.80:  Build Rotating 
 BS  .in                  6.50:  Bit Size 
 BTPL.psig              110.00:  Bit Press Loss 
 CABU.                     Yes:  Customer Abuse 
 TCS .hr                 70.51:  Time Ciculation Ended 
 CV  .mps                 1.41:  Crit Velocity 
 CVMX.mps                 1.42:  Max Crit Veloc 
 DD1 .         Intigam Rahimov:  Direct Drillr 1 
 DD2 .          Rashad Gojayev:  Direct Drillr 2 
 DDSV.               Geo-Pilot:  DD Service 
 DEFF.%                 100.00:  % Det Eff 
 DLRX.°/30m               1.44:  Dogleg Rot Max 
 DLSO.°/30m               0.00:  Dogleg Oriented 
 DLSX.°/30m               0.00:  Dogleg Str Max 
 DRET.      03.05.00 01-Feb-20:  Drill End Time 
 DRST.      15.50.00 28-Jan-20:  Drill Start Tim 
 DTIM.hr                 24.70:  Time Drilling 
 EDEP.m                4047.51:  End Depth 
 ENG1.           Eldar Hajiyev:  Engineer 1 
 ENG2.          Rasim Hashimov:  Engineer 2 
 ENG3.          Rustam Safarov:  Engineer 3 
 ETIM.      22.00.00 01-Feb-20:  End Time 
 FLOI.gpm               370.00:  Flow In 
 FLON.gpm               300.00:  Flow In Min 
 FLOS.cptm                0.00:  Fluid Loss 
 FLOX.gpm               400.00:  Flow In Max 
 FTRO.       Formation Presure:  FTWD Run Obj 
 HFLO.                      No:  High Flow 
 HPRE.                      No:  High Pressure 
 HTEM.                      No:  High Temp 
 HYDO.m                   2.50:  Hydro Offset 
 IFIN.deg                39.54:  Inc, Final 
 IMAX.deg                41.14:  Inc Max 
 IMIN.deg                39.81:  Inc Min 
 IMND.m                4005.21:  Inc Min Depth 
 IMXD.m                3948.42:  Inc Max Depth 
 JARR.                      No:  Jarring 
 LETM.      03.05.00 01-Feb-20:  Log End Time 
 LOST.hr                     0:  Lost Rig Time 
 LSTM.      15.50.00 28-Jan-20:  Log Start Time 
 MDCL.ppm             37500.00:  Mud Chlorides 
 MDES.     Inversion Oil/Synthetic:  Mud Desc 
 DFD .sg                  1.32:  Mud Density 
 MDMN.sg                  1.32:  Dens Mud Min 
 MDMX.sg                  1.32:  Dens Mud Max 
 MOIL.                      55:  Run Mud Oil % 
 MOWR.                   70:30:  Run Mud OWR 
 MSND.                       0:  Run Mud Sand % 
 MSOL.                      17:  Run Mud Solids% 
 DFV .spqt               80.00:  Mud Viscosity 
 MWOD.in                  4.75:  MWD Tool OD 
 MWSI.                      No:  Serv Intrp, MWD 
 OTIM.hr                121.28:  Time Operating 
 PCON.           Look Like New:  Pad Condition 
 PMAX.psia             6171.00:  Press Op, Max 
 PV  .cP                 30.00:  Mud PV 
 RUN .                     300:  Run Number 
 ROPA.m/hr                5.45:  ROP Avg 
 ROPN.m/hr                3.00:  ROP Min 
 ROPX.m/hr               15.00:  ROP Max 
 RPMA.rpm               130.00:  RPM Surface Avg 
 RPMN.rpm                80.00:  RPM Surface Min 
 RPMX.rpm               140.00:  RPM Surface Max 
 RRUN.                     300:  Rig Run Number 
 RTIM.hr                 13.50:  Time Reaming 
 SAZI.deg               133.93:  Azm, Start 
 SDEP.m                3878.01:  Start Depth 
 SIDD.                      No:  Serv Intrp, DD 
 SINC.deg                40.28:  Inc, Start 
 SPPA.psig             4983.00:  SPP Avg 
 SPPN.psig             4370.00:  SPP Min 
 SPPX.psig             5300.00:  SPP Max 
 STIM.      18.33.36 27-Jan-20:  Start Time 
 SVCS.                 DD, MWD:  Services 
 SVER.                    9.20:  Sperry Version 
 TDAT.m                 169.50:  Tot Depth Attmp 
 TDDF.                      No:  Trip for DD 
 TDLG.m                 169.50:  Tot Depth Loggd 
 TFF .                      No:  Trip for Fail 
 TQAA.f-kp               13.25:  Torque Abs Avg 
 TQAN.f-kp               12.00:  Torque Abs Min 
 TQAX.f-kp               14.00:  Torque Abs Max 
 TRRT.°/30m               0.70:  Turn Rotating 
 MRT .                     ADR:  Maximum Recorded Temperature 
 TTMX.degC               92.16:  Max Tool Temp 
 VS01.       AZ90598764G12V7D4:  Virtual Str1 SN 
 VS02.         AZ90571342R12C4:  Virtual Str2 SN 
 VS03.      AZ90580010N2L2X1C4:  Virtual Str3 SN 
 VS04.        AZ90522266O7X1C4:  Virtual Str4 SN 
 VS05.           AZ90598768F11:  Virtual Str5 SN 
 VS06.     AZ90580006XZ1W1X1C4:  Virtual Str6 SN 
 WBMN.klb                 8.00:  WOB Min 
 WITN.            Peter Wilson:  Customer Rep 
 WOBA.klb                 9.88:  WOB Avg 
 WOBX.klb                10.00:  WOB Max 
 YP  .lhf2               27.00:  Yield Point 
~Curve Information Block
#MNEM.UNIT                 API CODE     Curve Description
#---------               -----------    ---------------------------
 TIME.HHMMSS            00 000 000 000:  GT Time & Date
 GTDEPTH.m              00 000 000 000:  GT Depth
 GTPQH.psia             00 000 000 000:  GT HR Quartz Pressure
 GTTQ.degC              00 000 000 000:  GT Quartz Temperature
 GTTN.NONE              00 000 000 000:  GT Test Number
 GTET.sec               00 000 000 000:  GT Elapsed Test Time
 GTTVD.m                00 000 000 000:  GT True Vertical Depth
#Other Information
#
#WARRANTY: Halliburton will use its best efforts to furnish customers with 
#accurate information and interpretations that are part of, and incident to, the services 
#provided.  However, Halliburton cannot and does not warrant the accuracy 
#or correctness of such information and interpretations.  Under no circumstances should any 
#such information or interpretation be relied upon as the sole basis for any drilling, 
#completion, production, or financial decision or any procedure involving any risk to the 
#safety of any drilling venture, drilling rig or its crew or any other third party.  The 
#Customer has full responsibility for all drilling, completion and production operation.  
#Halliburton makes no representations or warranties, either expressed or 
#implied, including, but not limited to, the implied warranties of merchantability or fitness 
#for a particular purpose, with respect to the services rendered.  In no event will 
#Halliburton be liable for failure to obtain any particular results or for 
#any damages, including, but not limited to, indirect, special or consequential damages, 
#resulting from the use of any information or interpretation provided by Halliburton.
#
~A           TIME           GTDEPTH  GTPQH  GTTQ  GTTN   GTET   GTTVD  
# ...
   00:19:59.340.01-Feb-2020 3989.40 6017.54 86.49 10.00 361.63 3004.80
   00:19:59.540.01-Feb-2020 3989.40 6017.15 86.49 10.00 361.83 3004.80
   00:19:59.740.01-Feb-2020 3989.40 6019.65 86.49 10.00 362.03 3004.80
   00:19:59.940.01-Feb-2020 3989.40 6019.65 86.49 10.00 362.23 3004.80
   00:20:00.140.01-Feb-2020 3989.40 6016.40 86.49 10.00 362.43 3004.80
   00:20:00.340.01-Feb-2020 3989.40 6014.20 86.49 10.00 362.63 3004.80
   00:20:00.540.01-Feb-2020 3989.40 6015.39 86.48 10.00 362.83 3004.80
   00:20:00.740.01-Feb-2020 3989.40 6017.11 86.48 10.00 363.03 3004.80
   00:20:00.940.01-Feb-2020 3989.40 6017.11 86.48 10.00 363.23 3004.80
   00:20:01.140.01-Feb-2020 3989.40 6018.58 86.48 10.00 363.43 3004.80
   00:20:01.340.01-Feb-2020 3989.40 6018.86 86.48 10.00 363.63 3004.80
   00:20:01.540.01-Feb-2020 3989.40 6018.96 86.48 10.00 363.83 3004.80
   00:20:01.740.01-Feb-2020 3989.40 6018.44 86.48 10.00 364.03 3004.80
   00:20:01.940.01-Feb-2020 3989.40 6018.44 86.48 10.00 364.23 3004.80
   00:20:02.140.01-Feb-2020 3989.40 6018.35 86.48 10.00 364.43 3004.80
   00:20:02.340.01-Feb-2020 3989.40 6018.13 86.48 10.00 364.63 3004.80
   00:20:02.540.01-Feb-2020 3989.40 6018.44 86.48 10.00 364.83 3004.80
   00:20:02.740.01-Feb-2020 3989.40 6018.61 86.48 10.00 365.03 3004.80
   00:20:02.940.01-Feb-2020 3989.40 6018.61 86.48 10.00 365.23 3004.80
   00:20:03.140.01-Feb-2020 3989.40 6017.96 86.48 10.00 365.43 3004.80
   00:20:03.340.01-Feb-2020 3989.40 6019.25 86.48 10.00 365.63 3004.80
   00:20:03.540.01-Feb-2020 3989.40 6019.54 86.48 10.00 365.83 3004.80
   00:20:03.740.01-Feb-2020 3989.40 6015.12 86.48 10.00 366.03 3004.80
   00:20:03.940.01-Feb-2020 3989.40 6015.12 86.48 10.00 366.23 3004.80
   00:20:04.140.01-Feb-2020 3989.40 6016.35 86.48 10.00 366.43 3004.80
   00:20:04.340.01-Feb-2020 3989.40 6018.68 86.48 10.00 366.63 3004.80
   00:20:04.540.01-Feb-2020 3989.40 6018.47 86.48 10.00 366.83 3004.80
   00:20:04.740.01-Feb-2020 3989.40 6013.37 86.48 10.00 367.03 3004.80
   00:20:04.940.01-Feb-2020 3989.40 6013.37 86.48 10.00 367.23 3004.80
   00:20:05.140.01-Feb-2020 3989.40 6016.04 86.48 10.00 367.43 3004.80
   00:20:05.340.01-Feb-2020 3989.40 6017.98 86.47 10.00 367.63 3004.80
   00:20:05.540.01-Feb-2020 3989.40 6018.59 86.47 10.00 367.83 3004.80
   00:20:05.740.01-Feb-2020 3989.40 6018.19 86.47 10.00 368.03 3004.80
   00:20:05.940.01-Feb-2020 3989.40 6018.19 86.47 10.00 368.23 3004.80
   00:20:06.140.01-Feb-2020 3989.40 6016.74 86.47 10.00 368.43 3004.80
   00:20:06.340.01-Feb-2020 3989.40 6014.60 86.47 10.00 368.63 3004.80
   00:20:06.540.01-Feb-2020 3989.40 6016.60 86.47 10.00 368.83 3004.80
   00:20:06.740.01-Feb-2020 3989.40 6013.37 86.47 10.00 369.03 3004.80
   00:20:06.940.01-Feb-2020 3989.40 6013.37 86.47 10.00 369.23 3004.80
   00:20:07.140.01-Feb-2020 3989.40 6015.99 86.47 10.00 369.43 3004.80
   00:20:07.340.01-Feb-2020 3989.40 6018.34 86.47 10.00 369.63 3004.80
   00:20:07.540.01-Feb-2020 3989.40 6016.20 86.47 10.00 369.83 3004.80
   00:20:07.740.01-Feb-2020 3989.40 6018.74 86.47 10.00 370.03 3004.80
   00:20:07.940.01-Feb-2020 3989.40 6018.74 86.47 10.00 370.23 3004.80
   00:20:08.140.01-Feb-2020 3989.40 6016.74 86.47 10.00 370.43 3004.80
   00:20:08.340.01-Feb-2020 3989.40 6017.14 86.47 10.00 370.63 3004.80
   00:20:08.541.01-Feb-2020 3989.40 6016.53 86.47 10.00 370.83 3004.80
   00:20:08.741.01-Feb-2020 3989.40 6017.00 86.47 10.00 371.03 3004.80
   00:20:08.941.01-Feb-2020 3989.40 6017.00 86.47 10.00 371.23 3004.80
   00:20:09.141.01-Feb-2020 3989.40 6019.29 86.47 10.00 371.43 3004.80
   00:20:09.341.01-Feb-2020 3989.40 6020.12 86.46 10.00 371.63 3004.80
   00:20:09.541.01-Feb-2020 3989.40 6019.28 86.46 10.00 371.83 3004.80
   00:20:09.741.01-Feb-2020 3989.40 6018.63 86.46 10.00 372.03 3004.80
   00:20:09.941.01-Feb-2020 3989.40 6018.63 86.46 10.00 372.23 3004.80
   00:20:10.141.01-Feb-2020 3989.40 6018.59 86.46 10.00 372.43 3004.80
   00:20:10.341.01-Feb-2020 3989.40 6017.34 86.46 10.00 372.63 3004.80
   00:20:10.541.01-Feb-2020 3989.40 6018.47 86.46 10.00 372.83 3004.80
   00:20:10.741.01-Feb-2020 3989.40 6015.89 86.46 10.00 373.03 3004.80
   00:20:10.941.01-Feb-2020 3989.40 6015.89 86.46 10.00 373.23 3004.80
   00:20:11.141.01-Feb-2020 3989.40 6019.23 86.46 10.00 373.43 3004.80
   00:20:11.341.01-Feb-2020 3989.40 6016.35 86.46 10.00 373.63 3004.80
   00:20:11.541.01-Feb-2020 3989.40 6013.12 86.46 10.00 373.83 3004.80
   00:20:11.741.01-Feb-2020 3989.40 6016.34 86.46 10.00 374.03 3004.80
   00:20:11.941.01-Feb-2020 3989.40 6016.34 86.46 10.00 374.23 3004.80
   00:20:12.141.01-Feb-2020 3989.40 6018.04 86.46 10.00 374.43 3004.80
   00:20:12.341.01-Feb-2020 3989.40 6016.93 86.46 10.00 374.63 3004.80
   00:20:12.541.01-Feb-2020 3989.40 6017.09 86.46 10.00 374.83 3004.80
   00:20:12.741.01-Feb-2020 3989.40 6019.48 86.46 10.00 375.03 3004.80
   00:20:12.941.01-Feb-2020 3989.40 6019.48 86.46 10.00 375.23 3004.80
   00:20:13.141.01-Feb-2020 3989.40 6018.07 86.45 10.00 375.43 3004.80
   00:20:13.341.01-Feb-2020 3989.40 6019.73 86.45 10.00 375.63 3004.80
   00:20:13.541.01-Feb-2020 3989.40 6017.42 86.45 10.00 375.83 3004.80
   00:20:13.741.01-Feb-2020 3989.40 6019.42 86.45 10.00 376.03 3004.80
   00:20:13.941.01-Feb-2020 3989.40 6019.42 86.45 10.00 376.23 3004.80
   00:20:14.141.01-Feb-2020 3989.40 6017.45 86.45 10.00 376.43 3004.80
   00:20:14.341.01-Feb-2020 3989.40 6018.99 86.45 10.00 376.63 3004.80
   00:20:14.541.01-Feb-2020 3989.40 6019.08 86.45 10.00 376.83 3004.80
   00:20:14.741.01-Feb-2020 3989.40 6019.34 86.45 10.00 377.03 3004.80
   00:20:14.941.01-Feb-2020 3989.40 6019.34 86.45 10.00 377.23 3004.80
   00:20:15.141.01-Feb-2020 3989.40 6012.24 86.45 10.00 377.43 3004.80
   00:20:15.341.01-Feb-2020 3989.40 6018.24 86.45 10.00 377.63 3004.80
   00:20:15.541.01-Feb-2020 3989.40 6018.36 86.45 10.00 377.83 3004.80
   00:20:15.741.01-Feb-2020 3989.40 6017.33 86.45 10.00 378.03 3004.80
   00:20:15.941.01-Feb-2020 3989.40 6017.33 86.45 10.00 378.23 3004.80
   00:20:16.141.01-Feb-2020 3989.40 6012.37 86.45 10.00 378.43 3004.80
   00:20:16.341.01-Feb-2020 3989.40 6016.72 86.45 10.00 378.63 3004.80
   00:20:16.541.01-Feb-2020 3989.40 6018.11 86.45 10.00 378.83 3004.80
   00:20:16.741.01-Feb-2020 3989.40 6018.65 86.44 10.00 379.03 3004.80
   00:20:16.941.01-Feb-2020 3989.40 6018.65 86.44 10.00 379.23 3004.80
   00:20:17.141.01-Feb-2020 3989.40 6019.98 86.44 10.00 379.43 3004.80
   00:20:17.341.01-Feb-2020 3989.40 6013.62 86.44 10.00 379.63 3004.80
   00:20:17.541.01-Feb-2020 3989.40 6017.16 86.44 10.00 379.83 3004.80
   00:20:17.741.01-Feb-2020 3989.40 6016.27 86.44 10.00 380.03 3004.80
   00:20:17.941.01-Feb-2020 3989.40 6016.27 86.44 10.00 380.23 3004.80
   00:20:18.141.01-Feb-2020 3989.40 6016.69 86.44 10.00 380.43 3004.80
   00:20:18.341.01-Feb-2020 3989.40 6014.75 86.44 10.00 380.63 3004.80
   00:20:18.541.01-Feb-2020 3989.40 6014.25 86.44 10.00 380.83 3004.80
   00:20:18.741.01-Feb-2020 3989.40 6018.23 86.44 10.00 381.03 3004.80
   00:20:18.941.01-Feb-2020 3989.40 6018.23 86.44 10.00 381.23 3004.80
   00:20:19.141.01-Feb-2020 3989.40 6011.83 86.44 10.00 381.43 3004.80
   00:20:19.341.01-Feb-2020 3989.40 6017.89 86.44 10.00 381.63 3004.80
   00:20:19.541.01-Feb-2020 3989.40 6017.40 86.44 10.00 381.83 3004.80
   00:20:19.741.01-Feb-2020 3989.40 6017.89 86.44 10.00 382.03 3004.80
   00:20:19.942.01-Feb-2020 3989.40 6017.89 86.44 10.00 382.23 3004.80
   00:20:20.142.01-Feb-2020 3989.40 6017.35 86.44 10.00 382.43 3004.80
   00:20:20.342.01-Feb-2020 3989.40 6019.71 86.43 10.00 382.63 3004.80
   00:20:20.542.01-Feb-2020 3989.40 6020.53 86.43 10.00 382.83 3004.80
   00:20:20.742.01-Feb-2020 3989.40 6018.83 86.43 10.00 383.03 3004.80
   00:20:20.942.01-Feb-2020 3989.40 6018.83 86.43 10.00 383.23 3004.80
   00:20:21.142.01-Feb-2020 3989.40 6018.74 86.43 10.00 383.43 3004.80
   00:20:21.342.01-Feb-2020 3989.40 6018.93 86.43 10.00 383.63 3004.80
   00:20:21.542.01-Feb-2020 3989.40 6018.72 86.43 10.00 383.83 3004.80
   00:20:21.742.01-Feb-2020 3989.40 6017.28 86.43 10.00 384.03 3004.80
