~Version Information
 VERS.                  2.0:   CWLS log ASCII Standard -VERSION 2.0
 WRAP.                   NO:   One line per depth step
~Well Information Block
#MNEM.UNIT     VALUE/NAME     DESCRIPTION
#---------     -----------    ---------------------------
 STRT.S             19:01:08 30-Jan-20: START TIME 19:01:08 30-Jan-20
 STOP.S             19:07:38 30-Jan-20: STOP TIME  19:07:38 30-Jan-20
 STEP.S                   0.00: STEP TIME
 NULL.                 -999.25: NULL VALUE
 DFWT.                        :  DIST FWL TEXT
 DFST.                        :  DIST FSL TEXT
 DMF .             Drill Floor:  DRILL MEAS FROM
 STIM.      09.30.00 26-Dec-19:  START TIME
 DATE.      08.00.00 20-Jan-20:  END TIME
 SPUD.               23-Nov-19:  SPUD DATE
 NREF.                    Grid:  NORTH REFERENCE
 HPTY.       Minimum Curvature:  HOLE POS TYPE
 DMOD.             Drill Model:  DRILL MOD DESC
 SVYD.                  Survey:  SURVEY DESC
 ILTD.               Lithology:  INTERP LTH DESC
 FTOP.          Formation Tops:  FORM TOPS DESC
 SON .        AZ-XX-0906192647:  JOB NUMBER
 WTYP.                Deviated:  WELL TYPE
 COMP.     BP Exploration (Caspian Sea) Ltd:  COMPANY
 BASE.              Azerbaijan:  LOGGING EQUIPMENT BASE LOCATION
 REGN.                 Eurasia:  REGION
 FLD .                     ACG:  FIELD NAME
 SRVC.              KCA Deutag:  CONTRACTOR
 MWDS.                    Baku:  MWD SHOP
 WELL.     A10 (Slot 20) - SCP:  WELL NAME
 JOBN.        AZ-XX-0906192647:  JOB TICKET NUMB
 RIG .                 Chirag1:  RIG NAME
 DCON.     Halliburton Sperry Drilling:  DIRECTNL CONTR
 UNIT.                     N/A:  LOGGING EQUIPMENT ID
 PDAT.          Mean Sea Level:  PERMANENT DATUM
 MDS .        Operator Entered:  MAG DATA SOURCE
 CTRY.              Azerbaijan:  COUNTRY NAME
 UWI .            /AZE00000090:  UNIQUE WELL IDENTIFIER
 API .            /AZE00000090:  API NUMBER
 CNTY.                        :  COUNTY
 PROV.                        :  PROVINCE
 STAT.                        :  STATE
 LOC .                        :  LOCATION
 LMF .             Drill Floor:  LOG MEASURED FROM
 TVDS.m                  36.60:  TVDSS CORRECTN
 LATI.deg                40.08:  LATITUDE
 LONG.deg                51.24:  LONGITUDE
 WHNS.m                  -7.94:  WELL HEAD N/S
 WHEW.m                   1.56:  WELL HEAD E/W
 UTMX.m              520429.26:  UTM X
 UTMY.m             4438973.87:  UTM Y
 DFWL.m                   0.00:  DISTANCE FWL
 DFSL.m                   0.00:  DISTANCE FSL
 SDEP.m                1455.00:  START DEPTH
 TDD .m                4047.51:  TOTAL DEPTH (DRILLER)
 VSDR.deg               112.75:  VERT SEC DIRECT
 GVFD.g                   1.00:  GRAVITY FIELD
 MFLD.nT              50261.00:  MAGNETIC FIELD
 MDIP.deg                59.52:  MAGNETIC DIP
 MDEC.deg                 6.42:  MAGNETIC DECL
 GRDC.deg                 0.17:  GRID CORRECTION
 AZTC.deg                 6.25:  AZM TOTAL CORR
 EPD .m                   0.00:  ELEVATION
 EGL .m                   0.00:  GROUND ELEVATION
 WDMS.m                 121.00:  WD ELEV
 APD .m                  36.60:  DEPTH ABOVE PD
 AGAP.m                  36.60:  AIR GAP
 VSEW.m                   1.56:  VERT SEC E/W
 VSNS.m                  -7.94:  VERT SEC N/S
 DEP .m                1140.01:  DEPTH
 EKB .m                  36.60:  KB ELEVATION
 EDF .m                  36.60:  DF ELEVATION
 TDL .m                 169.50:  TOTAL DEPTH (LOGGER)
 CSGD.m                3875.01:  CASING BOTTOM (DRILLER)
 CSGL.m                3875.01:  CASING BOTTOM (LOGGER)
 CSGS.in                  7.63:  CASING SIZE
 CSGW.lbpf               23.50:  CASING WEIGHT
 VSC .                       0:  VS TO CLOSURE
 MAGU.                 1849206:  MAGUTM CHECKSUM
~Parameter Information Block
#MNEM.UNIT       Value        Description
#---------     -----------    ---------------------------
 AV  .mps                 1.90:  Ann Velocity 
 AVMX.mps                 2.54:  Max Ann Veloc 
 AZIF.deg               137.03:  Azm, Final 
 BHAT.        Rotary Steerable:  BHA Type 
 BREV.rev             23610.00:  Rev Bit Total 
 BROT.°/30m               0.80:  Build Rotating 
 BS  .in                  6.50:  Bit Size 
 BTPL.psig              110.00:  Bit Press Loss 
 CABU.                     Yes:  Customer Abuse 
 COMM.                     Ó€:  Run Comments 1 
 TCS .hr                 70.51:  Time Ciculation Ended 
 CV  .mps                 1.41:  Crit Velocity 
 CVMX.mps                 1.42:  Max Crit Veloc 
 DD1 .         Intigam Rahimov:  Direct Drillr 1 
 DD2 .          Rashad Gojayev:  Direct Drillr 2 
 DDSV.               Geo-Pilot:  DD Service 
 DEFF.%                 100.00:  % Det Eff 
 DLRX.°/30m               1.44:  Dogleg Rot Max 
 DLSO.°/30m               0.00:  Dogleg Oriented 
 DLSX.°/30m               0.00:  Dogleg Str Max 
 DRET.      03.05.00 01-Feb-20:  Drill End Time 
 DRST.      15.50.00 28-Jan-20:  Drill Start Tim 
 DTIM.hr                 24.70:  Time Drilling 
 EDEP.m                4047.51:  End Depth 
 ENG1.           Eldar Hajiyev:  Engineer 1 
 ENG2.          Rasim Hashimov:  Engineer 2 
 ENG3.          Rustam Safarov:  Engineer 3 
 ETIM.      22.00.00 01-Feb-20:  End Time 
 FLOI.gpm               370.00:  Flow In 
 FLON.gpm               300.00:  Flow In Min 
 FLOS.cptm                0.00:  Fluid Loss 
 FLOX.gpm               400.00:  Flow In Max 
 FTRO.       Formation Presure:  FTWD Run Obj 
 HFLO.                      No:  High Flow 
 HPRE.                      No:  High Pressure 
 HTEM.                      No:  High Temp 
 HYDO.m                   2.50:  Hydro Offset 
 IFIN.deg                39.54:  Inc, Final 
 IMAX.deg                41.14:  Inc Max 
 IMIN.deg                39.81:  Inc Min 
 IMND.m                4005.21:  Inc Min Depth 
 IMXD.m                3948.42:  Inc Max Depth 
 JARR.                      No:  Jarring 
 LETM.      03.05.00 01-Feb-20:  Log End Time 
 LOST.hr                     0:  Lost Rig Time 
 LSTM.      15.50.00 28-Jan-20:  Log Start Time 
 MDCL.ppm             37500.00:  Mud Chlorides 
 MDES.     Inversion Oil/Synthetic:  Mud Desc 
 DFD .sg                  1.32:  Mud Density 
 MDMN.sg                  1.32:  Dens Mud Min 
 MDMX.sg                  1.32:  Dens Mud Max 
 MOIL.                      55:  Run Mud Oil % 
 MOWR.                   70:30:  Run Mud OWR 
 MSND.                       0:  Run Mud Sand % 
 MSOL.                      17:  Run Mud Solids% 
 DFV .spqt               80.00:  Mud Viscosity 
 MWOD.in                  4.75:  MWD Tool OD 
 MWSI.                      No:  Serv Intrp, MWD 
 OTIM.hr                121.28:  Time Operating 
 PCON.           Look Like New:  Pad Condition 
 PMAX.psia             6171.00:  Press Op, Max 
 PV  .cP                 30.00:  Mud PV 
 RUN .                     300:  Run Number 
 ROPA.m/hr                5.45:  ROP Avg 
 ROPN.m/hr                3.00:  ROP Min 
 ROPX.m/hr               15.00:  ROP Max 
 RPMA.rpm               130.00:  RPM Surface Avg 
 RPMN.rpm                80.00:  RPM Surface Min 
 RPMX.rpm               140.00:  RPM Surface Max 
 RRUN.                     300:  Rig Run Number 
 RTIM.hr                 13.50:  Time Reaming 
 SAZI.deg               133.93:  Azm, Start 
 SDEP.m                3878.01:  Start Depth 
 SIDD.                      No:  Serv Intrp, DD 
 SINC.deg                40.28:  Inc, Start 
 SPPA.psig             4983.00:  SPP Avg 
 SPPN.psig             4370.00:  SPP Min 
 SPPX.psig             5300.00:  SPP Max 
 STIM.      18.33.36 27-Jan-20:  Start Time 
 SVCS.                 DD, MWD:  Services 
 SVER.                    9.20:  Sperry Version 
 TDAT.m                 169.50:  Tot Depth Attmp 
 TDDF.                      No:  Trip for DD 
 TDLG.m                 169.50:  Tot Depth Loggd 
 TFF .                      No:  Trip for Fail 
 TQAA.f-kp               13.25:  Torque Abs Avg 
 TQAN.f-kp               12.00:  Torque Abs Min 
 TQAX.f-kp               14.00:  Torque Abs Max 
 TRRT.°/30m               0.70:  Turn Rotating 
 MRT .                     ADR:  Maximum Recorded Temperature 
 TTMX.degC               92.16:  Max Tool Temp 
 VS01.       AZ90598764G12V7D4:  Virtual Str1 SN 
 VS02.         AZ90571342R12C4:  Virtual Str2 SN 
 VS03.      AZ90580010N2L2X1C4:  Virtual Str3 SN 
 VS04.        AZ90522266O7X1C4:  Virtual Str4 SN 
 VS05.           AZ90598768F11:  Virtual Str5 SN 
 VS06.     AZ90580006XZ1W1X1C4:  Virtual Str6 SN 
 WBMN.klb                 8.00:  WOB Min 
 WITN.            Peter Wilson:  Customer Rep 
 WOBA.klb                 9.88:  WOB Avg 
 WOBX.klb                10.00:  WOB Max 
 YP  .lhf2               27.00:  Yield Point 
~Curve Information Block
#MNEM.UNIT                 API CODE     Curve Description
#---------               -----------    ---------------------------
 TIME.HHMMSS            00 000 000 000:  GT Time & Date
 GTDEPTH.m              00 000 000 000:  GT Depth
 GTPQH.psia             00 000 000 000:  GT HR Quartz Pressure
 GTTQ.degC              00 000 000 000:  GT Quartz Temperature
 GTTN.NONE              00 000 000 000:  GT Test Number
 GTET.sec               00 000 000 000:  GT Elapsed Test Time
 GTTVD.m                00 000 000 000:  GT True Vertical Depth
#Other Information
#
#WARRANTY: Halliburton will use its best efforts to furnish customers with 
#accurate information and interpretations that are part of, and incident to, the services 
#provided.  However, Halliburton cannot and does not warrant the accuracy 
#or correctness of such information and interpretations.  Under no circumstances should any 
#such information or interpretation be relied upon as the sole basis for any drilling, 
#completion, production, or financial decision or any procedure involving any risk to the 
#safety of any drilling venture, drilling rig or its crew or any other third party.  The 
#Customer has full responsibility for all drilling, completion and production operation.  
#Halliburton makes no representations or warranties, either expressed or 
#implied, including, but not limited to, the implied warranties of merchantability or fitness 
#for a particular purpose, with respect to the services rendered.  In no event will 
#Halliburton be liable for failure to obtain any particular results or for 
#any damages, including, but not limited to, indirect, special or consequential damages, 
#resulting from the use of any information or interpretation provided by Halliburton.
#
~A           TIME           GTDEPTH  GTPQH  GTTQ  GTTN  GTET   GTTVD  
# ...
   19:06:30.565.30-Jan-2020 3884.01 2968.57 69.12 1.00 322.08 2925.13
   19:06:30.765.30-Jan-2020 3884.01 2968.57 69.12 1.00 322.28 2925.13
   19:06:30.965.30-Jan-2020 3884.01 2968.57 69.12 1.00 322.48 2925.13
   19:06:31.165.30-Jan-2020 3884.01 2968.53 69.12 1.00 322.68 2925.13
   19:06:31.365.30-Jan-2020 3884.01 2968.59 69.12 1.00 322.88 2925.13
   19:06:31.565.30-Jan-2020 3884.01 2968.59 69.12 1.00 323.08 2925.13
   19:06:31.765.30-Jan-2020 3884.01 2968.59 69.12 1.00 323.28 2925.13
   19:06:31.965.30-Jan-2020 3884.01 2968.58 69.12 1.00 323.48 2925.13
   19:06:32.165.30-Jan-2020 3884.01 2968.53 69.12 1.00 323.68 2925.13
   19:06:32.365.30-Jan-2020 3884.01 2968.63 69.12 1.00 323.88 2925.13
   19:06:32.565.30-Jan-2020 3884.01 2968.63 69.12 1.00 324.08 2925.13
   19:06:32.765.30-Jan-2020 3884.01 2968.63 69.12 1.00 324.28 2925.13
   19:06:32.965.30-Jan-2020 3884.01 2968.79 69.12 1.00 324.48 2925.13
   19:06:33.165.30-Jan-2020 3884.01 2968.62 69.12 1.00 324.68 2925.13
   19:06:33.365.30-Jan-2020 3884.01 2968.58 69.12 1.00 324.88 2925.13
   19:06:33.565.30-Jan-2020 3884.01 2968.60 69.12 1.00 325.08 2925.13
   19:06:33.765.30-Jan-2020 3884.01 2968.60 69.12 1.00 325.28 2925.13
   19:06:33.965.30-Jan-2020 3884.01 2968.81 69.12 1.00 325.48 2925.13
   19:06:34.165.30-Jan-2020 3884.01 2968.65 69.12 1.00 325.68 2925.13
   19:06:34.365.30-Jan-2020 3884.01 2968.58 69.12 1.00 325.88 2925.13
   19:06:34.565.30-Jan-2020 3884.01 2968.58 69.12 1.00 326.08 2925.13
   19:06:34.766.30-Jan-2020 3884.01 2968.58 69.12 1.00 326.28 2925.13
   19:06:34.966.30-Jan-2020 3884.01 2968.59 69.12 1.00 326.48 2925.13
   19:06:35.166.30-Jan-2020 3884.01 2968.26 69.12 1.00 326.68 2925.13
   19:06:35.366.30-Jan-2020 3884.01 2968.67 69.12 1.00 326.88 2925.13
   19:06:35.566.30-Jan-2020 3884.01 2968.66 69.12 1.00 327.08 2925.13
   19:06:35.766.30-Jan-2020 3884.01 2968.66 69.12 1.00 327.28 2925.13
   19:06:35.966.30-Jan-2020 3884.01 2968.56 69.12 1.00 327.48 2925.13
   19:06:36.166.30-Jan-2020 3884.01 2968.24 69.12 1.00 327.68 2925.13
   19:06:36.366.30-Jan-2020 3884.01 2968.71 69.12 1.00 327.88 2925.13
   19:06:36.566.30-Jan-2020 3884.01 2968.63 69.12 1.00 328.08 2925.13
   19:06:36.766.30-Jan-2020 3884.01 2968.63 69.12 1.00 328.28 2925.13
   19:06:36.966.30-Jan-2020 3884.01 2968.59 69.12 1.00 328.48 2925.13
   19:06:37.166.30-Jan-2020 3884.01 2968.14 69.12 1.00 328.68 2925.13
   19:06:37.366.30-Jan-2020 3884.01 2968.80 69.12 1.00 328.88 2925.13
   19:06:37.566.30-Jan-2020 3884.01 2968.61 69.12 1.00 329.08 2925.13
   19:06:37.766.30-Jan-2020 3884.01 2968.61 69.12 1.00 329.28 2925.13
   19:06:37.966.30-Jan-2020 3884.01 2968.66 69.12 1.00 329.48 2925.13
   19:06:38.166.30-Jan-2020 3884.01 2968.54 69.12 1.00 329.68 2925.13
   19:06:38.366.30-Jan-2020 3884.01 2968.56 69.12 1.00 329.88 2925.13
   19:06:38.566.30-Jan-2020 3884.01 2968.52 69.12 1.00 330.08 2925.13
   19:06:38.766.30-Jan-2020 3884.01 2968.52 69.12 1.00 330.28 2925.13
   19:06:38.967.30-Jan-2020 3884.01 2968.65 69.12 1.00 330.48 2925.13
   19:06:39.167.30-Jan-2020 3884.01 2968.53 69.12 1.00 330.68 2925.13
   19:06:39.367.30-Jan-2020 3884.01 2968.56 69.12 1.00 330.88 2925.13
   19:06:39.567.30-Jan-2020 3884.01 2968.56 69.12 1.00 331.08 2925.13
   19:06:39.767.30-Jan-2020 3884.01 2968.56 69.12 1.00 331.28 2925.13
   19:06:39.967.30-Jan-2020 3884.01 2968.65 69.12 1.00 331.48 2925.13
   19:06:40.167.30-Jan-2020 3884.01 2968.55 69.12 1.00 331.68 2925.13
   19:06:40.367.30-Jan-2020 3884.01 2968.55 69.12 1.00 331.88 2925.13
   19:06:40.567.30-Jan-2020 3884.01 2968.58 69.12 1.00 332.08 2925.13
   19:06:40.767.30-Jan-2020 3884.01 2968.58 69.12 1.00 332.28 2925.13
   19:06:40.967.30-Jan-2020 3884.01 2968.28 69.12 1.00 332.48 2925.13
   19:06:41.167.30-Jan-2020 3884.01 2968.71 69.12 1.00 332.68 2925.13
   19:06:41.367.30-Jan-2020 3884.01 2968.60 69.12 1.00 332.88 2925.13
   19:06:41.567.30-Jan-2020 3884.01 2968.62 69.12 1.00 333.08 2925.13
   19:06:41.767.30-Jan-2020 3884.01 2968.62 69.12 1.00 333.28 2925.13
   19:06:41.967.30-Jan-2020 3884.01 2968.60 69.12 1.00 333.48 2925.13
   19:06:42.167.30-Jan-2020 3884.01 2968.60 69.12 1.00 333.68 2925.13
   19:06:42.367.30-Jan-2020 3884.01 2968.55 69.12 1.00 333.88 2925.13
   19:06:42.567.30-Jan-2020 3884.01 2968.56 69.12 1.00 334.08 2925.13
   19:06:42.767.30-Jan-2020 3884.01 2968.56 69.12 1.00 334.28 2925.13
   19:06:42.967.30-Jan-2020 3884.01 2968.56 69.12 1.00 334.48 2925.13
   19:06:43.168.30-Jan-2020 3884.01 2968.59 69.12 1.00 334.68 2925.13
   19:06:43.368.30-Jan-2020 3884.01 2968.57 69.12 1.00 334.88 2925.13
   19:06:43.568.30-Jan-2020 3884.01 2968.57 69.12 1.00 335.08 2925.13
   19:06:43.768.30-Jan-2020 3884.01 2968.57 69.12 1.00 335.28 2925.13
   19:06:43.968.30-Jan-2020 3884.01 2968.64 69.12 1.00 335.48 2925.13
   19:06:44.168.30-Jan-2020 3884.01 2968.17 69.12 1.00 335.68 2925.13
   19:06:44.368.30-Jan-2020 3884.01 2968.76 69.12 1.00 335.88 2925.13
   19:06:44.568.30-Jan-2020 3884.01 2968.59 69.12 1.00 336.08 2925.13
   19:06:44.768.30-Jan-2020 3884.01 2968.59 69.12 1.00 336.28 2925.13
   19:06:44.968.30-Jan-2020 3884.01 2968.64 69.12 1.00 336.48 2925.13
   19:06:45.168.30-Jan-2020 3884.01 2968.18 69.12 1.00 336.68 2925.13
   19:06:45.368.30-Jan-2020 3884.01 2968.82 69.12 1.00 336.88 2925.13
   19:06:45.568.30-Jan-2020 3884.01 2968.62 69.12 1.00 337.08 2925.13
   19:06:45.768.30-Jan-2020 3884.01 2968.62 69.12 1.00 337.28 2925.13
   19:06:45.968.30-Jan-2020 3884.01 2968.58 69.12 1.00 337.48 2925.13
   19:06:46.168.30-Jan-2020 3884.01 2968.54 69.12 1.00 337.68 2925.13
   19:06:46.368.30-Jan-2020 3884.01 2968.39 69.12 1.00 337.88 2925.13
   19:06:46.568.30-Jan-2020 3884.01 2968.54 69.12 1.00 338.08 2925.13
   19:06:46.768.30-Jan-2020 3884.01 2968.54 69.12 1.00 338.28 2925.13
   19:06:46.968.30-Jan-2020 3884.01 2968.70 69.12 1.00 338.48 2925.13
   19:06:47.168.30-Jan-2020 3884.01 2968.61 69.12 1.00 338.68 2925.13
   19:06:47.368.30-Jan-2020 3884.01 2968.35 69.12 1.00 338.88 2925.13
   19:06:47.569.30-Jan-2020 3884.01 2968.58 69.12 1.00 339.08 2925.13
   19:06:47.769.30-Jan-2020 3884.01 2968.58 69.12 1.00 339.28 2925.13
   19:06:47.969.30-Jan-2020 3884.01 2968.68 69.12 1.00 339.48 2925.13
   19:06:48.169.30-Jan-2020 3884.01 2968.59 69.12 1.00 339.68 2925.13
   19:06:48.369.30-Jan-2020 3884.01 2968.57 69.12 1.00 339.88 2925.13
   19:06:48.569.30-Jan-2020 3884.01 2968.27 69.12 1.00 340.08 2925.13
   19:06:48.769.30-Jan-2020 3884.01 2968.27 69.12 1.00 340.28 2925.13
   19:06:48.969.30-Jan-2020 3884.01 2968.65 69.12 1.00 340.48 2925.13
   19:06:49.169.30-Jan-2020 3884.01 2968.68 69.12 1.00 340.68 2925.13
   19:06:49.369.30-Jan-2020 3884.01 2968.62 69.12 1.00 340.88 2925.13
   19:06:49.569.30-Jan-2020 3884.01 2968.57 69.12 1.00 341.08 2925.13
   19:06:49.769.30-Jan-2020 3884.01 2968.57 69.12 1.00 341.28 2925.13
   19:06:49.969.30-Jan-2020 3884.01 2968.52 69.12 1.00 341.48 2925.13
   19:06:50.169.30-Jan-2020 3884.01 2968.62 69.12 1.00 341.68 2925.13
   19:06:50.369.30-Jan-2020 3884.01 2968.61 69.12 1.00 341.88 2925.13
   19:06:50.569.30-Jan-2020 3884.01 2968.54 69.12 1.00 342.08 2925.13
   19:06:50.769.30-Jan-2020 3884.01 2968.54 69.12 1.00 342.28 2925.13
   19:06:50.969.30-Jan-2020 3884.01 2968.53 69.12 1.00 342.48 2925.13
   19:06:51.169.30-Jan-2020 3884.01 2968.58 69.12 1.00 342.68 2925.13
   19:06:51.369.30-Jan-2020 3884.01 2968.65 69.12 1.00 342.88 2925.13
   19:06:51.569.30-Jan-2020 3884.01 2968.56 69.12 1.00 343.08 2925.13
   19:06:51.770.30-Jan-2020 3884.01 2968.56 69.12 1.00 343.28 2925.13
   19:06:51.970.30-Jan-2020 3884.01 2968.56 69.12 1.00 343.48 2925.13
   19:06:52.170.30-Jan-2020 3884.01 2968.38 69.12 1.00 343.68 2925.13
   19:06:52.370.30-Jan-2020 3884.01 2968.59 69.12 1.00 343.88 2925.13
   19:06:52.570.30-Jan-2020 3884.01 2968.64 69.12 1.00 344.08 2925.13
   19:06:52.770.30-Jan-2020 3884.01 2968.64 69.12 1.00 344.28 2925.13
   19:06:52.970.30-Jan-2020 3884.01 2968.62 69.12 1.00 344.48 2925.13
   19:06:53.170.30-Jan-2020 3884.01 2968.61 69.12 1.00 344.68 2925.13
   19:06:53.370.30-Jan-2020 3884.01 2968.62 69.12 1.00 344.88 2925.13
