~Version Information
 VERS.                  2.0:   CWLS log ASCII Standard -VERSION 2.0
 WRAP.                   NO:   One line per depth step
~Well Information Block
#MNEM.UNIT     VALUE/NAME     DESCRIPTION
#---------     -----------    ---------------------------
 STRT.S             06:25:21 31-Jan-20: START TIME 06:25:21 31-Jan-20
 STOP.S             06:31:52 31-Jan-20: STOP TIME  06:31:52 31-Jan-20
 STEP.S                   0.00: STEP TIME
 NULL.                 -999.25: NULL VALUE
 DFWT.                        :  DIST FWL TEXT
 DFST.                        :  DIST FSL TEXT
 DMF .             Drill Floor:  DRILL MEAS FROM
 STIM.      09.30.00 26-Dec-19:  START TIME
 DATE.      08.00.00 20-Jan-20:  END TIME
 SPUD.               23-Nov-19:  SPUD DATE
 NREF.                    Grid:  NORTH REFERENCE
 HPTY.       Minimum Curvature:  HOLE POS TYPE
 DMOD.             Drill Model:  DRILL MOD DESC
 SVYD.                  Survey:  SURVEY DESC
 ILTD.               Lithology:  INTERP LTH DESC
 FTOP.          Formation Tops:  FORM TOPS DESC
 SON .        AZ-XX-0906192647:  JOB NUMBER
 WTYP.                Deviated:  WELL TYPE
 COMP.     BP Exploration (Caspian Sea) Ltd:  COMPANY
 BASE.              Azerbaijan:  LOGGING EQUIPMENT BASE LOCATION
 REGN.                 Eurasia:  REGION
 FLD .                     ACG:  FIELD NAME
 SRVC.              KCA Deutag:  CONTRACTOR
 MWDS.                    Baku:  MWD SHOP
 WELL.     A10 (Slot 20) - SCP:  WELL NAME
 JOBN.        AZ-XX-0906192647:  JOB TICKET NUMB
 RIG .                 Chirag1:  RIG NAME
 DCON.     Halliburton Sperry Drilling:  DIRECTNL CONTR
 UNIT.                     N/A:  LOGGING EQUIPMENT ID
 PDAT.          Mean Sea Level:  PERMANENT DATUM
 MDS .        Operator Entered:  MAG DATA SOURCE
 CTRY.              Azerbaijan:  COUNTRY NAME
 UWI .            /AZE00000090:  UNIQUE WELL IDENTIFIER
 API .            /AZE00000090:  API NUMBER
 CNTY.                        :  COUNTY
 PROV.                        :  PROVINCE
 STAT.                        :  STATE
 LOC .                        :  LOCATION
 LMF .             Drill Floor:  LOG MEASURED FROM
 TVDS.m                  36.60:  TVDSS CORRECTN
 LATI.deg                40.08:  LATITUDE
 LONG.deg                51.24:  LONGITUDE
 WHNS.m                  -7.94:  WELL HEAD N/S
 WHEW.m                   1.56:  WELL HEAD E/W
 UTMX.m              520429.26:  UTM X
 UTMY.m             4438973.87:  UTM Y
 DFWL.m                   0.00:  DISTANCE FWL
 DFSL.m                   0.00:  DISTANCE FSL
 SDEP.m                1455.00:  START DEPTH
 TDD .m                4047.51:  TOTAL DEPTH (DRILLER)
 VSDR.deg               112.75:  VERT SEC DIRECT
 GVFD.g                   1.00:  GRAVITY FIELD
 MFLD.nT              50261.00:  MAGNETIC FIELD
 MDIP.deg                59.52:  MAGNETIC DIP
 MDEC.deg                 6.42:  MAGNETIC DECL
 GRDC.deg                 0.17:  GRID CORRECTION
 AZTC.deg                 6.25:  AZM TOTAL CORR
 EPD .m                   0.00:  ELEVATION
 EGL .m                   0.00:  GROUND ELEVATION
 WDMS.m                 121.00:  WD ELEV
 APD .m                  36.60:  DEPTH ABOVE PD
 AGAP.m                  36.60:  AIR GAP
 VSEW.m                   1.56:  VERT SEC E/W
 VSNS.m                  -7.94:  VERT SEC N/S
 DEP .m                1140.01:  DEPTH
 EKB .m                  36.60:  KB ELEVATION
 EDF .m                  36.60:  DF ELEVATION
 TDL .m                 169.50:  TOTAL DEPTH (LOGGER)
 CSGD.m                3875.01:  CASING BOTTOM (DRILLER)
 CSGL.m                3875.01:  CASING BOTTOM (LOGGER)
 CSGS.in                  7.63:  CASING SIZE
 CSGW.lbpf               23.50:  CASING WEIGHT
 VSC .                       0:  VS TO CLOSURE
 MAGU.                 1849206:  MAGUTM CHECKSUM
~Parameter Information Block
#MNEM.UNIT       Value        Description
#---------     -----------    ---------------------------
 AV  .mps                 1.90:  Ann Velocity 
 AVMX.mps                 2.54:  Max Ann Veloc 
 AZIF.deg               137.03:  Azm, Final 
 BHAT.        Rotary Steerable:  BHA Type 
 BREV.rev             23610.00:  Rev Bit Total 
 BROT.°/30m               0.80:  Build Rotating 
 BS  .in                  6.50:  Bit Size 
 BTPL.psig              110.00:  Bit Press Loss 
 CABU.                     Yes:  Customer Abuse 
 COMM.                     Ð„:  Run Comments 1 
 TCS .hr                 70.51:  Time Ciculation Ended 
 CV  .mps                 1.41:  Crit Velocity 
 CVMX.mps                 1.42:  Max Crit Veloc 
 DD1 .         Intigam Rahimov:  Direct Drillr 1 
 DD2 .          Rashad Gojayev:  Direct Drillr 2 
 DDSV.               Geo-Pilot:  DD Service 
 DEFF.%                 100.00:  % Det Eff 
 DLRX.°/30m               1.44:  Dogleg Rot Max 
 DLSO.°/30m               0.00:  Dogleg Oriented 
 DLSX.°/30m               0.00:  Dogleg Str Max 
 DRET.      03.05.00 01-Feb-20:  Drill End Time 
 DRST.      15.50.00 28-Jan-20:  Drill Start Tim 
 DTIM.hr                 24.70:  Time Drilling 
 EDEP.m                4047.51:  End Depth 
 ENG1.           Eldar Hajiyev:  Engineer 1 
 ENG2.          Rasim Hashimov:  Engineer 2 
 ENG3.          Rustam Safarov:  Engineer 3 
 ETIM.      22.00.00 01-Feb-20:  End Time 
 FLOI.gpm               370.00:  Flow In 
 FLON.gpm               300.00:  Flow In Min 
 FLOS.cptm                0.00:  Fluid Loss 
 FLOX.gpm               400.00:  Flow In Max 
 FTRO.       Formation Presure:  FTWD Run Obj 
 HFLO.                      No:  High Flow 
 HPRE.                      No:  High Pressure 
 HTEM.                      No:  High Temp 
 HYDO.m                   2.50:  Hydro Offset 
 IFIN.deg                39.54:  Inc, Final 
 IMAX.deg                41.14:  Inc Max 
 IMIN.deg                39.81:  Inc Min 
 IMND.m                4005.21:  Inc Min Depth 
 IMXD.m                3948.42:  Inc Max Depth 
 JARR.                      No:  Jarring 
 LETM.      03.05.00 01-Feb-20:  Log End Time 
 LOST.hr                     0:  Lost Rig Time 
 LSTM.      15.50.00 28-Jan-20:  Log Start Time 
 MDCL.ppm             37500.00:  Mud Chlorides 
 MDES.     Inversion Oil/Synthetic:  Mud Desc 
 DFD .sg                  1.32:  Mud Density 
 MDMN.sg                  1.32:  Dens Mud Min 
 MDMX.sg                  1.32:  Dens Mud Max 
 MOIL.                      55:  Run Mud Oil % 
 MOWR.                   70:30:  Run Mud OWR 
 MSND.                       0:  Run Mud Sand % 
 MSOL.                      17:  Run Mud Solids% 
 DFV .spqt               80.00:  Mud Viscosity 
 MWOD.in                  4.75:  MWD Tool OD 
 MWSI.                      No:  Serv Intrp, MWD 
 OTIM.hr                121.28:  Time Operating 
 PCON.           Look Like New:  Pad Condition 
 PMAX.psia             6171.00:  Press Op, Max 
 PV  .cP                 30.00:  Mud PV 
 RUN .                     300:  Run Number 
 ROPA.m/hr                5.45:  ROP Avg 
 ROPN.m/hr                3.00:  ROP Min 
 ROPX.m/hr               15.00:  ROP Max 
 RPMA.rpm               130.00:  RPM Surface Avg 
 RPMN.rpm                80.00:  RPM Surface Min 
 RPMX.rpm               140.00:  RPM Surface Max 
 RRUN.                     300:  Rig Run Number 
 RTIM.hr                 13.50:  Time Reaming 
 SAZI.deg               133.93:  Azm, Start 
 SDEP.m                3878.01:  Start Depth 
 SIDD.                      No:  Serv Intrp, DD 
 SINC.deg                40.28:  Inc, Start 
 SPPA.psig             4983.00:  SPP Avg 
 SPPN.psig             4370.00:  SPP Min 
 SPPX.psig             5300.00:  SPP Max 
 STIM.      18.33.36 27-Jan-20:  Start Time 
 SVCS.                 DD, MWD:  Services 
 SVER.                    9.20:  Sperry Version 
 TDAT.m                 169.50:  Tot Depth Attmp 
 TDDF.                      No:  Trip for DD 
 TDLG.m                 169.50:  Tot Depth Loggd 
 TFF .                      No:  Trip for Fail 
 TQAA.f-kp               13.25:  Torque Abs Avg 
 TQAN.f-kp               12.00:  Torque Abs Min 
 TQAX.f-kp               14.00:  Torque Abs Max 
 TRRT.°/30m               0.70:  Turn Rotating 
 MRT .                     ADR:  Maximum Recorded Temperature 
 TTMX.degC               92.16:  Max Tool Temp 
 VS01.       AZ90598764G12V7D4:  Virtual Str1 SN 
 VS02.         AZ90571342R12C4:  Virtual Str2 SN 
 VS03.      AZ90580010N2L2X1C4:  Virtual Str3 SN 
 VS04.        AZ90522266O7X1C4:  Virtual Str4 SN 
 VS05.           AZ90598768F11:  Virtual Str5 SN 
 VS06.     AZ90580006XZ1W1X1C4:  Virtual Str6 SN 
 WBMN.klb                 8.00:  WOB Min 
 WITN.            Peter Wilson:  Customer Rep 
 WOBA.klb                 9.88:  WOB Avg 
 WOBX.klb                10.00:  WOB Max 
 YP  .lhf2               27.00:  Yield Point 
~Curve Information Block
#MNEM.UNIT                 API CODE     Curve Description
#---------               -----------    ---------------------------
 TIME.HHMMSS            00 000 000 000:  GT Time & Date
 GTDEPTH.m              00 000 000 000:  GT Depth
 GTPQH.psia             00 000 000 000:  GT HR Quartz Pressure
 GTTQ.degC              00 000 000 000:  GT Quartz Temperature
 GTTN.NONE              00 000 000 000:  GT Test Number
 GTET.sec               00 000 000 000:  GT Elapsed Test Time
 GTTVD.m                00 000 000 000:  GT True Vertical Depth
#Other Information
#
#WARRANTY: Halliburton will use its best efforts to furnish customers with 
#accurate information and interpretations that are part of, and incident to, the services 
#provided.  However, Halliburton cannot and does not warrant the accuracy 
#or correctness of such information and interpretations.  Under no circumstances should any 
#such information or interpretation be relied upon as the sole basis for any drilling, 
#completion, production, or financial decision or any procedure involving any risk to the 
#safety of any drilling venture, drilling rig or its crew or any other third party.  The 
#Customer has full responsibility for all drilling, completion and production operation.  
#Halliburton makes no representations or warranties, either expressed or 
#implied, including, but not limited to, the implied warranties of merchantability or fitness 
#for a particular purpose, with respect to the services rendered.  In no event will 
#Halliburton be liable for failure to obtain any particular results or for 
#any damages, including, but not limited to, indirect, special or consequential damages, 
#resulting from the use of any information or interpretation provided by Halliburton.
#
~A           TIME           GTDEPTH  GTPQH  GTTQ  GTTN  GTET   GTTVD  
# ...
   06:25:44.732.31-Jan-2020 3914.01 6689.17 79.30 4.00  23.00 2947.83
   06:25:44.932.31-Jan-2020 3914.01 6689.17 79.30 4.00  23.20 2947.83
   06:25:45.132.31-Jan-2020 3914.01 6692.97 79.30 4.00  23.40 2947.83
   06:25:45.332.31-Jan-2020 3914.01 6696.29 79.30 4.00  23.60 2947.83
   06:25:45.532.31-Jan-2020 3914.01 6698.42 79.30 4.00  23.80 2947.83
   06:25:45.732.31-Jan-2020 3914.01 6700.58 79.30 4.00  24.00 2947.83
   06:25:45.932.31-Jan-2020 3914.01 6700.58 79.30 4.00  24.20 2947.83
   06:25:46.132.31-Jan-2020 3914.01 6704.39 79.29 4.00  24.40 2947.83
   06:25:46.332.31-Jan-2020 3914.01 6705.34 79.29 4.00  24.60 2947.83
   06:25:46.533.31-Jan-2020 3914.01 6706.42 79.29 4.00  24.81 2947.83
   06:25:46.733.31-Jan-2020 3914.01 6708.20 79.29 4.00  25.01 2947.83
   06:25:46.933.31-Jan-2020 3914.01 6708.20 79.29 4.00  25.21 2947.83
   06:25:47.133.31-Jan-2020 3914.01 6710.01 79.29 4.00  25.41 2947.83
   06:25:47.333.31-Jan-2020 3914.01 6710.91 79.29 4.00  25.61 2947.83
   06:25:47.533.31-Jan-2020 3914.01 6711.67 79.29 4.00  25.81 2947.83
   06:25:47.733.31-Jan-2020 3914.01 6712.37 79.29 4.00  26.01 2947.83
   06:25:47.933.31-Jan-2020 3914.01 6712.37 79.29 4.00  26.21 2947.83
   06:25:48.133.31-Jan-2020 3914.01 5799.49 79.29 4.00  26.41 2947.83
   06:25:48.333.31-Jan-2020 3914.01 5293.93 79.29 4.00  26.61 2947.83
   06:25:48.533.31-Jan-2020 3914.01 4513.65 79.29 4.00  26.81 2947.83
   06:25:48.733.31-Jan-2020 3914.01 3655.27 79.29 4.00  27.01 2947.83
   06:25:48.933.31-Jan-2020 3914.01 3655.27 79.29 4.00  27.21 2947.83
   06:25:49.133.31-Jan-2020 3914.01 3016.19 79.29 4.00  27.41 2947.83
   06:25:49.333.31-Jan-2020 3914.01 2958.05 79.28 4.00  27.61 2947.83
   06:25:49.533.31-Jan-2020 3914.01 2961.20 79.28 4.00  27.81 2947.83
   06:25:49.733.31-Jan-2020 3914.01 2965.89 79.28 4.00  28.01 2947.83
   06:25:49.933.31-Jan-2020 3914.01 2965.89 79.28 4.00  28.21 2947.83
   06:25:50.133.31-Jan-2020 3914.01 2962.26 79.28 4.00  28.41 2947.83
   06:25:50.333.31-Jan-2020 3914.01 2956.21 79.28 4.00  28.61 2947.83
   06:25:50.533.31-Jan-2020 3914.01 2941.65 79.28 4.00  28.81 2947.83
   06:25:50.733.31-Jan-2020 3914.01 2938.43 79.28 4.00  29.01 2947.83
   06:25:50.933.31-Jan-2020 3914.01 2938.43 79.28 4.00  29.21 2947.83
   06:25:51.133.31-Jan-2020 3914.01 2936.34 79.27 4.00  29.41 2947.83
   06:25:51.333.31-Jan-2020 3914.01 2935.74 79.27 4.00  29.61 2947.83
   06:25:51.534.31-Jan-2020 3914.01 2939.24 79.27 4.00  29.81 2947.83
   06:25:51.734.31-Jan-2020 3914.01 2943.32 79.27 4.00  30.01 2947.83
   06:25:51.934.31-Jan-2020 3914.01 2943.32 79.27 4.00  30.21 2947.83
   06:25:52.134.31-Jan-2020 3914.01 2938.47 79.27 4.00  30.41 2947.83
   06:25:52.334.31-Jan-2020 3914.01 2934.69 79.26 4.00  30.61 2947.83
   06:25:52.534.31-Jan-2020 3914.01 2934.27 79.26 4.00  30.81 2947.83
   06:25:52.734.31-Jan-2020 3914.01 2933.28 79.26 4.00  31.01 2947.83
   06:25:52.934.31-Jan-2020 3914.01 2933.28 79.26 4.00  31.21 2947.83
   06:25:53.134.31-Jan-2020 3914.01 2933.08 79.26 4.00  31.41 2947.83
   06:25:53.334.31-Jan-2020 3914.01 2931.33 79.26 4.00  31.61 2947.83
   06:25:53.534.31-Jan-2020 3914.01 2931.65 79.25 4.00  31.81 2947.83
   06:25:53.734.31-Jan-2020 3914.01 2930.80 79.25 4.00  32.01 2947.83
   06:25:53.934.31-Jan-2020 3914.01 2930.80 79.25 4.00  32.21 2947.83
   06:25:54.134.31-Jan-2020 3914.01 2929.99 79.25 4.00  32.41 2947.83
   06:25:54.334.31-Jan-2020 3914.01 2929.02 79.25 4.00  32.61 2947.83
   06:25:54.534.31-Jan-2020 3914.01 2929.87 79.25 4.00  32.81 2947.83
   06:25:54.734.31-Jan-2020 3914.01 2930.51 79.25 4.00  33.01 2947.83
   06:25:54.934.31-Jan-2020 3914.01 2930.51 79.25 4.00  33.21 2947.83
   06:25:55.134.31-Jan-2020 3914.01 2929.78 79.24 4.00  33.41 2947.83
   06:25:55.334.31-Jan-2020 3914.01 2929.09 79.24 4.00  33.61 2947.83
   06:25:55.534.31-Jan-2020 3914.01 2928.71 79.24 4.00  33.81 2947.83
   06:25:55.734.31-Jan-2020 3914.01 2928.53 79.24 4.00  34.01 2947.83
   06:25:55.934.31-Jan-2020 3914.01 2928.53 79.24 4.00  34.21 2947.83
   06:25:56.134.31-Jan-2020 3914.01 2928.03 79.23 4.00  34.41 2947.83
   06:25:56.334.31-Jan-2020 3914.01 2928.85 79.23 4.00  34.61 2947.83
   06:25:56.535.31-Jan-2020 3914.01 2928.12 79.23 4.00  34.81 2947.83
   06:25:56.735.31-Jan-2020 3914.01 2927.33 79.23 4.00  35.01 2947.83
   06:25:56.935.31-Jan-2020 3914.01 2927.33 79.23 4.00  35.21 2947.83
   06:25:57.135.31-Jan-2020 3914.01 2928.31 79.23 4.00  35.41 2947.83
   06:25:57.335.31-Jan-2020 3914.01 2927.85 79.23 4.00  35.61 2947.83
   06:25:57.535.31-Jan-2020 3914.01 2927.35 79.22 4.00  35.81 2947.83
   06:25:57.735.31-Jan-2020 3914.01 2926.84 79.22 4.00  36.01 2947.83
   06:25:57.935.31-Jan-2020 3914.01 2926.84 79.22 4.00  36.21 2947.83
   06:25:58.135.31-Jan-2020 3914.01 2964.29 79.22 4.00  36.41 2947.83
   06:25:58.335.31-Jan-2020 3914.01 2990.47 79.22 4.00  36.61 2947.83
   06:25:58.535.31-Jan-2020 3914.01 2991.57 79.22 4.00  36.81 2947.83
   06:25:58.735.31-Jan-2020 3914.01 2992.08 79.22 4.00  37.01 2947.83
   06:25:58.935.31-Jan-2020 3914.01 2992.08 79.22 4.00  37.21 2947.83
   06:25:59.135.31-Jan-2020 3914.01 2992.60 79.21 4.00  37.41 2947.83
   06:25:59.335.31-Jan-2020 3914.01 2992.81 79.21 4.00  37.61 2947.83
   06:25:59.535.31-Jan-2020 3914.01 2992.94 79.21 4.00  37.81 2947.83
   06:25:59.735.31-Jan-2020 3914.01 2993.19 79.21 4.00  38.01 2947.83
   06:25:59.935.31-Jan-2020 3914.01 2993.19 79.21 4.00  38.21 2947.83
   06:26:00.135.31-Jan-2020 3914.01 2993.32 79.21 4.00  38.41 2947.83
   06:26:00.335.31-Jan-2020 3914.01 2993.18 79.21 4.00  38.61 2947.83
   06:26:00.535.31-Jan-2020 3914.01 2993.58 79.20 4.00  38.81 2947.83
   06:26:00.735.31-Jan-2020 3914.01 2993.58 79.20 4.00  39.01 2947.83
   06:26:00.935.31-Jan-2020 3914.01 2993.58 79.20 4.00  39.21 2947.83
   06:26:01.135.31-Jan-2020 3914.01 2993.61 79.20 4.00  39.41 2947.83
   06:26:01.336.31-Jan-2020 3914.01 2993.74 79.20 4.00  39.61 2947.83
   06:26:01.536.31-Jan-2020 3914.01 2993.79 79.20 4.00  39.81 2947.83
   06:26:01.736.31-Jan-2020 3914.01 2993.79 79.20 4.00  40.01 2947.83
   06:26:01.936.31-Jan-2020 3914.01 2993.79 79.20 4.00  40.21 2947.83
   06:26:02.136.31-Jan-2020 3914.01 2993.84 79.20 4.00  40.41 2947.83
   06:26:02.336.31-Jan-2020 3914.01 2993.92 79.19 4.00  40.61 2947.83
   06:26:02.536.31-Jan-2020 3914.01 2993.96 79.19 4.00  40.81 2947.83
   06:26:02.736.31-Jan-2020 3914.01 2993.98 79.19 4.00  41.01 2947.83
   06:26:02.936.31-Jan-2020 3914.01 2993.98 79.19 4.00  41.21 2947.83
   06:26:03.136.31-Jan-2020 3914.01 2994.02 79.19 4.00  41.41 2947.83
   06:26:03.336.31-Jan-2020 3914.01 2994.11 79.19 4.00  41.61 2947.83
   06:26:03.536.31-Jan-2020 3914.01 2994.06 79.19 4.00  41.81 2947.83
   06:26:03.736.31-Jan-2020 3914.01 2994.11 79.19 4.00  42.01 2947.83
   06:26:03.936.31-Jan-2020 3914.01 2994.11 79.19 4.00  42.21 2947.83
   06:26:04.136.31-Jan-2020 3914.01 2994.17 79.18 4.00  42.41 2947.83
   06:26:04.336.31-Jan-2020 3914.01 2994.12 79.18 4.00  42.61 2947.83
   06:26:04.536.31-Jan-2020 3914.01 2994.15 79.18 4.00  42.81 2947.83
   06:26:04.736.31-Jan-2020 3914.01 2994.14 79.18 4.00  43.01 2947.83
   06:26:04.936.31-Jan-2020 3914.01 2994.14 79.18 4.00  43.21 2947.83
   06:26:05.136.31-Jan-2020 3914.01 2994.26 79.18 4.00  43.41 2947.83
   06:26:05.336.31-Jan-2020 3914.01 2994.27 79.18 4.00  43.61 2947.83
   06:26:05.536.31-Jan-2020 3914.01 2994.19 79.18 4.00  43.81 2947.83
   06:26:05.736.31-Jan-2020 3914.01 2994.24 79.18 4.00  44.01 2947.83
   06:26:05.936.31-Jan-2020 3914.01 2994.24 79.18 4.00  44.21 2947.83
   06:26:06.136.31-Jan-2020 3914.01 2994.25 79.17 4.00  44.41 2947.83
   06:26:06.337.31-Jan-2020 3914.01 2993.98 79.17 4.00  44.61 2947.83
   06:26:06.537.31-Jan-2020 3914.01 2994.40 79.17 4.00  44.81 2947.83
   06:26:06.737.31-Jan-2020 3914.01 2994.33 79.17 4.00  45.01 2947.83
   06:26:06.937.31-Jan-2020 3914.01 2994.33 79.17 4.00  45.21 2947.83
   06:26:07.137.31-Jan-2020 3914.01 2994.30 79.17 4.00  45.41 2947.83
   06:26:07.337.31-Jan-2020 3914.01 2994.34 79.17 4.00  45.61 2947.83
   06:26:07.537.31-Jan-2020 3914.01 2994.03 79.17 4.00  45.81 2947.83
