~Version Information
 VERS.                  2.0:   CWLS log ASCII Standard -VERSION 2.0
 WRAP.                   NO:   One line per depth step
~Well Information Block
#MNEM.UNIT     VALUE/NAME     DESCRIPTION
#---------     -----------    ---------------------------
 STRT.S             21:06:33 30-Jan-20: START TIME 21:06:33 30-Jan-20
 STOP.S             21:13:02 30-Jan-20: STOP TIME  21:13:02 30-Jan-20
 STEP.S                   0.00: STEP TIME
 NULL.                 -999.25: NULL VALUE
 DFWT.                        :  DIST FWL TEXT
 DFST.                        :  DIST FSL TEXT
 DMF .             Drill Floor:  DRILL MEAS FROM
 STIM.      09.30.00 26-Dec-19:  START TIME
 DATE.      08.00.00 20-Jan-20:  END TIME
 SPUD.               23-Nov-19:  SPUD DATE
 NREF.                    Grid:  NORTH REFERENCE
 HPTY.       Minimum Curvature:  HOLE POS TYPE
 DMOD.             Drill Model:  DRILL MOD DESC
 SVYD.                  Survey:  SURVEY DESC
 ILTD.               Lithology:  INTERP LTH DESC
 FTOP.          Formation Tops:  FORM TOPS DESC
 SON .        AZ-XX-0906192647:  JOB NUMBER
 WTYP.                Deviated:  WELL TYPE
 COMP.     BP Exploration (Caspian Sea) Ltd:  COMPANY
 BASE.              Azerbaijan:  LOGGING EQUIPMENT BASE LOCATION
 REGN.                 Eurasia:  REGION
 FLD .                     ACG:  FIELD NAME
 SRVC.              KCA Deutag:  CONTRACTOR
 MWDS.                    Baku:  MWD SHOP
 WELL.     A10 (Slot 20) - SCP:  WELL NAME
 JOBN.        AZ-XX-0906192647:  JOB TICKET NUMB
 RIG .                 Chirag1:  RIG NAME
 DCON.     Halliburton Sperry Drilling:  DIRECTNL CONTR
 UNIT.                     N/A:  LOGGING EQUIPMENT ID
 PDAT.          Mean Sea Level:  PERMANENT DATUM
 MDS .        Operator Entered:  MAG DATA SOURCE
 CTRY.              Azerbaijan:  COUNTRY NAME
 UWI .            /AZE00000090:  UNIQUE WELL IDENTIFIER
 API .            /AZE00000090:  API NUMBER
 CNTY.                        :  COUNTY
 PROV.                        :  PROVINCE
 STAT.                        :  STATE
 LOC .                        :  LOCATION
 LMF .             Drill Floor:  LOG MEASURED FROM
 TVDS.m                  36.60:  TVDSS CORRECTN
 LATI.deg                40.08:  LATITUDE
 LONG.deg                51.24:  LONGITUDE
 WHNS.m                  -7.94:  WELL HEAD N/S
 WHEW.m                   1.56:  WELL HEAD E/W
 UTMX.m              520429.26:  UTM X
 UTMY.m             4438973.87:  UTM Y
 DFWL.m                   0.00:  DISTANCE FWL
 DFSL.m                   0.00:  DISTANCE FSL
 SDEP.m                1455.00:  START DEPTH
 TDD .m                4047.51:  TOTAL DEPTH (DRILLER)
 VSDR.deg               112.75:  VERT SEC DIRECT
 GVFD.g                   1.00:  GRAVITY FIELD
 MFLD.nT              50261.00:  MAGNETIC FIELD
 MDIP.deg                59.52:  MAGNETIC DIP
 MDEC.deg                 6.42:  MAGNETIC DECL
 GRDC.deg                 0.17:  GRID CORRECTION
 AZTC.deg                 6.25:  AZM TOTAL CORR
 EPD .m                   0.00:  ELEVATION
 EGL .m                   0.00:  GROUND ELEVATION
 WDMS.m                 121.00:  WD ELEV
 APD .m                  36.60:  DEPTH ABOVE PD
 AGAP.m                  36.60:  AIR GAP
 VSEW.m                   1.56:  VERT SEC E/W
 VSNS.m                  -7.94:  VERT SEC N/S
 DEP .m                1140.01:  DEPTH
 EKB .m                  36.60:  KB ELEVATION
 EDF .m                  36.60:  DF ELEVATION
 TDL .m                 169.50:  TOTAL DEPTH (LOGGER)
 CSGD.m                3875.01:  CASING BOTTOM (DRILLER)
 CSGL.m                3875.01:  CASING BOTTOM (LOGGER)
 CSGS.in                  7.63:  CASING SIZE
 CSGW.lbpf               23.50:  CASING WEIGHT
 VSC .                       0:  VS TO CLOSURE
 MAGU.                 1849206:  MAGUTM CHECKSUM
~Parameter Information Block
#MNEM.UNIT       Value        Description
#---------     -----------    ---------------------------
 AV  .mps                 1.90:  Ann Velocity 
 AVMX.mps                 2.54:  Max Ann Veloc 
 AZIF.deg               137.03:  Azm, Final 
 BHAT.        Rotary Steerable:  BHA Type 
 BREV.rev             23610.00:  Rev Bit Total 
 BROT.°/30m               0.80:  Build Rotating 
 BS  .in                  6.50:  Bit Size 
 BTPL.psig              110.00:  Bit Press Loss 
 CABU.                     Yes:  Customer Abuse 
 TCS .hr                 70.51:  Time Ciculation Ended 
 CV  .mps                 1.41:  Crit Velocity 
 CVMX.mps                 1.42:  Max Crit Veloc 
 DD1 .         Intigam Rahimov:  Direct Drillr 1 
 DD2 .          Rashad Gojayev:  Direct Drillr 2 
 DDSV.               Geo-Pilot:  DD Service 
 DEFF.%                 100.00:  % Det Eff 
 DLRX.°/30m               1.44:  Dogleg Rot Max 
 DLSO.°/30m               0.00:  Dogleg Oriented 
 DLSX.°/30m               0.00:  Dogleg Str Max 
 DRET.      03.05.00 01-Feb-20:  Drill End Time 
 DRST.      15.50.00 28-Jan-20:  Drill Start Tim 
 DTIM.hr                 24.70:  Time Drilling 
 EDEP.m                4047.51:  End Depth 
 ENG1.           Eldar Hajiyev:  Engineer 1 
 ENG2.          Rasim Hashimov:  Engineer 2 
 ENG3.          Rustam Safarov:  Engineer 3 
 ETIM.      22.00.00 01-Feb-20:  End Time 
 FLOI.gpm               370.00:  Flow In 
 FLON.gpm               300.00:  Flow In Min 
 FLOS.cptm                0.00:  Fluid Loss 
 FLOX.gpm               400.00:  Flow In Max 
 FTRO.       Formation Presure:  FTWD Run Obj 
 HFLO.                      No:  High Flow 
 HPRE.                      No:  High Pressure 
 HTEM.                      No:  High Temp 
 HYDO.m                   2.50:  Hydro Offset 
 IFIN.deg                39.54:  Inc, Final 
 IMAX.deg                41.14:  Inc Max 
 IMIN.deg                39.81:  Inc Min 
 IMND.m                4005.21:  Inc Min Depth 
 IMXD.m                3948.42:  Inc Max Depth 
 JARR.                      No:  Jarring 
 LETM.      03.05.00 01-Feb-20:  Log End Time 
 LOST.hr                     0:  Lost Rig Time 
 LSTM.      15.50.00 28-Jan-20:  Log Start Time 
 MDCL.ppm             37500.00:  Mud Chlorides 
 MDES.     Inversion Oil/Synthetic:  Mud Desc 
 DFD .sg                  1.32:  Mud Density 
 MDMN.sg                  1.32:  Dens Mud Min 
 MDMX.sg                  1.32:  Dens Mud Max 
 MOIL.                      55:  Run Mud Oil % 
 MOWR.                   70:30:  Run Mud OWR 
 MSND.                       0:  Run Mud Sand % 
 MSOL.                      17:  Run Mud Solids% 
 DFV .spqt               80.00:  Mud Viscosity 
 MWOD.in                  4.75:  MWD Tool OD 
 MWSI.                      No:  Serv Intrp, MWD 
 OTIM.hr                121.28:  Time Operating 
 PCON.           Look Like New:  Pad Condition 
 PMAX.psia             6171.00:  Press Op, Max 
 PV  .cP                 30.00:  Mud PV 
 RUN .                     300:  Run Number 
 ROPA.m/hr                5.45:  ROP Avg 
 ROPN.m/hr                3.00:  ROP Min 
 ROPX.m/hr               15.00:  ROP Max 
 RPMA.rpm               130.00:  RPM Surface Avg 
 RPMN.rpm                80.00:  RPM Surface Min 
 RPMX.rpm               140.00:  RPM Surface Max 
 RRUN.                     300:  Rig Run Number 
 RTIM.hr                 13.50:  Time Reaming 
 SAZI.deg               133.93:  Azm, Start 
 SDEP.m                3878.01:  Start Depth 
 SIDD.                      No:  Serv Intrp, DD 
 SINC.deg                40.28:  Inc, Start 
 SPPA.psig             4983.00:  SPP Avg 
 SPPN.psig             4370.00:  SPP Min 
 SPPX.psig             5300.00:  SPP Max 
 STIM.      18.33.36 27-Jan-20:  Start Time 
 SVCS.                 DD, MWD:  Services 
 SVER.                    9.20:  Sperry Version 
 TDAT.m                 169.50:  Tot Depth Attmp 
 TDDF.                      No:  Trip for DD 
 TDLG.m                 169.50:  Tot Depth Loggd 
 TFF .                      No:  Trip for Fail 
 TQAA.f-kp               13.25:  Torque Abs Avg 
 TQAN.f-kp               12.00:  Torque Abs Min 
 TQAX.f-kp               14.00:  Torque Abs Max 
 TRRT.°/30m               0.70:  Turn Rotating 
 MRT .                     ADR:  Maximum Recorded Temperature 
 TTMX.degC               92.16:  Max Tool Temp 
 VS01.       AZ90598764G12V7D4:  Virtual Str1 SN 
 VS02.         AZ90571342R12C4:  Virtual Str2 SN 
 VS03.      AZ90580010N2L2X1C4:  Virtual Str3 SN 
 VS04.        AZ90522266O7X1C4:  Virtual Str4 SN 
 VS05.           AZ90598768F11:  Virtual Str5 SN 
 VS06.     AZ90580006XZ1W1X1C4:  Virtual Str6 SN 
 WBMN.klb                 8.00:  WOB Min 
 WITN.            Peter Wilson:  Customer Rep 
 WOBA.klb                 9.88:  WOB Avg 
 WOBX.klb                10.00:  WOB Max 
 YP  .lhf2               27.00:  Yield Point 
~Curve Information Block
#MNEM.UNIT                 API CODE     Curve Description
#---------               -----------    ---------------------------
 TIME.HHMMSS            00 000 000 000:  GT Time & Date
 GTDEPTH.m              00 000 000 000:  GT Depth
 GTPQH.psia             00 000 000 000:  GT HR Quartz Pressure
 GTTQ.degC              00 000 000 000:  GT Quartz Temperature
 GTTN.NONE              00 000 000 000:  GT Test Number
 GTET.sec               00 000 000 000:  GT Elapsed Test Time
 GTTVD.m                00 000 000 000:  GT True Vertical Depth
#Other Information
#
#WARRANTY: Halliburton will use its best efforts to furnish customers with 
#accurate information and interpretations that are part of, and incident to, the services 
#provided.  However, Halliburton cannot and does not warrant the accuracy 
#or correctness of such information and interpretations.  Under no circumstances should any 
#such information or interpretation be relied upon as the sole basis for any drilling, 
#completion, production, or financial decision or any procedure involving any risk to the 
#safety of any drilling venture, drilling rig or its crew or any other third party.  The 
#Customer has full responsibility for all drilling, completion and production operation.  
#Halliburton makes no representations or warranties, either expressed or 
#implied, including, but not limited to, the implied warranties of merchantability or fitness 
#for a particular purpose, with respect to the services rendered.  In no event will 
#Halliburton be liable for failure to obtain any particular results or for 
#any damages, including, but not limited to, indirect, special or consequential damages, 
#resulting from the use of any information or interpretation provided by Halliburton.
#
~A           TIME           GTDEPTH  GTPQH  GTTQ  GTTN  GTET   GTTVD  
# ...
   21:08:51.031.30-Jan-2020 3895.01 2051.19 72.81 2.00 138.03 2933.47
   21:08:51.231.30-Jan-2020 3895.01 2051.19 72.81 2.00 138.23 2933.47
   21:08:51.431.30-Jan-2020 3895.01 2101.80 72.80 2.00 138.43 2933.47
   21:08:51.631.30-Jan-2020 3895.01 2128.86 72.80 2.00 138.63 2933.47
   21:08:51.831.30-Jan-2020 3895.01 2144.73 72.80 2.00 138.83 2933.47
   21:08:52.031.30-Jan-2020 3895.01 2149.94 72.80 2.00 139.03 2933.47
   21:08:52.231.30-Jan-2020 3895.01 2149.94 72.80 2.00 139.23 2933.47
   21:08:52.431.30-Jan-2020 3895.01 2152.83 72.80 2.00 139.43 2933.47
   21:08:52.631.30-Jan-2020 3895.01 2156.96 72.80 2.00 139.63 2933.47
   21:08:52.831.30-Jan-2020 3895.01 2159.09 72.80 2.00 139.83 2933.47
   21:08:53.031.30-Jan-2020 3895.01 2163.23 72.80 2.00 140.03 2933.47
   21:08:53.231.30-Jan-2020 3895.01 2163.23 72.80 2.00 140.23 2933.47
   21:08:53.431.30-Jan-2020 3895.01 2169.50 72.80 2.00 140.43 2933.47
   21:08:53.631.30-Jan-2020 3895.01 2171.50 72.79 2.00 140.63 2933.47
   21:08:53.831.30-Jan-2020 3895.01 2172.38 72.79 2.00 140.83 2933.47
   21:08:54.031.30-Jan-2020 3895.01 2173.80 72.79 2.00 141.03 2933.47
   21:08:54.231.30-Jan-2020 3895.01 2173.80 72.79 2.00 141.23 2933.47
   21:08:54.431.30-Jan-2020 3895.01 2173.67 72.79 2.00 141.43 2933.47
   21:08:54.631.30-Jan-2020 3895.01 2174.82 72.79 2.00 141.63 2933.47
   21:08:54.831.30-Jan-2020 3895.01 2170.63 72.79 2.00 141.83 2933.47
   21:08:55.031.30-Jan-2020 3895.01 2176.72 72.79 2.00 142.03 2933.47
   21:08:55.231.30-Jan-2020 3895.01 2176.72 72.79 2.00 142.23 2933.47
   21:08:55.431.30-Jan-2020 3895.01 2176.04 72.79 2.00 142.43 2933.47
   21:08:55.631.30-Jan-2020 3895.01 2177.06 72.79 2.00 142.63 2933.47
   21:08:55.831.30-Jan-2020 3895.01 2178.92 72.79 2.00 142.83 2933.47
   21:08:56.032.30-Jan-2020 3895.01 2378.02 72.79 2.00 143.03 2933.47
   21:08:56.232.30-Jan-2020 3895.01 2378.02 72.79 2.00 143.23 2933.47
   21:08:56.432.30-Jan-2020 3895.01 2831.27 72.78 2.00 143.43 2933.47
   21:08:56.632.30-Jan-2020 3895.01 2903.25 72.78 2.00 143.63 2933.47
   21:08:56.832.30-Jan-2020 3895.01 2937.78 72.78 2.00 143.83 2933.47
   21:08:57.032.30-Jan-2020 3895.01 2954.68 72.78 2.00 144.03 2933.47
   21:08:57.232.30-Jan-2020 3895.01 2954.68 72.78 2.00 144.23 2933.47
   21:08:57.432.30-Jan-2020 3895.01 2968.04 72.78 2.00 144.43 2933.47
   21:08:57.632.30-Jan-2020 3895.01 2970.77 72.78 2.00 144.63 2933.47
   21:08:57.832.30-Jan-2020 3895.01 2972.56 72.78 2.00 144.83 2933.47
   21:08:58.032.30-Jan-2020 3895.01 2972.79 72.78 2.00 145.03 2933.47
   21:08:58.232.30-Jan-2020 3895.01 2972.79 72.78 2.00 145.23 2933.47
   21:08:58.432.30-Jan-2020 3895.01 2975.02 72.78 2.00 145.43 2933.47
   21:08:58.632.30-Jan-2020 3895.01 2975.48 72.78 2.00 145.63 2933.47
   21:08:58.832.30-Jan-2020 3895.01 2976.00 72.78 2.00 145.83 2933.47
   21:08:59.032.30-Jan-2020 3895.01 2975.74 72.78 2.00 146.03 2933.47
   21:08:59.232.30-Jan-2020 3895.01 2975.74 72.78 2.00 146.23 2933.47
   21:08:59.432.30-Jan-2020 3895.01 2977.05 72.78 2.00 146.43 2933.47
   21:08:59.632.30-Jan-2020 3895.01 2977.28 72.78 2.00 146.63 2933.47
   21:08:59.832.30-Jan-2020 3895.01 2977.43 72.78 2.00 146.83 2933.47
   21:09:00.032.30-Jan-2020 3895.01 2977.65 72.77 2.00 147.03 2933.47
   21:09:00.232.30-Jan-2020 3895.01 2977.65 72.77 2.00 147.23 2933.47
   21:09:00.432.30-Jan-2020 3895.01 2978.06 72.77 2.00 147.43 2933.47
   21:09:00.632.30-Jan-2020 3895.01 2978.21 72.77 2.00 147.63 2933.47
   21:09:00.832.30-Jan-2020 3895.01 2978.36 72.77 2.00 147.83 2933.47
   21:09:01.032.30-Jan-2020 3895.01 2978.59 72.77 2.00 148.03 2933.47
   21:09:01.233.30-Jan-2020 3895.01 2978.59 72.77 2.00 148.23 2933.47
   21:09:01.433.30-Jan-2020 3895.01 2978.41 72.77 2.00 148.43 2933.47
   21:09:01.633.30-Jan-2020 3895.01 2978.47 72.77 2.00 148.63 2933.47
   21:09:01.833.30-Jan-2020 3895.01 2979.07 72.77 2.00 148.83 2933.47
   21:09:02.033.30-Jan-2020 3895.01 2979.11 72.77 2.00 149.03 2933.47
   21:09:02.233.30-Jan-2020 3895.01 2979.11 72.77 2.00 149.23 2933.47
   21:09:02.433.30-Jan-2020 3895.01 2978.51 72.77 2.00 149.43 2933.47
   21:09:02.633.30-Jan-2020 3895.01 2979.44 72.77 2.00 149.63 2933.47
   21:09:02.833.30-Jan-2020 3895.01 2979.39 72.77 2.00 149.83 2933.47
   21:09:03.033.30-Jan-2020 3895.01 2979.54 72.77 2.00 150.03 2933.47
   21:09:03.233.30-Jan-2020 3895.01 2979.54 72.77 2.00 150.23 2933.47
   21:09:03.433.30-Jan-2020 3895.01 2979.49 72.77 2.00 150.43 2933.47
   21:09:03.633.30-Jan-2020 3895.01 2979.50 72.77 2.00 150.63 2933.47
   21:09:03.833.30-Jan-2020 3895.01 2979.53 72.77 2.00 150.83 2933.47
   21:09:04.033.30-Jan-2020 3895.01 2979.52 72.77 2.00 151.03 2933.47
   21:09:04.233.30-Jan-2020 3895.01 2979.52 72.77 2.00 151.23 2933.47
   21:09:04.433.30-Jan-2020 3895.01 2979.82 72.77 2.00 151.43 2933.47
   21:09:04.633.30-Jan-2020 3895.01 2979.79 72.77 2.00 151.63 2933.47
   21:09:04.833.30-Jan-2020 3895.01 2979.78 72.76 2.00 151.83 2933.47
   21:09:05.033.30-Jan-2020 3895.01 2979.76 72.76 2.00 152.03 2933.47
   21:09:05.233.30-Jan-2020 3895.01 2979.76 72.76 2.00 152.23 2933.47
   21:09:05.433.30-Jan-2020 3895.01 2980.00 72.76 2.00 152.43 2933.47
   21:09:05.633.30-Jan-2020 3895.01 2979.90 72.76 2.00 152.63 2933.47
   21:09:05.833.30-Jan-2020 3895.01 2979.99 72.76 2.00 152.83 2933.47
   21:09:06.033.30-Jan-2020 3895.01 2979.89 72.76 2.00 153.03 2933.47
   21:09:06.233.30-Jan-2020 3895.01 2979.89 72.76 2.00 153.23 2933.47
   21:09:06.433.30-Jan-2020 3895.01 2980.32 72.76 2.00 153.43 2933.47
   21:09:06.634.30-Jan-2020 3895.01 2980.26 72.76 2.00 153.63 2933.47
   21:09:06.834.30-Jan-2020 3895.01 2980.29 72.76 2.00 153.83 2933.47
   21:09:07.034.30-Jan-2020 3895.01 2980.31 72.76 2.00 154.03 2933.47
   21:09:07.234.30-Jan-2020 3895.01 2980.31 72.76 2.00 154.23 2933.47
   21:09:07.434.30-Jan-2020 3895.01 2980.31 72.76 2.00 154.43 2933.47
   21:09:07.634.30-Jan-2020 3895.01 2980.28 72.76 2.00 154.63 2933.47
   21:09:07.834.30-Jan-2020 3895.01 2980.28 72.76 2.00 154.83 2933.47
   21:09:08.034.30-Jan-2020 3895.01 2980.34 72.76 2.00 155.03 2933.47
   21:09:08.234.30-Jan-2020 3895.01 2980.34 72.76 2.00 155.23 2933.47
   21:09:08.434.30-Jan-2020 3895.01 2980.46 72.76 2.00 155.43 2933.47
   21:09:08.634.30-Jan-2020 3895.01 2980.41 72.76 2.00 155.63 2933.47
   21:09:08.834.30-Jan-2020 3895.01 2980.39 72.76 2.00 155.83 2933.47
   21:09:09.034.30-Jan-2020 3895.01 2980.58 72.76 2.00 156.03 2933.47
   21:09:09.234.30-Jan-2020 3895.01 2980.58 72.76 2.00 156.23 2933.47
   21:09:09.434.30-Jan-2020 3895.01 2979.92 72.75 2.00 156.43 2933.47
   21:09:09.634.30-Jan-2020 3895.01 2980.73 72.75 2.00 156.63 2933.47
   21:09:09.834.30-Jan-2020 3895.01 2980.65 72.75 2.00 156.83 2933.47
   21:09:10.034.30-Jan-2020 3895.01 2980.61 72.75 2.00 157.03 2933.47
   21:09:10.234.30-Jan-2020 3895.01 2980.61 72.75 2.00 157.23 2933.47
   21:09:10.434.30-Jan-2020 3895.01 2980.70 72.75 2.00 157.43 2933.47
   21:09:10.634.30-Jan-2020 3895.01 2980.89 72.75 2.00 157.63 2933.47
   21:09:10.834.30-Jan-2020 3895.01 2980.75 72.75 2.00 157.83 2933.47
   21:09:11.034.30-Jan-2020 3895.01 2980.74 72.75 2.00 158.03 2933.47
   21:09:11.234.30-Jan-2020 3895.01 2980.74 72.75 2.00 158.23 2933.47
   21:09:11.434.30-Jan-2020 3895.01 2980.65 72.75 2.00 158.43 2933.47
   21:09:11.634.30-Jan-2020 3895.01 2980.48 72.75 2.00 158.63 2933.47
   21:09:11.834.30-Jan-2020 3895.01 2980.44 72.75 2.00 158.83 2933.47
   21:09:12.035.30-Jan-2020 3895.01 2980.81 72.75 2.00 159.03 2933.47
   21:09:12.235.30-Jan-2020 3895.01 2980.81 72.75 2.00 159.23 2933.47
   21:09:12.435.30-Jan-2020 3895.01 2980.71 72.75 2.00 159.43 2933.47
   21:09:12.635.30-Jan-2020 3895.01 2980.43 72.75 2.00 159.63 2933.47
   21:09:12.835.30-Jan-2020 3895.01 2980.95 72.75 2.00 159.83 2933.47
   21:09:13.035.30-Jan-2020 3895.01 2980.83 72.75 2.00 160.03 2933.47
   21:09:13.235.30-Jan-2020 3895.01 2980.83 72.75 2.00 160.23 2933.47
   21:09:13.435.30-Jan-2020 3895.01 2980.87 72.75 2.00 160.43 2933.47
   21:09:13.635.30-Jan-2020 3895.01 2980.81 72.74 2.00 160.63 2933.47
   21:09:13.835.30-Jan-2020 3895.01 2980.23 72.74 2.00 160.83 2933.47
