~Version Information
 VERS.                  2.0:   CWLS log ASCII Standard -VERSION 2.0
 WRAP.                   NO:   One line per depth step
~Well Information Block
#MNEM.UNIT     VALUE/NAME     DESCRIPTION
#---------     -----------    ---------------------------
 STRT.S             01:28:25 01-Feb-20: START TIME 01:28:25 01-Feb-20
 STOP.S             01:36:19 01-Feb-20: STOP TIME  01:36:19 01-Feb-20
 STEP.S                   0.00: STEP TIME
 NULL.                 -999.25: NULL VALUE
 DFWT.                        :  DIST FWL TEXT
 DFST.                        :  DIST FSL TEXT
 DMF .             Drill Floor:  DRILL MEAS FROM
 STIM.      09.30.00 26-Dec-19:  START TIME
 DATE.      08.00.00 20-Jan-20:  END TIME
 SPUD.               23-Nov-19:  SPUD DATE
 NREF.                    Grid:  NORTH REFERENCE
 HPTY.       Minimum Curvature:  HOLE POS TYPE
 DMOD.             Drill Model:  DRILL MOD DESC
 SVYD.                  Survey:  SURVEY DESC
 ILTD.               Lithology:  INTERP LTH DESC
 FTOP.          Formation Tops:  FORM TOPS DESC
 SON .        AZ-XX-0906192647:  JOB NUMBER
 WTYP.                Deviated:  WELL TYPE
 COMP.     BP Exploration (Caspian Sea) Ltd:  COMPANY
 BASE.              Azerbaijan:  LOGGING EQUIPMENT BASE LOCATION
 REGN.                 Eurasia:  REGION
 FLD .                     ACG:  FIELD NAME
 SRVC.              KCA Deutag:  CONTRACTOR
 MWDS.                    Baku:  MWD SHOP
 WELL.     A10 (Slot 20) - SCP:  WELL NAME
 JOBN.        AZ-XX-0906192647:  JOB TICKET NUMB
 RIG .                 Chirag1:  RIG NAME
 DCON.     Halliburton Sperry Drilling:  DIRECTNL CONTR
 UNIT.                     N/A:  LOGGING EQUIPMENT ID
 PDAT.          Mean Sea Level:  PERMANENT DATUM
 MDS .        Operator Entered:  MAG DATA SOURCE
 CTRY.              Azerbaijan:  COUNTRY NAME
 UWI .            /AZE00000090:  UNIQUE WELL IDENTIFIER
 API .            /AZE00000090:  API NUMBER
 CNTY.                        :  COUNTY
 PROV.                        :  PROVINCE
 STAT.                        :  STATE
 LOC .                        :  LOCATION
 LMF .             Drill Floor:  LOG MEASURED FROM
 TVDS.m                  36.60:  TVDSS CORRECTN
 LATI.deg                40.08:  LATITUDE
 LONG.deg                51.24:  LONGITUDE
 WHNS.m                  -7.94:  WELL HEAD N/S
 WHEW.m                   1.56:  WELL HEAD E/W
 UTMX.m              520429.26:  UTM X
 UTMY.m             4438973.87:  UTM Y
 DFWL.m                   0.00:  DISTANCE FWL
 DFSL.m                   0.00:  DISTANCE FSL
 SDEP.m                1455.00:  START DEPTH
 TDD .m                4047.51:  TOTAL DEPTH (DRILLER)
 VSDR.deg               112.75:  VERT SEC DIRECT
 GVFD.g                   1.00:  GRAVITY FIELD
 MFLD.nT              50261.00:  MAGNETIC FIELD
 MDIP.deg                59.52:  MAGNETIC DIP
 MDEC.deg                 6.42:  MAGNETIC DECL
 GRDC.deg                 0.17:  GRID CORRECTION
 AZTC.deg                 6.25:  AZM TOTAL CORR
 EPD .m                   0.00:  ELEVATION
 EGL .m                   0.00:  GROUND ELEVATION
 WDMS.m                 121.00:  WD ELEV
 APD .m                  36.60:  DEPTH ABOVE PD
 AGAP.m                  36.60:  AIR GAP
 VSEW.m                   1.56:  VERT SEC E/W
 VSNS.m                  -7.94:  VERT SEC N/S
 DEP .m                1140.01:  DEPTH
 EKB .m                  36.60:  KB ELEVATION
 EDF .m                  36.60:  DF ELEVATION
 TDL .m                 169.50:  TOTAL DEPTH (LOGGER)
 CSGD.m                3875.01:  CASING BOTTOM (DRILLER)
 CSGL.m                3875.01:  CASING BOTTOM (LOGGER)
 CSGS.in                  7.63:  CASING SIZE
 CSGW.lbpf               23.50:  CASING WEIGHT
 VSC .                       0:  VS TO CLOSURE
 MAGU.                 1849206:  MAGUTM CHECKSUM
~Parameter Information Block
#MNEM.UNIT       Value        Description
#---------     -----------    ---------------------------
 AV  .mps                 1.90:  Ann Velocity 
 AVMX.mps                 2.54:  Max Ann Veloc 
 AZIF.deg               137.03:  Azm, Final 
 BHAT.        Rotary Steerable:  BHA Type 
 BREV.rev             23610.00:  Rev Bit Total 
 BROT.°/30m               0.80:  Build Rotating 
 BS  .in                  6.50:  Bit Size 
 BTPL.psig              110.00:  Bit Press Loss 
 CABU.                     Yes:  Customer Abuse 
 COMM.                     ì…†:  Run Comments 1 
 TCS .hr                 70.51:  Time Ciculation Ended 
 CV  .mps                 1.41:  Crit Velocity 
 CVMX.mps                 1.42:  Max Crit Veloc 
 DD1 .         Intigam Rahimov:  Direct Drillr 1 
 DD2 .          Rashad Gojayev:  Direct Drillr 2 
 DDSV.               Geo-Pilot:  DD Service 
 DEFF.%                 100.00:  % Det Eff 
 DLRX.°/30m               1.44:  Dogleg Rot Max 
 DLSO.°/30m               0.00:  Dogleg Oriented 
 DLSX.°/30m               0.00:  Dogleg Str Max 
 DRET.      03.05.00 01-Feb-20:  Drill End Time 
 DRST.      15.50.00 28-Jan-20:  Drill Start Tim 
 DTIM.hr                 24.70:  Time Drilling 
 EDEP.m                4047.51:  End Depth 
 ENG1.           Eldar Hajiyev:  Engineer 1 
 ENG2.          Rasim Hashimov:  Engineer 2 
 ENG3.          Rustam Safarov:  Engineer 3 
 ETIM.      22.00.00 01-Feb-20:  End Time 
 FLOI.gpm               370.00:  Flow In 
 FLON.gpm               300.00:  Flow In Min 
 FLOS.cptm                0.00:  Fluid Loss 
 FLOX.gpm               400.00:  Flow In Max 
 FTRO.       Formation Presure:  FTWD Run Obj 
 HFLO.                      No:  High Flow 
 HPRE.                      No:  High Pressure 
 HTEM.                      No:  High Temp 
 HYDO.m                   2.50:  Hydro Offset 
 IFIN.deg                39.54:  Inc, Final 
 IMAX.deg                41.14:  Inc Max 
 IMIN.deg                39.81:  Inc Min 
 IMND.m                4005.21:  Inc Min Depth 
 IMXD.m                3948.42:  Inc Max Depth 
 JARR.                      No:  Jarring 
 LETM.      03.05.00 01-Feb-20:  Log End Time 
 LOST.hr                     0:  Lost Rig Time 
 LSTM.      15.50.00 28-Jan-20:  Log Start Time 
 MDCL.ppm             37500.00:  Mud Chlorides 
 MDES.     Inversion Oil/Synthetic:  Mud Desc 
 DFD .sg                  1.32:  Mud Density 
 MDMN.sg                  1.32:  Dens Mud Min 
 MDMX.sg                  1.32:  Dens Mud Max 
 MOIL.                      55:  Run Mud Oil % 
 MOWR.                   70:30:  Run Mud OWR 
 MSND.                       0:  Run Mud Sand % 
 MSOL.                      17:  Run Mud Solids% 
 DFV .spqt               80.00:  Mud Viscosity 
 MWOD.in                  4.75:  MWD Tool OD 
 MWSI.                      No:  Serv Intrp, MWD 
 OTIM.hr                121.28:  Time Operating 
 PCON.           Look Like New:  Pad Condition 
 PMAX.psia             6171.00:  Press Op, Max 
 PV  .cP                 30.00:  Mud PV 
 RUN .                     300:  Run Number 
 ROPA.m/hr                5.45:  ROP Avg 
 ROPN.m/hr                3.00:  ROP Min 
 ROPX.m/hr               15.00:  ROP Max 
 RPMA.rpm               130.00:  RPM Surface Avg 
 RPMN.rpm                80.00:  RPM Surface Min 
 RPMX.rpm               140.00:  RPM Surface Max 
 RRUN.                     300:  Rig Run Number 
 RTIM.hr                 13.50:  Time Reaming 
 SAZI.deg               133.93:  Azm, Start 
 SDEP.m                3878.01:  Start Depth 
 SIDD.                      No:  Serv Intrp, DD 
 SINC.deg                40.28:  Inc, Start 
 SPPA.psig             4983.00:  SPP Avg 
 SPPN.psig             4370.00:  SPP Min 
 SPPX.psig             5300.00:  SPP Max 
 STIM.      18.33.36 27-Jan-20:  Start Time 
 SVCS.                 DD, MWD:  Services 
 SVER.                    9.20:  Sperry Version 
 TDAT.m                 169.50:  Tot Depth Attmp 
 TDDF.                      No:  Trip for DD 
 TDLG.m                 169.50:  Tot Depth Loggd 
 TFF .                      No:  Trip for Fail 
 TQAA.f-kp               13.25:  Torque Abs Avg 
 TQAN.f-kp               12.00:  Torque Abs Min 
 TQAX.f-kp               14.00:  Torque Abs Max 
 TRRT.°/30m               0.70:  Turn Rotating 
 MRT .                     ADR:  Maximum Recorded Temperature 
 TTMX.degC               92.16:  Max Tool Temp 
 VS01.       AZ90598764G12V7D4:  Virtual Str1 SN 
 VS02.         AZ90571342R12C4:  Virtual Str2 SN 
 VS03.      AZ90580010N2L2X1C4:  Virtual Str3 SN 
 VS04.        AZ90522266O7X1C4:  Virtual Str4 SN 
 VS05.           AZ90598768F11:  Virtual Str5 SN 
 VS06.     AZ90580006XZ1W1X1C4:  Virtual Str6 SN 
 WBMN.klb                 8.00:  WOB Min 
 WITN.            Peter Wilson:  Customer Rep 
 WOBA.klb                 9.88:  WOB Avg 
 WOBX.klb                10.00:  WOB Max 
 YP  .lhf2               27.00:  Yield Point 
~Curve Information Block
#MNEM.UNIT                 API CODE     Curve Description
#---------               -----------    ---------------------------
 TIME.HHMMSS            00 000 000 000:  GT Time & Date
 GTDEPTH.m              00 000 000 000:  GT Depth
 GTPQH.psia             00 000 000 000:  GT HR Quartz Pressure
 GTTQ.degC              00 000 000 000:  GT Quartz Temperature
 GTTN.NONE              00 000 000 000:  GT Test Number
 GTET.sec               00 000 000 000:  GT Elapsed Test Time
 GTTVD.m                00 000 000 000:  GT True Vertical Depth
#Other Information
#
#WARRANTY: Halliburton will use its best efforts to furnish customers with 
#accurate information and interpretations that are part of, and incident to, the services 
#provided.  However, Halliburton cannot and does not warrant the accuracy 
#or correctness of such information and interpretations.  Under no circumstances should any 
#such information or interpretation be relied upon as the sole basis for any drilling, 
#completion, production, or financial decision or any procedure involving any risk to the 
#safety of any drilling venture, drilling rig or its crew or any other third party.  The 
#Customer has full responsibility for all drilling, completion and production operation.  
#Halliburton makes no representations or warranties, either expressed or 
#implied, including, but not limited to, the implied warranties of merchantability or fitness 
#for a particular purpose, with respect to the services rendered.  In no event will 
#Halliburton be liable for failure to obtain any particular results or for 
#any damages, including, but not limited to, indirect, special or consequential damages, 
#resulting from the use of any information or interpretation provided by Halliburton.
#
~A           TIME           GTDEPTH  GTPQH  GTTQ  GTTN   GTET   GTTVD  
# ...
   01:29:55.741.01-Feb-2020 3990.12 3214.51 84.93 11.00  90.72 3005.35
   01:29:55.942.01-Feb-2020 3990.12 3214.47 84.93 11.00  90.92 3005.35
   01:29:56.143.01-Feb-2020 3990.12 3214.42 84.93 11.00  91.12 3005.35
   01:29:56.343.01-Feb-2020 3990.12 3214.66 84.93 11.00  91.32 3005.35
   01:29:56.544.01-Feb-2020 3990.12 3214.66 84.93 11.00  91.52 3005.35
   01:29:56.745.01-Feb-2020 3990.12 3214.52 84.93 11.00  91.72 3005.35
   01:29:56.945.01-Feb-2020 3990.12 3214.70 84.93 11.00  91.92 3005.35
   01:29:57.146.01-Feb-2020 3990.12 3214.67 84.93 11.00  92.12 3005.35
   01:29:57.347.01-Feb-2020 3990.12 3214.71 84.93 11.00  92.32 3005.35
   01:29:57.548.01-Feb-2020 3990.12 3214.71 84.93 11.00  92.52 3005.35
   01:29:57.748.01-Feb-2020 3990.12 3214.61 84.93 11.00  92.72 3005.35
   01:29:57.949.01-Feb-2020 3990.12 3214.74 84.92 11.00  92.92 3005.35
   01:29:58.150.01-Feb-2020 3990.12 3214.74 84.92 11.00  93.13 3005.35
   01:29:58.350.01-Feb-2020 3990.12 3214.65 84.92 11.00  93.33 3005.35
   01:29:58.551.01-Feb-2020 3990.12 3214.65 84.92 11.00  93.53 3005.35
   01:29:58.752.01-Feb-2020 3990.12 3214.71 84.92 11.00  93.73 3005.35
   01:29:58.952.01-Feb-2020 3990.12 3214.87 84.92 11.00  93.93 3005.35
   01:29:59.153.01-Feb-2020 3990.12 3214.43 84.92 11.00  94.13 3005.35
   01:29:59.354.01-Feb-2020 3990.12 3214.62 84.92 11.00  94.33 3005.35
   01:29:59.555.01-Feb-2020 3990.12 3214.62 84.92 11.00  94.53 3005.35
   01:29:59.755.01-Feb-2020 3990.12 3214.88 84.92 11.00  94.73 3005.35
   01:29:59.956.01-Feb-2020 3990.12 3214.91 84.92 11.00  94.93 3005.35
   01:30:00.157.01-Feb-2020 3990.12 3214.25 84.92 11.00  95.13 3005.35
   01:30:00.357.01-Feb-2020 3990.12 3214.66 84.92 11.00  95.33 3005.35
   01:30:00.558.01-Feb-2020 3990.12 3214.66 84.92 11.00  95.53 3005.35
   01:30:00.759.01-Feb-2020 3990.12 3214.84 84.92 11.00  95.73 3005.35
   01:30:00.960.01-Feb-2020 3990.12 3214.89 84.92 11.00  95.94 3005.35
   01:30:01.160.01-Feb-2020 3990.12 3214.85 84.92 11.00  96.14 3005.35
   01:30:01.361.01-Feb-2020 3990.12 3215.05 84.92 11.00  96.34 3005.35
   01:30:01.562.01-Feb-2020 3990.12 3215.05 84.92 11.00  96.54 3005.35
   01:30:01.762.01-Feb-2020 3990.12 3214.60 84.92 11.00  96.74 3005.35
   01:30:01.963.01-Feb-2020 3990.12 3214.83 84.92 11.00  96.94 3005.35
   01:30:02.164.01-Feb-2020 3990.12 3214.89 84.91 11.00  97.14 3005.35
   01:30:02.364.01-Feb-2020 3990.12 3214.58 84.91 11.00  97.34 3005.35
   01:30:02.565.01-Feb-2020 3990.12 3214.58 84.91 11.00  97.54 3005.35
   01:30:02.766.01-Feb-2020 3990.12 3214.72 84.91 11.00  97.74 3005.35
   01:30:02.967.01-Feb-2020 3990.12 3214.89 84.91 11.00  97.94 3005.35
   01:30:03.167.01-Feb-2020 3990.12 3214.90 84.91 11.00  98.14 3005.35
   01:30:03.368.01-Feb-2020 3990.12 3214.82 84.91 11.00  98.34 3005.35
   01:30:03.569.01-Feb-2020 3990.12 3214.82 84.91 11.00  98.54 3005.35
   01:30:03.769.01-Feb-2020 3990.12 3214.58 84.91 11.00  98.75 3005.35
   01:30:03.970.01-Feb-2020 3990.12 3214.82 84.91 11.00  98.95 3005.35
   01:30:04.171.01-Feb-2020 3990.12 3214.93 84.91 11.00  99.15 3005.35
   01:30:04.371.01-Feb-2020 3990.12 3214.90 84.91 11.00  99.35 3005.35
   01:30:04.572.01-Feb-2020 3990.12 3214.90 84.91 11.00  99.55 3005.35
   01:30:04.773.01-Feb-2020 3990.12 3215.11 84.91 11.00  99.75 3005.35
   01:30:04.974.01-Feb-2020 3990.12 3214.95 84.91 11.00  99.95 3005.35
   01:30:05.174.01-Feb-2020 3990.12 3215.07 84.91 11.00 100.15 3005.35
   01:30:05.375.01-Feb-2020 3990.12 3215.09 84.91 11.00 100.35 3005.35
   01:30:05.576.01-Feb-2020 3990.12 3215.09 84.91 11.00 100.55 3005.35
   01:30:05.776.01-Feb-2020 3990.12 3215.10 84.91 11.00 100.75 3005.35
   01:30:05.977.01-Feb-2020 3990.12 3214.95 84.91 11.00 100.95 3005.35
   01:30:06.178.01-Feb-2020 3990.12 3215.04 84.91 11.00 101.15 3005.35
   01:30:06.378.01-Feb-2020 3990.12 3215.05 84.90 11.00 101.35 3005.35
   01:30:06.579.01-Feb-2020 3990.12 3215.05 84.90 11.00 101.56 3005.35
   01:30:06.780.01-Feb-2020 3990.12 3215.00 84.90 11.00 101.76 3005.35
   01:30:06.981.01-Feb-2020 3990.12 3215.18 84.90 11.00 101.96 3005.35
   01:30:07.181.01-Feb-2020 3990.12 3215.00 84.90 11.00 102.16 3005.35
   01:30:07.382.01-Feb-2020 3990.12 3215.17 84.90 11.00 102.36 3005.35
   01:30:07.583.01-Feb-2020 3990.12 3215.17 84.90 11.00 102.56 3005.35
   01:30:07.783.01-Feb-2020 3990.12 3214.83 84.90 11.00 102.76 3005.35
   01:30:07.984.01-Feb-2020 3990.12 3215.11 84.90 11.00 102.96 3005.35
   01:30:08.185.01-Feb-2020 3990.12 3215.05 84.90 11.00 103.16 3005.35
   01:30:08.385.01-Feb-2020 3990.12 3215.05 84.90 11.00 103.36 3005.35
   01:30:08.586.01-Feb-2020 3990.12 3215.05 84.90 11.00 103.56 3005.35
   01:30:08.787.01-Feb-2020 3990.12 3215.09 84.90 11.00 103.76 3005.35
   01:30:08.988.01-Feb-2020 3990.12 3215.17 84.90 11.00 103.96 3005.35
   01:30:09.188.01-Feb-2020 3990.12 3215.28 84.90 11.00 104.16 3005.35
   01:30:09.389.01-Feb-2020 3990.12 3215.09 84.90 11.00 104.36 3005.35
   01:30:09.590.01-Feb-2020 3990.12 3215.09 84.90 11.00 104.57 3005.35
   01:30:09.790.01-Feb-2020 3990.12 3215.09 84.90 11.00 104.77 3005.35
   01:30:09.991.01-Feb-2020 3990.12 3215.09 84.90 11.00 104.97 3005.35
   01:30:10.192.01-Feb-2020 3990.12 3215.20 84.90 11.00 105.17 3005.35
   01:30:10.392.01-Feb-2020 3990.12 3215.14 84.89 11.00 105.37 3005.35
   01:30:10.593.01-Feb-2020 3990.12 3215.14 84.89 11.00 105.57 3005.35
   01:30:10.794.01-Feb-2020 3990.12 3214.97 84.89 11.00 105.77 3005.35
   01:30:10.995.01-Feb-2020 3990.12 3215.13 84.89 11.00 105.97 3005.35
   01:30:11.195.01-Feb-2020 3990.12 3215.07 84.89 11.00 106.17 3005.35
   01:30:11.396.01-Feb-2020 3990.12 3215.28 84.89 11.00 106.37 3005.35
   01:30:11.597.01-Feb-2020 3990.12 3215.28 84.89 11.00 106.57 3005.35
   01:30:11.797.01-Feb-2020 3990.12 3214.83 84.89 11.00 106.77 3005.35
   01:30:11.998.01-Feb-2020 3990.12 3215.13 84.89 11.00 106.97 3005.35
   01:30:12.199.01-Feb-2020 3990.12 3215.11 84.89 11.00 107.17 3005.35
   01:30:12.400.01-Feb-2020 3990.12 3215.36 84.89 11.00 107.38 3005.35
   01:30:12.600.01-Feb-2020 3990.12 3215.36 84.89 11.00 107.58 3005.35
   01:30:12.801.01-Feb-2020 3990.12 3215.22 84.89 11.00 107.78 3005.35
   01:30:13.002.01-Feb-2020 3990.12 3215.52 84.89 11.00 107.98 3005.35
   01:30:13.202.01-Feb-2020 3990.12 3214.76 84.89 11.00 108.18 3005.35
   01:30:13.403.01-Feb-2020 3990.12 3214.99 84.89 11.00 108.38 3005.35
   01:30:13.604.01-Feb-2020 3990.12 3214.99 84.89 11.00 108.58 3005.35
   01:30:13.804.01-Feb-2020 3990.12 3215.27 84.89 11.00 108.78 3005.35
   01:30:14.005.01-Feb-2020 3990.12 3215.28 84.89 11.00 108.98 3005.35
   01:30:14.206.01-Feb-2020 3990.12 3215.18 84.89 11.00 109.18 3005.35
   01:30:14.407.01-Feb-2020 3990.12 3215.06 84.89 11.00 109.38 3005.35
   01:30:14.607.01-Feb-2020 3990.12 3215.06 84.89 11.00 109.58 3005.35
   01:30:14.808.01-Feb-2020 3990.12 3215.42 84.88 11.00 109.78 3005.35
   01:30:15.009.01-Feb-2020 3990.12 3215.30 84.88 11.00 109.98 3005.35
   01:30:15.209.01-Feb-2020 3990.12 3215.43 84.88 11.00 110.19 3005.35
   01:30:15.410.01-Feb-2020 3990.12 3215.19 84.88 11.00 110.39 3005.35
   01:30:15.611.01-Feb-2020 3990.12 3215.19 84.88 11.00 110.59 3005.35
   01:30:15.811.01-Feb-2020 3990.12 3215.23 84.88 11.00 110.79 3005.35
   01:30:16.012.01-Feb-2020 3990.12 3215.32 84.88 11.00 110.99 3005.35
   01:30:16.213.01-Feb-2020 3990.12 3215.48 84.88 11.00 111.19 3005.35
   01:30:16.414.01-Feb-2020 3990.12 3215.52 84.88 11.00 111.39 3005.35
   01:30:16.614.01-Feb-2020 3990.12 3215.52 84.88 11.00 111.59 3005.35
   01:30:16.815.01-Feb-2020 3990.12 3215.45 84.88 11.00 111.79 3005.35
   01:30:17.016.01-Feb-2020 3990.12 3215.43 84.88 11.00 111.99 3005.35
   01:30:17.216.01-Feb-2020 3990.12 3215.34 84.88 11.00 112.19 3005.35
   01:30:17.417.01-Feb-2020 3990.12 3215.44 84.88 11.00 112.39 3005.35
   01:30:17.618.01-Feb-2020 3990.12 3215.44 84.88 11.00 112.59 3005.35
   01:30:17.818.01-Feb-2020 3990.12 3215.31 84.88 11.00 112.79 3005.35
   01:30:18.019.01-Feb-2020 3990.12 3215.43 84.88 11.00 113.00 3005.35
   01:30:18.220.01-Feb-2020 3990.12 3215.33 84.88 11.00 113.20 3005.35
