~Version Information
 VERS.                  2.0:   CWLS log ASCII Standard -VERSION 2.0
 WRAP.                   NO:   One line per depth step
~Well Information Block
#MNEM.UNIT     VALUE/NAME     DESCRIPTION
#---------     -----------    ---------------------------
 STRT.S             06:25:21 31-Jan-20: START TIME 06:25:21 31-Jan-20
 STOP.S             06:31:52 31-Jan-20: STOP TIME  06:31:52 31-Jan-20
 STEP.S                   0.00: STEP TIME
 NULL.                 -999.25: NULL VALUE
 DFWT.                        :  DIST FWL TEXT
 DFST.                        :  DIST FSL TEXT
 DMF .             Drill Floor:  DRILL MEAS FROM
 STIM.      09.30.00 26-Dec-19:  START TIME
 DATE.      08.00.00 20-Jan-20:  END TIME
 SPUD.               23-Nov-19:  SPUD DATE
 NREF.                    Grid:  NORTH REFERENCE
 HPTY.       Minimum Curvature:  HOLE POS TYPE
 DMOD.             Drill Model:  DRILL MOD DESC
 SVYD.                  Survey:  SURVEY DESC
 ILTD.               Lithology:  INTERP LTH DESC
 FTOP.          Formation Tops:  FORM TOPS DESC
 SON .        AZ-XX-0906192647:  JOB NUMBER
 WTYP.                Deviated:  WELL TYPE
 COMP.     BP Exploration (Caspian Sea) Ltd:  COMPANY
 BASE.              Azerbaijan:  LOGGING EQUIPMENT BASE LOCATION
 REGN.                 Eurasia:  REGION
 FLD .                     ACG:  FIELD NAME
 SRVC.              KCA Deutag:  CONTRACTOR
 MWDS.                    Baku:  MWD SHOP
 WELL.     A10 (Slot 20) - SCP:  WELL NAME
 JOBN.        AZ-XX-0906192647:  JOB TICKET NUMB
 RIG .                 Chirag1:  RIG NAME
 DCON.     Halliburton Sperry Drilling:  DIRECTNL CONTR
 UNIT.                     N/A:  LOGGING EQUIPMENT ID
 PDAT.          Mean Sea Level:  PERMANENT DATUM
 MDS .        Operator Entered:  MAG DATA SOURCE
 CTRY.              Azerbaijan:  COUNTRY NAME
 UWI .            /AZE00000090:  UNIQUE WELL IDENTIFIER
 API .            /AZE00000090:  API NUMBER
 CNTY.                        :  COUNTY
 PROV.                        :  PROVINCE
 STAT.                        :  STATE
 LOC .                        :  LOCATION
 LMF .             Drill Floor:  LOG MEASURED FROM
 TVDS.m                  36.60:  TVDSS CORRECTN
 LATI.deg                40.08:  LATITUDE
 LONG.deg                51.24:  LONGITUDE
 WHNS.m                  -7.94:  WELL HEAD N/S
 WHEW.m                   1.56:  WELL HEAD E/W
 UTMX.m              520429.26:  UTM X
 UTMY.m             4438973.87:  UTM Y
 DFWL.m                   0.00:  DISTANCE FWL
 DFSL.m                   0.00:  DISTANCE FSL
 SDEP.m                1455.00:  START DEPTH
 TDD .m                4047.51:  TOTAL DEPTH (DRILLER)
 VSDR.deg               112.75:  VERT SEC DIRECT
 GVFD.g                   1.00:  GRAVITY FIELD
 MFLD.nT              50261.00:  MAGNETIC FIELD
 MDIP.deg                59.52:  MAGNETIC DIP
 MDEC.deg                 6.42:  MAGNETIC DECL
 GRDC.deg                 0.17:  GRID CORRECTION
 AZTC.deg                 6.25:  AZM TOTAL CORR
 EPD .m                   0.00:  ELEVATION
 EGL .m                   0.00:  GROUND ELEVATION
 WDMS.m                 121.00:  WD ELEV
 APD .m                  36.60:  DEPTH ABOVE PD
 AGAP.m                  36.60:  AIR GAP
 VSEW.m                   1.56:  VERT SEC E/W
 VSNS.m                  -7.94:  VERT SEC N/S
 DEP .m                1140.01:  DEPTH
 EKB .m                  36.60:  KB ELEVATION
 EDF .m                  36.60:  DF ELEVATION
 TDL .m                 169.50:  TOTAL DEPTH (LOGGER)
 CSGD.m                3875.01:  CASING BOTTOM (DRILLER)
 CSGL.m                3875.01:  CASING BOTTOM (LOGGER)
 CSGS.in                  7.63:  CASING SIZE
 CSGW.lbpf               23.50:  CASING WEIGHT
 VSC .                       0:  VS TO CLOSURE
 MAGU.                 1849206:  MAGUTM CHECKSUM
~Parameter Information Block
#MNEM.UNIT       Value        Description
#---------     -----------    ---------------------------
 AV  .mps                 1.90:  Ann Velocity 
 AVMX.mps                 2.54:  Max Ann Veloc 
 AZIF.deg               137.03:  Azm, Final 
 BHAT.        Rotary Steerable:  BHA Type 
 BREV.rev             23610.00:  Rev Bit Total 
 BROT.°/30m               0.80:  Build Rotating 
 BS  .in                  6.50:  Bit Size 
 BTPL.psig              110.00:  Bit Press Loss 
 CABU.                     Yes:  Customer Abuse 
 COMM.                     Ð„:  Run Comments 1 
 TCS .hr                 70.51:  Time Ciculation Ended 
 CV  .mps                 1.41:  Crit Velocity 
 CVMX.mps                 1.42:  Max Crit Veloc 
 DD1 .         Intigam Rahimov:  Direct Drillr 1 
 DD2 .          Rashad Gojayev:  Direct Drillr 2 
 DDSV.               Geo-Pilot:  DD Service 
 DEFF.%                 100.00:  % Det Eff 
 DLRX.°/30m               1.44:  Dogleg Rot Max 
 DLSO.°/30m               0.00:  Dogleg Oriented 
 DLSX.°/30m               0.00:  Dogleg Str Max 
 DRET.      03.05.00 01-Feb-20:  Drill End Time 
 DRST.      15.50.00 28-Jan-20:  Drill Start Tim 
 DTIM.hr                 24.70:  Time Drilling 
 EDEP.m                4047.51:  End Depth 
 ENG1.           Eldar Hajiyev:  Engineer 1 
 ENG2.          Rasim Hashimov:  Engineer 2 
 ENG3.          Rustam Safarov:  Engineer 3 
 ETIM.      22.00.00 01-Feb-20:  End Time 
 FLOI.gpm               370.00:  Flow In 
 FLON.gpm               300.00:  Flow In Min 
 FLOS.cptm                0.00:  Fluid Loss 
 FLOX.gpm               400.00:  Flow In Max 
 FTRO.       Formation Presure:  FTWD Run Obj 
 HFLO.                      No:  High Flow 
 HPRE.                      No:  High Pressure 
 HTEM.                      No:  High Temp 
 HYDO.m                   2.50:  Hydro Offset 
 IFIN.deg                39.54:  Inc, Final 
 IMAX.deg                41.14:  Inc Max 
 IMIN.deg                39.81:  Inc Min 
 IMND.m                4005.21:  Inc Min Depth 
 IMXD.m                3948.42:  Inc Max Depth 
 JARR.                      No:  Jarring 
 LETM.      03.05.00 01-Feb-20:  Log End Time 
 LOST.hr                     0:  Lost Rig Time 
 LSTM.      15.50.00 28-Jan-20:  Log Start Time 
 MDCL.ppm             37500.00:  Mud Chlorides 
 MDES.     Inversion Oil/Synthetic:  Mud Desc 
 DFD .sg                  1.32:  Mud Density 
 MDMN.sg                  1.32:  Dens Mud Min 
 MDMX.sg                  1.32:  Dens Mud Max 
 MOIL.                      55:  Run Mud Oil % 
 MOWR.                   70:30:  Run Mud OWR 
 MSND.                       0:  Run Mud Sand % 
 MSOL.                      17:  Run Mud Solids% 
 DFV .spqt               80.00:  Mud Viscosity 
 MWOD.in                  4.75:  MWD Tool OD 
 MWSI.                      No:  Serv Intrp, MWD 
 OTIM.hr                121.28:  Time Operating 
 PCON.           Look Like New:  Pad Condition 
 PMAX.psia             6171.00:  Press Op, Max 
 PV  .cP                 30.00:  Mud PV 
 RUN .                     300:  Run Number 
 ROPA.m/hr                5.45:  ROP Avg 
 ROPN.m/hr                3.00:  ROP Min 
 ROPX.m/hr               15.00:  ROP Max 
 RPMA.rpm               130.00:  RPM Surface Avg 
 RPMN.rpm                80.00:  RPM Surface Min 
 RPMX.rpm               140.00:  RPM Surface Max 
 RRUN.                     300:  Rig Run Number 
 RTIM.hr                 13.50:  Time Reaming 
 SAZI.deg               133.93:  Azm, Start 
 SDEP.m                3878.01:  Start Depth 
 SIDD.                      No:  Serv Intrp, DD 
 SINC.deg                40.28:  Inc, Start 
 SPPA.psig             4983.00:  SPP Avg 
 SPPN.psig             4370.00:  SPP Min 
 SPPX.psig             5300.00:  SPP Max 
 STIM.      18.33.36 27-Jan-20:  Start Time 
 SVCS.                 DD, MWD:  Services 
 SVER.                    9.20:  Sperry Version 
 TDAT.m                 169.50:  Tot Depth Attmp 
 TDDF.                      No:  Trip for DD 
 TDLG.m                 169.50:  Tot Depth Loggd 
 TFF .                      No:  Trip for Fail 
 TQAA.f-kp               13.25:  Torque Abs Avg 
 TQAN.f-kp               12.00:  Torque Abs Min 
 TQAX.f-kp               14.00:  Torque Abs Max 
 TRRT.°/30m               0.70:  Turn Rotating 
 MRT .                     ADR:  Maximum Recorded Temperature 
 TTMX.degC               92.16:  Max Tool Temp 
 VS01.       AZ90598764G12V7D4:  Virtual Str1 SN 
 VS02.         AZ90571342R12C4:  Virtual Str2 SN 
 VS03.      AZ90580010N2L2X1C4:  Virtual Str3 SN 
 VS04.        AZ90522266O7X1C4:  Virtual Str4 SN 
 VS05.           AZ90598768F11:  Virtual Str5 SN 
 VS06.     AZ90580006XZ1W1X1C4:  Virtual Str6 SN 
 WBMN.klb                 8.00:  WOB Min 
 WITN.            Peter Wilson:  Customer Rep 
 WOBA.klb                 9.88:  WOB Avg 
 WOBX.klb                10.00:  WOB Max 
 YP  .lhf2               27.00:  Yield Point 
~Curve Information Block
#MNEM.UNIT                 API CODE     Curve Description
#---------               -----------    ---------------------------
 TIME.HHMMSS            00 000 000 000:  GT Time & Date
 GTDEPTH.m              00 000 000 000:  GT Depth
 GTPQH.psia             00 000 000 000:  GT HR Quartz Pressure
 GTTQ.degC              00 000 000 000:  GT Quartz Temperature
 GTTN.NONE              00 000 000 000:  GT Test Number
 GTET.sec               00 000 000 000:  GT Elapsed Test Time
 GTTVD.m                00 000 000 000:  GT True Vertical Depth
#Other Information
#
#WARRANTY: Halliburton will use its best efforts to furnish customers with 
#accurate information and interpretations that are part of, and incident to, the services 
#provided.  However, Halliburton cannot and does not warrant the accuracy 
#or correctness of such information and interpretations.  Under no circumstances should any 
#such information or interpretation be relied upon as the sole basis for any drilling, 
#completion, production, or financial decision or any procedure involving any risk to the 
#safety of any drilling venture, drilling rig or its crew or any other third party.  The 
#Customer has full responsibility for all drilling, completion and production operation.  
#Halliburton makes no representations or warranties, either expressed or 
#implied, including, but not limited to, the implied warranties of merchantability or fitness 
#for a particular purpose, with respect to the services rendered.  In no event will 
#Halliburton be liable for failure to obtain any particular results or for 
#any damages, including, but not limited to, indirect, special or consequential damages, 
#resulting from the use of any information or interpretation provided by Halliburton.
#
~A           TIME           GTDEPTH  GTPQH  GTTQ  GTTN  GTET   GTTVD  
# ...
   06:26:53.746.31-Jan-2020 3914.01 2994.46 79.00 4.00  92.02 2947.83
   06:26:53.946.31-Jan-2020 3914.01 2994.46 79.00 4.00  92.22 2947.83
   06:26:54.146.31-Jan-2020 3914.01 2994.22 79.00 4.00  92.42 2947.83
   06:26:54.346.31-Jan-2020 3914.01 2994.58 79.00 4.00  92.62 2947.83
   06:26:54.546.31-Jan-2020 3914.01 2994.51 79.00 4.00  92.82 2947.83
   06:26:54.746.31-Jan-2020 3914.01 2994.52 78.99 4.00  93.02 2947.83
   06:26:54.946.31-Jan-2020 3914.01 2994.52 78.99 4.00  93.22 2947.83
   06:26:55.146.31-Jan-2020 3914.01 2994.20 78.99 4.00  93.42 2947.83
   06:26:55.346.31-Jan-2020 3914.01 2994.59 78.99 4.00  93.62 2947.83
   06:26:55.547.31-Jan-2020 3914.01 2994.50 78.99 4.00  93.82 2947.83
   06:26:55.747.31-Jan-2020 3914.01 2994.49 78.99 4.00  94.02 2947.83
   06:26:55.947.31-Jan-2020 3914.01 2994.49 78.99 4.00  94.22 2947.83
   06:26:56.147.31-Jan-2020 3914.01 2994.42 78.99 4.00  94.42 2947.83
   06:26:56.347.31-Jan-2020 3914.01 2994.17 78.99 4.00  94.62 2947.83
   06:26:56.547.31-Jan-2020 3914.01 2994.62 78.99 4.00  94.82 2947.83
   06:26:56.747.31-Jan-2020 3914.01 2994.47 78.99 4.00  95.02 2947.83
   06:26:56.947.31-Jan-2020 3914.01 2994.47 78.99 4.00  95.22 2947.83
   06:26:57.147.31-Jan-2020 3914.01 2994.47 78.99 4.00  95.42 2947.83
   06:26:57.347.31-Jan-2020 3914.01 2994.43 78.99 4.00  95.62 2947.83
   06:26:57.547.31-Jan-2020 3914.01 2994.41 78.99 4.00  95.82 2947.83
   06:26:57.747.31-Jan-2020 3914.01 2994.38 78.98 4.00  96.02 2947.83
   06:26:57.947.31-Jan-2020 3914.01 2994.38 78.98 4.00  96.22 2947.83
   06:26:58.147.31-Jan-2020 3914.01 2994.46 78.98 4.00  96.42 2947.83
   06:26:58.347.31-Jan-2020 3914.01 2994.41 78.98 4.00  96.62 2947.83
   06:26:58.547.31-Jan-2020 3914.01 2994.40 78.98 4.00  96.82 2947.83
   06:26:58.747.31-Jan-2020 3914.01 2994.40 78.98 4.00  97.02 2947.83
   06:26:58.947.31-Jan-2020 3914.01 2994.40 78.98 4.00  97.22 2947.83
   06:26:59.147.31-Jan-2020 3914.01 2994.41 78.98 4.00  97.42 2947.83
   06:26:59.347.31-Jan-2020 3914.01 2994.43 78.98 4.00  97.62 2947.83
   06:26:59.547.31-Jan-2020 3914.01 2994.43 78.98 4.00  97.82 2947.83
   06:26:59.747.31-Jan-2020 3914.01 2994.37 78.98 4.00  98.02 2947.83
   06:26:59.947.31-Jan-2020 3914.01 2994.37 78.98 4.00  98.22 2947.83
   06:27:00.147.31-Jan-2020 3914.01 2994.17 78.98 4.00  98.42 2947.83
   06:27:00.347.31-Jan-2020 3914.01 2994.57 78.98 4.00  98.62 2947.83
   06:27:00.548.31-Jan-2020 3914.01 2994.41 78.98 4.00  98.82 2947.83
   06:27:00.748.31-Jan-2020 3914.01 2994.44 78.97 4.00  99.02 2947.83
   06:27:00.948.31-Jan-2020 3914.01 2994.44 78.97 4.00  99.22 2947.83
   06:27:01.148.31-Jan-2020 3914.01 2994.45 78.97 4.00  99.42 2947.83
   06:27:01.348.31-Jan-2020 3914.01 2994.37 78.97 4.00  99.62 2947.83
   06:27:01.548.31-Jan-2020 3914.01 2994.40 78.97 4.00  99.82 2947.83
   06:27:01.748.31-Jan-2020 3914.01 2994.38 78.97 4.00 100.02 2947.83
   06:27:01.948.31-Jan-2020 3914.01 2994.38 78.97 4.00 100.22 2947.83
   06:27:02.148.31-Jan-2020 3914.01 2994.39 78.97 4.00 100.42 2947.83
   06:27:02.348.31-Jan-2020 3914.01 2994.38 78.97 4.00 100.62 2947.83
   06:27:02.548.31-Jan-2020 3914.01 2994.37 78.97 4.00 100.82 2947.83
   06:27:02.748.31-Jan-2020 3914.01 2994.37 78.97 4.00 101.02 2947.83
   06:27:02.948.31-Jan-2020 3914.01 2994.37 78.97 4.00 101.22 2947.83
   06:27:03.148.31-Jan-2020 3914.01 2994.41 78.97 4.00 101.42 2947.83
   06:27:03.348.31-Jan-2020 3914.01 2994.12 78.97 4.00 101.62 2947.83
   06:27:03.548.31-Jan-2020 3914.01 2994.51 78.97 4.00 101.82 2947.83
   06:27:03.748.31-Jan-2020 3914.01 2994.41 78.96 4.00 102.02 2947.83
   06:27:03.948.31-Jan-2020 3914.01 2994.41 78.96 4.00 102.22 2947.83
   06:27:04.148.31-Jan-2020 3914.01 2994.37 78.96 4.00 102.42 2947.83
   06:27:04.348.31-Jan-2020 3914.01 2994.12 78.96 4.00 102.62 2947.83
   06:27:04.548.31-Jan-2020 3914.01 2994.55 78.96 4.00 102.82 2947.83
   06:27:04.748.31-Jan-2020 3914.01 2994.41 78.96 4.00 103.02 2947.83
   06:27:04.948.31-Jan-2020 3914.01 2994.41 78.96 4.00 103.22 2947.83
   06:27:05.148.31-Jan-2020 3914.01 2994.41 78.96 4.00 103.42 2947.83
   06:27:05.349.31-Jan-2020 3914.01 2994.37 78.96 4.00 103.62 2947.83
   06:27:05.549.31-Jan-2020 3914.01 2994.33 78.96 4.00 103.82 2947.83
   06:27:05.749.31-Jan-2020 3914.01 2994.27 78.96 4.00 104.02 2947.83
   06:27:05.949.31-Jan-2020 3914.01 2994.27 78.96 4.00 104.22 2947.83
   06:27:06.149.31-Jan-2020 3914.01 2994.39 78.96 4.00 104.42 2947.83
   06:27:06.349.31-Jan-2020 3914.01 2994.41 78.96 4.00 104.62 2947.83
   06:27:06.549.31-Jan-2020 3914.01 2994.37 78.96 4.00 104.82 2947.83
   06:27:06.749.31-Jan-2020 3914.01 2994.24 78.96 4.00 105.02 2947.83
   06:27:06.949.31-Jan-2020 3914.01 2994.24 78.96 4.00 105.22 2947.83
   06:27:07.149.31-Jan-2020 3914.01 2994.40 78.95 4.00 105.42 2947.83
   06:27:07.349.31-Jan-2020 3914.01 2994.42 78.95 4.00 105.62 2947.83
   06:27:07.549.31-Jan-2020 3914.01 2994.34 78.95 4.00 105.82 2947.83
   06:27:07.749.31-Jan-2020 3914.01 2994.32 78.95 4.00 106.02 2947.83
   06:27:07.949.31-Jan-2020 3914.01 2994.32 78.95 4.00 106.22 2947.83
   06:27:08.149.31-Jan-2020 3914.01 2994.31 78.95 4.00 106.42 2947.83
   06:27:08.349.31-Jan-2020 3914.01 2994.37 78.95 4.00 106.62 2947.83
   06:27:08.549.31-Jan-2020 3914.01 2994.37 78.95 4.00 106.82 2947.83
   06:27:08.749.31-Jan-2020 3914.01 2994.42 78.95 4.00 107.02 2947.83
   06:27:08.949.31-Jan-2020 3914.01 2994.42 78.95 4.00 107.22 2947.83
   06:27:09.149.31-Jan-2020 3914.01 2994.33 78.95 4.00 107.42 2947.83
   06:27:09.349.31-Jan-2020 3914.01 2994.31 78.95 4.00 107.62 2947.83
   06:27:09.549.31-Jan-2020 3914.01 2994.31 78.95 4.00 107.82 2947.83
   06:27:09.749.31-Jan-2020 3914.01 2994.35 78.94 4.00 108.02 2947.83
   06:27:09.949.31-Jan-2020 3914.01 2994.35 78.94 4.00 108.22 2947.83
   06:27:10.149.31-Jan-2020 3914.01 2994.31 78.94 4.00 108.42 2947.83
   06:27:10.350.31-Jan-2020 3914.01 2994.30 78.94 4.00 108.62 2947.83
   06:27:10.550.31-Jan-2020 3914.01 2994.26 78.94 4.00 108.82 2947.83
   06:27:10.750.31-Jan-2020 3914.01 2994.30 78.94 4.00 109.02 2947.83
   06:27:10.950.31-Jan-2020 3914.01 2994.30 78.94 4.00 109.22 2947.83
   06:27:11.150.31-Jan-2020 3914.01 2994.31 78.94 4.00 109.42 2947.83
   06:27:11.350.31-Jan-2020 3914.01 2994.27 78.94 4.00 109.62 2947.83
   06:27:11.550.31-Jan-2020 3914.01 2994.29 78.94 4.00 109.82 2947.83
   06:27:11.750.31-Jan-2020 3914.01 2994.05 78.94 4.00 110.02 2947.83
   06:27:11.950.31-Jan-2020 3914.01 2994.05 78.94 4.00 110.22 2947.83
   06:27:12.150.31-Jan-2020 3914.01 2994.36 78.94 4.00 110.42 2947.83
   06:27:12.350.31-Jan-2020 3914.01 2994.33 78.94 4.00 110.62 2947.83
   06:27:12.550.31-Jan-2020 3914.01 2994.32 78.94 4.00 110.82 2947.83
   06:27:12.750.31-Jan-2020 3914.01 2994.31 78.94 4.00 111.02 2947.83
   06:27:12.950.31-Jan-2020 3914.01 2994.31 78.94 4.00 111.22 2947.83
   06:27:13.150.31-Jan-2020 3914.01 2994.30 78.93 4.00 111.42 2947.83
   06:27:13.350.31-Jan-2020 3914.01 2994.28 78.93 4.00 111.62 2947.83
   06:27:13.550.31-Jan-2020 3914.01 2994.28 78.93 4.00 111.82 2947.83
   06:27:13.750.31-Jan-2020 3914.01 2994.30 78.93 4.00 112.02 2947.83
   06:27:13.950.31-Jan-2020 3914.01 2994.30 78.93 4.00 112.22 2947.83
   06:27:14.150.31-Jan-2020 3914.01 2994.27 78.93 4.00 112.42 2947.83
   06:27:14.350.31-Jan-2020 3914.01 2994.28 78.93 4.00 112.62 2947.83
   06:27:14.550.31-Jan-2020 3914.01 2994.27 78.93 4.00 112.82 2947.83
   06:27:14.750.31-Jan-2020 3914.01 2994.30 78.93 4.00 113.02 2947.83
   06:27:14.950.31-Jan-2020 3914.01 2994.30 78.93 4.00 113.22 2947.83
   06:27:15.150.31-Jan-2020 3914.01 2994.24 78.93 4.00 113.42 2947.83
   06:27:15.351.31-Jan-2020 3914.01 2994.30 78.93 4.00 113.62 2947.83
   06:27:15.551.31-Jan-2020 3914.01 2994.27 78.93 4.00 113.82 2947.83
   06:27:15.751.31-Jan-2020 3914.01 2994.29 78.93 4.00 114.02 2947.83
   06:27:15.951.31-Jan-2020 3914.01 2994.29 78.93 4.00 114.22 2947.83
   06:27:16.151.31-Jan-2020 3914.01 2994.24 78.92 4.00 114.42 2947.83
   06:27:16.351.31-Jan-2020 3914.01 2994.33 78.92 4.00 114.62 2947.83
   06:27:16.551.31-Jan-2020 3914.01 2994.30 78.92 4.00 114.82 2947.83
