~Version Information
 VERS.                  2.0:   CWLS log ASCII Standard -VERSION 2.0
 WRAP.                   NO:   One line per depth step
~Well Information Block
#MNEM.UNIT     VALUE/NAME     DESCRIPTION
#---------     -----------    ---------------------------
 STRT.S             18:23:56 31-Jan-20: START TIME 18:23:56 31-Jan-20
 STOP.S             18:30:28 31-Jan-20: STOP TIME  18:30:28 31-Jan-20
 STEP.S                   0.00: STEP TIME
 NULL.                 -999.25: NULL VALUE
 DFWT.                        :  DIST FWL TEXT
 DFST.                        :  DIST FSL TEXT
 DMF .             Drill Floor:  DRILL MEAS FROM
 STIM.      09.30.00 26-Dec-19:  START TIME
 DATE.      08.00.00 20-Jan-20:  END TIME
 SPUD.               23-Nov-19:  SPUD DATE
 NREF.                    Grid:  NORTH REFERENCE
 HPTY.       Minimum Curvature:  HOLE POS TYPE
 DMOD.             Drill Model:  DRILL MOD DESC
 SVYD.                  Survey:  SURVEY DESC
 ILTD.               Lithology:  INTERP LTH DESC
 FTOP.          Formation Tops:  FORM TOPS DESC
 SON .        AZ-XX-0906192647:  JOB NUMBER
 WTYP.                Deviated:  WELL TYPE
 COMP.     BP Exploration (Caspian Sea) Ltd:  COMPANY
 BASE.              Azerbaijan:  LOGGING EQUIPMENT BASE LOCATION
 REGN.                 Eurasia:  REGION
 FLD .                     ACG:  FIELD NAME
 SRVC.              KCA Deutag:  CONTRACTOR
 MWDS.                    Baku:  MWD SHOP
 WELL.     A10 (Slot 20) - SCP:  WELL NAME
 JOBN.        AZ-XX-0906192647:  JOB TICKET NUMB
 RIG .                 Chirag1:  RIG NAME
 DCON.     Halliburton Sperry Drilling:  DIRECTNL CONTR
 UNIT.                     N/A:  LOGGING EQUIPMENT ID
 PDAT.          Mean Sea Level:  PERMANENT DATUM
 MDS .        Operator Entered:  MAG DATA SOURCE
 CTRY.              Azerbaijan:  COUNTRY NAME
 UWI .            /AZE00000090:  UNIQUE WELL IDENTIFIER
 API .            /AZE00000090:  API NUMBER
 CNTY.                        :  COUNTY
 PROV.                        :  PROVINCE
 STAT.                        :  STATE
 LOC .                        :  LOCATION
 LMF .             Drill Floor:  LOG MEASURED FROM
 TVDS.m                  36.60:  TVDSS CORRECTN
 LATI.deg                40.08:  LATITUDE
 LONG.deg                51.24:  LONGITUDE
 WHNS.m                  -7.94:  WELL HEAD N/S
 WHEW.m                   1.56:  WELL HEAD E/W
 UTMX.m              520429.26:  UTM X
 UTMY.m             4438973.87:  UTM Y
 DFWL.m                   0.00:  DISTANCE FWL
 DFSL.m                   0.00:  DISTANCE FSL
 SDEP.m                1455.00:  START DEPTH
 TDD .m                4047.51:  TOTAL DEPTH (DRILLER)
 VSDR.deg               112.75:  VERT SEC DIRECT
 GVFD.g                   1.00:  GRAVITY FIELD
 MFLD.nT              50261.00:  MAGNETIC FIELD
 MDIP.deg                59.52:  MAGNETIC DIP
 MDEC.deg                 6.42:  MAGNETIC DECL
 GRDC.deg                 0.17:  GRID CORRECTION
 AZTC.deg                 6.25:  AZM TOTAL CORR
 EPD .m                   0.00:  ELEVATION
 EGL .m                   0.00:  GROUND ELEVATION
 WDMS.m                 121.00:  WD ELEV
 APD .m                  36.60:  DEPTH ABOVE PD
 AGAP.m                  36.60:  AIR GAP
 VSEW.m                   1.56:  VERT SEC E/W
 VSNS.m                  -7.94:  VERT SEC N/S
 DEP .m                1140.01:  DEPTH
 EKB .m                  36.60:  KB ELEVATION
 EDF .m                  36.60:  DF ELEVATION
 TDL .m                 169.50:  TOTAL DEPTH (LOGGER)
 CSGD.m                3875.01:  CASING BOTTOM (DRILLER)
 CSGL.m                3875.01:  CASING BOTTOM (LOGGER)
 CSGS.in                  7.63:  CASING SIZE
 CSGW.lbpf               23.50:  CASING WEIGHT
 VSC .                       0:  VS TO CLOSURE
 MAGU.                 1849206:  MAGUTM CHECKSUM
~Parameter Information Block
#MNEM.UNIT       Value        Description
#---------     -----------    ---------------------------
 AV  .mps                 1.90:  Ann Velocity 
 AVMX.mps                 2.54:  Max Ann Veloc 
 AZIF.deg               137.03:  Azm, Final 
 BHAT.        Rotary Steerable:  BHA Type 
 BREV.rev             23610.00:  Rev Bit Total 
 BROT.°/30m               0.80:  Build Rotating 
 BS  .in                  6.50:  Bit Size 
 BTPL.psig              110.00:  Bit Press Loss 
 CABU.                     Yes:  Customer Abuse 
 COMM.                     ´>x:  Run Comments 1 
 TCS .hr                 70.51:  Time Ciculation Ended 
 CV  .mps                 1.41:  Crit Velocity 
 CVMX.mps                 1.42:  Max Crit Veloc 
 DD1 .         Intigam Rahimov:  Direct Drillr 1 
 DD2 .          Rashad Gojayev:  Direct Drillr 2 
 DDSV.               Geo-Pilot:  DD Service 
 DEFF.%                 100.00:  % Det Eff 
 DLRX.°/30m               1.44:  Dogleg Rot Max 
 DLSO.°/30m               0.00:  Dogleg Oriented 
 DLSX.°/30m               0.00:  Dogleg Str Max 
 DRET.      03.05.00 01-Feb-20:  Drill End Time 
 DRST.      15.50.00 28-Jan-20:  Drill Start Tim 
 DTIM.hr                 24.70:  Time Drilling 
 EDEP.m                4047.51:  End Depth 
 ENG1.           Eldar Hajiyev:  Engineer 1 
 ENG2.          Rasim Hashimov:  Engineer 2 
 ENG3.          Rustam Safarov:  Engineer 3 
 ETIM.      22.00.00 01-Feb-20:  End Time 
 FLOI.gpm               370.00:  Flow In 
 FLON.gpm               300.00:  Flow In Min 
 FLOS.cptm                0.00:  Fluid Loss 
 FLOX.gpm               400.00:  Flow In Max 
 FTRO.       Formation Presure:  FTWD Run Obj 
 HFLO.                      No:  High Flow 
 HPRE.                      No:  High Pressure 
 HTEM.                      No:  High Temp 
 HYDO.m                   2.50:  Hydro Offset 
 IFIN.deg                39.54:  Inc, Final 
 IMAX.deg                41.14:  Inc Max 
 IMIN.deg                39.81:  Inc Min 
 IMND.m                4005.21:  Inc Min Depth 
 IMXD.m                3948.42:  Inc Max Depth 
 JARR.                      No:  Jarring 
 LETM.      03.05.00 01-Feb-20:  Log End Time 
 LOST.hr                     0:  Lost Rig Time 
 LSTM.      15.50.00 28-Jan-20:  Log Start Time 
 MDCL.ppm             37500.00:  Mud Chlorides 
 MDES.     Inversion Oil/Synthetic:  Mud Desc 
 DFD .sg                  1.32:  Mud Density 
 MDMN.sg                  1.32:  Dens Mud Min 
 MDMX.sg                  1.32:  Dens Mud Max 
 MOIL.                      55:  Run Mud Oil % 
 MOWR.                   70:30:  Run Mud OWR 
 MSND.                       0:  Run Mud Sand % 
 MSOL.                      17:  Run Mud Solids% 
 DFV .spqt               80.00:  Mud Viscosity 
 MWOD.in                  4.75:  MWD Tool OD 
 MWSI.                      No:  Serv Intrp, MWD 
 OTIM.hr                121.28:  Time Operating 
 PCON.           Look Like New:  Pad Condition 
 PMAX.psia             6171.00:  Press Op, Max 
 PV  .cP                 30.00:  Mud PV 
 RUN .                     300:  Run Number 
 ROPA.m/hr                5.45:  ROP Avg 
 ROPN.m/hr                3.00:  ROP Min 
 ROPX.m/hr               15.00:  ROP Max 
 RPMA.rpm               130.00:  RPM Surface Avg 
 RPMN.rpm                80.00:  RPM Surface Min 
 RPMX.rpm               140.00:  RPM Surface Max 
 RRUN.                     300:  Rig Run Number 
 RTIM.hr                 13.50:  Time Reaming 
 SAZI.deg               133.93:  Azm, Start 
 SDEP.m                3878.01:  Start Depth 
 SIDD.                      No:  Serv Intrp, DD 
 SINC.deg                40.28:  Inc, Start 
 SPPA.psig             4983.00:  SPP Avg 
 SPPN.psig             4370.00:  SPP Min 
 SPPX.psig             5300.00:  SPP Max 
 STIM.      18.33.36 27-Jan-20:  Start Time 
 SVCS.                 DD, MWD:  Services 
 SVER.                    9.20:  Sperry Version 
 TDAT.m                 169.50:  Tot Depth Attmp 
 TDDF.                      No:  Trip for DD 
 TDLG.m                 169.50:  Tot Depth Loggd 
 TFF .                      No:  Trip for Fail 
 TQAA.f-kp               13.25:  Torque Abs Avg 
 TQAN.f-kp               12.00:  Torque Abs Min 
 TQAX.f-kp               14.00:  Torque Abs Max 
 TRRT.°/30m               0.70:  Turn Rotating 
 MRT .                     ADR:  Maximum Recorded Temperature 
 TTMX.degC               92.16:  Max Tool Temp 
 VS01.       AZ90598764G12V7D4:  Virtual Str1 SN 
 VS02.         AZ90571342R12C4:  Virtual Str2 SN 
 VS03.      AZ90580010N2L2X1C4:  Virtual Str3 SN 
 VS04.        AZ90522266O7X1C4:  Virtual Str4 SN 
 VS05.           AZ90598768F11:  Virtual Str5 SN 
 VS06.     AZ90580006XZ1W1X1C4:  Virtual Str6 SN 
 WBMN.klb                 8.00:  WOB Min 
 WITN.            Peter Wilson:  Customer Rep 
 WOBA.klb                 9.88:  WOB Avg 
 WOBX.klb                10.00:  WOB Max 
 YP  .lhf2               27.00:  Yield Point 
~Curve Information Block
#MNEM.UNIT                 API CODE     Curve Description
#---------               -----------    ---------------------------
 TIME.HHMMSS            00 000 000 000:  GT Time & Date
 GTDEPTH.m              00 000 000 000:  GT Depth
 GTPQH.psia             00 000 000 000:  GT HR Quartz Pressure
 GTTQ.degC              00 000 000 000:  GT Quartz Temperature
 GTTN.NONE              00 000 000 000:  GT Test Number
 GTET.sec               00 000 000 000:  GT Elapsed Test Time
 GTTVD.m                00 000 000 000:  GT True Vertical Depth
#Other Information
#
#WARRANTY: Halliburton will use its best efforts to furnish customers with 
#accurate information and interpretations that are part of, and incident to, the services 
#provided.  However, Halliburton cannot and does not warrant the accuracy 
#or correctness of such information and interpretations.  Under no circumstances should any 
#such information or interpretation be relied upon as the sole basis for any drilling, 
#completion, production, or financial decision or any procedure involving any risk to the 
#safety of any drilling venture, drilling rig or its crew or any other third party.  The 
#Customer has full responsibility for all drilling, completion and production operation.  
#Halliburton makes no representations or warranties, either expressed or 
#implied, including, but not limited to, the implied warranties of merchantability or fitness 
#for a particular purpose, with respect to the services rendered.  In no event will 
#Halliburton be liable for failure to obtain any particular results or for 
#any damages, including, but not limited to, indirect, special or consequential damages, 
#resulting from the use of any information or interpretation provided by Halliburton.
#
~A           TIME           GTDEPTH  GTPQH  GTTQ  GTTN  GTET   GTTVD  
# ...
   18:24:19.637.31-Jan-2020 3966.51 6995.61 85.40 9.00  23.01 2987.43
   18:24:19.837.31-Jan-2020 3966.51 6995.61 85.40 9.00  23.21 2987.43
   18:24:20.037.31-Jan-2020 3966.51 7009.96 85.40 9.00  23.41 2987.43
   18:24:20.237.31-Jan-2020 3966.51 7015.08 85.40 9.00  23.61 2987.43
   18:24:20.437.31-Jan-2020 3966.51 7018.91 85.40 9.00  23.81 2987.43
   18:24:20.637.31-Jan-2020 3966.51 7020.23 85.40 9.00  24.01 2987.43
   18:24:20.837.31-Jan-2020 3966.51 7020.23 85.40 9.00  24.21 2987.43
   18:24:21.037.31-Jan-2020 3966.51 7012.66 85.39 9.00  24.41 2987.43
   18:24:21.237.31-Jan-2020 3966.51 7015.22 85.39 9.00  24.61 2987.43
   18:24:21.437.31-Jan-2020 3966.51 7016.75 85.39 9.00  24.81 2987.43
   18:24:21.637.31-Jan-2020 3966.51 7018.18 85.39 9.00  25.01 2987.43
   18:24:21.837.31-Jan-2020 3966.51 7018.18 85.39 9.00  25.21 2987.43
   18:24:22.037.31-Jan-2020 3966.51 7020.86 85.39 9.00  25.41 2987.43
   18:24:22.237.31-Jan-2020 3966.51 7020.50 85.39 9.00  25.61 2987.43
   18:24:22.437.31-Jan-2020 3966.51 7021.66 85.39 9.00  25.81 2987.43
   18:24:22.637.31-Jan-2020 3966.51 7022.15 85.39 9.00  26.01 2987.43
   18:24:22.837.31-Jan-2020 3966.51 7022.15 85.39 9.00  26.21 2987.43
   18:24:23.037.31-Jan-2020 3966.51 7023.30 85.39 9.00  26.41 2987.43
   18:24:23.237.31-Jan-2020 3966.51 7023.78 85.39 9.00  26.61 2987.43
   18:24:23.437.31-Jan-2020 3966.51 7023.50 85.39 9.00  26.81 2987.43
   18:24:23.637.31-Jan-2020 3966.51 7023.49 85.39 9.00  27.01 2987.43
   18:24:23.838.31-Jan-2020 3966.51 7023.49 85.39 9.00  27.21 2987.43
   18:24:24.038.31-Jan-2020 3966.51 5861.20 85.39 9.00  27.41 2987.43
   18:24:24.238.31-Jan-2020 3966.51 5351.80 85.39 9.00  27.61 2987.43
   18:24:24.438.31-Jan-2020 3966.51 4444.07 85.39 9.00  27.81 2987.43
   18:24:24.638.31-Jan-2020 3966.51 3747.42 85.39 9.00  28.01 2987.43
   18:24:24.838.31-Jan-2020 3966.51 3747.42 85.39 9.00  28.21 2987.43
   18:24:25.038.31-Jan-2020 3966.51 3690.85 85.38 9.00  28.41 2987.43
   18:24:25.238.31-Jan-2020 3966.51 3718.13 85.38 9.00  28.61 2987.43
   18:24:25.438.31-Jan-2020 3966.51 3722.78 85.38 9.00  28.81 2987.43
   18:24:25.638.31-Jan-2020 3966.51 3734.47 85.38 9.00  29.01 2987.43
   18:24:25.838.31-Jan-2020 3966.51 3734.47 85.38 9.00  29.21 2987.43
   18:24:26.038.31-Jan-2020 3966.51 3715.43 85.38 9.00  29.41 2987.43
   18:24:26.238.31-Jan-2020 3966.51 3715.28 85.38 9.00  29.61 2987.43
   18:24:26.438.31-Jan-2020 3966.51 3709.93 85.38 9.00  29.81 2987.43
   18:24:26.638.31-Jan-2020 3966.51 3705.56 85.38 9.00  30.01 2987.43
   18:24:26.838.31-Jan-2020 3966.51 3705.56 85.38 9.00  30.21 2987.43
   18:24:27.038.31-Jan-2020 3966.51 3702.84 85.37 9.00  30.41 2987.43
   18:24:27.238.31-Jan-2020 3966.51 3703.36 85.37 9.00  30.61 2987.43
   18:24:27.438.31-Jan-2020 3966.51 3703.36 85.37 9.00  30.81 2987.43
   18:24:27.638.31-Jan-2020 3966.51 3701.86 85.37 9.00  31.01 2987.43
   18:24:27.838.31-Jan-2020 3966.51 3701.86 85.37 9.00  31.21 2987.43
   18:24:28.039.31-Jan-2020 3966.51 3701.44 85.37 9.00  31.41 2987.43
   18:24:28.239.31-Jan-2020 3966.51 3700.23 85.37 9.00  31.61 2987.43
   18:24:28.439.31-Jan-2020 3966.51 3700.06 85.37 9.00  31.81 2987.43
   18:24:28.639.31-Jan-2020 3966.51 3699.25 85.36 9.00  32.01 2987.43
   18:24:28.839.31-Jan-2020 3966.51 3699.25 85.36 9.00  32.21 2987.43
   18:24:29.039.31-Jan-2020 3966.51 3699.05 85.36 9.00  32.41 2987.43
   18:24:29.239.31-Jan-2020 3966.51 3698.53 85.36 9.00  32.61 2987.43
   18:24:29.439.31-Jan-2020 3966.51 3698.99 85.36 9.00  32.81 2987.43
   18:24:29.639.31-Jan-2020 3966.51 3699.40 85.36 9.00  33.01 2987.43
   18:24:29.839.31-Jan-2020 3966.51 3699.40 85.36 9.00  33.21 2987.43
   18:24:30.039.31-Jan-2020 3966.51 3697.75 85.35 9.00  33.41 2987.43
   18:24:30.239.31-Jan-2020 3966.51 3697.39 85.35 9.00  33.61 2987.43
   18:24:30.439.31-Jan-2020 3966.51 3697.14 85.35 9.00  33.81 2987.43
   18:24:30.639.31-Jan-2020 3966.51 3697.03 85.35 9.00  34.01 2987.43
   18:24:30.839.31-Jan-2020 3966.51 3697.03 85.35 9.00  34.21 2987.43
   18:24:31.039.31-Jan-2020 3966.51 3697.42 85.35 9.00  34.41 2987.43
   18:24:31.239.31-Jan-2020 3966.51 3696.14 85.35 9.00  34.61 2987.43
   18:24:31.439.31-Jan-2020 3966.51 3698.39 85.34 9.00  34.81 2987.43
   18:24:31.639.31-Jan-2020 3966.51 3698.74 85.34 9.00  35.01 2987.43
   18:24:31.839.31-Jan-2020 3966.51 3698.74 85.34 9.00  35.21 2987.43
   18:24:32.039.31-Jan-2020 3966.51 3697.63 85.34 9.00  35.41 2987.43
   18:24:32.240.31-Jan-2020 3966.51 3697.54 85.34 9.00  35.61 2987.43
   18:24:32.440.31-Jan-2020 3966.51 3695.63 85.34 9.00  35.81 2987.43
   18:24:32.640.31-Jan-2020 3966.51 3697.95 85.34 9.00  36.01 2987.43
   18:24:32.840.31-Jan-2020 3966.51 3697.95 85.34 9.00  36.21 2987.43
   18:24:33.040.31-Jan-2020 3966.51 3697.43 85.33 9.00  36.41 2987.43
   18:24:33.240.31-Jan-2020 3966.51 3698.30 85.33 9.00  36.61 2987.43
   18:24:33.440.31-Jan-2020 3966.51 3697.42 85.33 9.00  36.81 2987.43
   18:24:33.640.31-Jan-2020 3966.51 3695.81 85.33 9.00  37.01 2987.43
   18:24:33.840.31-Jan-2020 3966.51 3695.81 85.33 9.00  37.21 2987.43
   18:24:34.040.31-Jan-2020 3966.51 3810.31 85.33 9.00  37.41 2987.43
   18:24:34.240.31-Jan-2020 3966.51 3844.67 85.33 9.00  37.61 2987.43
   18:24:34.440.31-Jan-2020 3966.51 3847.30 85.33 9.00  37.81 2987.43
   18:24:34.640.31-Jan-2020 3966.51 3848.14 85.32 9.00  38.01 2987.43
   18:24:34.840.31-Jan-2020 3966.51 3848.14 85.32 9.00  38.21 2987.43
   18:24:35.040.31-Jan-2020 3966.51 3849.12 85.32 9.00  38.41 2987.43
   18:24:35.240.31-Jan-2020 3966.51 3849.39 85.32 9.00  38.61 2987.43
   18:24:35.440.31-Jan-2020 3966.51 3849.74 85.32 9.00  38.81 2987.43
   18:24:35.640.31-Jan-2020 3966.51 3850.06 85.32 9.00  39.01 2987.43
   18:24:35.840.31-Jan-2020 3966.51 3850.06 85.32 9.00  39.21 2987.43
   18:24:36.040.31-Jan-2020 3966.51 3850.42 85.32 9.00  39.41 2987.43
   18:24:36.240.31-Jan-2020 3966.51 3850.54 85.32 9.00  39.61 2987.43
   18:24:36.440.31-Jan-2020 3966.51 3850.57 85.32 9.00  39.81 2987.43
   18:24:36.641.31-Jan-2020 3966.51 3850.91 85.31 9.00  40.01 2987.43
   18:24:36.841.31-Jan-2020 3966.51 3850.91 85.31 9.00  40.21 2987.43
   18:24:37.041.31-Jan-2020 3966.51 3851.09 85.31 9.00  40.41 2987.43
   18:24:37.241.31-Jan-2020 3966.51 3850.91 85.31 9.00  40.61 2987.43
   18:24:37.441.31-Jan-2020 3966.51 3851.08 85.31 9.00  40.81 2987.43
   18:24:37.641.31-Jan-2020 3966.51 3851.36 85.31 9.00  41.01 2987.43
   18:24:37.841.31-Jan-2020 3966.51 3851.36 85.31 9.00  41.21 2987.43
   18:24:38.041.31-Jan-2020 3966.51 3851.59 85.31 9.00  41.41 2987.43
   18:24:38.241.31-Jan-2020 3966.51 3851.59 85.31 9.00  41.61 2987.43
   18:24:38.441.31-Jan-2020 3966.51 3851.50 85.31 9.00  41.81 2987.43
   18:24:38.641.31-Jan-2020 3966.51 3851.78 85.30 9.00  42.01 2987.43
   18:24:38.841.31-Jan-2020 3966.51 3851.78 85.30 9.00  42.21 2987.43
   18:24:39.041.31-Jan-2020 3966.51 3851.80 85.30 9.00  42.41 2987.43
   18:24:39.241.31-Jan-2020 3966.51 3851.83 85.30 9.00  42.61 2987.43
   18:24:39.441.31-Jan-2020 3966.51 3851.78 85.30 9.00  42.81 2987.43
   18:24:39.641.31-Jan-2020 3966.51 3852.03 85.30 9.00  43.01 2987.43
   18:24:39.841.31-Jan-2020 3966.51 3852.03 85.30 9.00  43.21 2987.43
   18:24:40.041.31-Jan-2020 3966.51 3851.94 85.30 9.00  43.41 2987.43
   18:24:40.241.31-Jan-2020 3966.51 3852.07 85.30 9.00  43.61 2987.43
   18:24:40.441.31-Jan-2020 3966.51 3851.96 85.30 9.00  43.81 2987.43
   18:24:40.641.31-Jan-2020 3966.51 3852.28 85.30 9.00  44.01 2987.43
   18:24:40.842.31-Jan-2020 3966.51 3852.28 85.30 9.00  44.21 2987.43
   18:24:41.042.31-Jan-2020 3966.51 3852.23 85.29 9.00  44.41 2987.43
   18:24:41.242.31-Jan-2020 3966.51 3852.25 85.29 9.00  44.61 2987.43
   18:24:41.442.31-Jan-2020 3966.51 3852.03 85.29 9.00  44.81 2987.43
   18:24:41.642.31-Jan-2020 3966.51 3852.31 85.29 9.00  45.01 2987.43
   18:24:41.842.31-Jan-2020 3966.51 3852.31 85.29 9.00  45.21 2987.43
   18:24:42.042.31-Jan-2020 3966.51 3851.75 85.29 9.00  45.41 2987.43
   18:24:42.242.31-Jan-2020 3966.51 3852.44 85.29 9.00  45.61 2987.43
   18:24:42.442.31-Jan-2020 3966.51 3852.26 85.29 9.00  45.81 2987.43
