~Version Information
 VERS.                  2.0:   CWLS log ASCII Standard -VERSION 2.0
 WRAP.                   NO:   One line per depth step
~Well Information Block
#MNEM.UNIT     VALUE/NAME     DESCRIPTION
#---------     -----------    ---------------------------
 STRT.S             06:25:21 31-Jan-20: START TIME 06:25:21 31-Jan-20
 STOP.S             06:31:52 31-Jan-20: STOP TIME  06:31:52 31-Jan-20
 STEP.S                   0.00: STEP TIME
 NULL.                 -999.25: NULL VALUE
 DFWT.                        :  DIST FWL TEXT
 DFST.                        :  DIST FSL TEXT
 DMF .             Drill Floor:  DRILL MEAS FROM
 STIM.      09.30.00 26-Dec-19:  START TIME
 DATE.      08.00.00 20-Jan-20:  END TIME
 SPUD.               23-Nov-19:  SPUD DATE
 NREF.                    Grid:  NORTH REFERENCE
 HPTY.       Minimum Curvature:  HOLE POS TYPE
 DMOD.             Drill Model:  DRILL MOD DESC
 SVYD.                  Survey:  SURVEY DESC
 ILTD.               Lithology:  INTERP LTH DESC
 FTOP.          Formation Tops:  FORM TOPS DESC
 SON .        AZ-XX-0906192647:  JOB NUMBER
 WTYP.                Deviated:  WELL TYPE
 COMP.     BP Exploration (Caspian Sea) Ltd:  COMPANY
 BASE.              Azerbaijan:  LOGGING EQUIPMENT BASE LOCATION
 REGN.                 Eurasia:  REGION
 FLD .                     ACG:  FIELD NAME
 SRVC.              KCA Deutag:  CONTRACTOR
 MWDS.                    Baku:  MWD SHOP
 WELL.     A10 (Slot 20) - SCP:  WELL NAME
 JOBN.        AZ-XX-0906192647:  JOB TICKET NUMB
 RIG .                 Chirag1:  RIG NAME
 DCON.     Halliburton Sperry Drilling:  DIRECTNL CONTR
 UNIT.                     N/A:  LOGGING EQUIPMENT ID
 PDAT.          Mean Sea Level:  PERMANENT DATUM
 MDS .        Operator Entered:  MAG DATA SOURCE
 CTRY.              Azerbaijan:  COUNTRY NAME
 UWI .            /AZE00000090:  UNIQUE WELL IDENTIFIER
 API .            /AZE00000090:  API NUMBER
 CNTY.                        :  COUNTY
 PROV.                        :  PROVINCE
 STAT.                        :  STATE
 LOC .                        :  LOCATION
 LMF .             Drill Floor:  LOG MEASURED FROM
 TVDS.m                  36.60:  TVDSS CORRECTN
 LATI.deg                40.08:  LATITUDE
 LONG.deg                51.24:  LONGITUDE
 WHNS.m                  -7.94:  WELL HEAD N/S
 WHEW.m                   1.56:  WELL HEAD E/W
 UTMX.m              520429.26:  UTM X
 UTMY.m             4438973.87:  UTM Y
 DFWL.m                   0.00:  DISTANCE FWL
 DFSL.m                   0.00:  DISTANCE FSL
 SDEP.m                1455.00:  START DEPTH
 TDD .m                4047.51:  TOTAL DEPTH (DRILLER)
 VSDR.deg               112.75:  VERT SEC DIRECT
 GVFD.g                   1.00:  GRAVITY FIELD
 MFLD.nT              50261.00:  MAGNETIC FIELD
 MDIP.deg                59.52:  MAGNETIC DIP
 MDEC.deg                 6.42:  MAGNETIC DECL
 GRDC.deg                 0.17:  GRID CORRECTION
 AZTC.deg                 6.25:  AZM TOTAL CORR
 EPD .m                   0.00:  ELEVATION
 EGL .m                   0.00:  GROUND ELEVATION
 WDMS.m                 121.00:  WD ELEV
 APD .m                  36.60:  DEPTH ABOVE PD
 AGAP.m                  36.60:  AIR GAP
 VSEW.m                   1.56:  VERT SEC E/W
 VSNS.m                  -7.94:  VERT SEC N/S
 DEP .m                1140.01:  DEPTH
 EKB .m                  36.60:  KB ELEVATION
 EDF .m                  36.60:  DF ELEVATION
 TDL .m                 169.50:  TOTAL DEPTH (LOGGER)
 CSGD.m                3875.01:  CASING BOTTOM (DRILLER)
 CSGL.m                3875.01:  CASING BOTTOM (LOGGER)
 CSGS.in                  7.63:  CASING SIZE
 CSGW.lbpf               23.50:  CASING WEIGHT
 VSC .                       0:  VS TO CLOSURE
 MAGU.                 1849206:  MAGUTM CHECKSUM
~Parameter Information Block
#MNEM.UNIT       Value        Description
#---------     -----------    ---------------------------
 AV  .mps                 1.90:  Ann Velocity 
 AVMX.mps                 2.54:  Max Ann Veloc 
 AZIF.deg               137.03:  Azm, Final 
 BHAT.        Rotary Steerable:  BHA Type 
 BREV.rev             23610.00:  Rev Bit Total 
 BROT.°/30m               0.80:  Build Rotating 
 BS  .in                  6.50:  Bit Size 
 BTPL.psig              110.00:  Bit Press Loss 
 CABU.                     Yes:  Customer Abuse 
 COMM.                     Ð„:  Run Comments 1 
 TCS .hr                 70.51:  Time Ciculation Ended 
 CV  .mps                 1.41:  Crit Velocity 
 CVMX.mps                 1.42:  Max Crit Veloc 
 DD1 .         Intigam Rahimov:  Direct Drillr 1 
 DD2 .          Rashad Gojayev:  Direct Drillr 2 
 DDSV.               Geo-Pilot:  DD Service 
 DEFF.%                 100.00:  % Det Eff 
 DLRX.°/30m               1.44:  Dogleg Rot Max 
 DLSO.°/30m               0.00:  Dogleg Oriented 
 DLSX.°/30m               0.00:  Dogleg Str Max 
 DRET.      03.05.00 01-Feb-20:  Drill End Time 
 DRST.      15.50.00 28-Jan-20:  Drill Start Tim 
 DTIM.hr                 24.70:  Time Drilling 
 EDEP.m                4047.51:  End Depth 
 ENG1.           Eldar Hajiyev:  Engineer 1 
 ENG2.          Rasim Hashimov:  Engineer 2 
 ENG3.          Rustam Safarov:  Engineer 3 
 ETIM.      22.00.00 01-Feb-20:  End Time 
 FLOI.gpm               370.00:  Flow In 
 FLON.gpm               300.00:  Flow In Min 
 FLOS.cptm                0.00:  Fluid Loss 
 FLOX.gpm               400.00:  Flow In Max 
 FTRO.       Formation Presure:  FTWD Run Obj 
 HFLO.                      No:  High Flow 
 HPRE.                      No:  High Pressure 
 HTEM.                      No:  High Temp 
 HYDO.m                   2.50:  Hydro Offset 
 IFIN.deg                39.54:  Inc, Final 
 IMAX.deg                41.14:  Inc Max 
 IMIN.deg                39.81:  Inc Min 
 IMND.m                4005.21:  Inc Min Depth 
 IMXD.m                3948.42:  Inc Max Depth 
 JARR.                      No:  Jarring 
 LETM.      03.05.00 01-Feb-20:  Log End Time 
 LOST.hr                     0:  Lost Rig Time 
 LSTM.      15.50.00 28-Jan-20:  Log Start Time 
 MDCL.ppm             37500.00:  Mud Chlorides 
 MDES.     Inversion Oil/Synthetic:  Mud Desc 
 DFD .sg                  1.32:  Mud Density 
 MDMN.sg                  1.32:  Dens Mud Min 
 MDMX.sg                  1.32:  Dens Mud Max 
 MOIL.                      55:  Run Mud Oil % 
 MOWR.                   70:30:  Run Mud OWR 
 MSND.                       0:  Run Mud Sand % 
 MSOL.                      17:  Run Mud Solids% 
 DFV .spqt               80.00:  Mud Viscosity 
 MWOD.in                  4.75:  MWD Tool OD 
 MWSI.                      No:  Serv Intrp, MWD 
 OTIM.hr                121.28:  Time Operating 
 PCON.           Look Like New:  Pad Condition 
 PMAX.psia             6171.00:  Press Op, Max 
 PV  .cP                 30.00:  Mud PV 
 RUN .                     300:  Run Number 
 ROPA.m/hr                5.45:  ROP Avg 
 ROPN.m/hr                3.00:  ROP Min 
 ROPX.m/hr               15.00:  ROP Max 
 RPMA.rpm               130.00:  RPM Surface Avg 
 RPMN.rpm                80.00:  RPM Surface Min 
 RPMX.rpm               140.00:  RPM Surface Max 
 RRUN.                     300:  Rig Run Number 
 RTIM.hr                 13.50:  Time Reaming 
 SAZI.deg               133.93:  Azm, Start 
 SDEP.m                3878.01:  Start Depth 
 SIDD.                      No:  Serv Intrp, DD 
 SINC.deg                40.28:  Inc, Start 
 SPPA.psig             4983.00:  SPP Avg 
 SPPN.psig             4370.00:  SPP Min 
 SPPX.psig             5300.00:  SPP Max 
 STIM.      18.33.36 27-Jan-20:  Start Time 
 SVCS.                 DD, MWD:  Services 
 SVER.                    9.20:  Sperry Version 
 TDAT.m                 169.50:  Tot Depth Attmp 
 TDDF.                      No:  Trip for DD 
 TDLG.m                 169.50:  Tot Depth Loggd 
 TFF .                      No:  Trip for Fail 
 TQAA.f-kp               13.25:  Torque Abs Avg 
 TQAN.f-kp               12.00:  Torque Abs Min 
 TQAX.f-kp               14.00:  Torque Abs Max 
 TRRT.°/30m               0.70:  Turn Rotating 
 MRT .                     ADR:  Maximum Recorded Temperature 
 TTMX.degC               92.16:  Max Tool Temp 
 VS01.       AZ90598764G12V7D4:  Virtual Str1 SN 
 VS02.         AZ90571342R12C4:  Virtual Str2 SN 
 VS03.      AZ90580010N2L2X1C4:  Virtual Str3 SN 
 VS04.        AZ90522266O7X1C4:  Virtual Str4 SN 
 VS05.           AZ90598768F11:  Virtual Str5 SN 
 VS06.     AZ90580006XZ1W1X1C4:  Virtual Str6 SN 
 WBMN.klb                 8.00:  WOB Min 
 WITN.            Peter Wilson:  Customer Rep 
 WOBA.klb                 9.88:  WOB Avg 
 WOBX.klb                10.00:  WOB Max 
 YP  .lhf2               27.00:  Yield Point 
~Curve Information Block
#MNEM.UNIT                 API CODE     Curve Description
#---------               -----------    ---------------------------
 TIME.HHMMSS            00 000 000 000:  GT Time & Date
 GTDEPTH.m              00 000 000 000:  GT Depth
 GTPQH.psia             00 000 000 000:  GT HR Quartz Pressure
 GTTQ.degC              00 000 000 000:  GT Quartz Temperature
 GTTN.NONE              00 000 000 000:  GT Test Number
 GTET.sec               00 000 000 000:  GT Elapsed Test Time
 GTTVD.m                00 000 000 000:  GT True Vertical Depth
#Other Information
#
#WARRANTY: Halliburton will use its best efforts to furnish customers with 
#accurate information and interpretations that are part of, and incident to, the services 
#provided.  However, Halliburton cannot and does not warrant the accuracy 
#or correctness of such information and interpretations.  Under no circumstances should any 
#such information or interpretation be relied upon as the sole basis for any drilling, 
#completion, production, or financial decision or any procedure involving any risk to the 
#safety of any drilling venture, drilling rig or its crew or any other third party.  The 
#Customer has full responsibility for all drilling, completion and production operation.  
#Halliburton makes no representations or warranties, either expressed or 
#implied, including, but not limited to, the implied warranties of merchantability or fitness 
#for a particular purpose, with respect to the services rendered.  In no event will 
#Halliburton be liable for failure to obtain any particular results or for 
#any damages, including, but not limited to, indirect, special or consequential damages, 
#resulting from the use of any information or interpretation provided by Halliburton.
#
~A           TIME           GTDEPTH  GTPQH  GTTQ  GTTN  GTET   GTTVD  
   06:25:21.727.31-Jan-2020 3914.01 5945.93 79.39 4.00   0.00 2947.83
   06:25:21.928.31-Jan-2020 3914.01 5945.93 79.39 4.00   0.20 2947.83
   06:25:22.128.31-Jan-2020 3914.01 5945.93 79.39 4.00   0.40 2947.83
   06:25:22.328.31-Jan-2020 3914.01 5949.66 79.39 4.00   0.60 2947.83
   06:25:22.528.31-Jan-2020 3914.01 5947.56 79.39 4.00   0.80 2947.83
   06:25:22.728.31-Jan-2020 3914.01 5944.17 79.39 4.00   1.00 2947.83
   06:25:22.928.31-Jan-2020 3914.01 5944.17 79.39 4.00   1.20 2947.83
   06:25:23.128.31-Jan-2020 3914.01 5938.47 79.39 4.00   1.40 2947.83
   06:25:23.328.31-Jan-2020 3914.01 5934.76 79.39 4.00   1.60 2947.83
   06:25:23.528.31-Jan-2020 3914.01 5930.00 79.38 4.00   1.80 2947.83
   06:25:23.728.31-Jan-2020 3914.01 5922.33 79.38 4.00   2.00 2947.83
   06:25:23.928.31-Jan-2020 3914.01 5922.33 79.38 4.00   2.20 2947.83
   06:25:24.128.31-Jan-2020 3914.01 5925.46 79.38 4.00   2.40 2947.83
   06:25:24.328.31-Jan-2020 3914.01 5927.00 79.38 4.00   2.60 2947.83
   06:25:24.528.31-Jan-2020 3914.01 5925.95 79.38 4.00   2.80 2947.83
   06:25:24.728.31-Jan-2020 3914.01 5926.18 79.38 4.00   3.00 2947.83
   06:25:24.928.31-Jan-2020 3914.01 5926.18 79.38 4.00   3.20 2947.83
   06:25:25.128.31-Jan-2020 3914.01 5927.14 79.38 4.00   3.40 2947.83
   06:25:25.328.31-Jan-2020 3914.01 5928.31 79.38 4.00   3.60 2947.83
   06:25:25.528.31-Jan-2020 3914.01 5929.81 79.38 4.00   3.80 2947.83
   06:25:25.728.31-Jan-2020 3914.01 5931.10 79.38 4.00   4.00 2947.83
   06:25:25.928.31-Jan-2020 3914.01 5931.10 79.38 4.00   4.20 2947.83
   06:25:26.128.31-Jan-2020 3914.01 5934.13 79.37 4.00   4.40 2947.83
   06:25:26.328.31-Jan-2020 3914.01 5935.30 79.37 4.00   4.60 2947.83
   06:25:26.528.31-Jan-2020 3914.01 5936.79 79.37 4.00   4.80 2947.83
   06:25:26.728.31-Jan-2020 3914.01 5937.55 79.37 4.00   5.00 2947.83
   06:25:26.929.31-Jan-2020 3914.01 5937.55 79.37 4.00   5.20 2947.83
   06:25:27.129.31-Jan-2020 3914.01 5932.81 79.37 4.00   5.40 2947.83
   06:25:27.329.31-Jan-2020 3914.01 5932.96 79.37 4.00   5.60 2947.83
   06:25:27.529.31-Jan-2020 3914.01 5935.92 79.37 4.00   5.80 2947.83
   06:25:27.729.31-Jan-2020 3914.01 5936.41 79.37 4.00   6.00 2947.83
   06:25:27.929.31-Jan-2020 3914.01 5936.41 79.37 4.00   6.20 2947.83
   06:25:28.129.31-Jan-2020 3914.01 5936.18 79.37 4.00   6.40 2947.83
   06:25:28.329.31-Jan-2020 3914.01 5937.03 79.36 4.00   6.60 2947.83
   06:25:28.529.31-Jan-2020 3914.01 5932.38 79.36 4.00   6.80 2947.83
   06:25:28.729.31-Jan-2020 3914.01 5932.41 79.36 4.00   7.00 2947.83
   06:25:28.929.31-Jan-2020 3914.01 5932.41 79.36 4.00   7.20 2947.83
   06:25:29.129.31-Jan-2020 3914.01 5934.78 79.36 4.00   7.40 2947.83
   06:25:29.329.31-Jan-2020 3914.01 5933.82 79.36 4.00   7.60 2947.83
   06:25:29.529.31-Jan-2020 3914.01 5933.17 79.36 4.00   7.80 2947.83
   06:25:29.729.31-Jan-2020 3914.01 5925.41 79.36 4.00   8.00 2947.83
   06:25:29.929.31-Jan-2020 3914.01 5925.41 79.36 4.00   8.20 2947.83
   06:25:30.129.31-Jan-2020 3914.01 5931.64 79.36 4.00   8.40 2947.83
   06:25:30.329.31-Jan-2020 3914.01 5931.64 79.36 4.00   8.60 2947.83
   06:25:30.529.31-Jan-2020 3914.01 5931.26 79.36 4.00   8.80 2947.83
   06:25:30.729.31-Jan-2020 3914.01 5930.28 79.35 4.00   9.00 2947.83
   06:25:30.929.31-Jan-2020 3914.01 5930.28 79.35 4.00   9.20 2947.83
   06:25:31.129.31-Jan-2020 3914.01 5922.35 79.35 4.00   9.40 2947.83
   06:25:31.329.31-Jan-2020 3914.01 5928.27 79.35 4.00   9.60 2947.83
   06:25:31.529.31-Jan-2020 3914.01 5931.10 79.35 4.00   9.80 2947.83
   06:25:31.730.31-Jan-2020 3914.01 5932.87 79.35 4.00  10.00 2947.83
   06:25:31.930.31-Jan-2020 3914.01 5932.87 79.35 4.00  10.20 2947.83
   06:25:32.130.31-Jan-2020 3914.01 5927.36 79.35 4.00  10.40 2947.83
   06:25:32.330.31-Jan-2020 3914.01 5933.34 79.35 4.00  10.60 2947.83
   06:25:32.530.31-Jan-2020 3914.01 5934.92 79.35 4.00  10.80 2947.83
   06:25:32.730.31-Jan-2020 3914.01 5937.70 79.35 4.00  11.00 2947.83
   06:25:32.930.31-Jan-2020 3914.01 5937.70 79.35 4.00  11.20 2947.83
   06:25:33.130.31-Jan-2020 3914.01 5937.60 79.35 4.00  11.40 2947.83
   06:25:33.330.31-Jan-2020 3914.01 5937.11 79.34 4.00  11.60 2947.83
   06:25:33.530.31-Jan-2020 3914.01 5937.00 79.34 4.00  11.80 2947.83
   06:25:33.730.31-Jan-2020 3914.01 5936.55 79.34 4.00  12.00 2947.83
   06:25:33.930.31-Jan-2020 3914.01 5936.55 79.34 4.00  12.20 2947.83
   06:25:34.130.31-Jan-2020 3914.01 5939.15 79.34 4.00  12.40 2947.83
   06:25:34.330.31-Jan-2020 3914.01 5938.23 79.34 4.00  12.60 2947.83
   06:25:34.530.31-Jan-2020 3914.01 5936.75 79.34 4.00  12.80 2947.83
   06:25:34.730.31-Jan-2020 3914.01 5935.71 79.34 4.00  13.00 2947.83
   06:25:34.930.31-Jan-2020 3914.01 5935.71 79.34 4.00  13.20 2947.83
   06:25:35.130.31-Jan-2020 3914.01 5936.96 79.34 4.00  13.40 2947.83
   06:25:35.330.31-Jan-2020 3914.01 5937.07 79.34 4.00  13.60 2947.83
   06:25:35.530.31-Jan-2020 3914.01 5937.31 79.33 4.00  13.80 2947.83
   06:25:35.730.31-Jan-2020 3914.01 5929.68 79.33 4.00  14.00 2947.83
   06:25:35.930.31-Jan-2020 3914.01 5929.68 79.33 4.00  14.20 2947.83
   06:25:36.130.31-Jan-2020 3914.01 5936.03 79.33 4.00  14.40 2947.83
   06:25:36.330.31-Jan-2020 3914.01 5936.40 79.33 4.00  14.60 2947.83
   06:25:36.530.31-Jan-2020 3914.01 5936.83 79.33 4.00  14.80 2947.83
   06:25:36.731.31-Jan-2020 3914.01 5937.84 79.33 4.00  15.00 2947.83
   06:25:36.931.31-Jan-2020 3914.01 5937.84 79.33 4.00  15.20 2947.83
   06:25:37.131.31-Jan-2020 3914.01 5938.21 79.33 4.00  15.40 2947.83
   06:25:37.331.31-Jan-2020 3914.01 5937.64 79.33 4.00  15.60 2947.83
   06:25:37.531.31-Jan-2020 3914.01 5938.02 79.33 4.00  15.80 2947.83
   06:25:37.731.31-Jan-2020 3914.01 5938.06 79.33 4.00  16.00 2947.83
   06:25:37.931.31-Jan-2020 3914.01 5938.06 79.33 4.00  16.20 2947.83
   06:25:38.131.31-Jan-2020 3914.01 5940.12 79.32 4.00  16.40 2947.83
   06:25:38.331.31-Jan-2020 3914.01 5940.73 79.32 4.00  16.60 2947.83
   06:25:38.531.31-Jan-2020 3914.01 5958.64 79.32 4.00  16.80 2947.83
   06:25:38.731.31-Jan-2020 3914.01 6025.08 79.32 4.00  17.00 2947.83
   06:25:38.931.31-Jan-2020 3914.01 6025.08 79.32 4.00  17.20 2947.83
   06:25:39.131.31-Jan-2020 3914.01 6135.32 79.32 4.00  17.40 2947.83
   06:25:39.331.31-Jan-2020 3914.01 6190.34 79.32 4.00  17.60 2947.83
   06:25:39.531.31-Jan-2020 3914.01 6272.55 79.32 4.00  17.80 2947.83
   06:25:39.731.31-Jan-2020 3914.01 6340.13 79.32 4.00  18.00 2947.83
   06:25:39.931.31-Jan-2020 3914.01 6340.13 79.32 4.00  18.20 2947.83
   06:25:40.131.31-Jan-2020 3914.01 6462.53 79.32 4.00  18.40 2947.83
   06:25:40.331.31-Jan-2020 3914.01 6521.31 79.31 4.00  18.60 2947.83
   06:25:40.531.31-Jan-2020 3914.01 6613.44 79.31 4.00  18.80 2947.83
   06:25:40.731.31-Jan-2020 3914.01 6659.64 79.31 4.00  19.00 2947.83
   06:25:40.931.31-Jan-2020 3914.01 6659.64 79.31 4.00  19.20 2947.83
   06:25:41.131.31-Jan-2020 3914.01 6617.15 79.31 4.00  19.40 2947.83
   06:25:41.331.31-Jan-2020 3914.01 6689.70 79.31 4.00  19.60 2947.83
   06:25:41.531.31-Jan-2020 3914.01 6662.65 79.31 4.00  19.80 2947.83
   06:25:41.732.31-Jan-2020 3914.01 6657.62 79.31 4.00  20.00 2947.83
   06:25:41.932.31-Jan-2020 3914.01 6657.62 79.31 4.00  20.20 2947.83
   06:25:42.132.31-Jan-2020 3914.01 6615.23 79.31 4.00  20.40 2947.83
   06:25:42.332.31-Jan-2020 3914.01 6673.64 79.31 4.00  20.60 2947.83
   06:25:42.532.31-Jan-2020 3914.01 6649.83 79.31 4.00  20.80 2947.83
   06:25:42.732.31-Jan-2020 3914.01 6460.45 79.31 4.00  21.00 2947.83
   06:25:42.932.31-Jan-2020 3914.01 6460.45 79.31 4.00  21.20 2947.83
   06:25:43.132.31-Jan-2020 3914.01 6530.17 79.30 4.00  21.40 2947.83
   06:25:43.332.31-Jan-2020 3914.01 6571.52 79.30 4.00  21.60 2947.83
   06:25:43.532.31-Jan-2020 3914.01 6616.67 79.30 4.00  21.80 2947.83
   06:25:43.732.31-Jan-2020 3914.01 6643.60 79.30 4.00  22.00 2947.83
   06:25:43.932.31-Jan-2020 3914.01 6643.60 79.30 4.00  22.20 2947.83
   06:25:44.132.31-Jan-2020 3914.01 6669.84 79.30 4.00  22.40 2947.83
   06:25:44.332.31-Jan-2020 3914.01 6677.92 79.30 4.00  22.60 2947.83
   06:25:44.532.31-Jan-2020 3914.01 6683.83 79.30 4.00  22.80 2947.83
