~Version Information
 VERS.                  2.0:   CWLS log ASCII Standard -VERSION 2.0
 WRAP.                   NO:   One line per depth step
~Well Information Block
#MNEM.UNIT     VALUE/NAME     DESCRIPTION
#---------     -----------    ---------------------------
 STRT.S             21:06:33 30-Jan-20: START TIME 21:06:33 30-Jan-20
 STOP.S             21:13:02 30-Jan-20: STOP TIME  21:13:02 30-Jan-20
 STEP.S                   0.00: STEP TIME
 NULL.                 -999.25: NULL VALUE
 DFWT.                        :  DIST FWL TEXT
 DFST.                        :  DIST FSL TEXT
 DMF .             Drill Floor:  DRILL MEAS FROM
 STIM.      09.30.00 26-Dec-19:  START TIME
 DATE.      08.00.00 20-Jan-20:  END TIME
 SPUD.               23-Nov-19:  SPUD DATE
 NREF.                    Grid:  NORTH REFERENCE
 HPTY.       Minimum Curvature:  HOLE POS TYPE
 DMOD.             Drill Model:  DRILL MOD DESC
 SVYD.                  Survey:  SURVEY DESC
 ILTD.               Lithology:  INTERP LTH DESC
 FTOP.          Formation Tops:  FORM TOPS DESC
 SON .        AZ-XX-0906192647:  JOB NUMBER
 WTYP.                Deviated:  WELL TYPE
 COMP.     BP Exploration (Caspian Sea) Ltd:  COMPANY
 BASE.              Azerbaijan:  LOGGING EQUIPMENT BASE LOCATION
 REGN.                 Eurasia:  REGION
 FLD .                     ACG:  FIELD NAME
 SRVC.              KCA Deutag:  CONTRACTOR
 MWDS.                    Baku:  MWD SHOP
 WELL.     A10 (Slot 20) - SCP:  WELL NAME
 JOBN.        AZ-XX-0906192647:  JOB TICKET NUMB
 RIG .                 Chirag1:  RIG NAME
 DCON.     Halliburton Sperry Drilling:  DIRECTNL CONTR
 UNIT.                     N/A:  LOGGING EQUIPMENT ID
 PDAT.          Mean Sea Level:  PERMANENT DATUM
 MDS .        Operator Entered:  MAG DATA SOURCE
 CTRY.              Azerbaijan:  COUNTRY NAME
 UWI .            /AZE00000090:  UNIQUE WELL IDENTIFIER
 API .            /AZE00000090:  API NUMBER
 CNTY.                        :  COUNTY
 PROV.                        :  PROVINCE
 STAT.                        :  STATE
 LOC .                        :  LOCATION
 LMF .             Drill Floor:  LOG MEASURED FROM
 TVDS.m                  36.60:  TVDSS CORRECTN
 LATI.deg                40.08:  LATITUDE
 LONG.deg                51.24:  LONGITUDE
 WHNS.m                  -7.94:  WELL HEAD N/S
 WHEW.m                   1.56:  WELL HEAD E/W
 UTMX.m              520429.26:  UTM X
 UTMY.m             4438973.87:  UTM Y
 DFWL.m                   0.00:  DISTANCE FWL
 DFSL.m                   0.00:  DISTANCE FSL
 SDEP.m                1455.00:  START DEPTH
 TDD .m                4047.51:  TOTAL DEPTH (DRILLER)
 VSDR.deg               112.75:  VERT SEC DIRECT
 GVFD.g                   1.00:  GRAVITY FIELD
 MFLD.nT              50261.00:  MAGNETIC FIELD
 MDIP.deg                59.52:  MAGNETIC DIP
 MDEC.deg                 6.42:  MAGNETIC DECL
 GRDC.deg                 0.17:  GRID CORRECTION
 AZTC.deg                 6.25:  AZM TOTAL CORR
 EPD .m                   0.00:  ELEVATION
 EGL .m                   0.00:  GROUND ELEVATION
 WDMS.m                 121.00:  WD ELEV
 APD .m                  36.60:  DEPTH ABOVE PD
 AGAP.m                  36.60:  AIR GAP
 VSEW.m                   1.56:  VERT SEC E/W
 VSNS.m                  -7.94:  VERT SEC N/S
 DEP .m                1140.01:  DEPTH
 EKB .m                  36.60:  KB ELEVATION
 EDF .m                  36.60:  DF ELEVATION
 TDL .m                 169.50:  TOTAL DEPTH (LOGGER)
 CSGD.m                3875.01:  CASING BOTTOM (DRILLER)
 CSGL.m                3875.01:  CASING BOTTOM (LOGGER)
 CSGS.in                  7.63:  CASING SIZE
 CSGW.lbpf               23.50:  CASING WEIGHT
 VSC .                       0:  VS TO CLOSURE
 MAGU.                 1849206:  MAGUTM CHECKSUM
~Parameter Information Block
#MNEM.UNIT       Value        Description
#---------     -----------    ---------------------------
 AV  .mps                 1.90:  Ann Velocity 
 AVMX.mps                 2.54:  Max Ann Veloc 
 AZIF.deg               137.03:  Azm, Final 
 BHAT.        Rotary Steerable:  BHA Type 
 BREV.rev             23610.00:  Rev Bit Total 
 BROT.°/30m               0.80:  Build Rotating 
 BS  .in                  6.50:  Bit Size 
 BTPL.psig              110.00:  Bit Press Loss 
 CABU.                     Yes:  Customer Abuse 
 TCS .hr                 70.51:  Time Ciculation Ended 
 CV  .mps                 1.41:  Crit Velocity 
 CVMX.mps                 1.42:  Max Crit Veloc 
 DD1 .         Intigam Rahimov:  Direct Drillr 1 
 DD2 .          Rashad Gojayev:  Direct Drillr 2 
 DDSV.               Geo-Pilot:  DD Service 
 DEFF.%                 100.00:  % Det Eff 
 DLRX.°/30m               1.44:  Dogleg Rot Max 
 DLSO.°/30m               0.00:  Dogleg Oriented 
 DLSX.°/30m               0.00:  Dogleg Str Max 
 DRET.      03.05.00 01-Feb-20:  Drill End Time 
 DRST.      15.50.00 28-Jan-20:  Drill Start Tim 
 DTIM.hr                 24.70:  Time Drilling 
 EDEP.m                4047.51:  End Depth 
 ENG1.           Eldar Hajiyev:  Engineer 1 
 ENG2.          Rasim Hashimov:  Engineer 2 
 ENG3.          Rustam Safarov:  Engineer 3 
 ETIM.      22.00.00 01-Feb-20:  End Time 
 FLOI.gpm               370.00:  Flow In 
 FLON.gpm               300.00:  Flow In Min 
 FLOS.cptm                0.00:  Fluid Loss 
 FLOX.gpm               400.00:  Flow In Max 
 FTRO.       Formation Presure:  FTWD Run Obj 
 HFLO.                      No:  High Flow 
 HPRE.                      No:  High Pressure 
 HTEM.                      No:  High Temp 
 HYDO.m                   2.50:  Hydro Offset 
 IFIN.deg                39.54:  Inc, Final 
 IMAX.deg                41.14:  Inc Max 
 IMIN.deg                39.81:  Inc Min 
 IMND.m                4005.21:  Inc Min Depth 
 IMXD.m                3948.42:  Inc Max Depth 
 JARR.                      No:  Jarring 
 LETM.      03.05.00 01-Feb-20:  Log End Time 
 LOST.hr                     0:  Lost Rig Time 
 LSTM.      15.50.00 28-Jan-20:  Log Start Time 
 MDCL.ppm             37500.00:  Mud Chlorides 
 MDES.     Inversion Oil/Synthetic:  Mud Desc 
 DFD .sg                  1.32:  Mud Density 
 MDMN.sg                  1.32:  Dens Mud Min 
 MDMX.sg                  1.32:  Dens Mud Max 
 MOIL.                      55:  Run Mud Oil % 
 MOWR.                   70:30:  Run Mud OWR 
 MSND.                       0:  Run Mud Sand % 
 MSOL.                      17:  Run Mud Solids% 
 DFV .spqt               80.00:  Mud Viscosity 
 MWOD.in                  4.75:  MWD Tool OD 
 MWSI.                      No:  Serv Intrp, MWD 
 OTIM.hr                121.28:  Time Operating 
 PCON.           Look Like New:  Pad Condition 
 PMAX.psia             6171.00:  Press Op, Max 
 PV  .cP                 30.00:  Mud PV 
 RUN .                     300:  Run Number 
 ROPA.m/hr                5.45:  ROP Avg 
 ROPN.m/hr                3.00:  ROP Min 
 ROPX.m/hr               15.00:  ROP Max 
 RPMA.rpm               130.00:  RPM Surface Avg 
 RPMN.rpm                80.00:  RPM Surface Min 
 RPMX.rpm               140.00:  RPM Surface Max 
 RRUN.                     300:  Rig Run Number 
 RTIM.hr                 13.50:  Time Reaming 
 SAZI.deg               133.93:  Azm, Start 
 SDEP.m                3878.01:  Start Depth 
 SIDD.                      No:  Serv Intrp, DD 
 SINC.deg                40.28:  Inc, Start 
 SPPA.psig             4983.00:  SPP Avg 
 SPPN.psig             4370.00:  SPP Min 
 SPPX.psig             5300.00:  SPP Max 
 STIM.      18.33.36 27-Jan-20:  Start Time 
 SVCS.                 DD, MWD:  Services 
 SVER.                    9.20:  Sperry Version 
 TDAT.m                 169.50:  Tot Depth Attmp 
 TDDF.                      No:  Trip for DD 
 TDLG.m                 169.50:  Tot Depth Loggd 
 TFF .                      No:  Trip for Fail 
 TQAA.f-kp               13.25:  Torque Abs Avg 
 TQAN.f-kp               12.00:  Torque Abs Min 
 TQAX.f-kp               14.00:  Torque Abs Max 
 TRRT.°/30m               0.70:  Turn Rotating 
 MRT .                     ADR:  Maximum Recorded Temperature 
 TTMX.degC               92.16:  Max Tool Temp 
 VS01.       AZ90598764G12V7D4:  Virtual Str1 SN 
 VS02.         AZ90571342R12C4:  Virtual Str2 SN 
 VS03.      AZ90580010N2L2X1C4:  Virtual Str3 SN 
 VS04.        AZ90522266O7X1C4:  Virtual Str4 SN 
 VS05.           AZ90598768F11:  Virtual Str5 SN 
 VS06.     AZ90580006XZ1W1X1C4:  Virtual Str6 SN 
 WBMN.klb                 8.00:  WOB Min 
 WITN.            Peter Wilson:  Customer Rep 
 WOBA.klb                 9.88:  WOB Avg 
 WOBX.klb                10.00:  WOB Max 
 YP  .lhf2               27.00:  Yield Point 
~Curve Information Block
#MNEM.UNIT                 API CODE     Curve Description
#---------               -----------    ---------------------------
 TIME.HHMMSS            00 000 000 000:  GT Time & Date
 GTDEPTH.m              00 000 000 000:  GT Depth
 GTPQH.psia             00 000 000 000:  GT HR Quartz Pressure
 GTTQ.degC              00 000 000 000:  GT Quartz Temperature
 GTTN.NONE              00 000 000 000:  GT Test Number
 GTET.sec               00 000 000 000:  GT Elapsed Test Time
 GTTVD.m                00 000 000 000:  GT True Vertical Depth
#Other Information
#
#WARRANTY: Halliburton will use its best efforts to furnish customers with 
#accurate information and interpretations that are part of, and incident to, the services 
#provided.  However, Halliburton cannot and does not warrant the accuracy 
#or correctness of such information and interpretations.  Under no circumstances should any 
#such information or interpretation be relied upon as the sole basis for any drilling, 
#completion, production, or financial decision or any procedure involving any risk to the 
#safety of any drilling venture, drilling rig or its crew or any other third party.  The 
#Customer has full responsibility for all drilling, completion and production operation.  
#Halliburton makes no representations or warranties, either expressed or 
#implied, including, but not limited to, the implied warranties of merchantability or fitness 
#for a particular purpose, with respect to the services rendered.  In no event will 
#Halliburton be liable for failure to obtain any particular results or for 
#any damages, including, but not limited to, indirect, special or consequential damages, 
#resulting from the use of any information or interpretation provided by Halliburton.
#
~A           TIME           GTDEPTH  GTPQH  GTTQ  GTTN  GTET   GTTVD  
# ...
   21:12:41.074.30-Jan-2020 3895.01 5867.77 72.33 2.00 368.07 2933.47
   21:12:41.274.30-Jan-2020 3895.01 5867.77 72.33 2.00 368.27 2933.47
   21:12:41.474.30-Jan-2020 3895.01 5869.44 72.33 2.00 368.47 2933.47
   21:12:41.674.30-Jan-2020 3895.01 5866.94 72.33 2.00 368.67 2933.47
   21:12:41.874.30-Jan-2020 3895.01 5857.68 72.33 2.00 368.87 2933.47
   21:12:42.074.30-Jan-2020 3895.01 5868.05 72.33 2.00 369.07 2933.47
   21:12:42.274.30-Jan-2020 3895.01 5868.05 72.33 2.00 369.27 2933.47
   21:12:42.474.30-Jan-2020 3895.01 5867.48 72.33 2.00 369.47 2933.47
   21:12:42.674.30-Jan-2020 3895.01 5866.81 72.33 2.00 369.67 2933.47
   21:12:42.874.30-Jan-2020 3895.01 5858.23 72.33 2.00 369.87 2933.47
   21:12:43.074.30-Jan-2020 3895.01 5867.85 72.33 2.00 370.07 2933.47
   21:12:43.274.30-Jan-2020 3895.01 5867.85 72.33 2.00 370.27 2933.47
   21:12:43.474.30-Jan-2020 3895.01 5867.34 72.33 2.00 370.47 2933.47
   21:12:43.674.30-Jan-2020 3895.01 5867.59 72.33 2.00 370.67 2933.47
   21:12:43.874.30-Jan-2020 3895.01 5867.04 72.33 2.00 370.87 2933.47
   21:12:44.074.30-Jan-2020 3895.01 5866.14 72.33 2.00 371.07 2933.47
   21:12:44.275.30-Jan-2020 3895.01 5866.14 72.33 2.00 371.27 2933.47
   21:12:44.475.30-Jan-2020 3895.01 5860.10 72.33 2.00 371.47 2933.47
   21:12:44.675.30-Jan-2020 3895.01 5867.45 72.33 2.00 371.67 2933.47
   21:12:44.875.30-Jan-2020 3895.01 5867.88 72.33 2.00 371.87 2933.47
   21:12:45.075.30-Jan-2020 3895.01 5866.68 72.33 2.00 372.07 2933.47
   21:12:45.275.30-Jan-2020 3895.01 5866.68 72.33 2.00 372.27 2933.47
   21:12:45.475.30-Jan-2020 3895.01 5859.42 72.33 2.00 372.47 2933.47
   21:12:45.675.30-Jan-2020 3895.01 5862.41 72.33 2.00 372.67 2933.47
   21:12:45.875.30-Jan-2020 3895.01 5867.33 72.33 2.00 372.87 2933.47
   21:12:46.075.30-Jan-2020 3895.01 5866.00 72.33 2.00 373.07 2933.47
   21:12:46.275.30-Jan-2020 3895.01 5866.00 72.33 2.00 373.27 2933.47
   21:12:46.475.30-Jan-2020 3895.01 5867.61 72.33 2.00 373.47 2933.47
   21:12:46.675.30-Jan-2020 3895.01 5866.98 72.33 2.00 373.67 2933.47
   21:12:46.875.30-Jan-2020 3895.01 5855.79 72.32 2.00 373.87 2933.47
   21:12:47.075.30-Jan-2020 3895.01 5867.09 72.32 2.00 374.07 2933.47
   21:12:47.275.30-Jan-2020 3895.01 5867.09 72.32 2.00 374.27 2933.47
   21:12:47.475.30-Jan-2020 3895.01 5868.62 72.32 2.00 374.47 2933.47
   21:12:47.675.30-Jan-2020 3895.01 5866.35 72.32 2.00 374.67 2933.47
   21:12:47.875.30-Jan-2020 3895.01 5865.62 72.32 2.00 374.87 2933.47
   21:12:48.075.30-Jan-2020 3895.01 5865.71 72.32 2.00 375.07 2933.47
   21:12:48.275.30-Jan-2020 3895.01 5865.71 72.32 2.00 375.27 2933.47
   21:12:48.475.30-Jan-2020 3895.01 5865.29 72.32 2.00 375.47 2933.47
   21:12:48.675.30-Jan-2020 3895.01 5868.05 72.32 2.00 375.67 2933.47
   21:12:48.875.30-Jan-2020 3895.01 5865.59 72.32 2.00 375.87 2933.47
   21:12:49.075.30-Jan-2020 3895.01 5865.77 72.32 2.00 376.07 2933.47
   21:12:49.275.30-Jan-2020 3895.01 5865.77 72.32 2.00 376.27 2933.47
   21:12:49.475.30-Jan-2020 3895.01 5864.26 72.32 2.00 376.47 2933.47
   21:12:49.676.30-Jan-2020 3895.01 5867.67 72.32 2.00 376.67 2933.47
   21:12:49.876.30-Jan-2020 3895.01 5868.42 72.32 2.00 376.87 2933.47
   21:12:50.076.30-Jan-2020 3895.01 5867.21 72.32 2.00 377.07 2933.47
   21:12:50.276.30-Jan-2020 3895.01 5867.21 72.32 2.00 377.27 2933.47
   21:12:50.476.30-Jan-2020 3895.01 5854.74 72.32 2.00 377.47 2933.47
   21:12:50.676.30-Jan-2020 3895.01 5866.42 72.32 2.00 377.67 2933.47
   21:12:50.876.30-Jan-2020 3895.01 5865.86 72.32 2.00 377.87 2933.47
   21:12:51.076.30-Jan-2020 3895.01 5867.44 72.32 2.00 378.07 2933.47
   21:12:51.276.30-Jan-2020 3895.01 5867.44 72.32 2.00 378.27 2933.47
   21:12:51.476.30-Jan-2020 3895.01 5866.27 72.32 2.00 378.47 2933.47
   21:12:51.676.30-Jan-2020 3895.01 5866.27 72.32 2.00 378.67 2933.47
   21:12:51.876.30-Jan-2020 3895.01 5866.48 72.32 2.00 378.87 2933.47
   21:12:52.076.30-Jan-2020 3895.01 5865.70 72.32 2.00 379.07 2933.47
   21:12:52.276.30-Jan-2020 3895.01 5865.70 72.32 2.00 379.27 2933.47
   21:12:52.476.30-Jan-2020 3895.01 5867.33 72.32 2.00 379.47 2933.47
   21:12:52.676.30-Jan-2020 3895.01 5867.25 72.31 2.00 379.67 2933.47
   21:12:52.876.30-Jan-2020 3895.01 5867.32 72.31 2.00 379.87 2933.47
   21:12:53.076.30-Jan-2020 3895.01 5865.65 72.31 2.00 380.07 2933.47
   21:12:53.276.30-Jan-2020 3895.01 5865.65 72.31 2.00 380.27 2933.47
   21:12:53.476.30-Jan-2020 3895.01 5869.48 72.31 2.00 380.47 2933.47
   21:12:53.676.30-Jan-2020 3895.01 5868.65 72.31 2.00 380.67 2933.47
   21:12:53.876.30-Jan-2020 3895.01 5867.07 72.31 2.00 380.87 2933.47
   21:12:54.076.30-Jan-2020 3895.01 5857.56 72.31 2.00 381.07 2933.47
   21:12:54.276.30-Jan-2020 3895.01 5857.56 72.31 2.00 381.27 2933.47
   21:12:54.476.30-Jan-2020 3895.01 5866.36 72.31 2.00 381.47 2933.47
   21:12:54.676.30-Jan-2020 3895.01 5866.62 72.31 2.00 381.67 2933.47
   21:12:54.877.30-Jan-2020 3895.01 5865.46 72.31 2.00 381.87 2933.47
   21:12:55.077.30-Jan-2020 3895.01 5858.40 72.31 2.00 382.07 2933.47
   21:12:55.277.30-Jan-2020 3895.01 5858.40 72.31 2.00 382.27 2933.47
   21:12:55.477.30-Jan-2020 3895.01 5866.63 72.31 2.00 382.47 2933.47
   21:12:55.677.30-Jan-2020 3895.01 5866.96 72.31 2.00 382.67 2933.47
   21:12:55.877.30-Jan-2020 3895.01 5866.17 72.31 2.00 382.87 2933.47
   21:12:56.077.30-Jan-2020 3895.01 5866.86 72.31 2.00 383.07 2933.47
   21:12:56.277.30-Jan-2020 3895.01 5866.86 72.31 2.00 383.27 2933.47
   21:12:56.477.30-Jan-2020 3895.01 5864.58 72.31 2.00 383.47 2933.47
   21:12:56.677.30-Jan-2020 3895.01 5865.72 72.31 2.00 383.67 2933.47
   21:12:56.877.30-Jan-2020 3895.01 5866.81 72.31 2.00 383.87 2933.47
   21:12:57.077.30-Jan-2020 3895.01 5868.20 72.31 2.00 384.07 2933.47
   21:12:57.277.30-Jan-2020 3895.01 5868.20 72.31 2.00 384.27 2933.47
   21:12:57.477.30-Jan-2020 3895.01 5866.11 72.31 2.00 384.47 2933.47
   21:12:57.677.30-Jan-2020 3895.01 5855.26 72.31 2.00 384.67 2933.47
   21:12:57.877.30-Jan-2020 3895.01 5867.62 72.31 2.00 384.87 2933.47
   21:12:58.077.30-Jan-2020 3895.01 5866.34 72.30 2.00 385.07 2933.47
   21:12:58.277.30-Jan-2020 3895.01 5866.34 72.30 2.00 385.27 2933.47
   21:12:58.477.30-Jan-2020 3895.01 5865.72 72.30 2.00 385.47 2933.47
   21:12:58.677.30-Jan-2020 3895.01 5856.19 72.30 2.00 385.67 2933.47
   21:12:58.877.30-Jan-2020 3895.01 5867.37 72.30 2.00 385.87 2933.47
   21:12:59.077.30-Jan-2020 3895.01 5865.65 72.30 2.00 386.07 2933.47
   21:12:59.277.30-Jan-2020 3895.01 5865.65 72.30 2.00 386.27 2933.47
   21:12:59.477.30-Jan-2020 3895.01 5868.77 72.30 2.00 386.47 2933.47
   21:12:59.677.30-Jan-2020 3895.01 5867.02 72.30 2.00 386.67 2933.47
   21:12:59.877.30-Jan-2020 3895.01 5866.89 72.30 2.00 386.87 2933.47
   21:13:00.077.30-Jan-2020 3895.01 5865.23 72.30 2.00 387.07 2933.47
   21:13:00.278.30-Jan-2020 3895.01 5865.23 72.30 2.00 387.27 2933.47
   21:13:00.478.30-Jan-2020 3895.01 5865.21 72.30 2.00 387.47 2933.47
   21:13:00.678.30-Jan-2020 3895.01 5867.68 72.30 2.00 387.67 2933.47
   21:13:00.878.30-Jan-2020 3895.01 5867.06 72.30 2.00 387.87 2933.47
   21:13:01.078.30-Jan-2020 3895.01 5865.44 72.30 2.00 388.07 2933.47
   21:13:01.278.30-Jan-2020 3895.01 5865.44 72.30 2.00 388.27 2933.47
   21:13:01.478.30-Jan-2020 3895.01 5866.78 72.30 2.00 388.47 2933.47
   21:13:01.678.30-Jan-2020 3895.01 5866.95 72.30 2.00 388.67 2933.47
   21:13:01.878.30-Jan-2020 3895.01 5866.77 72.30 2.00 388.87 2933.47
   21:13:02.078.30-Jan-2020 3895.01 5866.53 72.30 2.00 389.07 2933.47
   21:13:02.278.30-Jan-2020 3895.01 5866.53 72.30 2.00 389.27 2933.47
   21:13:02.478.30-Jan-2020 3895.01 5866.40 72.30 2.00 389.47 2933.47
   21:13:02.678.30-Jan-2020 3895.01 5865.46 72.30 2.00 389.67 2933.47
   21:13:02.878.30-Jan-2020 3895.01 5866.09 72.30 2.00 389.87 2933.47
