~Version Information
 VERS.                  2.0:   CWLS log ASCII Standard -VERSION 2.0
 WRAP.                   NO:   One line per depth step
~Well Information Block
#MNEM.UNIT     VALUE/NAME     DESCRIPTION
#---------     -----------    ---------------------------
 STRT.S             19:01:08 30-Jan-20: START TIME 19:01:08 30-Jan-20
 STOP.S             19:07:38 30-Jan-20: STOP TIME  19:07:38 30-Jan-20
 STEP.S                   0.00: STEP TIME
 NULL.                 -999.25: NULL VALUE
 DFWT.                        :  DIST FWL TEXT
 DFST.                        :  DIST FSL TEXT
 DMF .             Drill Floor:  DRILL MEAS FROM
 STIM.      09.30.00 26-Dec-19:  START TIME
 DATE.      08.00.00 20-Jan-20:  END TIME
 SPUD.               23-Nov-19:  SPUD DATE
 NREF.                    Grid:  NORTH REFERENCE
 HPTY.       Minimum Curvature:  HOLE POS TYPE
 DMOD.             Drill Model:  DRILL MOD DESC
 SVYD.                  Survey:  SURVEY DESC
 ILTD.               Lithology:  INTERP LTH DESC
 FTOP.          Formation Tops:  FORM TOPS DESC
 SON .        AZ-XX-0906192647:  JOB NUMBER
 WTYP.                Deviated:  WELL TYPE
 COMP.     BP Exploration (Caspian Sea) Ltd:  COMPANY
 BASE.              Azerbaijan:  LOGGING EQUIPMENT BASE LOCATION
 REGN.                 Eurasia:  REGION
 FLD .                     ACG:  FIELD NAME
 SRVC.              KCA Deutag:  CONTRACTOR
 MWDS.                    Baku:  MWD SHOP
 WELL.     A10 (Slot 20) - SCP:  WELL NAME
 JOBN.        AZ-XX-0906192647:  JOB TICKET NUMB
 RIG .                 Chirag1:  RIG NAME
 DCON.     Halliburton Sperry Drilling:  DIRECTNL CONTR
 UNIT.                     N/A:  LOGGING EQUIPMENT ID
 PDAT.          Mean Sea Level:  PERMANENT DATUM
 MDS .        Operator Entered:  MAG DATA SOURCE
 CTRY.              Azerbaijan:  COUNTRY NAME
 UWI .            /AZE00000090:  UNIQUE WELL IDENTIFIER
 API .            /AZE00000090:  API NUMBER
 CNTY.                        :  COUNTY
 PROV.                        :  PROVINCE
 STAT.                        :  STATE
 LOC .                        :  LOCATION
 LMF .             Drill Floor:  LOG MEASURED FROM
 TVDS.m                  36.60:  TVDSS CORRECTN
 LATI.deg                40.08:  LATITUDE
 LONG.deg                51.24:  LONGITUDE
 WHNS.m                  -7.94:  WELL HEAD N/S
 WHEW.m                   1.56:  WELL HEAD E/W
 UTMX.m              520429.26:  UTM X
 UTMY.m             4438973.87:  UTM Y
 DFWL.m                   0.00:  DISTANCE FWL
 DFSL.m                   0.00:  DISTANCE FSL
 SDEP.m                1455.00:  START DEPTH
 TDD .m                4047.51:  TOTAL DEPTH (DRILLER)
 VSDR.deg               112.75:  VERT SEC DIRECT
 GVFD.g                   1.00:  GRAVITY FIELD
 MFLD.nT              50261.00:  MAGNETIC FIELD
 MDIP.deg                59.52:  MAGNETIC DIP
 MDEC.deg                 6.42:  MAGNETIC DECL
 GRDC.deg                 0.17:  GRID CORRECTION
 AZTC.deg                 6.25:  AZM TOTAL CORR
 EPD .m                   0.00:  ELEVATION
 EGL .m                   0.00:  GROUND ELEVATION
 WDMS.m                 121.00:  WD ELEV
 APD .m                  36.60:  DEPTH ABOVE PD
 AGAP.m                  36.60:  AIR GAP
 VSEW.m                   1.56:  VERT SEC E/W
 VSNS.m                  -7.94:  VERT SEC N/S
 DEP .m                1140.01:  DEPTH
 EKB .m                  36.60:  KB ELEVATION
 EDF .m                  36.60:  DF ELEVATION
 TDL .m                 169.50:  TOTAL DEPTH (LOGGER)
 CSGD.m                3875.01:  CASING BOTTOM (DRILLER)
 CSGL.m                3875.01:  CASING BOTTOM (LOGGER)
 CSGS.in                  7.63:  CASING SIZE
 CSGW.lbpf               23.50:  CASING WEIGHT
 VSC .                       0:  VS TO CLOSURE
 MAGU.                 1849206:  MAGUTM CHECKSUM
~Parameter Information Block
#MNEM.UNIT       Value        Description
#---------     -----------    ---------------------------
 AV  .mps                 1.90:  Ann Velocity 
 AVMX.mps                 2.54:  Max Ann Veloc 
 AZIF.deg               137.03:  Azm, Final 
 BHAT.        Rotary Steerable:  BHA Type 
 BREV.rev             23610.00:  Rev Bit Total 
 BROT.°/30m               0.80:  Build Rotating 
 BS  .in                  6.50:  Bit Size 
 BTPL.psig              110.00:  Bit Press Loss 
 CABU.                     Yes:  Customer Abuse 
 COMM.                     Ó€:  Run Comments 1 
 TCS .hr                 70.51:  Time Ciculation Ended 
 CV  .mps                 1.41:  Crit Velocity 
 CVMX.mps                 1.42:  Max Crit Veloc 
 DD1 .         Intigam Rahimov:  Direct Drillr 1 
 DD2 .          Rashad Gojayev:  Direct Drillr 2 
 DDSV.               Geo-Pilot:  DD Service 
 DEFF.%                 100.00:  % Det Eff 
 DLRX.°/30m               1.44:  Dogleg Rot Max 
 DLSO.°/30m               0.00:  Dogleg Oriented 
 DLSX.°/30m               0.00:  Dogleg Str Max 
 DRET.      03.05.00 01-Feb-20:  Drill End Time 
 DRST.      15.50.00 28-Jan-20:  Drill Start Tim 
 DTIM.hr                 24.70:  Time Drilling 
 EDEP.m                4047.51:  End Depth 
 ENG1.           Eldar Hajiyev:  Engineer 1 
 ENG2.          Rasim Hashimov:  Engineer 2 
 ENG3.          Rustam Safarov:  Engineer 3 
 ETIM.      22.00.00 01-Feb-20:  End Time 
 FLOI.gpm               370.00:  Flow In 
 FLON.gpm               300.00:  Flow In Min 
 FLOS.cptm                0.00:  Fluid Loss 
 FLOX.gpm               400.00:  Flow In Max 
 FTRO.       Formation Presure:  FTWD Run Obj 
 HFLO.                      No:  High Flow 
 HPRE.                      No:  High Pressure 
 HTEM.                      No:  High Temp 
 HYDO.m                   2.50:  Hydro Offset 
 IFIN.deg                39.54:  Inc, Final 
 IMAX.deg                41.14:  Inc Max 
 IMIN.deg                39.81:  Inc Min 
 IMND.m                4005.21:  Inc Min Depth 
 IMXD.m                3948.42:  Inc Max Depth 
 JARR.                      No:  Jarring 
 LETM.      03.05.00 01-Feb-20:  Log End Time 
 LOST.hr                     0:  Lost Rig Time 
 LSTM.      15.50.00 28-Jan-20:  Log Start Time 
 MDCL.ppm             37500.00:  Mud Chlorides 
 MDES.     Inversion Oil/Synthetic:  Mud Desc 
 DFD .sg                  1.32:  Mud Density 
 MDMN.sg                  1.32:  Dens Mud Min 
 MDMX.sg                  1.32:  Dens Mud Max 
 MOIL.                      55:  Run Mud Oil % 
 MOWR.                   70:30:  Run Mud OWR 
 MSND.                       0:  Run Mud Sand % 
 MSOL.                      17:  Run Mud Solids% 
 DFV .spqt               80.00:  Mud Viscosity 
 MWOD.in                  4.75:  MWD Tool OD 
 MWSI.                      No:  Serv Intrp, MWD 
 OTIM.hr                121.28:  Time Operating 
 PCON.           Look Like New:  Pad Condition 
 PMAX.psia             6171.00:  Press Op, Max 
 PV  .cP                 30.00:  Mud PV 
 RUN .                     300:  Run Number 
 ROPA.m/hr                5.45:  ROP Avg 
 ROPN.m/hr                3.00:  ROP Min 
 ROPX.m/hr               15.00:  ROP Max 
 RPMA.rpm               130.00:  RPM Surface Avg 
 RPMN.rpm                80.00:  RPM Surface Min 
 RPMX.rpm               140.00:  RPM Surface Max 
 RRUN.                     300:  Rig Run Number 
 RTIM.hr                 13.50:  Time Reaming 
 SAZI.deg               133.93:  Azm, Start 
 SDEP.m                3878.01:  Start Depth 
 SIDD.                      No:  Serv Intrp, DD 
 SINC.deg                40.28:  Inc, Start 
 SPPA.psig             4983.00:  SPP Avg 
 SPPN.psig             4370.00:  SPP Min 
 SPPX.psig             5300.00:  SPP Max 
 STIM.      18.33.36 27-Jan-20:  Start Time 
 SVCS.                 DD, MWD:  Services 
 SVER.                    9.20:  Sperry Version 
 TDAT.m                 169.50:  Tot Depth Attmp 
 TDDF.                      No:  Trip for DD 
 TDLG.m                 169.50:  Tot Depth Loggd 
 TFF .                      No:  Trip for Fail 
 TQAA.f-kp               13.25:  Torque Abs Avg 
 TQAN.f-kp               12.00:  Torque Abs Min 
 TQAX.f-kp               14.00:  Torque Abs Max 
 TRRT.°/30m               0.70:  Turn Rotating 
 MRT .                     ADR:  Maximum Recorded Temperature 
 TTMX.degC               92.16:  Max Tool Temp 
 VS01.       AZ90598764G12V7D4:  Virtual Str1 SN 
 VS02.         AZ90571342R12C4:  Virtual Str2 SN 
 VS03.      AZ90580010N2L2X1C4:  Virtual Str3 SN 
 VS04.        AZ90522266O7X1C4:  Virtual Str4 SN 
 VS05.           AZ90598768F11:  Virtual Str5 SN 
 VS06.     AZ90580006XZ1W1X1C4:  Virtual Str6 SN 
 WBMN.klb                 8.00:  WOB Min 
 WITN.            Peter Wilson:  Customer Rep 
 WOBA.klb                 9.88:  WOB Avg 
 WOBX.klb                10.00:  WOB Max 
 YP  .lhf2               27.00:  Yield Point 
~Curve Information Block
#MNEM.UNIT                 API CODE     Curve Description
#---------               -----------    ---------------------------
 TIME.HHMMSS            00 000 000 000:  GT Time & Date
 GTDEPTH.m              00 000 000 000:  GT Depth
 GTPQH.psia             00 000 000 000:  GT HR Quartz Pressure
 GTTQ.degC              00 000 000 000:  GT Quartz Temperature
 GTTN.NONE              00 000 000 000:  GT Test Number
 GTET.sec               00 000 000 000:  GT Elapsed Test Time
 GTTVD.m                00 000 000 000:  GT True Vertical Depth
#Other Information
#
#WARRANTY: Halliburton will use its best efforts to furnish customers with 
#accurate information and interpretations that are part of, and incident to, the services 
#provided.  However, Halliburton cannot and does not warrant the accuracy 
#or correctness of such information and interpretations.  Under no circumstances should any 
#such information or interpretation be relied upon as the sole basis for any drilling, 
#completion, production, or financial decision or any procedure involving any risk to the 
#safety of any drilling venture, drilling rig or its crew or any other third party.  The 
#Customer has full responsibility for all drilling, completion and production operation.  
#Halliburton makes no representations or warranties, either expressed or 
#implied, including, but not limited to, the implied warranties of merchantability or fitness 
#for a particular purpose, with respect to the services rendered.  In no event will 
#Halliburton be liable for failure to obtain any particular results or for 
#any damages, including, but not limited to, indirect, special or consequential damages, 
#resulting from the use of any information or interpretation provided by Halliburton.
#
~A           TIME           GTDEPTH  GTPQH  GTTQ  GTTN  GTET   GTTVD  
# ...
   19:06:53.570.30-Jan-2020 3884.01 2968.58 69.12 1.00 345.08 2925.13
   19:06:53.770.30-Jan-2020 3884.01 2968.58 69.12 1.00 345.28 2925.13
   19:06:53.970.30-Jan-2020 3884.01 2968.60 69.12 1.00 345.48 2925.13
   19:06:54.170.30-Jan-2020 3884.01 2968.58 69.12 1.00 345.68 2925.13
   19:06:54.370.30-Jan-2020 3884.01 2968.59 69.12 1.00 345.88 2925.13
   19:06:54.570.30-Jan-2020 3884.01 2968.60 69.12 1.00 346.08 2925.13
   19:06:54.770.30-Jan-2020 3884.01 2968.60 69.12 1.00 346.28 2925.13
   19:06:54.970.30-Jan-2020 3884.01 2968.62 69.12 1.00 346.48 2925.13
   19:06:55.170.30-Jan-2020 3884.01 2969.16 69.12 1.00 346.68 2925.13
   19:06:55.370.30-Jan-2020 3884.01 2983.29 69.12 1.00 346.88 2925.13
   19:06:55.570.30-Jan-2020 3884.01 3075.42 69.12 1.00 347.08 2925.13
   19:06:55.770.30-Jan-2020 3884.01 3075.42 69.12 1.00 347.28 2925.13
   19:06:55.970.30-Jan-2020 3884.01 5830.95 69.12 1.00 347.48 2925.13
   19:06:56.171.30-Jan-2020 3884.01 5835.21 69.12 1.00 347.68 2925.13
   19:06:56.371.30-Jan-2020 3884.01 5833.50 69.12 1.00 347.88 2925.13
   19:06:56.571.30-Jan-2020 3884.01 5827.19 69.12 1.00 348.08 2925.13
   19:06:56.771.30-Jan-2020 3884.01 5827.19 69.12 1.00 348.28 2925.13
   19:06:56.971.30-Jan-2020 3884.01 5837.34 69.12 1.00 348.48 2925.13
   19:06:57.171.30-Jan-2020 3884.01 5839.42 69.12 1.00 348.68 2925.13
   19:06:57.371.30-Jan-2020 3884.01 5838.89 69.12 1.00 348.88 2925.13
   19:06:57.571.30-Jan-2020 3884.01 5839.36 69.12 1.00 349.08 2925.13
   19:06:57.771.30-Jan-2020 3884.01 5839.36 69.12 1.00 349.28 2925.13
   19:06:57.971.30-Jan-2020 3884.01 5838.83 69.12 1.00 349.48 2925.13
   19:06:58.171.30-Jan-2020 3884.01 5839.19 69.12 1.00 349.68 2925.13
   19:06:58.371.30-Jan-2020 3884.01 5842.68 69.12 1.00 349.88 2925.13
   19:06:58.571.30-Jan-2020 3884.01 5841.92 69.12 1.00 350.08 2925.13
   19:06:58.771.30-Jan-2020 3884.01 5841.92 69.12 1.00 350.28 2925.13
   19:06:58.971.30-Jan-2020 3884.01 5840.90 69.12 1.00 350.48 2925.13
   19:06:59.171.30-Jan-2020 3884.01 5840.97 69.12 1.00 350.68 2925.13
   19:06:59.371.30-Jan-2020 3884.01 5844.08 69.12 1.00 350.88 2925.13
   19:06:59.571.30-Jan-2020 3884.01 5842.62 69.13 1.00 351.08 2925.13
   19:06:59.771.30-Jan-2020 3884.01 5842.62 69.13 1.00 351.28 2925.13
   19:06:59.971.30-Jan-2020 3884.01 5837.06 69.13 1.00 351.48 2925.13
   19:07:00.171.30-Jan-2020 3884.01 5841.47 69.13 1.00 351.68 2925.13
   19:07:00.372.30-Jan-2020 3884.01 5842.88 69.13 1.00 351.88 2925.13
   19:07:00.572.30-Jan-2020 3884.01 5844.59 69.13 1.00 352.08 2925.13
   19:07:00.772.30-Jan-2020 3884.01 5844.59 69.13 1.00 352.28 2925.13
   19:07:00.972.30-Jan-2020 3884.01 5844.60 69.13 1.00 352.48 2925.13
   19:07:01.172.30-Jan-2020 3884.01 5842.72 69.13 1.00 352.68 2925.13
   19:07:01.372.30-Jan-2020 3884.01 5842.16 69.13 1.00 352.88 2925.13
   19:07:01.572.30-Jan-2020 3884.01 5843.56 69.13 1.00 353.08 2925.13
   19:07:01.772.30-Jan-2020 3884.01 5843.56 69.13 1.00 353.28 2925.13
   19:07:01.972.30-Jan-2020 3884.01 5843.46 69.13 1.00 353.48 2925.13
   19:07:02.172.30-Jan-2020 3884.01 5842.39 69.13 1.00 353.68 2925.13
   19:07:02.372.30-Jan-2020 3884.01 5841.98 69.13 1.00 353.88 2925.13
   19:07:02.572.30-Jan-2020 3884.01 5842.78 69.13 1.00 354.08 2925.13
   19:07:02.772.30-Jan-2020 3884.01 5842.78 69.13 1.00 354.28 2925.13
   19:07:02.972.30-Jan-2020 3884.01 5842.89 69.14 1.00 354.48 2925.13
   19:07:03.172.30-Jan-2020 3884.01 5842.86 69.14 1.00 354.68 2925.13
   19:07:03.372.30-Jan-2020 3884.01 5842.59 69.14 1.00 354.88 2925.13
   19:07:03.572.30-Jan-2020 3884.01 5832.57 69.14 1.00 355.08 2925.13
   19:07:03.772.30-Jan-2020 3884.01 5832.57 69.14 1.00 355.28 2925.13
   19:07:03.972.30-Jan-2020 3884.01 5841.98 69.14 1.00 355.48 2925.13
   19:07:04.172.30-Jan-2020 3884.01 5843.37 69.14 1.00 355.68 2925.13
   19:07:04.372.30-Jan-2020 3884.01 5842.98 69.14 1.00 355.88 2925.13
   19:07:04.572.30-Jan-2020 3884.01 5844.33 69.14 1.00 356.08 2925.13
   19:07:04.773.30-Jan-2020 3884.01 5844.33 69.14 1.00 356.28 2925.13
   19:07:04.973.30-Jan-2020 3884.01 5843.34 69.14 1.00 356.48 2925.13
   19:07:05.173.30-Jan-2020 3884.01 5843.50 69.14 1.00 356.68 2925.13
   19:07:05.373.30-Jan-2020 3884.01 5843.17 69.14 1.00 356.88 2925.13
   19:07:05.573.30-Jan-2020 3884.01 5843.40 69.14 1.00 357.08 2925.13
   19:07:05.773.30-Jan-2020 3884.01 5843.40 69.14 1.00 357.28 2925.13
   19:07:05.973.30-Jan-2020 3884.01 5843.26 69.14 1.00 357.48 2925.13
   19:07:06.173.30-Jan-2020 3884.01 5843.20 69.14 1.00 357.68 2925.13
   19:07:06.373.30-Jan-2020 3884.01 5844.48 69.14 1.00 357.88 2925.13
   19:07:06.573.30-Jan-2020 3884.01 5845.59 69.14 1.00 358.08 2925.13
   19:07:06.773.30-Jan-2020 3884.01 5845.59 69.14 1.00 358.28 2925.13
   19:07:06.973.30-Jan-2020 3884.01 5839.81 69.15 1.00 358.48 2925.13
   19:07:07.173.30-Jan-2020 3884.01 5843.54 69.15 1.00 358.68 2925.13
   19:07:07.373.30-Jan-2020 3884.01 5843.88 69.15 1.00 358.88 2925.13
   19:07:07.573.30-Jan-2020 3884.01 5843.35 69.15 1.00 359.08 2925.13
   19:07:07.773.30-Jan-2020 3884.01 5843.35 69.15 1.00 359.28 2925.13
   19:07:07.973.30-Jan-2020 3884.01 5839.78 69.15 1.00 359.48 2925.13
   19:07:08.173.30-Jan-2020 3884.01 5843.70 69.15 1.00 359.68 2925.13
   19:07:08.373.30-Jan-2020 3884.01 5844.25 69.15 1.00 359.88 2925.13
   19:07:08.573.30-Jan-2020 3884.01 5844.15 69.15 1.00 360.08 2925.13
   19:07:08.773.30-Jan-2020 3884.01 5844.15 69.15 1.00 360.28 2925.13
   19:07:08.974.30-Jan-2020 3884.01 5843.75 69.15 1.00 360.48 2925.13
   19:07:09.174.30-Jan-2020 3884.01 5841.56 69.15 1.00 360.68 2925.13
   19:07:09.374.30-Jan-2020 3884.01 5832.72 69.15 1.00 360.88 2925.13
   19:07:09.574.30-Jan-2020 3884.01 5842.86 69.15 1.00 361.08 2925.13
   19:07:09.774.30-Jan-2020 3884.01 5842.86 69.15 1.00 361.28 2925.13
   19:07:09.974.30-Jan-2020 3884.01 5844.03 69.15 1.00 361.48 2925.13
   19:07:10.174.30-Jan-2020 3884.01 5837.02 69.15 1.00 361.68 2925.13
   19:07:10.374.30-Jan-2020 3884.01 5837.43 69.15 1.00 361.88 2925.13
   19:07:10.574.30-Jan-2020 3884.01 5843.29 69.15 1.00 362.08 2925.13
   19:07:10.774.30-Jan-2020 3884.01 5843.29 69.15 1.00 362.28 2925.13
   19:07:10.974.30-Jan-2020 3884.01 5843.38 69.15 1.00 362.48 2925.13
   19:07:11.174.30-Jan-2020 3884.01 5842.66 69.15 1.00 362.68 2925.13
   19:07:11.374.30-Jan-2020 3884.01 5831.40 69.15 1.00 362.88 2925.13
   19:07:11.574.30-Jan-2020 3884.01 5843.37 69.15 1.00 363.08 2925.13
   19:07:11.774.30-Jan-2020 3884.01 5843.37 69.15 1.00 363.28 2925.13
   19:07:11.974.30-Jan-2020 3884.01 5843.83 69.15 1.00 363.48 2925.13
   19:07:12.174.30-Jan-2020 3884.01 5846.36 69.15 1.00 363.68 2925.13
   19:07:12.374.30-Jan-2020 3884.01 5844.82 69.15 1.00 363.88 2925.13
   19:07:12.574.30-Jan-2020 3884.01 5843.42 69.15 1.00 364.08 2925.13
   19:07:12.774.30-Jan-2020 3884.01 5843.42 69.15 1.00 364.28 2925.13
   19:07:12.974.30-Jan-2020 3884.01 5842.57 69.15 1.00 364.48 2925.13
   19:07:13.175.30-Jan-2020 3884.01 5845.14 69.15 1.00 364.69 2925.13
   19:07:13.375.30-Jan-2020 3884.01 5843.86 69.15 1.00 364.89 2925.13
   19:07:13.575.30-Jan-2020 3884.01 5842.83 69.15 1.00 365.09 2925.13
   19:07:13.775.30-Jan-2020 3884.01 5842.83 69.15 1.00 365.29 2925.13
   19:07:13.975.30-Jan-2020 3884.01 5841.80 69.15 1.00 365.49 2925.13
   19:07:14.175.30-Jan-2020 3884.01 5843.81 69.15 1.00 365.69 2925.13
   19:07:14.375.30-Jan-2020 3884.01 5844.10 69.15 1.00 365.89 2925.13
   19:07:14.575.30-Jan-2020 3884.01 5843.06 69.15 1.00 366.09 2925.13
   19:07:14.775.30-Jan-2020 3884.01 5843.06 69.15 1.00 366.29 2925.13
   19:07:14.975.30-Jan-2020 3884.01 5832.94 69.15 1.00 366.49 2925.13
   19:07:15.175.30-Jan-2020 3884.01 5842.35 69.15 1.00 366.69 2925.13
   19:07:15.375.30-Jan-2020 3884.01 5842.41 69.15 1.00 366.89 2925.13
   19:07:15.575.30-Jan-2020 3884.01 5842.76 69.15 1.00 367.09 2925.13
   19:07:15.775.30-Jan-2020 3884.01 5842.76 69.15 1.00 367.29 2925.13
   19:07:15.975.30-Jan-2020 3884.01 5844.30 69.15 1.00 367.49 2925.13
   19:07:16.175.30-Jan-2020 3884.01 5843.92 69.15 1.00 367.69 2925.13
   19:07:16.375.30-Jan-2020 3884.01 5843.77 69.15 1.00 367.89 2925.13
