~Version Information
 VERS.                  2.0:   CWLS log ASCII Standard -VERSION 2.0
 WRAP.                   NO:   One line per depth step
~Well Information Block
#MNEM.UNIT     VALUE/NAME     DESCRIPTION
#---------     -----------    ---------------------------
 STRT.S             01:28:25 01-Feb-20: START TIME 01:28:25 01-Feb-20
 STOP.S             01:36:19 01-Feb-20: STOP TIME  01:36:19 01-Feb-20
 STEP.S                   0.00: STEP TIME
 NULL.                 -999.25: NULL VALUE
 DFWT.                        :  DIST FWL TEXT
 DFST.                        :  DIST FSL TEXT
 DMF .             Drill Floor:  DRILL MEAS FROM
 STIM.      09.30.00 26-Dec-19:  START TIME
 DATE.      08.00.00 20-Jan-20:  END TIME
 SPUD.               23-Nov-19:  SPUD DATE
 NREF.                    Grid:  NORTH REFERENCE
 HPTY.       Minimum Curvature:  HOLE POS TYPE
 DMOD.             Drill Model:  DRILL MOD DESC
 SVYD.                  Survey:  SURVEY DESC
 ILTD.               Lithology:  INTERP LTH DESC
 FTOP.          Formation Tops:  FORM TOPS DESC
 SON .        AZ-XX-0906192647:  JOB NUMBER
 WTYP.                Deviated:  WELL TYPE
 COMP.     BP Exploration (Caspian Sea) Ltd:  COMPANY
 BASE.              Azerbaijan:  LOGGING EQUIPMENT BASE LOCATION
 REGN.                 Eurasia:  REGION
 FLD .                     ACG:  FIELD NAME
 SRVC.              KCA Deutag:  CONTRACTOR
 MWDS.                    Baku:  MWD SHOP
 WELL.     A10 (Slot 20) - SCP:  WELL NAME
 JOBN.        AZ-XX-0906192647:  JOB TICKET NUMB
 RIG .                 Chirag1:  RIG NAME
 DCON.     Halliburton Sperry Drilling:  DIRECTNL CONTR
 UNIT.                     N/A:  LOGGING EQUIPMENT ID
 PDAT.          Mean Sea Level:  PERMANENT DATUM
 MDS .        Operator Entered:  MAG DATA SOURCE
 CTRY.              Azerbaijan:  COUNTRY NAME
 UWI .            /AZE00000090:  UNIQUE WELL IDENTIFIER
 API .            /AZE00000090:  API NUMBER
 CNTY.                        :  COUNTY
 PROV.                        :  PROVINCE
 STAT.                        :  STATE
 LOC .                        :  LOCATION
 LMF .             Drill Floor:  LOG MEASURED FROM
 TVDS.m                  36.60:  TVDSS CORRECTN
 LATI.deg                40.08:  LATITUDE
 LONG.deg                51.24:  LONGITUDE
 WHNS.m                  -7.94:  WELL HEAD N/S
 WHEW.m                   1.56:  WELL HEAD E/W
 UTMX.m              520429.26:  UTM X
 UTMY.m             4438973.87:  UTM Y
 DFWL.m                   0.00:  DISTANCE FWL
 DFSL.m                   0.00:  DISTANCE FSL
 SDEP.m                1455.00:  START DEPTH
 TDD .m                4047.51:  TOTAL DEPTH (DRILLER)
 VSDR.deg               112.75:  VERT SEC DIRECT
 GVFD.g                   1.00:  GRAVITY FIELD
 MFLD.nT              50261.00:  MAGNETIC FIELD
 MDIP.deg                59.52:  MAGNETIC DIP
 MDEC.deg                 6.42:  MAGNETIC DECL
 GRDC.deg                 0.17:  GRID CORRECTION
 AZTC.deg                 6.25:  AZM TOTAL CORR
 EPD .m                   0.00:  ELEVATION
 EGL .m                   0.00:  GROUND ELEVATION
 WDMS.m                 121.00:  WD ELEV
 APD .m                  36.60:  DEPTH ABOVE PD
 AGAP.m                  36.60:  AIR GAP
 VSEW.m                   1.56:  VERT SEC E/W
 VSNS.m                  -7.94:  VERT SEC N/S
 DEP .m                1140.01:  DEPTH
 EKB .m                  36.60:  KB ELEVATION
 EDF .m                  36.60:  DF ELEVATION
 TDL .m                 169.50:  TOTAL DEPTH (LOGGER)
 CSGD.m                3875.01:  CASING BOTTOM (DRILLER)
 CSGL.m                3875.01:  CASING BOTTOM (LOGGER)
 CSGS.in                  7.63:  CASING SIZE
 CSGW.lbpf               23.50:  CASING WEIGHT
 VSC .                       0:  VS TO CLOSURE
 MAGU.                 1849206:  MAGUTM CHECKSUM
~Parameter Information Block
#MNEM.UNIT       Value        Description
#---------     -----------    ---------------------------
 AV  .mps                 1.90:  Ann Velocity 
 AVMX.mps                 2.54:  Max Ann Veloc 
 AZIF.deg               137.03:  Azm, Final 
 BHAT.        Rotary Steerable:  BHA Type 
 BREV.rev             23610.00:  Rev Bit Total 
 BROT.°/30m               0.80:  Build Rotating 
 BS  .in                  6.50:  Bit Size 
 BTPL.psig              110.00:  Bit Press Loss 
 CABU.                     Yes:  Customer Abuse 
 COMM.                     ì…†:  Run Comments 1 
 TCS .hr                 70.51:  Time Ciculation Ended 
 CV  .mps                 1.41:  Crit Velocity 
 CVMX.mps                 1.42:  Max Crit Veloc 
 DD1 .         Intigam Rahimov:  Direct Drillr 1 
 DD2 .          Rashad Gojayev:  Direct Drillr 2 
 DDSV.               Geo-Pilot:  DD Service 
 DEFF.%                 100.00:  % Det Eff 
 DLRX.°/30m               1.44:  Dogleg Rot Max 
 DLSO.°/30m               0.00:  Dogleg Oriented 
 DLSX.°/30m               0.00:  Dogleg Str Max 
 DRET.      03.05.00 01-Feb-20:  Drill End Time 
 DRST.      15.50.00 28-Jan-20:  Drill Start Tim 
 DTIM.hr                 24.70:  Time Drilling 
 EDEP.m                4047.51:  End Depth 
 ENG1.           Eldar Hajiyev:  Engineer 1 
 ENG2.          Rasim Hashimov:  Engineer 2 
 ENG3.          Rustam Safarov:  Engineer 3 
 ETIM.      22.00.00 01-Feb-20:  End Time 
 FLOI.gpm               370.00:  Flow In 
 FLON.gpm               300.00:  Flow In Min 
 FLOS.cptm                0.00:  Fluid Loss 
 FLOX.gpm               400.00:  Flow In Max 
 FTRO.       Formation Presure:  FTWD Run Obj 
 HFLO.                      No:  High Flow 
 HPRE.                      No:  High Pressure 
 HTEM.                      No:  High Temp 
 HYDO.m                   2.50:  Hydro Offset 
 IFIN.deg                39.54:  Inc, Final 
 IMAX.deg                41.14:  Inc Max 
 IMIN.deg                39.81:  Inc Min 
 IMND.m                4005.21:  Inc Min Depth 
 IMXD.m                3948.42:  Inc Max Depth 
 JARR.                      No:  Jarring 
 LETM.      03.05.00 01-Feb-20:  Log End Time 
 LOST.hr                     0:  Lost Rig Time 
 LSTM.      15.50.00 28-Jan-20:  Log Start Time 
 MDCL.ppm             37500.00:  Mud Chlorides 
 MDES.     Inversion Oil/Synthetic:  Mud Desc 
 DFD .sg                  1.32:  Mud Density 
 MDMN.sg                  1.32:  Dens Mud Min 
 MDMX.sg                  1.32:  Dens Mud Max 
 MOIL.                      55:  Run Mud Oil % 
 MOWR.                   70:30:  Run Mud OWR 
 MSND.                       0:  Run Mud Sand % 
 MSOL.                      17:  Run Mud Solids% 
 DFV .spqt               80.00:  Mud Viscosity 
 MWOD.in                  4.75:  MWD Tool OD 
 MWSI.                      No:  Serv Intrp, MWD 
 OTIM.hr                121.28:  Time Operating 
 PCON.           Look Like New:  Pad Condition 
 PMAX.psia             6171.00:  Press Op, Max 
 PV  .cP                 30.00:  Mud PV 
 RUN .                     300:  Run Number 
 ROPA.m/hr                5.45:  ROP Avg 
 ROPN.m/hr                3.00:  ROP Min 
 ROPX.m/hr               15.00:  ROP Max 
 RPMA.rpm               130.00:  RPM Surface Avg 
 RPMN.rpm                80.00:  RPM Surface Min 
 RPMX.rpm               140.00:  RPM Surface Max 
 RRUN.                     300:  Rig Run Number 
 RTIM.hr                 13.50:  Time Reaming 
 SAZI.deg               133.93:  Azm, Start 
 SDEP.m                3878.01:  Start Depth 
 SIDD.                      No:  Serv Intrp, DD 
 SINC.deg                40.28:  Inc, Start 
 SPPA.psig             4983.00:  SPP Avg 
 SPPN.psig             4370.00:  SPP Min 
 SPPX.psig             5300.00:  SPP Max 
 STIM.      18.33.36 27-Jan-20:  Start Time 
 SVCS.                 DD, MWD:  Services 
 SVER.                    9.20:  Sperry Version 
 TDAT.m                 169.50:  Tot Depth Attmp 
 TDDF.                      No:  Trip for DD 
 TDLG.m                 169.50:  Tot Depth Loggd 
 TFF .                      No:  Trip for Fail 
 TQAA.f-kp               13.25:  Torque Abs Avg 
 TQAN.f-kp               12.00:  Torque Abs Min 
 TQAX.f-kp               14.00:  Torque Abs Max 
 TRRT.°/30m               0.70:  Turn Rotating 
 MRT .                     ADR:  Maximum Recorded Temperature 
 TTMX.degC               92.16:  Max Tool Temp 
 VS01.       AZ90598764G12V7D4:  Virtual Str1 SN 
 VS02.         AZ90571342R12C4:  Virtual Str2 SN 
 VS03.      AZ90580010N2L2X1C4:  Virtual Str3 SN 
 VS04.        AZ90522266O7X1C4:  Virtual Str4 SN 
 VS05.           AZ90598768F11:  Virtual Str5 SN 
 VS06.     AZ90580006XZ1W1X1C4:  Virtual Str6 SN 
 WBMN.klb                 8.00:  WOB Min 
 WITN.            Peter Wilson:  Customer Rep 
 WOBA.klb                 9.88:  WOB Avg 
 WOBX.klb                10.00:  WOB Max 
 YP  .lhf2               27.00:  Yield Point 
~Curve Information Block
#MNEM.UNIT                 API CODE     Curve Description
#---------               -----------    ---------------------------
 TIME.HHMMSS            00 000 000 000:  GT Time & Date
 GTDEPTH.m              00 000 000 000:  GT Depth
 GTPQH.psia             00 000 000 000:  GT HR Quartz Pressure
 GTTQ.degC              00 000 000 000:  GT Quartz Temperature
 GTTN.NONE              00 000 000 000:  GT Test Number
 GTET.sec               00 000 000 000:  GT Elapsed Test Time
 GTTVD.m                00 000 000 000:  GT True Vertical Depth
#Other Information
#
#WARRANTY: Halliburton will use its best efforts to furnish customers with 
#accurate information and interpretations that are part of, and incident to, the services 
#provided.  However, Halliburton cannot and does not warrant the accuracy 
#or correctness of such information and interpretations.  Under no circumstances should any 
#such information or interpretation be relied upon as the sole basis for any drilling, 
#completion, production, or financial decision or any procedure involving any risk to the 
#safety of any drilling venture, drilling rig or its crew or any other third party.  The 
#Customer has full responsibility for all drilling, completion and production operation.  
#Halliburton makes no representations or warranties, either expressed or 
#implied, including, but not limited to, the implied warranties of merchantability or fitness 
#for a particular purpose, with respect to the services rendered.  In no event will 
#Halliburton be liable for failure to obtain any particular results or for 
#any damages, including, but not limited to, indirect, special or consequential damages, 
#resulting from the use of any information or interpretation provided by Halliburton.
#
~A           TIME           GTDEPTH  GTPQH  GTTQ  GTTN   GTET   GTTVD  
# ...
   01:31:03.779.01-Feb-2020 3990.12 3216.56 84.77 11.00 158.76 3005.35
   01:31:03.980.01-Feb-2020 3990.12 3216.41 84.77 11.00 158.96 3005.35
   01:31:04.181.01-Feb-2020 3990.12 3216.42 84.77 11.00 159.16 3005.35
   01:31:04.381.01-Feb-2020 3990.12 3216.47 84.77 11.00 159.36 3005.35
   01:31:04.582.01-Feb-2020 3990.12 3216.45 84.77 11.00 159.56 3005.35
   01:31:04.783.01-Feb-2020 3990.12 3216.45 84.77 11.00 159.76 3005.35
   01:31:04.983.01-Feb-2020 3990.12 3216.50 84.77 11.00 159.96 3005.35
   01:31:05.184.01-Feb-2020 3990.12 3216.46 84.77 11.00 160.16 3005.35
   01:31:05.385.01-Feb-2020 3990.12 3216.41 84.77 11.00 160.36 3005.35
   01:31:05.585.01-Feb-2020 3990.12 3216.48 84.77 11.00 160.56 3005.35
   01:31:05.786.01-Feb-2020 3990.12 3216.48 84.77 11.00 160.76 3005.35
   01:31:05.987.01-Feb-2020 3990.12 3216.46 84.77 11.00 160.96 3005.35
   01:31:06.188.01-Feb-2020 3990.12 3216.67 84.77 11.00 161.16 3005.35
   01:31:06.388.01-Feb-2020 3990.12 3216.02 84.77 11.00 161.36 3005.35
   01:31:06.589.01-Feb-2020 3990.12 3216.31 84.77 11.00 161.56 3005.35
   01:31:06.790.01-Feb-2020 3990.12 3216.31 84.77 11.00 161.77 3005.35
   01:31:06.990.01-Feb-2020 3990.12 3216.46 84.77 11.00 161.97 3005.35
   01:31:07.191.01-Feb-2020 3990.12 3216.44 84.76 11.00 162.17 3005.35
   01:31:07.392.01-Feb-2020 3990.12 3216.50 84.76 11.00 162.37 3005.35
   01:31:07.592.01-Feb-2020 3990.12 3216.50 84.76 11.00 162.57 3005.35
   01:31:07.793.01-Feb-2020 3990.12 3216.50 84.76 11.00 162.77 3005.35
   01:31:07.994.01-Feb-2020 3990.12 3216.52 84.76 11.00 162.97 3005.35
   01:31:08.195.01-Feb-2020 3990.12 3216.51 84.76 11.00 163.17 3005.35
   01:31:08.395.01-Feb-2020 3990.12 3216.57 84.76 11.00 163.37 3005.35
   01:31:08.596.01-Feb-2020 3990.12 3216.55 84.76 11.00 163.57 3005.35
   01:31:08.797.01-Feb-2020 3990.12 3216.55 84.76 11.00 163.77 3005.35
   01:31:08.997.01-Feb-2020 3990.12 3216.44 84.76 11.00 163.97 3005.35
   01:31:09.198.01-Feb-2020 3990.12 3216.44 84.76 11.00 164.17 3005.35
   01:31:09.399.01-Feb-2020 3990.12 3216.54 84.76 11.00 164.37 3005.35
   01:31:09.600.01-Feb-2020 3990.12 3183.52 84.76 11.00 164.58 3005.35
   01:31:09.800.01-Feb-2020 3990.12 3183.52 84.76 11.00 164.78 3005.35
   01:31:10.001.01-Feb-2020 3990.12 2839.87 84.76 11.00 164.98 3005.35
   01:31:10.202.01-Feb-2020 3990.12 2776.20 84.76 11.00 165.18 3005.35
   01:31:10.402.01-Feb-2020 3990.12 2741.19 84.76 11.00 165.38 3005.35
   01:31:10.603.01-Feb-2020 3990.12 2718.73 84.76 11.00 165.58 3005.35
   01:31:10.804.01-Feb-2020 3990.12 2718.73 84.76 11.00 165.78 3005.35
   01:31:11.004.01-Feb-2020 3990.12 2697.04 84.76 11.00 165.98 3005.35
   01:31:11.205.01-Feb-2020 3990.12 2689.03 84.76 11.00 166.18 3005.35
   01:31:11.406.01-Feb-2020 3990.12 2683.04 84.76 11.00 166.38 3005.35
   01:31:11.607.01-Feb-2020 3990.12 2680.29 84.75 11.00 166.58 3005.35
   01:31:11.807.01-Feb-2020 3990.12 2680.29 84.75 11.00 166.78 3005.35
   01:31:12.008.01-Feb-2020 3990.12 2673.98 84.75 11.00 166.98 3005.35
   01:31:12.209.01-Feb-2020 3990.12 2669.39 84.75 11.00 167.18 3005.35
   01:31:12.409.01-Feb-2020 3990.12 2668.64 84.75 11.00 167.39 3005.35
   01:31:12.610.01-Feb-2020 3990.12 2664.56 84.75 11.00 167.59 3005.35
   01:31:12.811.01-Feb-2020 3990.12 2664.56 84.75 11.00 167.79 3005.35
   01:31:13.011.01-Feb-2020 3990.12 2662.66 84.75 11.00 167.99 3005.35
   01:31:13.212.01-Feb-2020 3990.12 2660.97 84.75 11.00 168.19 3005.35
   01:31:13.413.01-Feb-2020 3990.12 2661.60 84.75 11.00 168.39 3005.35
   01:31:13.614.01-Feb-2020 3990.12 2658.04 84.75 11.00 168.59 3005.35
   01:31:13.814.01-Feb-2020 3990.12 2658.04 84.75 11.00 168.79 3005.35
   01:31:14.015.01-Feb-2020 3990.12 2657.94 84.75 11.00 168.99 3005.35
   01:31:14.216.01-Feb-2020 3990.12 2654.41 84.75 11.00 169.19 3005.35
   01:31:14.416.01-Feb-2020 3990.12 2653.89 84.75 11.00 169.39 3005.35
   01:31:14.617.01-Feb-2020 3990.12 2652.94 84.75 11.00 169.59 3005.35
   01:31:14.818.01-Feb-2020 3990.12 2652.94 84.75 11.00 169.79 3005.35
   01:31:15.018.01-Feb-2020 3990.12 2653.17 84.75 11.00 169.99 3005.35
   01:31:15.219.01-Feb-2020 3990.12 2652.52 84.74 11.00 170.20 3005.35
   01:31:15.420.01-Feb-2020 3990.12 2655.17 84.74 11.00 170.40 3005.35
   01:31:15.621.01-Feb-2020 3990.12 2655.97 84.74 11.00 170.60 3005.35
   01:31:15.821.01-Feb-2020 3990.12 2655.97 84.74 11.00 170.80 3005.35
   01:31:16.022.01-Feb-2020 3990.12 2650.99 84.74 11.00 171.00 3005.35
   01:31:16.223.01-Feb-2020 3990.12 2651.08 84.74 11.00 171.20 3005.35
   01:31:16.423.01-Feb-2020 3990.12 2648.54 84.74 11.00 171.40 3005.35
   01:31:16.624.01-Feb-2020 3990.12 2647.25 84.74 11.00 171.60 3005.35
   01:31:16.825.01-Feb-2020 3990.12 2647.25 84.74 11.00 171.80 3005.35
   01:31:17.025.01-Feb-2020 3990.12 2643.26 84.74 11.00 172.00 3005.35
   01:31:17.226.01-Feb-2020 3990.12 2644.35 84.74 11.00 172.20 3005.35
   01:31:17.427.01-Feb-2020 3990.12 2647.24 84.74 11.00 172.40 3005.35
   01:31:17.628.01-Feb-2020 3990.12 2646.32 84.74 11.00 172.60 3005.35
   01:31:17.828.01-Feb-2020 3990.12 2646.32 84.74 11.00 172.80 3005.35
   01:31:18.029.01-Feb-2020 3990.12 2643.81 84.74 11.00 173.00 3005.35
   01:31:18.230.01-Feb-2020 3990.12 2644.23 84.74 11.00 173.21 3005.35
   01:31:18.430.01-Feb-2020 3990.12 2644.52 84.74 11.00 173.41 3005.35
   01:31:18.631.01-Feb-2020 3990.12 2644.15 84.74 11.00 173.61 3005.35
   01:31:18.832.01-Feb-2020 3990.12 2644.15 84.74 11.00 173.81 3005.35
   01:31:19.032.01-Feb-2020 3990.12 2643.13 84.73 11.00 174.01 3005.35
   01:31:19.233.01-Feb-2020 3990.12 2641.21 84.73 11.00 174.21 3005.35
   01:31:19.434.01-Feb-2020 3990.12 2641.22 84.73 11.00 174.41 3005.35
   01:31:19.635.01-Feb-2020 3990.12 2643.11 84.73 11.00 174.61 3005.35
   01:31:19.835.01-Feb-2020 3990.12 2643.11 84.73 11.00 174.81 3005.35
   01:31:20.036.01-Feb-2020 3990.12 2896.63 84.73 11.00 175.01 3005.35
   01:31:20.237.01-Feb-2020 3990.12 3016.40 84.73 11.00 175.21 3005.35
   01:31:20.437.01-Feb-2020 3990.12 3081.45 84.73 11.00 175.41 3005.35
   01:31:20.638.01-Feb-2020 3990.12 3119.06 84.73 11.00 175.61 3005.35
   01:31:20.839.01-Feb-2020 3990.12 3119.06 84.73 11.00 175.81 3005.35
   01:31:21.040.01-Feb-2020 3990.12 3157.10 84.73 11.00 176.02 3005.35
   01:31:21.240.01-Feb-2020 3990.12 3166.83 84.73 11.00 176.22 3005.35
   01:31:21.441.01-Feb-2020 3990.12 3174.13 84.73 11.00 176.42 3005.35
   01:31:21.642.01-Feb-2020 3990.12 3179.59 84.73 11.00 176.62 3005.35
   01:31:21.842.01-Feb-2020 3990.12 3179.59 84.73 11.00 176.82 3005.35
   01:31:22.043.01-Feb-2020 3990.12 3187.07 84.73 11.00 177.02 3005.35
   01:31:22.244.01-Feb-2020 3990.12 3189.49 84.73 11.00 177.22 3005.35
   01:31:22.444.01-Feb-2020 3990.12 3191.63 84.73 11.00 177.42 3005.35
   01:31:22.645.01-Feb-2020 3990.12 3193.33 84.72 11.00 177.62 3005.35
   01:31:22.846.01-Feb-2020 3990.12 3193.33 84.72 11.00 177.82 3005.35
   01:31:23.047.01-Feb-2020 3990.12 3196.45 84.72 11.00 178.02 3005.35
   01:31:23.247.01-Feb-2020 3990.12 3197.64 84.72 11.00 178.22 3005.35
   01:31:23.448.01-Feb-2020 3990.12 3198.35 84.72 11.00 178.42 3005.35
   01:31:23.649.01-Feb-2020 3990.12 3199.27 84.72 11.00 178.62 3005.35
   01:31:23.849.01-Feb-2020 3990.12 3199.27 84.72 11.00 178.83 3005.35
   01:31:24.050.01-Feb-2020 3990.12 3200.85 84.72 11.00 179.03 3005.35
   01:31:24.251.01-Feb-2020 3990.12 3201.48 84.72 11.00 179.23 3005.35
   01:31:24.451.01-Feb-2020 3990.12 3202.22 84.72 11.00 179.43 3005.35
   01:31:24.652.01-Feb-2020 3990.12 3202.87 84.72 11.00 179.63 3005.35
   01:31:24.853.01-Feb-2020 3990.12 3202.87 84.72 11.00 179.83 3005.35
   01:31:25.054.01-Feb-2020 3990.12 3203.36 84.72 11.00 180.03 3005.35
   01:31:25.254.01-Feb-2020 3990.12 3203.91 84.72 11.00 180.23 3005.35
   01:31:25.455.01-Feb-2020 3990.12 3204.21 84.72 11.00 180.43 3005.35
   01:31:25.656.01-Feb-2020 3990.12 3204.75 84.72 11.00 180.63 3005.35
   01:31:25.856.01-Feb-2020 3990.12 3204.75 84.72 11.00 180.83 3005.35
   01:31:26.057.01-Feb-2020 3990.12 3205.39 84.72 11.00 181.03 3005.35
   01:31:26.258.01-Feb-2020 3990.12 3205.25 84.72 11.00 181.23 3005.35
