~Version Information
 VERS.                  2.0:   CWLS log ASCII Standard -VERSION 2.0
 WRAP.                   NO:   One line per depth step
~Well Information Block
#MNEM.UNIT     VALUE/NAME     DESCRIPTION
#---------     -----------    ---------------------------
 STRT.S             01:28:25 01-Feb-20: START TIME 01:28:25 01-Feb-20
 STOP.S             01:36:19 01-Feb-20: STOP TIME  01:36:19 01-Feb-20
 STEP.S                   0.00: STEP TIME
 NULL.                 -999.25: NULL VALUE
 DFWT.                        :  DIST FWL TEXT
 DFST.                        :  DIST FSL TEXT
 DMF .             Drill Floor:  DRILL MEAS FROM
 STIM.      09.30.00 26-Dec-19:  START TIME
 DATE.      08.00.00 20-Jan-20:  END TIME
 SPUD.               23-Nov-19:  SPUD DATE
 NREF.                    Grid:  NORTH REFERENCE
 HPTY.       Minimum Curvature:  HOLE POS TYPE
 DMOD.             Drill Model:  DRILL MOD DESC
 SVYD.                  Survey:  SURVEY DESC
 ILTD.               Lithology:  INTERP LTH DESC
 FTOP.          Formation Tops:  FORM TOPS DESC
 SON .        AZ-XX-0906192647:  JOB NUMBER
 WTYP.                Deviated:  WELL TYPE
 COMP.     BP Exploration (Caspian Sea) Ltd:  COMPANY
 BASE.              Azerbaijan:  LOGGING EQUIPMENT BASE LOCATION
 REGN.                 Eurasia:  REGION
 FLD .                     ACG:  FIELD NAME
 SRVC.              KCA Deutag:  CONTRACTOR
 MWDS.                    Baku:  MWD SHOP
 WELL.     A10 (Slot 20) - SCP:  WELL NAME
 JOBN.        AZ-XX-0906192647:  JOB TICKET NUMB
 RIG .                 Chirag1:  RIG NAME
 DCON.     Halliburton Sperry Drilling:  DIRECTNL CONTR
 UNIT.                     N/A:  LOGGING EQUIPMENT ID
 PDAT.          Mean Sea Level:  PERMANENT DATUM
 MDS .        Operator Entered:  MAG DATA SOURCE
 CTRY.              Azerbaijan:  COUNTRY NAME
 UWI .            /AZE00000090:  UNIQUE WELL IDENTIFIER
 API .            /AZE00000090:  API NUMBER
 CNTY.                        :  COUNTY
 PROV.                        :  PROVINCE
 STAT.                        :  STATE
 LOC .                        :  LOCATION
 LMF .             Drill Floor:  LOG MEASURED FROM
 TVDS.m                  36.60:  TVDSS CORRECTN
 LATI.deg                40.08:  LATITUDE
 LONG.deg                51.24:  LONGITUDE
 WHNS.m                  -7.94:  WELL HEAD N/S
 WHEW.m                   1.56:  WELL HEAD E/W
 UTMX.m              520429.26:  UTM X
 UTMY.m             4438973.87:  UTM Y
 DFWL.m                   0.00:  DISTANCE FWL
 DFSL.m                   0.00:  DISTANCE FSL
 SDEP.m                1455.00:  START DEPTH
 TDD .m                4047.51:  TOTAL DEPTH (DRILLER)
 VSDR.deg               112.75:  VERT SEC DIRECT
 GVFD.g                   1.00:  GRAVITY FIELD
 MFLD.nT              50261.00:  MAGNETIC FIELD
 MDIP.deg                59.52:  MAGNETIC DIP
 MDEC.deg                 6.42:  MAGNETIC DECL
 GRDC.deg                 0.17:  GRID CORRECTION
 AZTC.deg                 6.25:  AZM TOTAL CORR
 EPD .m                   0.00:  ELEVATION
 EGL .m                   0.00:  GROUND ELEVATION
 WDMS.m                 121.00:  WD ELEV
 APD .m                  36.60:  DEPTH ABOVE PD
 AGAP.m                  36.60:  AIR GAP
 VSEW.m                   1.56:  VERT SEC E/W
 VSNS.m                  -7.94:  VERT SEC N/S
 DEP .m                1140.01:  DEPTH
 EKB .m                  36.60:  KB ELEVATION
 EDF .m                  36.60:  DF ELEVATION
 TDL .m                 169.50:  TOTAL DEPTH (LOGGER)
 CSGD.m                3875.01:  CASING BOTTOM (DRILLER)
 CSGL.m                3875.01:  CASING BOTTOM (LOGGER)
 CSGS.in                  7.63:  CASING SIZE
 CSGW.lbpf               23.50:  CASING WEIGHT
 VSC .                       0:  VS TO CLOSURE
 MAGU.                 1849206:  MAGUTM CHECKSUM
~Parameter Information Block
#MNEM.UNIT       Value        Description
#---------     -----------    ---------------------------
 AV  .mps                 1.90:  Ann Velocity 
 AVMX.mps                 2.54:  Max Ann Veloc 
 AZIF.deg               137.03:  Azm, Final 
 BHAT.        Rotary Steerable:  BHA Type 
 BREV.rev             23610.00:  Rev Bit Total 
 BROT.°/30m               0.80:  Build Rotating 
 BS  .in                  6.50:  Bit Size 
 BTPL.psig              110.00:  Bit Press Loss 
 CABU.                     Yes:  Customer Abuse 
 COMM.                     ì…†:  Run Comments 1 
 TCS .hr                 70.51:  Time Ciculation Ended 
 CV  .mps                 1.41:  Crit Velocity 
 CVMX.mps                 1.42:  Max Crit Veloc 
 DD1 .         Intigam Rahimov:  Direct Drillr 1 
 DD2 .          Rashad Gojayev:  Direct Drillr 2 
 DDSV.               Geo-Pilot:  DD Service 
 DEFF.%                 100.00:  % Det Eff 
 DLRX.°/30m               1.44:  Dogleg Rot Max 
 DLSO.°/30m               0.00:  Dogleg Oriented 
 DLSX.°/30m               0.00:  Dogleg Str Max 
 DRET.      03.05.00 01-Feb-20:  Drill End Time 
 DRST.      15.50.00 28-Jan-20:  Drill Start Tim 
 DTIM.hr                 24.70:  Time Drilling 
 EDEP.m                4047.51:  End Depth 
 ENG1.           Eldar Hajiyev:  Engineer 1 
 ENG2.          Rasim Hashimov:  Engineer 2 
 ENG3.          Rustam Safarov:  Engineer 3 
 ETIM.      22.00.00 01-Feb-20:  End Time 
 FLOI.gpm               370.00:  Flow In 
 FLON.gpm               300.00:  Flow In Min 
 FLOS.cptm                0.00:  Fluid Loss 
 FLOX.gpm               400.00:  Flow In Max 
 FTRO.       Formation Presure:  FTWD Run Obj 
 HFLO.                      No:  High Flow 
 HPRE.                      No:  High Pressure 
 HTEM.                      No:  High Temp 
 HYDO.m                   2.50:  Hydro Offset 
 IFIN.deg                39.54:  Inc, Final 
 IMAX.deg                41.14:  Inc Max 
 IMIN.deg                39.81:  Inc Min 
 IMND.m                4005.21:  Inc Min Depth 
 IMXD.m                3948.42:  Inc Max Depth 
 JARR.                      No:  Jarring 
 LETM.      03.05.00 01-Feb-20:  Log End Time 
 LOST.hr                     0:  Lost Rig Time 
 LSTM.      15.50.00 28-Jan-20:  Log Start Time 
 MDCL.ppm             37500.00:  Mud Chlorides 
 MDES.     Inversion Oil/Synthetic:  Mud Desc 
 DFD .sg                  1.32:  Mud Density 
 MDMN.sg                  1.32:  Dens Mud Min 
 MDMX.sg                  1.32:  Dens Mud Max 
 MOIL.                      55:  Run Mud Oil % 
 MOWR.                   70:30:  Run Mud OWR 
 MSND.                       0:  Run Mud Sand % 
 MSOL.                      17:  Run Mud Solids% 
 DFV .spqt               80.00:  Mud Viscosity 
 MWOD.in                  4.75:  MWD Tool OD 
 MWSI.                      No:  Serv Intrp, MWD 
 OTIM.hr                121.28:  Time Operating 
 PCON.           Look Like New:  Pad Condition 
 PMAX.psia             6171.00:  Press Op, Max 
 PV  .cP                 30.00:  Mud PV 
 RUN .                     300:  Run Number 
 ROPA.m/hr                5.45:  ROP Avg 
 ROPN.m/hr                3.00:  ROP Min 
 ROPX.m/hr               15.00:  ROP Max 
 RPMA.rpm               130.00:  RPM Surface Avg 
 RPMN.rpm                80.00:  RPM Surface Min 
 RPMX.rpm               140.00:  RPM Surface Max 
 RRUN.                     300:  Rig Run Number 
 RTIM.hr                 13.50:  Time Reaming 
 SAZI.deg               133.93:  Azm, Start 
 SDEP.m                3878.01:  Start Depth 
 SIDD.                      No:  Serv Intrp, DD 
 SINC.deg                40.28:  Inc, Start 
 SPPA.psig             4983.00:  SPP Avg 
 SPPN.psig             4370.00:  SPP Min 
 SPPX.psig             5300.00:  SPP Max 
 STIM.      18.33.36 27-Jan-20:  Start Time 
 SVCS.                 DD, MWD:  Services 
 SVER.                    9.20:  Sperry Version 
 TDAT.m                 169.50:  Tot Depth Attmp 
 TDDF.                      No:  Trip for DD 
 TDLG.m                 169.50:  Tot Depth Loggd 
 TFF .                      No:  Trip for Fail 
 TQAA.f-kp               13.25:  Torque Abs Avg 
 TQAN.f-kp               12.00:  Torque Abs Min 
 TQAX.f-kp               14.00:  Torque Abs Max 
 TRRT.°/30m               0.70:  Turn Rotating 
 MRT .                     ADR:  Maximum Recorded Temperature 
 TTMX.degC               92.16:  Max Tool Temp 
 VS01.       AZ90598764G12V7D4:  Virtual Str1 SN 
 VS02.         AZ90571342R12C4:  Virtual Str2 SN 
 VS03.      AZ90580010N2L2X1C4:  Virtual Str3 SN 
 VS04.        AZ90522266O7X1C4:  Virtual Str4 SN 
 VS05.           AZ90598768F11:  Virtual Str5 SN 
 VS06.     AZ90580006XZ1W1X1C4:  Virtual Str6 SN 
 WBMN.klb                 8.00:  WOB Min 
 WITN.            Peter Wilson:  Customer Rep 
 WOBA.klb                 9.88:  WOB Avg 
 WOBX.klb                10.00:  WOB Max 
 YP  .lhf2               27.00:  Yield Point 
~Curve Information Block
#MNEM.UNIT                 API CODE     Curve Description
#---------               -----------    ---------------------------
 TIME.HHMMSS            00 000 000 000:  GT Time & Date
 GTDEPTH.m              00 000 000 000:  GT Depth
 GTPQH.psia             00 000 000 000:  GT HR Quartz Pressure
 GTTQ.degC              00 000 000 000:  GT Quartz Temperature
 GTTN.NONE              00 000 000 000:  GT Test Number
 GTET.sec               00 000 000 000:  GT Elapsed Test Time
 GTTVD.m                00 000 000 000:  GT True Vertical Depth
#Other Information
#
#WARRANTY: Halliburton will use its best efforts to furnish customers with 
#accurate information and interpretations that are part of, and incident to, the services 
#provided.  However, Halliburton cannot and does not warrant the accuracy 
#or correctness of such information and interpretations.  Under no circumstances should any 
#such information or interpretation be relied upon as the sole basis for any drilling, 
#completion, production, or financial decision or any procedure involving any risk to the 
#safety of any drilling venture, drilling rig or its crew or any other third party.  The 
#Customer has full responsibility for all drilling, completion and production operation.  
#Halliburton makes no representations or warranties, either expressed or 
#implied, including, but not limited to, the implied warranties of merchantability or fitness 
#for a particular purpose, with respect to the services rendered.  In no event will 
#Halliburton be liable for failure to obtain any particular results or for 
#any damages, including, but not limited to, indirect, special or consequential damages, 
#resulting from the use of any information or interpretation provided by Halliburton.
#
~A           TIME           GTDEPTH  GTPQH  GTTQ  GTTN   GTET   GTTVD  
# ...
   01:33:19.855.01-Feb-2020 3990.12 3217.20 84.48 11.00 294.83 3005.35
   01:33:20.056.01-Feb-2020 3990.12 3217.15 84.48 11.00 295.03 3005.35
   01:33:20.256.01-Feb-2020 3990.12 3217.15 84.48 11.00 295.23 3005.35
   01:33:20.457.01-Feb-2020 3990.12 3216.86 84.48 11.00 295.43 3005.35
   01:33:20.658.01-Feb-2020 3990.12 3217.04 84.48 11.00 295.63 3005.35
   01:33:20.858.01-Feb-2020 3990.12 3217.21 84.48 11.00 295.83 3005.35
   01:33:21.059.01-Feb-2020 3990.12 3217.11 84.48 11.00 296.04 3005.35
   01:33:21.260.01-Feb-2020 3990.12 3217.11 84.48 11.00 296.24 3005.35
   01:33:21.461.01-Feb-2020 3990.12 3216.92 84.48 11.00 296.44 3005.35
   01:33:21.661.01-Feb-2020 3990.12 3216.91 84.48 11.00 296.64 3005.35
   01:33:21.862.01-Feb-2020 3990.12 3217.16 84.48 11.00 296.84 3005.35
   01:33:22.063.01-Feb-2020 3990.12 3217.20 84.48 11.00 297.04 3005.35
   01:33:22.263.01-Feb-2020 3990.12 3217.20 84.48 11.00 297.24 3005.35
   01:33:22.464.01-Feb-2020 3990.12 3217.36 84.48 11.00 297.44 3005.35
   01:33:22.665.01-Feb-2020 3990.12 3217.29 84.48 11.00 297.64 3005.35
   01:33:22.865.01-Feb-2020 3990.12 3216.78 84.48 11.00 297.84 3005.35
   01:33:23.066.01-Feb-2020 3990.12 3217.06 84.48 11.00 298.04 3005.35
   01:33:23.267.01-Feb-2020 3990.12 3217.06 84.48 11.00 298.24 3005.35
   01:33:23.468.01-Feb-2020 3990.12 3217.32 84.48 11.00 298.44 3005.35
   01:33:23.668.01-Feb-2020 3990.12 3217.42 84.48 11.00 298.64 3005.35
   01:33:23.869.01-Feb-2020 3990.12 3217.29 84.48 11.00 298.84 3005.35
   01:33:24.070.01-Feb-2020 3990.12 3217.31 84.48 11.00 299.05 3005.35
   01:33:24.270.01-Feb-2020 3990.12 3217.31 84.48 11.00 299.25 3005.35
   01:33:24.471.01-Feb-2020 3990.12 3217.25 84.47 11.00 299.45 3005.35
   01:33:24.672.01-Feb-2020 3990.12 3217.32 84.47 11.00 299.65 3005.35
   01:33:24.872.01-Feb-2020 3990.12 3217.18 84.47 11.00 299.85 3005.35
   01:33:25.073.01-Feb-2020 3990.12 3217.18 84.47 11.00 300.05 3005.35
   01:33:25.274.01-Feb-2020 3990.12 3217.18 84.47 11.00 300.25 3005.35
   01:33:25.475.01-Feb-2020 3990.12 3217.08 84.47 11.00 300.45 3005.35
   01:33:25.675.01-Feb-2020 3990.12 3217.15 84.47 11.00 300.65 3005.35
   01:33:25.876.01-Feb-2020 3990.12 3217.34 84.47 11.00 300.85 3005.35
   01:33:26.077.01-Feb-2020 3990.12 3217.18 84.47 11.00 301.05 3005.35
   01:33:26.277.01-Feb-2020 3990.12 3217.18 84.47 11.00 301.25 3005.35
   01:33:26.478.01-Feb-2020 3990.12 3217.03 84.47 11.00 301.45 3005.35
   01:33:26.679.01-Feb-2020 3990.12 3217.07 84.47 11.00 301.65 3005.35
   01:33:26.880.01-Feb-2020 3990.12 3217.18 84.47 11.00 301.86 3005.35
   01:33:27.080.01-Feb-2020 3990.12 3217.23 84.47 11.00 302.06 3005.35
   01:33:27.281.01-Feb-2020 3990.12 3217.23 84.47 11.00 302.26 3005.35
   01:33:27.482.01-Feb-2020 3990.12 3217.41 84.47 11.00 302.46 3005.35
   01:33:27.682.01-Feb-2020 3990.12 3217.32 84.47 11.00 302.66 3005.35
   01:33:27.883.01-Feb-2020 3990.12 3217.30 84.47 11.00 302.86 3005.35
   01:33:28.084.01-Feb-2020 3990.12 3173.63 84.47 11.00 303.06 3005.35
   01:33:28.284.01-Feb-2020 3990.12 3173.63 84.47 11.00 303.26 3005.35
   01:33:28.485.01-Feb-2020 3990.12 2851.70 84.47 11.00 303.46 3005.35
   01:33:28.686.01-Feb-2020 3990.12 2789.15 84.47 11.00 303.66 3005.35
   01:33:28.887.01-Feb-2020 3990.12 2750.56 84.47 11.00 303.86 3005.35
   01:33:29.087.01-Feb-2020 3990.12 2725.50 84.46 11.00 304.06 3005.35
   01:33:29.288.01-Feb-2020 3990.12 2725.50 84.46 11.00 304.26 3005.35
   01:33:29.489.01-Feb-2020 3990.12 2695.69 84.46 11.00 304.46 3005.35
   01:33:29.689.01-Feb-2020 3990.12 2687.36 84.46 11.00 304.67 3005.35
   01:33:29.890.01-Feb-2020 3990.12 2679.78 84.46 11.00 304.87 3005.35
   01:33:30.091.01-Feb-2020 3990.12 2677.17 84.46 11.00 305.07 3005.35
   01:33:30.291.01-Feb-2020 3990.12 2677.17 84.46 11.00 305.27 3005.35
   01:33:30.492.01-Feb-2020 3990.12 2670.17 84.46 11.00 305.47 3005.35
   01:33:30.693.01-Feb-2020 3990.12 2667.93 84.46 11.00 305.67 3005.35
   01:33:30.894.01-Feb-2020 3990.12 2664.55 84.46 11.00 305.87 3005.35
   01:33:31.094.01-Feb-2020 3990.12 2664.41 84.46 11.00 306.07 3005.35
   01:33:31.295.01-Feb-2020 3990.12 2664.41 84.46 11.00 306.27 3005.35
   01:33:31.496.01-Feb-2020 3990.12 2662.99 84.46 11.00 306.47 3005.35
   01:33:31.696.01-Feb-2020 3990.12 2662.59 84.46 11.00 306.67 3005.35
   01:33:31.897.01-Feb-2020 3990.12 2659.28 84.46 11.00 306.87 3005.35
   01:33:32.098.01-Feb-2020 3990.12 2655.82 84.46 11.00 307.07 3005.35
   01:33:32.298.01-Feb-2020 3990.12 2655.82 84.46 11.00 307.27 3005.35
   01:33:32.499.01-Feb-2020 3990.12 2655.23 84.46 11.00 307.48 3005.35
   01:33:32.700.01-Feb-2020 3990.12 2654.38 84.46 11.00 307.68 3005.35
   01:33:32.901.01-Feb-2020 3990.12 2654.21 84.45 11.00 307.88 3005.35
   01:33:33.101.01-Feb-2020 3990.12 2651.79 84.45 11.00 308.08 3005.35
   01:33:33.302.01-Feb-2020 3990.12 2651.79 84.45 11.00 308.28 3005.35
   01:33:33.503.01-Feb-2020 3990.12 2652.41 84.45 11.00 308.48 3005.35
   01:33:33.703.01-Feb-2020 3990.12 2651.70 84.45 11.00 308.68 3005.35
   01:33:33.904.01-Feb-2020 3990.12 2652.83 84.45 11.00 308.88 3005.35
   01:33:34.105.01-Feb-2020 3990.12 2651.12 84.45 11.00 309.08 3005.35
   01:33:34.305.01-Feb-2020 3990.12 2651.12 84.45 11.00 309.28 3005.35
   01:33:34.506.01-Feb-2020 3990.12 2645.90 84.45 11.00 309.48 3005.35
   01:33:34.707.01-Feb-2020 3990.12 2644.79 84.45 11.00 309.68 3005.35
   01:33:34.908.01-Feb-2020 3990.12 2646.39 84.45 11.00 309.88 3005.35
   01:33:35.108.01-Feb-2020 3990.12 2647.46 84.45 11.00 310.08 3005.35
   01:33:35.309.01-Feb-2020 3990.12 2647.46 84.45 11.00 310.28 3005.35
   01:33:35.510.01-Feb-2020 3990.12 2647.56 84.45 11.00 310.49 3005.35
   01:33:35.710.01-Feb-2020 3990.12 2648.26 84.45 11.00 310.69 3005.35
   01:33:35.911.01-Feb-2020 3990.12 2646.54 84.45 11.00 310.89 3005.35
   01:33:36.112.01-Feb-2020 3990.12 2646.11 84.45 11.00 311.09 3005.35
   01:33:36.312.01-Feb-2020 3990.12 2646.11 84.45 11.00 311.29 3005.35
   01:33:36.513.01-Feb-2020 3990.12 2642.54 84.45 11.00 311.49 3005.35
   01:33:36.714.01-Feb-2020 3990.12 2642.42 84.44 11.00 311.69 3005.35
   01:33:36.915.01-Feb-2020 3990.12 2642.56 84.44 11.00 311.89 3005.35
   01:33:37.115.01-Feb-2020 3990.12 2642.59 84.44 11.00 312.09 3005.35
   01:33:37.316.01-Feb-2020 3990.12 2642.59 84.44 11.00 312.29 3005.35
   01:33:37.517.01-Feb-2020 3990.12 2640.68 84.44 11.00 312.49 3005.35
   01:33:37.717.01-Feb-2020 3990.12 2640.94 84.44 11.00 312.69 3005.35
   01:33:37.918.01-Feb-2020 3990.12 2639.65 84.44 11.00 312.89 3005.35
   01:33:38.119.01-Feb-2020 3990.12 2640.66 84.44 11.00 313.09 3005.35
   01:33:38.320.01-Feb-2020 3990.12 2640.66 84.44 11.00 313.30 3005.35
   01:33:38.520.01-Feb-2020 3990.12 2906.70 84.44 11.00 313.50 3005.35
   01:33:38.721.01-Feb-2020 3990.12 3013.75 84.44 11.00 313.70 3005.35
   01:33:38.922.01-Feb-2020 3990.12 3076.18 84.44 11.00 313.90 3005.35
   01:33:39.122.01-Feb-2020 3990.12 3113.96 84.44 11.00 314.10 3005.35
   01:33:39.323.01-Feb-2020 3990.12 3113.96 84.44 11.00 314.30 3005.35
   01:33:39.524.01-Feb-2020 3990.12 3154.18 84.44 11.00 314.50 3005.35
   01:33:39.724.01-Feb-2020 3990.12 3164.77 84.44 11.00 314.70 3005.35
   01:33:39.925.01-Feb-2020 3990.12 3172.94 84.44 11.00 314.90 3005.35
   01:33:40.126.01-Feb-2020 3990.12 3178.89 84.44 11.00 315.10 3005.35
   01:33:40.327.01-Feb-2020 3990.12 3178.89 84.44 11.00 315.30 3005.35
   01:33:40.527.01-Feb-2020 3990.12 3186.99 84.44 11.00 315.50 3005.35
   01:33:40.728.01-Feb-2020 3990.12 3189.73 84.43 11.00 315.70 3005.35
   01:33:40.929.01-Feb-2020 3990.12 3192.05 84.43 11.00 315.90 3005.35
   01:33:41.129.01-Feb-2020 3990.12 3193.91 84.43 11.00 316.11 3005.35
   01:33:41.330.01-Feb-2020 3990.12 3193.91 84.43 11.00 316.31 3005.35
   01:33:41.531.01-Feb-2020 3990.12 3196.20 84.43 11.00 316.51 3005.35
   01:33:41.731.01-Feb-2020 3990.12 3197.53 84.43 11.00 316.71 3005.35
   01:33:41.932.01-Feb-2020 3990.12 3198.69 84.43 11.00 316.91 3005.35
   01:33:42.133.01-Feb-2020 3990.12 3199.84 84.43 11.00 317.11 3005.35
   01:33:42.334.01-Feb-2020 3990.12 3199.84 84.43 11.00 317.31 3005.35
