~Version Information
 VERS.                  2.0:   CWLS log ASCII Standard -VERSION 2.0
 WRAP.                   NO:   One line per depth step
~Well Information Block
#MNEM.UNIT     VALUE/NAME     DESCRIPTION
#---------     -----------    ---------------------------
 STRT.S             04:12:25 01-Feb-20: START TIME 04:12:25 01-Feb-20
 STOP.S             04:20:20 01-Feb-20: STOP TIME  04:20:20 01-Feb-20
 STEP.S                   0.00: STEP TIME
 NULL.                 -999.25: NULL VALUE
 DFWT.                        :  DIST FWL TEXT
 DFST.                        :  DIST FSL TEXT
 DMF .             Drill Floor:  DRILL MEAS FROM
 STIM.      09.30.00 26-Dec-19:  START TIME
 DATE.      08.00.00 20-Jan-20:  END TIME
 SPUD.               23-Nov-19:  SPUD DATE
 NREF.                    Grid:  NORTH REFERENCE
 HPTY.       Minimum Curvature:  HOLE POS TYPE
 DMOD.             Drill Model:  DRILL MOD DESC
 SVYD.                  Survey:  SURVEY DESC
 ILTD.               Lithology:  INTERP LTH DESC
 FTOP.          Formation Tops:  FORM TOPS DESC
 SON .        AZ-XX-0906192647:  JOB NUMBER
 WTYP.                Deviated:  WELL TYPE
 COMP.     BP Exploration (Caspian Sea) Ltd:  COMPANY
 BASE.              Azerbaijan:  LOGGING EQUIPMENT BASE LOCATION
 REGN.                 Eurasia:  REGION
 FLD .                     ACG:  FIELD NAME
 SRVC.              KCA Deutag:  CONTRACTOR
 MWDS.                    Baku:  MWD SHOP
 WELL.     A10 (Slot 20) - SCP:  WELL NAME
 JOBN.        AZ-XX-0906192647:  JOB TICKET NUMB
 RIG .                 Chirag1:  RIG NAME
 DCON.     Halliburton Sperry Drilling:  DIRECTNL CONTR
 UNIT.                     N/A:  LOGGING EQUIPMENT ID
 PDAT.          Mean Sea Level:  PERMANENT DATUM
 MDS .        Operator Entered:  MAG DATA SOURCE
 CTRY.              Azerbaijan:  COUNTRY NAME
 UWI .            /AZE00000090:  UNIQUE WELL IDENTIFIER
 API .            /AZE00000090:  API NUMBER
 CNTY.                        :  COUNTY
 PROV.                        :  PROVINCE
 STAT.                        :  STATE
 LOC .                        :  LOCATION
 LMF .             Drill Floor:  LOG MEASURED FROM
 TVDS.m                  36.60:  TVDSS CORRECTN
 LATI.deg                40.08:  LATITUDE
 LONG.deg                51.24:  LONGITUDE
 WHNS.m                  -7.94:  WELL HEAD N/S
 WHEW.m                   1.56:  WELL HEAD E/W
 UTMX.m              520429.26:  UTM X
 UTMY.m             4438973.87:  UTM Y
 DFWL.m                   0.00:  DISTANCE FWL
 DFSL.m                   0.00:  DISTANCE FSL
 SDEP.m                1455.00:  START DEPTH
 TDD .m                4047.51:  TOTAL DEPTH (DRILLER)
 VSDR.deg               112.75:  VERT SEC DIRECT
 GVFD.g                   1.00:  GRAVITY FIELD
 MFLD.nT              50261.00:  MAGNETIC FIELD
 MDIP.deg                59.52:  MAGNETIC DIP
 MDEC.deg                 6.42:  MAGNETIC DECL
 GRDC.deg                 0.17:  GRID CORRECTION
 AZTC.deg                 6.25:  AZM TOTAL CORR
 EPD .m                   0.00:  ELEVATION
 EGL .m                   0.00:  GROUND ELEVATION
 WDMS.m                 121.00:  WD ELEV
 APD .m                  36.60:  DEPTH ABOVE PD
 AGAP.m                  36.60:  AIR GAP
 VSEW.m                   1.56:  VERT SEC E/W
 VSNS.m                  -7.94:  VERT SEC N/S
 DEP .m                1140.01:  DEPTH
 EKB .m                  36.60:  KB ELEVATION
 EDF .m                  36.60:  DF ELEVATION
 TDL .m                 169.50:  TOTAL DEPTH (LOGGER)
 CSGD.m                3875.01:  CASING BOTTOM (DRILLER)
 CSGL.m                3875.01:  CASING BOTTOM (LOGGER)
 CSGS.in                  7.63:  CASING SIZE
 CSGW.lbpf               23.50:  CASING WEIGHT
 VSC .                       0:  VS TO CLOSURE
 MAGU.                 1849206:  MAGUTM CHECKSUM
~Parameter Information Block
#MNEM.UNIT       Value        Description
#---------     -----------    ---------------------------
 AV  .mps                 1.90:  Ann Velocity 
 AVMX.mps                 2.54:  Max Ann Veloc 
 AZIF.deg               137.03:  Azm, Final 
 BHAT.        Rotary Steerable:  BHA Type 
 BREV.rev             23610.00:  Rev Bit Total 
 BROT.°/30m               0.80:  Build Rotating 
 BS  .in                  6.50:  Bit Size 
 BTPL.psig              110.00:  Bit Press Loss 
 CABU.                     Yes:  Customer Abuse 
 TCS .hr                 70.51:  Time Ciculation Ended 
 CV  .mps                 1.41:  Crit Velocity 
 CVMX.mps                 1.42:  Max Crit Veloc 
 DD1 .         Intigam Rahimov:  Direct Drillr 1 
 DD2 .          Rashad Gojayev:  Direct Drillr 2 
 DDSV.               Geo-Pilot:  DD Service 
 DEFF.%                 100.00:  % Det Eff 
 DLRX.°/30m               1.44:  Dogleg Rot Max 
 DLSO.°/30m               0.00:  Dogleg Oriented 
 DLSX.°/30m               0.00:  Dogleg Str Max 
 DRET.      03.05.00 01-Feb-20:  Drill End Time 
 DRST.      15.50.00 28-Jan-20:  Drill Start Tim 
 DTIM.hr                 24.70:  Time Drilling 
 EDEP.m                4047.51:  End Depth 
 ENG1.           Eldar Hajiyev:  Engineer 1 
 ENG2.          Rasim Hashimov:  Engineer 2 
 ENG3.          Rustam Safarov:  Engineer 3 
 ETIM.      22.00.00 01-Feb-20:  End Time 
 FLOI.gpm               370.00:  Flow In 
 FLON.gpm               300.00:  Flow In Min 
 FLOS.cptm                0.00:  Fluid Loss 
 FLOX.gpm               400.00:  Flow In Max 
 FTRO.       Formation Presure:  FTWD Run Obj 
 HFLO.                      No:  High Flow 
 HPRE.                      No:  High Pressure 
 HTEM.                      No:  High Temp 
 HYDO.m                   2.50:  Hydro Offset 
 IFIN.deg                39.54:  Inc, Final 
 IMAX.deg                41.14:  Inc Max 
 IMIN.deg                39.81:  Inc Min 
 IMND.m                4005.21:  Inc Min Depth 
 IMXD.m                3948.42:  Inc Max Depth 
 JARR.                      No:  Jarring 
 LETM.      03.05.00 01-Feb-20:  Log End Time 
 LOST.hr                     0:  Lost Rig Time 
 LSTM.      15.50.00 28-Jan-20:  Log Start Time 
 MDCL.ppm             37500.00:  Mud Chlorides 
 MDES.     Inversion Oil/Synthetic:  Mud Desc 
 DFD .sg                  1.32:  Mud Density 
 MDMN.sg                  1.32:  Dens Mud Min 
 MDMX.sg                  1.32:  Dens Mud Max 
 MOIL.                      55:  Run Mud Oil % 
 MOWR.                   70:30:  Run Mud OWR 
 MSND.                       0:  Run Mud Sand % 
 MSOL.                      17:  Run Mud Solids% 
 DFV .spqt               80.00:  Mud Viscosity 
 MWOD.in                  4.75:  MWD Tool OD 
 MWSI.                      No:  Serv Intrp, MWD 
 OTIM.hr                121.28:  Time Operating 
 PCON.           Look Like New:  Pad Condition 
 PMAX.psia             6171.00:  Press Op, Max 
 PV  .cP                 30.00:  Mud PV 
 RUN .                     300:  Run Number 
 ROPA.m/hr                5.45:  ROP Avg 
 ROPN.m/hr                3.00:  ROP Min 
 ROPX.m/hr               15.00:  ROP Max 
 RPMA.rpm               130.00:  RPM Surface Avg 
 RPMN.rpm                80.00:  RPM Surface Min 
 RPMX.rpm               140.00:  RPM Surface Max 
 RRUN.                     300:  Rig Run Number 
 RTIM.hr                 13.50:  Time Reaming 
 SAZI.deg               133.93:  Azm, Start 
 SDEP.m                3878.01:  Start Depth 
 SIDD.                      No:  Serv Intrp, DD 
 SINC.deg                40.28:  Inc, Start 
 SPPA.psig             4983.00:  SPP Avg 
 SPPN.psig             4370.00:  SPP Min 
 SPPX.psig             5300.00:  SPP Max 
 STIM.      18.33.36 27-Jan-20:  Start Time 
 SVCS.                 DD, MWD:  Services 
 SVER.                    9.20:  Sperry Version 
 TDAT.m                 169.50:  Tot Depth Attmp 
 TDDF.                      No:  Trip for DD 
 TDLG.m                 169.50:  Tot Depth Loggd 
 TFF .                      No:  Trip for Fail 
 TQAA.f-kp               13.25:  Torque Abs Avg 
 TQAN.f-kp               12.00:  Torque Abs Min 
 TQAX.f-kp               14.00:  Torque Abs Max 
 TRRT.°/30m               0.70:  Turn Rotating 
 MRT .                     ADR:  Maximum Recorded Temperature 
 TTMX.degC               92.16:  Max Tool Temp 
 VS01.       AZ90598764G12V7D4:  Virtual Str1 SN 
 VS02.         AZ90571342R12C4:  Virtual Str2 SN 
 VS03.      AZ90580010N2L2X1C4:  Virtual Str3 SN 
 VS04.        AZ90522266O7X1C4:  Virtual Str4 SN 
 VS05.           AZ90598768F11:  Virtual Str5 SN 
 VS06.     AZ90580006XZ1W1X1C4:  Virtual Str6 SN 
 WBMN.klb                 8.00:  WOB Min 
 WITN.            Peter Wilson:  Customer Rep 
 WOBA.klb                 9.88:  WOB Avg 
 WOBX.klb                10.00:  WOB Max 
 YP  .lhf2               27.00:  Yield Point 
~Curve Information Block
#MNEM.UNIT                 API CODE     Curve Description
#---------               -----------    ---------------------------
 TIME.HHMMSS            00 000 000 000:  GT Time & Date
 GTDEPTH.m              00 000 000 000:  GT Depth
 GTPQH.psia             00 000 000 000:  GT HR Quartz Pressure
 GTTQ.degC              00 000 000 000:  GT Quartz Temperature
 GTTN.NONE              00 000 000 000:  GT Test Number
 GTET.sec               00 000 000 000:  GT Elapsed Test Time
 GTTVD.m                00 000 000 000:  GT True Vertical Depth
#Other Information
#
#WARRANTY: Halliburton will use its best efforts to furnish customers with 
#accurate information and interpretations that are part of, and incident to, the services 
#provided.  However, Halliburton cannot and does not warrant the accuracy 
#or correctness of such information and interpretations.  Under no circumstances should any 
#such information or interpretation be relied upon as the sole basis for any drilling, 
#completion, production, or financial decision or any procedure involving any risk to the 
#safety of any drilling venture, drilling rig or its crew or any other third party.  The 
#Customer has full responsibility for all drilling, completion and production operation.  
#Halliburton makes no representations or warranties, either expressed or 
#implied, including, but not limited to, the implied warranties of merchantability or fitness 
#for a particular purpose, with respect to the services rendered.  In no event will 
#Halliburton be liable for failure to obtain any particular results or for 
#any damages, including, but not limited to, indirect, special or consequential damages, 
#resulting from the use of any information or interpretation provided by Halliburton.
#
~A           TIME           GTDEPTH  GTPQH  GTTQ  GTTN   GTET   GTTVD  
# ...
   04:18:28.300.01-Feb-2020 3998.51 3148.72 84.73 12.00 362.87 3011.77
   04:18:28.501.01-Feb-2020 3998.51 3148.87 84.73 12.00 363.07 3011.77
   04:18:28.701.01-Feb-2020 3998.51 3148.85 84.73 12.00 363.27 3011.77
   04:18:28.902.01-Feb-2020 3998.51 3148.85 84.73 12.00 363.47 3011.77
   04:18:29.103.01-Feb-2020 3998.51 3148.82 84.73 12.00 363.67 3011.77
   04:18:29.303.01-Feb-2020 3998.51 3148.57 84.73 12.00 363.87 3011.77
   04:18:29.504.01-Feb-2020 3998.51 3148.94 84.73 12.00 364.07 3011.77
   04:18:29.705.01-Feb-2020 3998.51 3148.81 84.73 12.00 364.27 3011.77
   04:18:29.905.01-Feb-2020 3998.51 3148.81 84.73 12.00 364.47 3011.77
   04:18:30.106.01-Feb-2020 3998.51 3148.83 84.73 12.00 364.68 3011.77
   04:18:30.307.01-Feb-2020 3998.51 3148.85 84.73 12.00 364.88 3011.77
   04:18:30.508.01-Feb-2020 3998.51 3148.84 84.73 12.00 365.08 3011.77
   04:18:30.708.01-Feb-2020 3998.51 3148.78 84.73 12.00 365.28 3011.77
   04:18:30.909.01-Feb-2020 3998.51 3148.78 84.73 12.00 365.48 3011.77
   04:18:31.110.01-Feb-2020 3998.51 3148.85 84.72 12.00 365.68 3011.77
   04:18:31.310.01-Feb-2020 3998.51 3148.81 84.72 12.00 365.88 3011.77
   04:18:31.511.01-Feb-2020 3998.51 3148.80 84.72 12.00 366.08 3011.77
   04:18:31.712.01-Feb-2020 3998.51 3148.81 84.72 12.00 366.28 3011.77
   04:18:31.912.01-Feb-2020 3998.51 3148.81 84.72 12.00 366.48 3011.77
   04:18:32.113.01-Feb-2020 3998.51 3148.77 84.72 12.00 366.68 3011.77
   04:18:32.314.01-Feb-2020 3998.51 3148.81 84.72 12.00 366.88 3011.77
   04:18:32.515.01-Feb-2020 3998.51 3148.80 84.72 12.00 367.08 3011.77
   04:18:32.715.01-Feb-2020 3998.51 3148.81 84.72 12.00 367.28 3011.77
   04:18:32.916.01-Feb-2020 3998.51 3148.81 84.72 12.00 367.48 3011.77
   04:18:33.117.01-Feb-2020 3998.51 3148.60 84.72 12.00 367.69 3011.77
   04:18:33.317.01-Feb-2020 3998.51 3148.83 84.72 12.00 367.89 3011.77
   04:18:33.518.01-Feb-2020 3998.51 3148.89 84.72 12.00 368.09 3011.77
   04:18:33.719.01-Feb-2020 3998.51 3148.82 84.72 12.00 368.29 3011.77
   04:18:33.920.01-Feb-2020 3998.51 3148.82 84.72 12.00 368.49 3011.77
   04:18:34.120.01-Feb-2020 3998.51 3148.77 84.72 12.00 368.69 3011.77
   04:18:34.321.01-Feb-2020 3998.51 3148.86 84.72 12.00 368.89 3011.77
   04:18:34.522.01-Feb-2020 3998.51 3148.87 84.72 12.00 369.09 3011.77
   04:18:34.722.01-Feb-2020 3998.51 3148.75 84.72 12.00 369.29 3011.77
   04:18:34.923.01-Feb-2020 3998.51 3148.75 84.72 12.00 369.49 3011.77
   04:18:35.124.01-Feb-2020 3998.51 3148.75 84.72 12.00 369.69 3011.77
   04:18:35.324.01-Feb-2020 3998.51 3148.77 84.71 12.00 369.89 3011.77
   04:18:35.525.01-Feb-2020 3998.51 3148.86 84.71 12.00 370.09 3011.77
   04:18:35.726.01-Feb-2020 3998.51 3148.75 84.71 12.00 370.29 3011.77
   04:18:35.927.01-Feb-2020 3998.51 3148.75 84.71 12.00 370.50 3011.77
   04:18:36.127.01-Feb-2020 3998.51 3148.86 84.71 12.00 370.70 3011.77
   04:18:36.328.01-Feb-2020 3998.51 3148.48 84.71 12.00 370.90 3011.77
   04:18:36.529.01-Feb-2020 3998.51 3148.99 84.71 12.00 371.10 3011.77
   04:18:36.729.01-Feb-2020 3998.51 3148.83 84.71 12.00 371.30 3011.77
   04:18:36.930.01-Feb-2020 3998.51 3148.83 84.71 12.00 371.50 3011.77
   04:18:37.131.01-Feb-2020 3998.51 3148.89 84.71 12.00 371.70 3011.77
   04:18:37.331.01-Feb-2020 3998.51 3148.55 84.71 12.00 371.90 3011.77
   04:18:37.532.01-Feb-2020 3998.51 3148.97 84.71 12.00 372.10 3011.77
   04:18:37.733.01-Feb-2020 3998.51 3148.86 84.71 12.00 372.30 3011.77
   04:18:37.934.01-Feb-2020 3998.51 3148.86 84.71 12.00 372.50 3011.77
   04:18:38.134.01-Feb-2020 3998.51 3148.89 84.71 12.00 372.70 3011.77
   04:18:38.335.01-Feb-2020 3998.51 3148.80 84.71 12.00 372.90 3011.77
   04:18:38.536.01-Feb-2020 3998.51 3148.78 84.71 12.00 373.10 3011.77
   04:18:38.736.01-Feb-2020 3998.51 3148.98 84.71 12.00 373.31 3011.77
   04:18:38.937.01-Feb-2020 3998.51 3148.98 84.71 12.00 373.51 3011.77
   04:18:39.138.01-Feb-2020 3998.51 3148.81 84.71 12.00 373.71 3011.77
   04:18:39.338.01-Feb-2020 3998.51 3148.93 84.71 12.00 373.91 3011.77
   04:18:39.539.01-Feb-2020 3998.51 3148.60 84.71 12.00 374.11 3011.77
   04:18:39.740.01-Feb-2020 3998.51 3148.98 84.70 12.00 374.31 3011.77
   04:18:39.941.01-Feb-2020 3998.51 3148.98 84.70 12.00 374.51 3011.77
   04:18:40.141.01-Feb-2020 3998.51 3148.85 84.70 12.00 374.71 3011.77
   04:18:40.342.01-Feb-2020 3998.51 3148.91 84.70 12.00 374.91 3011.77
   04:18:40.543.01-Feb-2020 3998.51 3148.94 84.70 12.00 375.11 3011.77
   04:18:40.743.01-Feb-2020 3998.51 3148.82 84.70 12.00 375.31 3011.77
   04:18:40.944.01-Feb-2020 3998.51 3148.82 84.70 12.00 375.51 3011.77
   04:18:41.145.01-Feb-2020 3998.51 3149.01 84.70 12.00 375.71 3011.77
   04:18:41.345.01-Feb-2020 3998.51 3148.91 84.70 12.00 375.91 3011.77
   04:18:41.546.01-Feb-2020 3998.51 3148.94 84.70 12.00 376.12 3011.77
   04:18:41.747.01-Feb-2020 3998.51 3148.93 84.70 12.00 376.32 3011.77
   04:18:41.948.01-Feb-2020 3998.51 3148.93 84.70 12.00 376.52 3011.77
   04:18:42.148.01-Feb-2020 3998.51 3148.90 84.70 12.00 376.72 3011.77
   04:18:42.349.01-Feb-2020 3998.51 3148.82 84.70 12.00 376.92 3011.77
   04:18:42.550.01-Feb-2020 3998.51 3148.86 84.70 12.00 377.12 3011.77
   04:18:42.750.01-Feb-2020 3998.51 3148.86 84.70 12.00 377.32 3011.77
   04:18:42.951.01-Feb-2020 3998.51 3148.86 84.70 12.00 377.52 3011.77
   04:18:43.152.01-Feb-2020 3998.51 3148.83 84.70 12.00 377.72 3011.77
   04:18:43.352.01-Feb-2020 3998.51 3148.84 84.70 12.00 377.92 3011.77
   04:18:43.553.01-Feb-2020 3998.51 3148.79 84.70 12.00 378.12 3011.77
   04:18:43.754.01-Feb-2020 3998.51 3148.81 84.70 12.00 378.32 3011.77
   04:18:43.955.01-Feb-2020 3998.51 3148.81 84.70 12.00 378.52 3011.77
   04:18:44.155.01-Feb-2020 3998.51 3148.83 84.70 12.00 378.72 3011.77
   04:18:44.356.01-Feb-2020 3998.51 3148.80 84.69 12.00 378.92 3011.77
   04:18:44.557.01-Feb-2020 3998.51 3148.75 84.69 12.00 379.13 3011.77
   04:18:44.757.01-Feb-2020 3998.51 3148.85 84.69 12.00 379.33 3011.77
   04:18:44.958.01-Feb-2020 3998.51 3148.85 84.69 12.00 379.53 3011.77
   04:18:45.159.01-Feb-2020 3998.51 3148.96 84.69 12.00 379.73 3011.77
   04:18:45.360.01-Feb-2020 3998.51 3148.87 84.69 12.00 379.93 3011.77
   04:18:45.560.01-Feb-2020 3998.51 3148.89 84.69 12.00 380.13 3011.77
   04:18:45.761.01-Feb-2020 3998.51 3148.85 84.69 12.00 380.33 3011.77
   04:18:45.962.01-Feb-2020 3998.51 3148.85 84.69 12.00 380.53 3011.77
   04:18:46.162.01-Feb-2020 3998.51 3148.88 84.69 12.00 380.73 3011.77
   04:18:46.363.01-Feb-2020 3998.51 3148.83 84.69 12.00 380.93 3011.77
   04:18:46.564.01-Feb-2020 3998.51 3148.81 84.69 12.00 381.13 3011.77
   04:18:46.764.01-Feb-2020 3998.51 3148.91 84.69 12.00 381.33 3011.77
   04:18:46.965.01-Feb-2020 3998.51 3148.91 84.69 12.00 381.53 3011.77
   04:18:47.166.01-Feb-2020 3998.51 3148.82 84.69 12.00 381.73 3011.77
   04:18:47.367.01-Feb-2020 3998.51 3148.84 84.69 12.00 381.94 3011.77
   04:18:47.567.01-Feb-2020 3998.51 3148.78 84.69 12.00 382.14 3011.77
   04:18:47.768.01-Feb-2020 3998.51 3148.87 84.69 12.00 382.34 3011.77
   04:18:47.969.01-Feb-2020 3998.51 3148.87 84.69 12.00 382.54 3011.77
   04:18:48.169.01-Feb-2020 3998.51 3148.95 84.69 12.00 382.74 3011.77
   04:18:48.370.01-Feb-2020 3998.51 3148.95 84.69 12.00 382.94 3011.77
   04:18:48.571.01-Feb-2020 3998.51 3148.88 84.69 12.00 383.14 3011.77
   04:18:48.771.01-Feb-2020 3998.51 3148.87 84.68 12.00 383.34 3011.77
   04:18:48.972.01-Feb-2020 3998.51 3148.87 84.68 12.00 383.54 3011.77
   04:18:49.173.01-Feb-2020 3998.51 3148.93 84.68 12.00 383.74 3011.77
   04:18:49.374.01-Feb-2020 3998.51 3148.90 84.68 12.00 383.94 3011.77
   04:18:49.574.01-Feb-2020 3998.51 3148.96 84.68 12.00 384.14 3011.77
   04:18:49.775.01-Feb-2020 3998.51 3148.75 84.68 12.00 384.34 3011.77
   04:18:49.976.01-Feb-2020 3998.51 3148.75 84.68 12.00 384.54 3011.77
   04:18:50.176.01-Feb-2020 3998.51 3148.85 84.68 12.00 384.75 3011.77
   04:18:50.377.01-Feb-2020 3998.51 3148.89 84.68 12.00 384.95 3011.77
   04:18:50.578.01-Feb-2020 3998.51 3148.94 84.68 12.00 385.15 3011.77
   04:18:50.778.01-Feb-2020 3998.51 3148.85 84.68 12.00 385.35 3011.77
