~Version Information
 VERS.                  2.0:   CWLS log ASCII Standard -VERSION 2.0
 WRAP.                   NO:   One line per depth step
~Well Information Block
#MNEM.UNIT     VALUE/NAME     DESCRIPTION
#---------     -----------    ---------------------------
 STRT.S             01:40:55 31-Jan-20: START TIME 01:40:55 31-Jan-20
 STOP.S             01:47:23 31-Jan-20: STOP TIME  01:47:23 31-Jan-20
 STEP.S                   0.00: STEP TIME
 NULL.                 -999.25: NULL VALUE
 DFWT.                        :  DIST FWL TEXT
 DFST.                        :  DIST FSL TEXT
 DMF .             Drill Floor:  DRILL MEAS FROM
 STIM.      09.30.00 26-Dec-19:  START TIME
 DATE.      08.00.00 20-Jan-20:  END TIME
 SPUD.               23-Nov-19:  SPUD DATE
 NREF.                    Grid:  NORTH REFERENCE
 HPTY.       Minimum Curvature:  HOLE POS TYPE
 DMOD.             Drill Model:  DRILL MOD DESC
 SVYD.                  Survey:  SURVEY DESC
 ILTD.               Lithology:  INTERP LTH DESC
 FTOP.          Formation Tops:  FORM TOPS DESC
 SON .        AZ-XX-0906192647:  JOB NUMBER
 WTYP.                Deviated:  WELL TYPE
 COMP.     BP Exploration (Caspian Sea) Ltd:  COMPANY
 BASE.              Azerbaijan:  LOGGING EQUIPMENT BASE LOCATION
 REGN.                 Eurasia:  REGION
 FLD .                     ACG:  FIELD NAME
 SRVC.              KCA Deutag:  CONTRACTOR
 MWDS.                    Baku:  MWD SHOP
 WELL.     A10 (Slot 20) - SCP:  WELL NAME
 JOBN.        AZ-XX-0906192647:  JOB TICKET NUMB
 RIG .                 Chirag1:  RIG NAME
 DCON.     Halliburton Sperry Drilling:  DIRECTNL CONTR
 UNIT.                     N/A:  LOGGING EQUIPMENT ID
 PDAT.          Mean Sea Level:  PERMANENT DATUM
 MDS .        Operator Entered:  MAG DATA SOURCE
 CTRY.              Azerbaijan:  COUNTRY NAME
 UWI .            /AZE00000090:  UNIQUE WELL IDENTIFIER
 API .            /AZE00000090:  API NUMBER
 CNTY.                        :  COUNTY
 PROV.                        :  PROVINCE
 STAT.                        :  STATE
 LOC .                        :  LOCATION
 LMF .             Drill Floor:  LOG MEASURED FROM
 TVDS.m                  36.60:  TVDSS CORRECTN
 LATI.deg                40.08:  LATITUDE
 LONG.deg                51.24:  LONGITUDE
 WHNS.m                  -7.94:  WELL HEAD N/S
 WHEW.m                   1.56:  WELL HEAD E/W
 UTMX.m              520429.26:  UTM X
 UTMY.m             4438973.87:  UTM Y
 DFWL.m                   0.00:  DISTANCE FWL
 DFSL.m                   0.00:  DISTANCE FSL
 SDEP.m                1455.00:  START DEPTH
 TDD .m                4047.51:  TOTAL DEPTH (DRILLER)
 VSDR.deg               112.75:  VERT SEC DIRECT
 GVFD.g                   1.00:  GRAVITY FIELD
 MFLD.nT              50261.00:  MAGNETIC FIELD
 MDIP.deg                59.52:  MAGNETIC DIP
 MDEC.deg                 6.42:  MAGNETIC DECL
 GRDC.deg                 0.17:  GRID CORRECTION
 AZTC.deg                 6.25:  AZM TOTAL CORR
 EPD .m                   0.00:  ELEVATION
 EGL .m                   0.00:  GROUND ELEVATION
 WDMS.m                 121.00:  WD ELEV
 APD .m                  36.60:  DEPTH ABOVE PD
 AGAP.m                  36.60:  AIR GAP
 VSEW.m                   1.56:  VERT SEC E/W
 VSNS.m                  -7.94:  VERT SEC N/S
 DEP .m                1140.01:  DEPTH
 EKB .m                  36.60:  KB ELEVATION
 EDF .m                  36.60:  DF ELEVATION
 TDL .m                 169.50:  TOTAL DEPTH (LOGGER)
 CSGD.m                3875.01:  CASING BOTTOM (DRILLER)
 CSGL.m                3875.01:  CASING BOTTOM (LOGGER)
 CSGS.in                  7.63:  CASING SIZE
 CSGW.lbpf               23.50:  CASING WEIGHT
 VSC .                       0:  VS TO CLOSURE
 MAGU.                 1849206:  MAGUTM CHECKSUM
~Parameter Information Block
#MNEM.UNIT       Value        Description
#---------     -----------    ---------------------------
 AV  .mps                 1.90:  Ann Velocity 
 AVMX.mps                 2.54:  Max Ann Veloc 
 AZIF.deg               137.03:  Azm, Final 
 BHAT.        Rotary Steerable:  BHA Type 
 BREV.rev             23610.00:  Rev Bit Total 
 BROT.°/30m               0.80:  Build Rotating 
 BS  .in                  6.50:  Bit Size 
 BTPL.psig              110.00:  Bit Press Loss 
 CABU.                     Yes:  Customer Abuse 
 COMM.                     šn:  Run Comments 1 
 TCS .hr                 70.51:  Time Ciculation Ended 
 CV  .mps                 1.41:  Crit Velocity 
 CVMX.mps                 1.42:  Max Crit Veloc 
 DD1 .         Intigam Rahimov:  Direct Drillr 1 
 DD2 .          Rashad Gojayev:  Direct Drillr 2 
 DDSV.               Geo-Pilot:  DD Service 
 DEFF.%                 100.00:  % Det Eff 
 DLRX.°/30m               1.44:  Dogleg Rot Max 
 DLSO.°/30m               0.00:  Dogleg Oriented 
 DLSX.°/30m               0.00:  Dogleg Str Max 
 DRET.      03.05.00 01-Feb-20:  Drill End Time 
 DRST.      15.50.00 28-Jan-20:  Drill Start Tim 
 DTIM.hr                 24.70:  Time Drilling 
 EDEP.m                4047.51:  End Depth 
 ENG1.           Eldar Hajiyev:  Engineer 1 
 ENG2.          Rasim Hashimov:  Engineer 2 
 ENG3.          Rustam Safarov:  Engineer 3 
 ETIM.      22.00.00 01-Feb-20:  End Time 
 FLOI.gpm               370.00:  Flow In 
 FLON.gpm               300.00:  Flow In Min 
 FLOS.cptm                0.00:  Fluid Loss 
 FLOX.gpm               400.00:  Flow In Max 
 FTRO.       Formation Presure:  FTWD Run Obj 
 HFLO.                      No:  High Flow 
 HPRE.                      No:  High Pressure 
 HTEM.                      No:  High Temp 
 HYDO.m                   2.50:  Hydro Offset 
 IFIN.deg                39.54:  Inc, Final 
 IMAX.deg                41.14:  Inc Max 
 IMIN.deg                39.81:  Inc Min 
 IMND.m                4005.21:  Inc Min Depth 
 IMXD.m                3948.42:  Inc Max Depth 
 JARR.                      No:  Jarring 
 LETM.      03.05.00 01-Feb-20:  Log End Time 
 LOST.hr                     0:  Lost Rig Time 
 LSTM.      15.50.00 28-Jan-20:  Log Start Time 
 MDCL.ppm             37500.00:  Mud Chlorides 
 MDES.     Inversion Oil/Synthetic:  Mud Desc 
 DFD .sg                  1.32:  Mud Density 
 MDMN.sg                  1.32:  Dens Mud Min 
 MDMX.sg                  1.32:  Dens Mud Max 
 MOIL.                      55:  Run Mud Oil % 
 MOWR.                   70:30:  Run Mud OWR 
 MSND.                       0:  Run Mud Sand % 
 MSOL.                      17:  Run Mud Solids% 
 DFV .spqt               80.00:  Mud Viscosity 
 MWOD.in                  4.75:  MWD Tool OD 
 MWSI.                      No:  Serv Intrp, MWD 
 OTIM.hr                121.28:  Time Operating 
 PCON.           Look Like New:  Pad Condition 
 PMAX.psia             6171.00:  Press Op, Max 
 PV  .cP                 30.00:  Mud PV 
 RUN .                     300:  Run Number 
 ROPA.m/hr                5.45:  ROP Avg 
 ROPN.m/hr                3.00:  ROP Min 
 ROPX.m/hr               15.00:  ROP Max 
 RPMA.rpm               130.00:  RPM Surface Avg 
 RPMN.rpm                80.00:  RPM Surface Min 
 RPMX.rpm               140.00:  RPM Surface Max 
 RRUN.                     300:  Rig Run Number 
 RTIM.hr                 13.50:  Time Reaming 
 SAZI.deg               133.93:  Azm, Start 
 SDEP.m                3878.01:  Start Depth 
 SIDD.                      No:  Serv Intrp, DD 
 SINC.deg                40.28:  Inc, Start 
 SPPA.psig             4983.00:  SPP Avg 
 SPPN.psig             4370.00:  SPP Min 
 SPPX.psig             5300.00:  SPP Max 
 STIM.      18.33.36 27-Jan-20:  Start Time 
 SVCS.                 DD, MWD:  Services 
 SVER.                    9.20:  Sperry Version 
 TDAT.m                 169.50:  Tot Depth Attmp 
 TDDF.                      No:  Trip for DD 
 TDLG.m                 169.50:  Tot Depth Loggd 
 TFF .                      No:  Trip for Fail 
 TQAA.f-kp               13.25:  Torque Abs Avg 
 TQAN.f-kp               12.00:  Torque Abs Min 
 TQAX.f-kp               14.00:  Torque Abs Max 
 TRRT.°/30m               0.70:  Turn Rotating 
 MRT .                     ADR:  Maximum Recorded Temperature 
 TTMX.degC               92.16:  Max Tool Temp 
 VS01.       AZ90598764G12V7D4:  Virtual Str1 SN 
 VS02.         AZ90571342R12C4:  Virtual Str2 SN 
 VS03.      AZ90580010N2L2X1C4:  Virtual Str3 SN 
 VS04.        AZ90522266O7X1C4:  Virtual Str4 SN 
 VS05.           AZ90598768F11:  Virtual Str5 SN 
 VS06.     AZ90580006XZ1W1X1C4:  Virtual Str6 SN 
 WBMN.klb                 8.00:  WOB Min 
 WITN.            Peter Wilson:  Customer Rep 
 WOBA.klb                 9.88:  WOB Avg 
 WOBX.klb                10.00:  WOB Max 
 YP  .lhf2               27.00:  Yield Point 
~Curve Information Block
#MNEM.UNIT                 API CODE     Curve Description
#---------               -----------    ---------------------------
 TIME.HHMMSS            00 000 000 000:  GT Time & Date
 GTDEPTH.m              00 000 000 000:  GT Depth
 GTPQH.psia             00 000 000 000:  GT HR Quartz Pressure
 GTTQ.degC              00 000 000 000:  GT Quartz Temperature
 GTTN.NONE              00 000 000 000:  GT Test Number
 GTET.sec               00 000 000 000:  GT Elapsed Test Time
 GTTVD.m                00 000 000 000:  GT True Vertical Depth
#Other Information
#
#WARRANTY: Halliburton will use its best efforts to furnish customers with 
#accurate information and interpretations that are part of, and incident to, the services 
#provided.  However, Halliburton cannot and does not warrant the accuracy 
#or correctness of such information and interpretations.  Under no circumstances should any 
#such information or interpretation be relied upon as the sole basis for any drilling, 
#completion, production, or financial decision or any procedure involving any risk to the 
#safety of any drilling venture, drilling rig or its crew or any other third party.  The 
#Customer has full responsibility for all drilling, completion and production operation.  
#Halliburton makes no representations or warranties, either expressed or 
#implied, including, but not limited to, the implied warranties of merchantability or fitness 
#for a particular purpose, with respect to the services rendered.  In no event will 
#Halliburton be liable for failure to obtain any particular results or for 
#any damages, including, but not limited to, indirect, special or consequential damages, 
#resulting from the use of any information or interpretation provided by Halliburton.
#
~A           TIME           GTDEPTH  GTPQH  GTTQ  GTTN  GTET   GTTVD  
# ...
   01:47:03.130.31-Jan-2020 3902.01 5996.51 75.87 3.00 368.07 2938.77
   01:47:03.330.31-Jan-2020 3902.01 5996.51 75.87 3.00 368.27 2938.77
   01:47:03.530.31-Jan-2020 3902.01 5989.86 75.87 3.00 368.47 2938.77
   01:47:03.730.31-Jan-2020 3902.01 5991.04 75.87 3.00 368.67 2938.77
   01:47:03.930.31-Jan-2020 3902.01 5994.93 75.87 3.00 368.87 2938.77
   01:47:04.130.31-Jan-2020 3902.01 5995.30 75.87 3.00 369.07 2938.77
   01:47:04.330.31-Jan-2020 3902.01 5995.30 75.87 3.00 369.27 2938.77
   01:47:04.530.31-Jan-2020 3902.01 5996.97 75.87 3.00 369.47 2938.77
   01:47:04.730.31-Jan-2020 3902.01 5994.90 75.87 3.00 369.67 2938.77
   01:47:04.930.31-Jan-2020 3902.01 5986.59 75.87 3.00 369.87 2938.77
   01:47:05.130.31-Jan-2020 3902.01 5994.24 75.87 3.00 370.07 2938.77
   01:47:05.330.31-Jan-2020 3902.01 5994.24 75.87 3.00 370.27 2938.77
   01:47:05.531.31-Jan-2020 3902.01 5996.69 75.86 3.00 370.47 2938.77
   01:47:05.731.31-Jan-2020 3902.01 5995.82 75.86 3.00 370.67 2938.77
   01:47:05.931.31-Jan-2020 3902.01 5995.90 75.86 3.00 370.87 2938.77
   01:47:06.131.31-Jan-2020 3902.01 5989.91 75.86 3.00 371.07 2938.77
   01:47:06.331.31-Jan-2020 3902.01 5989.91 75.86 3.00 371.27 2938.77
   01:47:06.531.31-Jan-2020 3902.01 5997.45 75.86 3.00 371.47 2938.77
   01:47:06.731.31-Jan-2020 3902.01 5997.00 75.86 3.00 371.67 2938.77
   01:47:06.931.31-Jan-2020 3902.01 5996.33 75.86 3.00 371.87 2938.77
   01:47:07.131.31-Jan-2020 3902.01 5995.43 75.86 3.00 372.07 2938.77
   01:47:07.331.31-Jan-2020 3902.01 5995.43 75.86 3.00 372.27 2938.77
   01:47:07.531.31-Jan-2020 3902.01 5995.27 75.86 3.00 372.47 2938.77
   01:47:07.731.31-Jan-2020 3902.01 5997.55 75.86 3.00 372.67 2938.77
   01:47:07.931.31-Jan-2020 3902.01 5996.72 75.86 3.00 372.87 2938.77
   01:47:08.131.31-Jan-2020 3902.01 5995.96 75.86 3.00 373.07 2938.77
   01:47:08.331.31-Jan-2020 3902.01 5995.96 75.86 3.00 373.27 2938.77
   01:47:08.531.31-Jan-2020 3902.01 5995.40 75.86 3.00 373.47 2938.77
   01:47:08.731.31-Jan-2020 3902.01 5994.84 75.86 3.00 373.67 2938.77
   01:47:08.931.31-Jan-2020 3902.01 5995.14 75.86 3.00 373.87 2938.77
   01:47:09.131.31-Jan-2020 3902.01 5997.46 75.86 3.00 374.07 2938.77
   01:47:09.331.31-Jan-2020 3902.01 5997.46 75.86 3.00 374.27 2938.77
   01:47:09.531.31-Jan-2020 3902.01 5996.24 75.86 3.00 374.47 2938.77
   01:47:09.731.31-Jan-2020 3902.01 5994.66 75.86 3.00 374.67 2938.77
   01:47:09.931.31-Jan-2020 3902.01 5987.24 75.86 3.00 374.87 2938.77
   01:47:10.131.31-Jan-2020 3902.01 5995.25 75.86 3.00 375.07 2938.77
   01:47:10.331.31-Jan-2020 3902.01 5995.25 75.86 3.00 375.27 2938.77
   01:47:10.531.31-Jan-2020 3902.01 5996.59 75.86 3.00 375.47 2938.77
   01:47:10.731.31-Jan-2020 3902.01 5996.03 75.86 3.00 375.67 2938.77
   01:47:10.932.31-Jan-2020 3902.01 5995.69 75.86 3.00 375.87 2938.77
   01:47:11.132.31-Jan-2020 3902.01 5995.41 75.86 3.00 376.07 2938.77
   01:47:11.332.31-Jan-2020 3902.01 5995.41 75.86 3.00 376.27 2938.77
   01:47:11.532.31-Jan-2020 3902.01 5995.92 75.86 3.00 376.47 2938.77
   01:47:11.732.31-Jan-2020 3902.01 5996.31 75.86 3.00 376.67 2938.77
   01:47:11.932.31-Jan-2020 3902.01 5996.15 75.85 3.00 376.87 2938.77
   01:47:12.132.31-Jan-2020 3902.01 5996.02 75.85 3.00 377.07 2938.77
   01:47:12.332.31-Jan-2020 3902.01 5996.02 75.85 3.00 377.27 2938.77
   01:47:12.532.31-Jan-2020 3902.01 5994.59 75.85 3.00 377.47 2938.77
   01:47:12.732.31-Jan-2020 3902.01 5996.54 75.85 3.00 377.67 2938.77
   01:47:12.932.31-Jan-2020 3902.01 5997.57 75.85 3.00 377.87 2938.77
   01:47:13.132.31-Jan-2020 3902.01 5996.69 75.85 3.00 378.07 2938.77
   01:47:13.332.31-Jan-2020 3902.01 5996.69 75.85 3.00 378.27 2938.77
   01:47:13.532.31-Jan-2020 3902.01 5990.38 75.85 3.00 378.47 2938.77
   01:47:13.732.31-Jan-2020 3902.01 5994.17 75.85 3.00 378.67 2938.77
   01:47:13.932.31-Jan-2020 3902.01 5994.98 75.85 3.00 378.87 2938.77
   01:47:14.132.31-Jan-2020 3902.01 5996.10 75.85 3.00 379.07 2938.77
   01:47:14.332.31-Jan-2020 3902.01 5996.10 75.85 3.00 379.27 2938.77
   01:47:14.532.31-Jan-2020 3902.01 5991.80 75.85 3.00 379.47 2938.77
   01:47:14.732.31-Jan-2020 3902.01 5995.75 75.85 3.00 379.67 2938.77
   01:47:14.932.31-Jan-2020 3902.01 5995.58 75.85 3.00 379.87 2938.77
   01:47:15.132.31-Jan-2020 3902.01 5995.57 75.85 3.00 380.07 2938.77
   01:47:15.332.31-Jan-2020 3902.01 5995.57 75.85 3.00 380.27 2938.77
   01:47:15.532.31-Jan-2020 3902.01 5984.61 75.85 3.00 380.47 2938.77
   01:47:15.732.31-Jan-2020 3902.01 5994.17 75.85 3.00 380.67 2938.77
   01:47:15.932.31-Jan-2020 3902.01 5993.47 75.85 3.00 380.87 2938.77
   01:47:16.132.31-Jan-2020 3902.01 5994.71 75.85 3.00 381.07 2938.77
   01:47:16.332.31-Jan-2020 3902.01 5994.71 75.85 3.00 381.27 2938.77
   01:47:16.533.31-Jan-2020 3902.01 5996.08 75.85 3.00 381.47 2938.77
   01:47:16.733.31-Jan-2020 3902.01 5989.28 75.85 3.00 381.67 2938.77
   01:47:16.933.31-Jan-2020 3902.01 5989.52 75.85 3.00 381.87 2938.77
   01:47:17.133.31-Jan-2020 3902.01 5993.94 75.85 3.00 382.07 2938.77
   01:47:17.333.31-Jan-2020 3902.01 5993.94 75.85 3.00 382.27 2938.77
   01:47:17.533.31-Jan-2020 3902.01 5995.50 75.85 3.00 382.47 2938.77
   01:47:17.733.31-Jan-2020 3902.01 5995.00 75.85 3.00 382.67 2938.77
   01:47:17.933.31-Jan-2020 3902.01 5993.52 75.84 3.00 382.87 2938.77
   01:47:18.133.31-Jan-2020 3902.01 5986.23 75.84 3.00 383.07 2938.77
   01:47:18.333.31-Jan-2020 3902.01 5986.23 75.84 3.00 383.27 2938.77
   01:47:18.533.31-Jan-2020 3902.01 5996.46 75.84 3.00 383.47 2938.77
   01:47:18.733.31-Jan-2020 3902.01 5995.56 75.84 3.00 383.67 2938.77
   01:47:18.933.31-Jan-2020 3902.01 5994.57 75.84 3.00 383.87 2938.77
   01:47:19.133.31-Jan-2020 3902.01 5994.17 75.84 3.00 384.07 2938.77
   01:47:19.333.31-Jan-2020 3902.01 5994.17 75.84 3.00 384.27 2938.77
   01:47:19.533.31-Jan-2020 3902.01 5994.41 75.84 3.00 384.47 2938.77
   01:47:19.733.31-Jan-2020 3902.01 5996.26 75.84 3.00 384.67 2938.77
   01:47:19.933.31-Jan-2020 3902.01 5995.34 75.84 3.00 384.87 2938.77
   01:47:20.133.31-Jan-2020 3902.01 5995.42 75.84 3.00 385.07 2938.77
   01:47:20.333.31-Jan-2020 3902.01 5995.42 75.84 3.00 385.27 2938.77
   01:47:20.533.31-Jan-2020 3902.01 5994.08 75.84 3.00 385.47 2938.77
   01:47:20.733.31-Jan-2020 3902.01 5994.27 75.84 3.00 385.67 2938.77
   01:47:20.933.31-Jan-2020 3902.01 5996.45 75.84 3.00 385.87 2938.77
   01:47:21.133.31-Jan-2020 3902.01 5996.68 75.84 3.00 386.07 2938.77
   01:47:21.333.31-Jan-2020 3902.01 5996.68 75.84 3.00 386.27 2938.77
   01:47:21.533.31-Jan-2020 3902.01 5995.63 75.84 3.00 386.47 2938.77
   01:47:21.733.31-Jan-2020 3902.01 5985.48 75.84 3.00 386.67 2938.77
   01:47:21.934.31-Jan-2020 3902.01 5995.24 75.84 3.00 386.87 2938.77
   01:47:22.134.31-Jan-2020 3902.01 5995.86 75.84 3.00 387.07 2938.77
   01:47:22.334.31-Jan-2020 3902.01 5995.86 75.84 3.00 387.27 2938.77
   01:47:22.534.31-Jan-2020 3902.01 5996.42 75.84 3.00 387.47 2938.77
   01:47:22.734.31-Jan-2020 3902.01 5996.09 75.84 3.00 387.67 2938.77
   01:47:22.934.31-Jan-2020 3902.01 5996.13 75.84 3.00 387.87 2938.77
   01:47:23.134.31-Jan-2020 3902.01 5995.84 75.84 3.00 388.07 2938.77
   01:47:23.334.31-Jan-2020 3902.01 5995.84 75.84 3.00 388.27 2938.77
   01:47:23.534.31-Jan-2020 3902.01 5996.48 75.84 3.00 388.47 2938.77
   01:47:23.734.31-Jan-2020 3902.01 5996.47 75.83 3.00 388.67 2938.77
   01:47:23.934.31-Jan-2020 3902.01 5995.95 75.83 3.00 388.87 2938.77
