~Version Information
 VERS.                  2.0:   CWLS log ASCII Standard -VERSION 2.0
 WRAP.                   NO:   One line per depth step
~Well Information Block
#MNEM.UNIT     VALUE/NAME     DESCRIPTION
#---------     -----------    ---------------------------
 STRT.S             01:40:55 31-Jan-20: START TIME 01:40:55 31-Jan-20
 STOP.S             01:47:23 31-Jan-20: STOP TIME  01:47:23 31-Jan-20
 STEP.S                   0.00: STEP TIME
 NULL.                 -999.25: NULL VALUE
 DFWT.                        :  DIST FWL TEXT
 DFST.                        :  DIST FSL TEXT
 DMF .             Drill Floor:  DRILL MEAS FROM
 STIM.      09.30.00 26-Dec-19:  START TIME
 DATE.      08.00.00 20-Jan-20:  END TIME
 SPUD.               23-Nov-19:  SPUD DATE
 NREF.                    Grid:  NORTH REFERENCE
 HPTY.       Minimum Curvature:  HOLE POS TYPE
 DMOD.             Drill Model:  DRILL MOD DESC
 SVYD.                  Survey:  SURVEY DESC
 ILTD.               Lithology:  INTERP LTH DESC
 FTOP.          Formation Tops:  FORM TOPS DESC
 SON .        AZ-XX-0906192647:  JOB NUMBER
 WTYP.                Deviated:  WELL TYPE
 COMP.     BP Exploration (Caspian Sea) Ltd:  COMPANY
 BASE.              Azerbaijan:  LOGGING EQUIPMENT BASE LOCATION
 REGN.                 Eurasia:  REGION
 FLD .                     ACG:  FIELD NAME
 SRVC.              KCA Deutag:  CONTRACTOR
 MWDS.                    Baku:  MWD SHOP
 WELL.     A10 (Slot 20) - SCP:  WELL NAME
 JOBN.        AZ-XX-0906192647:  JOB TICKET NUMB
 RIG .                 Chirag1:  RIG NAME
 DCON.     Halliburton Sperry Drilling:  DIRECTNL CONTR
 UNIT.                     N/A:  LOGGING EQUIPMENT ID
 PDAT.          Mean Sea Level:  PERMANENT DATUM
 MDS .        Operator Entered:  MAG DATA SOURCE
 CTRY.              Azerbaijan:  COUNTRY NAME
 UWI .            /AZE00000090:  UNIQUE WELL IDENTIFIER
 API .            /AZE00000090:  API NUMBER
 CNTY.                        :  COUNTY
 PROV.                        :  PROVINCE
 STAT.                        :  STATE
 LOC .                        :  LOCATION
 LMF .             Drill Floor:  LOG MEASURED FROM
 TVDS.m                  36.60:  TVDSS CORRECTN
 LATI.deg                40.08:  LATITUDE
 LONG.deg                51.24:  LONGITUDE
 WHNS.m                  -7.94:  WELL HEAD N/S
 WHEW.m                   1.56:  WELL HEAD E/W
 UTMX.m              520429.26:  UTM X
 UTMY.m             4438973.87:  UTM Y
 DFWL.m                   0.00:  DISTANCE FWL
 DFSL.m                   0.00:  DISTANCE FSL
 SDEP.m                1455.00:  START DEPTH
 TDD .m                4047.51:  TOTAL DEPTH (DRILLER)
 VSDR.deg               112.75:  VERT SEC DIRECT
 GVFD.g                   1.00:  GRAVITY FIELD
 MFLD.nT              50261.00:  MAGNETIC FIELD
 MDIP.deg                59.52:  MAGNETIC DIP
 MDEC.deg                 6.42:  MAGNETIC DECL
 GRDC.deg                 0.17:  GRID CORRECTION
 AZTC.deg                 6.25:  AZM TOTAL CORR
 EPD .m                   0.00:  ELEVATION
 EGL .m                   0.00:  GROUND ELEVATION
 WDMS.m                 121.00:  WD ELEV
 APD .m                  36.60:  DEPTH ABOVE PD
 AGAP.m                  36.60:  AIR GAP
 VSEW.m                   1.56:  VERT SEC E/W
 VSNS.m                  -7.94:  VERT SEC N/S
 DEP .m                1140.01:  DEPTH
 EKB .m                  36.60:  KB ELEVATION
 EDF .m                  36.60:  DF ELEVATION
 TDL .m                 169.50:  TOTAL DEPTH (LOGGER)
 CSGD.m                3875.01:  CASING BOTTOM (DRILLER)
 CSGL.m                3875.01:  CASING BOTTOM (LOGGER)
 CSGS.in                  7.63:  CASING SIZE
 CSGW.lbpf               23.50:  CASING WEIGHT
 VSC .                       0:  VS TO CLOSURE
 MAGU.                 1849206:  MAGUTM CHECKSUM
~Parameter Information Block
#MNEM.UNIT       Value        Description
#---------     -----------    ---------------------------
 AV  .mps                 1.90:  Ann Velocity 
 AVMX.mps                 2.54:  Max Ann Veloc 
 AZIF.deg               137.03:  Azm, Final 
 BHAT.        Rotary Steerable:  BHA Type 
 BREV.rev             23610.00:  Rev Bit Total 
 BROT.°/30m               0.80:  Build Rotating 
 BS  .in                  6.50:  Bit Size 
 BTPL.psig              110.00:  Bit Press Loss 
 CABU.                     Yes:  Customer Abuse 
 COMM.                     šn:  Run Comments 1 
 TCS .hr                 70.51:  Time Ciculation Ended 
 CV  .mps                 1.41:  Crit Velocity 
 CVMX.mps                 1.42:  Max Crit Veloc 
 DD1 .         Intigam Rahimov:  Direct Drillr 1 
 DD2 .          Rashad Gojayev:  Direct Drillr 2 
 DDSV.               Geo-Pilot:  DD Service 
 DEFF.%                 100.00:  % Det Eff 
 DLRX.°/30m               1.44:  Dogleg Rot Max 
 DLSO.°/30m               0.00:  Dogleg Oriented 
 DLSX.°/30m               0.00:  Dogleg Str Max 
 DRET.      03.05.00 01-Feb-20:  Drill End Time 
 DRST.      15.50.00 28-Jan-20:  Drill Start Tim 
 DTIM.hr                 24.70:  Time Drilling 
 EDEP.m                4047.51:  End Depth 
 ENG1.           Eldar Hajiyev:  Engineer 1 
 ENG2.          Rasim Hashimov:  Engineer 2 
 ENG3.          Rustam Safarov:  Engineer 3 
 ETIM.      22.00.00 01-Feb-20:  End Time 
 FLOI.gpm               370.00:  Flow In 
 FLON.gpm               300.00:  Flow In Min 
 FLOS.cptm                0.00:  Fluid Loss 
 FLOX.gpm               400.00:  Flow In Max 
 FTRO.       Formation Presure:  FTWD Run Obj 
 HFLO.                      No:  High Flow 
 HPRE.                      No:  High Pressure 
 HTEM.                      No:  High Temp 
 HYDO.m                   2.50:  Hydro Offset 
 IFIN.deg                39.54:  Inc, Final 
 IMAX.deg                41.14:  Inc Max 
 IMIN.deg                39.81:  Inc Min 
 IMND.m                4005.21:  Inc Min Depth 
 IMXD.m                3948.42:  Inc Max Depth 
 JARR.                      No:  Jarring 
 LETM.      03.05.00 01-Feb-20:  Log End Time 
 LOST.hr                     0:  Lost Rig Time 
 LSTM.      15.50.00 28-Jan-20:  Log Start Time 
 MDCL.ppm             37500.00:  Mud Chlorides 
 MDES.     Inversion Oil/Synthetic:  Mud Desc 
 DFD .sg                  1.32:  Mud Density 
 MDMN.sg                  1.32:  Dens Mud Min 
 MDMX.sg                  1.32:  Dens Mud Max 
 MOIL.                      55:  Run Mud Oil % 
 MOWR.                   70:30:  Run Mud OWR 
 MSND.                       0:  Run Mud Sand % 
 MSOL.                      17:  Run Mud Solids% 
 DFV .spqt               80.00:  Mud Viscosity 
 MWOD.in                  4.75:  MWD Tool OD 
 MWSI.                      No:  Serv Intrp, MWD 
 OTIM.hr                121.28:  Time Operating 
 PCON.           Look Like New:  Pad Condition 
 PMAX.psia             6171.00:  Press Op, Max 
 PV  .cP                 30.00:  Mud PV 
 RUN .                     300:  Run Number 
 ROPA.m/hr                5.45:  ROP Avg 
 ROPN.m/hr                3.00:  ROP Min 
 ROPX.m/hr               15.00:  ROP Max 
 RPMA.rpm               130.00:  RPM Surface Avg 
 RPMN.rpm                80.00:  RPM Surface Min 
 RPMX.rpm               140.00:  RPM Surface Max 
 RRUN.                     300:  Rig Run Number 
 RTIM.hr                 13.50:  Time Reaming 
 SAZI.deg               133.93:  Azm, Start 
 SDEP.m                3878.01:  Start Depth 
 SIDD.                      No:  Serv Intrp, DD 
 SINC.deg                40.28:  Inc, Start 
 SPPA.psig             4983.00:  SPP Avg 
 SPPN.psig             4370.00:  SPP Min 
 SPPX.psig             5300.00:  SPP Max 
 STIM.      18.33.36 27-Jan-20:  Start Time 
 SVCS.                 DD, MWD:  Services 
 SVER.                    9.20:  Sperry Version 
 TDAT.m                 169.50:  Tot Depth Attmp 
 TDDF.                      No:  Trip for DD 
 TDLG.m                 169.50:  Tot Depth Loggd 
 TFF .                      No:  Trip for Fail 
 TQAA.f-kp               13.25:  Torque Abs Avg 
 TQAN.f-kp               12.00:  Torque Abs Min 
 TQAX.f-kp               14.00:  Torque Abs Max 
 TRRT.°/30m               0.70:  Turn Rotating 
 MRT .                     ADR:  Maximum Recorded Temperature 
 TTMX.degC               92.16:  Max Tool Temp 
 VS01.       AZ90598764G12V7D4:  Virtual Str1 SN 
 VS02.         AZ90571342R12C4:  Virtual Str2 SN 
 VS03.      AZ90580010N2L2X1C4:  Virtual Str3 SN 
 VS04.        AZ90522266O7X1C4:  Virtual Str4 SN 
 VS05.           AZ90598768F11:  Virtual Str5 SN 
 VS06.     AZ90580006XZ1W1X1C4:  Virtual Str6 SN 
 WBMN.klb                 8.00:  WOB Min 
 WITN.            Peter Wilson:  Customer Rep 
 WOBA.klb                 9.88:  WOB Avg 
 WOBX.klb                10.00:  WOB Max 
 YP  .lhf2               27.00:  Yield Point 
~Curve Information Block
#MNEM.UNIT                 API CODE     Curve Description
#---------               -----------    ---------------------------
 TIME.HHMMSS            00 000 000 000:  GT Time & Date
 GTDEPTH.m              00 000 000 000:  GT Depth
 GTPQH.psia             00 000 000 000:  GT HR Quartz Pressure
 GTTQ.degC              00 000 000 000:  GT Quartz Temperature
 GTTN.NONE              00 000 000 000:  GT Test Number
 GTET.sec               00 000 000 000:  GT Elapsed Test Time
 GTTVD.m                00 000 000 000:  GT True Vertical Depth
#Other Information
#
#WARRANTY: Halliburton will use its best efforts to furnish customers with 
#accurate information and interpretations that are part of, and incident to, the services 
#provided.  However, Halliburton cannot and does not warrant the accuracy 
#or correctness of such information and interpretations.  Under no circumstances should any 
#such information or interpretation be relied upon as the sole basis for any drilling, 
#completion, production, or financial decision or any procedure involving any risk to the 
#safety of any drilling venture, drilling rig or its crew or any other third party.  The 
#Customer has full responsibility for all drilling, completion and production operation.  
#Halliburton makes no representations or warranties, either expressed or 
#implied, including, but not limited to, the implied warranties of merchantability or fitness 
#for a particular purpose, with respect to the services rendered.  In no event will 
#Halliburton be liable for failure to obtain any particular results or for 
#any damages, including, but not limited to, indirect, special or consequential damages, 
#resulting from the use of any information or interpretation provided by Halliburton.
#
~A           TIME           GTDEPTH  GTPQH  GTTQ  GTTN  GTET   GTTVD  
# ...
   01:45:08.109.31-Jan-2020 3902.01 2975.21 76.03 3.00 253.05 2938.77
   01:45:08.309.31-Jan-2020 3902.01 2975.21 76.03 3.00 253.25 2938.77
   01:45:08.509.31-Jan-2020 3902.01 2977.10 76.03 3.00 253.45 2938.77
   01:45:08.709.31-Jan-2020 3902.01 2978.32 76.03 3.00 253.65 2938.77
   01:45:08.909.31-Jan-2020 3902.01 2978.96 76.03 3.00 253.85 2938.77
   01:45:09.109.31-Jan-2020 3902.01 2979.51 76.03 3.00 254.05 2938.77
   01:45:09.309.31-Jan-2020 3902.01 2979.51 76.03 3.00 254.25 2938.77
   01:45:09.510.31-Jan-2020 3902.01 2980.04 76.03 3.00 254.45 2938.77
   01:45:09.710.31-Jan-2020 3902.01 2980.16 76.03 3.00 254.65 2938.77
   01:45:09.910.31-Jan-2020 3902.01 2980.68 76.03 3.00 254.85 2938.77
   01:45:10.110.31-Jan-2020 3902.01 2980.85 76.03 3.00 255.05 2938.77
   01:45:10.310.31-Jan-2020 3902.01 2980.85 76.03 3.00 255.25 2938.77
   01:45:10.510.31-Jan-2020 3902.01 2980.84 76.03 3.00 255.45 2938.77
   01:45:10.710.31-Jan-2020 3902.01 2981.33 76.03 3.00 255.65 2938.77
   01:45:10.910.31-Jan-2020 3902.01 2981.44 76.03 3.00 255.85 2938.77
   01:45:11.110.31-Jan-2020 3902.01 2981.58 76.03 3.00 256.05 2938.77
   01:45:11.310.31-Jan-2020 3902.01 2981.58 76.03 3.00 256.25 2938.77
   01:45:11.510.31-Jan-2020 3902.01 2981.81 76.03 3.00 256.45 2938.77
   01:45:11.710.31-Jan-2020 3902.01 2981.77 76.03 3.00 256.65 2938.77
   01:45:11.910.31-Jan-2020 3902.01 2981.80 76.03 3.00 256.85 2938.77
   01:45:12.110.31-Jan-2020 3902.01 2981.85 76.03 3.00 257.05 2938.77
   01:45:12.310.31-Jan-2020 3902.01 2981.85 76.03 3.00 257.25 2938.77
   01:45:12.510.31-Jan-2020 3902.01 2982.13 76.03 3.00 257.45 2938.77
   01:45:12.710.31-Jan-2020 3902.01 2982.17 76.03 3.00 257.65 2938.77
   01:45:12.910.31-Jan-2020 3902.01 2982.19 76.02 3.00 257.85 2938.77
   01:45:13.110.31-Jan-2020 3902.01 2982.17 76.02 3.00 258.05 2938.77
   01:45:13.310.31-Jan-2020 3902.01 2982.17 76.02 3.00 258.25 2938.77
   01:45:13.510.31-Jan-2020 3902.01 2982.41 76.02 3.00 258.45 2938.77
   01:45:13.710.31-Jan-2020 3902.01 2982.41 76.02 3.00 258.65 2938.77
   01:45:13.910.31-Jan-2020 3902.01 2982.46 76.02 3.00 258.85 2938.77
   01:45:14.110.31-Jan-2020 3902.01 2982.53 76.02 3.00 259.05 2938.77
   01:45:14.310.31-Jan-2020 3902.01 2982.53 76.02 3.00 259.25 2938.77
   01:45:14.510.31-Jan-2020 3902.01 2982.69 76.02 3.00 259.45 2938.77
   01:45:14.710.31-Jan-2020 3902.01 2982.71 76.02 3.00 259.65 2938.77
   01:45:14.910.31-Jan-2020 3902.01 2982.76 76.02 3.00 259.85 2938.77
   01:45:15.111.31-Jan-2020 3902.01 2982.84 76.02 3.00 260.05 2938.77
   01:45:15.311.31-Jan-2020 3902.01 2982.84 76.02 3.00 260.25 2938.77
   01:45:15.511.31-Jan-2020 3902.01 2982.81 76.02 3.00 260.45 2938.77
   01:45:15.711.31-Jan-2020 3902.01 2982.80 76.02 3.00 260.65 2938.77
   01:45:15.911.31-Jan-2020 3902.01 2982.82 76.02 3.00 260.85 2938.77
   01:45:16.111.31-Jan-2020 3902.01 2982.86 76.02 3.00 261.05 2938.77
   01:45:16.311.31-Jan-2020 3902.01 2982.86 76.02 3.00 261.25 2938.77
   01:45:16.511.31-Jan-2020 3902.01 2982.92 76.02 3.00 261.45 2938.77
   01:45:16.711.31-Jan-2020 3902.01 2982.92 76.02 3.00 261.65 2938.77
   01:45:16.911.31-Jan-2020 3902.01 2982.95 76.02 3.00 261.85 2938.77
   01:45:17.111.31-Jan-2020 3902.01 2983.03 76.02 3.00 262.05 2938.77
   01:45:17.311.31-Jan-2020 3902.01 2983.03 76.02 3.00 262.25 2938.77
   01:45:17.511.31-Jan-2020 3902.01 2982.70 76.02 3.00 262.45 2938.77
   01:45:17.711.31-Jan-2020 3902.01 2983.18 76.02 3.00 262.65 2938.77
   01:45:17.911.31-Jan-2020 3902.01 2983.13 76.02 3.00 262.85 2938.77
   01:45:18.111.31-Jan-2020 3902.01 2983.17 76.02 3.00 263.05 2938.77
   01:45:18.311.31-Jan-2020 3902.01 2983.17 76.02 3.00 263.25 2938.77
   01:45:18.511.31-Jan-2020 3902.01 2982.79 76.02 3.00 263.45 2938.77
   01:45:18.711.31-Jan-2020 3902.01 2983.29 76.02 3.00 263.65 2938.77
   01:45:18.911.31-Jan-2020 3902.01 2983.29 76.02 3.00 263.85 2938.77
   01:45:19.111.31-Jan-2020 3902.01 2983.25 76.02 3.00 264.05 2938.77
   01:45:19.311.31-Jan-2020 3902.01 2983.25 76.02 3.00 264.25 2938.77
   01:45:19.511.31-Jan-2020 3902.01 2983.29 76.02 3.00 264.45 2938.77
   01:45:19.711.31-Jan-2020 3902.01 2982.86 76.02 3.00 264.65 2938.77
   01:45:19.911.31-Jan-2020 3902.01 2983.29 76.02 3.00 264.85 2938.77
   01:45:20.111.31-Jan-2020 3902.01 2983.27 76.02 3.00 265.05 2938.77
   01:45:20.311.31-Jan-2020 3902.01 2983.27 76.02 3.00 265.25 2938.77
   01:45:20.511.31-Jan-2020 3902.01 2983.35 76.02 3.00 265.45 2938.77
   01:45:20.712.31-Jan-2020 3902.01 2983.29 76.01 3.00 265.65 2938.77
   01:45:20.912.31-Jan-2020 3902.01 2983.27 76.01 3.00 265.85 2938.77
   01:45:21.112.31-Jan-2020 3902.01 2982.99 76.01 3.00 266.05 2938.77
   01:45:21.312.31-Jan-2020 3902.01 2982.99 76.01 3.00 266.25 2938.77
   01:45:21.512.31-Jan-2020 3902.01 2983.47 76.01 3.00 266.45 2938.77
   01:45:21.712.31-Jan-2020 3902.01 2983.38 76.01 3.00 266.65 2938.77
   01:45:21.912.31-Jan-2020 3902.01 2983.37 76.01 3.00 266.85 2938.77
   01:45:22.112.31-Jan-2020 3902.01 2983.45 76.01 3.00 267.05 2938.77
   01:45:22.312.31-Jan-2020 3902.01 2983.45 76.01 3.00 267.25 2938.77
   01:45:22.512.31-Jan-2020 3902.01 2983.60 76.01 3.00 267.45 2938.77
   01:45:22.712.31-Jan-2020 3902.01 2983.52 76.01 3.00 267.65 2938.77
   01:45:22.912.31-Jan-2020 3902.01 2983.50 76.01 3.00 267.85 2938.77
   01:45:23.112.31-Jan-2020 3902.01 2983.43 76.01 3.00 268.05 2938.77
   01:45:23.312.31-Jan-2020 3902.01 2983.43 76.01 3.00 268.25 2938.77
   01:45:23.512.31-Jan-2020 3902.01 2983.40 76.01 3.00 268.45 2938.77
   01:45:23.712.31-Jan-2020 3902.01 2983.34 76.01 3.00 268.65 2938.77
   01:45:23.912.31-Jan-2020 3902.01 2983.42 76.01 3.00 268.85 2938.77
   01:45:24.112.31-Jan-2020 3902.01 2983.48 76.01 3.00 269.05 2938.77
   01:45:24.312.31-Jan-2020 3902.01 2983.48 76.01 3.00 269.25 2938.77
   01:45:24.512.31-Jan-2020 3902.01 2983.38 76.01 3.00 269.45 2938.77
   01:45:24.712.31-Jan-2020 3902.01 2983.36 76.01 3.00 269.65 2938.77
   01:45:24.912.31-Jan-2020 3902.01 2983.38 76.01 3.00 269.85 2938.77
   01:45:25.112.31-Jan-2020 3902.01 2983.53 76.01 3.00 270.05 2938.77
   01:45:25.312.31-Jan-2020 3902.01 2983.53 76.01 3.00 270.25 2938.77
   01:45:25.512.31-Jan-2020 3902.01 2983.42 76.01 3.00 270.45 2938.77
   01:45:25.712.31-Jan-2020 3902.01 2983.40 76.01 3.00 270.65 2938.77
   01:45:25.912.31-Jan-2020 3902.01 2983.39 76.01 3.00 270.85 2938.77
   01:45:26.113.31-Jan-2020 3902.01 2983.31 76.01 3.00 271.05 2938.77
   01:45:26.313.31-Jan-2020 3902.01 2983.31 76.01 3.00 271.25 2938.77
   01:45:26.513.31-Jan-2020 3902.01 2983.56 76.00 3.00 271.45 2938.77
   01:45:26.713.31-Jan-2020 3902.01 2983.56 76.00 3.00 271.65 2938.77
   01:45:26.913.31-Jan-2020 3902.01 2983.52 76.00 3.00 271.85 2938.77
   01:45:27.113.31-Jan-2020 3902.01 2983.50 76.00 3.00 272.05 2938.77
   01:45:27.313.31-Jan-2020 3902.01 2983.50 76.00 3.00 272.25 2938.77
   01:45:27.513.31-Jan-2020 3902.01 2983.49 76.00 3.00 272.45 2938.77
   01:45:27.713.31-Jan-2020 3902.01 2983.47 76.00 3.00 272.65 2938.77
   01:45:27.913.31-Jan-2020 3902.01 2983.54 76.00 3.00 272.85 2938.77
   01:45:28.113.31-Jan-2020 3902.01 2983.48 76.00 3.00 273.05 2938.77
   01:45:28.313.31-Jan-2020 3902.01 2983.48 76.00 3.00 273.25 2938.77
   01:45:28.513.31-Jan-2020 3902.01 2983.44 76.00 3.00 273.45 2938.77
   01:45:28.713.31-Jan-2020 3902.01 2983.47 76.00 3.00 273.65 2938.77
   01:45:28.913.31-Jan-2020 3902.01 2983.55 76.00 3.00 273.85 2938.77
   01:45:29.113.31-Jan-2020 3902.01 2983.65 76.00 3.00 274.05 2938.77
   01:45:29.313.31-Jan-2020 3902.01 2983.65 76.00 3.00 274.25 2938.77
   01:45:29.513.31-Jan-2020 3902.01 2983.62 76.00 3.00 274.45 2938.77
   01:45:29.713.31-Jan-2020 3902.01 2983.60 76.00 3.00 274.65 2938.77
   01:45:29.913.31-Jan-2020 3902.01 2983.61 76.00 3.00 274.85 2938.77
   01:45:30.113.31-Jan-2020 3902.01 2983.69 76.00 3.00 275.05 2938.77
   01:45:30.313.31-Jan-2020 3902.01 2983.69 76.00 3.00 275.25 2938.77
   01:45:30.513.31-Jan-2020 3902.01 2983.69 76.00 3.00 275.45 2938.77
   01:45:30.713.31-Jan-2020 3902.01 2983.68 76.00 3.00 275.65 2938.77
   01:45:30.913.31-Jan-2020 3902.01 2983.65 76.00 3.00 275.85 2938.77
