~Version Information
 VERS.                  2.0:   CWLS log ASCII Standard -VERSION 2.0
 WRAP.                   NO:   One line per depth step
~Well Information Block
#MNEM.UNIT     VALUE/NAME     DESCRIPTION
#---------     -----------    ---------------------------
 STRT.S             04:12:25 01-Feb-20: START TIME 04:12:25 01-Feb-20
 STOP.S             04:20:20 01-Feb-20: STOP TIME  04:20:20 01-Feb-20
 STEP.S                   0.00: STEP TIME
 NULL.                 -999.25: NULL VALUE
 DFWT.                        :  DIST FWL TEXT
 DFST.                        :  DIST FSL TEXT
 DMF .             Drill Floor:  DRILL MEAS FROM
 STIM.      09.30.00 26-Dec-19:  START TIME
 DATE.      08.00.00 20-Jan-20:  END TIME
 SPUD.               23-Nov-19:  SPUD DATE
 NREF.                    Grid:  NORTH REFERENCE
 HPTY.       Minimum Curvature:  HOLE POS TYPE
 DMOD.             Drill Model:  DRILL MOD DESC
 SVYD.                  Survey:  SURVEY DESC
 ILTD.               Lithology:  INTERP LTH DESC
 FTOP.          Formation Tops:  FORM TOPS DESC
 SON .        AZ-XX-0906192647:  JOB NUMBER
 WTYP.                Deviated:  WELL TYPE
 COMP.     BP Exploration (Caspian Sea) Ltd:  COMPANY
 BASE.              Azerbaijan:  LOGGING EQUIPMENT BASE LOCATION
 REGN.                 Eurasia:  REGION
 FLD .                     ACG:  FIELD NAME
 SRVC.              KCA Deutag:  CONTRACTOR
 MWDS.                    Baku:  MWD SHOP
 WELL.     A10 (Slot 20) - SCP:  WELL NAME
 JOBN.        AZ-XX-0906192647:  JOB TICKET NUMB
 RIG .                 Chirag1:  RIG NAME
 DCON.     Halliburton Sperry Drilling:  DIRECTNL CONTR
 UNIT.                     N/A:  LOGGING EQUIPMENT ID
 PDAT.          Mean Sea Level:  PERMANENT DATUM
 MDS .        Operator Entered:  MAG DATA SOURCE
 CTRY.              Azerbaijan:  COUNTRY NAME
 UWI .            /AZE00000090:  UNIQUE WELL IDENTIFIER
 API .            /AZE00000090:  API NUMBER
 CNTY.                        :  COUNTY
 PROV.                        :  PROVINCE
 STAT.                        :  STATE
 LOC .                        :  LOCATION
 LMF .             Drill Floor:  LOG MEASURED FROM
 TVDS.m                  36.60:  TVDSS CORRECTN
 LATI.deg                40.08:  LATITUDE
 LONG.deg                51.24:  LONGITUDE
 WHNS.m                  -7.94:  WELL HEAD N/S
 WHEW.m                   1.56:  WELL HEAD E/W
 UTMX.m              520429.26:  UTM X
 UTMY.m             4438973.87:  UTM Y
 DFWL.m                   0.00:  DISTANCE FWL
 DFSL.m                   0.00:  DISTANCE FSL
 SDEP.m                1455.00:  START DEPTH
 TDD .m                4047.51:  TOTAL DEPTH (DRILLER)
 VSDR.deg               112.75:  VERT SEC DIRECT
 GVFD.g                   1.00:  GRAVITY FIELD
 MFLD.nT              50261.00:  MAGNETIC FIELD
 MDIP.deg                59.52:  MAGNETIC DIP
 MDEC.deg                 6.42:  MAGNETIC DECL
 GRDC.deg                 0.17:  GRID CORRECTION
 AZTC.deg                 6.25:  AZM TOTAL CORR
 EPD .m                   0.00:  ELEVATION
 EGL .m                   0.00:  GROUND ELEVATION
 WDMS.m                 121.00:  WD ELEV
 APD .m                  36.60:  DEPTH ABOVE PD
 AGAP.m                  36.60:  AIR GAP
 VSEW.m                   1.56:  VERT SEC E/W
 VSNS.m                  -7.94:  VERT SEC N/S
 DEP .m                1140.01:  DEPTH
 EKB .m                  36.60:  KB ELEVATION
 EDF .m                  36.60:  DF ELEVATION
 TDL .m                 169.50:  TOTAL DEPTH (LOGGER)
 CSGD.m                3875.01:  CASING BOTTOM (DRILLER)
 CSGL.m                3875.01:  CASING BOTTOM (LOGGER)
 CSGS.in                  7.63:  CASING SIZE
 CSGW.lbpf               23.50:  CASING WEIGHT
 VSC .                       0:  VS TO CLOSURE
 MAGU.                 1849206:  MAGUTM CHECKSUM
~Parameter Information Block
#MNEM.UNIT       Value        Description
#---------     -----------    ---------------------------
 AV  .mps                 1.90:  Ann Velocity 
 AVMX.mps                 2.54:  Max Ann Veloc 
 AZIF.deg               137.03:  Azm, Final 
 BHAT.        Rotary Steerable:  BHA Type 
 BREV.rev             23610.00:  Rev Bit Total 
 BROT.°/30m               0.80:  Build Rotating 
 BS  .in                  6.50:  Bit Size 
 BTPL.psig              110.00:  Bit Press Loss 
 CABU.                     Yes:  Customer Abuse 
 TCS .hr                 70.51:  Time Ciculation Ended 
 CV  .mps                 1.41:  Crit Velocity 
 CVMX.mps                 1.42:  Max Crit Veloc 
 DD1 .         Intigam Rahimov:  Direct Drillr 1 
 DD2 .          Rashad Gojayev:  Direct Drillr 2 
 DDSV.               Geo-Pilot:  DD Service 
 DEFF.%                 100.00:  % Det Eff 
 DLRX.°/30m               1.44:  Dogleg Rot Max 
 DLSO.°/30m               0.00:  Dogleg Oriented 
 DLSX.°/30m               0.00:  Dogleg Str Max 
 DRET.      03.05.00 01-Feb-20:  Drill End Time 
 DRST.      15.50.00 28-Jan-20:  Drill Start Tim 
 DTIM.hr                 24.70:  Time Drilling 
 EDEP.m                4047.51:  End Depth 
 ENG1.           Eldar Hajiyev:  Engineer 1 
 ENG2.          Rasim Hashimov:  Engineer 2 
 ENG3.          Rustam Safarov:  Engineer 3 
 ETIM.      22.00.00 01-Feb-20:  End Time 
 FLOI.gpm               370.00:  Flow In 
 FLON.gpm               300.00:  Flow In Min 
 FLOS.cptm                0.00:  Fluid Loss 
 FLOX.gpm               400.00:  Flow In Max 
 FTRO.       Formation Presure:  FTWD Run Obj 
 HFLO.                      No:  High Flow 
 HPRE.                      No:  High Pressure 
 HTEM.                      No:  High Temp 
 HYDO.m                   2.50:  Hydro Offset 
 IFIN.deg                39.54:  Inc, Final 
 IMAX.deg                41.14:  Inc Max 
 IMIN.deg                39.81:  Inc Min 
 IMND.m                4005.21:  Inc Min Depth 
 IMXD.m                3948.42:  Inc Max Depth 
 JARR.                      No:  Jarring 
 LETM.      03.05.00 01-Feb-20:  Log End Time 
 LOST.hr                     0:  Lost Rig Time 
 LSTM.      15.50.00 28-Jan-20:  Log Start Time 
 MDCL.ppm             37500.00:  Mud Chlorides 
 MDES.     Inversion Oil/Synthetic:  Mud Desc 
 DFD .sg                  1.32:  Mud Density 
 MDMN.sg                  1.32:  Dens Mud Min 
 MDMX.sg                  1.32:  Dens Mud Max 
 MOIL.                      55:  Run Mud Oil % 
 MOWR.                   70:30:  Run Mud OWR 
 MSND.                       0:  Run Mud Sand % 
 MSOL.                      17:  Run Mud Solids% 
 DFV .spqt               80.00:  Mud Viscosity 
 MWOD.in                  4.75:  MWD Tool OD 
 MWSI.                      No:  Serv Intrp, MWD 
 OTIM.hr                121.28:  Time Operating 
 PCON.           Look Like New:  Pad Condition 
 PMAX.psia             6171.00:  Press Op, Max 
 PV  .cP                 30.00:  Mud PV 
 RUN .                     300:  Run Number 
 ROPA.m/hr                5.45:  ROP Avg 
 ROPN.m/hr                3.00:  ROP Min 
 ROPX.m/hr               15.00:  ROP Max 
 RPMA.rpm               130.00:  RPM Surface Avg 
 RPMN.rpm                80.00:  RPM Surface Min 
 RPMX.rpm               140.00:  RPM Surface Max 
 RRUN.                     300:  Rig Run Number 
 RTIM.hr                 13.50:  Time Reaming 
 SAZI.deg               133.93:  Azm, Start 
 SDEP.m                3878.01:  Start Depth 
 SIDD.                      No:  Serv Intrp, DD 
 SINC.deg                40.28:  Inc, Start 
 SPPA.psig             4983.00:  SPP Avg 
 SPPN.psig             4370.00:  SPP Min 
 SPPX.psig             5300.00:  SPP Max 
 STIM.      18.33.36 27-Jan-20:  Start Time 
 SVCS.                 DD, MWD:  Services 
 SVER.                    9.20:  Sperry Version 
 TDAT.m                 169.50:  Tot Depth Attmp 
 TDDF.                      No:  Trip for DD 
 TDLG.m                 169.50:  Tot Depth Loggd 
 TFF .                      No:  Trip for Fail 
 TQAA.f-kp               13.25:  Torque Abs Avg 
 TQAN.f-kp               12.00:  Torque Abs Min 
 TQAX.f-kp               14.00:  Torque Abs Max 
 TRRT.°/30m               0.70:  Turn Rotating 
 MRT .                     ADR:  Maximum Recorded Temperature 
 TTMX.degC               92.16:  Max Tool Temp 
 VS01.       AZ90598764G12V7D4:  Virtual Str1 SN 
 VS02.         AZ90571342R12C4:  Virtual Str2 SN 
 VS03.      AZ90580010N2L2X1C4:  Virtual Str3 SN 
 VS04.        AZ90522266O7X1C4:  Virtual Str4 SN 
 VS05.           AZ90598768F11:  Virtual Str5 SN 
 VS06.     AZ90580006XZ1W1X1C4:  Virtual Str6 SN 
 WBMN.klb                 8.00:  WOB Min 
 WITN.            Peter Wilson:  Customer Rep 
 WOBA.klb                 9.88:  WOB Avg 
 WOBX.klb                10.00:  WOB Max 
 YP  .lhf2               27.00:  Yield Point 
~Curve Information Block
#MNEM.UNIT                 API CODE     Curve Description
#---------               -----------    ---------------------------
 TIME.HHMMSS            00 000 000 000:  GT Time & Date
 GTDEPTH.m              00 000 000 000:  GT Depth
 GTPQH.psia             00 000 000 000:  GT HR Quartz Pressure
 GTTQ.degC              00 000 000 000:  GT Quartz Temperature
 GTTN.NONE              00 000 000 000:  GT Test Number
 GTET.sec               00 000 000 000:  GT Elapsed Test Time
 GTTVD.m                00 000 000 000:  GT True Vertical Depth
#Other Information
#
#WARRANTY: Halliburton will use its best efforts to furnish customers with 
#accurate information and interpretations that are part of, and incident to, the services 
#provided.  However, Halliburton cannot and does not warrant the accuracy 
#or correctness of such information and interpretations.  Under no circumstances should any 
#such information or interpretation be relied upon as the sole basis for any drilling, 
#completion, production, or financial decision or any procedure involving any risk to the 
#safety of any drilling venture, drilling rig or its crew or any other third party.  The 
#Customer has full responsibility for all drilling, completion and production operation.  
#Halliburton makes no representations or warranties, either expressed or 
#implied, including, but not limited to, the implied warranties of merchantability or fitness 
#for a particular purpose, with respect to the services rendered.  In no event will 
#Halliburton be liable for failure to obtain any particular results or for 
#any damages, including, but not limited to, indirect, special or consequential damages, 
#resulting from the use of any information or interpretation provided by Halliburton.
#
~A           TIME           GTDEPTH  GTPQH  GTTQ  GTTN   GTET   GTTVD  
# ...
   04:18:05.621.01-Feb-2020 3998.51 3148.67 84.78 12.00 340.19 3011.77
   04:18:05.821.01-Feb-2020 3998.51 3148.67 84.78 12.00 340.39 3011.77
   04:18:06.022.01-Feb-2020 3998.51 3148.68 84.78 12.00 340.59 3011.77
   04:18:06.223.01-Feb-2020 3998.51 3148.42 84.78 12.00 340.79 3011.77
   04:18:06.423.01-Feb-2020 3998.51 3148.67 84.78 12.00 340.99 3011.77
   04:18:06.624.01-Feb-2020 3998.51 3148.78 84.78 12.00 341.19 3011.77
   04:18:06.825.01-Feb-2020 3998.51 3148.78 84.78 12.00 341.39 3011.77
   04:18:07.025.01-Feb-2020 3998.51 3148.77 84.78 12.00 341.59 3011.77
   04:18:07.226.01-Feb-2020 3998.51 3148.67 84.78 12.00 341.80 3011.77
   04:18:07.427.01-Feb-2020 3998.51 3148.67 84.78 12.00 342.00 3011.77
   04:18:07.628.01-Feb-2020 3998.51 3148.71 84.78 12.00 342.20 3011.77
   04:18:07.828.01-Feb-2020 3998.51 3148.71 84.78 12.00 342.40 3011.77
   04:18:08.029.01-Feb-2020 3998.51 3148.69 84.78 12.00 342.60 3011.77
   04:18:08.230.01-Feb-2020 3998.51 3148.69 84.78 12.00 342.80 3011.77
   04:18:08.430.01-Feb-2020 3998.51 3148.62 84.78 12.00 343.00 3011.77
   04:18:08.631.01-Feb-2020 3998.51 3148.72 84.78 12.00 343.20 3011.77
   04:18:08.832.01-Feb-2020 3998.51 3148.72 84.78 12.00 343.40 3011.77
   04:18:09.032.01-Feb-2020 3998.51 3148.62 84.77 12.00 343.60 3011.77
   04:18:09.233.01-Feb-2020 3998.51 3148.76 84.77 12.00 343.80 3011.77
   04:18:09.434.01-Feb-2020 3998.51 3148.60 84.77 12.00 344.00 3011.77
   04:18:09.635.01-Feb-2020 3998.51 3148.65 84.77 12.00 344.20 3011.77
   04:18:09.835.01-Feb-2020 3998.51 3148.65 84.77 12.00 344.40 3011.77
   04:18:10.036.01-Feb-2020 3998.51 3148.80 84.77 12.00 344.60 3011.77
   04:18:10.237.01-Feb-2020 3998.51 3148.64 84.77 12.00 344.81 3011.77
   04:18:10.437.01-Feb-2020 3998.51 3148.80 84.77 12.00 345.01 3011.77
   04:18:10.638.01-Feb-2020 3998.51 3148.67 84.77 12.00 345.21 3011.77
   04:18:10.839.01-Feb-2020 3998.51 3148.67 84.77 12.00 345.41 3011.77
   04:18:11.040.01-Feb-2020 3998.51 3148.68 84.77 12.00 345.61 3011.77
   04:18:11.240.01-Feb-2020 3998.51 3148.71 84.77 12.00 345.81 3011.77
   04:18:11.441.01-Feb-2020 3998.51 3148.78 84.77 12.00 346.01 3011.77
   04:18:11.642.01-Feb-2020 3998.51 3148.62 84.77 12.00 346.21 3011.77
   04:18:11.842.01-Feb-2020 3998.51 3148.62 84.77 12.00 346.41 3011.77
   04:18:12.043.01-Feb-2020 3998.51 3148.75 84.77 12.00 346.61 3011.77
   04:18:12.244.01-Feb-2020 3998.51 3148.63 84.77 12.00 346.81 3011.77
   04:18:12.444.01-Feb-2020 3998.51 3148.70 84.77 12.00 347.01 3011.77
   04:18:12.645.01-Feb-2020 3998.51 3148.67 84.77 12.00 347.21 3011.77
   04:18:12.846.01-Feb-2020 3998.51 3148.67 84.77 12.00 347.41 3011.77
   04:18:13.047.01-Feb-2020 3998.51 3148.77 84.77 12.00 347.62 3011.77
   04:18:13.247.01-Feb-2020 3998.51 3148.54 84.76 12.00 347.82 3011.77
   04:18:13.448.01-Feb-2020 3998.51 3148.68 84.76 12.00 348.02 3011.77
   04:18:13.649.01-Feb-2020 3998.51 3148.84 84.76 12.00 348.22 3011.77
   04:18:13.849.01-Feb-2020 3998.51 3148.84 84.76 12.00 348.42 3011.77
   04:18:14.050.01-Feb-2020 3998.51 3148.76 84.76 12.00 348.62 3011.77
   04:18:14.251.01-Feb-2020 3998.51 3148.58 84.76 12.00 348.82 3011.77
   04:18:14.451.01-Feb-2020 3998.51 3148.66 84.76 12.00 349.02 3011.77
   04:18:14.652.01-Feb-2020 3998.51 3148.87 84.76 12.00 349.22 3011.77
   04:18:14.853.01-Feb-2020 3998.51 3148.87 84.76 12.00 349.42 3011.77
   04:18:15.054.01-Feb-2020 3998.51 3148.87 84.76 12.00 349.62 3011.77
   04:18:15.254.01-Feb-2020 3998.51 3148.94 84.76 12.00 349.82 3011.77
   04:18:15.455.01-Feb-2020 3998.51 3148.69 84.76 12.00 350.02 3011.77
   04:18:15.656.01-Feb-2020 3998.51 3148.79 84.76 12.00 350.22 3011.77
   04:18:15.856.01-Feb-2020 3998.51 3148.79 84.76 12.00 350.43 3011.77
   04:18:16.057.01-Feb-2020 3998.51 3148.74 84.76 12.00 350.63 3011.77
   04:18:16.258.01-Feb-2020 3998.51 3148.82 84.76 12.00 350.83 3011.77
   04:18:16.458.01-Feb-2020 3998.51 3148.64 84.76 12.00 351.03 3011.77
   04:18:16.659.01-Feb-2020 3998.51 3148.66 84.76 12.00 351.23 3011.77
   04:18:16.860.01-Feb-2020 3998.51 3148.66 84.76 12.00 351.43 3011.77
   04:18:17.061.01-Feb-2020 3998.51 3148.77 84.76 12.00 351.63 3011.77
   04:18:17.261.01-Feb-2020 3998.51 3148.81 84.76 12.00 351.83 3011.77
   04:18:17.462.01-Feb-2020 3998.51 3148.75 84.76 12.00 352.03 3011.77
   04:18:17.663.01-Feb-2020 3998.51 3148.69 84.76 12.00 352.23 3011.77
   04:18:17.863.01-Feb-2020 3998.51 3148.69 84.76 12.00 352.43 3011.77
   04:18:18.064.01-Feb-2020 3998.51 3148.72 84.75 12.00 352.63 3011.77
   04:18:18.265.01-Feb-2020 3998.51 3148.93 84.75 12.00 352.83 3011.77
   04:18:18.465.01-Feb-2020 3998.51 3148.79 84.75 12.00 353.03 3011.77
   04:18:18.666.01-Feb-2020 3998.51 3148.81 84.75 12.00 353.24 3011.77
   04:18:18.867.01-Feb-2020 3998.51 3148.81 84.75 12.00 353.44 3011.77
   04:18:19.068.01-Feb-2020 3998.51 3148.72 84.75 12.00 353.64 3011.77
   04:18:19.268.01-Feb-2020 3998.51 3148.77 84.75 12.00 353.84 3011.77
   04:18:19.469.01-Feb-2020 3998.51 3148.78 84.75 12.00 354.04 3011.77
   04:18:19.670.01-Feb-2020 3998.51 3148.72 84.75 12.00 354.24 3011.77
   04:18:19.870.01-Feb-2020 3998.51 3148.72 84.75 12.00 354.44 3011.77
   04:18:20.071.01-Feb-2020 3998.51 3148.74 84.75 12.00 354.64 3011.77
   04:18:20.272.01-Feb-2020 3998.51 3148.72 84.75 12.00 354.84 3011.77
   04:18:20.472.01-Feb-2020 3998.51 3148.75 84.75 12.00 355.04 3011.77
   04:18:20.673.01-Feb-2020 3998.51 3148.71 84.75 12.00 355.24 3011.77
   04:18:20.874.01-Feb-2020 3998.51 3148.71 84.75 12.00 355.44 3011.77
   04:18:21.075.01-Feb-2020 3998.51 3148.78 84.75 12.00 355.64 3011.77
   04:18:21.275.01-Feb-2020 3998.51 3148.71 84.75 12.00 355.84 3011.77
   04:18:21.476.01-Feb-2020 3998.51 3148.48 84.75 12.00 356.04 3011.77
   04:18:21.677.01-Feb-2020 3998.51 3148.95 84.75 12.00 356.25 3011.77
   04:18:21.877.01-Feb-2020 3998.51 3148.95 84.75 12.00 356.45 3011.77
   04:18:22.078.01-Feb-2020 3998.51 3148.86 84.74 12.00 356.65 3011.77
   04:18:22.279.01-Feb-2020 3998.51 3148.79 84.74 12.00 356.85 3011.77
   04:18:22.480.01-Feb-2020 3998.51 3148.76 84.74 12.00 357.05 3011.77
   04:18:22.680.01-Feb-2020 3998.51 3148.84 84.74 12.00 357.25 3011.77
   04:18:22.881.01-Feb-2020 3998.51 3148.84 84.74 12.00 357.45 3011.77
   04:18:23.082.01-Feb-2020 3998.51 3148.77 84.74 12.00 357.65 3011.77
   04:18:23.282.01-Feb-2020 3998.51 3148.81 84.74 12.00 357.85 3011.77
   04:18:23.483.01-Feb-2020 3998.51 3148.71 84.74 12.00 358.05 3011.77
   04:18:23.684.01-Feb-2020 3998.51 3148.80 84.74 12.00 358.25 3011.77
   04:18:23.884.01-Feb-2020 3998.51 3148.80 84.74 12.00 358.45 3011.77
   04:18:24.085.01-Feb-2020 3998.51 3148.71 84.74 12.00 358.65 3011.77
   04:18:24.286.01-Feb-2020 3998.51 3148.79 84.74 12.00 358.85 3011.77
   04:18:24.487.01-Feb-2020 3998.51 3148.75 84.74 12.00 359.06 3011.77
   04:18:24.687.01-Feb-2020 3998.51 3148.60 84.74 12.00 359.26 3011.77
   04:18:24.888.01-Feb-2020 3998.51 3148.60 84.74 12.00 359.46 3011.77
   04:18:25.089.01-Feb-2020 3998.51 3148.60 84.74 12.00 359.66 3011.77
   04:18:25.289.01-Feb-2020 3998.51 3148.88 84.74 12.00 359.86 3011.77
   04:18:25.490.01-Feb-2020 3998.51 3148.83 84.74 12.00 360.06 3011.77
   04:18:25.691.01-Feb-2020 3998.51 3148.66 84.74 12.00 360.26 3011.77
   04:18:25.891.01-Feb-2020 3998.51 3148.66 84.74 12.00 360.46 3011.77
   04:18:26.092.01-Feb-2020 3998.51 3148.73 84.74 12.00 360.66 3011.77
   04:18:26.293.01-Feb-2020 3998.51 3148.87 84.74 12.00 360.86 3011.77
   04:18:26.494.01-Feb-2020 3998.51 3148.88 84.73 12.00 361.06 3011.77
   04:18:26.694.01-Feb-2020 3998.51 3148.51 84.73 12.00 361.26 3011.77
   04:18:26.895.01-Feb-2020 3998.51 3148.51 84.73 12.00 361.46 3011.77
   04:18:27.096.01-Feb-2020 3998.51 3148.87 84.73 12.00 361.66 3011.77
   04:18:27.296.01-Feb-2020 3998.51 3148.78 84.73 12.00 361.87 3011.77
   04:18:27.497.01-Feb-2020 3998.51 3148.83 84.73 12.00 362.07 3011.77
   04:18:27.698.01-Feb-2020 3998.51 3148.85 84.73 12.00 362.27 3011.77
   04:18:27.898.01-Feb-2020 3998.51 3148.85 84.73 12.00 362.47 3011.77
   04:18:28.099.01-Feb-2020 3998.51 3148.83 84.73 12.00 362.67 3011.77
