~Version Information
 VERS.                  2.0:   CWLS log ASCII Standard -VERSION 2.0
 WRAP.                   NO:   One line per depth step
~Well Information Block
#MNEM.UNIT     VALUE/NAME     DESCRIPTION
#---------     -----------    ---------------------------
 STRT.S             00:13:57 01-Feb-20: START TIME 00:13:57 01-Feb-20
 STOP.S             00:20:28 01-Feb-20: STOP TIME  00:20:28 01-Feb-20
 STEP.S                   0.00: STEP TIME
 NULL.                 -999.25: NULL VALUE
 DFWT.                        :  DIST FWL TEXT
 DFST.                        :  DIST FSL TEXT
 DMF .             Drill Floor:  DRILL MEAS FROM
 STIM.      09.30.00 26-Dec-19:  START TIME
 DATE.      08.00.00 20-Jan-20:  END TIME
 SPUD.               23-Nov-19:  SPUD DATE
 NREF.                    Grid:  NORTH REFERENCE
 HPTY.       Minimum Curvature:  HOLE POS TYPE
 DMOD.             Drill Model:  DRILL MOD DESC
 SVYD.                  Survey:  SURVEY DESC
 ILTD.               Lithology:  INTERP LTH DESC
 FTOP.          Formation Tops:  FORM TOPS DESC
 SON .        AZ-XX-0906192647:  JOB NUMBER
 WTYP.                Deviated:  WELL TYPE
 COMP.     BP Exploration (Caspian Sea) Ltd:  COMPANY
 BASE.              Azerbaijan:  LOGGING EQUIPMENT BASE LOCATION
 REGN.                 Eurasia:  REGION
 FLD .                     ACG:  FIELD NAME
 SRVC.              KCA Deutag:  CONTRACTOR
 MWDS.                    Baku:  MWD SHOP
 WELL.     A10 (Slot 20) - SCP:  WELL NAME
 JOBN.        AZ-XX-0906192647:  JOB TICKET NUMB
 RIG .                 Chirag1:  RIG NAME
 DCON.     Halliburton Sperry Drilling:  DIRECTNL CONTR
 UNIT.                     N/A:  LOGGING EQUIPMENT ID
 PDAT.          Mean Sea Level:  PERMANENT DATUM
 MDS .        Operator Entered:  MAG DATA SOURCE
 CTRY.              Azerbaijan:  COUNTRY NAME
 UWI .            /AZE00000090:  UNIQUE WELL IDENTIFIER
 API .            /AZE00000090:  API NUMBER
 CNTY.                        :  COUNTY
 PROV.                        :  PROVINCE
 STAT.                        :  STATE
 LOC .                        :  LOCATION
 LMF .             Drill Floor:  LOG MEASURED FROM
 TVDS.m                  36.60:  TVDSS CORRECTN
 LATI.deg                40.08:  LATITUDE
 LONG.deg                51.24:  LONGITUDE
 WHNS.m                  -7.94:  WELL HEAD N/S
 WHEW.m                   1.56:  WELL HEAD E/W
 UTMX.m              520429.26:  UTM X
 UTMY.m             4438973.87:  UTM Y
 DFWL.m                   0.00:  DISTANCE FWL
 DFSL.m                   0.00:  DISTANCE FSL
 SDEP.m                1455.00:  START DEPTH
 TDD .m                4047.51:  TOTAL DEPTH (DRILLER)
 VSDR.deg               112.75:  VERT SEC DIRECT
 GVFD.g                   1.00:  GRAVITY FIELD
 MFLD.nT              50261.00:  MAGNETIC FIELD
 MDIP.deg                59.52:  MAGNETIC DIP
 MDEC.deg                 6.42:  MAGNETIC DECL
 GRDC.deg                 0.17:  GRID CORRECTION
 AZTC.deg                 6.25:  AZM TOTAL CORR
 EPD .m                   0.00:  ELEVATION
 EGL .m                   0.00:  GROUND ELEVATION
 WDMS.m                 121.00:  WD ELEV
 APD .m                  36.60:  DEPTH ABOVE PD
 AGAP.m                  36.60:  AIR GAP
 VSEW.m                   1.56:  VERT SEC E/W
 VSNS.m                  -7.94:  VERT SEC N/S
 DEP .m                1140.01:  DEPTH
 EKB .m                  36.60:  KB ELEVATION
 EDF .m                  36.60:  DF ELEVATION
 TDL .m                 169.50:  TOTAL DEPTH (LOGGER)
 CSGD.m                3875.01:  CASING BOTTOM (DRILLER)
 CSGL.m                3875.01:  CASING BOTTOM (LOGGER)
 CSGS.in                  7.63:  CASING SIZE
 CSGW.lbpf               23.50:  CASING WEIGHT
 VSC .                       0:  VS TO CLOSURE
 MAGU.                 1849206:  MAGUTM CHECKSUM
~Parameter Information Block
#MNEM.UNIT       Value        Description
#---------     -----------    ---------------------------
 AV  .mps                 1.90:  Ann Velocity 
 AVMX.mps                 2.54:  Max Ann Veloc 
 AZIF.deg               137.03:  Azm, Final 
 BHAT.        Rotary Steerable:  BHA Type 
 BREV.rev             23610.00:  Rev Bit Total 
 BROT.°/30m               0.80:  Build Rotating 
 BS  .in                  6.50:  Bit Size 
 BTPL.psig              110.00:  Bit Press Loss 
 CABU.                     Yes:  Customer Abuse 
 TCS .hr                 70.51:  Time Ciculation Ended 
 CV  .mps                 1.41:  Crit Velocity 
 CVMX.mps                 1.42:  Max Crit Veloc 
 DD1 .         Intigam Rahimov:  Direct Drillr 1 
 DD2 .          Rashad Gojayev:  Direct Drillr 2 
 DDSV.               Geo-Pilot:  DD Service 
 DEFF.%                 100.00:  % Det Eff 
 DLRX.°/30m               1.44:  Dogleg Rot Max 
 DLSO.°/30m               0.00:  Dogleg Oriented 
 DLSX.°/30m               0.00:  Dogleg Str Max 
 DRET.      03.05.00 01-Feb-20:  Drill End Time 
 DRST.      15.50.00 28-Jan-20:  Drill Start Tim 
 DTIM.hr                 24.70:  Time Drilling 
 EDEP.m                4047.51:  End Depth 
 ENG1.           Eldar Hajiyev:  Engineer 1 
 ENG2.          Rasim Hashimov:  Engineer 2 
 ENG3.          Rustam Safarov:  Engineer 3 
 ETIM.      22.00.00 01-Feb-20:  End Time 
 FLOI.gpm               370.00:  Flow In 
 FLON.gpm               300.00:  Flow In Min 
 FLOS.cptm                0.00:  Fluid Loss 
 FLOX.gpm               400.00:  Flow In Max 
 FTRO.       Formation Presure:  FTWD Run Obj 
 HFLO.                      No:  High Flow 
 HPRE.                      No:  High Pressure 
 HTEM.                      No:  High Temp 
 HYDO.m                   2.50:  Hydro Offset 
 IFIN.deg                39.54:  Inc, Final 
 IMAX.deg                41.14:  Inc Max 
 IMIN.deg                39.81:  Inc Min 
 IMND.m                4005.21:  Inc Min Depth 
 IMXD.m                3948.42:  Inc Max Depth 
 JARR.                      No:  Jarring 
 LETM.      03.05.00 01-Feb-20:  Log End Time 
 LOST.hr                     0:  Lost Rig Time 
 LSTM.      15.50.00 28-Jan-20:  Log Start Time 
 MDCL.ppm             37500.00:  Mud Chlorides 
 MDES.     Inversion Oil/Synthetic:  Mud Desc 
 DFD .sg                  1.32:  Mud Density 
 MDMN.sg                  1.32:  Dens Mud Min 
 MDMX.sg                  1.32:  Dens Mud Max 
 MOIL.                      55:  Run Mud Oil % 
 MOWR.                   70:30:  Run Mud OWR 
 MSND.                       0:  Run Mud Sand % 
 MSOL.                      17:  Run Mud Solids% 
 DFV .spqt               80.00:  Mud Viscosity 
 MWOD.in                  4.75:  MWD Tool OD 
 MWSI.                      No:  Serv Intrp, MWD 
 OTIM.hr                121.28:  Time Operating 
 PCON.           Look Like New:  Pad Condition 
 PMAX.psia             6171.00:  Press Op, Max 
 PV  .cP                 30.00:  Mud PV 
 RUN .                     300:  Run Number 
 ROPA.m/hr                5.45:  ROP Avg 
 ROPN.m/hr                3.00:  ROP Min 
 ROPX.m/hr               15.00:  ROP Max 
 RPMA.rpm               130.00:  RPM Surface Avg 
 RPMN.rpm                80.00:  RPM Surface Min 
 RPMX.rpm               140.00:  RPM Surface Max 
 RRUN.                     300:  Rig Run Number 
 RTIM.hr                 13.50:  Time Reaming 
 SAZI.deg               133.93:  Azm, Start 
 SDEP.m                3878.01:  Start Depth 
 SIDD.                      No:  Serv Intrp, DD 
 SINC.deg                40.28:  Inc, Start 
 SPPA.psig             4983.00:  SPP Avg 
 SPPN.psig             4370.00:  SPP Min 
 SPPX.psig             5300.00:  SPP Max 
 STIM.      18.33.36 27-Jan-20:  Start Time 
 SVCS.                 DD, MWD:  Services 
 SVER.                    9.20:  Sperry Version 
 TDAT.m                 169.50:  Tot Depth Attmp 
 TDDF.                      No:  Trip for DD 
 TDLG.m                 169.50:  Tot Depth Loggd 
 TFF .                      No:  Trip for Fail 
 TQAA.f-kp               13.25:  Torque Abs Avg 
 TQAN.f-kp               12.00:  Torque Abs Min 
 TQAX.f-kp               14.00:  Torque Abs Max 
 TRRT.°/30m               0.70:  Turn Rotating 
 MRT .                     ADR:  Maximum Recorded Temperature 
 TTMX.degC               92.16:  Max Tool Temp 
 VS01.       AZ90598764G12V7D4:  Virtual Str1 SN 
 VS02.         AZ90571342R12C4:  Virtual Str2 SN 
 VS03.      AZ90580010N2L2X1C4:  Virtual Str3 SN 
 VS04.        AZ90522266O7X1C4:  Virtual Str4 SN 
 VS05.           AZ90598768F11:  Virtual Str5 SN 
 VS06.     AZ90580006XZ1W1X1C4:  Virtual Str6 SN 
 WBMN.klb                 8.00:  WOB Min 
 WITN.            Peter Wilson:  Customer Rep 
 WOBA.klb                 9.88:  WOB Avg 
 WOBX.klb                10.00:  WOB Max 
 YP  .lhf2               27.00:  Yield Point 
~Curve Information Block
#MNEM.UNIT                 API CODE     Curve Description
#---------               -----------    ---------------------------
 TIME.HHMMSS            00 000 000 000:  GT Time & Date
 GTDEPTH.m              00 000 000 000:  GT Depth
 GTPQH.psia             00 000 000 000:  GT HR Quartz Pressure
 GTTQ.degC              00 000 000 000:  GT Quartz Temperature
 GTTN.NONE              00 000 000 000:  GT Test Number
 GTET.sec               00 000 000 000:  GT Elapsed Test Time
 GTTVD.m                00 000 000 000:  GT True Vertical Depth
#Other Information
#
#WARRANTY: Halliburton will use its best efforts to furnish customers with 
#accurate information and interpretations that are part of, and incident to, the services 
#provided.  However, Halliburton cannot and does not warrant the accuracy 
#or correctness of such information and interpretations.  Under no circumstances should any 
#such information or interpretation be relied upon as the sole basis for any drilling, 
#completion, production, or financial decision or any procedure involving any risk to the 
#safety of any drilling venture, drilling rig or its crew or any other third party.  The 
#Customer has full responsibility for all drilling, completion and production operation.  
#Halliburton makes no representations or warranties, either expressed or 
#implied, including, but not limited to, the implied warranties of merchantability or fitness 
#for a particular purpose, with respect to the services rendered.  In no event will 
#Halliburton be liable for failure to obtain any particular results or for 
#any damages, including, but not limited to, indirect, special or consequential damages, 
#resulting from the use of any information or interpretation provided by Halliburton.
#
~A           TIME           GTDEPTH  GTPQH  GTTQ  GTTN   GTET   GTTVD  
# ...
   00:18:28.932.01-Feb-2020 3989.40 3218.63 86.71 10.00 271.22 3004.80
   00:18:29.132.01-Feb-2020 3989.40 3218.75 86.71 10.00 271.42 3004.80
   00:18:29.332.01-Feb-2020 3989.40 3218.71 86.71 10.00 271.62 3004.80
   00:18:29.532.01-Feb-2020 3989.40 3218.80 86.71 10.00 271.82 3004.80
   00:18:29.732.01-Feb-2020 3989.40 3219.02 86.71 10.00 272.02 3004.80
   00:18:29.932.01-Feb-2020 3989.40 3219.02 86.71 10.00 272.22 3004.80
   00:18:30.132.01-Feb-2020 3989.40 3218.93 86.71 10.00 272.42 3004.80
   00:18:30.332.01-Feb-2020 3989.40 3219.03 86.71 10.00 272.62 3004.80
   00:18:30.532.01-Feb-2020 3989.40 3219.07 86.71 10.00 272.82 3004.80
   00:18:30.732.01-Feb-2020 3989.40 3219.33 86.71 10.00 273.02 3004.80
   00:18:30.932.01-Feb-2020 3989.40 3219.33 86.71 10.00 273.22 3004.80
   00:18:31.132.01-Feb-2020 3989.40 3219.15 86.70 10.00 273.42 3004.80
   00:18:31.332.01-Feb-2020 3989.40 3219.37 86.70 10.00 273.62 3004.80
   00:18:31.532.01-Feb-2020 3989.40 3219.39 86.70 10.00 273.82 3004.80
   00:18:31.732.01-Feb-2020 3989.40 3219.46 86.70 10.00 274.02 3004.80
   00:18:31.932.01-Feb-2020 3989.40 3219.46 86.70 10.00 274.22 3004.80
   00:18:32.132.01-Feb-2020 3989.40 3219.61 86.70 10.00 274.42 3004.80
   00:18:32.332.01-Feb-2020 3989.40 3219.33 86.70 10.00 274.62 3004.80
   00:18:32.532.01-Feb-2020 3989.40 3219.53 86.70 10.00 274.82 3004.80
   00:18:32.732.01-Feb-2020 3989.40 3219.54 86.70 10.00 275.02 3004.80
   00:18:32.932.01-Feb-2020 3989.40 3219.54 86.70 10.00 275.22 3004.80
   00:18:33.132.01-Feb-2020 3989.40 3219.49 86.70 10.00 275.42 3004.80
   00:18:33.332.01-Feb-2020 3989.40 3219.68 86.70 10.00 275.62 3004.80
   00:18:33.532.01-Feb-2020 3989.40 3219.83 86.70 10.00 275.82 3004.80
   00:18:33.732.01-Feb-2020 3989.40 3219.83 86.70 10.00 276.02 3004.80
   00:18:33.932.01-Feb-2020 3989.40 3219.83 86.70 10.00 276.22 3004.80
   00:18:34.132.01-Feb-2020 3989.40 3220.03 86.70 10.00 276.42 3004.80
   00:18:34.332.01-Feb-2020 3989.40 3219.93 86.70 10.00 276.62 3004.80
   00:18:34.532.01-Feb-2020 3989.40 3219.92 86.69 10.00 276.82 3004.80
   00:18:34.732.01-Feb-2020 3989.40 3219.90 86.69 10.00 277.02 3004.80
   00:18:34.932.01-Feb-2020 3989.40 3219.90 86.69 10.00 277.22 3004.80
   00:18:35.132.01-Feb-2020 3989.40 3220.28 86.63 10.00 277.42 3004.80
   00:18:35.332.01-Feb-2020 3989.40 3220.19 86.69 10.00 277.62 3004.80
   00:18:35.532.01-Feb-2020 3989.40 3220.22 86.69 10.00 277.82 3004.80
   00:18:35.732.01-Feb-2020 3989.40 3220.25 86.69 10.00 278.02 3004.80
   00:18:35.932.01-Feb-2020 3989.40 3220.25 86.69 10.00 278.22 3004.80
   00:18:36.132.01-Feb-2020 3989.40 3220.34 86.69 10.00 278.42 3004.80
   00:18:36.332.01-Feb-2020 3989.40 3220.34 86.69 10.00 278.62 3004.80
   00:18:36.532.01-Feb-2020 3989.40 3220.28 86.69 10.00 278.82 3004.80
   00:18:36.732.01-Feb-2020 3989.40 3220.32 86.69 10.00 279.02 3004.80
   00:18:36.932.01-Feb-2020 3989.40 3220.32 86.69 10.00 279.22 3004.80
   00:18:37.132.01-Feb-2020 3989.40 3220.36 86.69 10.00 279.42 3004.80
   00:18:37.332.01-Feb-2020 3989.40 3220.40 86.69 10.00 279.62 3004.80
   00:18:37.532.01-Feb-2020 3989.40 3220.47 86.69 10.00 279.82 3004.80
   00:18:37.733.01-Feb-2020 3989.40 3220.51 86.69 10.00 280.02 3004.80
   00:18:37.933.01-Feb-2020 3989.40 3220.51 86.69 10.00 280.22 3004.80
   00:18:38.133.01-Feb-2020 3989.40 3220.33 86.68 10.00 280.42 3004.80
   00:18:38.333.01-Feb-2020 3989.40 3220.58 86.68 10.00 280.62 3004.80
   00:18:38.533.01-Feb-2020 3989.40 3220.66 86.68 10.00 280.82 3004.80
   00:18:38.733.01-Feb-2020 3989.40 3220.76 86.68 10.00 281.02 3004.80
   00:18:38.933.01-Feb-2020 3989.40 3220.76 86.68 10.00 281.22 3004.80
   00:18:39.133.01-Feb-2020 3989.40 3220.77 86.68 10.00 281.42 3004.80
   00:18:39.333.01-Feb-2020 3989.40 3220.84 86.68 10.00 281.62 3004.80
   00:18:39.533.01-Feb-2020 3989.40 3220.86 86.68 10.00 281.82 3004.80
   00:18:39.733.01-Feb-2020 3989.40 3220.91 86.68 10.00 282.02 3004.80
   00:18:39.933.01-Feb-2020 3989.40 3220.91 86.68 10.00 282.22 3004.80
   00:18:40.133.01-Feb-2020 3989.40 3220.90 86.68 10.00 282.42 3004.80
   00:18:40.333.01-Feb-2020 3989.40 3220.93 86.68 10.00 282.62 3004.80
   00:18:40.533.01-Feb-2020 3989.40 3220.86 86.68 10.00 282.82 3004.80
   00:18:40.733.01-Feb-2020 3989.40 3220.90 86.68 10.00 283.02 3004.80
   00:18:40.933.01-Feb-2020 3989.40 3220.90 86.68 10.00 283.22 3004.80
   00:18:41.133.01-Feb-2020 3989.40 3220.98 86.68 10.00 283.42 3004.80
   00:18:41.333.01-Feb-2020 3989.40 3221.02 86.68 10.00 283.62 3004.80
   00:18:41.533.01-Feb-2020 3989.40 3220.99 86.67 10.00 283.82 3004.80
   00:18:41.733.01-Feb-2020 3989.40 3220.95 86.67 10.00 284.02 3004.80
   00:18:41.933.01-Feb-2020 3989.40 3220.95 86.67 10.00 284.22 3004.80
   00:18:42.133.01-Feb-2020 3989.40 3221.15 86.67 10.00 284.43 3004.80
   00:18:42.333.01-Feb-2020 3989.40 3221.10 86.67 10.00 284.63 3004.80
   00:18:42.533.01-Feb-2020 3989.40 3221.08 86.67 10.00 284.83 3004.80
   00:18:42.733.01-Feb-2020 3989.40 3221.11 86.67 10.00 285.03 3004.80
   00:18:42.933.01-Feb-2020 3989.40 3221.11 86.67 10.00 285.23 3004.80
   00:18:43.133.01-Feb-2020 3989.40 3221.31 86.67 10.00 285.43 3004.80
   00:18:43.333.01-Feb-2020 3989.40 3221.29 86.67 10.00 285.63 3004.80
   00:18:43.533.01-Feb-2020 3989.40 3221.46 86.67 10.00 285.83 3004.80
   00:18:43.733.01-Feb-2020 3989.40 3221.18 86.67 10.00 286.03 3004.80
   00:18:43.933.01-Feb-2020 3989.40 3221.18 86.67 10.00 286.23 3004.80
   00:18:44.133.01-Feb-2020 3989.40 3221.43 86.67 10.00 286.43 3004.80
   00:18:44.333.01-Feb-2020 3989.40 3221.47 86.67 10.00 286.63 3004.80
   00:18:44.533.01-Feb-2020 3989.40 3221.57 86.67 10.00 286.83 3004.80
   00:18:44.733.01-Feb-2020 3989.40 3221.27 86.67 10.00 287.03 3004.80
   00:18:44.933.01-Feb-2020 3989.40 3221.27 86.67 10.00 287.23 3004.80
   00:18:45.133.01-Feb-2020 3989.40 3221.43 86.66 10.00 287.43 3004.80
   00:18:45.333.01-Feb-2020 3989.40 3221.56 86.66 10.00 287.63 3004.80
   00:18:45.533.01-Feb-2020 3989.40 3221.55 86.66 10.00 287.83 3004.80
   00:18:45.733.01-Feb-2020 3989.40 3221.59 86.66 10.00 288.03 3004.80
   00:18:45.933.01-Feb-2020 3989.40 3221.59 86.66 10.00 288.23 3004.80
   00:18:46.133.01-Feb-2020 3989.40 3221.40 86.66 10.00 288.43 3004.80
   00:18:46.333.01-Feb-2020 3989.40 3221.47 86.66 10.00 288.63 3004.80
   00:18:46.533.01-Feb-2020 3989.40 3221.63 86.66 10.00 288.83 3004.80
   00:18:46.733.01-Feb-2020 3989.40 3221.66 86.66 10.00 289.03 3004.80
   00:18:46.933.01-Feb-2020 3989.40 3221.66 86.66 10.00 289.23 3004.80
   00:18:47.133.01-Feb-2020 3989.40 3221.70 86.66 10.00 289.43 3004.80
   00:18:47.333.01-Feb-2020 3989.40 3221.67 86.66 10.00 289.63 3004.80
   00:18:47.533.01-Feb-2020 3989.40 3221.73 86.66 10.00 289.83 3004.80
   00:18:47.733.01-Feb-2020 3989.40 3221.69 86.66 10.00 290.03 3004.80
   00:18:47.933.01-Feb-2020 3989.40 3221.69 86.66 10.00 290.23 3004.80
   00:18:48.133.01-Feb-2020 3989.40 3221.76 86.66 10.00 290.43 3004.80
   00:18:48.333.01-Feb-2020 3989.40 3221.70 86.66 10.00 290.63 3004.80
   00:18:48.533.01-Feb-2020 3989.40 3221.75 86.65 10.00 290.83 3004.80
   00:18:48.733.01-Feb-2020 3989.40 3221.79 86.65 10.00 291.03 3004.80
   00:18:48.934.01-Feb-2020 3989.40 3221.79 86.65 10.00 291.23 3004.80
   00:18:49.134.01-Feb-2020 3989.40 3221.88 86.65 10.00 291.43 3004.80
   00:18:49.334.01-Feb-2020 3989.40 3221.86 86.65 10.00 291.63 3004.80
   00:18:49.534.01-Feb-2020 3989.40 3221.64 86.65 10.00 291.83 3004.80
   00:18:49.734.01-Feb-2020 3989.40 3221.83 86.65 10.00 292.03 3004.80
   00:18:49.934.01-Feb-2020 3989.40 3221.83 86.65 10.00 292.23 3004.80
   00:18:50.134.01-Feb-2020 3989.40 3221.91 86.65 10.00 292.43 3004.80
   00:18:50.334.01-Feb-2020 3989.40 3221.98 86.65 10.00 292.63 3004.80
   00:18:50.534.01-Feb-2020 3989.40 3221.90 86.65 10.00 292.83 3004.80
   00:18:50.734.01-Feb-2020 3989.40 3221.99 86.65 10.00 293.03 3004.80
   00:18:50.934.01-Feb-2020 3989.40 3221.99 86.65 10.00 293.23 3004.80
   00:18:51.134.01-Feb-2020 3989.40 3221.97 86.65 10.00 293.43 3004.80
   00:18:51.334.01-Feb-2020 3989.40 3222.09 86.65 10.00 293.63 3004.80
