~Version Information
 VERS.                  2.0:   CWLS log ASCII Standard -VERSION 2.0
 WRAP.                   NO:   One line per depth step
~Well Information Block
#MNEM.UNIT     VALUE/NAME     DESCRIPTION
#---------     -----------    ---------------------------
 STRT.S             17:04:09 31-Jan-20: START TIME 17:04:09 31-Jan-20
 STOP.S             17:10:42 31-Jan-20: STOP TIME  17:10:42 31-Jan-20
 STEP.S                   0.00: STEP TIME
 NULL.                 -999.25: NULL VALUE
 DFWT.                        :  DIST FWL TEXT
 DFST.                        :  DIST FSL TEXT
 DMF .             Drill Floor:  DRILL MEAS FROM
 STIM.      09.30.00 26-Dec-19:  START TIME
 DATE.      08.00.00 20-Jan-20:  END TIME
 SPUD.               23-Nov-19:  SPUD DATE
 NREF.                    Grid:  NORTH REFERENCE
 HPTY.       Minimum Curvature:  HOLE POS TYPE
 DMOD.             Drill Model:  DRILL MOD DESC
 SVYD.                  Survey:  SURVEY DESC
 ILTD.               Lithology:  INTERP LTH DESC
 FTOP.          Formation Tops:  FORM TOPS DESC
 SON .        AZ-XX-0906192647:  JOB NUMBER
 WTYP.                Deviated:  WELL TYPE
 COMP.     BP Exploration (Caspian Sea) Ltd:  COMPANY
 BASE.              Azerbaijan:  LOGGING EQUIPMENT BASE LOCATION
 REGN.                 Eurasia:  REGION
 FLD .                     ACG:  FIELD NAME
 SRVC.              KCA Deutag:  CONTRACTOR
 MWDS.                    Baku:  MWD SHOP
 WELL.     A10 (Slot 20) - SCP:  WELL NAME
 JOBN.        AZ-XX-0906192647:  JOB TICKET NUMB
 RIG .                 Chirag1:  RIG NAME
 DCON.     Halliburton Sperry Drilling:  DIRECTNL CONTR
 UNIT.                     N/A:  LOGGING EQUIPMENT ID
 PDAT.          Mean Sea Level:  PERMANENT DATUM
 MDS .        Operator Entered:  MAG DATA SOURCE
 CTRY.              Azerbaijan:  COUNTRY NAME
 UWI .            /AZE00000090:  UNIQUE WELL IDENTIFIER
 API .            /AZE00000090:  API NUMBER
 CNTY.                        :  COUNTY
 PROV.                        :  PROVINCE
 STAT.                        :  STATE
 LOC .                        :  LOCATION
 LMF .             Drill Floor:  LOG MEASURED FROM
 TVDS.m                  36.60:  TVDSS CORRECTN
 LATI.deg                40.08:  LATITUDE
 LONG.deg                51.24:  LONGITUDE
 WHNS.m                  -7.94:  WELL HEAD N/S
 WHEW.m                   1.56:  WELL HEAD E/W
 UTMX.m              520429.26:  UTM X
 UTMY.m             4438973.87:  UTM Y
 DFWL.m                   0.00:  DISTANCE FWL
 DFSL.m                   0.00:  DISTANCE FSL
 SDEP.m                1455.00:  START DEPTH
 TDD .m                4047.51:  TOTAL DEPTH (DRILLER)
 VSDR.deg               112.75:  VERT SEC DIRECT
 GVFD.g                   1.00:  GRAVITY FIELD
 MFLD.nT              50261.00:  MAGNETIC FIELD
 MDIP.deg                59.52:  MAGNETIC DIP
 MDEC.deg                 6.42:  MAGNETIC DECL
 GRDC.deg                 0.17:  GRID CORRECTION
 AZTC.deg                 6.25:  AZM TOTAL CORR
 EPD .m                   0.00:  ELEVATION
 EGL .m                   0.00:  GROUND ELEVATION
 WDMS.m                 121.00:  WD ELEV
 APD .m                  36.60:  DEPTH ABOVE PD
 AGAP.m                  36.60:  AIR GAP
 VSEW.m                   1.56:  VERT SEC E/W
 VSNS.m                  -7.94:  VERT SEC N/S
 DEP .m                1140.01:  DEPTH
 EKB .m                  36.60:  KB ELEVATION
 EDF .m                  36.60:  DF ELEVATION
 TDL .m                 169.50:  TOTAL DEPTH (LOGGER)
 CSGD.m                3875.01:  CASING BOTTOM (DRILLER)
 CSGL.m                3875.01:  CASING BOTTOM (LOGGER)
 CSGS.in                  7.63:  CASING SIZE
 CSGW.lbpf               23.50:  CASING WEIGHT
 VSC .                       0:  VS TO CLOSURE
 MAGU.                 1849206:  MAGUTM CHECKSUM
~Parameter Information Block
#MNEM.UNIT       Value        Description
#---------     -----------    ---------------------------
 AV  .mps                 1.90:  Ann Velocity 
 AVMX.mps                 2.54:  Max Ann Veloc 
 AZIF.deg               137.03:  Azm, Final 
 BHAT.        Rotary Steerable:  BHA Type 
 BREV.rev             23610.00:  Rev Bit Total 
 BROT.°/30m               0.80:  Build Rotating 
 BS  .in                  6.50:  Bit Size 
 BTPL.psig              110.00:  Bit Press Loss 
 CABU.                     Yes:  Customer Abuse 
 COMM.                     D7Y:  Run Comments 1 
 TCS .hr                 70.51:  Time Ciculation Ended 
 CV  .mps                 1.41:  Crit Velocity 
 CVMX.mps                 1.42:  Max Crit Veloc 
 DD1 .         Intigam Rahimov:  Direct Drillr 1 
 DD2 .          Rashad Gojayev:  Direct Drillr 2 
 DDSV.               Geo-Pilot:  DD Service 
 DEFF.%                 100.00:  % Det Eff 
 DLRX.°/30m               1.44:  Dogleg Rot Max 
 DLSO.°/30m               0.00:  Dogleg Oriented 
 DLSX.°/30m               0.00:  Dogleg Str Max 
 DRET.      03.05.00 01-Feb-20:  Drill End Time 
 DRST.      15.50.00 28-Jan-20:  Drill Start Tim 
 DTIM.hr                 24.70:  Time Drilling 
 EDEP.m                4047.51:  End Depth 
 ENG1.           Eldar Hajiyev:  Engineer 1 
 ENG2.          Rasim Hashimov:  Engineer 2 
 ENG3.          Rustam Safarov:  Engineer 3 
 ETIM.      22.00.00 01-Feb-20:  End Time 
 FLOI.gpm               370.00:  Flow In 
 FLON.gpm               300.00:  Flow In Min 
 FLOS.cptm                0.00:  Fluid Loss 
 FLOX.gpm               400.00:  Flow In Max 
 FTRO.       Formation Presure:  FTWD Run Obj 
 HFLO.                      No:  High Flow 
 HPRE.                      No:  High Pressure 
 HTEM.                      No:  High Temp 
 HYDO.m                   2.50:  Hydro Offset 
 IFIN.deg                39.54:  Inc, Final 
 IMAX.deg                41.14:  Inc Max 
 IMIN.deg                39.81:  Inc Min 
 IMND.m                4005.21:  Inc Min Depth 
 IMXD.m                3948.42:  Inc Max Depth 
 JARR.                      No:  Jarring 
 LETM.      03.05.00 01-Feb-20:  Log End Time 
 LOST.hr                     0:  Lost Rig Time 
 LSTM.      15.50.00 28-Jan-20:  Log Start Time 
 MDCL.ppm             37500.00:  Mud Chlorides 
 MDES.     Inversion Oil/Synthetic:  Mud Desc 
 DFD .sg                  1.32:  Mud Density 
 MDMN.sg                  1.32:  Dens Mud Min 
 MDMX.sg                  1.32:  Dens Mud Max 
 MOIL.                      55:  Run Mud Oil % 
 MOWR.                   70:30:  Run Mud OWR 
 MSND.                       0:  Run Mud Sand % 
 MSOL.                      17:  Run Mud Solids% 
 DFV .spqt               80.00:  Mud Viscosity 
 MWOD.in                  4.75:  MWD Tool OD 
 MWSI.                      No:  Serv Intrp, MWD 
 OTIM.hr                121.28:  Time Operating 
 PCON.           Look Like New:  Pad Condition 
 PMAX.psia             6171.00:  Press Op, Max 
 PV  .cP                 30.00:  Mud PV 
 RUN .                     300:  Run Number 
 ROPA.m/hr                5.45:  ROP Avg 
 ROPN.m/hr                3.00:  ROP Min 
 ROPX.m/hr               15.00:  ROP Max 
 RPMA.rpm               130.00:  RPM Surface Avg 
 RPMN.rpm                80.00:  RPM Surface Min 
 RPMX.rpm               140.00:  RPM Surface Max 
 RRUN.                     300:  Rig Run Number 
 RTIM.hr                 13.50:  Time Reaming 
 SAZI.deg               133.93:  Azm, Start 
 SDEP.m                3878.01:  Start Depth 
 SIDD.                      No:  Serv Intrp, DD 
 SINC.deg                40.28:  Inc, Start 
 SPPA.psig             4983.00:  SPP Avg 
 SPPN.psig             4370.00:  SPP Min 
 SPPX.psig             5300.00:  SPP Max 
 STIM.      18.33.36 27-Jan-20:  Start Time 
 SVCS.                 DD, MWD:  Services 
 SVER.                    9.20:  Sperry Version 
 TDAT.m                 169.50:  Tot Depth Attmp 
 TDDF.                      No:  Trip for DD 
 TDLG.m                 169.50:  Tot Depth Loggd 
 TFF .                      No:  Trip for Fail 
 TQAA.f-kp               13.25:  Torque Abs Avg 
 TQAN.f-kp               12.00:  Torque Abs Min 
 TQAX.f-kp               14.00:  Torque Abs Max 
 TRRT.°/30m               0.70:  Turn Rotating 
 MRT .                     ADR:  Maximum Recorded Temperature 
 TTMX.degC               92.16:  Max Tool Temp 
 VS01.       AZ90598764G12V7D4:  Virtual Str1 SN 
 VS02.         AZ90571342R12C4:  Virtual Str2 SN 
 VS03.      AZ90580010N2L2X1C4:  Virtual Str3 SN 
 VS04.        AZ90522266O7X1C4:  Virtual Str4 SN 
 VS05.           AZ90598768F11:  Virtual Str5 SN 
 VS06.     AZ90580006XZ1W1X1C4:  Virtual Str6 SN 
 WBMN.klb                 8.00:  WOB Min 
 WITN.            Peter Wilson:  Customer Rep 
 WOBA.klb                 9.88:  WOB Avg 
 WOBX.klb                10.00:  WOB Max 
 YP  .lhf2               27.00:  Yield Point 
~Curve Information Block
#MNEM.UNIT                 API CODE     Curve Description
#---------               -----------    ---------------------------
 TIME.HHMMSS            00 000 000 000:  GT Time & Date
 GTDEPTH.m              00 000 000 000:  GT Depth
 GTPQH.psia             00 000 000 000:  GT HR Quartz Pressure
 GTTQ.degC              00 000 000 000:  GT Quartz Temperature
 GTTN.NONE              00 000 000 000:  GT Test Number
 GTET.sec               00 000 000 000:  GT Elapsed Test Time
 GTTVD.m                00 000 000 000:  GT True Vertical Depth
#Other Information
#
#WARRANTY: Halliburton will use its best efforts to furnish customers with 
#accurate information and interpretations that are part of, and incident to, the services 
#provided.  However, Halliburton cannot and does not warrant the accuracy 
#or correctness of such information and interpretations.  Under no circumstances should any 
#such information or interpretation be relied upon as the sole basis for any drilling, 
#completion, production, or financial decision or any procedure involving any risk to the 
#safety of any drilling venture, drilling rig or its crew or any other third party.  The 
#Customer has full responsibility for all drilling, completion and production operation.  
#Halliburton makes no representations or warranties, either expressed or 
#implied, including, but not limited to, the implied warranties of merchantability or fitness 
#for a particular purpose, with respect to the services rendered.  In no event will 
#Halliburton be liable for failure to obtain any particular results or for 
#any damages, including, but not limited to, indirect, special or consequential damages, 
#resulting from the use of any information or interpretation provided by Halliburton.
#
~A           TIME           GTDEPTH  GTPQH  GTTQ  GTTN  GTET   GTTVD  
# ...
   17:08:22.569.31-Jan-2020 3960.51 2990.91 85.24 8.00 253.06 2982.89
   17:08:22.769.31-Jan-2020 3960.51 2990.91 85.24 8.00 253.26 2982.89
   17:08:22.969.31-Jan-2020 3960.51 3359.06 85.24 8.00 253.46 2982.89
   17:08:23.169.31-Jan-2020 3960.51 3426.59 85.24 8.00 253.66 2982.89
   17:08:23.369.31-Jan-2020 3960.51 3463.17 85.24 8.00 253.86 2982.89
   17:08:23.569.31-Jan-2020 3960.51 3484.40 85.24 8.00 254.06 2982.89
   17:08:23.769.31-Jan-2020 3960.51 3484.40 85.24 8.00 254.26 2982.89
   17:08:23.969.31-Jan-2020 3960.51 3502.65 85.24 8.00 254.46 2982.89
   17:08:24.169.31-Jan-2020 3960.51 3503.76 85.24 8.00 254.66 2982.89
   17:08:24.369.31-Jan-2020 3960.51 3508.28 85.23 8.00 254.86 2982.89
   17:08:24.570.31-Jan-2020 3960.51 3511.46 85.23 8.00 255.06 2982.89
   17:08:24.770.31-Jan-2020 3960.51 3511.46 85.23 8.00 255.26 2982.89
   17:08:24.970.31-Jan-2020 3960.51 3513.93 85.23 8.00 255.46 2982.89
   17:08:25.170.31-Jan-2020 3960.51 3513.34 85.23 8.00 255.66 2982.89
   17:08:25.370.31-Jan-2020 3960.51 3514.69 85.23 8.00 255.86 2982.89
   17:08:25.570.31-Jan-2020 3960.51 3515.81 85.23 8.00 256.06 2982.89
   17:08:25.770.31-Jan-2020 3960.51 3515.81 85.23 8.00 256.26 2982.89
   17:08:25.970.31-Jan-2020 3960.51 3516.63 85.23 8.00 256.46 2982.89
   17:08:26.170.31-Jan-2020 3960.51 3516.87 85.23 8.00 256.66 2982.89
   17:08:26.370.31-Jan-2020 3960.51 3516.62 85.23 8.00 256.86 2982.89
   17:08:26.570.31-Jan-2020 3960.51 3517.17 85.23 8.00 257.06 2982.89
   17:08:26.770.31-Jan-2020 3960.51 3517.17 85.23 8.00 257.26 2982.89
   17:08:26.970.31-Jan-2020 3960.51 3517.52 85.23 8.00 257.46 2982.89
   17:08:27.170.31-Jan-2020 3960.51 3517.79 85.23 8.00 257.66 2982.89
   17:08:27.370.31-Jan-2020 3960.51 3517.78 85.23 8.00 257.86 2982.89
   17:08:27.570.31-Jan-2020 3960.51 3517.60 85.23 8.00 258.06 2982.89
   17:08:27.770.31-Jan-2020 3960.51 3517.60 85.23 8.00 258.26 2982.89
   17:08:27.970.31-Jan-2020 3960.51 3518.09 85.23 8.00 258.46 2982.89
   17:08:28.170.31-Jan-2020 3960.51 3518.39 85.23 8.00 258.66 2982.89
   17:08:28.370.31-Jan-2020 3960.51 3518.31 85.23 8.00 258.86 2982.89
   17:08:28.570.31-Jan-2020 3960.51 3518.06 85.23 8.00 259.06 2982.89
   17:08:28.771.31-Jan-2020 3960.51 3518.06 85.23 8.00 259.26 2982.89
   17:08:28.971.31-Jan-2020 3960.51 3518.47 85.22 8.00 259.46 2982.89
   17:08:29.171.31-Jan-2020 3960.51 3518.69 85.22 8.00 259.66 2982.89
   17:08:29.371.31-Jan-2020 3960.51 3518.74 85.22 8.00 259.86 2982.89
   17:08:29.571.31-Jan-2020 3960.51 3518.84 85.22 8.00 260.06 2982.89
   17:08:29.771.31-Jan-2020 3960.51 3518.84 85.22 8.00 260.26 2982.89
   17:08:29.971.31-Jan-2020 3960.51 3518.61 85.22 8.00 260.46 2982.89
   17:08:30.171.31-Jan-2020 3960.51 3518.63 85.22 8.00 260.66 2982.89
   17:08:30.371.31-Jan-2020 3960.51 3518.58 85.22 8.00 260.86 2982.89
   17:08:30.571.31-Jan-2020 3960.51 3518.87 85.22 8.00 261.06 2982.89
   17:08:30.771.31-Jan-2020 3960.51 3518.87 85.22 8.00 261.26 2982.89
   17:08:30.971.31-Jan-2020 3960.51 3518.80 85.22 8.00 261.46 2982.89
   17:08:31.171.31-Jan-2020 3960.51 3518.89 85.22 8.00 261.66 2982.89
   17:08:31.371.31-Jan-2020 3960.51 3518.83 85.22 8.00 261.86 2982.89
   17:08:31.571.31-Jan-2020 3960.51 3519.06 85.22 8.00 262.06 2982.89
   17:08:31.771.31-Jan-2020 3960.51 3519.06 85.22 8.00 262.26 2982.89
   17:08:31.971.31-Jan-2020 3960.51 3518.95 85.22 8.00 262.46 2982.89
   17:08:32.171.31-Jan-2020 3960.51 3518.88 85.22 8.00 262.66 2982.89
   17:08:32.371.31-Jan-2020 3960.51 3518.80 85.22 8.00 262.86 2982.89
   17:08:32.571.31-Jan-2020 3960.51 3519.19 85.22 8.00 263.06 2982.89
   17:08:32.771.31-Jan-2020 3960.51 3519.19 85.22 8.00 263.26 2982.89
   17:08:32.971.31-Jan-2020 3960.51 3519.24 85.22 8.00 263.46 2982.89
   17:08:33.172.31-Jan-2020 3960.51 3519.37 85.22 8.00 263.66 2982.89
   17:08:33.372.31-Jan-2020 3960.51 3519.17 85.22 8.00 263.86 2982.89
   17:08:33.572.31-Jan-2020 3960.51 3519.35 85.21 8.00 264.06 2982.89
   17:08:33.772.31-Jan-2020 3960.51 3519.35 85.21 8.00 264.26 2982.89
   17:08:33.972.31-Jan-2020 3960.51 3519.21 85.21 8.00 264.46 2982.89
   17:08:34.172.31-Jan-2020 3960.51 3519.37 85.21 8.00 264.66 2982.89
   17:08:34.372.31-Jan-2020 3960.51 3519.18 85.21 8.00 264.86 2982.89
   17:08:34.572.31-Jan-2020 3960.51 3519.36 85.21 8.00 265.06 2982.89
   17:08:34.772.31-Jan-2020 3960.51 3519.36 85.21 8.00 265.26 2982.89
   17:08:34.972.31-Jan-2020 3960.51 3519.23 85.21 8.00 265.46 2982.89
   17:08:35.172.31-Jan-2020 3960.51 3519.51 85.21 8.00 265.66 2982.89
   17:08:35.372.31-Jan-2020 3960.51 3519.29 85.21 8.00 265.86 2982.89
   17:08:35.572.31-Jan-2020 3960.51 3519.03 85.21 8.00 266.06 2982.89
   17:08:35.772.31-Jan-2020 3960.51 3519.03 85.21 8.00 266.26 2982.89
   17:08:35.972.31-Jan-2020 3960.51 3519.48 85.21 8.00 266.46 2982.89
   17:08:36.172.31-Jan-2020 3960.51 3519.71 85.21 8.00 266.66 2982.89
   17:08:36.372.31-Jan-2020 3960.51 3519.43 85.21 8.00 266.86 2982.89
   17:08:36.572.31-Jan-2020 3960.51 3519.15 85.21 8.00 267.06 2982.89
   17:08:36.772.31-Jan-2020 3960.51 3519.15 85.21 8.00 267.26 2982.89
   17:08:36.972.31-Jan-2020 3960.51 3519.52 85.21 8.00 267.46 2982.89
   17:08:37.172.31-Jan-2020 3960.51 3519.76 85.21 8.00 267.66 2982.89
   17:08:37.373.31-Jan-2020 3960.51 3519.54 85.21 8.00 267.86 2982.89
   17:08:37.573.31-Jan-2020 3960.51 3519.62 85.21 8.00 268.06 2982.89
   17:08:37.773.31-Jan-2020 3960.51 3519.62 85.21 8.00 268.26 2982.89
   17:08:37.973.31-Jan-2020 3960.51 3519.42 85.21 8.00 268.46 2982.89
   17:08:38.173.31-Jan-2020 3960.51 3519.33 85.20 8.00 268.66 2982.89
   17:08:38.373.31-Jan-2020 3960.51 3519.37 85.20 8.00 268.86 2982.89
   17:08:38.573.31-Jan-2020 3960.51 3519.69 85.20 8.00 269.06 2982.89
   17:08:38.773.31-Jan-2020 3960.51 3519.69 85.20 8.00 269.26 2982.89
   17:08:38.973.31-Jan-2020 3960.51 3519.23 85.20 8.00 269.46 2982.89
   17:08:39.173.31-Jan-2020 3960.51 3519.56 85.20 8.00 269.66 2982.89
   17:08:39.373.31-Jan-2020 3960.51 3519.53 85.20 8.00 269.86 2982.89
   17:08:39.573.31-Jan-2020 3960.51 3519.81 85.20 8.00 270.06 2982.89
   17:08:39.773.31-Jan-2020 3960.51 3519.81 85.20 8.00 270.26 2982.89
   17:08:39.973.31-Jan-2020 3960.51 3519.59 85.20 8.00 270.46 2982.89
   17:08:40.173.31-Jan-2020 3960.51 3519.76 85.20 8.00 270.66 2982.89
   17:08:40.373.31-Jan-2020 3960.51 3519.28 85.20 8.00 270.86 2982.89
   17:08:40.573.31-Jan-2020 3960.51 3519.62 85.20 8.00 271.06 2982.89
   17:08:40.773.31-Jan-2020 3960.51 3519.62 85.20 8.00 271.26 2982.89
   17:08:40.973.31-Jan-2020 3960.51 3519.74 85.20 8.00 271.46 2982.89
   17:08:41.173.31-Jan-2020 3960.51 3520.02 85.20 8.00 271.66 2982.89
   17:08:41.373.31-Jan-2020 3960.51 3519.72 85.20 8.00 271.86 2982.89
   17:08:41.574.31-Jan-2020 3960.51 3519.76 85.20 8.00 272.06 2982.89
   17:08:41.774.31-Jan-2020 3960.51 3519.76 85.20 8.00 272.26 2982.89
   17:08:41.974.31-Jan-2020 3960.51 3519.61 85.20 8.00 272.46 2982.89
   17:08:42.174.31-Jan-2020 3960.51 3519.82 85.19 8.00 272.66 2982.89
   17:08:42.374.31-Jan-2020 3960.51 3519.63 85.19 8.00 272.86 2982.89
   17:08:42.574.31-Jan-2020 3960.51 3519.69 85.19 8.00 273.06 2982.89
   17:08:42.774.31-Jan-2020 3960.51 3519.69 85.19 8.00 273.26 2982.89
   17:08:42.974.31-Jan-2020 3960.51 3519.55 85.19 8.00 273.46 2982.89
   17:08:43.174.31-Jan-2020 3960.51 3519.70 85.19 8.00 273.66 2982.89
   17:08:43.374.31-Jan-2020 3960.51 3519.70 85.19 8.00 273.86 2982.89
   17:08:43.574.31-Jan-2020 3960.51 3519.81 85.19 8.00 274.06 2982.89
   17:08:43.774.31-Jan-2020 3960.51 3519.81 85.19 8.00 274.26 2982.89
   17:08:43.974.31-Jan-2020 3960.51 3519.71 85.19 8.00 274.46 2982.89
   17:08:44.174.31-Jan-2020 3960.51 3519.57 85.19 8.00 274.66 2982.89
   17:08:44.374.31-Jan-2020 3960.51 3519.68 85.19 8.00 274.86 2982.89
   17:08:44.574.31-Jan-2020 3960.51 3519.84 85.19 8.00 275.06 2982.89
   17:08:44.774.31-Jan-2020 3960.51 3519.84 85.19 8.00 275.26 2982.89
   17:08:44.974.31-Jan-2020 3960.51 3519.87 85.19 8.00 275.46 2982.89
   17:08:45.174.31-Jan-2020 3960.51 3520.00 85.19 8.00 275.66 2982.89
   17:08:45.374.31-Jan-2020 3960.51 3519.81 85.19 8.00 275.86 2982.89
