~Version Information
 VERS.                  2.0:   CWLS log ASCII Standard -VERSION 2.0
 WRAP.                   NO:   One line per depth step
~Well Information Block
#MNEM.UNIT     VALUE/NAME     DESCRIPTION
#---------     -----------    ---------------------------
 STRT.S             21:06:33 30-Jan-20: START TIME 21:06:33 30-Jan-20
 STOP.S             21:13:02 30-Jan-20: STOP TIME  21:13:02 30-Jan-20
 STEP.S                   0.00: STEP TIME
 NULL.                 -999.25: NULL VALUE
 DFWT.                        :  DIST FWL TEXT
 DFST.                        :  DIST FSL TEXT
 DMF .             Drill Floor:  DRILL MEAS FROM
 STIM.      09.30.00 26-Dec-19:  START TIME
 DATE.      08.00.00 20-Jan-20:  END TIME
 SPUD.               23-Nov-19:  SPUD DATE
 NREF.                    Grid:  NORTH REFERENCE
 HPTY.       Minimum Curvature:  HOLE POS TYPE
 DMOD.             Drill Model:  DRILL MOD DESC
 SVYD.                  Survey:  SURVEY DESC
 ILTD.               Lithology:  INTERP LTH DESC
 FTOP.          Formation Tops:  FORM TOPS DESC
 SON .        AZ-XX-0906192647:  JOB NUMBER
 WTYP.                Deviated:  WELL TYPE
 COMP.     BP Exploration (Caspian Sea) Ltd:  COMPANY
 BASE.              Azerbaijan:  LOGGING EQUIPMENT BASE LOCATION
 REGN.                 Eurasia:  REGION
 FLD .                     ACG:  FIELD NAME
 SRVC.              KCA Deutag:  CONTRACTOR
 MWDS.                    Baku:  MWD SHOP
 WELL.     A10 (Slot 20) - SCP:  WELL NAME
 JOBN.        AZ-XX-0906192647:  JOB TICKET NUMB
 RIG .                 Chirag1:  RIG NAME
 DCON.     Halliburton Sperry Drilling:  DIRECTNL CONTR
 UNIT.                     N/A:  LOGGING EQUIPMENT ID
 PDAT.          Mean Sea Level:  PERMANENT DATUM
 MDS .        Operator Entered:  MAG DATA SOURCE
 CTRY.              Azerbaijan:  COUNTRY NAME
 UWI .            /AZE00000090:  UNIQUE WELL IDENTIFIER
 API .            /AZE00000090:  API NUMBER
 CNTY.                        :  COUNTY
 PROV.                        :  PROVINCE
 STAT.                        :  STATE
 LOC .                        :  LOCATION
 LMF .             Drill Floor:  LOG MEASURED FROM
 TVDS.m                  36.60:  TVDSS CORRECTN
 LATI.deg                40.08:  LATITUDE
 LONG.deg                51.24:  LONGITUDE
 WHNS.m                  -7.94:  WELL HEAD N/S
 WHEW.m                   1.56:  WELL HEAD E/W
 UTMX.m              520429.26:  UTM X
 UTMY.m             4438973.87:  UTM Y
 DFWL.m                   0.00:  DISTANCE FWL
 DFSL.m                   0.00:  DISTANCE FSL
 SDEP.m                1455.00:  START DEPTH
 TDD .m                4047.51:  TOTAL DEPTH (DRILLER)
 VSDR.deg               112.75:  VERT SEC DIRECT
 GVFD.g                   1.00:  GRAVITY FIELD
 MFLD.nT              50261.00:  MAGNETIC FIELD
 MDIP.deg                59.52:  MAGNETIC DIP
 MDEC.deg                 6.42:  MAGNETIC DECL
 GRDC.deg                 0.17:  GRID CORRECTION
 AZTC.deg                 6.25:  AZM TOTAL CORR
 EPD .m                   0.00:  ELEVATION
 EGL .m                   0.00:  GROUND ELEVATION
 WDMS.m                 121.00:  WD ELEV
 APD .m                  36.60:  DEPTH ABOVE PD
 AGAP.m                  36.60:  AIR GAP
 VSEW.m                   1.56:  VERT SEC E/W
 VSNS.m                  -7.94:  VERT SEC N/S
 DEP .m                1140.01:  DEPTH
 EKB .m                  36.60:  KB ELEVATION
 EDF .m                  36.60:  DF ELEVATION
 TDL .m                 169.50:  TOTAL DEPTH (LOGGER)
 CSGD.m                3875.01:  CASING BOTTOM (DRILLER)
 CSGL.m                3875.01:  CASING BOTTOM (LOGGER)
 CSGS.in                  7.63:  CASING SIZE
 CSGW.lbpf               23.50:  CASING WEIGHT
 VSC .                       0:  VS TO CLOSURE
 MAGU.                 1849206:  MAGUTM CHECKSUM
~Parameter Information Block
#MNEM.UNIT       Value        Description
#---------     -----------    ---------------------------
 AV  .mps                 1.90:  Ann Velocity 
 AVMX.mps                 2.54:  Max Ann Veloc 
 AZIF.deg               137.03:  Azm, Final 
 BHAT.        Rotary Steerable:  BHA Type 
 BREV.rev             23610.00:  Rev Bit Total 
 BROT.°/30m               0.80:  Build Rotating 
 BS  .in                  6.50:  Bit Size 
 BTPL.psig              110.00:  Bit Press Loss 
 CABU.                     Yes:  Customer Abuse 
 TCS .hr                 70.51:  Time Ciculation Ended 
 CV  .mps                 1.41:  Crit Velocity 
 CVMX.mps                 1.42:  Max Crit Veloc 
 DD1 .         Intigam Rahimov:  Direct Drillr 1 
 DD2 .          Rashad Gojayev:  Direct Drillr 2 
 DDSV.               Geo-Pilot:  DD Service 
 DEFF.%                 100.00:  % Det Eff 
 DLRX.°/30m               1.44:  Dogleg Rot Max 
 DLSO.°/30m               0.00:  Dogleg Oriented 
 DLSX.°/30m               0.00:  Dogleg Str Max 
 DRET.      03.05.00 01-Feb-20:  Drill End Time 
 DRST.      15.50.00 28-Jan-20:  Drill Start Tim 
 DTIM.hr                 24.70:  Time Drilling 
 EDEP.m                4047.51:  End Depth 
 ENG1.           Eldar Hajiyev:  Engineer 1 
 ENG2.          Rasim Hashimov:  Engineer 2 
 ENG3.          Rustam Safarov:  Engineer 3 
 ETIM.      22.00.00 01-Feb-20:  End Time 
 FLOI.gpm               370.00:  Flow In 
 FLON.gpm               300.00:  Flow In Min 
 FLOS.cptm                0.00:  Fluid Loss 
 FLOX.gpm               400.00:  Flow In Max 
 FTRO.       Formation Presure:  FTWD Run Obj 
 HFLO.                      No:  High Flow 
 HPRE.                      No:  High Pressure 
 HTEM.                      No:  High Temp 
 HYDO.m                   2.50:  Hydro Offset 
 IFIN.deg                39.54:  Inc, Final 
 IMAX.deg                41.14:  Inc Max 
 IMIN.deg                39.81:  Inc Min 
 IMND.m                4005.21:  Inc Min Depth 
 IMXD.m                3948.42:  Inc Max Depth 
 JARR.                      No:  Jarring 
 LETM.      03.05.00 01-Feb-20:  Log End Time 
 LOST.hr                     0:  Lost Rig Time 
 LSTM.      15.50.00 28-Jan-20:  Log Start Time 
 MDCL.ppm             37500.00:  Mud Chlorides 
 MDES.     Inversion Oil/Synthetic:  Mud Desc 
 DFD .sg                  1.32:  Mud Density 
 MDMN.sg                  1.32:  Dens Mud Min 
 MDMX.sg                  1.32:  Dens Mud Max 
 MOIL.                      55:  Run Mud Oil % 
 MOWR.                   70:30:  Run Mud OWR 
 MSND.                       0:  Run Mud Sand % 
 MSOL.                      17:  Run Mud Solids% 
 DFV .spqt               80.00:  Mud Viscosity 
 MWOD.in                  4.75:  MWD Tool OD 
 MWSI.                      No:  Serv Intrp, MWD 
 OTIM.hr                121.28:  Time Operating 
 PCON.           Look Like New:  Pad Condition 
 PMAX.psia             6171.00:  Press Op, Max 
 PV  .cP                 30.00:  Mud PV 
 RUN .                     300:  Run Number 
 ROPA.m/hr                5.45:  ROP Avg 
 ROPN.m/hr                3.00:  ROP Min 
 ROPX.m/hr               15.00:  ROP Max 
 RPMA.rpm               130.00:  RPM Surface Avg 
 RPMN.rpm                80.00:  RPM Surface Min 
 RPMX.rpm               140.00:  RPM Surface Max 
 RRUN.                     300:  Rig Run Number 
 RTIM.hr                 13.50:  Time Reaming 
 SAZI.deg               133.93:  Azm, Start 
 SDEP.m                3878.01:  Start Depth 
 SIDD.                      No:  Serv Intrp, DD 
 SINC.deg                40.28:  Inc, Start 
 SPPA.psig             4983.00:  SPP Avg 
 SPPN.psig             4370.00:  SPP Min 
 SPPX.psig             5300.00:  SPP Max 
 STIM.      18.33.36 27-Jan-20:  Start Time 
 SVCS.                 DD, MWD:  Services 
 SVER.                    9.20:  Sperry Version 
 TDAT.m                 169.50:  Tot Depth Attmp 
 TDDF.                      No:  Trip for DD 
 TDLG.m                 169.50:  Tot Depth Loggd 
 TFF .                      No:  Trip for Fail 
 TQAA.f-kp               13.25:  Torque Abs Avg 
 TQAN.f-kp               12.00:  Torque Abs Min 
 TQAX.f-kp               14.00:  Torque Abs Max 
 TRRT.°/30m               0.70:  Turn Rotating 
 MRT .                     ADR:  Maximum Recorded Temperature 
 TTMX.degC               92.16:  Max Tool Temp 
 VS01.       AZ90598764G12V7D4:  Virtual Str1 SN 
 VS02.         AZ90571342R12C4:  Virtual Str2 SN 
 VS03.      AZ90580010N2L2X1C4:  Virtual Str3 SN 
 VS04.        AZ90522266O7X1C4:  Virtual Str4 SN 
 VS05.           AZ90598768F11:  Virtual Str5 SN 
 VS06.     AZ90580006XZ1W1X1C4:  Virtual Str6 SN 
 WBMN.klb                 8.00:  WOB Min 
 WITN.            Peter Wilson:  Customer Rep 
 WOBA.klb                 9.88:  WOB Avg 
 WOBX.klb                10.00:  WOB Max 
 YP  .lhf2               27.00:  Yield Point 
~Curve Information Block
#MNEM.UNIT                 API CODE     Curve Description
#---------               -----------    ---------------------------
 TIME.HHMMSS            00 000 000 000:  GT Time & Date
 GTDEPTH.m              00 000 000 000:  GT Depth
 GTPQH.psia             00 000 000 000:  GT HR Quartz Pressure
 GTTQ.degC              00 000 000 000:  GT Quartz Temperature
 GTTN.NONE              00 000 000 000:  GT Test Number
 GTET.sec               00 000 000 000:  GT Elapsed Test Time
 GTTVD.m                00 000 000 000:  GT True Vertical Depth
#Other Information
#
#WARRANTY: Halliburton will use its best efforts to furnish customers with 
#accurate information and interpretations that are part of, and incident to, the services 
#provided.  However, Halliburton cannot and does not warrant the accuracy 
#or correctness of such information and interpretations.  Under no circumstances should any 
#such information or interpretation be relied upon as the sole basis for any drilling, 
#completion, production, or financial decision or any procedure involving any risk to the 
#safety of any drilling venture, drilling rig or its crew or any other third party.  The 
#Customer has full responsibility for all drilling, completion and production operation.  
#Halliburton makes no representations or warranties, either expressed or 
#implied, including, but not limited to, the implied warranties of merchantability or fitness 
#for a particular purpose, with respect to the services rendered.  In no event will 
#Halliburton be liable for failure to obtain any particular results or for 
#any damages, including, but not limited to, indirect, special or consequential damages, 
#resulting from the use of any information or interpretation provided by Halliburton.
#
~A           TIME           GTDEPTH  GTPQH  GTTQ  GTTN  GTET   GTTVD  
# ...
   21:06:56.009.30-Jan-2020 3895.01 6593.31 73.25 2.00  23.00 2933.47
   21:06:56.209.30-Jan-2020 3895.01 6593.31 73.25 2.00  23.20 2933.47
   21:06:56.409.30-Jan-2020 3895.01 6536.02 73.25 2.00  23.40 2933.47
   21:06:56.609.30-Jan-2020 3895.01 6552.83 73.25 2.00  23.60 2933.47
   21:06:56.809.30-Jan-2020 3895.01 6567.91 73.25 2.00  23.80 2933.47
   21:06:57.009.30-Jan-2020 3895.01 6578.77 73.25 2.00  24.00 2933.47
   21:06:57.209.30-Jan-2020 3895.01 6578.77 73.25 2.00  24.20 2933.47
   21:06:57.409.30-Jan-2020 3895.01 6595.28 73.25 2.00  24.40 2933.47
   21:06:57.609.30-Jan-2020 3895.01 6600.81 73.25 2.00  24.60 2933.47
   21:06:57.809.30-Jan-2020 3895.01 6605.78 73.25 2.00  24.80 2933.47
   21:06:58.009.30-Jan-2020 3895.01 6611.15 73.25 2.00  25.00 2933.47
   21:06:58.209.30-Jan-2020 3895.01 6611.15 73.25 2.00  25.20 2933.47
   21:06:58.409.30-Jan-2020 3895.01 6619.14 73.25 2.00  25.40 2933.47
   21:06:58.609.30-Jan-2020 3895.01 6323.18 73.25 2.00  25.60 2933.47
   21:06:58.809.30-Jan-2020 3895.01 5554.77 73.24 2.00  25.80 2933.47
   21:06:59.009.30-Jan-2020 3895.01 5047.99 73.24 2.00  26.00 2933.47
   21:06:59.210.30-Jan-2020 3895.01 5047.99 73.24 2.00  26.20 2933.47
   21:06:59.410.30-Jan-2020 3895.01 3348.01 73.24 2.00  26.40 2933.47
   21:06:59.610.30-Jan-2020 3895.01 2610.36 73.24 2.00  26.61 2933.47
   21:06:59.810.30-Jan-2020 3895.01 2145.56 73.24 2.00  26.81 2933.47
   21:07:00.010.30-Jan-2020 3895.01 1826.00 73.24 2.00  27.01 2933.47
   21:07:00.210.30-Jan-2020 3895.01 1826.00 73.24 2.00  27.21 2933.47
   21:07:00.410.30-Jan-2020 3895.01 1571.68 73.24 2.00  27.41 2933.47
   21:07:00.610.30-Jan-2020 3895.01 1633.13 73.24 2.00  27.61 2933.47
   21:07:00.810.30-Jan-2020 3895.01 1661.92 73.24 2.00  27.81 2933.47
   21:07:01.010.30-Jan-2020 3895.01 1658.28 73.23 2.00  28.01 2933.47
   21:07:01.210.30-Jan-2020 3895.01 1658.28 73.23 2.00  28.21 2933.47
   21:07:01.410.30-Jan-2020 3895.01 1779.72 73.23 2.00  28.41 2933.47
   21:07:01.610.30-Jan-2020 3895.01 1849.61 73.23 2.00  28.61 2933.47
   21:07:01.810.30-Jan-2020 3895.01 1855.50 73.23 2.00  28.81 2933.47
   21:07:02.010.30-Jan-2020 3895.01 1829.64 73.23 2.00  29.01 2933.47
   21:07:02.210.30-Jan-2020 3895.01 1829.64 73.23 2.00  29.21 2933.47
   21:07:02.410.30-Jan-2020 3895.01 1809.81 73.22 2.00  29.41 2933.47
   21:07:02.610.30-Jan-2020 3895.01 1800.21 73.22 2.00  29.61 2933.47
   21:07:02.810.30-Jan-2020 3895.01 1792.50 73.22 2.00  29.81 2933.47
   21:07:03.010.30-Jan-2020 3895.01 1795.06 73.22 2.00  30.01 2933.47
   21:07:03.210.30-Jan-2020 3895.01 1795.06 73.22 2.00  30.21 2933.47
   21:07:03.410.30-Jan-2020 3895.01 1842.49 73.22 2.00  30.41 2933.47
   21:07:03.610.30-Jan-2020 3895.01 1820.61 73.21 2.00  30.61 2933.47
   21:07:03.810.30-Jan-2020 3895.01 1819.15 73.21 2.00  30.81 2933.47
   21:07:04.010.30-Jan-2020 3895.01 1823.29 73.21 2.00  31.01 2933.47
   21:07:04.210.30-Jan-2020 3895.01 1823.29 73.21 2.00  31.21 2933.47
   21:07:04.411.30-Jan-2020 3895.01 1866.13 73.21 2.00  31.41 2933.47
   21:07:04.611.30-Jan-2020 3895.01 1958.61 73.20 2.00  31.61 2933.47
   21:07:04.811.30-Jan-2020 3895.01 1951.39 73.20 2.00  31.81 2933.47
   21:07:05.011.30-Jan-2020 3895.01 1931.18 73.20 2.00  32.01 2933.47
   21:07:05.211.30-Jan-2020 3895.01 1931.18 73.20 2.00  32.21 2933.47
   21:07:05.411.30-Jan-2020 3895.01 1915.68 73.20 2.00  32.41 2933.47
   21:07:05.611.30-Jan-2020 3895.01 1910.50 73.19 2.00  32.61 2933.47
   21:07:05.811.30-Jan-2020 3895.01 1905.74 73.19 2.00  32.81 2933.47
   21:07:06.011.30-Jan-2020 3895.01 1901.22 73.19 2.00  33.01 2933.47
   21:07:06.211.30-Jan-2020 3895.01 1901.22 73.19 2.00  33.21 2933.47
   21:07:06.411.30-Jan-2020 3895.01 1907.00 73.19 2.00  33.41 2933.47
   21:07:06.611.30-Jan-2020 3895.01 1907.01 73.19 2.00  33.61 2933.47
   21:07:06.811.30-Jan-2020 3895.01 1903.07 73.18 2.00  33.81 2933.47
   21:07:07.011.30-Jan-2020 3895.01 1905.08 73.18 2.00  34.01 2933.47
   21:07:07.211.30-Jan-2020 3895.01 1905.08 73.18 2.00  34.21 2933.47
   21:07:07.411.30-Jan-2020 3895.01 1906.11 73.18 2.00  34.41 2933.47
   21:07:07.611.30-Jan-2020 3895.01 1907.79 73.18 2.00  34.61 2933.47
   21:07:07.811.30-Jan-2020 3895.01 1907.43 73.18 2.00  34.81 2933.47
   21:07:08.011.30-Jan-2020 3895.01 1908.22 73.17 2.00  35.01 2933.47
   21:07:08.211.30-Jan-2020 3895.01 1908.22 73.17 2.00  35.21 2933.47
   21:07:08.411.30-Jan-2020 3895.01 1914.51 73.17 2.00  35.41 2933.47
   21:07:08.611.30-Jan-2020 3895.01 1914.00 73.17 2.00  35.61 2933.47
   21:07:08.811.30-Jan-2020 3895.01 2205.44 73.17 2.00  35.81 2933.47
   21:07:09.011.30-Jan-2020 3895.01 2562.08 73.17 2.00  36.01 2933.47
   21:07:09.211.30-Jan-2020 3895.01 2562.08 73.17 2.00  36.21 2933.47
   21:07:09.411.30-Jan-2020 3895.01 2861.03 73.16 2.00  36.41 2933.47
   21:07:09.611.30-Jan-2020 3895.01 2913.72 73.16 2.00  36.61 2933.47
   21:07:09.812.30-Jan-2020 3895.01 2941.16 73.16 2.00  36.81 2933.47
   21:07:10.012.30-Jan-2020 3895.01 2955.47 73.16 2.00  37.01 2933.47
   21:07:10.212.30-Jan-2020 3895.01 2955.47 73.16 2.00  37.21 2933.47
   21:07:10.412.30-Jan-2020 3895.01 2968.00 73.16 2.00  37.41 2933.47
   21:07:10.612.30-Jan-2020 3895.01 2970.63 73.15 2.00  37.61 2933.47
   21:07:10.812.30-Jan-2020 3895.01 2972.37 73.15 2.00  37.81 2933.47
   21:07:11.012.30-Jan-2020 3895.01 2973.76 73.15 2.00  38.01 2933.47
   21:07:11.212.30-Jan-2020 3895.01 2973.76 73.15 2.00  38.21 2933.47
   21:07:11.412.30-Jan-2020 3895.01 2975.20 73.15 2.00  38.41 2933.47
   21:07:11.612.30-Jan-2020 3895.01 2975.82 73.15 2.00  38.61 2933.47
   21:07:11.812.30-Jan-2020 3895.01 2975.63 73.15 2.00  38.81 2933.47
   21:07:12.012.30-Jan-2020 3895.01 2976.76 73.15 2.00  39.01 2933.47
   21:07:12.212.30-Jan-2020 3895.01 2976.76 73.15 2.00  39.21 2933.47
   21:07:12.412.30-Jan-2020 3895.01 2977.36 73.14 2.00  39.41 2933.47
   21:07:12.612.30-Jan-2020 3895.01 2977.57 73.14 2.00  39.61 2933.47
   21:07:12.812.30-Jan-2020 3895.01 2977.84 73.14 2.00  39.81 2933.47
   21:07:13.012.30-Jan-2020 3895.01 2978.07 73.14 2.00  40.01 2933.47
   21:07:13.212.30-Jan-2020 3895.01 2978.07 73.14 2.00  40.21 2933.47
   21:07:13.412.30-Jan-2020 3895.01 2978.33 73.14 2.00  40.41 2933.47
   21:07:13.612.30-Jan-2020 3895.01 2978.53 73.14 2.00  40.61 2933.47
   21:07:13.812.30-Jan-2020 3895.01 2978.69 73.14 2.00  40.81 2933.47
   21:07:14.012.30-Jan-2020 3895.01 2978.83 73.14 2.00  41.01 2933.47
   21:07:14.212.30-Jan-2020 3895.01 2978.83 73.14 2.00  41.21 2933.47
   21:07:14.412.30-Jan-2020 3895.01 2979.02 73.13 2.00  41.41 2933.47
   21:07:14.612.30-Jan-2020 3895.01 2979.26 73.13 2.00  41.61 2933.47
   21:07:14.812.30-Jan-2020 3895.01 2979.37 73.13 2.00  41.81 2933.47
   21:07:15.012.30-Jan-2020 3895.01 2979.44 73.13 2.00  42.01 2933.47
   21:07:15.213.30-Jan-2020 3895.01 2979.44 73.13 2.00  42.21 2933.47
   21:07:15.413.30-Jan-2020 3895.01 2979.63 73.13 2.00  42.41 2933.47
   21:07:15.613.30-Jan-2020 3895.01 2979.71 73.13 2.00  42.61 2933.47
   21:07:15.813.30-Jan-2020 3895.01 2979.80 73.13 2.00  42.81 2933.47
   21:07:16.013.30-Jan-2020 3895.01 2979.86 73.13 2.00  43.01 2933.47
   21:07:16.213.30-Jan-2020 3895.01 2979.86 73.13 2.00  43.21 2933.47
   21:07:16.413.30-Jan-2020 3895.01 2979.58 73.13 2.00  43.41 2933.47
   21:07:16.613.30-Jan-2020 3895.01 2980.15 73.13 2.00  43.61 2933.47
   21:07:16.813.30-Jan-2020 3895.01 2980.25 73.12 2.00  43.81 2933.47
   21:07:17.013.30-Jan-2020 3895.01 2980.26 73.12 2.00  44.01 2933.47
   21:07:17.213.30-Jan-2020 3895.01 2980.26 73.12 2.00  44.21 2933.47
   21:07:17.413.30-Jan-2020 3895.01 2980.34 73.12 2.00  44.41 2933.47
   21:07:17.613.30-Jan-2020 3895.01 2980.12 73.12 2.00  44.61 2933.47
   21:07:17.813.30-Jan-2020 3895.01 2980.08 73.12 2.00  44.81 2933.47
   21:07:18.013.30-Jan-2020 3895.01 2980.62 73.12 2.00  45.01 2933.47
   21:07:18.213.30-Jan-2020 3895.01 2980.62 73.12 2.00  45.21 2933.47
   21:07:18.413.30-Jan-2020 3895.01 2980.66 73.12 2.00  45.41 2933.47
   21:07:18.613.30-Jan-2020 3895.01 2980.63 73.12 2.00  45.61 2933.47
   21:07:18.813.30-Jan-2020 3895.01 2980.44 73.12 2.00  45.81 2933.47
