~Version Information
 VERS.                  2.0:   CWLS log ASCII Standard -VERSION 2.0
 WRAP.                   NO:   One line per depth step
~Well Information Block
#MNEM.UNIT     VALUE/NAME     DESCRIPTION
#---------     -----------    ---------------------------
 STRT.S             06:25:21 31-Jan-20: START TIME 06:25:21 31-Jan-20
 STOP.S             06:31:52 31-Jan-20: STOP TIME  06:31:52 31-Jan-20
 STEP.S                   0.00: STEP TIME
 NULL.                 -999.25: NULL VALUE
 DFWT.                        :  DIST FWL TEXT
 DFST.                        :  DIST FSL TEXT
 DMF .             Drill Floor:  DRILL MEAS FROM
 STIM.      09.30.00 26-Dec-19:  START TIME
 DATE.      08.00.00 20-Jan-20:  END TIME
 SPUD.               23-Nov-19:  SPUD DATE
 NREF.                    Grid:  NORTH REFERENCE
 HPTY.       Minimum Curvature:  HOLE POS TYPE
 DMOD.             Drill Model:  DRILL MOD DESC
 SVYD.                  Survey:  SURVEY DESC
 ILTD.               Lithology:  INTERP LTH DESC
 FTOP.          Formation Tops:  FORM TOPS DESC
 SON .        AZ-XX-0906192647:  JOB NUMBER
 WTYP.                Deviated:  WELL TYPE
 COMP.     BP Exploration (Caspian Sea) Ltd:  COMPANY
 BASE.              Azerbaijan:  LOGGING EQUIPMENT BASE LOCATION
 REGN.                 Eurasia:  REGION
 FLD .                     ACG:  FIELD NAME
 SRVC.              KCA Deutag:  CONTRACTOR
 MWDS.                    Baku:  MWD SHOP
 WELL.     A10 (Slot 20) - SCP:  WELL NAME
 JOBN.        AZ-XX-0906192647:  JOB TICKET NUMB
 RIG .                 Chirag1:  RIG NAME
 DCON.     Halliburton Sperry Drilling:  DIRECTNL CONTR
 UNIT.                     N/A:  LOGGING EQUIPMENT ID
 PDAT.          Mean Sea Level:  PERMANENT DATUM
 MDS .        Operator Entered:  MAG DATA SOURCE
 CTRY.              Azerbaijan:  COUNTRY NAME
 UWI .            /AZE00000090:  UNIQUE WELL IDENTIFIER
 API .            /AZE00000090:  API NUMBER
 CNTY.                        :  COUNTY
 PROV.                        :  PROVINCE
 STAT.                        :  STATE
 LOC .                        :  LOCATION
 LMF .             Drill Floor:  LOG MEASURED FROM
 TVDS.m                  36.60:  TVDSS CORRECTN
 LATI.deg                40.08:  LATITUDE
 LONG.deg                51.24:  LONGITUDE
 WHNS.m                  -7.94:  WELL HEAD N/S
 WHEW.m                   1.56:  WELL HEAD E/W
 UTMX.m              520429.26:  UTM X
 UTMY.m             4438973.87:  UTM Y
 DFWL.m                   0.00:  DISTANCE FWL
 DFSL.m                   0.00:  DISTANCE FSL
 SDEP.m                1455.00:  START DEPTH
 TDD .m                4047.51:  TOTAL DEPTH (DRILLER)
 VSDR.deg               112.75:  VERT SEC DIRECT
 GVFD.g                   1.00:  GRAVITY FIELD
 MFLD.nT              50261.00:  MAGNETIC FIELD
 MDIP.deg                59.52:  MAGNETIC DIP
 MDEC.deg                 6.42:  MAGNETIC DECL
 GRDC.deg                 0.17:  GRID CORRECTION
 AZTC.deg                 6.25:  AZM TOTAL CORR
 EPD .m                   0.00:  ELEVATION
 EGL .m                   0.00:  GROUND ELEVATION
 WDMS.m                 121.00:  WD ELEV
 APD .m                  36.60:  DEPTH ABOVE PD
 AGAP.m                  36.60:  AIR GAP
 VSEW.m                   1.56:  VERT SEC E/W
 VSNS.m                  -7.94:  VERT SEC N/S
 DEP .m                1140.01:  DEPTH
 EKB .m                  36.60:  KB ELEVATION
 EDF .m                  36.60:  DF ELEVATION
 TDL .m                 169.50:  TOTAL DEPTH (LOGGER)
 CSGD.m                3875.01:  CASING BOTTOM (DRILLER)
 CSGL.m                3875.01:  CASING BOTTOM (LOGGER)
 CSGS.in                  7.63:  CASING SIZE
 CSGW.lbpf               23.50:  CASING WEIGHT
 VSC .                       0:  VS TO CLOSURE
 MAGU.                 1849206:  MAGUTM CHECKSUM
~Parameter Information Block
#MNEM.UNIT       Value        Description
#---------     -----------    ---------------------------
 AV  .mps                 1.90:  Ann Velocity 
 AVMX.mps                 2.54:  Max Ann Veloc 
 AZIF.deg               137.03:  Azm, Final 
 BHAT.        Rotary Steerable:  BHA Type 
 BREV.rev             23610.00:  Rev Bit Total 
 BROT.°/30m               0.80:  Build Rotating 
 BS  .in                  6.50:  Bit Size 
 BTPL.psig              110.00:  Bit Press Loss 
 CABU.                     Yes:  Customer Abuse 
 COMM.                     Ð„:  Run Comments 1 
 TCS .hr                 70.51:  Time Ciculation Ended 
 CV  .mps                 1.41:  Crit Velocity 
 CVMX.mps                 1.42:  Max Crit Veloc 
 DD1 .         Intigam Rahimov:  Direct Drillr 1 
 DD2 .          Rashad Gojayev:  Direct Drillr 2 
 DDSV.               Geo-Pilot:  DD Service 
 DEFF.%                 100.00:  % Det Eff 
 DLRX.°/30m               1.44:  Dogleg Rot Max 
 DLSO.°/30m               0.00:  Dogleg Oriented 
 DLSX.°/30m               0.00:  Dogleg Str Max 
 DRET.      03.05.00 01-Feb-20:  Drill End Time 
 DRST.      15.50.00 28-Jan-20:  Drill Start Tim 
 DTIM.hr                 24.70:  Time Drilling 
 EDEP.m                4047.51:  End Depth 
 ENG1.           Eldar Hajiyev:  Engineer 1 
 ENG2.          Rasim Hashimov:  Engineer 2 
 ENG3.          Rustam Safarov:  Engineer 3 
 ETIM.      22.00.00 01-Feb-20:  End Time 
 FLOI.gpm               370.00:  Flow In 
 FLON.gpm               300.00:  Flow In Min 
 FLOS.cptm                0.00:  Fluid Loss 
 FLOX.gpm               400.00:  Flow In Max 
 FTRO.       Formation Presure:  FTWD Run Obj 
 HFLO.                      No:  High Flow 
 HPRE.                      No:  High Pressure 
 HTEM.                      No:  High Temp 
 HYDO.m                   2.50:  Hydro Offset 
 IFIN.deg                39.54:  Inc, Final 
 IMAX.deg                41.14:  Inc Max 
 IMIN.deg                39.81:  Inc Min 
 IMND.m                4005.21:  Inc Min Depth 
 IMXD.m                3948.42:  Inc Max Depth 
 JARR.                      No:  Jarring 
 LETM.      03.05.00 01-Feb-20:  Log End Time 
 LOST.hr                     0:  Lost Rig Time 
 LSTM.      15.50.00 28-Jan-20:  Log Start Time 
 MDCL.ppm             37500.00:  Mud Chlorides 
 MDES.     Inversion Oil/Synthetic:  Mud Desc 
 DFD .sg                  1.32:  Mud Density 
 MDMN.sg                  1.32:  Dens Mud Min 
 MDMX.sg                  1.32:  Dens Mud Max 
 MOIL.                      55:  Run Mud Oil % 
 MOWR.                   70:30:  Run Mud OWR 
 MSND.                       0:  Run Mud Sand % 
 MSOL.                      17:  Run Mud Solids% 
 DFV .spqt               80.00:  Mud Viscosity 
 MWOD.in                  4.75:  MWD Tool OD 
 MWSI.                      No:  Serv Intrp, MWD 
 OTIM.hr                121.28:  Time Operating 
 PCON.           Look Like New:  Pad Condition 
 PMAX.psia             6171.00:  Press Op, Max 
 PV  .cP                 30.00:  Mud PV 
 RUN .                     300:  Run Number 
 ROPA.m/hr                5.45:  ROP Avg 
 ROPN.m/hr                3.00:  ROP Min 
 ROPX.m/hr               15.00:  ROP Max 
 RPMA.rpm               130.00:  RPM Surface Avg 
 RPMN.rpm                80.00:  RPM Surface Min 
 RPMX.rpm               140.00:  RPM Surface Max 
 RRUN.                     300:  Rig Run Number 
 RTIM.hr                 13.50:  Time Reaming 
 SAZI.deg               133.93:  Azm, Start 
 SDEP.m                3878.01:  Start Depth 
 SIDD.                      No:  Serv Intrp, DD 
 SINC.deg                40.28:  Inc, Start 
 SPPA.psig             4983.00:  SPP Avg 
 SPPN.psig             4370.00:  SPP Min 
 SPPX.psig             5300.00:  SPP Max 
 STIM.      18.33.36 27-Jan-20:  Start Time 
 SVCS.                 DD, MWD:  Services 
 SVER.                    9.20:  Sperry Version 
 TDAT.m                 169.50:  Tot Depth Attmp 
 TDDF.                      No:  Trip for DD 
 TDLG.m                 169.50:  Tot Depth Loggd 
 TFF .                      No:  Trip for Fail 
 TQAA.f-kp               13.25:  Torque Abs Avg 
 TQAN.f-kp               12.00:  Torque Abs Min 
 TQAX.f-kp               14.00:  Torque Abs Max 
 TRRT.°/30m               0.70:  Turn Rotating 
 MRT .                     ADR:  Maximum Recorded Temperature 
 TTMX.degC               92.16:  Max Tool Temp 
 VS01.       AZ90598764G12V7D4:  Virtual Str1 SN 
 VS02.         AZ90571342R12C4:  Virtual Str2 SN 
 VS03.      AZ90580010N2L2X1C4:  Virtual Str3 SN 
 VS04.        AZ90522266O7X1C4:  Virtual Str4 SN 
 VS05.           AZ90598768F11:  Virtual Str5 SN 
 VS06.     AZ90580006XZ1W1X1C4:  Virtual Str6 SN 
 WBMN.klb                 8.00:  WOB Min 
 WITN.            Peter Wilson:  Customer Rep 
 WOBA.klb                 9.88:  WOB Avg 
 WOBX.klb                10.00:  WOB Max 
 YP  .lhf2               27.00:  Yield Point 
~Curve Information Block
#MNEM.UNIT                 API CODE     Curve Description
#---------               -----------    ---------------------------
 TIME.HHMMSS            00 000 000 000:  GT Time & Date
 GTDEPTH.m              00 000 000 000:  GT Depth
 GTPQH.psia             00 000 000 000:  GT HR Quartz Pressure
 GTTQ.degC              00 000 000 000:  GT Quartz Temperature
 GTTN.NONE              00 000 000 000:  GT Test Number
 GTET.sec               00 000 000 000:  GT Elapsed Test Time
 GTTVD.m                00 000 000 000:  GT True Vertical Depth
#Other Information
#
#WARRANTY: Halliburton will use its best efforts to furnish customers with 
#accurate information and interpretations that are part of, and incident to, the services 
#provided.  However, Halliburton cannot and does not warrant the accuracy 
#or correctness of such information and interpretations.  Under no circumstances should any 
#such information or interpretation be relied upon as the sole basis for any drilling, 
#completion, production, or financial decision or any procedure involving any risk to the 
#safety of any drilling venture, drilling rig or its crew or any other third party.  The 
#Customer has full responsibility for all drilling, completion and production operation.  
#Halliburton makes no representations or warranties, either expressed or 
#implied, including, but not limited to, the implied warranties of merchantability or fitness 
#for a particular purpose, with respect to the services rendered.  In no event will 
#Halliburton be liable for failure to obtain any particular results or for 
#any damages, including, but not limited to, indirect, special or consequential damages, 
#resulting from the use of any information or interpretation provided by Halliburton.
#
~A           TIME           GTDEPTH  GTPQH  GTTQ  GTTN  GTET   GTTVD  
# ...
   06:27:16.751.31-Jan-2020 3914.01 2994.28 78.92 4.00 115.02 2947.83
   06:27:16.951.31-Jan-2020 3914.01 2994.28 78.92 4.00 115.22 2947.83
   06:27:17.151.31-Jan-2020 3914.01 2994.25 78.92 4.00 115.42 2947.83
   06:27:17.351.31-Jan-2020 3914.01 2994.29 78.92 4.00 115.62 2947.83
   06:27:17.551.31-Jan-2020 3914.01 2994.01 78.92 4.00 115.82 2947.83
   06:27:17.751.31-Jan-2020 3914.01 2994.34 78.92 4.00 116.02 2947.83
   06:27:17.951.31-Jan-2020 3914.01 2994.34 78.92 4.00 116.22 2947.83
   06:27:18.151.31-Jan-2020 3914.01 2994.28 78.92 4.00 116.42 2947.83
   06:27:18.351.31-Jan-2020 3914.01 2994.25 78.92 4.00 116.62 2947.83
   06:27:18.551.31-Jan-2020 3914.01 2994.03 78.92 4.00 116.82 2947.83
   06:27:18.751.31-Jan-2020 3914.01 2994.35 78.92 4.00 117.02 2947.83
   06:27:18.951.31-Jan-2020 3914.01 2994.35 78.92 4.00 117.22 2947.83
   06:27:19.151.31-Jan-2020 3914.01 2994.28 78.91 4.00 117.42 2947.83
   06:27:19.351.31-Jan-2020 3914.01 2994.24 78.91 4.00 117.62 2947.83
   06:27:19.551.31-Jan-2020 3914.01 2994.25 78.91 4.00 117.82 2947.83
   06:27:19.751.31-Jan-2020 3914.01 2994.00 78.91 4.00 118.02 2947.83
   06:27:19.951.31-Jan-2020 3914.01 2994.00 78.91 4.00 118.22 2947.83
   06:27:20.152.31-Jan-2020 3914.01 2994.30 78.91 4.00 118.42 2947.83
   06:27:20.352.31-Jan-2020 3914.01 2994.32 78.91 4.00 118.62 2947.83
   06:27:20.552.31-Jan-2020 3914.01 2994.28 78.91 4.00 118.82 2947.83
   06:27:20.752.31-Jan-2020 3914.01 2994.25 78.91 4.00 119.02 2947.83
   06:27:20.952.31-Jan-2020 3914.01 2994.25 78.91 4.00 119.22 2947.83
   06:27:21.152.31-Jan-2020 3914.01 2994.20 78.91 4.00 119.42 2947.83
   06:27:21.352.31-Jan-2020 3914.01 2994.27 78.91 4.00 119.62 2947.83
   06:27:21.552.31-Jan-2020 3914.01 2994.25 78.91 4.00 119.82 2947.83
   06:27:21.752.31-Jan-2020 3914.01 2994.19 78.91 4.00 120.02 2947.83
   06:27:21.952.31-Jan-2020 3914.01 2994.19 78.91 4.00 120.22 2947.83
   06:27:22.152.31-Jan-2020 3914.01 2994.21 78.91 4.00 120.42 2947.83
   06:27:22.352.31-Jan-2020 3914.01 2994.19 78.90 4.00 120.62 2947.83
   06:27:22.552.31-Jan-2020 3914.01 2994.23 78.90 4.00 120.82 2947.83
   06:27:22.752.31-Jan-2020 3914.01 2994.23 78.90 4.00 121.02 2947.83
   06:27:22.952.31-Jan-2020 3914.01 2994.23 78.90 4.00 121.22 2947.83
   06:27:23.152.31-Jan-2020 3914.01 2994.18 78.90 4.00 121.42 2947.83
   06:27:23.352.31-Jan-2020 3914.01 2994.10 78.90 4.00 121.62 2947.83
   06:27:23.552.31-Jan-2020 3914.01 2994.20 78.90 4.00 121.82 2947.83
   06:27:23.752.31-Jan-2020 3914.01 2994.26 78.90 4.00 122.02 2947.83
   06:27:23.952.31-Jan-2020 3914.01 2994.26 78.90 4.00 122.22 2947.83
   06:27:24.152.31-Jan-2020 3914.01 2994.25 78.90 4.00 122.42 2947.83
   06:27:24.352.31-Jan-2020 3914.01 2994.24 78.90 4.00 122.62 2947.83
   06:27:24.552.31-Jan-2020 3914.01 2994.20 78.90 4.00 122.82 2947.83
   06:27:24.752.31-Jan-2020 3914.01 2994.18 78.90 4.00 123.02 2947.83
   06:27:24.952.31-Jan-2020 3914.01 2994.18 78.90 4.00 123.23 2947.83
   06:27:25.153.31-Jan-2020 3914.01 2994.22 78.90 4.00 123.43 2947.83
   06:27:25.353.31-Jan-2020 3914.01 2994.20 78.90 4.00 123.63 2947.83
   06:27:25.553.31-Jan-2020 3914.01 2994.18 78.89 4.00 123.83 2947.83
   06:27:25.753.31-Jan-2020 3914.01 2994.20 78.89 4.00 124.03 2947.83
   06:27:25.953.31-Jan-2020 3914.01 2994.20 78.89 4.00 124.23 2947.83
   06:27:26.153.31-Jan-2020 3914.01 2994.17 78.89 4.00 124.43 2947.83
   06:27:26.353.31-Jan-2020 3914.01 2994.23 78.89 4.00 124.63 2947.83
   06:27:26.553.31-Jan-2020 3914.01 2994.24 78.89 4.00 124.83 2947.83
   06:27:26.753.31-Jan-2020 3914.01 2993.94 78.89 4.00 125.03 2947.83
   06:27:26.953.31-Jan-2020 3914.01 2993.94 78.89 4.00 125.23 2947.83
   06:27:27.153.31-Jan-2020 3914.01 2994.21 78.89 4.00 125.43 2947.83
   06:27:27.353.31-Jan-2020 3914.01 2994.19 78.89 4.00 125.63 2947.83
   06:27:27.553.31-Jan-2020 3914.01 2994.19 78.89 4.00 125.83 2947.83
   06:27:27.753.31-Jan-2020 3914.01 2993.99 78.89 4.00 126.03 2947.83
   06:27:27.953.31-Jan-2020 3914.01 2993.99 78.89 4.00 126.23 2947.83
   06:27:28.153.31-Jan-2020 3914.01 2994.22 78.89 4.00 126.43 2947.83
   06:27:28.353.31-Jan-2020 3914.01 2994.22 78.89 4.00 126.63 2947.83
   06:27:28.553.31-Jan-2020 3914.01 2994.19 78.89 4.00 126.83 2947.83
   06:27:28.753.31-Jan-2020 3914.01 2994.16 78.88 4.00 127.03 2947.83
   06:27:28.953.31-Jan-2020 3914.01 2994.16 78.88 4.00 127.23 2947.83
   06:27:29.153.31-Jan-2020 3914.01 2994.18 78.88 4.00 127.43 2947.83
   06:27:29.353.31-Jan-2020 3914.01 2994.32 78.88 4.00 127.63 2947.83
   06:27:29.553.31-Jan-2020 3914.01 2994.24 78.88 4.00 127.83 2947.83
   06:27:29.753.31-Jan-2020 3914.01 2994.22 78.88 4.00 128.03 2947.83
   06:27:29.953.31-Jan-2020 3914.01 2994.22 78.88 4.00 128.23 2947.83
   06:27:30.154.31-Jan-2020 3914.01 2993.88 78.88 4.00 128.43 2947.83
   06:27:30.354.31-Jan-2020 3914.01 2994.31 78.88 4.00 128.63 2947.83
   06:27:30.554.31-Jan-2020 3914.01 2994.25 78.88 4.00 128.83 2947.83
   06:27:30.754.31-Jan-2020 3914.01 2994.23 78.88 4.00 129.03 2947.83
   06:27:30.954.31-Jan-2020 3914.01 2994.23 78.88 4.00 129.23 2947.83
   06:27:31.154.31-Jan-2020 3914.01 2994.17 78.88 4.00 129.43 2947.83
   06:27:31.354.31-Jan-2020 3914.01 2993.90 78.88 4.00 129.63 2947.83
   06:27:31.554.31-Jan-2020 3914.01 2994.34 78.88 4.00 129.83 2947.83
   06:27:31.754.31-Jan-2020 3914.01 2994.20 78.88 4.00 130.03 2947.83
   06:27:31.954.31-Jan-2020 3914.01 2994.20 78.88 4.00 130.23 2947.83
   06:27:32.154.31-Jan-2020 3914.01 2994.24 78.87 4.00 130.43 2947.83
   06:27:32.354.31-Jan-2020 3914.01 2994.15 78.87 4.00 130.63 2947.83
   06:27:32.554.31-Jan-2020 3914.01 2994.13 78.87 4.00 130.83 2947.83
   06:27:32.754.31-Jan-2020 3914.01 2994.14 78.87 4.00 131.03 2947.83
   06:27:32.954.31-Jan-2020 3914.01 2994.14 78.87 4.00 131.23 2947.83
   06:27:33.154.31-Jan-2020 3914.01 2994.16 78.87 4.00 131.43 2947.83
   06:27:33.354.31-Jan-2020 3914.01 2994.14 78.87 4.00 131.63 2947.83
   06:27:33.554.31-Jan-2020 3914.01 2994.15 78.87 4.00 131.83 2947.83
   06:27:33.754.31-Jan-2020 3914.01 2994.11 78.87 4.00 132.03 2947.83
   06:27:33.954.31-Jan-2020 3914.01 2994.11 78.87 4.00 132.23 2947.83
   06:27:34.154.31-Jan-2020 3914.01 2994.16 78.87 4.00 132.43 2947.83
   06:27:34.354.31-Jan-2020 3914.01 2994.17 78.87 4.00 132.63 2947.83
   06:27:34.554.31-Jan-2020 3914.01 2994.12 78.87 4.00 132.83 2947.83
   06:27:34.754.31-Jan-2020 3914.01 2994.11 78.87 4.00 133.03 2947.83
   06:27:34.955.31-Jan-2020 3914.01 2994.11 78.87 4.00 133.23 2947.83
   06:27:35.155.31-Jan-2020 3914.01 2947.03 78.86 4.00 133.43 2947.83
   06:27:35.355.31-Jan-2020 3914.01 2928.46 78.86 4.00 133.63 2947.83
   06:27:35.555.31-Jan-2020 3914.01 2929.38 78.86 4.00 133.83 2947.83
   06:27:35.755.31-Jan-2020 3914.01 2928.46 78.86 4.00 134.03 2947.83
   06:27:35.955.31-Jan-2020 3914.01 2928.46 78.86 4.00 134.23 2947.83
   06:27:36.155.31-Jan-2020 3914.01 2927.12 78.86 4.00 134.43 2947.83
   06:27:36.355.31-Jan-2020 3914.01 2926.89 78.86 4.00 134.63 2947.83
   06:27:36.555.31-Jan-2020 3914.01 2926.40 78.86 4.00 134.83 2947.83
   06:27:36.755.31-Jan-2020 3914.01 2926.98 78.86 4.00 135.03 2947.83
   06:27:36.955.31-Jan-2020 3914.01 2926.98 78.86 4.00 135.23 2947.83
   06:27:37.155.31-Jan-2020 3914.01 2926.85 78.86 4.00 135.43 2947.83
   06:27:37.355.31-Jan-2020 3914.01 2926.63 78.86 4.00 135.63 2947.83
   06:27:37.555.31-Jan-2020 3914.01 2926.78 78.86 4.00 135.83 2947.83
   06:27:37.755.31-Jan-2020 3914.01 2926.83 78.86 4.00 136.03 2947.83
   06:27:37.955.31-Jan-2020 3914.01 2926.83 78.86 4.00 136.23 2947.83
   06:27:38.155.31-Jan-2020 3914.01 2926.95 78.86 4.00 136.43 2947.83
   06:27:38.355.31-Jan-2020 3914.01 2926.09 78.85 4.00 136.63 2947.83
   06:27:38.555.31-Jan-2020 3914.01 2927.06 78.85 4.00 136.83 2947.83
   06:27:38.755.31-Jan-2020 3914.01 2926.86 78.85 4.00 137.03 2947.83
   06:27:38.955.31-Jan-2020 3914.01 2926.86 78.85 4.00 137.23 2947.83
   06:27:39.155.31-Jan-2020 3914.01 2926.60 78.85 4.00 137.43 2947.83
   06:27:39.355.31-Jan-2020 3914.01 2925.78 78.85 4.00 137.63 2947.83
   06:27:39.555.31-Jan-2020 3914.01 2927.70 78.85 4.00 137.83 2947.83
