~Version Information
 VERS.                  2.0:   CWLS log ASCII Standard -VERSION 2.0
 WRAP.                   NO:   One line per depth step
~Well Information Block
#MNEM.UNIT     VALUE/NAME     DESCRIPTION
#---------     -----------    ---------------------------
 STRT.S             04:12:25 01-Feb-20: START TIME 04:12:25 01-Feb-20
 STOP.S             04:20:20 01-Feb-20: STOP TIME  04:20:20 01-Feb-20
 STEP.S                   0.00: STEP TIME
 NULL.                 -999.25: NULL VALUE
 DFWT.                        :  DIST FWL TEXT
 DFST.                        :  DIST FSL TEXT
 DMF .             Drill Floor:  DRILL MEAS FROM
 STIM.      09.30.00 26-Dec-19:  START TIME
 DATE.      08.00.00 20-Jan-20:  END TIME
 SPUD.               23-Nov-19:  SPUD DATE
 NREF.                    Grid:  NORTH REFERENCE
 HPTY.       Minimum Curvature:  HOLE POS TYPE
 DMOD.             Drill Model:  DRILL MOD DESC
 SVYD.                  Survey:  SURVEY DESC
 ILTD.               Lithology:  INTERP LTH DESC
 FTOP.          Formation Tops:  FORM TOPS DESC
 SON .        AZ-XX-0906192647:  JOB NUMBER
 WTYP.                Deviated:  WELL TYPE
 COMP.     BP Exploration (Caspian Sea) Ltd:  COMPANY
 BASE.              Azerbaijan:  LOGGING EQUIPMENT BASE LOCATION
 REGN.                 Eurasia:  REGION
 FLD .                     ACG:  FIELD NAME
 SRVC.              KCA Deutag:  CONTRACTOR
 MWDS.                    Baku:  MWD SHOP
 WELL.     A10 (Slot 20) - SCP:  WELL NAME
 JOBN.        AZ-XX-0906192647:  JOB TICKET NUMB
 RIG .                 Chirag1:  RIG NAME
 DCON.     Halliburton Sperry Drilling:  DIRECTNL CONTR
 UNIT.                     N/A:  LOGGING EQUIPMENT ID
 PDAT.          Mean Sea Level:  PERMANENT DATUM
 MDS .        Operator Entered:  MAG DATA SOURCE
 CTRY.              Azerbaijan:  COUNTRY NAME
 UWI .            /AZE00000090:  UNIQUE WELL IDENTIFIER
 API .            /AZE00000090:  API NUMBER
 CNTY.                        :  COUNTY
 PROV.                        :  PROVINCE
 STAT.                        :  STATE
 LOC .                        :  LOCATION
 LMF .             Drill Floor:  LOG MEASURED FROM
 TVDS.m                  36.60:  TVDSS CORRECTN
 LATI.deg                40.08:  LATITUDE
 LONG.deg                51.24:  LONGITUDE
 WHNS.m                  -7.94:  WELL HEAD N/S
 WHEW.m                   1.56:  WELL HEAD E/W
 UTMX.m              520429.26:  UTM X
 UTMY.m             4438973.87:  UTM Y
 DFWL.m                   0.00:  DISTANCE FWL
 DFSL.m                   0.00:  DISTANCE FSL
 SDEP.m                1455.00:  START DEPTH
 TDD .m                4047.51:  TOTAL DEPTH (DRILLER)
 VSDR.deg               112.75:  VERT SEC DIRECT
 GVFD.g                   1.00:  GRAVITY FIELD
 MFLD.nT              50261.00:  MAGNETIC FIELD
 MDIP.deg                59.52:  MAGNETIC DIP
 MDEC.deg                 6.42:  MAGNETIC DECL
 GRDC.deg                 0.17:  GRID CORRECTION
 AZTC.deg                 6.25:  AZM TOTAL CORR
 EPD .m                   0.00:  ELEVATION
 EGL .m                   0.00:  GROUND ELEVATION
 WDMS.m                 121.00:  WD ELEV
 APD .m                  36.60:  DEPTH ABOVE PD
 AGAP.m                  36.60:  AIR GAP
 VSEW.m                   1.56:  VERT SEC E/W
 VSNS.m                  -7.94:  VERT SEC N/S
 DEP .m                1140.01:  DEPTH
 EKB .m                  36.60:  KB ELEVATION
 EDF .m                  36.60:  DF ELEVATION
 TDL .m                 169.50:  TOTAL DEPTH (LOGGER)
 CSGD.m                3875.01:  CASING BOTTOM (DRILLER)
 CSGL.m                3875.01:  CASING BOTTOM (LOGGER)
 CSGS.in                  7.63:  CASING SIZE
 CSGW.lbpf               23.50:  CASING WEIGHT
 VSC .                       0:  VS TO CLOSURE
 MAGU.                 1849206:  MAGUTM CHECKSUM
~Parameter Information Block
#MNEM.UNIT       Value        Description
#---------     -----------    ---------------------------
 AV  .mps                 1.90:  Ann Velocity 
 AVMX.mps                 2.54:  Max Ann Veloc 
 AZIF.deg               137.03:  Azm, Final 
 BHAT.        Rotary Steerable:  BHA Type 
 BREV.rev             23610.00:  Rev Bit Total 
 BROT.°/30m               0.80:  Build Rotating 
 BS  .in                  6.50:  Bit Size 
 BTPL.psig              110.00:  Bit Press Loss 
 CABU.                     Yes:  Customer Abuse 
 TCS .hr                 70.51:  Time Ciculation Ended 
 CV  .mps                 1.41:  Crit Velocity 
 CVMX.mps                 1.42:  Max Crit Veloc 
 DD1 .         Intigam Rahimov:  Direct Drillr 1 
 DD2 .          Rashad Gojayev:  Direct Drillr 2 
 DDSV.               Geo-Pilot:  DD Service 
 DEFF.%                 100.00:  % Det Eff 
 DLRX.°/30m               1.44:  Dogleg Rot Max 
 DLSO.°/30m               0.00:  Dogleg Oriented 
 DLSX.°/30m               0.00:  Dogleg Str Max 
 DRET.      03.05.00 01-Feb-20:  Drill End Time 
 DRST.      15.50.00 28-Jan-20:  Drill Start Tim 
 DTIM.hr                 24.70:  Time Drilling 
 EDEP.m                4047.51:  End Depth 
 ENG1.           Eldar Hajiyev:  Engineer 1 
 ENG2.          Rasim Hashimov:  Engineer 2 
 ENG3.          Rustam Safarov:  Engineer 3 
 ETIM.      22.00.00 01-Feb-20:  End Time 
 FLOI.gpm               370.00:  Flow In 
 FLON.gpm               300.00:  Flow In Min 
 FLOS.cptm                0.00:  Fluid Loss 
 FLOX.gpm               400.00:  Flow In Max 
 FTRO.       Formation Presure:  FTWD Run Obj 
 HFLO.                      No:  High Flow 
 HPRE.                      No:  High Pressure 
 HTEM.                      No:  High Temp 
 HYDO.m                   2.50:  Hydro Offset 
 IFIN.deg                39.54:  Inc, Final 
 IMAX.deg                41.14:  Inc Max 
 IMIN.deg                39.81:  Inc Min 
 IMND.m                4005.21:  Inc Min Depth 
 IMXD.m                3948.42:  Inc Max Depth 
 JARR.                      No:  Jarring 
 LETM.      03.05.00 01-Feb-20:  Log End Time 
 LOST.hr                     0:  Lost Rig Time 
 LSTM.      15.50.00 28-Jan-20:  Log Start Time 
 MDCL.ppm             37500.00:  Mud Chlorides 
 MDES.     Inversion Oil/Synthetic:  Mud Desc 
 DFD .sg                  1.32:  Mud Density 
 MDMN.sg                  1.32:  Dens Mud Min 
 MDMX.sg                  1.32:  Dens Mud Max 
 MOIL.                      55:  Run Mud Oil % 
 MOWR.                   70:30:  Run Mud OWR 
 MSND.                       0:  Run Mud Sand % 
 MSOL.                      17:  Run Mud Solids% 
 DFV .spqt               80.00:  Mud Viscosity 
 MWOD.in                  4.75:  MWD Tool OD 
 MWSI.                      No:  Serv Intrp, MWD 
 OTIM.hr                121.28:  Time Operating 
 PCON.           Look Like New:  Pad Condition 
 PMAX.psia             6171.00:  Press Op, Max 
 PV  .cP                 30.00:  Mud PV 
 RUN .                     300:  Run Number 
 ROPA.m/hr                5.45:  ROP Avg 
 ROPN.m/hr                3.00:  ROP Min 
 ROPX.m/hr               15.00:  ROP Max 
 RPMA.rpm               130.00:  RPM Surface Avg 
 RPMN.rpm                80.00:  RPM Surface Min 
 RPMX.rpm               140.00:  RPM Surface Max 
 RRUN.                     300:  Rig Run Number 
 RTIM.hr                 13.50:  Time Reaming 
 SAZI.deg               133.93:  Azm, Start 
 SDEP.m                3878.01:  Start Depth 
 SIDD.                      No:  Serv Intrp, DD 
 SINC.deg                40.28:  Inc, Start 
 SPPA.psig             4983.00:  SPP Avg 
 SPPN.psig             4370.00:  SPP Min 
 SPPX.psig             5300.00:  SPP Max 
 STIM.      18.33.36 27-Jan-20:  Start Time 
 SVCS.                 DD, MWD:  Services 
 SVER.                    9.20:  Sperry Version 
 TDAT.m                 169.50:  Tot Depth Attmp 
 TDDF.                      No:  Trip for DD 
 TDLG.m                 169.50:  Tot Depth Loggd 
 TFF .                      No:  Trip for Fail 
 TQAA.f-kp               13.25:  Torque Abs Avg 
 TQAN.f-kp               12.00:  Torque Abs Min 
 TQAX.f-kp               14.00:  Torque Abs Max 
 TRRT.°/30m               0.70:  Turn Rotating 
 MRT .                     ADR:  Maximum Recorded Temperature 
 TTMX.degC               92.16:  Max Tool Temp 
 VS01.       AZ90598764G12V7D4:  Virtual Str1 SN 
 VS02.         AZ90571342R12C4:  Virtual Str2 SN 
 VS03.      AZ90580010N2L2X1C4:  Virtual Str3 SN 
 VS04.        AZ90522266O7X1C4:  Virtual Str4 SN 
 VS05.           AZ90598768F11:  Virtual Str5 SN 
 VS06.     AZ90580006XZ1W1X1C4:  Virtual Str6 SN 
 WBMN.klb                 8.00:  WOB Min 
 WITN.            Peter Wilson:  Customer Rep 
 WOBA.klb                 9.88:  WOB Avg 
 WOBX.klb                10.00:  WOB Max 
 YP  .lhf2               27.00:  Yield Point 
~Curve Information Block
#MNEM.UNIT                 API CODE     Curve Description
#---------               -----------    ---------------------------
 TIME.HHMMSS            00 000 000 000:  GT Time & Date
 GTDEPTH.m              00 000 000 000:  GT Depth
 GTPQH.psia             00 000 000 000:  GT HR Quartz Pressure
 GTTQ.degC              00 000 000 000:  GT Quartz Temperature
 GTTN.NONE              00 000 000 000:  GT Test Number
 GTET.sec               00 000 000 000:  GT Elapsed Test Time
 GTTVD.m                00 000 000 000:  GT True Vertical Depth
#Other Information
#
#WARRANTY: Halliburton will use its best efforts to furnish customers with 
#accurate information and interpretations that are part of, and incident to, the services 
#provided.  However, Halliburton cannot and does not warrant the accuracy 
#or correctness of such information and interpretations.  Under no circumstances should any 
#such information or interpretation be relied upon as the sole basis for any drilling, 
#completion, production, or financial decision or any procedure involving any risk to the 
#safety of any drilling venture, drilling rig or its crew or any other third party.  The 
#Customer has full responsibility for all drilling, completion and production operation.  
#Halliburton makes no representations or warranties, either expressed or 
#implied, including, but not limited to, the implied warranties of merchantability or fitness 
#for a particular purpose, with respect to the services rendered.  In no event will 
#Halliburton be liable for failure to obtain any particular results or for 
#any damages, including, but not limited to, indirect, special or consequential damages, 
#resulting from the use of any information or interpretation provided by Halliburton.
#
~A           TIME           GTDEPTH  GTPQH  GTTQ  GTTN   GTET   GTTVD  
# ...
   04:16:34.903.01-Feb-2020 3998.51 3148.97 85.00 12.00 249.47 3011.77
   04:16:35.104.01-Feb-2020 3998.51 3148.95 85.00 12.00 249.67 3011.77
   04:16:35.305.01-Feb-2020 3998.51 3149.03 85.00 12.00 249.87 3011.77
   04:16:35.505.01-Feb-2020 3998.51 3149.03 85.00 12.00 250.07 3011.77
   04:16:35.706.01-Feb-2020 3998.51 3148.92 85.00 12.00 250.28 3011.77
   04:16:35.907.01-Feb-2020 3998.51 3149.02 85.00 12.00 250.48 3011.77
   04:16:36.108.01-Feb-2020 3998.51 3148.85 85.00 12.00 250.68 3011.77
   04:16:36.308.01-Feb-2020 3998.51 3148.94 85.00 12.00 250.88 3011.77
   04:16:36.509.01-Feb-2020 3998.51 3148.94 85.00 12.00 251.08 3011.77
   04:16:36.710.01-Feb-2020 3998.51 3148.87 84.99 12.00 251.28 3011.77
   04:16:36.910.01-Feb-2020 3998.51 3148.93 84.99 12.00 251.48 3011.77
   04:16:37.111.01-Feb-2020 3998.51 3148.91 84.99 12.00 251.68 3011.77
   04:16:37.312.01-Feb-2020 3998.51 3148.91 84.99 12.00 251.88 3011.77
   04:16:37.512.01-Feb-2020 3998.51 3148.91 84.99 12.00 252.08 3011.77
   04:16:37.713.01-Feb-2020 3998.51 3148.89 84.99 12.00 252.28 3011.77
   04:16:37.914.01-Feb-2020 3998.51 3148.78 84.99 12.00 252.48 3011.77
   04:16:38.115.01-Feb-2020 3998.51 3148.96 84.99 12.00 252.68 3011.77
   04:16:38.315.01-Feb-2020 3998.51 3148.97 84.99 12.00 252.88 3011.77
   04:16:38.516.01-Feb-2020 3998.51 3148.97 84.99 12.00 253.08 3011.77
   04:16:38.717.01-Feb-2020 3998.51 3149.00 84.99 12.00 253.29 3011.77
   04:16:38.917.01-Feb-2020 3998.51 3148.90 84.99 12.00 253.49 3011.77
   04:16:39.118.01-Feb-2020 3998.51 3149.00 84.99 12.00 253.69 3011.77
   04:16:39.319.01-Feb-2020 3998.51 3148.91 84.99 12.00 253.89 3011.77
   04:16:39.520.01-Feb-2020 3998.51 3148.91 84.99 12.00 254.09 3011.77
   04:16:39.720.01-Feb-2020 3998.51 3148.98 84.99 12.00 254.29 3011.77
   04:16:39.921.01-Feb-2020 3998.51 3148.91 84.99 12.00 254.49 3011.77
   04:16:40.122.01-Feb-2020 3998.51 3148.94 84.99 12.00 254.69 3011.77
   04:16:40.322.01-Feb-2020 3998.51 3148.96 84.99 12.00 254.89 3011.77
   04:16:40.523.01-Feb-2020 3998.51 3148.96 84.99 12.00 255.09 3011.77
   04:16:40.724.01-Feb-2020 3998.51 3148.93 84.98 12.00 255.29 3011.77
   04:16:40.924.01-Feb-2020 3998.51 3148.95 84.98 12.00 255.49 3011.77
   04:16:41.125.01-Feb-2020 3998.51 3148.66 84.98 12.00 255.69 3011.77
   04:16:41.326.01-Feb-2020 3998.51 3149.17 84.98 12.00 255.89 3011.77
   04:16:41.527.01-Feb-2020 3998.51 3149.17 84.98 12.00 256.10 3011.77
   04:16:41.727.01-Feb-2020 3998.51 3148.97 84.98 12.00 256.30 3011.77
   04:16:41.928.01-Feb-2020 3998.51 3148.98 84.98 12.00 256.50 3011.77
   04:16:42.129.01-Feb-2020 3998.51 3148.66 84.98 12.00 256.70 3011.77
   04:16:42.329.01-Feb-2020 3998.51 3149.13 84.98 12.00 256.90 3011.77
   04:16:42.530.01-Feb-2020 3998.51 3149.13 84.98 12.00 257.10 3011.77
   04:16:42.731.01-Feb-2020 3998.51 3148.98 84.98 12.00 257.30 3011.77
   04:16:42.931.01-Feb-2020 3998.51 3149.03 84.98 12.00 257.50 3011.77
   04:16:43.132.01-Feb-2020 3998.51 3148.84 84.98 12.00 257.70 3011.77
   04:16:43.333.01-Feb-2020 3998.51 3148.90 84.98 12.00 257.90 3011.77
   04:16:43.534.01-Feb-2020 3998.51 3148.90 84.98 12.00 258.10 3011.77
   04:16:43.734.01-Feb-2020 3998.51 3149.00 84.98 12.00 258.30 3011.77
   04:16:43.935.01-Feb-2020 3998.51 3148.97 84.98 12.00 258.50 3011.77
   04:16:44.136.01-Feb-2020 3998.51 3148.96 84.98 12.00 258.70 3011.77
   04:16:44.336.01-Feb-2020 3998.51 3148.76 84.98 12.00 258.91 3011.77
   04:16:44.537.01-Feb-2020 3998.51 3148.76 84.98 12.00 259.11 3011.77
   04:16:44.738.01-Feb-2020 3998.51 3148.91 84.97 12.00 259.31 3011.77
   04:16:44.938.01-Feb-2020 3998.51 3149.01 84.97 12.00 259.51 3011.77
   04:16:45.139.01-Feb-2020 3998.51 3148.99 84.97 12.00 259.71 3011.77
   04:16:45.340.01-Feb-2020 3998.51 3149.01 84.97 12.00 259.91 3011.77
   04:16:45.541.01-Feb-2020 3998.51 3149.01 84.97 12.00 260.11 3011.77
   04:16:45.741.01-Feb-2020 3998.51 3148.64 84.97 12.00 260.31 3011.77
   04:16:45.942.01-Feb-2020 3998.51 3149.11 84.97 12.00 260.51 3011.77
   04:16:46.143.01-Feb-2020 3998.51 3149.03 84.97 12.00 260.71 3011.77
   04:16:46.343.01-Feb-2020 3998.51 3148.99 84.97 12.00 260.91 3011.77
   04:16:46.544.01-Feb-2020 3998.51 3148.99 84.97 12.00 261.11 3011.77
   04:16:46.745.01-Feb-2020 3998.51 3148.94 84.97 12.00 261.31 3011.77
   04:16:46.945.01-Feb-2020 3998.51 3148.98 84.97 12.00 261.51 3011.77
   04:16:47.146.01-Feb-2020 3998.51 3148.99 84.97 12.00 261.72 3011.77
   04:16:47.347.01-Feb-2020 3998.51 3148.94 84.97 12.00 261.92 3011.77
   04:16:47.548.01-Feb-2020 3998.51 3148.94 84.97 12.00 262.12 3011.77
   04:16:47.748.01-Feb-2020 3998.51 3148.97 84.97 12.00 262.32 3011.77
   04:16:47.949.01-Feb-2020 3998.51 3148.90 84.97 12.00 262.52 3011.77
   04:16:48.150.01-Feb-2020 3998.51 3149.01 84.97 12.00 262.72 3011.77
   04:16:48.350.01-Feb-2020 3998.51 3148.87 84.97 12.00 262.92 3011.77
   04:16:48.551.01-Feb-2020 3998.51 3148.87 84.97 12.00 263.12 3011.77
   04:16:48.752.01-Feb-2020 3998.51 3149.00 84.96 12.00 263.32 3011.77
   04:16:48.952.01-Feb-2020 3998.51 3148.88 84.96 12.00 263.52 3011.77
   04:16:49.153.01-Feb-2020 3998.51 3148.93 84.96 12.00 263.72 3011.77
   04:16:49.354.01-Feb-2020 3998.51 3148.94 84.96 12.00 263.92 3011.77
   04:16:49.555.01-Feb-2020 3998.51 3148.94 84.96 12.00 264.12 3011.77
   04:16:49.755.01-Feb-2020 3998.51 3148.94 84.96 12.00 264.32 3011.77
   04:16:49.956.01-Feb-2020 3998.51 3149.04 84.96 12.00 264.52 3011.77
   04:16:50.157.01-Feb-2020 3998.51 3148.92 84.96 12.00 264.73 3011.77
   04:16:50.357.01-Feb-2020 3998.51 3149.05 84.96 12.00 264.93 3011.77
   04:16:50.558.01-Feb-2020 3998.51 3149.05 84.96 12.00 265.13 3011.77
   04:16:50.759.01-Feb-2020 3998.51 3148.96 84.96 12.00 265.33 3011.77
   04:16:50.960.01-Feb-2020 3998.51 3149.02 84.96 12.00 265.53 3011.77
   04:16:51.160.01-Feb-2020 3998.51 3148.89 84.96 12.00 265.73 3011.77
   04:16:51.361.01-Feb-2020 3998.51 3148.96 84.96 12.00 265.93 3011.77
   04:16:51.562.01-Feb-2020 3998.51 3148.96 84.96 12.00 266.13 3011.77
   04:16:51.762.01-Feb-2020 3998.51 3148.90 84.96 12.00 266.33 3011.77
   04:16:51.963.01-Feb-2020 3998.51 3148.96 84.96 12.00 266.53 3011.77
   04:16:52.164.01-Feb-2020 3998.51 3148.89 84.96 12.00 266.73 3011.77
   04:16:52.364.01-Feb-2020 3998.51 3148.93 84.96 12.00 266.93 3011.77
   04:16:52.565.01-Feb-2020 3998.51 3148.93 84.96 12.00 267.13 3011.77
   04:16:52.766.01-Feb-2020 3998.51 3148.61 84.96 12.00 267.33 3011.77
   04:16:52.967.01-Feb-2020 3998.51 3149.13 84.95 12.00 267.54 3011.77
   04:16:53.167.01-Feb-2020 3998.51 3149.03 84.95 12.00 267.74 3011.77
   04:16:53.368.01-Feb-2020 3998.51 3148.92 84.95 12.00 267.94 3011.77
   04:16:53.569.01-Feb-2020 3998.51 3148.92 84.95 12.00 268.14 3011.77
   04:16:53.769.01-Feb-2020 3998.51 3148.64 84.95 12.00 268.34 3011.77
   04:16:53.970.01-Feb-2020 3998.51 3149.09 84.95 12.00 268.54 3011.77
   04:16:54.171.01-Feb-2020 3998.51 3149.04 84.95 12.00 268.74 3011.77
   04:16:54.371.01-Feb-2020 3998.51 3149.01 84.95 12.00 268.94 3011.77
   04:16:54.572.01-Feb-2020 3998.51 3149.01 84.95 12.00 269.14 3011.77
   04:16:54.773.01-Feb-2020 3998.51 3148.95 84.95 12.00 269.34 3011.77
   04:16:54.974.01-Feb-2020 3998.51 3148.93 84.95 12.00 269.54 3011.77
   04:16:55.174.01-Feb-2020 3998.51 3149.07 84.95 12.00 269.74 3011.77
   04:16:55.375.01-Feb-2020 3998.51 3148.98 84.95 12.00 269.94 3011.77
   04:16:55.576.01-Feb-2020 3998.51 3148.98 84.95 12.00 270.14 3011.77
   04:16:55.776.01-Feb-2020 3998.51 3149.03 84.95 12.00 270.35 3011.77
   04:16:55.977.01-Feb-2020 3998.51 3148.67 84.95 12.00 270.55 3011.77
   04:16:56.178.01-Feb-2020 3998.51 3149.09 84.95 12.00 270.75 3011.77
   04:16:56.378.01-Feb-2020 3998.51 3149.01 84.95 12.00 270.95 3011.77
   04:16:56.579.01-Feb-2020 3998.51 3149.01 84.95 12.00 271.15 3011.77
   04:16:56.780.01-Feb-2020 3998.51 3148.99 84.95 12.00 271.35 3011.77
   04:16:56.981.01-Feb-2020 3998.51 3149.00 84.94 12.00 271.55 3011.77
   04:16:57.181.01-Feb-2020 3998.51 3149.02 84.94 12.00 271.75 3011.77
   04:16:57.382.01-Feb-2020 3998.51 3148.79 84.94 12.00 271.95 3011.77
