~Version Information
 VERS.                  2.0:   CWLS log ASCII Standard -VERSION 2.0
 WRAP.                   NO:   One line per depth step
~Well Information Block
#MNEM.UNIT     VALUE/NAME     DESCRIPTION
#---------     -----------    ---------------------------
 STRT.S             17:04:09 31-Jan-20: START TIME 17:04:09 31-Jan-20
 STOP.S             17:10:42 31-Jan-20: STOP TIME  17:10:42 31-Jan-20
 STEP.S                   0.00: STEP TIME
 NULL.                 -999.25: NULL VALUE
 DFWT.                        :  DIST FWL TEXT
 DFST.                        :  DIST FSL TEXT
 DMF .             Drill Floor:  DRILL MEAS FROM
 STIM.      09.30.00 26-Dec-19:  START TIME
 DATE.      08.00.00 20-Jan-20:  END TIME
 SPUD.               23-Nov-19:  SPUD DATE
 NREF.                    Grid:  NORTH REFERENCE
 HPTY.       Minimum Curvature:  HOLE POS TYPE
 DMOD.             Drill Model:  DRILL MOD DESC
 SVYD.                  Survey:  SURVEY DESC
 ILTD.               Lithology:  INTERP LTH DESC
 FTOP.          Formation Tops:  FORM TOPS DESC
 SON .        AZ-XX-0906192647:  JOB NUMBER
 WTYP.                Deviated:  WELL TYPE
 COMP.     BP Exploration (Caspian Sea) Ltd:  COMPANY
 BASE.              Azerbaijan:  LOGGING EQUIPMENT BASE LOCATION
 REGN.                 Eurasia:  REGION
 FLD .                     ACG:  FIELD NAME
 SRVC.              KCA Deutag:  CONTRACTOR
 MWDS.                    Baku:  MWD SHOP
 WELL.     A10 (Slot 20) - SCP:  WELL NAME
 JOBN.        AZ-XX-0906192647:  JOB TICKET NUMB
 RIG .                 Chirag1:  RIG NAME
 DCON.     Halliburton Sperry Drilling:  DIRECTNL CONTR
 UNIT.                     N/A:  LOGGING EQUIPMENT ID
 PDAT.          Mean Sea Level:  PERMANENT DATUM
 MDS .        Operator Entered:  MAG DATA SOURCE
 CTRY.              Azerbaijan:  COUNTRY NAME
 UWI .            /AZE00000090:  UNIQUE WELL IDENTIFIER
 API .            /AZE00000090:  API NUMBER
 CNTY.                        :  COUNTY
 PROV.                        :  PROVINCE
 STAT.                        :  STATE
 LOC .                        :  LOCATION
 LMF .             Drill Floor:  LOG MEASURED FROM
 TVDS.m                  36.60:  TVDSS CORRECTN
 LATI.deg                40.08:  LATITUDE
 LONG.deg                51.24:  LONGITUDE
 WHNS.m                  -7.94:  WELL HEAD N/S
 WHEW.m                   1.56:  WELL HEAD E/W
 UTMX.m              520429.26:  UTM X
 UTMY.m             4438973.87:  UTM Y
 DFWL.m                   0.00:  DISTANCE FWL
 DFSL.m                   0.00:  DISTANCE FSL
 SDEP.m                1455.00:  START DEPTH
 TDD .m                4047.51:  TOTAL DEPTH (DRILLER)
 VSDR.deg               112.75:  VERT SEC DIRECT
 GVFD.g                   1.00:  GRAVITY FIELD
 MFLD.nT              50261.00:  MAGNETIC FIELD
 MDIP.deg                59.52:  MAGNETIC DIP
 MDEC.deg                 6.42:  MAGNETIC DECL
 GRDC.deg                 0.17:  GRID CORRECTION
 AZTC.deg                 6.25:  AZM TOTAL CORR
 EPD .m                   0.00:  ELEVATION
 EGL .m                   0.00:  GROUND ELEVATION
 WDMS.m                 121.00:  WD ELEV
 APD .m                  36.60:  DEPTH ABOVE PD
 AGAP.m                  36.60:  AIR GAP
 VSEW.m                   1.56:  VERT SEC E/W
 VSNS.m                  -7.94:  VERT SEC N/S
 DEP .m                1140.01:  DEPTH
 EKB .m                  36.60:  KB ELEVATION
 EDF .m                  36.60:  DF ELEVATION
 TDL .m                 169.50:  TOTAL DEPTH (LOGGER)
 CSGD.m                3875.01:  CASING BOTTOM (DRILLER)
 CSGL.m                3875.01:  CASING BOTTOM (LOGGER)
 CSGS.in                  7.63:  CASING SIZE
 CSGW.lbpf               23.50:  CASING WEIGHT
 VSC .                       0:  VS TO CLOSURE
 MAGU.                 1849206:  MAGUTM CHECKSUM
~Parameter Information Block
#MNEM.UNIT       Value        Description
#---------     -----------    ---------------------------
 AV  .mps                 1.90:  Ann Velocity 
 AVMX.mps                 2.54:  Max Ann Veloc 
 AZIF.deg               137.03:  Azm, Final 
 BHAT.        Rotary Steerable:  BHA Type 
 BREV.rev             23610.00:  Rev Bit Total 
 BROT.°/30m               0.80:  Build Rotating 
 BS  .in                  6.50:  Bit Size 
 BTPL.psig              110.00:  Bit Press Loss 
 CABU.                     Yes:  Customer Abuse 
 COMM.                     D7Y:  Run Comments 1 
 TCS .hr                 70.51:  Time Ciculation Ended 
 CV  .mps                 1.41:  Crit Velocity 
 CVMX.mps                 1.42:  Max Crit Veloc 
 DD1 .         Intigam Rahimov:  Direct Drillr 1 
 DD2 .          Rashad Gojayev:  Direct Drillr 2 
 DDSV.               Geo-Pilot:  DD Service 
 DEFF.%                 100.00:  % Det Eff 
 DLRX.°/30m               1.44:  Dogleg Rot Max 
 DLSO.°/30m               0.00:  Dogleg Oriented 
 DLSX.°/30m               0.00:  Dogleg Str Max 
 DRET.      03.05.00 01-Feb-20:  Drill End Time 
 DRST.      15.50.00 28-Jan-20:  Drill Start Tim 
 DTIM.hr                 24.70:  Time Drilling 
 EDEP.m                4047.51:  End Depth 
 ENG1.           Eldar Hajiyev:  Engineer 1 
 ENG2.          Rasim Hashimov:  Engineer 2 
 ENG3.          Rustam Safarov:  Engineer 3 
 ETIM.      22.00.00 01-Feb-20:  End Time 
 FLOI.gpm               370.00:  Flow In 
 FLON.gpm               300.00:  Flow In Min 
 FLOS.cptm                0.00:  Fluid Loss 
 FLOX.gpm               400.00:  Flow In Max 
 FTRO.       Formation Presure:  FTWD Run Obj 
 HFLO.                      No:  High Flow 
 HPRE.                      No:  High Pressure 
 HTEM.                      No:  High Temp 
 HYDO.m                   2.50:  Hydro Offset 
 IFIN.deg                39.54:  Inc, Final 
 IMAX.deg                41.14:  Inc Max 
 IMIN.deg                39.81:  Inc Min 
 IMND.m                4005.21:  Inc Min Depth 
 IMXD.m                3948.42:  Inc Max Depth 
 JARR.                      No:  Jarring 
 LETM.      03.05.00 01-Feb-20:  Log End Time 
 LOST.hr                     0:  Lost Rig Time 
 LSTM.      15.50.00 28-Jan-20:  Log Start Time 
 MDCL.ppm             37500.00:  Mud Chlorides 
 MDES.     Inversion Oil/Synthetic:  Mud Desc 
 DFD .sg                  1.32:  Mud Density 
 MDMN.sg                  1.32:  Dens Mud Min 
 MDMX.sg                  1.32:  Dens Mud Max 
 MOIL.                      55:  Run Mud Oil % 
 MOWR.                   70:30:  Run Mud OWR 
 MSND.                       0:  Run Mud Sand % 
 MSOL.                      17:  Run Mud Solids% 
 DFV .spqt               80.00:  Mud Viscosity 
 MWOD.in                  4.75:  MWD Tool OD 
 MWSI.                      No:  Serv Intrp, MWD 
 OTIM.hr                121.28:  Time Operating 
 PCON.           Look Like New:  Pad Condition 
 PMAX.psia             6171.00:  Press Op, Max 
 PV  .cP                 30.00:  Mud PV 
 RUN .                     300:  Run Number 
 ROPA.m/hr                5.45:  ROP Avg 
 ROPN.m/hr                3.00:  ROP Min 
 ROPX.m/hr               15.00:  ROP Max 
 RPMA.rpm               130.00:  RPM Surface Avg 
 RPMN.rpm                80.00:  RPM Surface Min 
 RPMX.rpm               140.00:  RPM Surface Max 
 RRUN.                     300:  Rig Run Number 
 RTIM.hr                 13.50:  Time Reaming 
 SAZI.deg               133.93:  Azm, Start 
 SDEP.m                3878.01:  Start Depth 
 SIDD.                      No:  Serv Intrp, DD 
 SINC.deg                40.28:  Inc, Start 
 SPPA.psig             4983.00:  SPP Avg 
 SPPN.psig             4370.00:  SPP Min 
 SPPX.psig             5300.00:  SPP Max 
 STIM.      18.33.36 27-Jan-20:  Start Time 
 SVCS.                 DD, MWD:  Services 
 SVER.                    9.20:  Sperry Version 
 TDAT.m                 169.50:  Tot Depth Attmp 
 TDDF.                      No:  Trip for DD 
 TDLG.m                 169.50:  Tot Depth Loggd 
 TFF .                      No:  Trip for Fail 
 TQAA.f-kp               13.25:  Torque Abs Avg 
 TQAN.f-kp               12.00:  Torque Abs Min 
 TQAX.f-kp               14.00:  Torque Abs Max 
 TRRT.°/30m               0.70:  Turn Rotating 
 MRT .                     ADR:  Maximum Recorded Temperature 
 TTMX.degC               92.16:  Max Tool Temp 
 VS01.       AZ90598764G12V7D4:  Virtual Str1 SN 
 VS02.         AZ90571342R12C4:  Virtual Str2 SN 
 VS03.      AZ90580010N2L2X1C4:  Virtual Str3 SN 
 VS04.        AZ90522266O7X1C4:  Virtual Str4 SN 
 VS05.           AZ90598768F11:  Virtual Str5 SN 
 VS06.     AZ90580006XZ1W1X1C4:  Virtual Str6 SN 
 WBMN.klb                 8.00:  WOB Min 
 WITN.            Peter Wilson:  Customer Rep 
 WOBA.klb                 9.88:  WOB Avg 
 WOBX.klb                10.00:  WOB Max 
 YP  .lhf2               27.00:  Yield Point 
~Curve Information Block
#MNEM.UNIT                 API CODE     Curve Description
#---------               -----------    ---------------------------
 TIME.HHMMSS            00 000 000 000:  GT Time & Date
 GTDEPTH.m              00 000 000 000:  GT Depth
 GTPQH.psia             00 000 000 000:  GT HR Quartz Pressure
 GTTQ.degC              00 000 000 000:  GT Quartz Temperature
 GTTN.NONE              00 000 000 000:  GT Test Number
 GTET.sec               00 000 000 000:  GT Elapsed Test Time
 GTTVD.m                00 000 000 000:  GT True Vertical Depth
#Other Information
#
#WARRANTY: Halliburton will use its best efforts to furnish customers with 
#accurate information and interpretations that are part of, and incident to, the services 
#provided.  However, Halliburton cannot and does not warrant the accuracy 
#or correctness of such information and interpretations.  Under no circumstances should any 
#such information or interpretation be relied upon as the sole basis for any drilling, 
#completion, production, or financial decision or any procedure involving any risk to the 
#safety of any drilling venture, drilling rig or its crew or any other third party.  The 
#Customer has full responsibility for all drilling, completion and production operation.  
#Halliburton makes no representations or warranties, either expressed or 
#implied, including, but not limited to, the implied warranties of merchantability or fitness 
#for a particular purpose, with respect to the services rendered.  In no event will 
#Halliburton be liable for failure to obtain any particular results or for 
#any damages, including, but not limited to, indirect, special or consequential damages, 
#resulting from the use of any information or interpretation provided by Halliburton.
#
~A           TIME           GTDEPTH  GTPQH  GTTQ  GTTN  GTET   GTTVD  
# ...
   17:09:08.580.31-Jan-2020 3960.51 3520.20 85.13 8.00 299.07 2982.89
   17:09:08.780.31-Jan-2020 3960.51 3520.20 85.13 8.00 299.27 2982.89
   17:09:08.980.31-Jan-2020 3960.51 3520.11 85.13 8.00 299.47 2982.89
   17:09:09.180.31-Jan-2020 3960.51 3520.19 85.13 8.00 299.67 2982.89
   17:09:09.380.31-Jan-2020 3960.51 3519.97 85.13 8.00 299.87 2982.89
   17:09:09.580.31-Jan-2020 3960.51 3520.05 85.13 8.00 300.07 2982.89
   17:09:09.780.31-Jan-2020 3960.51 3520.05 85.13 8.00 300.27 2982.89
   17:09:09.980.31-Jan-2020 3960.51 3519.91 85.13 8.00 300.47 2982.89
   17:09:10.180.31-Jan-2020 3960.51 3520.07 85.13 8.00 300.67 2982.89
   17:09:10.380.31-Jan-2020 3960.51 3519.89 85.13 8.00 300.87 2982.89
   17:09:10.580.31-Jan-2020 3960.51 3520.01 85.12 8.00 301.07 2982.89
   17:09:10.780.31-Jan-2020 3960.51 3520.01 85.12 8.00 301.27 2982.89
   17:09:10.980.31-Jan-2020 3960.51 3519.98 85.12 8.00 301.47 2982.89
   17:09:11.180.31-Jan-2020 3960.51 3519.66 85.12 8.00 301.67 2982.89
   17:09:11.380.31-Jan-2020 3960.51 3519.92 85.12 8.00 301.87 2982.89
   17:09:11.581.31-Jan-2020 3960.51 3520.15 85.12 8.00 302.07 2982.89
   17:09:11.781.31-Jan-2020 3960.51 3520.15 85.12 8.00 302.27 2982.89
   17:09:11.981.31-Jan-2020 3960.51 3519.98 85.12 8.00 302.47 2982.89
   17:09:12.181.31-Jan-2020 3960.51 3519.71 85.12 8.00 302.67 2982.89
   17:09:12.381.31-Jan-2020 3960.51 3519.93 85.12 8.00 302.87 2982.89
   17:09:12.581.31-Jan-2020 3960.51 3520.19 85.12 8.00 303.07 2982.89
   17:09:12.781.31-Jan-2020 3960.51 3520.19 85.12 8.00 303.27 2982.89
   17:09:12.981.31-Jan-2020 3960.51 3520.09 85.12 8.00 303.47 2982.89
   17:09:13.181.31-Jan-2020 3960.51 3520.21 85.12 8.00 303.67 2982.89
   17:09:13.381.31-Jan-2020 3960.51 3519.93 85.12 8.00 303.87 2982.89
   17:09:13.581.31-Jan-2020 3960.51 3519.97 85.12 8.00 304.07 2982.89
   17:09:13.781.31-Jan-2020 3960.51 3519.97 85.12 8.00 304.27 2982.89
   17:09:13.981.31-Jan-2020 3960.51 3519.77 85.12 8.00 304.47 2982.89
   17:09:14.181.31-Jan-2020 3960.51 3520.29 85.12 8.00 304.67 2982.89
   17:09:14.381.31-Jan-2020 3960.51 3520.14 85.12 8.00 304.87 2982.89
   17:09:14.581.31-Jan-2020 3960.51 3520.16 85.11 8.00 305.07 2982.89
   17:09:14.781.31-Jan-2020 3960.51 3520.16 85.11 8.00 305.27 2982.89
   17:09:14.981.31-Jan-2020 3960.51 3519.58 85.11 8.00 305.47 2982.89
   17:09:15.181.31-Jan-2020 3960.51 3520.22 85.11 8.00 305.67 2982.89
   17:09:15.381.31-Jan-2020 3960.51 3520.16 85.11 8.00 305.87 2982.89
   17:09:15.581.31-Jan-2020 3960.51 3520.16 85.11 8.00 306.07 2982.89
   17:09:15.782.31-Jan-2020 3960.51 3520.16 85.11 8.00 306.27 2982.89
   17:09:15.982.31-Jan-2020 3960.51 3519.52 85.11 8.00 306.47 2982.89
   17:09:16.182.31-Jan-2020 3960.51 3520.22 85.11 8.00 306.67 2982.89
   17:09:16.382.31-Jan-2020 3960.51 3520.10 85.11 8.00 306.87 2982.89
   17:09:16.582.31-Jan-2020 3960.51 3520.18 85.11 8.00 307.07 2982.89
   17:09:16.782.31-Jan-2020 3960.51 3520.18 85.11 8.00 307.27 2982.89
   17:09:16.982.31-Jan-2020 3960.51 3520.04 85.11 8.00 307.47 2982.89
   17:09:17.182.31-Jan-2020 3960.51 3520.13 85.11 8.00 307.67 2982.89
   17:09:17.382.31-Jan-2020 3960.51 3519.95 85.11 8.00 307.87 2982.89
   17:09:17.582.31-Jan-2020 3960.51 3519.93 85.11 8.00 308.07 2982.89
   17:09:17.782.31-Jan-2020 3960.51 3519.93 85.11 8.00 308.27 2982.89
   17:09:17.982.31-Jan-2020 3960.51 3519.99 85.11 8.00 308.47 2982.89
   17:09:18.182.31-Jan-2020 3960.51 3520.17 85.11 8.00 308.67 2982.89
   17:09:18.382.31-Jan-2020 3960.51 3519.92 85.11 8.00 308.87 2982.89
   17:09:18.582.31-Jan-2020 3960.51 3519.93 85.11 8.00 309.07 2982.89
   17:09:18.782.31-Jan-2020 3960.51 3519.93 85.11 8.00 309.27 2982.89
   17:09:18.982.31-Jan-2020 3960.51 3519.99 85.10 8.00 309.47 2982.89
   17:09:19.182.31-Jan-2020 3960.51 3520.13 85.10 8.00 309.67 2982.89
   17:09:19.382.31-Jan-2020 3960.51 3520.03 85.10 8.00 309.87 2982.89
   17:09:19.582.31-Jan-2020 3960.51 3519.96 85.10 8.00 310.07 2982.89
   17:09:19.782.31-Jan-2020 3960.51 3519.96 85.10 8.00 310.27 2982.89
   17:09:19.983.31-Jan-2020 3960.51 3519.86 85.10 8.00 310.47 2982.89
   17:09:20.183.31-Jan-2020 3960.51 3520.18 85.10 8.00 310.67 2982.89
   17:09:20.383.31-Jan-2020 3960.51 3520.14 85.10 8.00 310.87 2982.89
   17:09:20.583.31-Jan-2020 3960.51 3520.16 85.10 8.00 311.07 2982.89
   17:09:20.783.31-Jan-2020 3960.51 3520.16 85.10 8.00 311.27 2982.89
   17:09:20.983.31-Jan-2020 3960.51 3520.00 85.10 8.00 311.47 2982.89
   17:09:21.183.31-Jan-2020 3960.51 3520.08 85.10 8.00 311.67 2982.89
   17:09:21.383.31-Jan-2020 3960.51 3520.00 85.10 8.00 311.87 2982.89
   17:09:21.583.31-Jan-2020 3960.51 3519.97 85.10 8.00 312.07 2982.89
   17:09:21.783.31-Jan-2020 3960.51 3519.97 85.10 8.00 312.27 2982.89
   17:09:21.983.31-Jan-2020 3960.51 3519.96 85.10 8.00 312.47 2982.89
   17:09:22.183.31-Jan-2020 3960.51 3520.12 85.10 8.00 312.67 2982.89
   17:09:22.383.31-Jan-2020 3960.51 3519.97 85.10 8.00 312.87 2982.89
   17:09:22.583.31-Jan-2020 3960.51 3519.96 85.10 8.00 313.07 2982.89
   17:09:22.783.31-Jan-2020 3960.51 3519.96 85.10 8.00 313.27 2982.89
   17:09:22.983.31-Jan-2020 3960.51 3519.72 85.09 8.00 313.47 2982.89
   17:09:23.183.31-Jan-2020 3960.51 3520.00 85.09 8.00 313.67 2982.89
   17:09:23.383.31-Jan-2020 3960.51 3520.10 85.09 8.00 313.87 2982.89
   17:09:23.583.31-Jan-2020 3960.51 3520.10 85.09 8.00 314.07 2982.89
   17:09:23.783.31-Jan-2020 3960.51 3520.10 85.09 8.00 314.27 2982.89
   17:09:23.983.31-Jan-2020 3960.51 3519.69 85.09 8.00 314.47 2982.89
   17:09:24.183.31-Jan-2020 3960.51 3519.93 85.09 8.00 314.67 2982.89
   17:09:24.384.31-Jan-2020 3960.51 3520.13 85.09 8.00 314.87 2982.89
   17:09:24.584.31-Jan-2020 3960.51 3520.16 85.09 8.00 315.07 2982.89
   17:09:24.784.31-Jan-2020 3960.51 3520.16 85.09 8.00 315.27 2982.89
   17:09:24.984.31-Jan-2020 3960.51 3520.05 85.09 8.00 315.47 2982.89
   17:09:25.184.31-Jan-2020 3960.51 3520.13 85.09 8.00 315.67 2982.89
   17:09:25.384.31-Jan-2020 3960.51 3520.03 85.09 8.00 315.87 2982.89
   17:09:25.584.31-Jan-2020 3960.51 3519.46 85.09 8.00 316.07 2982.89
   17:09:25.784.31-Jan-2020 3960.51 3519.46 85.09 8.00 316.27 2982.89
   17:09:25.984.31-Jan-2020 3960.51 3520.09 85.09 8.00 316.47 2982.89
   17:09:26.184.31-Jan-2020 3960.51 3520.30 85.09 8.00 316.67 2982.89
   17:09:26.384.31-Jan-2020 3960.51 3520.26 85.09 8.00 316.87 2982.89
   17:09:26.584.31-Jan-2020 3960.51 3520.06 85.09 8.00 317.07 2982.89
   17:09:26.784.31-Jan-2020 3960.51 3520.06 85.09 8.00 317.27 2982.89
   17:09:26.984.31-Jan-2020 3960.51 3520.03 85.08 8.00 317.47 2982.89
   17:09:27.184.31-Jan-2020 3960.51 3520.28 85.08 8.00 317.67 2982.89
   17:09:27.384.31-Jan-2020 3960.51 3520.25 85.08 8.00 317.87 2982.89
   17:09:27.584.31-Jan-2020 3960.51 3520.09 85.08 8.00 318.07 2982.89
   17:09:27.784.31-Jan-2020 3960.51 3520.09 85.08 8.00 318.27 2982.89
   17:09:27.984.31-Jan-2020 3960.51 3519.87 85.08 8.00 318.47 2982.89
   17:09:28.184.31-Jan-2020 3960.51 3520.14 85.08 8.00 318.67 2982.89
   17:09:28.384.31-Jan-2020 3960.51 3520.25 85.08 8.00 318.87 2982.89
   17:09:28.585.31-Jan-2020 3960.51 3520.21 85.08 8.00 319.07 2982.89
   17:09:28.785.31-Jan-2020 3960.51 3520.21 85.08 8.00 319.27 2982.89
   17:09:28.985.31-Jan-2020 3960.51 3520.08 85.08 8.00 319.47 2982.89
   17:09:29.185.31-Jan-2020 3960.51 3520.05 85.08 8.00 319.67 2982.89
   17:09:29.385.31-Jan-2020 3960.51 3520.05 85.08 8.00 319.87 2982.89
   17:09:29.585.31-Jan-2020 3960.51 3519.96 85.08 8.00 320.07 2982.89
   17:09:29.785.31-Jan-2020 3960.51 3519.96 85.08 8.00 320.28 2982.89
   17:09:29.985.31-Jan-2020 3960.51 3520.12 85.08 8.00 320.48 2982.89
   17:09:30.185.31-Jan-2020 3960.51 3520.05 85.08 8.00 320.68 2982.89
   17:09:30.385.31-Jan-2020 3960.51 3520.07 85.08 8.00 320.88 2982.89
   17:09:30.585.31-Jan-2020 3960.51 3519.91 85.08 8.00 321.08 2982.89
   17:09:30.785.31-Jan-2020 3960.51 3519.91 85.08 8.00 321.28 2982.89
   17:09:30.985.31-Jan-2020 3960.51 3520.14 85.07 8.00 321.48 2982.89
   17:09:31.185.31-Jan-2020 3960.51 3520.05 85.07 8.00 321.68 2982.89
   17:09:31.385.31-Jan-2020 3960.51 3520.08 85.07 8.00 321.88 2982.89
