~Version Information
 VERS.                  2.0:   CWLS log ASCII Standard -VERSION 2.0
 WRAP.                   NO:   One line per depth step
~Well Information Block
#MNEM.UNIT     VALUE/NAME     DESCRIPTION
#---------     -----------    ---------------------------
 STRT.S             04:12:25 01-Feb-20: START TIME 04:12:25 01-Feb-20
 STOP.S             04:20:20 01-Feb-20: STOP TIME  04:20:20 01-Feb-20
 STEP.S                   0.00: STEP TIME
 NULL.                 -999.25: NULL VALUE
 DFWT.                        :  DIST FWL TEXT
 DFST.                        :  DIST FSL TEXT
 DMF .             Drill Floor:  DRILL MEAS FROM
 STIM.      09.30.00 26-Dec-19:  START TIME
 DATE.      08.00.00 20-Jan-20:  END TIME
 SPUD.               23-Nov-19:  SPUD DATE
 NREF.                    Grid:  NORTH REFERENCE
 HPTY.       Minimum Curvature:  HOLE POS TYPE
 DMOD.             Drill Model:  DRILL MOD DESC
 SVYD.                  Survey:  SURVEY DESC
 ILTD.               Lithology:  INTERP LTH DESC
 FTOP.          Formation Tops:  FORM TOPS DESC
 SON .        AZ-XX-0906192647:  JOB NUMBER
 WTYP.                Deviated:  WELL TYPE
 COMP.     BP Exploration (Caspian Sea) Ltd:  COMPANY
 BASE.              Azerbaijan:  LOGGING EQUIPMENT BASE LOCATION
 REGN.                 Eurasia:  REGION
 FLD .                     ACG:  FIELD NAME
 SRVC.              KCA Deutag:  CONTRACTOR
 MWDS.                    Baku:  MWD SHOP
 WELL.     A10 (Slot 20) - SCP:  WELL NAME
 JOBN.        AZ-XX-0906192647:  JOB TICKET NUMB
 RIG .                 Chirag1:  RIG NAME
 DCON.     Halliburton Sperry Drilling:  DIRECTNL CONTR
 UNIT.                     N/A:  LOGGING EQUIPMENT ID
 PDAT.          Mean Sea Level:  PERMANENT DATUM
 MDS .        Operator Entered:  MAG DATA SOURCE
 CTRY.              Azerbaijan:  COUNTRY NAME
 UWI .            /AZE00000090:  UNIQUE WELL IDENTIFIER
 API .            /AZE00000090:  API NUMBER
 CNTY.                        :  COUNTY
 PROV.                        :  PROVINCE
 STAT.                        :  STATE
 LOC .                        :  LOCATION
 LMF .             Drill Floor:  LOG MEASURED FROM
 TVDS.m                  36.60:  TVDSS CORRECTN
 LATI.deg                40.08:  LATITUDE
 LONG.deg                51.24:  LONGITUDE
 WHNS.m                  -7.94:  WELL HEAD N/S
 WHEW.m                   1.56:  WELL HEAD E/W
 UTMX.m              520429.26:  UTM X
 UTMY.m             4438973.87:  UTM Y
 DFWL.m                   0.00:  DISTANCE FWL
 DFSL.m                   0.00:  DISTANCE FSL
 SDEP.m                1455.00:  START DEPTH
 TDD .m                4047.51:  TOTAL DEPTH (DRILLER)
 VSDR.deg               112.75:  VERT SEC DIRECT
 GVFD.g                   1.00:  GRAVITY FIELD
 MFLD.nT              50261.00:  MAGNETIC FIELD
 MDIP.deg                59.52:  MAGNETIC DIP
 MDEC.deg                 6.42:  MAGNETIC DECL
 GRDC.deg                 0.17:  GRID CORRECTION
 AZTC.deg                 6.25:  AZM TOTAL CORR
 EPD .m                   0.00:  ELEVATION
 EGL .m                   0.00:  GROUND ELEVATION
 WDMS.m                 121.00:  WD ELEV
 APD .m                  36.60:  DEPTH ABOVE PD
 AGAP.m                  36.60:  AIR GAP
 VSEW.m                   1.56:  VERT SEC E/W
 VSNS.m                  -7.94:  VERT SEC N/S
 DEP .m                1140.01:  DEPTH
 EKB .m                  36.60:  KB ELEVATION
 EDF .m                  36.60:  DF ELEVATION
 TDL .m                 169.50:  TOTAL DEPTH (LOGGER)
 CSGD.m                3875.01:  CASING BOTTOM (DRILLER)
 CSGL.m                3875.01:  CASING BOTTOM (LOGGER)
 CSGS.in                  7.63:  CASING SIZE
 CSGW.lbpf               23.50:  CASING WEIGHT
 VSC .                       0:  VS TO CLOSURE
 MAGU.                 1849206:  MAGUTM CHECKSUM
~Parameter Information Block
#MNEM.UNIT       Value        Description
#---------     -----------    ---------------------------
 AV  .mps                 1.90:  Ann Velocity 
 AVMX.mps                 2.54:  Max Ann Veloc 
 AZIF.deg               137.03:  Azm, Final 
 BHAT.        Rotary Steerable:  BHA Type 
 BREV.rev             23610.00:  Rev Bit Total 
 BROT.°/30m               0.80:  Build Rotating 
 BS  .in                  6.50:  Bit Size 
 BTPL.psig              110.00:  Bit Press Loss 
 CABU.                     Yes:  Customer Abuse 
 TCS .hr                 70.51:  Time Ciculation Ended 
 CV  .mps                 1.41:  Crit Velocity 
 CVMX.mps                 1.42:  Max Crit Veloc 
 DD1 .         Intigam Rahimov:  Direct Drillr 1 
 DD2 .          Rashad Gojayev:  Direct Drillr 2 
 DDSV.               Geo-Pilot:  DD Service 
 DEFF.%                 100.00:  % Det Eff 
 DLRX.°/30m               1.44:  Dogleg Rot Max 
 DLSO.°/30m               0.00:  Dogleg Oriented 
 DLSX.°/30m               0.00:  Dogleg Str Max 
 DRET.      03.05.00 01-Feb-20:  Drill End Time 
 DRST.      15.50.00 28-Jan-20:  Drill Start Tim 
 DTIM.hr                 24.70:  Time Drilling 
 EDEP.m                4047.51:  End Depth 
 ENG1.           Eldar Hajiyev:  Engineer 1 
 ENG2.          Rasim Hashimov:  Engineer 2 
 ENG3.          Rustam Safarov:  Engineer 3 
 ETIM.      22.00.00 01-Feb-20:  End Time 
 FLOI.gpm               370.00:  Flow In 
 FLON.gpm               300.00:  Flow In Min 
 FLOS.cptm                0.00:  Fluid Loss 
 FLOX.gpm               400.00:  Flow In Max 
 FTRO.       Formation Presure:  FTWD Run Obj 
 HFLO.                      No:  High Flow 
 HPRE.                      No:  High Pressure 
 HTEM.                      No:  High Temp 
 HYDO.m                   2.50:  Hydro Offset 
 IFIN.deg                39.54:  Inc, Final 
 IMAX.deg                41.14:  Inc Max 
 IMIN.deg                39.81:  Inc Min 
 IMND.m                4005.21:  Inc Min Depth 
 IMXD.m                3948.42:  Inc Max Depth 
 JARR.                      No:  Jarring 
 LETM.      03.05.00 01-Feb-20:  Log End Time 
 LOST.hr                     0:  Lost Rig Time 
 LSTM.      15.50.00 28-Jan-20:  Log Start Time 
 MDCL.ppm             37500.00:  Mud Chlorides 
 MDES.     Inversion Oil/Synthetic:  Mud Desc 
 DFD .sg                  1.32:  Mud Density 
 MDMN.sg                  1.32:  Dens Mud Min 
 MDMX.sg                  1.32:  Dens Mud Max 
 MOIL.                      55:  Run Mud Oil % 
 MOWR.                   70:30:  Run Mud OWR 
 MSND.                       0:  Run Mud Sand % 
 MSOL.                      17:  Run Mud Solids% 
 DFV .spqt               80.00:  Mud Viscosity 
 MWOD.in                  4.75:  MWD Tool OD 
 MWSI.                      No:  Serv Intrp, MWD 
 OTIM.hr                121.28:  Time Operating 
 PCON.           Look Like New:  Pad Condition 
 PMAX.psia             6171.00:  Press Op, Max 
 PV  .cP                 30.00:  Mud PV 
 RUN .                     300:  Run Number 
 ROPA.m/hr                5.45:  ROP Avg 
 ROPN.m/hr                3.00:  ROP Min 
 ROPX.m/hr               15.00:  ROP Max 
 RPMA.rpm               130.00:  RPM Surface Avg 
 RPMN.rpm                80.00:  RPM Surface Min 
 RPMX.rpm               140.00:  RPM Surface Max 
 RRUN.                     300:  Rig Run Number 
 RTIM.hr                 13.50:  Time Reaming 
 SAZI.deg               133.93:  Azm, Start 
 SDEP.m                3878.01:  Start Depth 
 SIDD.                      No:  Serv Intrp, DD 
 SINC.deg                40.28:  Inc, Start 
 SPPA.psig             4983.00:  SPP Avg 
 SPPN.psig             4370.00:  SPP Min 
 SPPX.psig             5300.00:  SPP Max 
 STIM.      18.33.36 27-Jan-20:  Start Time 
 SVCS.                 DD, MWD:  Services 
 SVER.                    9.20:  Sperry Version 
 TDAT.m                 169.50:  Tot Depth Attmp 
 TDDF.                      No:  Trip for DD 
 TDLG.m                 169.50:  Tot Depth Loggd 
 TFF .                      No:  Trip for Fail 
 TQAA.f-kp               13.25:  Torque Abs Avg 
 TQAN.f-kp               12.00:  Torque Abs Min 
 TQAX.f-kp               14.00:  Torque Abs Max 
 TRRT.°/30m               0.70:  Turn Rotating 
 MRT .                     ADR:  Maximum Recorded Temperature 
 TTMX.degC               92.16:  Max Tool Temp 
 VS01.       AZ90598764G12V7D4:  Virtual Str1 SN 
 VS02.         AZ90571342R12C4:  Virtual Str2 SN 
 VS03.      AZ90580010N2L2X1C4:  Virtual Str3 SN 
 VS04.        AZ90522266O7X1C4:  Virtual Str4 SN 
 VS05.           AZ90598768F11:  Virtual Str5 SN 
 VS06.     AZ90580006XZ1W1X1C4:  Virtual Str6 SN 
 WBMN.klb                 8.00:  WOB Min 
 WITN.            Peter Wilson:  Customer Rep 
 WOBA.klb                 9.88:  WOB Avg 
 WOBX.klb                10.00:  WOB Max 
 YP  .lhf2               27.00:  Yield Point 
~Curve Information Block
#MNEM.UNIT                 API CODE     Curve Description
#---------               -----------    ---------------------------
 TIME.HHMMSS            00 000 000 000:  GT Time & Date
 GTDEPTH.m              00 000 000 000:  GT Depth
 GTPQH.psia             00 000 000 000:  GT HR Quartz Pressure
 GTTQ.degC              00 000 000 000:  GT Quartz Temperature
 GTTN.NONE              00 000 000 000:  GT Test Number
 GTET.sec               00 000 000 000:  GT Elapsed Test Time
 GTTVD.m                00 000 000 000:  GT True Vertical Depth
#Other Information
#
#WARRANTY: Halliburton will use its best efforts to furnish customers with 
#accurate information and interpretations that are part of, and incident to, the services 
#provided.  However, Halliburton cannot and does not warrant the accuracy 
#or correctness of such information and interpretations.  Under no circumstances should any 
#such information or interpretation be relied upon as the sole basis for any drilling, 
#completion, production, or financial decision or any procedure involving any risk to the 
#safety of any drilling venture, drilling rig or its crew or any other third party.  The 
#Customer has full responsibility for all drilling, completion and production operation.  
#Halliburton makes no representations or warranties, either expressed or 
#implied, including, but not limited to, the implied warranties of merchantability or fitness 
#for a particular purpose, with respect to the services rendered.  In no event will 
#Halliburton be liable for failure to obtain any particular results or for 
#any damages, including, but not limited to, indirect, special or consequential damages, 
#resulting from the use of any information or interpretation provided by Halliburton.
#
~A           TIME           GTDEPTH  GTPQH  GTTQ  GTTN   GTET   GTTVD  
# ...
   04:17:20.262.01-Feb-2020 3998.51 3148.95 84.89 12.00 294.83 3011.77
   04:17:20.463.01-Feb-2020 3998.51 3148.75 84.89 12.00 295.03 3011.77
   04:17:20.663.01-Feb-2020 3998.51 3148.75 84.89 12.00 295.23 3011.77
   04:17:20.864.01-Feb-2020 3998.51 3148.91 84.89 12.00 295.43 3011.77
   04:17:21.065.01-Feb-2020 3998.51 3149.11 84.89 12.00 295.63 3011.77
   04:17:21.265.01-Feb-2020 3998.51 3148.99 84.89 12.00 295.83 3011.77
   04:17:21.466.01-Feb-2020 3998.51 3149.03 84.89 12.00 296.04 3011.77
   04:17:21.667.01-Feb-2020 3998.51 3149.03 84.89 12.00 296.24 3011.77
   04:17:21.868.01-Feb-2020 3998.51 3148.94 84.88 12.00 296.44 3011.77
   04:17:22.068.01-Feb-2020 3998.51 3149.01 84.88 12.00 296.64 3011.77
   04:17:22.269.01-Feb-2020 3998.51 3149.00 84.88 12.00 296.84 3011.77
   04:17:22.470.01-Feb-2020 3998.51 3148.93 84.88 12.00 297.04 3011.77
   04:17:22.670.01-Feb-2020 3998.51 3148.93 84.88 12.00 297.24 3011.77
   04:17:22.871.01-Feb-2020 3998.51 3148.94 84.88 12.00 297.44 3011.77
   04:17:23.072.01-Feb-2020 3998.51 3148.94 84.88 12.00 297.64 3011.77
   04:17:23.272.01-Feb-2020 3998.51 3148.89 84.88 12.00 297.84 3011.77
   04:17:23.473.01-Feb-2020 3998.51 3148.96 84.88 12.00 298.04 3011.77
   04:17:23.674.01-Feb-2020 3998.51 3148.96 84.88 12.00 298.24 3011.77
   04:17:23.875.01-Feb-2020 3998.51 3148.93 84.88 12.00 298.44 3011.77
   04:17:24.075.01-Feb-2020 3998.51 3148.96 84.88 12.00 298.64 3011.77
   04:17:24.276.01-Feb-2020 3998.51 3148.78 84.88 12.00 298.84 3011.77
   04:17:24.477.01-Feb-2020 3998.51 3148.96 84.88 12.00 299.05 3011.77
   04:17:24.677.01-Feb-2020 3998.51 3148.96 84.88 12.00 299.25 3011.77
   04:17:24.878.01-Feb-2020 3998.51 3148.98 84.88 12.00 299.45 3011.77
   04:17:25.079.01-Feb-2020 3998.51 3149.04 84.88 12.00 299.65 3011.77
   04:17:25.280.01-Feb-2020 3998.51 3148.95 84.88 12.00 299.85 3011.77
   04:17:25.480.01-Feb-2020 3998.51 3148.94 84.88 12.00 300.05 3011.77
   04:17:25.681.01-Feb-2020 3998.51 3148.94 84.88 12.00 300.25 3011.77
   04:17:25.882.01-Feb-2020 3998.51 3148.94 84.88 12.00 300.45 3011.77
   04:17:26.082.01-Feb-2020 3998.51 3148.94 84.87 12.00 300.65 3011.77
   04:17:26.283.01-Feb-2020 3998.51 3148.99 84.87 12.00 300.85 3011.77
   04:17:26.484.01-Feb-2020 3998.51 3148.92 84.87 12.00 301.05 3011.77
   04:17:26.684.01-Feb-2020 3998.51 3148.92 84.87 12.00 301.25 3011.77
   04:17:26.885.01-Feb-2020 3998.51 3148.93 84.87 12.00 301.45 3011.77
   04:17:27.086.01-Feb-2020 3998.51 3148.89 84.87 12.00 301.65 3011.77
   04:17:27.287.01-Feb-2020 3998.51 3149.00 84.87 12.00 301.86 3011.77
   04:17:27.487.01-Feb-2020 3998.51 3148.72 84.87 12.00 302.06 3011.77
   04:17:27.688.01-Feb-2020 3998.51 3148.72 84.87 12.00 302.26 3011.77
   04:17:27.889.01-Feb-2020 3998.51 3148.98 84.87 12.00 302.46 3011.77
   04:17:28.089.01-Feb-2020 3998.51 3148.98 84.87 12.00 302.66 3011.77
   04:17:28.290.01-Feb-2020 3998.51 3148.97 84.87 12.00 302.86 3011.77
   04:17:28.491.01-Feb-2020 3998.51 3148.79 84.87 12.00 303.06 3011.77
   04:17:28.691.01-Feb-2020 3998.51 3148.79 84.87 12.00 303.26 3011.77
   04:17:28.892.01-Feb-2020 3998.51 3116.34 84.87 12.00 303.46 3011.77
   04:17:29.093.01-Feb-2020 3998.51 3104.18 84.87 12.00 303.66 3011.77
   04:17:29.294.01-Feb-2020 3998.51 3103.96 84.87 12.00 303.86 3011.77
   04:17:29.494.01-Feb-2020 3998.51 3104.16 84.87 12.00 304.06 3011.77
   04:17:29.695.01-Feb-2020 3998.51 3104.16 84.87 12.00 304.26 3011.77
   04:17:29.896.01-Feb-2020 3998.51 3103.32 84.87 12.00 304.46 3011.77
   04:17:30.096.01-Feb-2020 3998.51 3103.15 84.87 12.00 304.67 3011.77
   04:17:30.297.01-Feb-2020 3998.51 3102.88 84.87 12.00 304.87 3011.77
   04:17:30.498.01-Feb-2020 3998.51 3102.74 84.86 12.00 305.07 3011.77
   04:17:30.698.01-Feb-2020 3998.51 3102.74 84.86 12.00 305.27 3011.77
   04:17:30.899.01-Feb-2020 3998.51 3102.32 84.86 12.00 305.47 3011.77
   04:17:31.100.01-Feb-2020 3998.51 3101.93 84.86 12.00 305.67 3011.77
   04:17:31.301.01-Feb-2020 3998.51 3102.30 84.86 12.00 305.87 3011.77
   04:17:31.501.01-Feb-2020 3998.51 3102.20 84.86 12.00 306.07 3011.77
   04:17:31.702.01-Feb-2020 3998.51 3102.20 84.86 12.00 306.27 3011.77
   04:17:31.903.01-Feb-2020 3998.51 3101.60 84.86 12.00 306.47 3011.77
   04:17:32.103.01-Feb-2020 3998.51 3101.31 84.86 12.00 306.67 3011.77
   04:17:32.304.01-Feb-2020 3998.51 3102.65 84.86 12.00 306.87 3011.77
   04:17:32.505.01-Feb-2020 3998.51 3101.77 84.86 12.00 307.07 3011.77
   04:17:32.705.01-Feb-2020 3998.51 3101.77 84.86 12.00 307.27 3011.77
   04:17:32.906.01-Feb-2020 3998.51 3101.72 84.86 12.00 307.48 3011.77
   04:17:33.107.01-Feb-2020 3998.51 3101.36 84.86 12.00 307.68 3011.77
   04:17:33.308.01-Feb-2020 3998.51 3101.70 84.86 12.00 307.88 3011.77
   04:17:33.508.01-Feb-2020 3998.51 3101.11 84.86 12.00 308.08 3011.77
   04:17:33.709.01-Feb-2020 3998.51 3101.11 84.86 12.00 308.28 3011.77
   04:17:33.910.01-Feb-2020 3998.51 3101.56 84.86 12.00 308.48 3011.77
   04:17:34.110.01-Feb-2020 3998.51 3101.14 84.86 12.00 308.68 3011.77
   04:17:34.311.01-Feb-2020 3998.51 3101.18 84.86 12.00 308.88 3011.77
   04:17:34.512.01-Feb-2020 3998.51 3101.35 84.85 12.00 309.08 3011.77
   04:17:34.712.01-Feb-2020 3998.51 3101.35 84.85 12.00 309.28 3011.77
   04:17:34.913.01-Feb-2020 3998.51 3100.96 84.85 12.00 309.48 3011.77
   04:17:35.114.01-Feb-2020 3998.51 3101.36 84.85 12.00 309.68 3011.77
   04:17:35.315.01-Feb-2020 3998.51 3100.84 84.85 12.00 309.88 3011.77
   04:17:35.515.01-Feb-2020 3998.51 3100.80 84.85 12.00 310.08 3011.77
   04:17:35.716.01-Feb-2020 3998.51 3100.80 84.85 12.00 310.28 3011.77
   04:17:35.917.01-Feb-2020 3998.51 3101.17 84.85 12.00 310.49 3011.77
   04:17:36.117.01-Feb-2020 3998.51 3101.30 84.85 12.00 310.69 3011.77
   04:17:36.318.01-Feb-2020 3998.51 3101.19 84.85 12.00 310.89 3011.77
   04:17:36.519.01-Feb-2020 3998.51 3100.73 84.85 12.00 311.09 3011.77
   04:17:36.720.01-Feb-2020 3998.51 3100.73 84.85 12.00 311.29 3011.77
   04:17:36.920.01-Feb-2020 3998.51 3100.85 84.85 12.00 311.49 3011.77
   04:17:37.121.01-Feb-2020 3998.51 3100.49 84.85 12.00 311.69 3011.77
   04:17:37.322.01-Feb-2020 3998.51 3100.79 84.85 12.00 311.89 3011.77
   04:17:37.522.01-Feb-2020 3998.51 3100.64 84.85 12.00 312.09 3011.77
   04:17:37.723.01-Feb-2020 3998.51 3100.64 84.85 12.00 312.29 3011.77
   04:17:37.924.01-Feb-2020 3998.51 3100.83 84.85 12.00 312.49 3011.77
   04:17:38.124.01-Feb-2020 3998.51 3100.69 84.85 12.00 312.69 3011.77
   04:17:38.325.01-Feb-2020 3998.51 3100.84 84.85 12.00 312.89 3011.77
   04:17:38.526.01-Feb-2020 3998.51 3100.39 84.85 12.00 313.09 3011.77
   04:17:38.727.01-Feb-2020 3998.51 3100.39 84.85 12.00 313.30 3011.77
   04:17:38.927.01-Feb-2020 3998.51 3101.24 84.84 12.00 313.50 3011.77
   04:17:39.128.01-Feb-2020 3998.51 3138.08 84.84 12.00 313.70 3011.77
   04:17:39.329.01-Feb-2020 3998.51 3145.21 84.84 12.00 313.90 3011.77
   04:17:39.529.01-Feb-2020 3998.51 3145.67 84.84 12.00 314.10 3011.77
   04:17:39.730.01-Feb-2020 3998.51 3145.67 84.84 12.00 314.30 3011.77
   04:17:39.931.01-Feb-2020 3998.51 3146.31 84.84 12.00 314.50 3011.77
   04:17:40.131.01-Feb-2020 3998.51 3146.24 84.84 12.00 314.70 3011.77
   04:17:40.332.01-Feb-2020 3998.51 3146.91 84.84 12.00 314.90 3011.77
   04:17:40.533.01-Feb-2020 3998.51 3146.90 84.84 12.00 315.10 3011.77
   04:17:40.734.01-Feb-2020 3998.51 3146.90 84.84 12.00 315.30 3011.77
   04:17:40.934.01-Feb-2020 3998.51 3147.07 84.84 12.00 315.50 3011.77
   04:17:41.135.01-Feb-2020 3998.51 3147.18 84.84 12.00 315.70 3011.77
   04:17:41.336.01-Feb-2020 3998.51 3147.28 84.84 12.00 315.90 3011.77
   04:17:41.536.01-Feb-2020 3998.51 3147.40 84.84 12.00 316.11 3011.77
   04:17:41.737.01-Feb-2020 3998.51 3147.40 84.84 12.00 316.31 3011.77
   04:17:41.938.01-Feb-2020 3998.51 3147.52 84.84 12.00 316.51 3011.77
   04:17:42.138.01-Feb-2020 3998.51 3147.52 84.84 12.00 316.71 3011.77
   04:17:42.339.01-Feb-2020 3998.51 3147.34 84.84 12.00 316.91 3011.77
   04:17:42.540.01-Feb-2020 3998.51 3147.78 84.84 12.00 317.11 3011.77
   04:17:42.741.01-Feb-2020 3998.51 3147.78 84.84 12.00 317.31 3011.77
