~Version Information
 VERS.                  2.0:   CWLS log ASCII Standard -VERSION 2.0
 WRAP.                   NO:   One line per depth step
~Well Information Block
#MNEM.UNIT     VALUE/NAME     DESCRIPTION
#---------     -----------    ---------------------------
 STRT.S             04:12:25 01-Feb-20: START TIME 04:12:25 01-Feb-20
 STOP.S             04:20:20 01-Feb-20: STOP TIME  04:20:20 01-Feb-20
 STEP.S                   0.00: STEP TIME
 NULL.                 -999.25: NULL VALUE
 DFWT.                        :  DIST FWL TEXT
 DFST.                        :  DIST FSL TEXT
 DMF .             Drill Floor:  DRILL MEAS FROM
 STIM.      09.30.00 26-Dec-19:  START TIME
 DATE.      08.00.00 20-Jan-20:  END TIME
 SPUD.               23-Nov-19:  SPUD DATE
 NREF.                    Grid:  NORTH REFERENCE
 HPTY.       Minimum Curvature:  HOLE POS TYPE
 DMOD.             Drill Model:  DRILL MOD DESC
 SVYD.                  Survey:  SURVEY DESC
 ILTD.               Lithology:  INTERP LTH DESC
 FTOP.          Formation Tops:  FORM TOPS DESC
 SON .        AZ-XX-0906192647:  JOB NUMBER
 WTYP.                Deviated:  WELL TYPE
 COMP.     BP Exploration (Caspian Sea) Ltd:  COMPANY
 BASE.              Azerbaijan:  LOGGING EQUIPMENT BASE LOCATION
 REGN.                 Eurasia:  REGION
 FLD .                     ACG:  FIELD NAME
 SRVC.              KCA Deutag:  CONTRACTOR
 MWDS.                    Baku:  MWD SHOP
 WELL.     A10 (Slot 20) - SCP:  WELL NAME
 JOBN.        AZ-XX-0906192647:  JOB TICKET NUMB
 RIG .                 Chirag1:  RIG NAME
 DCON.     Halliburton Sperry Drilling:  DIRECTNL CONTR
 UNIT.                     N/A:  LOGGING EQUIPMENT ID
 PDAT.          Mean Sea Level:  PERMANENT DATUM
 MDS .        Operator Entered:  MAG DATA SOURCE
 CTRY.              Azerbaijan:  COUNTRY NAME
 UWI .            /AZE00000090:  UNIQUE WELL IDENTIFIER
 API .            /AZE00000090:  API NUMBER
 CNTY.                        :  COUNTY
 PROV.                        :  PROVINCE
 STAT.                        :  STATE
 LOC .                        :  LOCATION
 LMF .             Drill Floor:  LOG MEASURED FROM
 TVDS.m                  36.60:  TVDSS CORRECTN
 LATI.deg                40.08:  LATITUDE
 LONG.deg                51.24:  LONGITUDE
 WHNS.m                  -7.94:  WELL HEAD N/S
 WHEW.m                   1.56:  WELL HEAD E/W
 UTMX.m              520429.26:  UTM X
 UTMY.m             4438973.87:  UTM Y
 DFWL.m                   0.00:  DISTANCE FWL
 DFSL.m                   0.00:  DISTANCE FSL
 SDEP.m                1455.00:  START DEPTH
 TDD .m                4047.51:  TOTAL DEPTH (DRILLER)
 VSDR.deg               112.75:  VERT SEC DIRECT
 GVFD.g                   1.00:  GRAVITY FIELD
 MFLD.nT              50261.00:  MAGNETIC FIELD
 MDIP.deg                59.52:  MAGNETIC DIP
 MDEC.deg                 6.42:  MAGNETIC DECL
 GRDC.deg                 0.17:  GRID CORRECTION
 AZTC.deg                 6.25:  AZM TOTAL CORR
 EPD .m                   0.00:  ELEVATION
 EGL .m                   0.00:  GROUND ELEVATION
 WDMS.m                 121.00:  WD ELEV
 APD .m                  36.60:  DEPTH ABOVE PD
 AGAP.m                  36.60:  AIR GAP
 VSEW.m                   1.56:  VERT SEC E/W
 VSNS.m                  -7.94:  VERT SEC N/S
 DEP .m                1140.01:  DEPTH
 EKB .m                  36.60:  KB ELEVATION
 EDF .m                  36.60:  DF ELEVATION
 TDL .m                 169.50:  TOTAL DEPTH (LOGGER)
 CSGD.m                3875.01:  CASING BOTTOM (DRILLER)
 CSGL.m                3875.01:  CASING BOTTOM (LOGGER)
 CSGS.in                  7.63:  CASING SIZE
 CSGW.lbpf               23.50:  CASING WEIGHT
 VSC .                       0:  VS TO CLOSURE
 MAGU.                 1849206:  MAGUTM CHECKSUM
~Parameter Information Block
#MNEM.UNIT       Value        Description
#---------     -----------    ---------------------------
 AV  .mps                 1.90:  Ann Velocity 
 AVMX.mps                 2.54:  Max Ann Veloc 
 AZIF.deg               137.03:  Azm, Final 
 BHAT.        Rotary Steerable:  BHA Type 
 BREV.rev             23610.00:  Rev Bit Total 
 BROT.°/30m               0.80:  Build Rotating 
 BS  .in                  6.50:  Bit Size 
 BTPL.psig              110.00:  Bit Press Loss 
 CABU.                     Yes:  Customer Abuse 
 TCS .hr                 70.51:  Time Ciculation Ended 
 CV  .mps                 1.41:  Crit Velocity 
 CVMX.mps                 1.42:  Max Crit Veloc 
 DD1 .         Intigam Rahimov:  Direct Drillr 1 
 DD2 .          Rashad Gojayev:  Direct Drillr 2 
 DDSV.               Geo-Pilot:  DD Service 
 DEFF.%                 100.00:  % Det Eff 
 DLRX.°/30m               1.44:  Dogleg Rot Max 
 DLSO.°/30m               0.00:  Dogleg Oriented 
 DLSX.°/30m               0.00:  Dogleg Str Max 
 DRET.      03.05.00 01-Feb-20:  Drill End Time 
 DRST.      15.50.00 28-Jan-20:  Drill Start Tim 
 DTIM.hr                 24.70:  Time Drilling 
 EDEP.m                4047.51:  End Depth 
 ENG1.           Eldar Hajiyev:  Engineer 1 
 ENG2.          Rasim Hashimov:  Engineer 2 
 ENG3.          Rustam Safarov:  Engineer 3 
 ETIM.      22.00.00 01-Feb-20:  End Time 
 FLOI.gpm               370.00:  Flow In 
 FLON.gpm               300.00:  Flow In Min 
 FLOS.cptm                0.00:  Fluid Loss 
 FLOX.gpm               400.00:  Flow In Max 
 FTRO.       Formation Presure:  FTWD Run Obj 
 HFLO.                      No:  High Flow 
 HPRE.                      No:  High Pressure 
 HTEM.                      No:  High Temp 
 HYDO.m                   2.50:  Hydro Offset 
 IFIN.deg                39.54:  Inc, Final 
 IMAX.deg                41.14:  Inc Max 
 IMIN.deg                39.81:  Inc Min 
 IMND.m                4005.21:  Inc Min Depth 
 IMXD.m                3948.42:  Inc Max Depth 
 JARR.                      No:  Jarring 
 LETM.      03.05.00 01-Feb-20:  Log End Time 
 LOST.hr                     0:  Lost Rig Time 
 LSTM.      15.50.00 28-Jan-20:  Log Start Time 
 MDCL.ppm             37500.00:  Mud Chlorides 
 MDES.     Inversion Oil/Synthetic:  Mud Desc 
 DFD .sg                  1.32:  Mud Density 
 MDMN.sg                  1.32:  Dens Mud Min 
 MDMX.sg                  1.32:  Dens Mud Max 
 MOIL.                      55:  Run Mud Oil % 
 MOWR.                   70:30:  Run Mud OWR 
 MSND.                       0:  Run Mud Sand % 
 MSOL.                      17:  Run Mud Solids% 
 DFV .spqt               80.00:  Mud Viscosity 
 MWOD.in                  4.75:  MWD Tool OD 
 MWSI.                      No:  Serv Intrp, MWD 
 OTIM.hr                121.28:  Time Operating 
 PCON.           Look Like New:  Pad Condition 
 PMAX.psia             6171.00:  Press Op, Max 
 PV  .cP                 30.00:  Mud PV 
 RUN .                     300:  Run Number 
 ROPA.m/hr                5.45:  ROP Avg 
 ROPN.m/hr                3.00:  ROP Min 
 ROPX.m/hr               15.00:  ROP Max 
 RPMA.rpm               130.00:  RPM Surface Avg 
 RPMN.rpm                80.00:  RPM Surface Min 
 RPMX.rpm               140.00:  RPM Surface Max 
 RRUN.                     300:  Rig Run Number 
 RTIM.hr                 13.50:  Time Reaming 
 SAZI.deg               133.93:  Azm, Start 
 SDEP.m                3878.01:  Start Depth 
 SIDD.                      No:  Serv Intrp, DD 
 SINC.deg                40.28:  Inc, Start 
 SPPA.psig             4983.00:  SPP Avg 
 SPPN.psig             4370.00:  SPP Min 
 SPPX.psig             5300.00:  SPP Max 
 STIM.      18.33.36 27-Jan-20:  Start Time 
 SVCS.                 DD, MWD:  Services 
 SVER.                    9.20:  Sperry Version 
 TDAT.m                 169.50:  Tot Depth Attmp 
 TDDF.                      No:  Trip for DD 
 TDLG.m                 169.50:  Tot Depth Loggd 
 TFF .                      No:  Trip for Fail 
 TQAA.f-kp               13.25:  Torque Abs Avg 
 TQAN.f-kp               12.00:  Torque Abs Min 
 TQAX.f-kp               14.00:  Torque Abs Max 
 TRRT.°/30m               0.70:  Turn Rotating 
 MRT .                     ADR:  Maximum Recorded Temperature 
 TTMX.degC               92.16:  Max Tool Temp 
 VS01.       AZ90598764G12V7D4:  Virtual Str1 SN 
 VS02.         AZ90571342R12C4:  Virtual Str2 SN 
 VS03.      AZ90580010N2L2X1C4:  Virtual Str3 SN 
 VS04.        AZ90522266O7X1C4:  Virtual Str4 SN 
 VS05.           AZ90598768F11:  Virtual Str5 SN 
 VS06.     AZ90580006XZ1W1X1C4:  Virtual Str6 SN 
 WBMN.klb                 8.00:  WOB Min 
 WITN.            Peter Wilson:  Customer Rep 
 WOBA.klb                 9.88:  WOB Avg 
 WOBX.klb                10.00:  WOB Max 
 YP  .lhf2               27.00:  Yield Point 
~Curve Information Block
#MNEM.UNIT                 API CODE     Curve Description
#---------               -----------    ---------------------------
 TIME.HHMMSS            00 000 000 000:  GT Time & Date
 GTDEPTH.m              00 000 000 000:  GT Depth
 GTPQH.psia             00 000 000 000:  GT HR Quartz Pressure
 GTTQ.degC              00 000 000 000:  GT Quartz Temperature
 GTTN.NONE              00 000 000 000:  GT Test Number
 GTET.sec               00 000 000 000:  GT Elapsed Test Time
 GTTVD.m                00 000 000 000:  GT True Vertical Depth
#Other Information
#
#WARRANTY: Halliburton will use its best efforts to furnish customers with 
#accurate information and interpretations that are part of, and incident to, the services 
#provided.  However, Halliburton cannot and does not warrant the accuracy 
#or correctness of such information and interpretations.  Under no circumstances should any 
#such information or interpretation be relied upon as the sole basis for any drilling, 
#completion, production, or financial decision or any procedure involving any risk to the 
#safety of any drilling venture, drilling rig or its crew or any other third party.  The 
#Customer has full responsibility for all drilling, completion and production operation.  
#Halliburton makes no representations or warranties, either expressed or 
#implied, including, but not limited to, the implied warranties of merchantability or fitness 
#for a particular purpose, with respect to the services rendered.  In no event will 
#Halliburton be liable for failure to obtain any particular results or for 
#any damages, including, but not limited to, indirect, special or consequential damages, 
#resulting from the use of any information or interpretation provided by Halliburton.
#
~A           TIME           GTDEPTH  GTPQH  GTTQ  GTTN   GTET   GTTVD  
# ...
   04:15:49.545.01-Feb-2020 3998.51 3148.80 85.11 12.00 204.11 3011.77
   04:15:49.745.01-Feb-2020 3998.51 3148.76 85.11 12.00 204.31 3011.77
   04:15:49.946.01-Feb-2020 3998.51 3148.76 85.11 12.00 204.52 3011.77
   04:15:50.147.01-Feb-2020 3998.51 3148.75 85.11 12.00 204.72 3011.77
   04:15:50.348.01-Feb-2020 3998.51 3148.75 85.11 12.00 204.92 3011.77
   04:15:50.548.01-Feb-2020 3998.51 3148.73 85.11 12.00 205.12 3011.77
   04:15:50.749.01-Feb-2020 3998.51 3148.77 85.11 12.00 205.32 3011.77
   04:15:50.950.01-Feb-2020 3998.51 3148.75 85.11 12.00 205.52 3011.77
   04:15:51.150.01-Feb-2020 3998.51 3148.79 85.11 12.00 205.72 3011.77
   04:15:51.351.01-Feb-2020 3998.51 3148.79 85.11 12.00 205.92 3011.77
   04:15:51.552.01-Feb-2020 3998.51 3148.61 85.11 12.00 206.12 3011.77
   04:15:51.752.01-Feb-2020 3998.51 3148.78 85.11 12.00 206.32 3011.77
   04:15:51.953.01-Feb-2020 3998.51 3148.86 85.11 12.00 206.52 3011.77
   04:15:52.154.01-Feb-2020 3998.51 3148.78 85.11 12.00 206.72 3011.77
   04:15:52.355.01-Feb-2020 3998.51 3148.78 85.11 12.00 206.92 3011.77
   04:15:52.555.01-Feb-2020 3998.51 3148.76 85.11 12.00 207.12 3011.77
   04:15:52.756.01-Feb-2020 3998.51 3148.82 85.10 12.00 207.32 3011.77
   04:15:52.957.01-Feb-2020 3998.51 3148.83 85.10 12.00 207.53 3011.77
   04:15:53.157.01-Feb-2020 3998.51 3148.74 85.10 12.00 207.73 3011.77
   04:15:53.358.01-Feb-2020 3998.51 3148.74 85.10 12.00 207.93 3011.77
   04:15:53.559.01-Feb-2020 3998.51 3148.78 85.10 12.00 208.13 3011.77
   04:15:53.760.01-Feb-2020 3998.51 3148.78 85.10 12.00 208.33 3011.77
   04:15:53.960.01-Feb-2020 3998.51 3148.84 85.10 12.00 208.53 3011.77
   04:15:54.161.01-Feb-2020 3998.51 3148.74 85.10 12.00 208.73 3011.77
   04:15:54.362.01-Feb-2020 3998.51 3148.74 85.10 12.00 208.93 3011.77
   04:15:54.562.01-Feb-2020 3998.51 3148.85 85.10 12.00 209.13 3011.77
   04:15:54.763.01-Feb-2020 3998.51 3148.51 85.10 12.00 209.33 3011.77
   04:15:54.964.01-Feb-2020 3998.51 3149.00 85.10 12.00 209.53 3011.77
   04:15:55.164.01-Feb-2020 3998.51 3148.78 85.10 12.00 209.73 3011.77
   04:15:55.365.01-Feb-2020 3998.51 3148.78 85.10 12.00 209.93 3011.77
   04:15:55.566.01-Feb-2020 3998.51 3148.85 85.10 12.00 210.13 3011.77
   04:15:55.767.01-Feb-2020 3998.51 3148.50 85.10 12.00 210.34 3011.77
   04:15:55.967.01-Feb-2020 3998.51 3148.98 85.10 12.00 210.54 3011.77
   04:15:56.168.01-Feb-2020 3998.51 3148.84 85.10 12.00 210.74 3011.77
   04:15:56.369.01-Feb-2020 3998.51 3148.84 85.10 12.00 210.94 3011.77
   04:15:56.569.01-Feb-2020 3998.51 3148.88 85.10 12.00 211.14 3011.77
   04:15:56.770.01-Feb-2020 3998.51 3148.74 85.09 12.00 211.34 3011.77
   04:15:56.971.01-Feb-2020 3998.51 3148.76 85.09 12.00 211.54 3011.77
   04:15:57.171.01-Feb-2020 3998.51 3148.95 85.09 12.00 211.74 3011.77
   04:15:57.372.01-Feb-2020 3998.51 3148.95 85.09 12.00 211.94 3011.77
   04:15:57.573.01-Feb-2020 3998.51 3148.81 85.09 12.00 212.14 3011.77
   04:15:57.774.01-Feb-2020 3998.51 3148.92 85.09 12.00 212.34 3011.77
   04:15:57.974.01-Feb-2020 3998.51 3148.55 85.09 12.00 212.54 3011.77
   04:15:58.175.01-Feb-2020 3998.51 3148.98 85.09 12.00 212.74 3011.77
   04:15:58.376.01-Feb-2020 3998.51 3148.98 85.09 12.00 212.94 3011.77
   04:15:58.576.01-Feb-2020 3998.51 3148.81 85.09 12.00 213.15 3011.77
   04:15:58.777.01-Feb-2020 3998.51 3148.88 85.09 12.00 213.35 3011.77
   04:15:58.978.01-Feb-2020 3998.51 3148.92 85.09 12.00 213.55 3011.77
   04:15:59.178.01-Feb-2020 3998.51 3148.80 85.09 12.00 213.75 3011.77
   04:15:59.379.01-Feb-2020 3998.51 3148.80 85.09 12.00 213.95 3011.77
   04:15:59.580.01-Feb-2020 3998.51 3148.99 85.09 12.00 214.15 3011.77
   04:15:59.781.01-Feb-2020 3998.51 3148.91 85.09 12.00 214.35 3011.77
   04:15:59.981.01-Feb-2020 3998.51 3148.94 85.09 12.00 214.55 3011.77
   04:16:00.182.01-Feb-2020 3998.51 3148.89 85.09 12.00 214.75 3011.77
   04:16:00.383.01-Feb-2020 3998.51 3148.89 85.09 12.00 214.95 3011.77
   04:16:00.583.01-Feb-2020 3998.51 3148.88 85.08 12.00 215.15 3011.77
   04:16:00.784.01-Feb-2020 3998.51 3148.80 85.08 12.00 215.35 3011.77
   04:16:00.985.01-Feb-2020 3998.51 3148.89 85.08 12.00 215.55 3011.77
   04:16:01.185.01-Feb-2020 3998.51 3148.88 85.08 12.00 215.75 3011.77
   04:16:01.386.01-Feb-2020 3998.51 3148.88 85.08 12.00 215.96 3011.77
   04:16:01.587.01-Feb-2020 3998.51 3148.85 85.08 12.00 216.16 3011.77
   04:16:01.788.01-Feb-2020 3998.51 3148.83 85.08 12.00 216.36 3011.77
   04:16:01.988.01-Feb-2020 3998.51 3148.80 85.08 12.00 216.56 3011.77
   04:16:02.189.01-Feb-2020 3998.51 3148.82 85.08 12.00 216.76 3011.77
   04:16:02.390.01-Feb-2020 3998.51 3148.82 85.08 12.00 216.96 3011.77
   04:16:02.590.01-Feb-2020 3998.51 3148.83 85.08 12.00 217.16 3011.77
   04:16:02.791.01-Feb-2020 3998.51 3148.83 85.08 12.00 217.36 3011.77
   04:16:02.992.01-Feb-2020 3998.51 3148.74 85.08 12.00 217.56 3011.77
   04:16:03.192.01-Feb-2020 3998.51 3148.86 85.08 12.00 217.76 3011.77
   04:16:03.393.01-Feb-2020 3998.51 3148.86 85.08 12.00 217.96 3011.77
   04:16:03.594.01-Feb-2020 3998.51 3148.94 85.08 12.00 218.16 3011.77
   04:16:03.795.01-Feb-2020 3998.51 3148.88 85.08 12.00 218.36 3011.77
   04:16:03.995.01-Feb-2020 3998.51 3148.91 85.08 12.00 218.56 3011.77
   04:16:04.196.01-Feb-2020 3998.51 3148.86 85.08 12.00 218.76 3011.77
   04:16:04.397.01-Feb-2020 3998.51 3148.86 85.08 12.00 218.97 3011.77
   04:16:04.597.01-Feb-2020 3998.51 3148.89 85.07 12.00 219.17 3011.77
   04:16:04.798.01-Feb-2020 3998.51 3148.87 85.07 12.00 219.37 3011.77
   04:16:04.999.01-Feb-2020 3998.51 3148.84 85.07 12.00 219.57 3011.77
   04:16:05.200.01-Feb-2020 3998.51 3148.88 85.07 12.00 219.77 3011.77
   04:16:05.400.01-Feb-2020 3998.51 3148.88 85.07 12.00 219.97 3011.77
   04:16:05.601.01-Feb-2020 3998.51 3148.85 85.07 12.00 220.17 3011.77
   04:16:05.802.01-Feb-2020 3998.51 3148.83 85.07 12.00 220.37 3011.77
   04:16:06.002.01-Feb-2020 3998.51 3148.79 85.07 12.00 220.57 3011.77
   04:16:06.203.01-Feb-2020 3998.51 3148.90 85.07 12.00 220.77 3011.77
   04:16:06.404.01-Feb-2020 3998.51 3148.90 85.07 12.00 220.97 3011.77
   04:16:06.604.01-Feb-2020 3998.51 3148.98 85.07 12.00 221.17 3011.77
   04:16:06.805.01-Feb-2020 3998.51 3148.98 85.07 12.00 221.37 3011.77
   04:16:07.006.01-Feb-2020 3998.51 3148.84 85.07 12.00 221.57 3011.77
   04:16:07.207.01-Feb-2020 3998.51 3148.90 85.07 12.00 221.78 3011.77
   04:16:07.407.01-Feb-2020 3998.51 3148.90 85.07 12.00 221.98 3011.77
   04:16:07.608.01-Feb-2020 3998.51 3148.96 85.07 12.00 222.18 3011.77
   04:16:07.809.01-Feb-2020 3998.51 3148.95 85.07 12.00 222.38 3011.77
   04:16:08.009.01-Feb-2020 3998.51 3148.94 85.07 12.00 222.58 3011.77
   04:16:08.210.01-Feb-2020 3998.51 3148.77 85.07 12.00 222.78 3011.77
   04:16:08.411.01-Feb-2020 3998.51 3148.77 85.07 12.00 222.98 3011.77
   04:16:08.611.01-Feb-2020 3998.51 3148.82 85.06 12.00 223.18 3011.77
   04:16:08.812.01-Feb-2020 3998.51 3148.89 85.06 12.00 223.38 3011.77
   04:16:09.013.01-Feb-2020 3998.51 3148.93 85.06 12.00 223.58 3011.77
   04:16:09.214.01-Feb-2020 3998.51 3148.83 85.06 12.00 223.78 3011.77
   04:16:09.414.01-Feb-2020 3998.51 3148.83 85.06 12.00 223.98 3011.77
   04:16:09.615.01-Feb-2020 3998.51 3148.67 85.06 12.00 224.18 3011.77
   04:16:09.816.01-Feb-2020 3998.51 3148.94 85.06 12.00 224.38 3011.77
   04:16:10.016.01-Feb-2020 3998.51 3148.93 85.06 12.00 224.59 3011.77
   04:16:10.217.01-Feb-2020 3998.51 3148.95 85.06 12.00 224.79 3011.77
   04:16:10.418.01-Feb-2020 3998.51 3148.95 85.06 12.00 224.99 3011.77
   04:16:10.618.01-Feb-2020 3998.51 3148.94 85.06 12.00 225.19 3011.77
   04:16:10.819.01-Feb-2020 3998.51 3148.90 85.06 12.00 225.39 3011.77
   04:16:11.020.01-Feb-2020 3998.51 3148.67 85.06 12.00 225.59 3011.77
   04:16:11.221.01-Feb-2020 3998.51 3148.95 85.06 12.00 225.79 3011.77
   04:16:11.421.01-Feb-2020 3998.51 3148.95 85.06 12.00 225.99 3011.77
   04:16:11.622.01-Feb-2020 3998.51 3148.92 85.06 12.00 226.19 3011.77
   04:16:11.823.01-Feb-2020 3998.51 3148.97 85.06 12.00 226.39 3011.77
   04:16:12.023.01-Feb-2020 3998.51 3148.86 85.06 12.00 226.59 3011.77
