~Version Information
 VERS.                  2.0:   CWLS log ASCII Standard -VERSION 2.0
 WRAP.                   NO:   One line per depth step
~Well Information Block
#MNEM.UNIT     VALUE/NAME     DESCRIPTION
#---------     -----------    ---------------------------
 STRT.S             04:12:25 01-Feb-20: START TIME 04:12:25 01-Feb-20
 STOP.S             04:20:20 01-Feb-20: STOP TIME  04:20:20 01-Feb-20
 STEP.S                   0.00: STEP TIME
 NULL.                 -999.25: NULL VALUE
 DFWT.                        :  DIST FWL TEXT
 DFST.                        :  DIST FSL TEXT
 DMF .             Drill Floor:  DRILL MEAS FROM
 STIM.      09.30.00 26-Dec-19:  START TIME
 DATE.      08.00.00 20-Jan-20:  END TIME
 SPUD.               23-Nov-19:  SPUD DATE
 NREF.                    Grid:  NORTH REFERENCE
 HPTY.       Minimum Curvature:  HOLE POS TYPE
 DMOD.             Drill Model:  DRILL MOD DESC
 SVYD.                  Survey:  SURVEY DESC
 ILTD.               Lithology:  INTERP LTH DESC
 FTOP.          Formation Tops:  FORM TOPS DESC
 SON .        AZ-XX-0906192647:  JOB NUMBER
 WTYP.                Deviated:  WELL TYPE
 COMP.     BP Exploration (Caspian Sea) Ltd:  COMPANY
 BASE.              Azerbaijan:  LOGGING EQUIPMENT BASE LOCATION
 REGN.                 Eurasia:  REGION
 FLD .                     ACG:  FIELD NAME
 SRVC.              KCA Deutag:  CONTRACTOR
 MWDS.                    Baku:  MWD SHOP
 WELL.     A10 (Slot 20) - SCP:  WELL NAME
 JOBN.        AZ-XX-0906192647:  JOB TICKET NUMB
 RIG .                 Chirag1:  RIG NAME
 DCON.     Halliburton Sperry Drilling:  DIRECTNL CONTR
 UNIT.                     N/A:  LOGGING EQUIPMENT ID
 PDAT.          Mean Sea Level:  PERMANENT DATUM
 MDS .        Operator Entered:  MAG DATA SOURCE
 CTRY.              Azerbaijan:  COUNTRY NAME
 UWI .            /AZE00000090:  UNIQUE WELL IDENTIFIER
 API .            /AZE00000090:  API NUMBER
 CNTY.                        :  COUNTY
 PROV.                        :  PROVINCE
 STAT.                        :  STATE
 LOC .                        :  LOCATION
 LMF .             Drill Floor:  LOG MEASURED FROM
 TVDS.m                  36.60:  TVDSS CORRECTN
 LATI.deg                40.08:  LATITUDE
 LONG.deg                51.24:  LONGITUDE
 WHNS.m                  -7.94:  WELL HEAD N/S
 WHEW.m                   1.56:  WELL HEAD E/W
 UTMX.m              520429.26:  UTM X
 UTMY.m             4438973.87:  UTM Y
 DFWL.m                   0.00:  DISTANCE FWL
 DFSL.m                   0.00:  DISTANCE FSL
 SDEP.m                1455.00:  START DEPTH
 TDD .m                4047.51:  TOTAL DEPTH (DRILLER)
 VSDR.deg               112.75:  VERT SEC DIRECT
 GVFD.g                   1.00:  GRAVITY FIELD
 MFLD.nT              50261.00:  MAGNETIC FIELD
 MDIP.deg                59.52:  MAGNETIC DIP
 MDEC.deg                 6.42:  MAGNETIC DECL
 GRDC.deg                 0.17:  GRID CORRECTION
 AZTC.deg                 6.25:  AZM TOTAL CORR
 EPD .m                   0.00:  ELEVATION
 EGL .m                   0.00:  GROUND ELEVATION
 WDMS.m                 121.00:  WD ELEV
 APD .m                  36.60:  DEPTH ABOVE PD
 AGAP.m                  36.60:  AIR GAP
 VSEW.m                   1.56:  VERT SEC E/W
 VSNS.m                  -7.94:  VERT SEC N/S
 DEP .m                1140.01:  DEPTH
 EKB .m                  36.60:  KB ELEVATION
 EDF .m                  36.60:  DF ELEVATION
 TDL .m                 169.50:  TOTAL DEPTH (LOGGER)
 CSGD.m                3875.01:  CASING BOTTOM (DRILLER)
 CSGL.m                3875.01:  CASING BOTTOM (LOGGER)
 CSGS.in                  7.63:  CASING SIZE
 CSGW.lbpf               23.50:  CASING WEIGHT
 VSC .                       0:  VS TO CLOSURE
 MAGU.                 1849206:  MAGUTM CHECKSUM
~Parameter Information Block
#MNEM.UNIT       Value        Description
#---------     -----------    ---------------------------
 AV  .mps                 1.90:  Ann Velocity 
 AVMX.mps                 2.54:  Max Ann Veloc 
 AZIF.deg               137.03:  Azm, Final 
 BHAT.        Rotary Steerable:  BHA Type 
 BREV.rev             23610.00:  Rev Bit Total 
 BROT.°/30m               0.80:  Build Rotating 
 BS  .in                  6.50:  Bit Size 
 BTPL.psig              110.00:  Bit Press Loss 
 CABU.                     Yes:  Customer Abuse 
 TCS .hr                 70.51:  Time Ciculation Ended 
 CV  .mps                 1.41:  Crit Velocity 
 CVMX.mps                 1.42:  Max Crit Veloc 
 DD1 .         Intigam Rahimov:  Direct Drillr 1 
 DD2 .          Rashad Gojayev:  Direct Drillr 2 
 DDSV.               Geo-Pilot:  DD Service 
 DEFF.%                 100.00:  % Det Eff 
 DLRX.°/30m               1.44:  Dogleg Rot Max 
 DLSO.°/30m               0.00:  Dogleg Oriented 
 DLSX.°/30m               0.00:  Dogleg Str Max 
 DRET.      03.05.00 01-Feb-20:  Drill End Time 
 DRST.      15.50.00 28-Jan-20:  Drill Start Tim 
 DTIM.hr                 24.70:  Time Drilling 
 EDEP.m                4047.51:  End Depth 
 ENG1.           Eldar Hajiyev:  Engineer 1 
 ENG2.          Rasim Hashimov:  Engineer 2 
 ENG3.          Rustam Safarov:  Engineer 3 
 ETIM.      22.00.00 01-Feb-20:  End Time 
 FLOI.gpm               370.00:  Flow In 
 FLON.gpm               300.00:  Flow In Min 
 FLOS.cptm                0.00:  Fluid Loss 
 FLOX.gpm               400.00:  Flow In Max 
 FTRO.       Formation Presure:  FTWD Run Obj 
 HFLO.                      No:  High Flow 
 HPRE.                      No:  High Pressure 
 HTEM.                      No:  High Temp 
 HYDO.m                   2.50:  Hydro Offset 
 IFIN.deg                39.54:  Inc, Final 
 IMAX.deg                41.14:  Inc Max 
 IMIN.deg                39.81:  Inc Min 
 IMND.m                4005.21:  Inc Min Depth 
 IMXD.m                3948.42:  Inc Max Depth 
 JARR.                      No:  Jarring 
 LETM.      03.05.00 01-Feb-20:  Log End Time 
 LOST.hr                     0:  Lost Rig Time 
 LSTM.      15.50.00 28-Jan-20:  Log Start Time 
 MDCL.ppm             37500.00:  Mud Chlorides 
 MDES.     Inversion Oil/Synthetic:  Mud Desc 
 DFD .sg                  1.32:  Mud Density 
 MDMN.sg                  1.32:  Dens Mud Min 
 MDMX.sg                  1.32:  Dens Mud Max 
 MOIL.                      55:  Run Mud Oil % 
 MOWR.                   70:30:  Run Mud OWR 
 MSND.                       0:  Run Mud Sand % 
 MSOL.                      17:  Run Mud Solids% 
 DFV .spqt               80.00:  Mud Viscosity 
 MWOD.in                  4.75:  MWD Tool OD 
 MWSI.                      No:  Serv Intrp, MWD 
 OTIM.hr                121.28:  Time Operating 
 PCON.           Look Like New:  Pad Condition 
 PMAX.psia             6171.00:  Press Op, Max 
 PV  .cP                 30.00:  Mud PV 
 RUN .                     300:  Run Number 
 ROPA.m/hr                5.45:  ROP Avg 
 ROPN.m/hr                3.00:  ROP Min 
 ROPX.m/hr               15.00:  ROP Max 
 RPMA.rpm               130.00:  RPM Surface Avg 
 RPMN.rpm                80.00:  RPM Surface Min 
 RPMX.rpm               140.00:  RPM Surface Max 
 RRUN.                     300:  Rig Run Number 
 RTIM.hr                 13.50:  Time Reaming 
 SAZI.deg               133.93:  Azm, Start 
 SDEP.m                3878.01:  Start Depth 
 SIDD.                      No:  Serv Intrp, DD 
 SINC.deg                40.28:  Inc, Start 
 SPPA.psig             4983.00:  SPP Avg 
 SPPN.psig             4370.00:  SPP Min 
 SPPX.psig             5300.00:  SPP Max 
 STIM.      18.33.36 27-Jan-20:  Start Time 
 SVCS.                 DD, MWD:  Services 
 SVER.                    9.20:  Sperry Version 
 TDAT.m                 169.50:  Tot Depth Attmp 
 TDDF.                      No:  Trip for DD 
 TDLG.m                 169.50:  Tot Depth Loggd 
 TFF .                      No:  Trip for Fail 
 TQAA.f-kp               13.25:  Torque Abs Avg 
 TQAN.f-kp               12.00:  Torque Abs Min 
 TQAX.f-kp               14.00:  Torque Abs Max 
 TRRT.°/30m               0.70:  Turn Rotating 
 MRT .                     ADR:  Maximum Recorded Temperature 
 TTMX.degC               92.16:  Max Tool Temp 
 VS01.       AZ90598764G12V7D4:  Virtual Str1 SN 
 VS02.         AZ90571342R12C4:  Virtual Str2 SN 
 VS03.      AZ90580010N2L2X1C4:  Virtual Str3 SN 
 VS04.        AZ90522266O7X1C4:  Virtual Str4 SN 
 VS05.           AZ90598768F11:  Virtual Str5 SN 
 VS06.     AZ90580006XZ1W1X1C4:  Virtual Str6 SN 
 WBMN.klb                 8.00:  WOB Min 
 WITN.            Peter Wilson:  Customer Rep 
 WOBA.klb                 9.88:  WOB Avg 
 WOBX.klb                10.00:  WOB Max 
 YP  .lhf2               27.00:  Yield Point 
~Curve Information Block
#MNEM.UNIT                 API CODE     Curve Description
#---------               -----------    ---------------------------
 TIME.HHMMSS            00 000 000 000:  GT Time & Date
 GTDEPTH.m              00 000 000 000:  GT Depth
 GTPQH.psia             00 000 000 000:  GT HR Quartz Pressure
 GTTQ.degC              00 000 000 000:  GT Quartz Temperature
 GTTN.NONE              00 000 000 000:  GT Test Number
 GTET.sec               00 000 000 000:  GT Elapsed Test Time
 GTTVD.m                00 000 000 000:  GT True Vertical Depth
#Other Information
#
#WARRANTY: Halliburton will use its best efforts to furnish customers with 
#accurate information and interpretations that are part of, and incident to, the services 
#provided.  However, Halliburton cannot and does not warrant the accuracy 
#or correctness of such information and interpretations.  Under no circumstances should any 
#such information or interpretation be relied upon as the sole basis for any drilling, 
#completion, production, or financial decision or any procedure involving any risk to the 
#safety of any drilling venture, drilling rig or its crew or any other third party.  The 
#Customer has full responsibility for all drilling, completion and production operation.  
#Halliburton makes no representations or warranties, either expressed or 
#implied, including, but not limited to, the implied warranties of merchantability or fitness 
#for a particular purpose, with respect to the services rendered.  In no event will 
#Halliburton be liable for failure to obtain any particular results or for 
#any damages, including, but not limited to, indirect, special or consequential damages, 
#resulting from the use of any information or interpretation provided by Halliburton.
#
~A           TIME           GTDEPTH  GTPQH  GTTQ  GTTN   GTET   GTTVD  
# ...
   04:15:26.865.01-Feb-2020 3998.51 3148.08 85.17 12.00 181.43 3011.77
   04:15:27.066.01-Feb-2020 3998.51 3148.20 85.17 12.00 181.64 3011.77
   04:15:27.267.01-Feb-2020 3998.51 3148.20 85.17 12.00 181.84 3011.77
   04:15:27.468.01-Feb-2020 3998.51 3148.12 85.17 12.00 182.04 3011.77
   04:15:27.668.01-Feb-2020 3998.51 3148.23 85.17 12.00 182.24 3011.77
   04:15:27.869.01-Feb-2020 3998.51 3148.12 85.17 12.00 182.44 3011.77
   04:15:28.070.01-Feb-2020 3998.51 3148.16 85.17 12.00 182.64 3011.77
   04:15:28.270.01-Feb-2020 3998.51 3148.16 85.17 12.00 182.84 3011.77
   04:15:28.471.01-Feb-2020 3998.51 3148.15 85.17 12.00 183.04 3011.77
   04:15:28.672.01-Feb-2020 3998.51 3148.27 85.17 12.00 183.24 3011.77
   04:15:28.872.01-Feb-2020 3998.51 3148.19 85.17 12.00 183.44 3011.77
   04:15:29.073.01-Feb-2020 3998.51 3148.22 85.17 12.00 183.64 3011.77
   04:15:29.274.01-Feb-2020 3998.51 3148.22 85.17 12.00 183.84 3011.77
   04:15:29.475.01-Feb-2020 3998.51 3148.38 85.17 12.00 184.04 3011.77
   04:15:29.675.01-Feb-2020 3998.51 3148.34 85.16 12.00 184.24 3011.77
   04:15:29.876.01-Feb-2020 3998.51 3148.45 85.16 12.00 184.44 3011.77
   04:15:30.077.01-Feb-2020 3998.51 3148.31 85.16 12.00 184.65 3011.77
   04:15:30.277.01-Feb-2020 3998.51 3148.31 85.16 12.00 184.85 3011.77
   04:15:30.478.01-Feb-2020 3998.51 3148.42 85.16 12.00 185.05 3011.77
   04:15:30.679.01-Feb-2020 3998.51 3148.31 85.16 12.00 185.25 3011.77
   04:15:30.880.01-Feb-2020 3998.51 3148.41 85.16 12.00 185.45 3011.77
   04:15:31.080.01-Feb-2020 3998.51 3148.41 85.16 12.00 185.65 3011.77
   04:15:31.281.01-Feb-2020 3998.51 3148.41 85.16 12.00 185.85 3011.77
   04:15:31.482.01-Feb-2020 3998.51 3148.42 85.16 12.00 186.05 3011.77
   04:15:31.682.01-Feb-2020 3998.51 3148.33 85.16 12.00 186.25 3011.77
   04:15:31.883.01-Feb-2020 3998.51 3148.38 85.16 12.00 186.45 3011.77
   04:15:32.084.01-Feb-2020 3998.51 3148.49 85.16 12.00 186.65 3011.77
   04:15:32.284.01-Feb-2020 3998.51 3148.49 85.16 12.00 186.85 3011.77
   04:15:32.485.01-Feb-2020 3998.51 3148.61 85.16 12.00 187.05 3011.77
   04:15:32.686.01-Feb-2020 3998.51 3148.53 85.16 12.00 187.25 3011.77
   04:15:32.887.01-Feb-2020 3998.51 3148.46 85.16 12.00 187.46 3011.77
   04:15:33.087.01-Feb-2020 3998.51 3148.55 85.16 12.00 187.66 3011.77
   04:15:33.288.01-Feb-2020 3998.51 3148.55 85.16 12.00 187.86 3011.77
   04:15:33.489.01-Feb-2020 3998.51 3148.61 85.15 12.00 188.06 3011.77
   04:15:33.689.01-Feb-2020 3998.51 3148.59 85.15 12.00 188.26 3011.77
   04:15:33.890.01-Feb-2020 3998.51 3148.54 85.15 12.00 188.46 3011.77
   04:15:34.091.01-Feb-2020 3998.51 3148.54 85.15 12.00 188.66 3011.77
   04:15:34.291.01-Feb-2020 3998.51 3148.54 85.15 12.00 188.86 3011.77
   04:15:34.492.01-Feb-2020 3998.51 3148.64 85.15 12.00 189.06 3011.77
   04:15:34.693.01-Feb-2020 3998.51 3148.58 85.15 12.00 189.26 3011.77
   04:15:34.894.01-Feb-2020 3998.51 3148.56 85.15 12.00 189.46 3011.77
   04:15:35.094.01-Feb-2020 3998.51 3148.25 85.15 12.00 189.66 3011.77
   04:15:35.295.01-Feb-2020 3998.51 3148.25 85.15 12.00 189.86 3011.77
   04:15:35.496.01-Feb-2020 3998.51 3148.53 85.15 12.00 190.06 3011.77
   04:15:35.696.01-Feb-2020 3998.51 3148.59 85.15 12.00 190.27 3011.77
   04:15:35.897.01-Feb-2020 3998.51 3148.59 85.15 12.00 190.47 3011.77
   04:15:36.098.01-Feb-2020 3998.51 3148.50 85.15 12.00 190.67 3011.77
   04:15:36.298.01-Feb-2020 3998.51 3148.50 85.15 12.00 190.87 3011.77
   04:15:36.499.01-Feb-2020 3998.51 3148.52 85.15 12.00 191.07 3011.77
   04:15:36.700.01-Feb-2020 3998.51 3148.71 85.15 12.00 191.27 3011.77
   04:15:36.901.01-Feb-2020 3998.51 3148.60 85.15 12.00 191.47 3011.77
   04:15:37.101.01-Feb-2020 3998.51 3148.60 85.15 12.00 191.67 3011.77
   04:15:37.302.01-Feb-2020 3998.51 3148.60 85.15 12.00 191.87 3011.77
   04:15:37.503.01-Feb-2020 3998.51 3148.63 85.14 12.00 192.07 3011.77
   04:15:37.703.01-Feb-2020 3998.51 3148.63 85.14 12.00 192.27 3011.77
   04:15:37.904.01-Feb-2020 3998.51 3148.61 85.14 12.00 192.47 3011.77
   04:15:38.105.01-Feb-2020 3998.51 3148.60 85.14 12.00 192.67 3011.77
   04:15:38.305.01-Feb-2020 3998.51 3148.60 85.14 12.00 192.87 3011.77
   04:15:38.506.01-Feb-2020 3998.51 3148.57 85.14 12.00 193.08 3011.77
   04:15:38.707.01-Feb-2020 3998.51 3148.58 85.14 12.00 193.28 3011.77
   04:15:38.908.01-Feb-2020 3998.51 3148.63 85.14 12.00 193.48 3011.77
   04:15:39.108.01-Feb-2020 3998.51 3148.59 85.14 12.00 193.68 3011.77
   04:15:39.309.01-Feb-2020 3998.51 3148.59 85.14 12.00 193.88 3011.77
   04:15:39.510.01-Feb-2020 3998.51 3148.64 85.14 12.00 194.08 3011.77
   04:15:39.710.01-Feb-2020 3998.51 3148.58 85.14 12.00 194.28 3011.77
   04:15:39.911.01-Feb-2020 3998.51 3148.35 85.14 12.00 194.48 3011.77
   04:15:40.112.01-Feb-2020 3998.51 3148.77 85.14 12.00 194.68 3011.77
   04:15:40.312.01-Feb-2020 3998.51 3148.77 85.14 12.00 194.88 3011.77
   04:15:40.513.01-Feb-2020 3998.51 3148.71 85.14 12.00 195.08 3011.77
   04:15:40.714.01-Feb-2020 3998.51 3148.66 85.14 12.00 195.28 3011.77
   04:15:40.915.01-Feb-2020 3998.51 3148.65 85.14 12.00 195.48 3011.77
   04:15:41.115.01-Feb-2020 3998.51 3148.73 85.13 12.00 195.68 3011.77
   04:15:41.316.01-Feb-2020 3998.51 3148.73 85.13 12.00 195.88 3011.77
   04:15:41.517.01-Feb-2020 3998.51 3148.67 85.13 12.00 196.09 3011.77
   04:15:41.717.01-Feb-2020 3998.51 3148.70 85.13 12.00 196.29 3011.77
   04:15:41.918.01-Feb-2020 3998.51 3148.61 85.13 12.00 196.49 3011.77
   04:15:42.119.01-Feb-2020 3998.51 3148.70 85.13 12.00 196.69 3011.77
   04:15:42.320.01-Feb-2020 3998.51 3148.70 85.13 12.00 196.89 3011.77
   04:15:42.520.01-Feb-2020 3998.51 3148.60 85.13 12.00 197.09 3011.77
   04:15:42.721.01-Feb-2020 3998.51 3148.70 85.13 12.00 197.29 3011.77
   04:15:42.922.01-Feb-2020 3998.51 3148.65 85.13 12.00 197.49 3011.77
   04:15:43.122.01-Feb-2020 3998.51 3148.61 85.13 12.00 197.69 3011.77
   04:15:43.323.01-Feb-2020 3998.51 3148.61 85.13 12.00 197.89 3011.77
   04:15:43.524.01-Feb-2020 3998.51 3148.58 85.13 12.00 198.09 3011.77
   04:15:43.724.01-Feb-2020 3998.51 3148.79 85.13 12.00 198.29 3011.77
   04:15:43.925.01-Feb-2020 3998.51 3148.76 85.13 12.00 198.49 3011.77
   04:15:44.126.01-Feb-2020 3998.51 3148.56 85.13 12.00 198.69 3011.77
   04:15:44.327.01-Feb-2020 3998.51 3148.56 85.13 12.00 198.90 3011.77
   04:15:44.527.01-Feb-2020 3998.51 3148.65 85.13 12.00 199.10 3011.77
   04:15:44.728.01-Feb-2020 3998.51 3148.78 85.13 12.00 199.30 3011.77
   04:15:44.929.01-Feb-2020 3998.51 3148.83 85.12 12.00 199.50 3011.77
   04:15:45.129.01-Feb-2020 3998.51 3148.40 85.12 12.00 199.70 3011.77
   04:15:45.330.01-Feb-2020 3998.51 3148.40 85.12 12.00 199.90 3011.77
   04:15:45.531.01-Feb-2020 3998.51 3148.82 85.12 12.00 200.10 3011.77
   04:15:45.731.01-Feb-2020 3998.51 3148.72 85.12 12.00 200.30 3011.77
   04:15:45.932.01-Feb-2020 3998.51 3148.75 85.12 12.00 200.50 3011.77
   04:15:46.133.01-Feb-2020 3998.51 3148.77 85.12 12.00 200.70 3011.77
   04:15:46.334.01-Feb-2020 3998.51 3148.77 85.12 12.00 200.90 3011.77
   04:15:46.534.01-Feb-2020 3998.51 3148.77 85.12 12.00 201.10 3011.77
   04:15:46.735.01-Feb-2020 3998.51 3148.66 85.12 12.00 201.30 3011.77
   04:15:46.936.01-Feb-2020 3998.51 3148.79 85.12 12.00 201.50 3011.77
   04:15:47.136.01-Feb-2020 3998.51 3148.83 85.12 12.00 201.71 3011.77
   04:15:47.337.01-Feb-2020 3998.51 3148.83 85.12 12.00 201.91 3011.77
   04:15:47.538.01-Feb-2020 3998.51 3148.78 85.12 12.00 202.11 3011.77
   04:15:47.738.01-Feb-2020 3998.51 3148.51 85.12 12.00 202.31 3011.77
   04:15:47.939.01-Feb-2020 3998.51 3148.91 85.12 12.00 202.51 3011.77
   04:15:48.140.01-Feb-2020 3998.51 3148.74 85.12 12.00 202.71 3011.77
   04:15:48.341.01-Feb-2020 3998.51 3148.74 85.12 12.00 202.91 3011.77
   04:15:48.541.01-Feb-2020 3998.51 3148.75 85.12 12.00 203.11 3011.77
   04:15:48.742.01-Feb-2020 3998.51 3148.80 85.11 12.00 203.31 3011.77
   04:15:48.943.01-Feb-2020 3998.51 3148.78 85.11 12.00 203.51 3011.77
   04:15:49.143.01-Feb-2020 3998.51 3148.74 85.11 12.00 203.71 3011.77
   04:15:49.344.01-Feb-2020 3998.51 3148.74 85.11 12.00 203.91 3011.77
