~Version Information
 VERS.                  2.0:   CWLS log ASCII Standard -VERSION 2.0
 WRAP.                   NO:   One line per depth step
~Well Information Block
#MNEM.UNIT     VALUE/NAME     DESCRIPTION
#---------     -----------    ---------------------------
 STRT.S             12:23:22 31-Jan-20: START TIME 12:23:22 31-Jan-20
 STOP.S             12:29:53 31-Jan-20: STOP TIME  12:29:53 31-Jan-20
 STEP.S                   0.00: STEP TIME
 NULL.                 -999.25: NULL VALUE
 DFWT.                        :  DIST FWL TEXT
 DFST.                        :  DIST FSL TEXT
 DMF .             Drill Floor:  DRILL MEAS FROM
 STIM.      09.30.00 26-Dec-19:  START TIME
 DATE.      08.00.00 20-Jan-20:  END TIME
 SPUD.               23-Nov-19:  SPUD DATE
 NREF.                    Grid:  NORTH REFERENCE
 HPTY.       Minimum Curvature:  HOLE POS TYPE
 DMOD.             Drill Model:  DRILL MOD DESC
 SVYD.                  Survey:  SURVEY DESC
 ILTD.               Lithology:  INTERP LTH DESC
 FTOP.          Formation Tops:  FORM TOPS DESC
 SON .        AZ-XX-0906192647:  JOB NUMBER
 WTYP.                Deviated:  WELL TYPE
 COMP.     BP Exploration (Caspian Sea) Ltd:  COMPANY
 BASE.              Azerbaijan:  LOGGING EQUIPMENT BASE LOCATION
 REGN.                 Eurasia:  REGION
 FLD .                     ACG:  FIELD NAME
 SRVC.              KCA Deutag:  CONTRACTOR
 MWDS.                    Baku:  MWD SHOP
 WELL.     A10 (Slot 20) - SCP:  WELL NAME
 JOBN.        AZ-XX-0906192647:  JOB TICKET NUMB
 RIG .                 Chirag1:  RIG NAME
 DCON.     Halliburton Sperry Drilling:  DIRECTNL CONTR
 UNIT.                     N/A:  LOGGING EQUIPMENT ID
 PDAT.          Mean Sea Level:  PERMANENT DATUM
 MDS .        Operator Entered:  MAG DATA SOURCE
 CTRY.              Azerbaijan:  COUNTRY NAME
 UWI .            /AZE00000090:  UNIQUE WELL IDENTIFIER
 API .            /AZE00000090:  API NUMBER
 CNTY.                        :  COUNTY
 PROV.                        :  PROVINCE
 STAT.                        :  STATE
 LOC .                        :  LOCATION
 LMF .             Drill Floor:  LOG MEASURED FROM
 TVDS.m                  36.60:  TVDSS CORRECTN
 LATI.deg                40.08:  LATITUDE
 LONG.deg                51.24:  LONGITUDE
 WHNS.m                  -7.94:  WELL HEAD N/S
 WHEW.m                   1.56:  WELL HEAD E/W
 UTMX.m              520429.26:  UTM X
 UTMY.m             4438973.87:  UTM Y
 DFWL.m                   0.00:  DISTANCE FWL
 DFSL.m                   0.00:  DISTANCE FSL
 SDEP.m                1455.00:  START DEPTH
 TDD .m                4047.51:  TOTAL DEPTH (DRILLER)
 VSDR.deg               112.75:  VERT SEC DIRECT
 GVFD.g                   1.00:  GRAVITY FIELD
 MFLD.nT              50261.00:  MAGNETIC FIELD
 MDIP.deg                59.52:  MAGNETIC DIP
 MDEC.deg                 6.42:  MAGNETIC DECL
 GRDC.deg                 0.17:  GRID CORRECTION
 AZTC.deg                 6.25:  AZM TOTAL CORR
 EPD .m                   0.00:  ELEVATION
 EGL .m                   0.00:  GROUND ELEVATION
 WDMS.m                 121.00:  WD ELEV
 APD .m                  36.60:  DEPTH ABOVE PD
 AGAP.m                  36.60:  AIR GAP
 VSEW.m                   1.56:  VERT SEC E/W
 VSNS.m                  -7.94:  VERT SEC N/S
 DEP .m                1140.01:  DEPTH
 EKB .m                  36.60:  KB ELEVATION
 EDF .m                  36.60:  DF ELEVATION
 TDL .m                 169.50:  TOTAL DEPTH (LOGGER)
 CSGD.m                3875.01:  CASING BOTTOM (DRILLER)
 CSGL.m                3875.01:  CASING BOTTOM (LOGGER)
 CSGS.in                  7.63:  CASING SIZE
 CSGW.lbpf               23.50:  CASING WEIGHT
 VSC .                       0:  VS TO CLOSURE
 MAGU.                 1849206:  MAGUTM CHECKSUM
~Parameter Information Block
#MNEM.UNIT       Value        Description
#---------     -----------    ---------------------------
 AV  .mps                 1.90:  Ann Velocity 
 AVMX.mps                 2.54:  Max Ann Veloc 
 AZIF.deg               137.03:  Azm, Final 
 BHAT.        Rotary Steerable:  BHA Type 
 BREV.rev             23610.00:  Rev Bit Total 
 BROT.°/30m               0.80:  Build Rotating 
 BS  .in                  6.50:  Bit Size 
 BTPL.psig              110.00:  Bit Press Loss 
 CABU.                     Yes:  Customer Abuse 
 COMM.                     Ô W:  Run Comments 1 
 TCS .hr                 70.51:  Time Ciculation Ended 
 CV  .mps                 1.41:  Crit Velocity 
 CVMX.mps                 1.42:  Max Crit Veloc 
 DD1 .         Intigam Rahimov:  Direct Drillr 1 
 DD2 .          Rashad Gojayev:  Direct Drillr 2 
 DDSV.               Geo-Pilot:  DD Service 
 DEFF.%                 100.00:  % Det Eff 
 DLRX.°/30m               1.44:  Dogleg Rot Max 
 DLSO.°/30m               0.00:  Dogleg Oriented 
 DLSX.°/30m               0.00:  Dogleg Str Max 
 DRET.      03.05.00 01-Feb-20:  Drill End Time 
 DRST.      15.50.00 28-Jan-20:  Drill Start Tim 
 DTIM.hr                 24.70:  Time Drilling 
 EDEP.m                4047.51:  End Depth 
 ENG1.           Eldar Hajiyev:  Engineer 1 
 ENG2.          Rasim Hashimov:  Engineer 2 
 ENG3.          Rustam Safarov:  Engineer 3 
 ETIM.      22.00.00 01-Feb-20:  End Time 
 FLOI.gpm               370.00:  Flow In 
 FLON.gpm               300.00:  Flow In Min 
 FLOS.cptm                0.00:  Fluid Loss 
 FLOX.gpm               400.00:  Flow In Max 
 FTRO.       Formation Presure:  FTWD Run Obj 
 HFLO.                      No:  High Flow 
 HPRE.                      No:  High Pressure 
 HTEM.                      No:  High Temp 
 HYDO.m                   2.50:  Hydro Offset 
 IFIN.deg                39.54:  Inc, Final 
 IMAX.deg                41.14:  Inc Max 
 IMIN.deg                39.81:  Inc Min 
 IMND.m                4005.21:  Inc Min Depth 
 IMXD.m                3948.42:  Inc Max Depth 
 JARR.                      No:  Jarring 
 LETM.      03.05.00 01-Feb-20:  Log End Time 
 LOST.hr                     0:  Lost Rig Time 
 LSTM.      15.50.00 28-Jan-20:  Log Start Time 
 MDCL.ppm             37500.00:  Mud Chlorides 
 MDES.     Inversion Oil/Synthetic:  Mud Desc 
 DFD .sg                  1.32:  Mud Density 
 MDMN.sg                  1.32:  Dens Mud Min 
 MDMX.sg                  1.32:  Dens Mud Max 
 MOIL.                      55:  Run Mud Oil % 
 MOWR.                   70:30:  Run Mud OWR 
 MSND.                       0:  Run Mud Sand % 
 MSOL.                      17:  Run Mud Solids% 
 DFV .spqt               80.00:  Mud Viscosity 
 MWOD.in                  4.75:  MWD Tool OD 
 MWSI.                      No:  Serv Intrp, MWD 
 OTIM.hr                121.28:  Time Operating 
 PCON.           Look Like New:  Pad Condition 
 PMAX.psia             6171.00:  Press Op, Max 
 PV  .cP                 30.00:  Mud PV 
 RUN .                     300:  Run Number 
 ROPA.m/hr                5.45:  ROP Avg 
 ROPN.m/hr                3.00:  ROP Min 
 ROPX.m/hr               15.00:  ROP Max 
 RPMA.rpm               130.00:  RPM Surface Avg 
 RPMN.rpm                80.00:  RPM Surface Min 
 RPMX.rpm               140.00:  RPM Surface Max 
 RRUN.                     300:  Rig Run Number 
 RTIM.hr                 13.50:  Time Reaming 
 SAZI.deg               133.93:  Azm, Start 
 SDEP.m                3878.01:  Start Depth 
 SIDD.                      No:  Serv Intrp, DD 
 SINC.deg                40.28:  Inc, Start 
 SPPA.psig             4983.00:  SPP Avg 
 SPPN.psig             4370.00:  SPP Min 
 SPPX.psig             5300.00:  SPP Max 
 STIM.      18.33.36 27-Jan-20:  Start Time 
 SVCS.                 DD, MWD:  Services 
 SVER.                    9.20:  Sperry Version 
 TDAT.m                 169.50:  Tot Depth Attmp 
 TDDF.                      No:  Trip for DD 
 TDLG.m                 169.50:  Tot Depth Loggd 
 TFF .                      No:  Trip for Fail 
 TQAA.f-kp               13.25:  Torque Abs Avg 
 TQAN.f-kp               12.00:  Torque Abs Min 
 TQAX.f-kp               14.00:  Torque Abs Max 
 TRRT.°/30m               0.70:  Turn Rotating 
 MRT .                     ADR:  Maximum Recorded Temperature 
 TTMX.degC               92.16:  Max Tool Temp 
 VS01.       AZ90598764G12V7D4:  Virtual Str1 SN 
 VS02.         AZ90571342R12C4:  Virtual Str2 SN 
 VS03.      AZ90580010N2L2X1C4:  Virtual Str3 SN 
 VS04.        AZ90522266O7X1C4:  Virtual Str4 SN 
 VS05.           AZ90598768F11:  Virtual Str5 SN 
 VS06.     AZ90580006XZ1W1X1C4:  Virtual Str6 SN 
 WBMN.klb                 8.00:  WOB Min 
 WITN.            Peter Wilson:  Customer Rep 
 WOBA.klb                 9.88:  WOB Avg 
 WOBX.klb                10.00:  WOB Max 
 YP  .lhf2               27.00:  Yield Point 
~Curve Information Block
#MNEM.UNIT                 API CODE     Curve Description
#---------               -----------    ---------------------------
 TIME.HHMMSS            00 000 000 000:  GT Time & Date
 GTDEPTH.m              00 000 000 000:  GT Depth
 GTPQH.psia             00 000 000 000:  GT HR Quartz Pressure
 GTTQ.degC              00 000 000 000:  GT Quartz Temperature
 GTTN.NONE              00 000 000 000:  GT Test Number
 GTET.sec               00 000 000 000:  GT Elapsed Test Time
 GTTVD.m                00 000 000 000:  GT True Vertical Depth
#Other Information
#
#WARRANTY: Halliburton will use its best efforts to furnish customers with 
#accurate information and interpretations that are part of, and incident to, the services 
#provided.  However, Halliburton cannot and does not warrant the accuracy 
#or correctness of such information and interpretations.  Under no circumstances should any 
#such information or interpretation be relied upon as the sole basis for any drilling, 
#completion, production, or financial decision or any procedure involving any risk to the 
#safety of any drilling venture, drilling rig or its crew or any other third party.  The 
#Customer has full responsibility for all drilling, completion and production operation.  
#Halliburton makes no representations or warranties, either expressed or 
#implied, including, but not limited to, the implied warranties of merchantability or fitness 
#for a particular purpose, with respect to the services rendered.  In no event will 
#Halliburton be liable for failure to obtain any particular results or for 
#any damages, including, but not limited to, indirect, special or consequential damages, 
#resulting from the use of any information or interpretation provided by Halliburton.
#
~A           TIME           GTDEPTH  GTPQH  GTTQ  GTTN  GTET   GTTVD  
# ...
   12:28:44.639.31-Jan-2020 3939.51 3019.79 82.81 6.00 322.08 2967.06
   12:28:44.839.31-Jan-2020 3939.51 3019.79 82.81 6.00 322.28 2967.06
   12:28:45.039.31-Jan-2020 3939.51 3019.67 82.81 6.00 322.48 2967.06
   12:28:45.239.31-Jan-2020 3939.51 3019.62 82.80 6.00 322.68 2967.06
   12:28:45.439.31-Jan-2020 3939.51 3019.57 82.80 6.00 322.88 2967.06
   12:28:45.639.31-Jan-2020 3939.51 3019.63 82.80 6.00 323.08 2967.06
   12:28:45.839.31-Jan-2020 3939.51 3019.63 82.80 6.00 323.28 2967.06
   12:28:46.039.31-Jan-2020 3939.51 3019.68 82.80 6.00 323.48 2967.06
   12:28:46.239.31-Jan-2020 3939.51 3019.66 82.80 6.00 323.68 2967.06
   12:28:46.439.31-Jan-2020 3939.51 3019.56 82.80 6.00 323.88 2967.06
   12:28:46.639.31-Jan-2020 3939.51 3019.57 82.80 6.00 324.08 2967.06
   12:28:46.839.31-Jan-2020 3939.51 3019.57 82.80 6.00 324.28 2967.06
   12:28:47.039.31-Jan-2020 3939.51 3019.70 82.80 6.00 324.48 2967.06
   12:28:47.239.31-Jan-2020 3939.51 3019.32 82.80 6.00 324.68 2967.06
   12:28:47.439.31-Jan-2020 3939.51 3019.48 82.80 6.00 324.88 2967.06
   12:28:47.639.31-Jan-2020 3939.51 3019.64 82.80 6.00 325.08 2967.06
   12:28:47.840.31-Jan-2020 3939.51 3019.64 82.80 6.00 325.28 2967.06
   12:28:48.040.31-Jan-2020 3939.51 3019.72 82.80 6.00 325.48 2967.06
   12:28:48.240.31-Jan-2020 3939.51 3019.29 82.80 6.00 325.68 2967.06
   12:28:48.440.31-Jan-2020 3939.51 3019.65 82.80 6.00 325.88 2967.06
   12:28:48.640.31-Jan-2020 3939.51 3019.78 82.80 6.00 326.08 2967.06
   12:28:48.840.31-Jan-2020 3939.51 3019.78 82.80 6.00 326.28 2967.06
   12:28:49.040.31-Jan-2020 3939.51 3019.79 82.80 6.00 326.48 2967.06
   12:28:49.240.31-Jan-2020 3939.51 3019.70 82.80 6.00 326.68 2967.06
   12:28:49.440.31-Jan-2020 3939.51 3019.71 82.80 6.00 326.88 2967.06
   12:28:49.640.31-Jan-2020 3939.51 3019.17 82.80 6.00 327.08 2967.06
   12:28:49.840.31-Jan-2020 3939.51 3019.17 82.80 6.00 327.28 2967.06
   12:28:50.040.31-Jan-2020 3939.51 3019.64 82.79 6.00 327.48 2967.06
   12:28:50.240.31-Jan-2020 3939.51 3019.80 82.79 6.00 327.68 2967.06
   12:28:50.440.31-Jan-2020 3939.51 3019.71 82.79 6.00 327.88 2967.06
   12:28:50.640.31-Jan-2020 3939.51 3019.76 82.79 6.00 328.08 2967.06
   12:28:50.840.31-Jan-2020 3939.51 3019.76 82.79 6.00 328.28 2967.06
   12:28:51.040.31-Jan-2020 3939.51 3019.51 82.79 6.00 328.48 2967.06
   12:28:51.240.31-Jan-2020 3939.51 3019.75 82.79 6.00 328.68 2967.06
   12:28:51.440.31-Jan-2020 3939.51 3019.74 82.79 6.00 328.88 2967.06
   12:28:51.640.31-Jan-2020 3939.51 3019.67 82.79 6.00 329.08 2967.06
   12:28:51.840.31-Jan-2020 3939.51 3019.67 82.79 6.00 329.28 2967.06
   12:28:52.041.31-Jan-2020 3939.51 3019.59 82.79 6.00 329.48 2967.06
   12:28:52.241.31-Jan-2020 3939.51 3019.25 82.79 6.00 329.68 2967.06
   12:28:52.441.31-Jan-2020 3939.51 3019.70 82.79 6.00 329.88 2967.06
   12:28:52.641.31-Jan-2020 3939.51 3019.86 82.79 6.00 330.08 2967.06
   12:28:52.841.31-Jan-2020 3939.51 3019.86 82.79 6.00 330.28 2967.06
   12:28:53.041.31-Jan-2020 3939.51 3019.80 82.79 6.00 330.48 2967.06
   12:28:53.241.31-Jan-2020 3939.51 3019.66 82.79 6.00 330.68 2967.06
   12:28:53.441.31-Jan-2020 3939.51 3019.59 82.79 6.00 330.88 2967.06
   12:28:53.641.31-Jan-2020 3939.51 3019.67 82.79 6.00 331.08 2967.06
   12:28:53.841.31-Jan-2020 3939.51 3019.67 82.79 6.00 331.28 2967.06
   12:28:54.041.31-Jan-2020 3939.51 3019.74 82.79 6.00 331.48 2967.06
   12:28:54.241.31-Jan-2020 3939.51 3019.65 82.79 6.00 331.68 2967.06
   12:28:54.441.31-Jan-2020 3939.51 3019.62 82.79 6.00 331.88 2967.06
   12:28:54.641.31-Jan-2020 3939.51 3019.52 82.79 6.00 332.08 2967.06
   12:28:54.841.31-Jan-2020 3939.51 3019.52 82.79 6.00 332.28 2967.06
   12:28:55.041.31-Jan-2020 3939.51 3019.70 82.79 6.00 332.48 2967.06
   12:28:55.241.31-Jan-2020 3939.51 3019.69 82.78 6.00 332.68 2967.06
   12:28:55.441.31-Jan-2020 3939.51 3019.71 82.78 6.00 332.88 2967.06
   12:28:55.641.31-Jan-2020 3939.51 3019.59 82.78 6.00 333.08 2967.06
   12:28:55.841.31-Jan-2020 3939.51 3019.59 82.78 6.00 333.28 2967.06
   12:28:56.041.31-Jan-2020 3939.51 3019.40 82.78 6.00 333.48 2967.06
   12:28:56.241.31-Jan-2020 3939.51 3019.61 82.78 6.00 333.68 2967.06
   12:28:56.442.31-Jan-2020 3939.51 3019.70 82.78 6.00 333.88 2967.06
   12:28:56.642.31-Jan-2020 3939.51 3019.78 82.78 6.00 334.08 2967.06
   12:28:56.842.31-Jan-2020 3939.51 3019.78 82.78 6.00 334.28 2967.06
   12:28:57.042.31-Jan-2020 3939.51 3019.63 82.78 6.00 334.48 2967.06
   12:28:57.242.31-Jan-2020 3939.51 3019.62 82.78 6.00 334.68 2967.06
   12:28:57.442.31-Jan-2020 3939.51 3019.57 82.78 6.00 334.88 2967.06
   12:28:57.642.31-Jan-2020 3939.51 3019.66 82.78 6.00 335.08 2967.06
   12:28:57.842.31-Jan-2020 3939.51 3019.66 82.78 6.00 335.28 2967.06
   12:28:58.042.31-Jan-2020 3939.51 3019.60 82.78 6.00 335.48 2967.06
   12:28:58.242.31-Jan-2020 3939.51 3019.59 82.78 6.00 335.68 2967.06
   12:28:58.442.31-Jan-2020 3939.51 3019.52 82.78 6.00 335.88 2967.06
   12:28:58.642.31-Jan-2020 3939.51 3019.53 82.78 6.00 336.08 2967.06
   12:28:58.842.31-Jan-2020 3939.51 3019.53 82.78 6.00 336.28 2967.06
   12:28:59.042.31-Jan-2020 3939.51 3019.57 82.78 6.00 336.48 2967.06
   12:28:59.242.31-Jan-2020 3939.51 3019.32 82.78 6.00 336.68 2967.06
   12:28:59.442.31-Jan-2020 3939.51 3019.57 82.78 6.00 336.88 2967.06
   12:28:59.642.31-Jan-2020 3939.51 3019.61 82.78 6.00 337.08 2967.06
   12:28:59.842.31-Jan-2020 3939.51 3019.61 82.78 6.00 337.28 2967.06
   12:29:00.042.31-Jan-2020 3939.51 3019.55 82.78 6.00 337.48 2967.06
   12:29:00.242.31-Jan-2020 3939.51 3019.32 82.77 6.00 337.68 2967.06
   12:29:00.442.31-Jan-2020 3939.51 3019.66 82.77 6.00 337.88 2967.06
   12:29:00.643.31-Jan-2020 3939.51 3019.74 82.77 6.00 338.08 2967.06
   12:29:00.843.31-Jan-2020 3939.51 3019.74 82.77 6.00 338.28 2967.06
   12:29:01.043.31-Jan-2020 3939.51 3019.71 82.77 6.00 338.48 2967.06
   12:29:01.243.31-Jan-2020 3939.51 3019.69 82.77 6.00 338.68 2967.06
   12:29:01.443.31-Jan-2020 3939.51 3019.28 82.77 6.00 338.88 2967.06
   12:29:01.643.31-Jan-2020 3939.51 3019.53 82.77 6.00 339.08 2967.06
   12:29:01.843.31-Jan-2020 3939.51 3019.53 82.77 6.00 339.28 2967.06
   12:29:02.043.31-Jan-2020 3939.51 3019.71 82.77 6.00 339.48 2967.06
   12:29:02.243.31-Jan-2020 3939.51 3019.81 82.77 6.00 339.68 2967.06
   12:29:02.443.31-Jan-2020 3939.51 3019.74 82.77 6.00 339.88 2967.06
   12:29:02.643.31-Jan-2020 3939.51 3019.58 82.77 6.00 340.08 2967.06
   12:29:02.843.31-Jan-2020 3939.51 3019.58 82.77 6.00 340.28 2967.06
   12:29:03.043.31-Jan-2020 3939.51 3019.65 82.77 6.00 340.48 2967.06
   12:29:03.243.31-Jan-2020 3939.51 3019.73 82.77 6.00 340.68 2967.06
   12:29:03.443.31-Jan-2020 3939.51 3019.71 82.77 6.00 340.88 2967.06
   12:29:03.643.31-Jan-2020 3939.51 3019.61 82.77 6.00 341.08 2967.06
   12:29:03.843.31-Jan-2020 3939.51 3019.61 82.77 6.00 341.28 2967.06
   12:29:04.043.31-Jan-2020 3939.51 3019.16 82.77 6.00 341.48 2967.06
   12:29:04.243.31-Jan-2020 3939.51 3019.50 82.77 6.00 341.68 2967.06
   12:29:04.443.31-Jan-2020 3939.51 3019.79 82.77 6.00 341.88 2967.06
   12:29:04.643.31-Jan-2020 3939.51 3019.81 82.77 6.00 342.08 2967.06
   12:29:04.844.31-Jan-2020 3939.51 3019.81 82.77 6.00 342.28 2967.06
   12:29:05.044.31-Jan-2020 3939.51 3019.67 82.77 6.00 342.48 2967.06
   12:29:05.244.31-Jan-2020 3939.51 3019.65 82.77 6.00 342.68 2967.06
   12:29:05.444.31-Jan-2020 3939.51 3019.57 82.76 6.00 342.88 2967.06
   12:29:05.644.31-Jan-2020 3939.51 3019.69 82.76 6.00 343.08 2967.06
   12:29:05.844.31-Jan-2020 3939.51 3019.69 82.76 6.00 343.28 2967.06
   12:29:06.044.31-Jan-2020 3939.51 3019.63 82.76 6.00 343.48 2967.06
   12:29:06.244.31-Jan-2020 3939.51 3019.60 82.76 6.00 343.68 2967.06
   12:29:06.444.31-Jan-2020 3939.51 3019.58 82.76 6.00 343.88 2967.06
   12:29:06.644.31-Jan-2020 3939.51 3019.53 82.76 6.00 344.08 2967.06
   12:29:06.844.31-Jan-2020 3939.51 3019.53 82.76 6.00 344.28 2967.06
   12:29:07.044.31-Jan-2020 3939.51 3019.75 82.76 6.00 344.48 2967.06
   12:29:07.244.31-Jan-2020 3939.51 3019.75 82.76 6.00 344.68 2967.06
   12:29:07.444.31-Jan-2020 3939.51 3019.74 82.76 6.00 344.88 2967.06
