~Version Information
 VERS.                  2.0:   CWLS log ASCII Standard -VERSION 2.0
 WRAP.                   NO:   One line per depth step
~Well Information Block
#MNEM.UNIT     VALUE/NAME     DESCRIPTION
#---------     -----------    ---------------------------
 STRT.S             06:25:21 31-Jan-20: START TIME 06:25:21 31-Jan-20
 STOP.S             06:31:52 31-Jan-20: STOP TIME  06:31:52 31-Jan-20
 STEP.S                   0.00: STEP TIME
 NULL.                 -999.25: NULL VALUE
 DFWT.                        :  DIST FWL TEXT
 DFST.                        :  DIST FSL TEXT
 DMF .             Drill Floor:  DRILL MEAS FROM
 STIM.      09.30.00 26-Dec-19:  START TIME
 DATE.      08.00.00 20-Jan-20:  END TIME
 SPUD.               23-Nov-19:  SPUD DATE
 NREF.                    Grid:  NORTH REFERENCE
 HPTY.       Minimum Curvature:  HOLE POS TYPE
 DMOD.             Drill Model:  DRILL MOD DESC
 SVYD.                  Survey:  SURVEY DESC
 ILTD.               Lithology:  INTERP LTH DESC
 FTOP.          Formation Tops:  FORM TOPS DESC
 SON .        AZ-XX-0906192647:  JOB NUMBER
 WTYP.                Deviated:  WELL TYPE
 COMP.     BP Exploration (Caspian Sea) Ltd:  COMPANY
 BASE.              Azerbaijan:  LOGGING EQUIPMENT BASE LOCATION
 REGN.                 Eurasia:  REGION
 FLD .                     ACG:  FIELD NAME
 SRVC.              KCA Deutag:  CONTRACTOR
 MWDS.                    Baku:  MWD SHOP
 WELL.     A10 (Slot 20) - SCP:  WELL NAME
 JOBN.        AZ-XX-0906192647:  JOB TICKET NUMB
 RIG .                 Chirag1:  RIG NAME
 DCON.     Halliburton Sperry Drilling:  DIRECTNL CONTR
 UNIT.                     N/A:  LOGGING EQUIPMENT ID
 PDAT.          Mean Sea Level:  PERMANENT DATUM
 MDS .        Operator Entered:  MAG DATA SOURCE
 CTRY.              Azerbaijan:  COUNTRY NAME
 UWI .            /AZE00000090:  UNIQUE WELL IDENTIFIER
 API .            /AZE00000090:  API NUMBER
 CNTY.                        :  COUNTY
 PROV.                        :  PROVINCE
 STAT.                        :  STATE
 LOC .                        :  LOCATION
 LMF .             Drill Floor:  LOG MEASURED FROM
 TVDS.m                  36.60:  TVDSS CORRECTN
 LATI.deg                40.08:  LATITUDE
 LONG.deg                51.24:  LONGITUDE
 WHNS.m                  -7.94:  WELL HEAD N/S
 WHEW.m                   1.56:  WELL HEAD E/W
 UTMX.m              520429.26:  UTM X
 UTMY.m             4438973.87:  UTM Y
 DFWL.m                   0.00:  DISTANCE FWL
 DFSL.m                   0.00:  DISTANCE FSL
 SDEP.m                1455.00:  START DEPTH
 TDD .m                4047.51:  TOTAL DEPTH (DRILLER)
 VSDR.deg               112.75:  VERT SEC DIRECT
 GVFD.g                   1.00:  GRAVITY FIELD
 MFLD.nT              50261.00:  MAGNETIC FIELD
 MDIP.deg                59.52:  MAGNETIC DIP
 MDEC.deg                 6.42:  MAGNETIC DECL
 GRDC.deg                 0.17:  GRID CORRECTION
 AZTC.deg                 6.25:  AZM TOTAL CORR
 EPD .m                   0.00:  ELEVATION
 EGL .m                   0.00:  GROUND ELEVATION
 WDMS.m                 121.00:  WD ELEV
 APD .m                  36.60:  DEPTH ABOVE PD
 AGAP.m                  36.60:  AIR GAP
 VSEW.m                   1.56:  VERT SEC E/W
 VSNS.m                  -7.94:  VERT SEC N/S
 DEP .m                1140.01:  DEPTH
 EKB .m                  36.60:  KB ELEVATION
 EDF .m                  36.60:  DF ELEVATION
 TDL .m                 169.50:  TOTAL DEPTH (LOGGER)
 CSGD.m                3875.01:  CASING BOTTOM (DRILLER)
 CSGL.m                3875.01:  CASING BOTTOM (LOGGER)
 CSGS.in                  7.63:  CASING SIZE
 CSGW.lbpf               23.50:  CASING WEIGHT
 VSC .                       0:  VS TO CLOSURE
 MAGU.                 1849206:  MAGUTM CHECKSUM
~Parameter Information Block
#MNEM.UNIT       Value        Description
#---------     -----------    ---------------------------
 AV  .mps                 1.90:  Ann Velocity 
 AVMX.mps                 2.54:  Max Ann Veloc 
 AZIF.deg               137.03:  Azm, Final 
 BHAT.        Rotary Steerable:  BHA Type 
 BREV.rev             23610.00:  Rev Bit Total 
 BROT.°/30m               0.80:  Build Rotating 
 BS  .in                  6.50:  Bit Size 
 BTPL.psig              110.00:  Bit Press Loss 
 CABU.                     Yes:  Customer Abuse 
 COMM.                     Ð„:  Run Comments 1 
 TCS .hr                 70.51:  Time Ciculation Ended 
 CV  .mps                 1.41:  Crit Velocity 
 CVMX.mps                 1.42:  Max Crit Veloc 
 DD1 .         Intigam Rahimov:  Direct Drillr 1 
 DD2 .          Rashad Gojayev:  Direct Drillr 2 
 DDSV.               Geo-Pilot:  DD Service 
 DEFF.%                 100.00:  % Det Eff 
 DLRX.°/30m               1.44:  Dogleg Rot Max 
 DLSO.°/30m               0.00:  Dogleg Oriented 
 DLSX.°/30m               0.00:  Dogleg Str Max 
 DRET.      03.05.00 01-Feb-20:  Drill End Time 
 DRST.      15.50.00 28-Jan-20:  Drill Start Tim 
 DTIM.hr                 24.70:  Time Drilling 
 EDEP.m                4047.51:  End Depth 
 ENG1.           Eldar Hajiyev:  Engineer 1 
 ENG2.          Rasim Hashimov:  Engineer 2 
 ENG3.          Rustam Safarov:  Engineer 3 
 ETIM.      22.00.00 01-Feb-20:  End Time 
 FLOI.gpm               370.00:  Flow In 
 FLON.gpm               300.00:  Flow In Min 
 FLOS.cptm                0.00:  Fluid Loss 
 FLOX.gpm               400.00:  Flow In Max 
 FTRO.       Formation Presure:  FTWD Run Obj 
 HFLO.                      No:  High Flow 
 HPRE.                      No:  High Pressure 
 HTEM.                      No:  High Temp 
 HYDO.m                   2.50:  Hydro Offset 
 IFIN.deg                39.54:  Inc, Final 
 IMAX.deg                41.14:  Inc Max 
 IMIN.deg                39.81:  Inc Min 
 IMND.m                4005.21:  Inc Min Depth 
 IMXD.m                3948.42:  Inc Max Depth 
 JARR.                      No:  Jarring 
 LETM.      03.05.00 01-Feb-20:  Log End Time 
 LOST.hr                     0:  Lost Rig Time 
 LSTM.      15.50.00 28-Jan-20:  Log Start Time 
 MDCL.ppm             37500.00:  Mud Chlorides 
 MDES.     Inversion Oil/Synthetic:  Mud Desc 
 DFD .sg                  1.32:  Mud Density 
 MDMN.sg                  1.32:  Dens Mud Min 
 MDMX.sg                  1.32:  Dens Mud Max 
 MOIL.                      55:  Run Mud Oil % 
 MOWR.                   70:30:  Run Mud OWR 
 MSND.                       0:  Run Mud Sand % 
 MSOL.                      17:  Run Mud Solids% 
 DFV .spqt               80.00:  Mud Viscosity 
 MWOD.in                  4.75:  MWD Tool OD 
 MWSI.                      No:  Serv Intrp, MWD 
 OTIM.hr                121.28:  Time Operating 
 PCON.           Look Like New:  Pad Condition 
 PMAX.psia             6171.00:  Press Op, Max 
 PV  .cP                 30.00:  Mud PV 
 RUN .                     300:  Run Number 
 ROPA.m/hr                5.45:  ROP Avg 
 ROPN.m/hr                3.00:  ROP Min 
 ROPX.m/hr               15.00:  ROP Max 
 RPMA.rpm               130.00:  RPM Surface Avg 
 RPMN.rpm                80.00:  RPM Surface Min 
 RPMX.rpm               140.00:  RPM Surface Max 
 RRUN.                     300:  Rig Run Number 
 RTIM.hr                 13.50:  Time Reaming 
 SAZI.deg               133.93:  Azm, Start 
 SDEP.m                3878.01:  Start Depth 
 SIDD.                      No:  Serv Intrp, DD 
 SINC.deg                40.28:  Inc, Start 
 SPPA.psig             4983.00:  SPP Avg 
 SPPN.psig             4370.00:  SPP Min 
 SPPX.psig             5300.00:  SPP Max 
 STIM.      18.33.36 27-Jan-20:  Start Time 
 SVCS.                 DD, MWD:  Services 
 SVER.                    9.20:  Sperry Version 
 TDAT.m                 169.50:  Tot Depth Attmp 
 TDDF.                      No:  Trip for DD 
 TDLG.m                 169.50:  Tot Depth Loggd 
 TFF .                      No:  Trip for Fail 
 TQAA.f-kp               13.25:  Torque Abs Avg 
 TQAN.f-kp               12.00:  Torque Abs Min 
 TQAX.f-kp               14.00:  Torque Abs Max 
 TRRT.°/30m               0.70:  Turn Rotating 
 MRT .                     ADR:  Maximum Recorded Temperature 
 TTMX.degC               92.16:  Max Tool Temp 
 VS01.       AZ90598764G12V7D4:  Virtual Str1 SN 
 VS02.         AZ90571342R12C4:  Virtual Str2 SN 
 VS03.      AZ90580010N2L2X1C4:  Virtual Str3 SN 
 VS04.        AZ90522266O7X1C4:  Virtual Str4 SN 
 VS05.           AZ90598768F11:  Virtual Str5 SN 
 VS06.     AZ90580006XZ1W1X1C4:  Virtual Str6 SN 
 WBMN.klb                 8.00:  WOB Min 
 WITN.            Peter Wilson:  Customer Rep 
 WOBA.klb                 9.88:  WOB Avg 
 WOBX.klb                10.00:  WOB Max 
 YP  .lhf2               27.00:  Yield Point 
~Curve Information Block
#MNEM.UNIT                 API CODE     Curve Description
#---------               -----------    ---------------------------
 TIME.HHMMSS            00 000 000 000:  GT Time & Date
 GTDEPTH.m              00 000 000 000:  GT Depth
 GTPQH.psia             00 000 000 000:  GT HR Quartz Pressure
 GTTQ.degC              00 000 000 000:  GT Quartz Temperature
 GTTN.NONE              00 000 000 000:  GT Test Number
 GTET.sec               00 000 000 000:  GT Elapsed Test Time
 GTTVD.m                00 000 000 000:  GT True Vertical Depth
#Other Information
#
#WARRANTY: Halliburton will use its best efforts to furnish customers with 
#accurate information and interpretations that are part of, and incident to, the services 
#provided.  However, Halliburton cannot and does not warrant the accuracy 
#or correctness of such information and interpretations.  Under no circumstances should any 
#such information or interpretation be relied upon as the sole basis for any drilling, 
#completion, production, or financial decision or any procedure involving any risk to the 
#safety of any drilling venture, drilling rig or its crew or any other third party.  The 
#Customer has full responsibility for all drilling, completion and production operation.  
#Halliburton makes no representations or warranties, either expressed or 
#implied, including, but not limited to, the implied warranties of merchantability or fitness 
#for a particular purpose, with respect to the services rendered.  In no event will 
#Halliburton be liable for failure to obtain any particular results or for 
#any damages, including, but not limited to, indirect, special or consequential damages, 
#resulting from the use of any information or interpretation provided by Halliburton.
#
~A           TIME           GTDEPTH  GTPQH  GTTQ  GTTN  GTET   GTTVD  
# ...
   06:27:39.755.31-Jan-2020 3914.01 2928.07 78.85 4.00 138.03 2947.83
   06:27:39.956.31-Jan-2020 3914.01 2928.07 78.85 4.00 138.23 2947.83
   06:27:40.156.31-Jan-2020 3914.01 2927.11 78.85 4.00 138.43 2947.83
   06:27:40.356.31-Jan-2020 3914.01 2926.90 78.85 4.00 138.63 2947.83
   06:27:40.556.31-Jan-2020 3914.01 2926.41 78.85 4.00 138.83 2947.83
   06:27:40.756.31-Jan-2020 3914.01 2925.80 78.85 4.00 139.03 2947.83
   06:27:40.956.31-Jan-2020 3914.01 2925.80 78.85 4.00 139.23 2947.83
   06:27:41.156.31-Jan-2020 3914.01 2927.20 78.85 4.00 139.43 2947.83
   06:27:41.356.31-Jan-2020 3914.01 2926.84 78.85 4.00 139.63 2947.83
   06:27:41.556.31-Jan-2020 3914.01 2926.81 78.84 4.00 139.83 2947.83
   06:27:41.756.31-Jan-2020 3914.01 2925.89 78.84 4.00 140.03 2947.83
   06:27:41.956.31-Jan-2020 3914.01 2925.89 78.84 4.00 140.23 2947.83
   06:27:42.156.31-Jan-2020 3914.01 2927.32 78.84 4.00 140.43 2947.83
   06:27:42.356.31-Jan-2020 3914.01 2926.87 78.84 4.00 140.63 2947.83
   06:27:42.556.31-Jan-2020 3914.01 2926.46 78.84 4.00 140.83 2947.83
   06:27:42.756.31-Jan-2020 3914.01 2926.08 78.84 4.00 141.03 2947.83
   06:27:42.956.31-Jan-2020 3914.01 2926.08 78.84 4.00 141.23 2947.83
   06:27:43.156.31-Jan-2020 3914.01 2927.66 78.84 4.00 141.43 2947.83
   06:27:43.356.31-Jan-2020 3914.01 2926.61 78.84 4.00 141.63 2947.83
   06:27:43.556.31-Jan-2020 3914.01 2927.22 78.84 4.00 141.83 2947.83
   06:27:43.756.31-Jan-2020 3914.01 2927.10 78.84 4.00 142.03 2947.83
   06:27:43.956.31-Jan-2020 3914.01 2927.10 78.84 4.00 142.23 2947.83
   06:27:44.156.31-Jan-2020 3914.01 2926.36 78.84 4.00 142.43 2947.83
   06:27:44.356.31-Jan-2020 3914.01 2926.05 78.84 4.00 142.63 2947.83
   06:27:44.556.31-Jan-2020 3914.01 2926.53 78.84 4.00 142.83 2947.83
   06:27:44.757.31-Jan-2020 3914.01 2926.35 78.83 4.00 143.03 2947.83
   06:27:44.957.31-Jan-2020 3914.01 2926.35 78.83 4.00 143.23 2947.83
   06:27:45.157.31-Jan-2020 3914.01 2926.27 78.83 4.00 143.43 2947.83
   06:27:45.357.31-Jan-2020 3914.01 2958.11 78.83 4.00 143.63 2947.83
   06:27:45.557.31-Jan-2020 3914.01 2989.97 78.83 4.00 143.83 2947.83
   06:27:45.757.31-Jan-2020 3914.01 2991.23 78.83 4.00 144.03 2947.83
   06:27:45.957.31-Jan-2020 3914.01 2991.23 78.83 4.00 144.23 2947.83
   06:27:46.157.31-Jan-2020 3914.01 2992.04 78.83 4.00 144.43 2947.83
   06:27:46.357.31-Jan-2020 3914.01 2992.23 78.83 4.00 144.63 2947.83
   06:27:46.557.31-Jan-2020 3914.01 2992.45 78.83 4.00 144.83 2947.83
   06:27:46.757.31-Jan-2020 3914.01 2992.44 78.83 4.00 145.03 2947.83
   06:27:46.957.31-Jan-2020 3914.01 2992.44 78.83 4.00 145.23 2947.83
   06:27:47.157.31-Jan-2020 3914.01 2992.92 78.83 4.00 145.43 2947.83
   06:27:47.357.31-Jan-2020 3914.01 2992.96 78.83 4.00 145.63 2947.83
   06:27:47.557.31-Jan-2020 3914.01 2993.06 78.83 4.00 145.83 2947.83
   06:27:47.757.31-Jan-2020 3914.01 2993.07 78.83 4.00 146.03 2947.83
   06:27:47.957.31-Jan-2020 3914.01 2993.07 78.83 4.00 146.23 2947.83
   06:27:48.157.31-Jan-2020 3914.01 2993.19 78.82 4.00 146.43 2947.83
   06:27:48.357.31-Jan-2020 3914.01 2993.22 78.82 4.00 146.63 2947.83
   06:27:48.557.31-Jan-2020 3914.01 2993.25 78.82 4.00 146.83 2947.83
   06:27:48.757.31-Jan-2020 3914.01 2993.27 78.82 4.00 147.03 2947.83
   06:27:48.957.31-Jan-2020 3914.01 2993.27 78.82 4.00 147.23 2947.83
   06:27:49.157.31-Jan-2020 3914.01 2993.32 78.82 4.00 147.43 2947.83
   06:27:49.357.31-Jan-2020 3914.01 2993.33 78.82 4.00 147.63 2947.83
   06:27:49.557.31-Jan-2020 3914.01 2993.39 78.82 4.00 147.83 2947.83
   06:27:49.758.31-Jan-2020 3914.01 2993.52 78.82 4.00 148.03 2947.83
   06:27:49.958.31-Jan-2020 3914.01 2993.52 78.82 4.00 148.23 2947.83
   06:27:50.158.31-Jan-2020 3914.01 2993.64 78.82 4.00 148.43 2947.83
   06:27:50.358.31-Jan-2020 3914.01 2993.58 78.82 4.00 148.63 2947.83
   06:27:50.558.31-Jan-2020 3914.01 2993.58 78.82 4.00 148.83 2947.83
   06:27:50.758.31-Jan-2020 3914.01 2993.55 78.82 4.00 149.03 2947.83
   06:27:50.958.31-Jan-2020 3914.01 2993.55 78.82 4.00 149.23 2947.83
   06:27:51.158.31-Jan-2020 3914.01 2993.81 78.82 4.00 149.43 2947.83
   06:27:51.358.31-Jan-2020 3914.01 2993.71 78.81 4.00 149.63 2947.83
   06:27:51.558.31-Jan-2020 3914.01 2993.67 78.81 4.00 149.83 2947.83
   06:27:51.758.31-Jan-2020 3914.01 2993.66 78.81 4.00 150.03 2947.83
   06:27:51.958.31-Jan-2020 3914.01 2993.66 78.81 4.00 150.23 2947.83
   06:27:52.158.31-Jan-2020 3914.01 2993.44 78.81 4.00 150.43 2947.83
   06:27:52.358.31-Jan-2020 3914.01 2993.85 78.81 4.00 150.63 2947.83
   06:27:52.558.31-Jan-2020 3914.01 2993.73 78.81 4.00 150.83 2947.83
   06:27:52.758.31-Jan-2020 3914.01 2993.74 78.81 4.00 151.03 2947.83
   06:27:52.958.31-Jan-2020 3914.01 2993.74 78.81 4.00 151.23 2947.83
   06:27:53.158.31-Jan-2020 3914.01 2993.69 78.81 4.00 151.43 2947.83
   06:27:53.358.31-Jan-2020 3914.01 2993.63 78.81 4.00 151.63 2947.83
   06:27:53.558.31-Jan-2020 3914.01 2993.72 78.81 4.00 151.83 2947.83
   06:27:53.758.31-Jan-2020 3914.01 2993.80 78.81 4.00 152.03 2947.83
   06:27:53.958.31-Jan-2020 3914.01 2993.80 78.81 4.00 152.23 2947.83
   06:27:54.158.31-Jan-2020 3914.01 2993.75 78.81 4.00 152.43 2947.83
   06:27:54.358.31-Jan-2020 3914.01 2993.71 78.81 4.00 152.63 2947.83
   06:27:54.558.31-Jan-2020 3914.01 2993.74 78.81 4.00 152.83 2947.83
   06:27:54.759.31-Jan-2020 3914.01 2993.72 78.80 4.00 153.03 2947.83
   06:27:54.959.31-Jan-2020 3914.01 2993.72 78.80 4.00 153.23 2947.83
   06:27:55.159.31-Jan-2020 3914.01 2993.97 78.80 4.00 153.43 2947.83
   06:27:55.359.31-Jan-2020 3914.01 2993.85 78.80 4.00 153.63 2947.83
   06:27:55.559.31-Jan-2020 3914.01 2993.80 78.80 4.00 153.83 2947.83
   06:27:55.759.31-Jan-2020 3914.01 2993.78 78.80 4.00 154.03 2947.83
   06:27:55.959.31-Jan-2020 3914.01 2993.78 78.80 4.00 154.23 2947.83
   06:27:56.159.31-Jan-2020 3914.01 2993.77 78.80 4.00 154.43 2947.83
   06:27:56.359.31-Jan-2020 3914.01 2993.82 78.80 4.00 154.63 2947.83
   06:27:56.559.31-Jan-2020 3914.01 2993.77 78.80 4.00 154.83 2947.83
   06:27:56.759.31-Jan-2020 3914.01 2993.77 78.80 4.00 155.03 2947.83
   06:27:56.959.31-Jan-2020 3914.01 2993.77 78.80 4.00 155.23 2947.83
   06:27:57.159.31-Jan-2020 3914.01 2993.75 78.80 4.00 155.43 2947.83
   06:27:57.359.31-Jan-2020 3914.01 2993.74 78.80 4.00 155.63 2947.83
   06:27:57.559.31-Jan-2020 3914.01 2993.74 78.80 4.00 155.83 2947.83
   06:27:57.759.31-Jan-2020 3914.01 2993.77 78.80 4.00 156.03 2947.83
   06:27:57.959.31-Jan-2020 3914.01 2993.77 78.80 4.00 156.23 2947.83
   06:27:58.159.31-Jan-2020 3914.01 2993.74 78.79 4.00 156.43 2947.83
   06:27:58.359.31-Jan-2020 3914.01 2993.76 78.79 4.00 156.63 2947.83
   06:27:58.559.31-Jan-2020 3914.01 2993.75 78.79 4.00 156.83 2947.83
   06:27:58.759.31-Jan-2020 3914.01 2993.59 78.79 4.00 157.03 2947.83
   06:27:58.959.31-Jan-2020 3914.01 2993.59 78.79 4.00 157.23 2947.83
   06:27:59.159.31-Jan-2020 3914.01 2993.87 78.79 4.00 157.43 2947.83
   06:27:59.359.31-Jan-2020 3914.01 2993.85 78.79 4.00 157.63 2947.83
   06:27:59.560.31-Jan-2020 3914.01 2993.83 78.79 4.00 157.83 2947.83
   06:27:59.760.31-Jan-2020 3914.01 2993.82 78.79 4.00 158.03 2947.83
   06:27:59.960.31-Jan-2020 3914.01 2993.82 78.79 4.00 158.23 2947.83
   06:28:00.160.31-Jan-2020 3914.01 2993.80 78.79 4.00 158.43 2947.83
   06:28:00.360.31-Jan-2020 3914.01 2993.83 78.79 4.00 158.63 2947.83
   06:28:00.560.31-Jan-2020 3914.01 2993.81 78.79 4.00 158.83 2947.83
   06:28:00.760.31-Jan-2020 3914.01 2993.77 78.79 4.00 159.03 2947.83
   06:28:00.960.31-Jan-2020 3914.01 2993.77 78.79 4.00 159.23 2947.83
   06:28:01.160.31-Jan-2020 3914.01 2993.78 78.79 4.00 159.43 2947.83
   06:28:01.360.31-Jan-2020 3914.01 2993.75 78.79 4.00 159.63 2947.83
   06:28:01.560.31-Jan-2020 3914.01 2993.81 78.78 4.00 159.83 2947.83
   06:28:01.760.31-Jan-2020 3914.01 2993.85 78.78 4.00 160.03 2947.83
   06:28:01.960.31-Jan-2020 3914.01 2993.85 78.78 4.00 160.23 2947.83
   06:28:02.160.31-Jan-2020 3914.01 2993.95 78.78 4.00 160.43 2947.83
   06:28:02.360.31-Jan-2020 3914.01 2993.87 78.78 4.00 160.63 2947.83
   06:28:02.560.31-Jan-2020 3914.01 2993.86 78.78 4.00 160.83 2947.83
