~Version Information
 VERS.                  2.0:   CWLS log ASCII Standard -VERSION 2.0
 WRAP.                   NO:   One line per depth step
~Well Information Block
#MNEM.UNIT     VALUE/NAME     DESCRIPTION
#---------     -----------    ---------------------------
 STRT.S             01:28:25 01-Feb-20: START TIME 01:28:25 01-Feb-20
 STOP.S             01:36:19 01-Feb-20: STOP TIME  01:36:19 01-Feb-20
 STEP.S                   0.00: STEP TIME
 NULL.                 -999.25: NULL VALUE
 DFWT.                        :  DIST FWL TEXT
 DFST.                        :  DIST FSL TEXT
 DMF .             Drill Floor:  DRILL MEAS FROM
 STIM.      09.30.00 26-Dec-19:  START TIME
 DATE.      08.00.00 20-Jan-20:  END TIME
 SPUD.               23-Nov-19:  SPUD DATE
 NREF.                    Grid:  NORTH REFERENCE
 HPTY.       Minimum Curvature:  HOLE POS TYPE
 DMOD.             Drill Model:  DRILL MOD DESC
 SVYD.                  Survey:  SURVEY DESC
 ILTD.               Lithology:  INTERP LTH DESC
 FTOP.          Formation Tops:  FORM TOPS DESC
 SON .        AZ-XX-0906192647:  JOB NUMBER
 WTYP.                Deviated:  WELL TYPE
 COMP.     BP Exploration (Caspian Sea) Ltd:  COMPANY
 BASE.              Azerbaijan:  LOGGING EQUIPMENT BASE LOCATION
 REGN.                 Eurasia:  REGION
 FLD .                     ACG:  FIELD NAME
 SRVC.              KCA Deutag:  CONTRACTOR
 MWDS.                    Baku:  MWD SHOP
 WELL.     A10 (Slot 20) - SCP:  WELL NAME
 JOBN.        AZ-XX-0906192647:  JOB TICKET NUMB
 RIG .                 Chirag1:  RIG NAME
 DCON.     Halliburton Sperry Drilling:  DIRECTNL CONTR
 UNIT.                     N/A:  LOGGING EQUIPMENT ID
 PDAT.          Mean Sea Level:  PERMANENT DATUM
 MDS .        Operator Entered:  MAG DATA SOURCE
 CTRY.              Azerbaijan:  COUNTRY NAME
 UWI .            /AZE00000090:  UNIQUE WELL IDENTIFIER
 API .            /AZE00000090:  API NUMBER
 CNTY.                        :  COUNTY
 PROV.                        :  PROVINCE
 STAT.                        :  STATE
 LOC .                        :  LOCATION
 LMF .             Drill Floor:  LOG MEASURED FROM
 TVDS.m                  36.60:  TVDSS CORRECTN
 LATI.deg                40.08:  LATITUDE
 LONG.deg                51.24:  LONGITUDE
 WHNS.m                  -7.94:  WELL HEAD N/S
 WHEW.m                   1.56:  WELL HEAD E/W
 UTMX.m              520429.26:  UTM X
 UTMY.m             4438973.87:  UTM Y
 DFWL.m                   0.00:  DISTANCE FWL
 DFSL.m                   0.00:  DISTANCE FSL
 SDEP.m                1455.00:  START DEPTH
 TDD .m                4047.51:  TOTAL DEPTH (DRILLER)
 VSDR.deg               112.75:  VERT SEC DIRECT
 GVFD.g                   1.00:  GRAVITY FIELD
 MFLD.nT              50261.00:  MAGNETIC FIELD
 MDIP.deg                59.52:  MAGNETIC DIP
 MDEC.deg                 6.42:  MAGNETIC DECL
 GRDC.deg                 0.17:  GRID CORRECTION
 AZTC.deg                 6.25:  AZM TOTAL CORR
 EPD .m                   0.00:  ELEVATION
 EGL .m                   0.00:  GROUND ELEVATION
 WDMS.m                 121.00:  WD ELEV
 APD .m                  36.60:  DEPTH ABOVE PD
 AGAP.m                  36.60:  AIR GAP
 VSEW.m                   1.56:  VERT SEC E/W
 VSNS.m                  -7.94:  VERT SEC N/S
 DEP .m                1140.01:  DEPTH
 EKB .m                  36.60:  KB ELEVATION
 EDF .m                  36.60:  DF ELEVATION
 TDL .m                 169.50:  TOTAL DEPTH (LOGGER)
 CSGD.m                3875.01:  CASING BOTTOM (DRILLER)
 CSGL.m                3875.01:  CASING BOTTOM (LOGGER)
 CSGS.in                  7.63:  CASING SIZE
 CSGW.lbpf               23.50:  CASING WEIGHT
 VSC .                       0:  VS TO CLOSURE
 MAGU.                 1849206:  MAGUTM CHECKSUM
~Parameter Information Block
#MNEM.UNIT       Value        Description
#---------     -----------    ---------------------------
 AV  .mps                 1.90:  Ann Velocity 
 AVMX.mps                 2.54:  Max Ann Veloc 
 AZIF.deg               137.03:  Azm, Final 
 BHAT.        Rotary Steerable:  BHA Type 
 BREV.rev             23610.00:  Rev Bit Total 
 BROT.°/30m               0.80:  Build Rotating 
 BS  .in                  6.50:  Bit Size 
 BTPL.psig              110.00:  Bit Press Loss 
 CABU.                     Yes:  Customer Abuse 
 COMM.                     ì…†:  Run Comments 1 
 TCS .hr                 70.51:  Time Ciculation Ended 
 CV  .mps                 1.41:  Crit Velocity 
 CVMX.mps                 1.42:  Max Crit Veloc 
 DD1 .         Intigam Rahimov:  Direct Drillr 1 
 DD2 .          Rashad Gojayev:  Direct Drillr 2 
 DDSV.               Geo-Pilot:  DD Service 
 DEFF.%                 100.00:  % Det Eff 
 DLRX.°/30m               1.44:  Dogleg Rot Max 
 DLSO.°/30m               0.00:  Dogleg Oriented 
 DLSX.°/30m               0.00:  Dogleg Str Max 
 DRET.      03.05.00 01-Feb-20:  Drill End Time 
 DRST.      15.50.00 28-Jan-20:  Drill Start Tim 
 DTIM.hr                 24.70:  Time Drilling 
 EDEP.m                4047.51:  End Depth 
 ENG1.           Eldar Hajiyev:  Engineer 1 
 ENG2.          Rasim Hashimov:  Engineer 2 
 ENG3.          Rustam Safarov:  Engineer 3 
 ETIM.      22.00.00 01-Feb-20:  End Time 
 FLOI.gpm               370.00:  Flow In 
 FLON.gpm               300.00:  Flow In Min 
 FLOS.cptm                0.00:  Fluid Loss 
 FLOX.gpm               400.00:  Flow In Max 
 FTRO.       Formation Presure:  FTWD Run Obj 
 HFLO.                      No:  High Flow 
 HPRE.                      No:  High Pressure 
 HTEM.                      No:  High Temp 
 HYDO.m                   2.50:  Hydro Offset 
 IFIN.deg                39.54:  Inc, Final 
 IMAX.deg                41.14:  Inc Max 
 IMIN.deg                39.81:  Inc Min 
 IMND.m                4005.21:  Inc Min Depth 
 IMXD.m                3948.42:  Inc Max Depth 
 JARR.                      No:  Jarring 
 LETM.      03.05.00 01-Feb-20:  Log End Time 
 LOST.hr                     0:  Lost Rig Time 
 LSTM.      15.50.00 28-Jan-20:  Log Start Time 
 MDCL.ppm             37500.00:  Mud Chlorides 
 MDES.     Inversion Oil/Synthetic:  Mud Desc 
 DFD .sg                  1.32:  Mud Density 
 MDMN.sg                  1.32:  Dens Mud Min 
 MDMX.sg                  1.32:  Dens Mud Max 
 MOIL.                      55:  Run Mud Oil % 
 MOWR.                   70:30:  Run Mud OWR 
 MSND.                       0:  Run Mud Sand % 
 MSOL.                      17:  Run Mud Solids% 
 DFV .spqt               80.00:  Mud Viscosity 
 MWOD.in                  4.75:  MWD Tool OD 
 MWSI.                      No:  Serv Intrp, MWD 
 OTIM.hr                121.28:  Time Operating 
 PCON.           Look Like New:  Pad Condition 
 PMAX.psia             6171.00:  Press Op, Max 
 PV  .cP                 30.00:  Mud PV 
 RUN .                     300:  Run Number 
 ROPA.m/hr                5.45:  ROP Avg 
 ROPN.m/hr                3.00:  ROP Min 
 ROPX.m/hr               15.00:  ROP Max 
 RPMA.rpm               130.00:  RPM Surface Avg 
 RPMN.rpm                80.00:  RPM Surface Min 
 RPMX.rpm               140.00:  RPM Surface Max 
 RRUN.                     300:  Rig Run Number 
 RTIM.hr                 13.50:  Time Reaming 
 SAZI.deg               133.93:  Azm, Start 
 SDEP.m                3878.01:  Start Depth 
 SIDD.                      No:  Serv Intrp, DD 
 SINC.deg                40.28:  Inc, Start 
 SPPA.psig             4983.00:  SPP Avg 
 SPPN.psig             4370.00:  SPP Min 
 SPPX.psig             5300.00:  SPP Max 
 STIM.      18.33.36 27-Jan-20:  Start Time 
 SVCS.                 DD, MWD:  Services 
 SVER.                    9.20:  Sperry Version 
 TDAT.m                 169.50:  Tot Depth Attmp 
 TDDF.                      No:  Trip for DD 
 TDLG.m                 169.50:  Tot Depth Loggd 
 TFF .                      No:  Trip for Fail 
 TQAA.f-kp               13.25:  Torque Abs Avg 
 TQAN.f-kp               12.00:  Torque Abs Min 
 TQAX.f-kp               14.00:  Torque Abs Max 
 TRRT.°/30m               0.70:  Turn Rotating 
 MRT .                     ADR:  Maximum Recorded Temperature 
 TTMX.degC               92.16:  Max Tool Temp 
 VS01.       AZ90598764G12V7D4:  Virtual Str1 SN 
 VS02.         AZ90571342R12C4:  Virtual Str2 SN 
 VS03.      AZ90580010N2L2X1C4:  Virtual Str3 SN 
 VS04.        AZ90522266O7X1C4:  Virtual Str4 SN 
 VS05.           AZ90598768F11:  Virtual Str5 SN 
 VS06.     AZ90580006XZ1W1X1C4:  Virtual Str6 SN 
 WBMN.klb                 8.00:  WOB Min 
 WITN.            Peter Wilson:  Customer Rep 
 WOBA.klb                 9.88:  WOB Avg 
 WOBX.klb                10.00:  WOB Max 
 YP  .lhf2               27.00:  Yield Point 
~Curve Information Block
#MNEM.UNIT                 API CODE     Curve Description
#---------               -----------    ---------------------------
 TIME.HHMMSS            00 000 000 000:  GT Time & Date
 GTDEPTH.m              00 000 000 000:  GT Depth
 GTPQH.psia             00 000 000 000:  GT HR Quartz Pressure
 GTTQ.degC              00 000 000 000:  GT Quartz Temperature
 GTTN.NONE              00 000 000 000:  GT Test Number
 GTET.sec               00 000 000 000:  GT Elapsed Test Time
 GTTVD.m                00 000 000 000:  GT True Vertical Depth
#Other Information
#
#WARRANTY: Halliburton will use its best efforts to furnish customers with 
#accurate information and interpretations that are part of, and incident to, the services 
#provided.  However, Halliburton cannot and does not warrant the accuracy 
#or correctness of such information and interpretations.  Under no circumstances should any 
#such information or interpretation be relied upon as the sole basis for any drilling, 
#completion, production, or financial decision or any procedure involving any risk to the 
#safety of any drilling venture, drilling rig or its crew or any other third party.  The 
#Customer has full responsibility for all drilling, completion and production operation.  
#Halliburton makes no representations or warranties, either expressed or 
#implied, including, but not limited to, the implied warranties of merchantability or fitness 
#for a particular purpose, with respect to the services rendered.  In no event will 
#Halliburton be liable for failure to obtain any particular results or for 
#any damages, including, but not limited to, indirect, special or consequential damages, 
#resulting from the use of any information or interpretation provided by Halliburton.
#
~A           TIME           GTDEPTH  GTPQH  GTTQ  GTTN   GTET   GTTVD  
# ...
   01:32:57.176.01-Feb-2020 3990.12 3216.97 84.53 11.00 272.15 3005.35
   01:32:57.376.01-Feb-2020 3990.12 3216.71 84.53 11.00 272.35 3005.35
   01:32:57.577.01-Feb-2020 3990.12 3216.73 84.53 11.00 272.55 3005.35
   01:32:57.778.01-Feb-2020 3990.12 3216.84 84.53 11.00 272.75 3005.35
   01:32:57.978.01-Feb-2020 3990.12 3217.01 84.53 11.00 272.95 3005.35
   01:32:58.179.01-Feb-2020 3990.12 3217.01 84.53 11.00 273.16 3005.35
   01:32:58.380.01-Feb-2020 3990.12 3216.67 84.53 11.00 273.36 3005.35
   01:32:58.581.01-Feb-2020 3990.12 3216.85 84.53 11.00 273.56 3005.35
   01:32:58.781.01-Feb-2020 3990.12 3216.87 84.53 11.00 273.76 3005.35
   01:32:58.982.01-Feb-2020 3990.12 3216.95 84.53 11.00 273.96 3005.35
   01:32:59.183.01-Feb-2020 3990.12 3216.95 84.53 11.00 274.16 3005.35
   01:32:59.383.01-Feb-2020 3990.12 3216.94 84.53 11.00 274.36 3005.35
   01:32:59.584.01-Feb-2020 3990.12 3216.55 84.53 11.00 274.56 3005.35
   01:32:59.785.01-Feb-2020 3990.12 3216.66 84.53 11.00 274.76 3005.35
   01:32:59.985.01-Feb-2020 3990.12 3216.85 84.52 11.00 274.96 3005.35
   01:33:00.186.01-Feb-2020 3990.12 3216.85 84.52 11.00 275.16 3005.35
   01:33:00.387.01-Feb-2020 3990.12 3217.04 84.52 11.00 275.36 3005.35
   01:33:00.588.01-Feb-2020 3990.12 3216.98 84.52 11.00 275.56 3005.35
   01:33:00.788.01-Feb-2020 3990.12 3216.90 84.52 11.00 275.76 3005.35
   01:33:00.989.01-Feb-2020 3990.12 3216.90 84.52 11.00 275.96 3005.35
   01:33:01.190.01-Feb-2020 3990.12 3216.90 84.52 11.00 276.17 3005.35
   01:33:01.390.01-Feb-2020 3990.12 3216.93 84.52 11.00 276.37 3005.35
   01:33:01.591.01-Feb-2020 3990.12 3216.90 84.52 11.00 276.57 3005.35
   01:33:01.792.01-Feb-2020 3990.12 3216.90 84.52 11.00 276.77 3005.35
   01:33:01.992.01-Feb-2020 3990.12 3216.84 84.52 11.00 276.97 3005.35
   01:33:02.193.01-Feb-2020 3990.12 3216.84 84.52 11.00 277.17 3005.35
   01:33:02.394.01-Feb-2020 3990.12 3216.81 84.52 11.00 277.37 3005.35
   01:33:02.595.01-Feb-2020 3990.12 3216.91 84.52 11.00 277.57 3005.35
   01:33:02.795.01-Feb-2020 3990.12 3216.85 84.52 11.00 277.77 3005.35
   01:33:02.996.01-Feb-2020 3990.12 3216.99 84.52 11.00 277.97 3005.35
   01:33:03.197.01-Feb-2020 3990.12 3216.99 84.52 11.00 278.17 3005.35
   01:33:03.397.01-Feb-2020 3990.12 3216.71 84.52 11.00 278.37 3005.35
   01:33:03.598.01-Feb-2020 3990.12 3216.79 84.52 11.00 278.57 3005.35
   01:33:03.799.01-Feb-2020 3990.12 3216.84 84.52 11.00 278.77 3005.35
   01:33:04.000.01-Feb-2020 3990.12 3216.87 84.52 11.00 278.98 3005.35
   01:33:04.200.01-Feb-2020 3990.12 3216.87 84.52 11.00 279.18 3005.35
   01:33:04.401.01-Feb-2020 3990.12 3216.97 84.52 11.00 279.38 3005.35
   01:33:04.602.01-Feb-2020 3990.12 3217.00 84.52 11.00 279.58 3005.35
   01:33:04.802.01-Feb-2020 3990.12 3217.02 84.51 11.00 279.78 3005.35
   01:33:05.003.01-Feb-2020 3990.12 3216.91 84.51 11.00 279.98 3005.35
   01:33:05.204.01-Feb-2020 3990.12 3216.91 84.51 11.00 280.18 3005.35
   01:33:05.404.01-Feb-2020 3990.12 3217.01 84.51 11.00 280.38 3005.35
   01:33:05.605.01-Feb-2020 3990.12 3216.95 84.51 11.00 280.58 3005.35
   01:33:05.806.01-Feb-2020 3990.12 3217.04 84.51 11.00 280.78 3005.35
   01:33:06.007.01-Feb-2020 3990.12 3216.95 84.51 11.00 280.98 3005.35
   01:33:06.207.01-Feb-2020 3990.12 3216.95 84.51 11.00 281.18 3005.35
   01:33:06.408.01-Feb-2020 3990.12 3217.09 84.51 11.00 281.38 3005.35
   01:33:06.609.01-Feb-2020 3990.12 3216.66 84.51 11.00 281.58 3005.35
   01:33:06.809.01-Feb-2020 3990.12 3216.85 84.51 11.00 281.79 3005.35
   01:33:07.010.01-Feb-2020 3990.12 3217.02 84.51 11.00 281.99 3005.35
   01:33:07.211.01-Feb-2020 3990.12 3217.02 84.51 11.00 282.19 3005.35
   01:33:07.411.01-Feb-2020 3990.12 3217.11 84.51 11.00 282.39 3005.35
   01:33:07.612.01-Feb-2020 3990.12 3216.72 84.51 11.00 282.59 3005.35
   01:33:07.813.01-Feb-2020 3990.12 3216.80 84.51 11.00 282.79 3005.35
   01:33:08.014.01-Feb-2020 3990.12 3217.02 84.51 11.00 282.99 3005.35
   01:33:08.214.01-Feb-2020 3990.12 3217.02 84.51 11.00 283.19 3005.35
   01:33:08.415.01-Feb-2020 3990.12 3216.96 84.51 11.00 283.39 3005.35
   01:33:08.616.01-Feb-2020 3990.12 3217.11 84.51 11.00 283.59 3005.35
   01:33:08.816.01-Feb-2020 3990.12 3216.67 84.51 11.00 283.79 3005.35
   01:33:09.017.01-Feb-2020 3990.12 3216.85 84.51 11.00 283.99 3005.35
   01:33:09.218.01-Feb-2020 3990.12 3216.85 84.51 11.00 284.19 3005.35
   01:33:09.418.01-Feb-2020 3990.12 3216.94 84.51 11.00 284.39 3005.35
   01:33:09.619.01-Feb-2020 3990.12 3217.11 84.51 11.00 284.60 3005.35
   01:33:09.820.01-Feb-2020 3990.12 3216.73 84.50 11.00 284.80 3005.35
   01:33:10.021.01-Feb-2020 3990.12 3216.76 84.50 11.00 285.00 3005.35
   01:33:10.221.01-Feb-2020 3990.12 3216.76 84.50 11.00 285.20 3005.35
   01:33:10.422.01-Feb-2020 3990.12 3217.07 84.50 11.00 285.40 3005.35
   01:33:10.623.01-Feb-2020 3990.12 3217.07 84.50 11.00 285.60 3005.35
   01:33:10.823.01-Feb-2020 3990.12 3217.16 84.50 11.00 285.80 3005.35
   01:33:11.024.01-Feb-2020 3990.12 3217.06 84.50 11.00 286.00 3005.35
   01:33:11.225.01-Feb-2020 3990.12 3217.06 84.50 11.00 286.20 3005.35
   01:33:11.425.01-Feb-2020 3990.12 3216.91 84.50 11.00 286.40 3005.35
   01:33:11.626.01-Feb-2020 3990.12 3216.98 84.50 11.00 286.60 3005.35
   01:33:11.827.01-Feb-2020 3990.12 3217.11 84.50 11.00 286.80 3005.35
   01:33:12.028.01-Feb-2020 3990.12 3217.22 84.50 11.00 287.00 3005.35
   01:33:12.228.01-Feb-2020 3990.12 3217.22 84.50 11.00 287.20 3005.35
   01:33:12.429.01-Feb-2020 3990.12 3217.17 84.50 11.00 287.40 3005.35
   01:33:12.630.01-Feb-2020 3990.12 3217.10 84.50 11.00 287.61 3005.35
   01:33:12.830.01-Feb-2020 3990.12 3217.09 84.50 11.00 287.81 3005.35
   01:33:13.031.01-Feb-2020 3990.12 3217.18 84.50 11.00 288.01 3005.35
   01:33:13.232.01-Feb-2020 3990.12 3217.18 84.50 11.00 288.21 3005.35
   01:33:13.432.01-Feb-2020 3990.12 3217.04 84.50 11.00 288.41 3005.35
   01:33:13.633.01-Feb-2020 3990.12 3217.12 84.50 11.00 288.61 3005.35
   01:33:13.834.01-Feb-2020 3990.12 3216.94 84.50 11.00 288.81 3005.35
   01:33:14.035.01-Feb-2020 3990.12 3216.95 84.50 11.00 289.01 3005.35
   01:33:14.235.01-Feb-2020 3990.12 3216.95 84.50 11.00 289.21 3005.35
   01:33:14.436.01-Feb-2020 3990.12 3217.00 84.49 11.00 289.41 3005.35
   01:33:14.637.01-Feb-2020 3990.12 3217.22 84.49 11.00 289.61 3005.35
   01:33:14.837.01-Feb-2020 3990.12 3216.82 84.49 11.00 289.81 3005.35
   01:33:15.038.01-Feb-2020 3990.12 3216.94 84.49 11.00 290.01 3005.35
   01:33:15.239.01-Feb-2020 3990.12 3216.94 84.49 11.00 290.21 3005.35
   01:33:15.440.01-Feb-2020 3990.12 3217.15 84.49 11.00 290.42 3005.35
   01:33:15.640.01-Feb-2020 3990.12 3217.12 84.49 11.00 290.62 3005.35
   01:33:15.841.01-Feb-2020 3990.12 3217.27 84.49 11.00 290.82 3005.35
   01:33:16.042.01-Feb-2020 3990.12 3217.08 84.49 11.00 291.02 3005.35
   01:33:16.242.01-Feb-2020 3990.12 3217.08 84.49 11.00 291.22 3005.35
   01:33:16.443.01-Feb-2020 3990.12 3217.21 84.49 11.00 291.42 3005.35
   01:33:16.644.01-Feb-2020 3990.12 3217.06 84.49 11.00 291.62 3005.35
   01:33:16.844.01-Feb-2020 3990.12 3217.15 84.49 11.00 291.82 3005.35
   01:33:17.045.01-Feb-2020 3990.12 3217.19 84.49 11.00 292.02 3005.35
   01:33:17.246.01-Feb-2020 3990.12 3217.19 84.49 11.00 292.22 3005.35
   01:33:17.447.01-Feb-2020 3990.12 3217.20 84.49 11.00 292.42 3005.35
   01:33:17.647.01-Feb-2020 3990.12 3217.10 84.49 11.00 292.62 3005.35
   01:33:17.848.01-Feb-2020 3990.12 3217.12 84.49 11.00 292.82 3005.35
   01:33:18.049.01-Feb-2020 3990.12 3217.34 84.49 11.00 293.02 3005.35
   01:33:18.249.01-Feb-2020 3990.12 3217.34 84.49 11.00 293.23 3005.35
   01:33:18.450.01-Feb-2020 3990.12 3216.97 84.49 11.00 293.43 3005.35
   01:33:18.651.01-Feb-2020 3990.12 3217.23 84.49 11.00 293.63 3005.35
   01:33:18.851.01-Feb-2020 3990.12 3217.10 84.49 11.00 293.83 3005.35
   01:33:19.052.01-Feb-2020 3990.12 3217.25 84.49 11.00 294.03 3005.35
   01:33:19.253.01-Feb-2020 3990.12 3217.25 84.49 11.00 294.23 3005.35
   01:33:19.454.01-Feb-2020 3990.12 3216.99 84.48 11.00 294.43 3005.35
   01:33:19.654.01-Feb-2020 3990.12 3217.24 84.48 11.00 294.63 3005.35
