~Version Information
 VERS.                  2.0:   CWLS log ASCII Standard -VERSION 2.0
 WRAP.                   NO:   One line per depth step
~Well Information Block
#MNEM.UNIT     VALUE/NAME     DESCRIPTION
#---------     -----------    ---------------------------
 STRT.S             06:25:21 31-Jan-20: START TIME 06:25:21 31-Jan-20
 STOP.S             06:31:52 31-Jan-20: STOP TIME  06:31:52 31-Jan-20
 STEP.S                   0.00: STEP TIME
 NULL.                 -999.25: NULL VALUE
 DFWT.                        :  DIST FWL TEXT
 DFST.                        :  DIST FSL TEXT
 DMF .             Drill Floor:  DRILL MEAS FROM
 STIM.      09.30.00 26-Dec-19:  START TIME
 DATE.      08.00.00 20-Jan-20:  END TIME
 SPUD.               23-Nov-19:  SPUD DATE
 NREF.                    Grid:  NORTH REFERENCE
 HPTY.       Minimum Curvature:  HOLE POS TYPE
 DMOD.             Drill Model:  DRILL MOD DESC
 SVYD.                  Survey:  SURVEY DESC
 ILTD.               Lithology:  INTERP LTH DESC
 FTOP.          Formation Tops:  FORM TOPS DESC
 SON .        AZ-XX-0906192647:  JOB NUMBER
 WTYP.                Deviated:  WELL TYPE
 COMP.     BP Exploration (Caspian Sea) Ltd:  COMPANY
 BASE.              Azerbaijan:  LOGGING EQUIPMENT BASE LOCATION
 REGN.                 Eurasia:  REGION
 FLD .                     ACG:  FIELD NAME
 SRVC.              KCA Deutag:  CONTRACTOR
 MWDS.                    Baku:  MWD SHOP
 WELL.     A10 (Slot 20) - SCP:  WELL NAME
 JOBN.        AZ-XX-0906192647:  JOB TICKET NUMB
 RIG .                 Chirag1:  RIG NAME
 DCON.     Halliburton Sperry Drilling:  DIRECTNL CONTR
 UNIT.                     N/A:  LOGGING EQUIPMENT ID
 PDAT.          Mean Sea Level:  PERMANENT DATUM
 MDS .        Operator Entered:  MAG DATA SOURCE
 CTRY.              Azerbaijan:  COUNTRY NAME
 UWI .            /AZE00000090:  UNIQUE WELL IDENTIFIER
 API .            /AZE00000090:  API NUMBER
 CNTY.                        :  COUNTY
 PROV.                        :  PROVINCE
 STAT.                        :  STATE
 LOC .                        :  LOCATION
 LMF .             Drill Floor:  LOG MEASURED FROM
 TVDS.m                  36.60:  TVDSS CORRECTN
 LATI.deg                40.08:  LATITUDE
 LONG.deg                51.24:  LONGITUDE
 WHNS.m                  -7.94:  WELL HEAD N/S
 WHEW.m                   1.56:  WELL HEAD E/W
 UTMX.m              520429.26:  UTM X
 UTMY.m             4438973.87:  UTM Y
 DFWL.m                   0.00:  DISTANCE FWL
 DFSL.m                   0.00:  DISTANCE FSL
 SDEP.m                1455.00:  START DEPTH
 TDD .m                4047.51:  TOTAL DEPTH (DRILLER)
 VSDR.deg               112.75:  VERT SEC DIRECT
 GVFD.g                   1.00:  GRAVITY FIELD
 MFLD.nT              50261.00:  MAGNETIC FIELD
 MDIP.deg                59.52:  MAGNETIC DIP
 MDEC.deg                 6.42:  MAGNETIC DECL
 GRDC.deg                 0.17:  GRID CORRECTION
 AZTC.deg                 6.25:  AZM TOTAL CORR
 EPD .m                   0.00:  ELEVATION
 EGL .m                   0.00:  GROUND ELEVATION
 WDMS.m                 121.00:  WD ELEV
 APD .m                  36.60:  DEPTH ABOVE PD
 AGAP.m                  36.60:  AIR GAP
 VSEW.m                   1.56:  VERT SEC E/W
 VSNS.m                  -7.94:  VERT SEC N/S
 DEP .m                1140.01:  DEPTH
 EKB .m                  36.60:  KB ELEVATION
 EDF .m                  36.60:  DF ELEVATION
 TDL .m                 169.50:  TOTAL DEPTH (LOGGER)
 CSGD.m                3875.01:  CASING BOTTOM (DRILLER)
 CSGL.m                3875.01:  CASING BOTTOM (LOGGER)
 CSGS.in                  7.63:  CASING SIZE
 CSGW.lbpf               23.50:  CASING WEIGHT
 VSC .                       0:  VS TO CLOSURE
 MAGU.                 1849206:  MAGUTM CHECKSUM
~Parameter Information Block
#MNEM.UNIT       Value        Description
#---------     -----------    ---------------------------
 AV  .mps                 1.90:  Ann Velocity 
 AVMX.mps                 2.54:  Max Ann Veloc 
 AZIF.deg               137.03:  Azm, Final 
 BHAT.        Rotary Steerable:  BHA Type 
 BREV.rev             23610.00:  Rev Bit Total 
 BROT.°/30m               0.80:  Build Rotating 
 BS  .in                  6.50:  Bit Size 
 BTPL.psig              110.00:  Bit Press Loss 
 CABU.                     Yes:  Customer Abuse 
 COMM.                     Ð„:  Run Comments 1 
 TCS .hr                 70.51:  Time Ciculation Ended 
 CV  .mps                 1.41:  Crit Velocity 
 CVMX.mps                 1.42:  Max Crit Veloc 
 DD1 .         Intigam Rahimov:  Direct Drillr 1 
 DD2 .          Rashad Gojayev:  Direct Drillr 2 
 DDSV.               Geo-Pilot:  DD Service 
 DEFF.%                 100.00:  % Det Eff 
 DLRX.°/30m               1.44:  Dogleg Rot Max 
 DLSO.°/30m               0.00:  Dogleg Oriented 
 DLSX.°/30m               0.00:  Dogleg Str Max 
 DRET.      03.05.00 01-Feb-20:  Drill End Time 
 DRST.      15.50.00 28-Jan-20:  Drill Start Tim 
 DTIM.hr                 24.70:  Time Drilling 
 EDEP.m                4047.51:  End Depth 
 ENG1.           Eldar Hajiyev:  Engineer 1 
 ENG2.          Rasim Hashimov:  Engineer 2 
 ENG3.          Rustam Safarov:  Engineer 3 
 ETIM.      22.00.00 01-Feb-20:  End Time 
 FLOI.gpm               370.00:  Flow In 
 FLON.gpm               300.00:  Flow In Min 
 FLOS.cptm                0.00:  Fluid Loss 
 FLOX.gpm               400.00:  Flow In Max 
 FTRO.       Formation Presure:  FTWD Run Obj 
 HFLO.                      No:  High Flow 
 HPRE.                      No:  High Pressure 
 HTEM.                      No:  High Temp 
 HYDO.m                   2.50:  Hydro Offset 
 IFIN.deg                39.54:  Inc, Final 
 IMAX.deg                41.14:  Inc Max 
 IMIN.deg                39.81:  Inc Min 
 IMND.m                4005.21:  Inc Min Depth 
 IMXD.m                3948.42:  Inc Max Depth 
 JARR.                      No:  Jarring 
 LETM.      03.05.00 01-Feb-20:  Log End Time 
 LOST.hr                     0:  Lost Rig Time 
 LSTM.      15.50.00 28-Jan-20:  Log Start Time 
 MDCL.ppm             37500.00:  Mud Chlorides 
 MDES.     Inversion Oil/Synthetic:  Mud Desc 
 DFD .sg                  1.32:  Mud Density 
 MDMN.sg                  1.32:  Dens Mud Min 
 MDMX.sg                  1.32:  Dens Mud Max 
 MOIL.                      55:  Run Mud Oil % 
 MOWR.                   70:30:  Run Mud OWR 
 MSND.                       0:  Run Mud Sand % 
 MSOL.                      17:  Run Mud Solids% 
 DFV .spqt               80.00:  Mud Viscosity 
 MWOD.in                  4.75:  MWD Tool OD 
 MWSI.                      No:  Serv Intrp, MWD 
 OTIM.hr                121.28:  Time Operating 
 PCON.           Look Like New:  Pad Condition 
 PMAX.psia             6171.00:  Press Op, Max 
 PV  .cP                 30.00:  Mud PV 
 RUN .                     300:  Run Number 
 ROPA.m/hr                5.45:  ROP Avg 
 ROPN.m/hr                3.00:  ROP Min 
 ROPX.m/hr               15.00:  ROP Max 
 RPMA.rpm               130.00:  RPM Surface Avg 
 RPMN.rpm                80.00:  RPM Surface Min 
 RPMX.rpm               140.00:  RPM Surface Max 
 RRUN.                     300:  Rig Run Number 
 RTIM.hr                 13.50:  Time Reaming 
 SAZI.deg               133.93:  Azm, Start 
 SDEP.m                3878.01:  Start Depth 
 SIDD.                      No:  Serv Intrp, DD 
 SINC.deg                40.28:  Inc, Start 
 SPPA.psig             4983.00:  SPP Avg 
 SPPN.psig             4370.00:  SPP Min 
 SPPX.psig             5300.00:  SPP Max 
 STIM.      18.33.36 27-Jan-20:  Start Time 
 SVCS.                 DD, MWD:  Services 
 SVER.                    9.20:  Sperry Version 
 TDAT.m                 169.50:  Tot Depth Attmp 
 TDDF.                      No:  Trip for DD 
 TDLG.m                 169.50:  Tot Depth Loggd 
 TFF .                      No:  Trip for Fail 
 TQAA.f-kp               13.25:  Torque Abs Avg 
 TQAN.f-kp               12.00:  Torque Abs Min 
 TQAX.f-kp               14.00:  Torque Abs Max 
 TRRT.°/30m               0.70:  Turn Rotating 
 MRT .                     ADR:  Maximum Recorded Temperature 
 TTMX.degC               92.16:  Max Tool Temp 
 VS01.       AZ90598764G12V7D4:  Virtual Str1 SN 
 VS02.         AZ90571342R12C4:  Virtual Str2 SN 
 VS03.      AZ90580010N2L2X1C4:  Virtual Str3 SN 
 VS04.        AZ90522266O7X1C4:  Virtual Str4 SN 
 VS05.           AZ90598768F11:  Virtual Str5 SN 
 VS06.     AZ90580006XZ1W1X1C4:  Virtual Str6 SN 
 WBMN.klb                 8.00:  WOB Min 
 WITN.            Peter Wilson:  Customer Rep 
 WOBA.klb                 9.88:  WOB Avg 
 WOBX.klb                10.00:  WOB Max 
 YP  .lhf2               27.00:  Yield Point 
~Curve Information Block
#MNEM.UNIT                 API CODE     Curve Description
#---------               -----------    ---------------------------
 TIME.HHMMSS            00 000 000 000:  GT Time & Date
 GTDEPTH.m              00 000 000 000:  GT Depth
 GTPQH.psia             00 000 000 000:  GT HR Quartz Pressure
 GTTQ.degC              00 000 000 000:  GT Quartz Temperature
 GTTN.NONE              00 000 000 000:  GT Test Number
 GTET.sec               00 000 000 000:  GT Elapsed Test Time
 GTTVD.m                00 000 000 000:  GT True Vertical Depth
#Other Information
#
#WARRANTY: Halliburton will use its best efforts to furnish customers with 
#accurate information and interpretations that are part of, and incident to, the services 
#provided.  However, Halliburton cannot and does not warrant the accuracy 
#or correctness of such information and interpretations.  Under no circumstances should any 
#such information or interpretation be relied upon as the sole basis for any drilling, 
#completion, production, or financial decision or any procedure involving any risk to the 
#safety of any drilling venture, drilling rig or its crew or any other third party.  The 
#Customer has full responsibility for all drilling, completion and production operation.  
#Halliburton makes no representations or warranties, either expressed or 
#implied, including, but not limited to, the implied warranties of merchantability or fitness 
#for a particular purpose, with respect to the services rendered.  In no event will 
#Halliburton be liable for failure to obtain any particular results or for 
#any damages, including, but not limited to, indirect, special or consequential damages, 
#resulting from the use of any information or interpretation provided by Halliburton.
#
~A           TIME           GTDEPTH  GTPQH  GTTQ  GTTN  GTET   GTTVD  
# ...
   06:29:57.784.31-Jan-2020 3914.01 2993.66 78.46 4.00 276.06 2947.83
   06:29:57.984.31-Jan-2020 3914.01 2993.66 78.46 4.00 276.26 2947.83
   06:29:58.184.31-Jan-2020 3914.01 2993.65 78.46 4.00 276.46 2947.83
   06:29:58.384.31-Jan-2020 3914.01 2993.49 78.46 4.00 276.66 2947.83
   06:29:58.584.31-Jan-2020 3914.01 2993.83 78.46 4.00 276.86 2947.83
   06:29:58.784.31-Jan-2020 3914.01 2993.77 78.46 4.00 277.06 2947.83
   06:29:58.984.31-Jan-2020 3914.01 2993.77 78.46 4.00 277.26 2947.83
   06:29:59.184.31-Jan-2020 3914.01 2993.72 78.46 4.00 277.46 2947.83
   06:29:59.384.31-Jan-2020 3914.01 2993.69 78.46 4.00 277.66 2947.83
   06:29:59.584.31-Jan-2020 3914.01 2993.68 78.46 4.00 277.86 2947.83
   06:29:59.784.31-Jan-2020 3914.01 2993.67 78.46 4.00 278.06 2947.83
   06:29:59.984.31-Jan-2020 3914.01 2993.67 78.46 4.00 278.26 2947.83
   06:30:00.184.31-Jan-2020 3914.01 2993.67 78.46 4.00 278.46 2947.83
   06:30:00.384.31-Jan-2020 3914.01 2993.66 78.46 4.00 278.66 2947.83
   06:30:00.584.31-Jan-2020 3914.01 2993.66 78.46 4.00 278.86 2947.83
   06:30:00.784.31-Jan-2020 3914.01 2993.66 78.46 4.00 279.06 2947.83
   06:30:00.984.31-Jan-2020 3914.01 2993.66 78.46 4.00 279.26 2947.83
   06:30:01.184.31-Jan-2020 3914.01 2993.68 78.46 4.00 279.46 2947.83
   06:30:01.384.31-Jan-2020 3914.01 2993.70 78.46 4.00 279.66 2947.83
   06:30:01.584.31-Jan-2020 3914.01 2993.41 78.46 4.00 279.86 2947.83
   06:30:01.784.31-Jan-2020 3914.01 2993.85 78.45 4.00 280.06 2947.83
   06:30:01.984.31-Jan-2020 3914.01 2993.85 78.45 4.00 280.26 2947.83
   06:30:02.184.31-Jan-2020 3914.01 2993.73 78.45 4.00 280.46 2947.83
   06:30:02.384.31-Jan-2020 3914.01 2993.71 78.45 4.00 280.66 2947.83
   06:30:02.584.31-Jan-2020 3914.01 2993.40 78.45 4.00 280.86 2947.83
   06:30:02.785.31-Jan-2020 3914.01 2993.95 78.45 4.00 281.06 2947.83
   06:30:02.985.31-Jan-2020 3914.01 2993.95 78.45 4.00 281.26 2947.83
   06:30:03.185.31-Jan-2020 3914.01 2993.76 78.45 4.00 281.46 2947.83
   06:30:03.385.31-Jan-2020 3914.01 2993.73 78.45 4.00 281.66 2947.83
   06:30:03.585.31-Jan-2020 3914.01 2993.73 78.45 4.00 281.86 2947.83
   06:30:03.785.31-Jan-2020 3914.01 2993.71 78.45 4.00 282.06 2947.83
   06:30:03.985.31-Jan-2020 3914.01 2993.71 78.45 4.00 282.26 2947.83
   06:30:04.185.31-Jan-2020 3914.01 2993.91 78.45 4.00 282.46 2947.83
   06:30:04.385.31-Jan-2020 3914.01 2993.78 78.45 4.00 282.66 2947.83
   06:30:04.585.31-Jan-2020 3914.01 2993.79 78.45 4.00 282.86 2947.83
   06:30:04.785.31-Jan-2020 3914.01 2993.73 78.45 4.00 283.06 2947.83
   06:30:04.985.31-Jan-2020 3914.01 2993.73 78.45 4.00 283.26 2947.83
   06:30:05.185.31-Jan-2020 3914.01 2993.83 78.45 4.00 283.46 2947.83
   06:30:05.385.31-Jan-2020 3914.01 2993.79 78.45 4.00 283.66 2947.83
   06:30:05.585.31-Jan-2020 3914.01 2993.81 78.44 4.00 283.86 2947.83
   06:30:05.785.31-Jan-2020 3914.01 2993.75 78.44 4.00 284.06 2947.83
   06:30:05.985.31-Jan-2020 3914.01 2993.75 78.44 4.00 284.26 2947.83
   06:30:06.185.31-Jan-2020 3914.01 2993.71 78.44 4.00 284.46 2947.83
   06:30:06.385.31-Jan-2020 3914.01 2993.75 78.44 4.00 284.66 2947.83
   06:30:06.585.31-Jan-2020 3914.01 2993.49 78.44 4.00 284.86 2947.83
   06:30:06.785.31-Jan-2020 3914.01 2993.88 78.44 4.00 285.06 2947.83
   06:30:06.985.31-Jan-2020 3914.01 2993.88 78.44 4.00 285.26 2947.83
   06:30:07.185.31-Jan-2020 3914.01 2993.75 78.44 4.00 285.46 2947.83
   06:30:07.385.31-Jan-2020 3914.01 2993.72 78.44 4.00 285.66 2947.83
   06:30:07.585.31-Jan-2020 3914.01 2993.70 78.44 4.00 285.86 2947.83
   06:30:07.786.31-Jan-2020 3914.01 2993.72 78.44 4.00 286.06 2947.83
   06:30:07.986.31-Jan-2020 3914.01 2993.72 78.44 4.00 286.26 2947.83
   06:30:08.186.31-Jan-2020 3914.01 2993.69 78.44 4.00 286.46 2947.83
   06:30:08.386.31-Jan-2020 3914.01 2993.71 78.44 4.00 286.66 2947.83
   06:30:08.586.31-Jan-2020 3914.01 2993.70 78.44 4.00 286.86 2947.83
   06:30:08.786.31-Jan-2020 3914.01 2993.65 78.44 4.00 287.06 2947.83
   06:30:08.986.31-Jan-2020 3914.01 2993.65 78.44 4.00 287.26 2947.83
   06:30:09.186.31-Jan-2020 3914.01 2993.67 78.44 4.00 287.46 2947.83
   06:30:09.386.31-Jan-2020 3914.01 2993.72 78.44 4.00 287.66 2947.83
   06:30:09.586.31-Jan-2020 3914.01 2993.69 78.43 4.00 287.86 2947.83
   06:30:09.786.31-Jan-2020 3914.01 2993.67 78.43 4.00 288.06 2947.83
   06:30:09.986.31-Jan-2020 3914.01 2993.67 78.43 4.00 288.26 2947.83
   06:30:10.186.31-Jan-2020 3914.01 2993.64 78.43 4.00 288.46 2947.83
   06:30:10.386.31-Jan-2020 3914.01 2993.60 78.43 4.00 288.66 2947.83
   06:30:10.586.31-Jan-2020 3914.01 2993.82 78.43 4.00 288.86 2947.83
   06:30:10.786.31-Jan-2020 3914.01 2993.79 78.43 4.00 289.06 2947.83
   06:30:10.986.31-Jan-2020 3914.01 2993.79 78.43 4.00 289.26 2947.83
   06:30:11.186.31-Jan-2020 3914.01 2993.72 78.43 4.00 289.46 2947.83
   06:30:11.386.31-Jan-2020 3914.01 2993.71 78.43 4.00 289.66 2947.83
   06:30:11.586.31-Jan-2020 3914.01 2993.70 78.43 4.00 289.86 2947.83
   06:30:11.786.31-Jan-2020 3914.01 2993.70 78.43 4.00 290.06 2947.83
   06:30:11.986.31-Jan-2020 3914.01 2993.70 78.43 4.00 290.26 2947.83
   06:30:12.186.31-Jan-2020 3914.01 2993.70 78.43 4.00 290.46 2947.83
   06:30:12.386.31-Jan-2020 3914.01 2993.68 78.43 4.00 290.66 2947.83
   06:30:12.587.31-Jan-2020 3914.01 2993.68 78.43 4.00 290.86 2947.83
   06:30:12.787.31-Jan-2020 3914.01 2993.68 78.43 4.00 291.06 2947.83
   06:30:12.987.31-Jan-2020 3914.01 2993.68 78.43 4.00 291.26 2947.83
   06:30:13.187.31-Jan-2020 3914.01 2993.71 78.43 4.00 291.46 2947.83
   06:30:13.387.31-Jan-2020 3914.01 2993.75 78.42 4.00 291.66 2947.83
   06:30:13.587.31-Jan-2020 3914.01 2993.46 78.42 4.00 291.86 2947.83
   06:30:13.787.31-Jan-2020 3914.01 2993.80 78.42 4.00 292.06 2947.83
   06:30:13.987.31-Jan-2020 3914.01 2993.80 78.42 4.00 292.26 2947.83
   06:30:14.187.31-Jan-2020 3914.01 2993.75 78.42 4.00 292.46 2947.83
   06:30:14.387.31-Jan-2020 3914.01 2993.73 78.42 4.00 292.66 2947.83
   06:30:14.587.31-Jan-2020 3914.01 2993.51 78.42 4.00 292.86 2947.83
   06:30:14.787.31-Jan-2020 3914.01 2993.89 78.42 4.00 293.06 2947.83
   06:30:14.987.31-Jan-2020 3914.01 2993.89 78.42 4.00 293.26 2947.83
   06:30:15.187.31-Jan-2020 3914.01 2993.76 78.42 4.00 293.46 2947.83
   06:30:15.387.31-Jan-2020 3914.01 2993.73 78.42 4.00 293.66 2947.83
   06:30:15.587.31-Jan-2020 3914.01 2993.74 78.42 4.00 293.86 2947.83
   06:30:15.787.31-Jan-2020 3914.01 2993.75 78.42 4.00 294.06 2947.83
   06:30:15.987.31-Jan-2020 3914.01 2993.75 78.42 4.00 294.26 2947.83
   06:30:16.187.31-Jan-2020 3914.01 2993.86 78.42 4.00 294.46 2947.83
   06:30:16.387.31-Jan-2020 3914.01 2993.81 78.42 4.00 294.66 2947.83
   06:30:16.587.31-Jan-2020 3914.01 2993.79 78.42 4.00 294.86 2947.83
   06:30:16.787.31-Jan-2020 3914.01 2993.73 78.42 4.00 295.06 2947.83
   06:30:16.987.31-Jan-2020 3914.01 2993.73 78.42 4.00 295.26 2947.83
   06:30:17.187.31-Jan-2020 3914.01 2993.94 78.42 4.00 295.46 2947.83
   06:30:17.387.31-Jan-2020 3914.01 2993.83 78.41 4.00 295.66 2947.83
   06:30:17.588.31-Jan-2020 3914.01 2993.80 78.41 4.00 295.86 2947.83
   06:30:17.788.31-Jan-2020 3914.01 2993.76 78.41 4.00 296.06 2947.83
   06:30:17.988.31-Jan-2020 3914.01 2993.76 78.41 4.00 296.26 2947.83
   06:30:18.188.31-Jan-2020 3914.01 2993.73 78.41 4.00 296.46 2947.83
   06:30:18.388.31-Jan-2020 3914.01 2993.71 78.41 4.00 296.66 2947.83
   06:30:18.588.31-Jan-2020 3914.01 2993.63 78.41 4.00 296.86 2947.83
   06:30:18.788.31-Jan-2020 3914.01 2993.85 78.41 4.00 297.06 2947.83
   06:30:18.988.31-Jan-2020 3914.01 2993.85 78.41 4.00 297.26 2947.83
   06:30:19.188.31-Jan-2020 3914.01 2993.78 78.41 4.00 297.46 2947.83
   06:30:19.388.31-Jan-2020 3914.01 2993.74 78.41 4.00 297.66 2947.83
   06:30:19.588.31-Jan-2020 3914.01 2993.71 78.41 4.00 297.86 2947.83
   06:30:19.788.31-Jan-2020 3914.01 2993.75 78.41 4.00 298.06 2947.83
   06:30:19.988.31-Jan-2020 3914.01 2993.75 78.41 4.00 298.26 2947.83
   06:30:20.188.31-Jan-2020 3914.01 2993.71 78.41 4.00 298.46 2947.83
   06:30:20.388.31-Jan-2020 3914.01 2993.71 78.41 4.00 298.66 2947.83
   06:30:20.588.31-Jan-2020 3914.01 2993.69 78.41 4.00 298.86 2947.83
