~Version Information
 VERS.                  2.0:   CWLS log ASCII Standard -VERSION 2.0
 WRAP.                   NO:   One line per depth step
~Well Information Block
#MNEM.UNIT     VALUE/NAME     DESCRIPTION
#---------     -----------    ---------------------------
 STRT.S             21:06:33 30-Jan-20: START TIME 21:06:33 30-Jan-20
 STOP.S             21:13:02 30-Jan-20: STOP TIME  21:13:02 30-Jan-20
 STEP.S                   0.00: STEP TIME
 NULL.                 -999.25: NULL VALUE
 DFWT.                        :  DIST FWL TEXT
 DFST.                        :  DIST FSL TEXT
 DMF .             Drill Floor:  DRILL MEAS FROM
 STIM.      09.30.00 26-Dec-19:  START TIME
 DATE.      08.00.00 20-Jan-20:  END TIME
 SPUD.               23-Nov-19:  SPUD DATE
 NREF.                    Grid:  NORTH REFERENCE
 HPTY.       Minimum Curvature:  HOLE POS TYPE
 DMOD.             Drill Model:  DRILL MOD DESC
 SVYD.                  Survey:  SURVEY DESC
 ILTD.               Lithology:  INTERP LTH DESC
 FTOP.          Formation Tops:  FORM TOPS DESC
 SON .        AZ-XX-0906192647:  JOB NUMBER
 WTYP.                Deviated:  WELL TYPE
 COMP.     BP Exploration (Caspian Sea) Ltd:  COMPANY
 BASE.              Azerbaijan:  LOGGING EQUIPMENT BASE LOCATION
 REGN.                 Eurasia:  REGION
 FLD .                     ACG:  FIELD NAME
 SRVC.              KCA Deutag:  CONTRACTOR
 MWDS.                    Baku:  MWD SHOP
 WELL.     A10 (Slot 20) - SCP:  WELL NAME
 JOBN.        AZ-XX-0906192647:  JOB TICKET NUMB
 RIG .                 Chirag1:  RIG NAME
 DCON.     Halliburton Sperry Drilling:  DIRECTNL CONTR
 UNIT.                     N/A:  LOGGING EQUIPMENT ID
 PDAT.          Mean Sea Level:  PERMANENT DATUM
 MDS .        Operator Entered:  MAG DATA SOURCE
 CTRY.              Azerbaijan:  COUNTRY NAME
 UWI .            /AZE00000090:  UNIQUE WELL IDENTIFIER
 API .            /AZE00000090:  API NUMBER
 CNTY.                        :  COUNTY
 PROV.                        :  PROVINCE
 STAT.                        :  STATE
 LOC .                        :  LOCATION
 LMF .             Drill Floor:  LOG MEASURED FROM
 TVDS.m                  36.60:  TVDSS CORRECTN
 LATI.deg                40.08:  LATITUDE
 LONG.deg                51.24:  LONGITUDE
 WHNS.m                  -7.94:  WELL HEAD N/S
 WHEW.m                   1.56:  WELL HEAD E/W
 UTMX.m              520429.26:  UTM X
 UTMY.m             4438973.87:  UTM Y
 DFWL.m                   0.00:  DISTANCE FWL
 DFSL.m                   0.00:  DISTANCE FSL
 SDEP.m                1455.00:  START DEPTH
 TDD .m                4047.51:  TOTAL DEPTH (DRILLER)
 VSDR.deg               112.75:  VERT SEC DIRECT
 GVFD.g                   1.00:  GRAVITY FIELD
 MFLD.nT              50261.00:  MAGNETIC FIELD
 MDIP.deg                59.52:  MAGNETIC DIP
 MDEC.deg                 6.42:  MAGNETIC DECL
 GRDC.deg                 0.17:  GRID CORRECTION
 AZTC.deg                 6.25:  AZM TOTAL CORR
 EPD .m                   0.00:  ELEVATION
 EGL .m                   0.00:  GROUND ELEVATION
 WDMS.m                 121.00:  WD ELEV
 APD .m                  36.60:  DEPTH ABOVE PD
 AGAP.m                  36.60:  AIR GAP
 VSEW.m                   1.56:  VERT SEC E/W
 VSNS.m                  -7.94:  VERT SEC N/S
 DEP .m                1140.01:  DEPTH
 EKB .m                  36.60:  KB ELEVATION
 EDF .m                  36.60:  DF ELEVATION
 TDL .m                 169.50:  TOTAL DEPTH (LOGGER)
 CSGD.m                3875.01:  CASING BOTTOM (DRILLER)
 CSGL.m                3875.01:  CASING BOTTOM (LOGGER)
 CSGS.in                  7.63:  CASING SIZE
 CSGW.lbpf               23.50:  CASING WEIGHT
 VSC .                       0:  VS TO CLOSURE
 MAGU.                 1849206:  MAGUTM CHECKSUM
~Parameter Information Block
#MNEM.UNIT       Value        Description
#---------     -----------    ---------------------------
 AV  .mps                 1.90:  Ann Velocity 
 AVMX.mps                 2.54:  Max Ann Veloc 
 AZIF.deg               137.03:  Azm, Final 
 BHAT.        Rotary Steerable:  BHA Type 
 BREV.rev             23610.00:  Rev Bit Total 
 BROT.°/30m               0.80:  Build Rotating 
 BS  .in                  6.50:  Bit Size 
 BTPL.psig              110.00:  Bit Press Loss 
 CABU.                     Yes:  Customer Abuse 
 TCS .hr                 70.51:  Time Ciculation Ended 
 CV  .mps                 1.41:  Crit Velocity 
 CVMX.mps                 1.42:  Max Crit Veloc 
 DD1 .         Intigam Rahimov:  Direct Drillr 1 
 DD2 .          Rashad Gojayev:  Direct Drillr 2 
 DDSV.               Geo-Pilot:  DD Service 
 DEFF.%                 100.00:  % Det Eff 
 DLRX.°/30m               1.44:  Dogleg Rot Max 
 DLSO.°/30m               0.00:  Dogleg Oriented 
 DLSX.°/30m               0.00:  Dogleg Str Max 
 DRET.      03.05.00 01-Feb-20:  Drill End Time 
 DRST.      15.50.00 28-Jan-20:  Drill Start Tim 
 DTIM.hr                 24.70:  Time Drilling 
 EDEP.m                4047.51:  End Depth 
 ENG1.           Eldar Hajiyev:  Engineer 1 
 ENG2.          Rasim Hashimov:  Engineer 2 
 ENG3.          Rustam Safarov:  Engineer 3 
 ETIM.      22.00.00 01-Feb-20:  End Time 
 FLOI.gpm               370.00:  Flow In 
 FLON.gpm               300.00:  Flow In Min 
 FLOS.cptm                0.00:  Fluid Loss 
 FLOX.gpm               400.00:  Flow In Max 
 FTRO.       Formation Presure:  FTWD Run Obj 
 HFLO.                      No:  High Flow 
 HPRE.                      No:  High Pressure 
 HTEM.                      No:  High Temp 
 HYDO.m                   2.50:  Hydro Offset 
 IFIN.deg                39.54:  Inc, Final 
 IMAX.deg                41.14:  Inc Max 
 IMIN.deg                39.81:  Inc Min 
 IMND.m                4005.21:  Inc Min Depth 
 IMXD.m                3948.42:  Inc Max Depth 
 JARR.                      No:  Jarring 
 LETM.      03.05.00 01-Feb-20:  Log End Time 
 LOST.hr                     0:  Lost Rig Time 
 LSTM.      15.50.00 28-Jan-20:  Log Start Time 
 MDCL.ppm             37500.00:  Mud Chlorides 
 MDES.     Inversion Oil/Synthetic:  Mud Desc 
 DFD .sg                  1.32:  Mud Density 
 MDMN.sg                  1.32:  Dens Mud Min 
 MDMX.sg                  1.32:  Dens Mud Max 
 MOIL.                      55:  Run Mud Oil % 
 MOWR.                   70:30:  Run Mud OWR 
 MSND.                       0:  Run Mud Sand % 
 MSOL.                      17:  Run Mud Solids% 
 DFV .spqt               80.00:  Mud Viscosity 
 MWOD.in                  4.75:  MWD Tool OD 
 MWSI.                      No:  Serv Intrp, MWD 
 OTIM.hr                121.28:  Time Operating 
 PCON.           Look Like New:  Pad Condition 
 PMAX.psia             6171.00:  Press Op, Max 
 PV  .cP                 30.00:  Mud PV 
 RUN .                     300:  Run Number 
 ROPA.m/hr                5.45:  ROP Avg 
 ROPN.m/hr                3.00:  ROP Min 
 ROPX.m/hr               15.00:  ROP Max 
 RPMA.rpm               130.00:  RPM Surface Avg 
 RPMN.rpm                80.00:  RPM Surface Min 
 RPMX.rpm               140.00:  RPM Surface Max 
 RRUN.                     300:  Rig Run Number 
 RTIM.hr                 13.50:  Time Reaming 
 SAZI.deg               133.93:  Azm, Start 
 SDEP.m                3878.01:  Start Depth 
 SIDD.                      No:  Serv Intrp, DD 
 SINC.deg                40.28:  Inc, Start 
 SPPA.psig             4983.00:  SPP Avg 
 SPPN.psig             4370.00:  SPP Min 
 SPPX.psig             5300.00:  SPP Max 
 STIM.      18.33.36 27-Jan-20:  Start Time 
 SVCS.                 DD, MWD:  Services 
 SVER.                    9.20:  Sperry Version 
 TDAT.m                 169.50:  Tot Depth Attmp 
 TDDF.                      No:  Trip for DD 
 TDLG.m                 169.50:  Tot Depth Loggd 
 TFF .                      No:  Trip for Fail 
 TQAA.f-kp               13.25:  Torque Abs Avg 
 TQAN.f-kp               12.00:  Torque Abs Min 
 TQAX.f-kp               14.00:  Torque Abs Max 
 TRRT.°/30m               0.70:  Turn Rotating 
 MRT .                     ADR:  Maximum Recorded Temperature 
 TTMX.degC               92.16:  Max Tool Temp 
 VS01.       AZ90598764G12V7D4:  Virtual Str1 SN 
 VS02.         AZ90571342R12C4:  Virtual Str2 SN 
 VS03.      AZ90580010N2L2X1C4:  Virtual Str3 SN 
 VS04.        AZ90522266O7X1C4:  Virtual Str4 SN 
 VS05.           AZ90598768F11:  Virtual Str5 SN 
 VS06.     AZ90580006XZ1W1X1C4:  Virtual Str6 SN 
 WBMN.klb                 8.00:  WOB Min 
 WITN.            Peter Wilson:  Customer Rep 
 WOBA.klb                 9.88:  WOB Avg 
 WOBX.klb                10.00:  WOB Max 
 YP  .lhf2               27.00:  Yield Point 
~Curve Information Block
#MNEM.UNIT                 API CODE     Curve Description
#---------               -----------    ---------------------------
 TIME.HHMMSS            00 000 000 000:  GT Time & Date
 GTDEPTH.m              00 000 000 000:  GT Depth
 GTPQH.psia             00 000 000 000:  GT HR Quartz Pressure
 GTTQ.degC              00 000 000 000:  GT Quartz Temperature
 GTTN.NONE              00 000 000 000:  GT Test Number
 GTET.sec               00 000 000 000:  GT Elapsed Test Time
 GTTVD.m                00 000 000 000:  GT True Vertical Depth
#Other Information
#
#WARRANTY: Halliburton will use its best efforts to furnish customers with 
#accurate information and interpretations that are part of, and incident to, the services 
#provided.  However, Halliburton cannot and does not warrant the accuracy 
#or correctness of such information and interpretations.  Under no circumstances should any 
#such information or interpretation be relied upon as the sole basis for any drilling, 
#completion, production, or financial decision or any procedure involving any risk to the 
#safety of any drilling venture, drilling rig or its crew or any other third party.  The 
#Customer has full responsibility for all drilling, completion and production operation.  
#Halliburton makes no representations or warranties, either expressed or 
#implied, including, but not limited to, the implied warranties of merchantability or fitness 
#for a particular purpose, with respect to the services rendered.  In no event will 
#Halliburton be liable for failure to obtain any particular results or for 
#any damages, including, but not limited to, indirect, special or consequential damages, 
#resulting from the use of any information or interpretation provided by Halliburton.
#
~A           TIME           GTDEPTH  GTPQH  GTTQ  GTTN  GTET   GTTVD  
# ...
   21:07:19.013.30-Jan-2020 3895.01 2980.38 73.12 2.00  46.01 2933.47
   21:07:19.213.30-Jan-2020 3895.01 2980.38 73.12 2.00  46.21 2933.47
   21:07:19.413.30-Jan-2020 3895.01 2980.92 73.11 2.00  46.41 2933.47
   21:07:19.613.30-Jan-2020 3895.01 2980.94 73.11 2.00  46.61 2933.47
   21:07:19.813.30-Jan-2020 3895.01 2980.24 73.11 2.00  46.81 2933.47
   21:07:20.013.30-Jan-2020 3895.01 2981.05 73.11 2.00  47.01 2933.47
   21:07:20.213.30-Jan-2020 3895.01 2981.05 73.11 2.00  47.21 2933.47
   21:07:20.414.30-Jan-2020 3895.01 2980.96 73.11 2.00  47.41 2933.47
   21:07:20.614.30-Jan-2020 3895.01 2981.12 73.11 2.00  47.61 2933.47
   21:07:20.814.30-Jan-2020 3895.01 2981.00 73.11 2.00  47.81 2933.47
   21:07:21.014.30-Jan-2020 3895.01 2981.01 73.11 2.00  48.01 2933.47
   21:07:21.214.30-Jan-2020 3895.01 2981.01 73.11 2.00  48.21 2933.47
   21:07:21.414.30-Jan-2020 3895.01 2981.09 73.11 2.00  48.41 2933.47
   21:07:21.614.30-Jan-2020 3895.01 2981.15 73.11 2.00  48.61 2933.47
   21:07:21.814.30-Jan-2020 3895.01 2981.29 73.11 2.00  48.81 2933.47
   21:07:22.014.30-Jan-2020 3895.01 2981.19 73.10 2.00  49.01 2933.47
   21:07:22.214.30-Jan-2020 3895.01 2981.19 73.10 2.00  49.21 2933.47
   21:07:22.414.30-Jan-2020 3895.01 2981.12 73.10 2.00  49.41 2933.47
   21:07:22.614.30-Jan-2020 3895.01 2981.24 73.10 2.00  49.61 2933.47
   21:07:22.814.30-Jan-2020 3895.01 2981.28 73.10 2.00  49.81 2933.47
   21:07:23.014.30-Jan-2020 3895.01 2981.17 73.10 2.00  50.01 2933.47
   21:07:23.214.30-Jan-2020 3895.01 2981.17 73.10 2.00  50.21 2933.47
   21:07:23.414.30-Jan-2020 3895.01 2981.34 73.10 2.00  50.41 2933.47
   21:07:23.614.30-Jan-2020 3895.01 2981.28 73.10 2.00  50.61 2933.47
   21:07:23.814.30-Jan-2020 3895.01 2981.32 73.10 2.00  50.81 2933.47
   21:07:24.014.30-Jan-2020 3895.01 2981.44 73.10 2.00  51.01 2933.47
   21:07:24.214.30-Jan-2020 3895.01 2981.44 73.10 2.00  51.21 2933.47
   21:07:24.414.30-Jan-2020 3895.01 2981.42 73.10 2.00  51.41 2933.47
   21:07:24.614.30-Jan-2020 3895.01 2981.42 73.09 2.00  51.61 2933.47
   21:07:24.814.30-Jan-2020 3895.01 2981.22 73.09 2.00  51.81 2933.47
   21:07:25.014.30-Jan-2020 3895.01 2981.07 73.09 2.00  52.01 2933.47
   21:07:25.214.30-Jan-2020 3895.01 2981.07 73.09 2.00  52.21 2933.47
   21:07:25.414.30-Jan-2020 3895.01 2981.48 73.09 2.00  52.41 2933.47
   21:07:25.614.30-Jan-2020 3895.01 2981.50 73.09 2.00  52.61 2933.47
   21:07:25.815.30-Jan-2020 3895.01 2981.54 73.09 2.00  52.81 2933.47
   21:07:26.015.30-Jan-2020 3895.01 2981.54 73.09 2.00  53.01 2933.47
   21:07:26.215.30-Jan-2020 3895.01 2981.54 73.09 2.00  53.21 2933.47
   21:07:26.415.30-Jan-2020 3895.01 2981.49 73.09 2.00  53.41 2933.47
   21:07:26.615.30-Jan-2020 3895.01 2981.54 73.09 2.00  53.61 2933.47
   21:07:26.815.30-Jan-2020 3895.01 2981.53 73.09 2.00  53.81 2933.47
   21:07:27.015.30-Jan-2020 3895.01 2981.58 73.09 2.00  54.01 2933.47
   21:07:27.215.30-Jan-2020 3895.01 2981.58 73.09 2.00  54.21 2933.47
   21:07:27.415.30-Jan-2020 3895.01 2981.54 73.08 2.00  54.41 2933.47
   21:07:27.615.30-Jan-2020 3895.01 2981.57 73.08 2.00  54.61 2933.47
   21:07:27.815.30-Jan-2020 3895.01 2981.72 73.08 2.00  54.81 2933.47
   21:07:28.015.30-Jan-2020 3895.01 2981.79 73.08 2.00  55.01 2933.47
   21:07:28.215.30-Jan-2020 3895.01 2981.79 73.08 2.00  55.21 2933.47
   21:07:28.415.30-Jan-2020 3895.01 2981.64 73.08 2.00  55.41 2933.47
   21:07:28.615.30-Jan-2020 3895.01 2981.63 73.08 2.00  55.61 2933.47
   21:07:28.815.30-Jan-2020 3895.01 2981.64 73.08 2.00  55.81 2933.47
   21:07:29.015.30-Jan-2020 3895.01 2981.67 73.08 2.00  56.01 2933.47
   21:07:29.215.30-Jan-2020 3895.01 2981.67 73.08 2.00  56.21 2933.47
   21:07:29.415.30-Jan-2020 3895.01 2981.83 73.08 2.00  56.41 2933.47
   21:07:29.615.30-Jan-2020 3895.01 2981.76 73.08 2.00  56.61 2933.47
   21:07:29.815.30-Jan-2020 3895.01 2981.75 73.08 2.00  56.81 2933.47
   21:07:30.015.30-Jan-2020 3895.01 2981.64 73.07 2.00  57.01 2933.47
   21:07:30.215.30-Jan-2020 3895.01 2981.64 73.07 2.00  57.21 2933.47
   21:07:30.415.30-Jan-2020 3895.01 2981.76 73.07 2.00  57.41 2933.47
   21:07:30.615.30-Jan-2020 3895.01 2981.06 73.07 2.00  57.61 2933.47
   21:07:30.815.30-Jan-2020 3895.01 2981.80 73.07 2.00  57.81 2933.47
   21:07:31.016.30-Jan-2020 3895.01 2981.85 73.07 2.00  58.01 2933.47
   21:07:31.216.30-Jan-2020 3895.01 2981.85 73.07 2.00  58.21 2933.47
   21:07:31.416.30-Jan-2020 3895.01 2981.25 73.07 2.00  58.41 2933.47
   21:07:31.616.30-Jan-2020 3895.01 2981.74 73.07 2.00  58.61 2933.47
   21:07:31.816.30-Jan-2020 3895.01 2981.82 73.07 2.00  58.81 2933.47
   21:07:32.016.30-Jan-2020 3895.01 2981.91 73.07 2.00  59.01 2933.47
   21:07:32.216.30-Jan-2020 3895.01 2981.91 73.07 2.00  59.21 2933.47
   21:07:32.416.30-Jan-2020 3895.01 2981.15 73.07 2.00  59.41 2933.47
   21:07:32.616.30-Jan-2020 3895.01 2981.83 73.07 2.00  59.61 2933.47
   21:07:32.816.30-Jan-2020 3895.01 2981.81 73.06 2.00  59.81 2933.47
   21:07:33.016.30-Jan-2020 3895.01 2981.88 73.06 2.00  60.01 2933.47
   21:07:33.216.30-Jan-2020 3895.01 2981.88 73.06 2.00  60.21 2933.47
   21:07:33.416.30-Jan-2020 3895.01 2981.90 73.06 2.00  60.41 2933.47
   21:07:33.616.30-Jan-2020 3895.01 2981.88 73.06 2.00  60.61 2933.47
   21:07:33.816.30-Jan-2020 3895.01 2981.74 73.06 2.00  60.81 2933.47
   21:07:34.016.30-Jan-2020 3895.01 2981.71 73.06 2.00  61.01 2933.47
   21:07:34.216.30-Jan-2020 3895.01 2981.71 73.06 2.00  61.21 2933.47
   21:07:34.416.30-Jan-2020 3895.01 2981.87 73.06 2.00  61.41 2933.47
   21:07:34.616.30-Jan-2020 3895.01 2981.81 73.06 2.00  61.61 2933.47
   21:07:34.816.30-Jan-2020 3895.01 2981.71 73.06 2.00  61.81 2933.47
   21:07:35.016.30-Jan-2020 3895.01 2981.74 73.06 2.00  62.01 2933.47
   21:07:35.216.30-Jan-2020 3895.01 2981.74 73.06 2.00  62.21 2933.47
   21:07:35.416.30-Jan-2020 3895.01 2981.84 73.05 2.00  62.41 2933.47
   21:07:35.616.30-Jan-2020 3895.01 2981.79 73.05 2.00  62.61 2933.47
   21:07:35.816.30-Jan-2020 3895.01 2981.79 73.05 2.00  62.81 2933.47
   21:07:36.016.30-Jan-2020 3895.01 2981.60 73.05 2.00  63.01 2933.47
   21:07:36.216.30-Jan-2020 3895.01 2981.60 73.05 2.00  63.21 2933.47
   21:07:36.417.30-Jan-2020 3895.01 2981.93 73.05 2.00  63.41 2933.47
   21:07:36.617.30-Jan-2020 3895.01 2981.86 73.05 2.00  63.61 2933.47
   21:07:36.817.30-Jan-2020 3895.01 2981.93 73.05 2.00  63.81 2933.47
   21:07:37.017.30-Jan-2020 3895.01 2981.85 73.05 2.00  64.01 2933.47
   21:07:37.217.30-Jan-2020 3895.01 2981.85 73.05 2.00  64.21 2933.47
   21:07:37.417.30-Jan-2020 3895.01 2981.92 73.05 2.00  64.41 2933.47
   21:07:37.617.30-Jan-2020 3895.01 2981.86 73.05 2.00  64.61 2933.47
   21:07:37.817.30-Jan-2020 3895.01 2981.86 73.05 2.00  64.81 2933.47
   21:07:38.017.30-Jan-2020 3895.01 2981.84 73.05 2.00  65.01 2933.47
   21:07:38.217.30-Jan-2020 3895.01 2981.84 73.05 2.00  65.21 2933.47
   21:07:38.417.30-Jan-2020 3895.01 2981.89 73.04 2.00  65.41 2933.47
   21:07:38.617.30-Jan-2020 3895.01 2981.84 73.04 2.00  65.61 2933.47
   21:07:38.817.30-Jan-2020 3895.01 2981.91 73.04 2.00  65.81 2933.47
   21:07:39.017.30-Jan-2020 3895.01 2982.02 73.04 2.00  66.01 2933.47
   21:07:39.217.30-Jan-2020 3895.01 2982.02 73.04 2.00  66.21 2933.47
   21:07:39.417.30-Jan-2020 3895.01 2981.30 73.04 2.00  66.41 2933.47
   21:07:39.617.30-Jan-2020 3895.01 2981.98 73.04 2.00  66.61 2933.47
   21:07:39.817.30-Jan-2020 3895.01 2981.89 73.04 2.00  66.81 2933.47
   21:07:40.017.30-Jan-2020 3895.01 2981.93 73.04 2.00  67.01 2933.47
   21:07:40.217.30-Jan-2020 3895.01 2981.93 73.04 2.00  67.21 2933.47
   21:07:40.417.30-Jan-2020 3895.01 2981.33 73.04 2.00  67.41 2933.47
   21:07:40.617.30-Jan-2020 3895.01 2982.07 73.04 2.00  67.61 2933.47
   21:07:40.817.30-Jan-2020 3895.01 2981.93 73.03 2.00  67.81 2933.47
   21:07:41.017.30-Jan-2020 3895.01 2981.96 73.03 2.00  68.01 2933.47
   21:07:41.217.30-Jan-2020 3895.01 2981.96 73.03 2.00  68.21 2933.47
   21:07:41.417.30-Jan-2020 3895.01 2981.87 73.03 2.00  68.41 2933.47
   21:07:41.618.30-Jan-2020 3895.01 2981.96 73.03 2.00  68.61 2933.47
   21:07:41.818.30-Jan-2020 3895.01 2981.23 73.03 2.00  68.81 2933.47
