~Version Information
 VERS.                  2.0:   CWLS log ASCII Standard -VERSION 2.0
 WRAP.                   NO:   One line per depth step
~Well Information Block
#MNEM.UNIT     VALUE/NAME     DESCRIPTION
#---------     -----------    ---------------------------
 STRT.S             06:25:21 31-Jan-20: START TIME 06:25:21 31-Jan-20
 STOP.S             06:31:52 31-Jan-20: STOP TIME  06:31:52 31-Jan-20
 STEP.S                   0.00: STEP TIME
 NULL.                 -999.25: NULL VALUE
 DFWT.                        :  DIST FWL TEXT
 DFST.                        :  DIST FSL TEXT
 DMF .             Drill Floor:  DRILL MEAS FROM
 STIM.      09.30.00 26-Dec-19:  START TIME
 DATE.      08.00.00 20-Jan-20:  END TIME
 SPUD.               23-Nov-19:  SPUD DATE
 NREF.                    Grid:  NORTH REFERENCE
 HPTY.       Minimum Curvature:  HOLE POS TYPE
 DMOD.             Drill Model:  DRILL MOD DESC
 SVYD.                  Survey:  SURVEY DESC
 ILTD.               Lithology:  INTERP LTH DESC
 FTOP.          Formation Tops:  FORM TOPS DESC
 SON .        AZ-XX-0906192647:  JOB NUMBER
 WTYP.                Deviated:  WELL TYPE
 COMP.     BP Exploration (Caspian Sea) Ltd:  COMPANY
 BASE.              Azerbaijan:  LOGGING EQUIPMENT BASE LOCATION
 REGN.                 Eurasia:  REGION
 FLD .                     ACG:  FIELD NAME
 SRVC.              KCA Deutag:  CONTRACTOR
 MWDS.                    Baku:  MWD SHOP
 WELL.     A10 (Slot 20) - SCP:  WELL NAME
 JOBN.        AZ-XX-0906192647:  JOB TICKET NUMB
 RIG .                 Chirag1:  RIG NAME
 DCON.     Halliburton Sperry Drilling:  DIRECTNL CONTR
 UNIT.                     N/A:  LOGGING EQUIPMENT ID
 PDAT.          Mean Sea Level:  PERMANENT DATUM
 MDS .        Operator Entered:  MAG DATA SOURCE
 CTRY.              Azerbaijan:  COUNTRY NAME
 UWI .            /AZE00000090:  UNIQUE WELL IDENTIFIER
 API .            /AZE00000090:  API NUMBER
 CNTY.                        :  COUNTY
 PROV.                        :  PROVINCE
 STAT.                        :  STATE
 LOC .                        :  LOCATION
 LMF .             Drill Floor:  LOG MEASURED FROM
 TVDS.m                  36.60:  TVDSS CORRECTN
 LATI.deg                40.08:  LATITUDE
 LONG.deg                51.24:  LONGITUDE
 WHNS.m                  -7.94:  WELL HEAD N/S
 WHEW.m                   1.56:  WELL HEAD E/W
 UTMX.m              520429.26:  UTM X
 UTMY.m             4438973.87:  UTM Y
 DFWL.m                   0.00:  DISTANCE FWL
 DFSL.m                   0.00:  DISTANCE FSL
 SDEP.m                1455.00:  START DEPTH
 TDD .m                4047.51:  TOTAL DEPTH (DRILLER)
 VSDR.deg               112.75:  VERT SEC DIRECT
 GVFD.g                   1.00:  GRAVITY FIELD
 MFLD.nT              50261.00:  MAGNETIC FIELD
 MDIP.deg                59.52:  MAGNETIC DIP
 MDEC.deg                 6.42:  MAGNETIC DECL
 GRDC.deg                 0.17:  GRID CORRECTION
 AZTC.deg                 6.25:  AZM TOTAL CORR
 EPD .m                   0.00:  ELEVATION
 EGL .m                   0.00:  GROUND ELEVATION
 WDMS.m                 121.00:  WD ELEV
 APD .m                  36.60:  DEPTH ABOVE PD
 AGAP.m                  36.60:  AIR GAP
 VSEW.m                   1.56:  VERT SEC E/W
 VSNS.m                  -7.94:  VERT SEC N/S
 DEP .m                1140.01:  DEPTH
 EKB .m                  36.60:  KB ELEVATION
 EDF .m                  36.60:  DF ELEVATION
 TDL .m                 169.50:  TOTAL DEPTH (LOGGER)
 CSGD.m                3875.01:  CASING BOTTOM (DRILLER)
 CSGL.m                3875.01:  CASING BOTTOM (LOGGER)
 CSGS.in                  7.63:  CASING SIZE
 CSGW.lbpf               23.50:  CASING WEIGHT
 VSC .                       0:  VS TO CLOSURE
 MAGU.                 1849206:  MAGUTM CHECKSUM
~Parameter Information Block
#MNEM.UNIT       Value        Description
#---------     -----------    ---------------------------
 AV  .mps                 1.90:  Ann Velocity 
 AVMX.mps                 2.54:  Max Ann Veloc 
 AZIF.deg               137.03:  Azm, Final 
 BHAT.        Rotary Steerable:  BHA Type 
 BREV.rev             23610.00:  Rev Bit Total 
 BROT.°/30m               0.80:  Build Rotating 
 BS  .in                  6.50:  Bit Size 
 BTPL.psig              110.00:  Bit Press Loss 
 CABU.                     Yes:  Customer Abuse 
 COMM.                     Ð„:  Run Comments 1 
 TCS .hr                 70.51:  Time Ciculation Ended 
 CV  .mps                 1.41:  Crit Velocity 
 CVMX.mps                 1.42:  Max Crit Veloc 
 DD1 .         Intigam Rahimov:  Direct Drillr 1 
 DD2 .          Rashad Gojayev:  Direct Drillr 2 
 DDSV.               Geo-Pilot:  DD Service 
 DEFF.%                 100.00:  % Det Eff 
 DLRX.°/30m               1.44:  Dogleg Rot Max 
 DLSO.°/30m               0.00:  Dogleg Oriented 
 DLSX.°/30m               0.00:  Dogleg Str Max 
 DRET.      03.05.00 01-Feb-20:  Drill End Time 
 DRST.      15.50.00 28-Jan-20:  Drill Start Tim 
 DTIM.hr                 24.70:  Time Drilling 
 EDEP.m                4047.51:  End Depth 
 ENG1.           Eldar Hajiyev:  Engineer 1 
 ENG2.          Rasim Hashimov:  Engineer 2 
 ENG3.          Rustam Safarov:  Engineer 3 
 ETIM.      22.00.00 01-Feb-20:  End Time 
 FLOI.gpm               370.00:  Flow In 
 FLON.gpm               300.00:  Flow In Min 
 FLOS.cptm                0.00:  Fluid Loss 
 FLOX.gpm               400.00:  Flow In Max 
 FTRO.       Formation Presure:  FTWD Run Obj 
 HFLO.                      No:  High Flow 
 HPRE.                      No:  High Pressure 
 HTEM.                      No:  High Temp 
 HYDO.m                   2.50:  Hydro Offset 
 IFIN.deg                39.54:  Inc, Final 
 IMAX.deg                41.14:  Inc Max 
 IMIN.deg                39.81:  Inc Min 
 IMND.m                4005.21:  Inc Min Depth 
 IMXD.m                3948.42:  Inc Max Depth 
 JARR.                      No:  Jarring 
 LETM.      03.05.00 01-Feb-20:  Log End Time 
 LOST.hr                     0:  Lost Rig Time 
 LSTM.      15.50.00 28-Jan-20:  Log Start Time 
 MDCL.ppm             37500.00:  Mud Chlorides 
 MDES.     Inversion Oil/Synthetic:  Mud Desc 
 DFD .sg                  1.32:  Mud Density 
 MDMN.sg                  1.32:  Dens Mud Min 
 MDMX.sg                  1.32:  Dens Mud Max 
 MOIL.                      55:  Run Mud Oil % 
 MOWR.                   70:30:  Run Mud OWR 
 MSND.                       0:  Run Mud Sand % 
 MSOL.                      17:  Run Mud Solids% 
 DFV .spqt               80.00:  Mud Viscosity 
 MWOD.in                  4.75:  MWD Tool OD 
 MWSI.                      No:  Serv Intrp, MWD 
 OTIM.hr                121.28:  Time Operating 
 PCON.           Look Like New:  Pad Condition 
 PMAX.psia             6171.00:  Press Op, Max 
 PV  .cP                 30.00:  Mud PV 
 RUN .                     300:  Run Number 
 ROPA.m/hr                5.45:  ROP Avg 
 ROPN.m/hr                3.00:  ROP Min 
 ROPX.m/hr               15.00:  ROP Max 
 RPMA.rpm               130.00:  RPM Surface Avg 
 RPMN.rpm                80.00:  RPM Surface Min 
 RPMX.rpm               140.00:  RPM Surface Max 
 RRUN.                     300:  Rig Run Number 
 RTIM.hr                 13.50:  Time Reaming 
 SAZI.deg               133.93:  Azm, Start 
 SDEP.m                3878.01:  Start Depth 
 SIDD.                      No:  Serv Intrp, DD 
 SINC.deg                40.28:  Inc, Start 
 SPPA.psig             4983.00:  SPP Avg 
 SPPN.psig             4370.00:  SPP Min 
 SPPX.psig             5300.00:  SPP Max 
 STIM.      18.33.36 27-Jan-20:  Start Time 
 SVCS.                 DD, MWD:  Services 
 SVER.                    9.20:  Sperry Version 
 TDAT.m                 169.50:  Tot Depth Attmp 
 TDDF.                      No:  Trip for DD 
 TDLG.m                 169.50:  Tot Depth Loggd 
 TFF .                      No:  Trip for Fail 
 TQAA.f-kp               13.25:  Torque Abs Avg 
 TQAN.f-kp               12.00:  Torque Abs Min 
 TQAX.f-kp               14.00:  Torque Abs Max 
 TRRT.°/30m               0.70:  Turn Rotating 
 MRT .                     ADR:  Maximum Recorded Temperature 
 TTMX.degC               92.16:  Max Tool Temp 
 VS01.       AZ90598764G12V7D4:  Virtual Str1 SN 
 VS02.         AZ90571342R12C4:  Virtual Str2 SN 
 VS03.      AZ90580010N2L2X1C4:  Virtual Str3 SN 
 VS04.        AZ90522266O7X1C4:  Virtual Str4 SN 
 VS05.           AZ90598768F11:  Virtual Str5 SN 
 VS06.     AZ90580006XZ1W1X1C4:  Virtual Str6 SN 
 WBMN.klb                 8.00:  WOB Min 
 WITN.            Peter Wilson:  Customer Rep 
 WOBA.klb                 9.88:  WOB Avg 
 WOBX.klb                10.00:  WOB Max 
 YP  .lhf2               27.00:  Yield Point 
~Curve Information Block
#MNEM.UNIT                 API CODE     Curve Description
#---------               -----------    ---------------------------
 TIME.HHMMSS            00 000 000 000:  GT Time & Date
 GTDEPTH.m              00 000 000 000:  GT Depth
 GTPQH.psia             00 000 000 000:  GT HR Quartz Pressure
 GTTQ.degC              00 000 000 000:  GT Quartz Temperature
 GTTN.NONE              00 000 000 000:  GT Test Number
 GTET.sec               00 000 000 000:  GT Elapsed Test Time
 GTTVD.m                00 000 000 000:  GT True Vertical Depth
#Other Information
#
#WARRANTY: Halliburton will use its best efforts to furnish customers with 
#accurate information and interpretations that are part of, and incident to, the services 
#provided.  However, Halliburton cannot and does not warrant the accuracy 
#or correctness of such information and interpretations.  Under no circumstances should any 
#such information or interpretation be relied upon as the sole basis for any drilling, 
#completion, production, or financial decision or any procedure involving any risk to the 
#safety of any drilling venture, drilling rig or its crew or any other third party.  The 
#Customer has full responsibility for all drilling, completion and production operation.  
#Halliburton makes no representations or warranties, either expressed or 
#implied, including, but not limited to, the implied warranties of merchantability or fitness 
#for a particular purpose, with respect to the services rendered.  In no event will 
#Halliburton be liable for failure to obtain any particular results or for 
#any damages, including, but not limited to, indirect, special or consequential damages, 
#resulting from the use of any information or interpretation provided by Halliburton.
#
~A           TIME           GTDEPTH  GTPQH  GTTQ  GTTN  GTET   GTTVD  
# ...
   06:28:48.769.31-Jan-2020 3914.01 2993.78 78.65 4.00 207.04 2947.83
   06:28:48.970.31-Jan-2020 3914.01 2993.78 78.65 4.00 207.24 2947.83
   06:28:49.170.31-Jan-2020 3914.01 2993.78 78.65 4.00 207.44 2947.83
   06:28:49.370.31-Jan-2020 3914.01 2993.79 78.65 4.00 207.64 2947.83
   06:28:49.570.31-Jan-2020 3914.01 2993.83 78.65 4.00 207.84 2947.83
   06:28:49.770.31-Jan-2020 3914.01 2993.60 78.65 4.00 208.04 2947.83
   06:28:49.970.31-Jan-2020 3914.01 2993.60 78.65 4.00 208.24 2947.83
   06:28:50.170.31-Jan-2020 3914.01 2993.85 78.65 4.00 208.44 2947.83
   06:28:50.370.31-Jan-2020 3914.01 2993.83 78.64 4.00 208.64 2947.83
   06:28:50.570.31-Jan-2020 3914.01 2993.84 78.64 4.00 208.84 2947.83
   06:28:50.770.31-Jan-2020 3914.01 2993.60 78.64 4.00 209.04 2947.83
   06:28:50.970.31-Jan-2020 3914.01 2993.60 78.64 4.00 209.24 2947.83
   06:28:51.170.31-Jan-2020 3914.01 2993.92 78.64 4.00 209.44 2947.83
   06:28:51.370.31-Jan-2020 3914.01 2993.90 78.64 4.00 209.64 2947.83
   06:28:51.570.31-Jan-2020 3914.01 2993.85 78.64 4.00 209.84 2947.83
   06:28:51.770.31-Jan-2020 3914.01 2993.84 78.64 4.00 210.04 2947.83
   06:28:51.970.31-Jan-2020 3914.01 2993.84 78.64 4.00 210.24 2947.83
   06:28:52.170.31-Jan-2020 3914.01 2993.62 78.64 4.00 210.44 2947.83
   06:28:52.370.31-Jan-2020 3914.01 2993.94 78.64 4.00 210.64 2947.83
   06:28:52.570.31-Jan-2020 3914.01 2993.89 78.64 4.00 210.84 2947.83
   06:28:52.770.31-Jan-2020 3914.01 2993.93 78.64 4.00 211.04 2947.83
   06:28:52.970.31-Jan-2020 3914.01 2993.93 78.64 4.00 211.24 2947.83
   06:28:53.170.31-Jan-2020 3914.01 2993.75 78.64 4.00 211.44 2947.83
   06:28:53.370.31-Jan-2020 3914.01 2993.80 78.64 4.00 211.64 2947.83
   06:28:53.570.31-Jan-2020 3914.01 2993.93 78.64 4.00 211.84 2947.83
   06:28:53.771.31-Jan-2020 3914.01 2993.92 78.64 4.00 212.04 2947.83
   06:28:53.971.31-Jan-2020 3914.01 2993.92 78.64 4.00 212.24 2947.83
   06:28:54.171.31-Jan-2020 3914.01 2993.83 78.63 4.00 212.44 2947.83
   06:28:54.371.31-Jan-2020 3914.01 2993.84 78.63 4.00 212.64 2947.83
   06:28:54.571.31-Jan-2020 3914.01 2993.85 78.63 4.00 212.84 2947.83
   06:28:54.771.31-Jan-2020 3914.01 2993.58 78.63 4.00 213.04 2947.83
   06:28:54.971.31-Jan-2020 3914.01 2993.58 78.63 4.00 213.24 2947.83
   06:28:55.171.31-Jan-2020 3914.01 2993.95 78.63 4.00 213.44 2947.83
   06:28:55.371.31-Jan-2020 3914.01 2993.89 78.63 4.00 213.64 2947.83
   06:28:55.571.31-Jan-2020 3914.01 2993.85 78.63 4.00 213.84 2947.83
   06:28:55.771.31-Jan-2020 3914.01 2993.82 78.63 4.00 214.04 2947.83
   06:28:55.971.31-Jan-2020 3914.01 2993.82 78.63 4.00 214.24 2947.83
   06:28:56.171.31-Jan-2020 3914.01 2993.88 78.63 4.00 214.44 2947.83
   06:28:56.371.31-Jan-2020 3914.01 2993.84 78.63 4.00 214.64 2947.83
   06:28:56.571.31-Jan-2020 3914.01 2993.80 78.63 4.00 214.84 2947.83
   06:28:56.771.31-Jan-2020 3914.01 2993.80 78.63 4.00 215.04 2947.83
   06:28:56.971.31-Jan-2020 3914.01 2993.80 78.63 4.00 215.24 2947.83
   06:28:57.171.31-Jan-2020 3914.01 2993.78 78.63 4.00 215.44 2947.83
   06:28:57.371.31-Jan-2020 3914.01 2993.77 78.63 4.00 215.64 2947.83
   06:28:57.571.31-Jan-2020 3914.01 2993.82 78.63 4.00 215.84 2947.83
   06:28:57.771.31-Jan-2020 3914.01 2993.84 78.62 4.00 216.04 2947.83
   06:28:57.971.31-Jan-2020 3914.01 2993.84 78.62 4.00 216.24 2947.83
   06:28:58.171.31-Jan-2020 3914.01 2993.76 78.62 4.00 216.44 2947.83
   06:28:58.371.31-Jan-2020 3914.01 2993.81 78.62 4.00 216.64 2947.83
   06:28:58.571.31-Jan-2020 3914.01 2993.61 78.62 4.00 216.84 2947.83
   06:28:58.772.31-Jan-2020 3914.01 2993.92 78.62 4.00 217.04 2947.83
   06:28:58.972.31-Jan-2020 3914.01 2993.92 78.62 4.00 217.24 2947.83
   06:28:59.172.31-Jan-2020 3914.01 2993.89 78.62 4.00 217.44 2947.83
   06:28:59.372.31-Jan-2020 3914.01 2993.83 78.62 4.00 217.64 2947.83
   06:28:59.572.31-Jan-2020 3914.01 2993.80 78.62 4.00 217.84 2947.83
   06:28:59.772.31-Jan-2020 3914.01 2993.83 78.62 4.00 218.04 2947.83
   06:28:59.972.31-Jan-2020 3914.01 2993.83 78.62 4.00 218.24 2947.83
   06:29:00.172.31-Jan-2020 3914.01 2993.80 78.62 4.00 218.44 2947.83
   06:29:00.372.31-Jan-2020 3914.01 2993.81 78.62 4.00 218.64 2947.83
   06:29:00.572.31-Jan-2020 3914.01 2993.79 78.62 4.00 218.84 2947.83
   06:29:00.772.31-Jan-2020 3914.01 2993.77 78.62 4.00 219.04 2947.83
   06:29:00.972.31-Jan-2020 3914.01 2993.77 78.62 4.00 219.24 2947.83
   06:29:01.172.31-Jan-2020 3914.01 2993.76 78.62 4.00 219.44 2947.83
   06:29:01.372.31-Jan-2020 3914.01 2993.81 78.61 4.00 219.64 2947.83
   06:29:01.572.31-Jan-2020 3914.01 2993.80 78.61 4.00 219.84 2947.83
   06:29:01.772.31-Jan-2020 3914.01 2993.52 78.61 4.00 220.04 2947.83
   06:29:01.972.31-Jan-2020 3914.01 2993.52 78.61 4.00 220.24 2947.83
   06:29:02.172.31-Jan-2020 3914.01 2993.83 78.61 4.00 220.44 2947.83
   06:29:02.372.31-Jan-2020 3914.01 2993.82 78.61 4.00 220.64 2947.83
   06:29:02.572.31-Jan-2020 3914.01 2993.83 78.61 4.00 220.84 2947.83
   06:29:02.772.31-Jan-2020 3914.01 2993.55 78.61 4.00 221.04 2947.83
   06:29:02.972.31-Jan-2020 3914.01 2993.55 78.61 4.00 221.24 2947.83
   06:29:03.172.31-Jan-2020 3914.01 2993.90 78.61 4.00 221.44 2947.83
   06:29:03.372.31-Jan-2020 3914.01 2993.89 78.61 4.00 221.64 2947.83
   06:29:03.573.31-Jan-2020 3914.01 2993.83 78.61 4.00 221.85 2947.83
   06:29:03.773.31-Jan-2020 3914.01 2993.83 78.61 4.00 222.05 2947.83
   06:29:03.973.31-Jan-2020 3914.01 2993.83 78.61 4.00 222.25 2947.83
   06:29:04.173.31-Jan-2020 3914.01 2993.56 78.61 4.00 222.45 2947.83
   06:29:04.373.31-Jan-2020 3914.01 2993.97 78.61 4.00 222.65 2947.83
   06:29:04.573.31-Jan-2020 3914.01 2993.88 78.61 4.00 222.85 2947.83
   06:29:04.773.31-Jan-2020 3914.01 2993.92 78.61 4.00 223.05 2947.83
   06:29:04.973.31-Jan-2020 3914.01 2993.92 78.61 4.00 223.25 2947.83
   06:29:05.173.31-Jan-2020 3914.01 2993.56 78.60 4.00 223.45 2947.83
   06:29:05.373.31-Jan-2020 3914.01 2993.96 78.60 4.00 223.65 2947.83
   06:29:05.573.31-Jan-2020 3914.01 2993.92 78.60 4.00 223.85 2947.83
   06:29:05.773.31-Jan-2020 3914.01 2993.89 78.60 4.00 224.05 2947.83
   06:29:05.973.31-Jan-2020 3914.01 2993.89 78.60 4.00 224.25 2947.83
   06:29:06.173.31-Jan-2020 3914.01 2993.82 78.60 4.00 224.45 2947.83
   06:29:06.373.31-Jan-2020 3914.01 2993.82 78.60 4.00 224.65 2947.83
   06:29:06.573.31-Jan-2020 3914.01 2993.82 78.60 4.00 224.85 2947.83
   06:29:06.773.31-Jan-2020 3914.01 2993.61 78.60 4.00 225.05 2947.83
   06:29:06.973.31-Jan-2020 3914.01 2993.61 78.60 4.00 225.25 2947.83
   06:29:07.173.31-Jan-2020 3914.01 2993.90 78.60 4.00 225.45 2947.83
   06:29:07.373.31-Jan-2020 3914.01 2993.85 78.60 4.00 225.65 2947.83
   06:29:07.573.31-Jan-2020 3914.01 2993.83 78.60 4.00 225.85 2947.83
   06:29:07.773.31-Jan-2020 3914.01 2993.79 78.60 4.00 226.05 2947.83
   06:29:07.973.31-Jan-2020 3914.01 2993.79 78.60 4.00 226.25 2947.83
   06:29:08.173.31-Jan-2020 3914.01 2993.85 78.60 4.00 226.45 2947.83
   06:29:08.373.31-Jan-2020 3914.01 2993.80 78.60 4.00 226.65 2947.83
   06:29:08.574.31-Jan-2020 3914.01 2993.79 78.60 4.00 226.85 2947.83
   06:29:08.774.31-Jan-2020 3914.01 2993.77 78.59 4.00 227.05 2947.83
   06:29:08.974.31-Jan-2020 3914.01 2993.77 78.59 4.00 227.25 2947.83
   06:29:09.174.31-Jan-2020 3914.01 2993.78 78.59 4.00 227.45 2947.83
   06:29:09.374.31-Jan-2020 3914.01 2993.75 78.59 4.00 227.65 2947.83
   06:29:09.574.31-Jan-2020 3914.01 2993.81 78.59 4.00 227.85 2947.83
   06:29:09.774.31-Jan-2020 3914.01 2993.80 78.59 4.00 228.05 2947.83
   06:29:09.974.31-Jan-2020 3914.01 2993.80 78.59 4.00 228.25 2947.83
   06:29:10.174.31-Jan-2020 3914.01 2993.75 78.59 4.00 228.45 2947.83
   06:29:10.374.31-Jan-2020 3914.01 2993.71 78.59 4.00 228.65 2947.83
   06:29:10.574.31-Jan-2020 3914.01 2993.73 78.59 4.00 228.85 2947.83
   06:29:10.774.31-Jan-2020 3914.01 2993.88 78.59 4.00 229.05 2947.83
   06:29:10.974.31-Jan-2020 3914.01 2993.88 78.59 4.00 229.25 2947.83
   06:29:11.174.31-Jan-2020 3914.01 2993.83 78.59 4.00 229.45 2947.83
   06:29:11.374.31-Jan-2020 3914.01 2993.81 78.59 4.00 229.65 2947.83
   06:29:11.574.31-Jan-2020 3914.01 2993.78 78.59 4.00 229.85 2947.83
