~Version Information
 VERS.                  2.0:   CWLS log ASCII Standard -VERSION 2.0
 WRAP.                   NO:   One line per depth step
~Well Information Block
#MNEM.UNIT     VALUE/NAME     DESCRIPTION
#---------     -----------    ---------------------------
 STRT.S             06:25:21 31-Jan-20: START TIME 06:25:21 31-Jan-20
 STOP.S             06:31:52 31-Jan-20: STOP TIME  06:31:52 31-Jan-20
 STEP.S                   0.00: STEP TIME
 NULL.                 -999.25: NULL VALUE
 DFWT.                        :  DIST FWL TEXT
 DFST.                        :  DIST FSL TEXT
 DMF .             Drill Floor:  DRILL MEAS FROM
 STIM.      09.30.00 26-Dec-19:  START TIME
 DATE.      08.00.00 20-Jan-20:  END TIME
 SPUD.               23-Nov-19:  SPUD DATE
 NREF.                    Grid:  NORTH REFERENCE
 HPTY.       Minimum Curvature:  HOLE POS TYPE
 DMOD.             Drill Model:  DRILL MOD DESC
 SVYD.                  Survey:  SURVEY DESC
 ILTD.               Lithology:  INTERP LTH DESC
 FTOP.          Formation Tops:  FORM TOPS DESC
 SON .        AZ-XX-0906192647:  JOB NUMBER
 WTYP.                Deviated:  WELL TYPE
 COMP.     BP Exploration (Caspian Sea) Ltd:  COMPANY
 BASE.              Azerbaijan:  LOGGING EQUIPMENT BASE LOCATION
 REGN.                 Eurasia:  REGION
 FLD .                     ACG:  FIELD NAME
 SRVC.              KCA Deutag:  CONTRACTOR
 MWDS.                    Baku:  MWD SHOP
 WELL.     A10 (Slot 20) - SCP:  WELL NAME
 JOBN.        AZ-XX-0906192647:  JOB TICKET NUMB
 RIG .                 Chirag1:  RIG NAME
 DCON.     Halliburton Sperry Drilling:  DIRECTNL CONTR
 UNIT.                     N/A:  LOGGING EQUIPMENT ID
 PDAT.          Mean Sea Level:  PERMANENT DATUM
 MDS .        Operator Entered:  MAG DATA SOURCE
 CTRY.              Azerbaijan:  COUNTRY NAME
 UWI .            /AZE00000090:  UNIQUE WELL IDENTIFIER
 API .            /AZE00000090:  API NUMBER
 CNTY.                        :  COUNTY
 PROV.                        :  PROVINCE
 STAT.                        :  STATE
 LOC .                        :  LOCATION
 LMF .             Drill Floor:  LOG MEASURED FROM
 TVDS.m                  36.60:  TVDSS CORRECTN
 LATI.deg                40.08:  LATITUDE
 LONG.deg                51.24:  LONGITUDE
 WHNS.m                  -7.94:  WELL HEAD N/S
 WHEW.m                   1.56:  WELL HEAD E/W
 UTMX.m              520429.26:  UTM X
 UTMY.m             4438973.87:  UTM Y
 DFWL.m                   0.00:  DISTANCE FWL
 DFSL.m                   0.00:  DISTANCE FSL
 SDEP.m                1455.00:  START DEPTH
 TDD .m                4047.51:  TOTAL DEPTH (DRILLER)
 VSDR.deg               112.75:  VERT SEC DIRECT
 GVFD.g                   1.00:  GRAVITY FIELD
 MFLD.nT              50261.00:  MAGNETIC FIELD
 MDIP.deg                59.52:  MAGNETIC DIP
 MDEC.deg                 6.42:  MAGNETIC DECL
 GRDC.deg                 0.17:  GRID CORRECTION
 AZTC.deg                 6.25:  AZM TOTAL CORR
 EPD .m                   0.00:  ELEVATION
 EGL .m                   0.00:  GROUND ELEVATION
 WDMS.m                 121.00:  WD ELEV
 APD .m                  36.60:  DEPTH ABOVE PD
 AGAP.m                  36.60:  AIR GAP
 VSEW.m                   1.56:  VERT SEC E/W
 VSNS.m                  -7.94:  VERT SEC N/S
 DEP .m                1140.01:  DEPTH
 EKB .m                  36.60:  KB ELEVATION
 EDF .m                  36.60:  DF ELEVATION
 TDL .m                 169.50:  TOTAL DEPTH (LOGGER)
 CSGD.m                3875.01:  CASING BOTTOM (DRILLER)
 CSGL.m                3875.01:  CASING BOTTOM (LOGGER)
 CSGS.in                  7.63:  CASING SIZE
 CSGW.lbpf               23.50:  CASING WEIGHT
 VSC .                       0:  VS TO CLOSURE
 MAGU.                 1849206:  MAGUTM CHECKSUM
~Parameter Information Block
#MNEM.UNIT       Value        Description
#---------     -----------    ---------------------------
 AV  .mps                 1.90:  Ann Velocity 
 AVMX.mps                 2.54:  Max Ann Veloc 
 AZIF.deg               137.03:  Azm, Final 
 BHAT.        Rotary Steerable:  BHA Type 
 BREV.rev             23610.00:  Rev Bit Total 
 BROT.°/30m               0.80:  Build Rotating 
 BS  .in                  6.50:  Bit Size 
 BTPL.psig              110.00:  Bit Press Loss 
 CABU.                     Yes:  Customer Abuse 
 COMM.                     Ð„:  Run Comments 1 
 TCS .hr                 70.51:  Time Ciculation Ended 
 CV  .mps                 1.41:  Crit Velocity 
 CVMX.mps                 1.42:  Max Crit Veloc 
 DD1 .         Intigam Rahimov:  Direct Drillr 1 
 DD2 .          Rashad Gojayev:  Direct Drillr 2 
 DDSV.               Geo-Pilot:  DD Service 
 DEFF.%                 100.00:  % Det Eff 
 DLRX.°/30m               1.44:  Dogleg Rot Max 
 DLSO.°/30m               0.00:  Dogleg Oriented 
 DLSX.°/30m               0.00:  Dogleg Str Max 
 DRET.      03.05.00 01-Feb-20:  Drill End Time 
 DRST.      15.50.00 28-Jan-20:  Drill Start Tim 
 DTIM.hr                 24.70:  Time Drilling 
 EDEP.m                4047.51:  End Depth 
 ENG1.           Eldar Hajiyev:  Engineer 1 
 ENG2.          Rasim Hashimov:  Engineer 2 
 ENG3.          Rustam Safarov:  Engineer 3 
 ETIM.      22.00.00 01-Feb-20:  End Time 
 FLOI.gpm               370.00:  Flow In 
 FLON.gpm               300.00:  Flow In Min 
 FLOS.cptm                0.00:  Fluid Loss 
 FLOX.gpm               400.00:  Flow In Max 
 FTRO.       Formation Presure:  FTWD Run Obj 
 HFLO.                      No:  High Flow 
 HPRE.                      No:  High Pressure 
 HTEM.                      No:  High Temp 
 HYDO.m                   2.50:  Hydro Offset 
 IFIN.deg                39.54:  Inc, Final 
 IMAX.deg                41.14:  Inc Max 
 IMIN.deg                39.81:  Inc Min 
 IMND.m                4005.21:  Inc Min Depth 
 IMXD.m                3948.42:  Inc Max Depth 
 JARR.                      No:  Jarring 
 LETM.      03.05.00 01-Feb-20:  Log End Time 
 LOST.hr                     0:  Lost Rig Time 
 LSTM.      15.50.00 28-Jan-20:  Log Start Time 
 MDCL.ppm             37500.00:  Mud Chlorides 
 MDES.     Inversion Oil/Synthetic:  Mud Desc 
 DFD .sg                  1.32:  Mud Density 
 MDMN.sg                  1.32:  Dens Mud Min 
 MDMX.sg                  1.32:  Dens Mud Max 
 MOIL.                      55:  Run Mud Oil % 
 MOWR.                   70:30:  Run Mud OWR 
 MSND.                       0:  Run Mud Sand % 
 MSOL.                      17:  Run Mud Solids% 
 DFV .spqt               80.00:  Mud Viscosity 
 MWOD.in                  4.75:  MWD Tool OD 
 MWSI.                      No:  Serv Intrp, MWD 
 OTIM.hr                121.28:  Time Operating 
 PCON.           Look Like New:  Pad Condition 
 PMAX.psia             6171.00:  Press Op, Max 
 PV  .cP                 30.00:  Mud PV 
 RUN .                     300:  Run Number 
 ROPA.m/hr                5.45:  ROP Avg 
 ROPN.m/hr                3.00:  ROP Min 
 ROPX.m/hr               15.00:  ROP Max 
 RPMA.rpm               130.00:  RPM Surface Avg 
 RPMN.rpm                80.00:  RPM Surface Min 
 RPMX.rpm               140.00:  RPM Surface Max 
 RRUN.                     300:  Rig Run Number 
 RTIM.hr                 13.50:  Time Reaming 
 SAZI.deg               133.93:  Azm, Start 
 SDEP.m                3878.01:  Start Depth 
 SIDD.                      No:  Serv Intrp, DD 
 SINC.deg                40.28:  Inc, Start 
 SPPA.psig             4983.00:  SPP Avg 
 SPPN.psig             4370.00:  SPP Min 
 SPPX.psig             5300.00:  SPP Max 
 STIM.      18.33.36 27-Jan-20:  Start Time 
 SVCS.                 DD, MWD:  Services 
 SVER.                    9.20:  Sperry Version 
 TDAT.m                 169.50:  Tot Depth Attmp 
 TDDF.                      No:  Trip for DD 
 TDLG.m                 169.50:  Tot Depth Loggd 
 TFF .                      No:  Trip for Fail 
 TQAA.f-kp               13.25:  Torque Abs Avg 
 TQAN.f-kp               12.00:  Torque Abs Min 
 TQAX.f-kp               14.00:  Torque Abs Max 
 TRRT.°/30m               0.70:  Turn Rotating 
 MRT .                     ADR:  Maximum Recorded Temperature 
 TTMX.degC               92.16:  Max Tool Temp 
 VS01.       AZ90598764G12V7D4:  Virtual Str1 SN 
 VS02.         AZ90571342R12C4:  Virtual Str2 SN 
 VS03.      AZ90580010N2L2X1C4:  Virtual Str3 SN 
 VS04.        AZ90522266O7X1C4:  Virtual Str4 SN 
 VS05.           AZ90598768F11:  Virtual Str5 SN 
 VS06.     AZ90580006XZ1W1X1C4:  Virtual Str6 SN 
 WBMN.klb                 8.00:  WOB Min 
 WITN.            Peter Wilson:  Customer Rep 
 WOBA.klb                 9.88:  WOB Avg 
 WOBX.klb                10.00:  WOB Max 
 YP  .lhf2               27.00:  Yield Point 
~Curve Information Block
#MNEM.UNIT                 API CODE     Curve Description
#---------               -----------    ---------------------------
 TIME.HHMMSS            00 000 000 000:  GT Time & Date
 GTDEPTH.m              00 000 000 000:  GT Depth
 GTPQH.psia             00 000 000 000:  GT HR Quartz Pressure
 GTTQ.degC              00 000 000 000:  GT Quartz Temperature
 GTTN.NONE              00 000 000 000:  GT Test Number
 GTET.sec               00 000 000 000:  GT Elapsed Test Time
 GTTVD.m                00 000 000 000:  GT True Vertical Depth
#Other Information
#
#WARRANTY: Halliburton will use its best efforts to furnish customers with 
#accurate information and interpretations that are part of, and incident to, the services 
#provided.  However, Halliburton cannot and does not warrant the accuracy 
#or correctness of such information and interpretations.  Under no circumstances should any 
#such information or interpretation be relied upon as the sole basis for any drilling, 
#completion, production, or financial decision or any procedure involving any risk to the 
#safety of any drilling venture, drilling rig or its crew or any other third party.  The 
#Customer has full responsibility for all drilling, completion and production operation.  
#Halliburton makes no representations or warranties, either expressed or 
#implied, including, but not limited to, the implied warranties of merchantability or fitness 
#for a particular purpose, with respect to the services rendered.  In no event will 
#Halliburton be liable for failure to obtain any particular results or for 
#any damages, including, but not limited to, indirect, special or consequential damages, 
#resulting from the use of any information or interpretation provided by Halliburton.
#
~A           TIME           GTDEPTH  GTPQH  GTTQ  GTTN  GTET   GTTVD  
# ...
   06:29:11.774.31-Jan-2020 3914.01 2993.80 78.59 4.00 230.05 2947.83
   06:29:11.974.31-Jan-2020 3914.01 2993.80 78.59 4.00 230.25 2947.83
   06:29:12.174.31-Jan-2020 3914.01 2993.80 78.59 4.00 230.45 2947.83
   06:29:12.374.31-Jan-2020 3914.01 2993.78 78.58 4.00 230.65 2947.83
   06:29:12.574.31-Jan-2020 3914.01 2993.77 78.58 4.00 230.85 2947.83
   06:29:12.774.31-Jan-2020 3914.01 2993.76 78.58 4.00 231.05 2947.83
   06:29:12.974.31-Jan-2020 3914.01 2993.76 78.58 4.00 231.25 2947.83
   06:29:13.174.31-Jan-2020 3914.01 2993.75 78.58 4.00 231.45 2947.83
   06:29:13.374.31-Jan-2020 3914.01 2993.80 78.58 4.00 231.65 2947.83
   06:29:13.575.31-Jan-2020 3914.01 2993.79 78.58 4.00 231.85 2947.83
   06:29:13.775.31-Jan-2020 3914.01 2993.56 78.58 4.00 232.05 2947.83
   06:29:13.975.31-Jan-2020 3914.01 2993.56 78.58 4.00 232.25 2947.83
   06:29:14.175.31-Jan-2020 3914.01 2993.82 78.58 4.00 232.45 2947.83
   06:29:14.375.31-Jan-2020 3914.01 2993.80 78.58 4.00 232.65 2947.83
   06:29:14.575.31-Jan-2020 3914.01 2993.82 78.58 4.00 232.85 2947.83
   06:29:14.775.31-Jan-2020 3914.01 2993.60 78.58 4.00 233.05 2947.83
   06:29:14.975.31-Jan-2020 3914.01 2993.60 78.58 4.00 233.25 2947.83
   06:29:15.175.31-Jan-2020 3914.01 2993.86 78.58 4.00 233.45 2947.83
   06:29:15.375.31-Jan-2020 3914.01 2993.86 78.58 4.00 233.65 2947.83
   06:29:15.575.31-Jan-2020 3914.01 2993.82 78.58 4.00 233.85 2947.83
   06:29:15.775.31-Jan-2020 3914.01 2993.80 78.58 4.00 234.05 2947.83
   06:29:15.975.31-Jan-2020 3914.01 2993.80 78.58 4.00 234.25 2947.83
   06:29:16.175.31-Jan-2020 3914.01 2993.58 78.57 4.00 234.45 2947.83
   06:29:16.375.31-Jan-2020 3914.01 2993.91 78.57 4.00 234.65 2947.83
   06:29:16.575.31-Jan-2020 3914.01 2993.88 78.57 4.00 234.85 2947.83
   06:29:16.775.31-Jan-2020 3914.01 2993.87 78.57 4.00 235.05 2947.83
   06:29:16.975.31-Jan-2020 3914.01 2993.87 78.57 4.00 235.25 2947.83
   06:29:17.175.31-Jan-2020 3914.01 2993.51 78.57 4.00 235.45 2947.83
   06:29:17.375.31-Jan-2020 3914.01 2993.99 78.57 4.00 235.65 2947.83
   06:29:17.575.31-Jan-2020 3914.01 2993.89 78.57 4.00 235.85 2947.83
   06:29:17.775.31-Jan-2020 3914.01 2993.86 78.57 4.00 236.05 2947.83
   06:29:17.975.31-Jan-2020 3914.01 2993.86 78.57 4.00 236.25 2947.83
   06:29:18.175.31-Jan-2020 3914.01 2993.80 78.57 4.00 236.45 2947.83
   06:29:18.376.31-Jan-2020 3914.01 2993.81 78.57 4.00 236.65 2947.83
   06:29:18.576.31-Jan-2020 3914.01 2993.71 78.57 4.00 236.85 2947.83
   06:29:18.776.31-Jan-2020 3914.01 2993.76 78.57 4.00 237.05 2947.83
   06:29:18.976.31-Jan-2020 3914.01 2993.76 78.57 4.00 237.25 2947.83
   06:29:19.176.31-Jan-2020 3914.01 2993.87 78.57 4.00 237.45 2947.83
   06:29:19.376.31-Jan-2020 3914.01 2993.81 78.57 4.00 237.65 2947.83
   06:29:19.576.31-Jan-2020 3914.01 2993.80 78.57 4.00 237.85 2947.83
   06:29:19.776.31-Jan-2020 3914.01 2993.78 78.56 4.00 238.05 2947.83
   06:29:19.976.31-Jan-2020 3914.01 2993.78 78.56 4.00 238.25 2947.83
   06:29:20.176.31-Jan-2020 3914.01 2993.80 78.56 4.00 238.45 2947.83
   06:29:20.376.31-Jan-2020 3914.01 2993.78 78.56 4.00 238.65 2947.83
   06:29:20.576.31-Jan-2020 3914.01 2993.78 78.56 4.00 238.85 2947.83
   06:29:20.776.31-Jan-2020 3914.01 2993.74 78.56 4.00 239.05 2947.83
   06:29:20.976.31-Jan-2020 3914.01 2993.74 78.56 4.00 239.25 2947.83
   06:29:21.176.31-Jan-2020 3914.01 2993.75 78.56 4.00 239.45 2947.83
   06:29:21.376.31-Jan-2020 3914.01 2993.74 78.56 4.00 239.65 2947.83
   06:29:21.576.31-Jan-2020 3914.01 2993.80 78.56 4.00 239.85 2947.83
   06:29:21.776.31-Jan-2020 3914.01 2993.77 78.56 4.00 240.05 2947.83
   06:29:21.976.31-Jan-2020 3914.01 2993.77 78.56 4.00 240.25 2947.83
   06:29:22.176.31-Jan-2020 3914.01 2953.16 78.56 4.00 240.45 2947.83
   06:29:22.376.31-Jan-2020 3914.01 2926.87 78.56 4.00 240.65 2947.83
   06:29:22.576.31-Jan-2020 3914.01 2927.08 78.56 4.00 240.85 2947.83
   06:29:22.776.31-Jan-2020 3914.01 2927.72 78.56 4.00 241.05 2947.83
   06:29:22.976.31-Jan-2020 3914.01 2927.72 78.56 4.00 241.25 2947.83
   06:29:23.176.31-Jan-2020 3914.01 2926.38 78.56 4.00 241.45 2947.83
   06:29:23.377.31-Jan-2020 3914.01 2926.77 78.56 4.00 241.65 2947.83
   06:29:23.577.31-Jan-2020 3914.01 2927.80 78.55 4.00 241.85 2947.83
   06:29:23.777.31-Jan-2020 3914.01 2927.32 78.55 4.00 242.05 2947.83
   06:29:23.977.31-Jan-2020 3914.01 2927.32 78.55 4.00 242.25 2947.83
   06:29:24.177.31-Jan-2020 3914.01 2927.32 78.55 4.00 242.45 2947.83
   06:29:24.377.31-Jan-2020 3914.01 2926.91 78.55 4.00 242.65 2947.83
   06:29:24.577.31-Jan-2020 3914.01 2926.38 78.55 4.00 242.85 2947.83
   06:29:24.777.31-Jan-2020 3914.01 2926.24 78.55 4.00 243.05 2947.83
   06:29:24.977.31-Jan-2020 3914.01 2926.24 78.55 4.00 243.25 2947.83
   06:29:25.177.31-Jan-2020 3914.01 2926.47 78.55 4.00 243.45 2947.83
   06:29:25.377.31-Jan-2020 3914.01 2926.81 78.55 4.00 243.65 2947.83
   06:29:25.577.31-Jan-2020 3914.01 2926.11 78.55 4.00 243.85 2947.83
   06:29:25.777.31-Jan-2020 3914.01 2926.17 78.55 4.00 244.05 2947.83
   06:29:25.977.31-Jan-2020 3914.01 2926.17 78.55 4.00 244.25 2947.83
   06:29:26.177.31-Jan-2020 3914.01 2926.61 78.55 4.00 244.45 2947.83
   06:29:26.377.31-Jan-2020 3914.01 2926.09 78.55 4.00 244.65 2947.83
   06:29:26.577.31-Jan-2020 3914.01 2925.87 78.55 4.00 244.85 2947.83
   06:29:26.777.31-Jan-2020 3914.01 2925.57 78.55 4.00 245.05 2947.83
   06:29:26.977.31-Jan-2020 3914.01 2925.57 78.55 4.00 245.25 2947.83
   06:29:27.177.31-Jan-2020 3914.01 2926.13 78.54 4.00 245.45 2947.83
   06:29:27.377.31-Jan-2020 3914.01 2925.75 78.54 4.00 245.65 2947.83
   06:29:27.577.31-Jan-2020 3914.01 2925.68 78.54 4.00 245.85 2947.83
   06:29:27.777.31-Jan-2020 3914.01 2925.47 78.54 4.00 246.05 2947.83
   06:29:27.977.31-Jan-2020 3914.01 2925.47 78.54 4.00 246.25 2947.83
   06:29:28.177.31-Jan-2020 3914.01 2925.69 78.54 4.00 246.45 2947.83
   06:29:28.378.31-Jan-2020 3914.01 2925.87 78.54 4.00 246.65 2947.83
   06:29:28.578.31-Jan-2020 3914.01 2925.60 78.54 4.00 246.85 2947.83
   06:29:28.778.31-Jan-2020 3914.01 2925.54 78.54 4.00 247.05 2947.83
   06:29:28.978.31-Jan-2020 3914.01 2925.54 78.54 4.00 247.25 2947.83
   06:29:29.178.31-Jan-2020 3914.01 2925.05 78.54 4.00 247.45 2947.83
   06:29:29.378.31-Jan-2020 3914.01 2927.09 78.54 4.00 247.65 2947.83
   06:29:29.578.31-Jan-2020 3914.01 2926.49 78.54 4.00 247.85 2947.83
   06:29:29.778.31-Jan-2020 3914.01 2926.10 78.54 4.00 248.05 2947.83
   06:29:29.978.31-Jan-2020 3914.01 2926.10 78.54 4.00 248.25 2947.83
   06:29:30.178.31-Jan-2020 3914.01 2925.52 78.54 4.00 248.45 2947.83
   06:29:30.378.31-Jan-2020 3914.01 2925.93 78.54 4.00 248.65 2947.83
   06:29:30.578.31-Jan-2020 3914.01 2925.43 78.54 4.00 248.85 2947.83
   06:29:30.778.31-Jan-2020 3914.01 2927.15 78.53 4.00 249.05 2947.83
   06:29:30.978.31-Jan-2020 3914.01 2927.15 78.53 4.00 249.25 2947.83
   06:29:31.178.31-Jan-2020 3914.01 2926.38 78.53 4.00 249.45 2947.83
   06:29:31.378.31-Jan-2020 3914.01 2926.21 78.53 4.00 249.65 2947.83
   06:29:31.578.31-Jan-2020 3914.01 2926.00 78.53 4.00 249.85 2947.83
   06:29:31.778.31-Jan-2020 3914.01 2926.14 78.53 4.00 250.05 2947.83
   06:29:31.978.31-Jan-2020 3914.01 2926.14 78.53 4.00 250.25 2947.83
   06:29:32.178.31-Jan-2020 3914.01 2926.35 78.53 4.00 250.45 2947.83
   06:29:32.378.31-Jan-2020 3914.01 2944.29 78.53 4.00 250.65 2947.83
   06:29:32.578.31-Jan-2020 3914.01 2988.56 78.53 4.00 250.85 2947.83
   06:29:32.778.31-Jan-2020 3914.01 2990.85 78.53 4.00 251.05 2947.83
   06:29:32.978.31-Jan-2020 3914.01 2990.85 78.53 4.00 251.25 2947.83
   06:29:33.179.31-Jan-2020 3914.01 2991.80 78.53 4.00 251.45 2947.83
   06:29:33.379.31-Jan-2020 3914.01 2992.05 78.53 4.00 251.65 2947.83
   06:29:33.579.31-Jan-2020 3914.01 2992.32 78.53 4.00 251.85 2947.83
   06:29:33.779.31-Jan-2020 3914.01 2992.42 78.53 4.00 252.05 2947.83
   06:29:33.979.31-Jan-2020 3914.01 2992.42 78.53 4.00 252.25 2947.83
   06:29:34.179.31-Jan-2020 3914.01 2992.61 78.53 4.00 252.45 2947.83
   06:29:34.379.31-Jan-2020 3914.01 2992.57 78.53 4.00 252.65 2947.83
   06:29:34.579.31-Jan-2020 3914.01 2993.08 78.52 4.00 252.85 2947.83
