~Version Information
 VERS.                  2.0:   CWLS log ASCII Standard -VERSION 2.0
 WRAP.                   NO:   One line per depth step
~Well Information Block
#MNEM.UNIT     VALUE/NAME     DESCRIPTION
#---------     -----------    ---------------------------
 STRT.S             19:01:08 30-Jan-20: START TIME 19:01:08 30-Jan-20
 STOP.S             19:07:38 30-Jan-20: STOP TIME  19:07:38 30-Jan-20
 STEP.S                   0.00: STEP TIME
 NULL.                 -999.25: NULL VALUE
 DFWT.                        :  DIST FWL TEXT
 DFST.                        :  DIST FSL TEXT
 DMF .             Drill Floor:  DRILL MEAS FROM
 STIM.      09.30.00 26-Dec-19:  START TIME
 DATE.      08.00.00 20-Jan-20:  END TIME
 SPUD.               23-Nov-19:  SPUD DATE
 NREF.                    Grid:  NORTH REFERENCE
 HPTY.       Minimum Curvature:  HOLE POS TYPE
 DMOD.             Drill Model:  DRILL MOD DESC
 SVYD.                  Survey:  SURVEY DESC
 ILTD.               Lithology:  INTERP LTH DESC
 FTOP.          Formation Tops:  FORM TOPS DESC
 SON .        AZ-XX-0906192647:  JOB NUMBER
 WTYP.                Deviated:  WELL TYPE
 COMP.     BP Exploration (Caspian Sea) Ltd:  COMPANY
 BASE.              Azerbaijan:  LOGGING EQUIPMENT BASE LOCATION
 REGN.                 Eurasia:  REGION
 FLD .                     ACG:  FIELD NAME
 SRVC.              KCA Deutag:  CONTRACTOR
 MWDS.                    Baku:  MWD SHOP
 WELL.     A10 (Slot 20) - SCP:  WELL NAME
 JOBN.        AZ-XX-0906192647:  JOB TICKET NUMB
 RIG .                 Chirag1:  RIG NAME
 DCON.     Halliburton Sperry Drilling:  DIRECTNL CONTR
 UNIT.                     N/A:  LOGGING EQUIPMENT ID
 PDAT.          Mean Sea Level:  PERMANENT DATUM
 MDS .        Operator Entered:  MAG DATA SOURCE
 CTRY.              Azerbaijan:  COUNTRY NAME
 UWI .            /AZE00000090:  UNIQUE WELL IDENTIFIER
 API .            /AZE00000090:  API NUMBER
 CNTY.                        :  COUNTY
 PROV.                        :  PROVINCE
 STAT.                        :  STATE
 LOC .                        :  LOCATION
 LMF .             Drill Floor:  LOG MEASURED FROM
 TVDS.m                  36.60:  TVDSS CORRECTN
 LATI.deg                40.08:  LATITUDE
 LONG.deg                51.24:  LONGITUDE
 WHNS.m                  -7.94:  WELL HEAD N/S
 WHEW.m                   1.56:  WELL HEAD E/W
 UTMX.m              520429.26:  UTM X
 UTMY.m             4438973.87:  UTM Y
 DFWL.m                   0.00:  DISTANCE FWL
 DFSL.m                   0.00:  DISTANCE FSL
 SDEP.m                1455.00:  START DEPTH
 TDD .m                4047.51:  TOTAL DEPTH (DRILLER)
 VSDR.deg               112.75:  VERT SEC DIRECT
 GVFD.g                   1.00:  GRAVITY FIELD
 MFLD.nT              50261.00:  MAGNETIC FIELD
 MDIP.deg                59.52:  MAGNETIC DIP
 MDEC.deg                 6.42:  MAGNETIC DECL
 GRDC.deg                 0.17:  GRID CORRECTION
 AZTC.deg                 6.25:  AZM TOTAL CORR
 EPD .m                   0.00:  ELEVATION
 EGL .m                   0.00:  GROUND ELEVATION
 WDMS.m                 121.00:  WD ELEV
 APD .m                  36.60:  DEPTH ABOVE PD
 AGAP.m                  36.60:  AIR GAP
 VSEW.m                   1.56:  VERT SEC E/W
 VSNS.m                  -7.94:  VERT SEC N/S
 DEP .m                1140.01:  DEPTH
 EKB .m                  36.60:  KB ELEVATION
 EDF .m                  36.60:  DF ELEVATION
 TDL .m                 169.50:  TOTAL DEPTH (LOGGER)
 CSGD.m                3875.01:  CASING BOTTOM (DRILLER)
 CSGL.m                3875.01:  CASING BOTTOM (LOGGER)
 CSGS.in                  7.63:  CASING SIZE
 CSGW.lbpf               23.50:  CASING WEIGHT
 VSC .                       0:  VS TO CLOSURE
 MAGU.                 1849206:  MAGUTM CHECKSUM
~Parameter Information Block
#MNEM.UNIT       Value        Description
#---------     -----------    ---------------------------
 AV  .mps                 1.90:  Ann Velocity 
 AVMX.mps                 2.54:  Max Ann Veloc 
 AZIF.deg               137.03:  Azm, Final 
 BHAT.        Rotary Steerable:  BHA Type 
 BREV.rev             23610.00:  Rev Bit Total 
 BROT.°/30m               0.80:  Build Rotating 
 BS  .in                  6.50:  Bit Size 
 BTPL.psig              110.00:  Bit Press Loss 
 CABU.                     Yes:  Customer Abuse 
 COMM.                     Ó€:  Run Comments 1 
 TCS .hr                 70.51:  Time Ciculation Ended 
 CV  .mps                 1.41:  Crit Velocity 
 CVMX.mps                 1.42:  Max Crit Veloc 
 DD1 .         Intigam Rahimov:  Direct Drillr 1 
 DD2 .          Rashad Gojayev:  Direct Drillr 2 
 DDSV.               Geo-Pilot:  DD Service 
 DEFF.%                 100.00:  % Det Eff 
 DLRX.°/30m               1.44:  Dogleg Rot Max 
 DLSO.°/30m               0.00:  Dogleg Oriented 
 DLSX.°/30m               0.00:  Dogleg Str Max 
 DRET.      03.05.00 01-Feb-20:  Drill End Time 
 DRST.      15.50.00 28-Jan-20:  Drill Start Tim 
 DTIM.hr                 24.70:  Time Drilling 
 EDEP.m                4047.51:  End Depth 
 ENG1.           Eldar Hajiyev:  Engineer 1 
 ENG2.          Rasim Hashimov:  Engineer 2 
 ENG3.          Rustam Safarov:  Engineer 3 
 ETIM.      22.00.00 01-Feb-20:  End Time 
 FLOI.gpm               370.00:  Flow In 
 FLON.gpm               300.00:  Flow In Min 
 FLOS.cptm                0.00:  Fluid Loss 
 FLOX.gpm               400.00:  Flow In Max 
 FTRO.       Formation Presure:  FTWD Run Obj 
 HFLO.                      No:  High Flow 
 HPRE.                      No:  High Pressure 
 HTEM.                      No:  High Temp 
 HYDO.m                   2.50:  Hydro Offset 
 IFIN.deg                39.54:  Inc, Final 
 IMAX.deg                41.14:  Inc Max 
 IMIN.deg                39.81:  Inc Min 
 IMND.m                4005.21:  Inc Min Depth 
 IMXD.m                3948.42:  Inc Max Depth 
 JARR.                      No:  Jarring 
 LETM.      03.05.00 01-Feb-20:  Log End Time 
 LOST.hr                     0:  Lost Rig Time 
 LSTM.      15.50.00 28-Jan-20:  Log Start Time 
 MDCL.ppm             37500.00:  Mud Chlorides 
 MDES.     Inversion Oil/Synthetic:  Mud Desc 
 DFD .sg                  1.32:  Mud Density 
 MDMN.sg                  1.32:  Dens Mud Min 
 MDMX.sg                  1.32:  Dens Mud Max 
 MOIL.                      55:  Run Mud Oil % 
 MOWR.                   70:30:  Run Mud OWR 
 MSND.                       0:  Run Mud Sand % 
 MSOL.                      17:  Run Mud Solids% 
 DFV .spqt               80.00:  Mud Viscosity 
 MWOD.in                  4.75:  MWD Tool OD 
 MWSI.                      No:  Serv Intrp, MWD 
 OTIM.hr                121.28:  Time Operating 
 PCON.           Look Like New:  Pad Condition 
 PMAX.psia             6171.00:  Press Op, Max 
 PV  .cP                 30.00:  Mud PV 
 RUN .                     300:  Run Number 
 ROPA.m/hr                5.45:  ROP Avg 
 ROPN.m/hr                3.00:  ROP Min 
 ROPX.m/hr               15.00:  ROP Max 
 RPMA.rpm               130.00:  RPM Surface Avg 
 RPMN.rpm                80.00:  RPM Surface Min 
 RPMX.rpm               140.00:  RPM Surface Max 
 RRUN.                     300:  Rig Run Number 
 RTIM.hr                 13.50:  Time Reaming 
 SAZI.deg               133.93:  Azm, Start 
 SDEP.m                3878.01:  Start Depth 
 SIDD.                      No:  Serv Intrp, DD 
 SINC.deg                40.28:  Inc, Start 
 SPPA.psig             4983.00:  SPP Avg 
 SPPN.psig             4370.00:  SPP Min 
 SPPX.psig             5300.00:  SPP Max 
 STIM.      18.33.36 27-Jan-20:  Start Time 
 SVCS.                 DD, MWD:  Services 
 SVER.                    9.20:  Sperry Version 
 TDAT.m                 169.50:  Tot Depth Attmp 
 TDDF.                      No:  Trip for DD 
 TDLG.m                 169.50:  Tot Depth Loggd 
 TFF .                      No:  Trip for Fail 
 TQAA.f-kp               13.25:  Torque Abs Avg 
 TQAN.f-kp               12.00:  Torque Abs Min 
 TQAX.f-kp               14.00:  Torque Abs Max 
 TRRT.°/30m               0.70:  Turn Rotating 
 MRT .                     ADR:  Maximum Recorded Temperature 
 TTMX.degC               92.16:  Max Tool Temp 
 VS01.       AZ90598764G12V7D4:  Virtual Str1 SN 
 VS02.         AZ90571342R12C4:  Virtual Str2 SN 
 VS03.      AZ90580010N2L2X1C4:  Virtual Str3 SN 
 VS04.        AZ90522266O7X1C4:  Virtual Str4 SN 
 VS05.           AZ90598768F11:  Virtual Str5 SN 
 VS06.     AZ90580006XZ1W1X1C4:  Virtual Str6 SN 
 WBMN.klb                 8.00:  WOB Min 
 WITN.            Peter Wilson:  Customer Rep 
 WOBA.klb                 9.88:  WOB Avg 
 WOBX.klb                10.00:  WOB Max 
 YP  .lhf2               27.00:  Yield Point 
~Curve Information Block
#MNEM.UNIT                 API CODE     Curve Description
#---------               -----------    ---------------------------
 TIME.HHMMSS            00 000 000 000:  GT Time & Date
 GTDEPTH.m              00 000 000 000:  GT Depth
 GTPQH.psia             00 000 000 000:  GT HR Quartz Pressure
 GTTQ.degC              00 000 000 000:  GT Quartz Temperature
 GTTN.NONE              00 000 000 000:  GT Test Number
 GTET.sec               00 000 000 000:  GT Elapsed Test Time
 GTTVD.m                00 000 000 000:  GT True Vertical Depth
#Other Information
#
#WARRANTY: Halliburton will use its best efforts to furnish customers with 
#accurate information and interpretations that are part of, and incident to, the services 
#provided.  However, Halliburton cannot and does not warrant the accuracy 
#or correctness of such information and interpretations.  Under no circumstances should any 
#such information or interpretation be relied upon as the sole basis for any drilling, 
#completion, production, or financial decision or any procedure involving any risk to the 
#safety of any drilling venture, drilling rig or its crew or any other third party.  The 
#Customer has full responsibility for all drilling, completion and production operation.  
#Halliburton makes no representations or warranties, either expressed or 
#implied, including, but not limited to, the implied warranties of merchantability or fitness 
#for a particular purpose, with respect to the services rendered.  In no event will 
#Halliburton be liable for failure to obtain any particular results or for 
#any damages, including, but not limited to, indirect, special or consequential damages, 
#resulting from the use of any information or interpretation provided by Halliburton.
#
~A           TIME           GTDEPTH  GTPQH  GTTQ  GTTN  GTET   GTTVD  
# ...
   19:03:49.527.30-Jan-2020 3884.01 2968.72 69.20 1.00 161.04 2925.13
   19:03:49.727.30-Jan-2020 3884.01 2968.72 69.20 1.00 161.24 2925.13
   19:03:49.927.30-Jan-2020 3884.01 2968.69 69.20 1.00 161.44 2925.13
   19:03:50.127.30-Jan-2020 3884.01 2968.64 69.20 1.00 161.64 2925.13
   19:03:50.327.30-Jan-2020 3884.01 2968.77 69.20 1.00 161.84 2925.13
   19:03:50.527.30-Jan-2020 3884.01 2968.33 69.20 1.00 162.04 2925.13
   19:03:50.727.30-Jan-2020 3884.01 2968.33 69.20 1.00 162.24 2925.13
   19:03:50.927.30-Jan-2020 3884.01 2968.77 69.20 1.00 162.44 2925.13
   19:03:51.127.30-Jan-2020 3884.01 2968.75 69.20 1.00 162.64 2925.13
   19:03:51.327.30-Jan-2020 3884.01 2968.72 69.20 1.00 162.84 2925.13
   19:03:51.527.30-Jan-2020 3884.01 2968.73 69.20 1.00 163.04 2925.13
   19:03:51.728.30-Jan-2020 3884.01 2968.73 69.20 1.00 163.24 2925.13
   19:03:51.928.30-Jan-2020 3884.01 2968.72 69.20 1.00 163.44 2925.13
   19:03:52.128.30-Jan-2020 3884.01 2968.72 69.20 1.00 163.64 2925.13
   19:03:52.328.30-Jan-2020 3884.01 2968.70 69.20 1.00 163.84 2925.13
   19:03:52.528.30-Jan-2020 3884.01 2968.73 69.20 1.00 164.04 2925.13
   19:03:52.728.30-Jan-2020 3884.01 2968.73 69.20 1.00 164.24 2925.13
   19:03:52.928.30-Jan-2020 3884.01 2968.68 69.19 1.00 164.44 2925.13
   19:03:53.128.30-Jan-2020 3884.01 2968.74 69.19 1.00 164.64 2925.13
   19:03:53.328.30-Jan-2020 3884.01 2968.78 69.19 1.00 164.84 2925.13
   19:03:53.528.30-Jan-2020 3884.01 2968.76 69.19 1.00 165.04 2925.13
   19:03:53.728.30-Jan-2020 3884.01 2968.76 69.19 1.00 165.24 2925.13
   19:03:53.928.30-Jan-2020 3884.01 2968.88 69.19 1.00 165.44 2925.13
   19:03:54.128.30-Jan-2020 3884.01 2968.74 69.19 1.00 165.64 2925.13
   19:03:54.328.30-Jan-2020 3884.01 2968.73 69.19 1.00 165.84 2925.13
   19:03:54.528.30-Jan-2020 3884.01 2968.72 69.19 1.00 166.04 2925.13
   19:03:54.728.30-Jan-2020 3884.01 2968.72 69.19 1.00 166.24 2925.13
   19:03:54.928.30-Jan-2020 3884.01 2968.97 69.19 1.00 166.44 2925.13
   19:03:55.128.30-Jan-2020 3884.01 2968.77 69.19 1.00 166.64 2925.13
   19:03:55.328.30-Jan-2020 3884.01 2968.78 69.19 1.00 166.84 2925.13
   19:03:55.528.30-Jan-2020 3884.01 2968.70 69.19 1.00 167.04 2925.13
   19:03:55.728.30-Jan-2020 3884.01 2968.70 69.19 1.00 167.24 2925.13
   19:03:55.929.30-Jan-2020 3884.01 2968.77 69.19 1.00 167.44 2925.13
   19:03:56.129.30-Jan-2020 3884.01 2968.43 69.19 1.00 167.64 2925.13
   19:03:56.329.30-Jan-2020 3884.01 2968.83 69.19 1.00 167.84 2925.13
   19:03:56.529.30-Jan-2020 3884.01 2968.80 69.19 1.00 168.04 2925.13
   19:03:56.729.30-Jan-2020 3884.01 2968.80 69.19 1.00 168.24 2925.13
   19:03:56.929.30-Jan-2020 3884.01 2968.77 69.19 1.00 168.44 2925.13
   19:03:57.129.30-Jan-2020 3884.01 2968.44 69.19 1.00 168.64 2925.13
   19:03:57.329.30-Jan-2020 3884.01 2968.87 69.19 1.00 168.84 2925.13
   19:03:57.529.30-Jan-2020 3884.01 2968.80 69.19 1.00 169.04 2925.13
   19:03:57.729.30-Jan-2020 3884.01 2968.80 69.19 1.00 169.24 2925.13
   19:03:57.929.30-Jan-2020 3884.01 2968.80 69.19 1.00 169.44 2925.13
   19:03:58.129.30-Jan-2020 3884.01 2968.31 69.19 1.00 169.64 2925.13
   19:03:58.329.30-Jan-2020 3884.01 2968.94 69.19 1.00 169.84 2925.13
   19:03:58.529.30-Jan-2020 3884.01 2968.79 69.19 1.00 170.04 2925.13
   19:03:58.729.30-Jan-2020 3884.01 2968.79 69.19 1.00 170.24 2925.13
   19:03:58.929.30-Jan-2020 3884.01 2968.82 69.19 1.00 170.44 2925.13
   19:03:59.129.30-Jan-2020 3884.01 2968.74 69.19 1.00 170.64 2925.13
   19:03:59.329.30-Jan-2020 3884.01 2968.70 69.19 1.00 170.84 2925.13
   19:03:59.529.30-Jan-2020 3884.01 2968.71 69.19 1.00 171.04 2925.13
   19:03:59.729.30-Jan-2020 3884.01 2968.71 69.19 1.00 171.24 2925.13
   19:03:59.929.30-Jan-2020 3884.01 2968.80 69.19 1.00 171.44 2925.13
   19:04:00.129.30-Jan-2020 3884.01 2968.74 69.19 1.00 171.64 2925.13
   19:04:00.330.30-Jan-2020 3884.01 2968.69 69.19 1.00 171.84 2925.13
   19:04:00.530.30-Jan-2020 3884.01 2968.73 69.19 1.00 172.04 2925.13
   19:04:00.730.30-Jan-2020 3884.01 2968.73 69.19 1.00 172.24 2925.13
   19:04:00.930.30-Jan-2020 3884.01 2968.78 69.19 1.00 172.44 2925.13
   19:04:01.130.30-Jan-2020 3884.01 2968.75 69.19 1.00 172.64 2925.13
   19:04:01.330.30-Jan-2020 3884.01 2968.70 69.19 1.00 172.84 2925.13
   19:04:01.530.30-Jan-2020 3884.01 2968.74 69.19 1.00 173.04 2925.13
   19:04:01.730.30-Jan-2020 3884.01 2968.74 69.19 1.00 173.24 2925.13
   19:04:01.930.30-Jan-2020 3884.01 2968.44 69.19 1.00 173.44 2925.13
   19:04:02.130.30-Jan-2020 3884.01 2968.87 69.19 1.00 173.64 2925.13
   19:04:02.330.30-Jan-2020 3884.01 2968.79 69.19 1.00 173.84 2925.13
   19:04:02.530.30-Jan-2020 3884.01 2968.73 69.19 1.00 174.04 2925.13
   19:04:02.730.30-Jan-2020 3884.01 2968.73 69.19 1.00 174.24 2925.13
   19:04:02.930.30-Jan-2020 3884.01 2968.76 69.19 1.00 174.44 2925.13
   19:04:03.130.30-Jan-2020 3884.01 2968.75 69.19 1.00 174.64 2925.13
   19:04:03.330.30-Jan-2020 3884.01 2968.76 69.19 1.00 174.84 2925.13
   19:04:03.530.30-Jan-2020 3884.01 2968.72 69.19 1.00 175.04 2925.13
   19:04:03.730.30-Jan-2020 3884.01 2968.72 69.19 1.00 175.24 2925.13
   19:04:03.930.30-Jan-2020 3884.01 2968.79 69.19 1.00 175.44 2925.13
   19:04:04.130.30-Jan-2020 3884.01 2968.74 69.19 1.00 175.64 2925.13
   19:04:04.330.30-Jan-2020 3884.01 2968.74 69.19 1.00 175.84 2925.13
   19:04:04.531.30-Jan-2020 3884.01 2968.75 69.19 1.00 176.04 2925.13
   19:04:04.731.30-Jan-2020 3884.01 2968.75 69.19 1.00 176.24 2925.13
   19:04:04.931.30-Jan-2020 3884.01 2968.85 69.19 1.00 176.44 2925.13
   19:04:05.131.30-Jan-2020 3884.01 2968.35 69.19 1.00 176.64 2925.13
   19:04:05.331.30-Jan-2020 3884.01 2968.89 69.19 1.00 176.84 2925.13
   19:04:05.531.30-Jan-2020 3884.01 2968.77 69.19 1.00 177.04 2925.13
   19:04:05.731.30-Jan-2020 3884.01 2968.77 69.19 1.00 177.24 2925.13
   19:04:05.931.30-Jan-2020 3884.01 2968.85 69.18 1.00 177.44 2925.13
   19:04:06.131.30-Jan-2020 3884.01 2968.40 69.18 1.00 177.64 2925.13
   19:04:06.331.30-Jan-2020 3884.01 2968.93 69.18 1.00 177.84 2925.13
   19:04:06.531.30-Jan-2020 3884.01 2968.80 69.18 1.00 178.04 2925.13
   19:04:06.731.30-Jan-2020 3884.01 2968.80 69.18 1.00 178.24 2925.13
   19:04:06.931.30-Jan-2020 3884.01 2968.75 69.18 1.00 178.44 2925.13
   19:04:07.131.30-Jan-2020 3884.01 2968.77 69.18 1.00 178.64 2925.13
   19:04:07.331.30-Jan-2020 3884.01 2968.51 69.18 1.00 178.84 2925.13
   19:04:07.531.30-Jan-2020 3884.01 2968.78 69.18 1.00 179.04 2925.13
   19:04:07.731.30-Jan-2020 3884.01 2968.78 69.18 1.00 179.24 2925.13
   19:04:07.931.30-Jan-2020 3884.01 2968.86 69.18 1.00 179.44 2925.13
   19:04:08.131.30-Jan-2020 3884.01 2968.81 69.18 1.00 179.64 2925.13
   19:04:08.331.30-Jan-2020 3884.01 2968.50 69.18 1.00 179.84 2925.13
   19:04:08.531.30-Jan-2020 3884.01 2968.79 69.18 1.00 180.04 2925.13
   19:04:08.731.30-Jan-2020 3884.01 2968.79 69.18 1.00 180.24 2925.13
   19:04:08.932.30-Jan-2020 3884.01 2968.82 69.18 1.00 180.44 2925.13
   19:04:09.132.30-Jan-2020 3884.01 2968.78 69.18 1.00 180.64 2925.13
   19:04:09.332.30-Jan-2020 3884.01 2968.78 69.18 1.00 180.84 2925.13
   19:04:09.532.30-Jan-2020 3884.01 2968.44 69.18 1.00 181.04 2925.13
   19:04:09.732.30-Jan-2020 3884.01 2968.44 69.18 1.00 181.24 2925.13
   19:04:09.932.30-Jan-2020 3884.01 2968.80 69.18 1.00 181.44 2925.13
   19:04:10.132.30-Jan-2020 3884.01 2968.83 69.18 1.00 181.64 2925.13
   19:04:10.332.30-Jan-2020 3884.01 2968.85 69.18 1.00 181.84 2925.13
   19:04:10.532.30-Jan-2020 3884.01 2968.73 69.18 1.00 182.04 2925.13
   19:04:10.732.30-Jan-2020 3884.01 2968.73 69.18 1.00 182.24 2925.13
   19:04:10.932.30-Jan-2020 3884.01 2968.74 69.18 1.00 182.44 2925.13
   19:04:11.132.30-Jan-2020 3884.01 2968.77 69.18 1.00 182.64 2925.13
   19:04:11.332.30-Jan-2020 3884.01 2968.82 69.18 1.00 182.84 2925.13
   19:04:11.532.30-Jan-2020 3884.01 2968.73 69.18 1.00 183.04 2925.13
   19:04:11.732.30-Jan-2020 3884.01 2968.73 69.18 1.00 183.24 2925.13
   19:04:11.932.30-Jan-2020 3884.01 2968.76 69.18 1.00 183.44 2925.13
   19:04:12.132.30-Jan-2020 3884.01 2968.75 69.18 1.00 183.64 2925.13
   19:04:12.332.30-Jan-2020 3884.01 2968.82 69.18 1.00 183.84 2925.13
