~Version Information
 VERS.                  2.0:   CWLS log ASCII Standard -VERSION 2.0
 WRAP.                   NO:   One line per depth step
~Well Information Block
#MNEM.UNIT     VALUE/NAME     DESCRIPTION
#---------     -----------    ---------------------------
 STRT.S             01:28:25 01-Feb-20: START TIME 01:28:25 01-Feb-20
 STOP.S             01:36:19 01-Feb-20: STOP TIME  01:36:19 01-Feb-20
 STEP.S                   0.00: STEP TIME
 NULL.                 -999.25: NULL VALUE
 DFWT.                        :  DIST FWL TEXT
 DFST.                        :  DIST FSL TEXT
 DMF .             Drill Floor:  DRILL MEAS FROM
 STIM.      09.30.00 26-Dec-19:  START TIME
 DATE.      08.00.00 20-Jan-20:  END TIME
 SPUD.               23-Nov-19:  SPUD DATE
 NREF.                    Grid:  NORTH REFERENCE
 HPTY.       Minimum Curvature:  HOLE POS TYPE
 DMOD.             Drill Model:  DRILL MOD DESC
 SVYD.                  Survey:  SURVEY DESC
 ILTD.               Lithology:  INTERP LTH DESC
 FTOP.          Formation Tops:  FORM TOPS DESC
 SON .        AZ-XX-0906192647:  JOB NUMBER
 WTYP.                Deviated:  WELL TYPE
 COMP.     BP Exploration (Caspian Sea) Ltd:  COMPANY
 BASE.              Azerbaijan:  LOGGING EQUIPMENT BASE LOCATION
 REGN.                 Eurasia:  REGION
 FLD .                     ACG:  FIELD NAME
 SRVC.              KCA Deutag:  CONTRACTOR
 MWDS.                    Baku:  MWD SHOP
 WELL.     A10 (Slot 20) - SCP:  WELL NAME
 JOBN.        AZ-XX-0906192647:  JOB TICKET NUMB
 RIG .                 Chirag1:  RIG NAME
 DCON.     Halliburton Sperry Drilling:  DIRECTNL CONTR
 UNIT.                     N/A:  LOGGING EQUIPMENT ID
 PDAT.          Mean Sea Level:  PERMANENT DATUM
 MDS .        Operator Entered:  MAG DATA SOURCE
 CTRY.              Azerbaijan:  COUNTRY NAME
 UWI .            /AZE00000090:  UNIQUE WELL IDENTIFIER
 API .            /AZE00000090:  API NUMBER
 CNTY.                        :  COUNTY
 PROV.                        :  PROVINCE
 STAT.                        :  STATE
 LOC .                        :  LOCATION
 LMF .             Drill Floor:  LOG MEASURED FROM
 TVDS.m                  36.60:  TVDSS CORRECTN
 LATI.deg                40.08:  LATITUDE
 LONG.deg                51.24:  LONGITUDE
 WHNS.m                  -7.94:  WELL HEAD N/S
 WHEW.m                   1.56:  WELL HEAD E/W
 UTMX.m              520429.26:  UTM X
 UTMY.m             4438973.87:  UTM Y
 DFWL.m                   0.00:  DISTANCE FWL
 DFSL.m                   0.00:  DISTANCE FSL
 SDEP.m                1455.00:  START DEPTH
 TDD .m                4047.51:  TOTAL DEPTH (DRILLER)
 VSDR.deg               112.75:  VERT SEC DIRECT
 GVFD.g                   1.00:  GRAVITY FIELD
 MFLD.nT              50261.00:  MAGNETIC FIELD
 MDIP.deg                59.52:  MAGNETIC DIP
 MDEC.deg                 6.42:  MAGNETIC DECL
 GRDC.deg                 0.17:  GRID CORRECTION
 AZTC.deg                 6.25:  AZM TOTAL CORR
 EPD .m                   0.00:  ELEVATION
 EGL .m                   0.00:  GROUND ELEVATION
 WDMS.m                 121.00:  WD ELEV
 APD .m                  36.60:  DEPTH ABOVE PD
 AGAP.m                  36.60:  AIR GAP
 VSEW.m                   1.56:  VERT SEC E/W
 VSNS.m                  -7.94:  VERT SEC N/S
 DEP .m                1140.01:  DEPTH
 EKB .m                  36.60:  KB ELEVATION
 EDF .m                  36.60:  DF ELEVATION
 TDL .m                 169.50:  TOTAL DEPTH (LOGGER)
 CSGD.m                3875.01:  CASING BOTTOM (DRILLER)
 CSGL.m                3875.01:  CASING BOTTOM (LOGGER)
 CSGS.in                  7.63:  CASING SIZE
 CSGW.lbpf               23.50:  CASING WEIGHT
 VSC .                       0:  VS TO CLOSURE
 MAGU.                 1849206:  MAGUTM CHECKSUM
~Parameter Information Block
#MNEM.UNIT       Value        Description
#---------     -----------    ---------------------------
 AV  .mps                 1.90:  Ann Velocity 
 AVMX.mps                 2.54:  Max Ann Veloc 
 AZIF.deg               137.03:  Azm, Final 
 BHAT.        Rotary Steerable:  BHA Type 
 BREV.rev             23610.00:  Rev Bit Total 
 BROT.°/30m               0.80:  Build Rotating 
 BS  .in                  6.50:  Bit Size 
 BTPL.psig              110.00:  Bit Press Loss 
 CABU.                     Yes:  Customer Abuse 
 COMM.                     ì…†:  Run Comments 1 
 TCS .hr                 70.51:  Time Ciculation Ended 
 CV  .mps                 1.41:  Crit Velocity 
 CVMX.mps                 1.42:  Max Crit Veloc 
 DD1 .         Intigam Rahimov:  Direct Drillr 1 
 DD2 .          Rashad Gojayev:  Direct Drillr 2 
 DDSV.               Geo-Pilot:  DD Service 
 DEFF.%                 100.00:  % Det Eff 
 DLRX.°/30m               1.44:  Dogleg Rot Max 
 DLSO.°/30m               0.00:  Dogleg Oriented 
 DLSX.°/30m               0.00:  Dogleg Str Max 
 DRET.      03.05.00 01-Feb-20:  Drill End Time 
 DRST.      15.50.00 28-Jan-20:  Drill Start Tim 
 DTIM.hr                 24.70:  Time Drilling 
 EDEP.m                4047.51:  End Depth 
 ENG1.           Eldar Hajiyev:  Engineer 1 
 ENG2.          Rasim Hashimov:  Engineer 2 
 ENG3.          Rustam Safarov:  Engineer 3 
 ETIM.      22.00.00 01-Feb-20:  End Time 
 FLOI.gpm               370.00:  Flow In 
 FLON.gpm               300.00:  Flow In Min 
 FLOS.cptm                0.00:  Fluid Loss 
 FLOX.gpm               400.00:  Flow In Max 
 FTRO.       Formation Presure:  FTWD Run Obj 
 HFLO.                      No:  High Flow 
 HPRE.                      No:  High Pressure 
 HTEM.                      No:  High Temp 
 HYDO.m                   2.50:  Hydro Offset 
 IFIN.deg                39.54:  Inc, Final 
 IMAX.deg                41.14:  Inc Max 
 IMIN.deg                39.81:  Inc Min 
 IMND.m                4005.21:  Inc Min Depth 
 IMXD.m                3948.42:  Inc Max Depth 
 JARR.                      No:  Jarring 
 LETM.      03.05.00 01-Feb-20:  Log End Time 
 LOST.hr                     0:  Lost Rig Time 
 LSTM.      15.50.00 28-Jan-20:  Log Start Time 
 MDCL.ppm             37500.00:  Mud Chlorides 
 MDES.     Inversion Oil/Synthetic:  Mud Desc 
 DFD .sg                  1.32:  Mud Density 
 MDMN.sg                  1.32:  Dens Mud Min 
 MDMX.sg                  1.32:  Dens Mud Max 
 MOIL.                      55:  Run Mud Oil % 
 MOWR.                   70:30:  Run Mud OWR 
 MSND.                       0:  Run Mud Sand % 
 MSOL.                      17:  Run Mud Solids% 
 DFV .spqt               80.00:  Mud Viscosity 
 MWOD.in                  4.75:  MWD Tool OD 
 MWSI.                      No:  Serv Intrp, MWD 
 OTIM.hr                121.28:  Time Operating 
 PCON.           Look Like New:  Pad Condition 
 PMAX.psia             6171.00:  Press Op, Max 
 PV  .cP                 30.00:  Mud PV 
 RUN .                     300:  Run Number 
 ROPA.m/hr                5.45:  ROP Avg 
 ROPN.m/hr                3.00:  ROP Min 
 ROPX.m/hr               15.00:  ROP Max 
 RPMA.rpm               130.00:  RPM Surface Avg 
 RPMN.rpm                80.00:  RPM Surface Min 
 RPMX.rpm               140.00:  RPM Surface Max 
 RRUN.                     300:  Rig Run Number 
 RTIM.hr                 13.50:  Time Reaming 
 SAZI.deg               133.93:  Azm, Start 
 SDEP.m                3878.01:  Start Depth 
 SIDD.                      No:  Serv Intrp, DD 
 SINC.deg                40.28:  Inc, Start 
 SPPA.psig             4983.00:  SPP Avg 
 SPPN.psig             4370.00:  SPP Min 
 SPPX.psig             5300.00:  SPP Max 
 STIM.      18.33.36 27-Jan-20:  Start Time 
 SVCS.                 DD, MWD:  Services 
 SVER.                    9.20:  Sperry Version 
 TDAT.m                 169.50:  Tot Depth Attmp 
 TDDF.                      No:  Trip for DD 
 TDLG.m                 169.50:  Tot Depth Loggd 
 TFF .                      No:  Trip for Fail 
 TQAA.f-kp               13.25:  Torque Abs Avg 
 TQAN.f-kp               12.00:  Torque Abs Min 
 TQAX.f-kp               14.00:  Torque Abs Max 
 TRRT.°/30m               0.70:  Turn Rotating 
 MRT .                     ADR:  Maximum Recorded Temperature 
 TTMX.degC               92.16:  Max Tool Temp 
 VS01.       AZ90598764G12V7D4:  Virtual Str1 SN 
 VS02.         AZ90571342R12C4:  Virtual Str2 SN 
 VS03.      AZ90580010N2L2X1C4:  Virtual Str3 SN 
 VS04.        AZ90522266O7X1C4:  Virtual Str4 SN 
 VS05.           AZ90598768F11:  Virtual Str5 SN 
 VS06.     AZ90580006XZ1W1X1C4:  Virtual Str6 SN 
 WBMN.klb                 8.00:  WOB Min 
 WITN.            Peter Wilson:  Customer Rep 
 WOBA.klb                 9.88:  WOB Avg 
 WOBX.klb                10.00:  WOB Max 
 YP  .lhf2               27.00:  Yield Point 
~Curve Information Block
#MNEM.UNIT                 API CODE     Curve Description
#---------               -----------    ---------------------------
 TIME.HHMMSS            00 000 000 000:  GT Time & Date
 GTDEPTH.m              00 000 000 000:  GT Depth
 GTPQH.psia             00 000 000 000:  GT HR Quartz Pressure
 GTTQ.degC              00 000 000 000:  GT Quartz Temperature
 GTTN.NONE              00 000 000 000:  GT Test Number
 GTET.sec               00 000 000 000:  GT Elapsed Test Time
 GTTVD.m                00 000 000 000:  GT True Vertical Depth
#Other Information
#
#WARRANTY: Halliburton will use its best efforts to furnish customers with 
#accurate information and interpretations that are part of, and incident to, the services 
#provided.  However, Halliburton cannot and does not warrant the accuracy 
#or correctness of such information and interpretations.  Under no circumstances should any 
#such information or interpretation be relied upon as the sole basis for any drilling, 
#completion, production, or financial decision or any procedure involving any risk to the 
#safety of any drilling venture, drilling rig or its crew or any other third party.  The 
#Customer has full responsibility for all drilling, completion and production operation.  
#Halliburton makes no representations or warranties, either expressed or 
#implied, including, but not limited to, the implied warranties of merchantability or fitness 
#for a particular purpose, with respect to the services rendered.  In no event will 
#Halliburton be liable for failure to obtain any particular results or for 
#any damages, including, but not limited to, indirect, special or consequential damages, 
#resulting from the use of any information or interpretation provided by Halliburton.
#
~A           TIME           GTDEPTH  GTPQH  GTTQ  GTTN   GTET   GTTVD  
   01:28:25.024.01-Feb-2020 3990.12 6010.98 85.23 11.00   0.00 3005.35
   01:28:25.225.01-Feb-2020 3990.12 6010.98 85.23 11.00   0.20 3005.35
   01:28:25.425.01-Feb-2020 3990.12 6006.34 85.22 11.00   0.40 3005.35
   01:28:25.626.01-Feb-2020 3990.12 6003.39 85.22 11.00   0.60 3005.35
   01:28:25.827.01-Feb-2020 3990.12 6004.54 85.22 11.00   0.80 3005.35
   01:28:26.028.01-Feb-2020 3990.12 6005.83 85.22 11.00   1.00 3005.35
   01:28:26.228.01-Feb-2020 3990.12 6005.83 85.22 11.00   1.20 3005.35
   01:28:26.429.01-Feb-2020 3990.12 6000.85 85.22 11.00   1.40 3005.35
   01:28:26.630.01-Feb-2020 3990.12 6005.34 85.22 11.00   1.61 3005.35
   01:28:26.830.01-Feb-2020 3990.12 6004.93 85.22 11.00   1.81 3005.35
   01:28:27.031.01-Feb-2020 3990.12 6007.83 85.22 11.00   2.01 3005.35
   01:28:27.232.01-Feb-2020 3990.12 6007.83 85.22 11.00   2.21 3005.35
   01:28:27.432.01-Feb-2020 3990.12 6003.24 85.22 11.00   2.41 3005.35
   01:28:27.633.01-Feb-2020 3990.12 6009.55 85.22 11.00   2.61 3005.35
   01:28:27.834.01-Feb-2020 3990.12 6009.60 85.22 11.00   2.81 3005.35
   01:28:28.035.01-Feb-2020 3990.12 6010.35 85.22 11.00   3.01 3005.35
   01:28:28.235.01-Feb-2020 3990.12 6010.35 85.22 11.00   3.21 3005.35
   01:28:28.436.01-Feb-2020 3990.12 6010.35 85.22 11.00   3.41 3005.35
   01:28:28.637.01-Feb-2020 3990.12 6013.30 85.21 11.00   3.61 3005.35
   01:28:28.837.01-Feb-2020 3990.12 6013.28 85.21 11.00   3.81 3005.35
   01:28:29.038.01-Feb-2020 3990.12 6013.64 85.21 11.00   4.01 3005.35
   01:28:29.239.01-Feb-2020 3990.12 6013.64 85.21 11.00   4.21 3005.35
   01:28:29.440.01-Feb-2020 3990.12 6014.99 85.21 11.00   4.42 3005.35
   01:28:29.640.01-Feb-2020 3990.12 6014.64 85.21 11.00   4.62 3005.35
   01:28:29.841.01-Feb-2020 3990.12 6015.15 85.21 11.00   4.82 3005.35
   01:28:30.042.01-Feb-2020 3990.12 6015.26 85.21 11.00   5.02 3005.35
   01:28:30.242.01-Feb-2020 3990.12 6015.26 85.21 11.00   5.22 3005.35
   01:28:30.443.01-Feb-2020 3990.12 6015.47 85.21 11.00   5.42 3005.35
   01:28:30.644.01-Feb-2020 3990.12 6014.51 85.21 11.00   5.62 3005.35
   01:28:30.844.01-Feb-2020 3990.12 6012.60 85.21 11.00   5.82 3005.35
   01:28:31.045.01-Feb-2020 3990.12 6012.43 85.21 11.00   6.02 3005.35
   01:28:31.246.01-Feb-2020 3990.12 6012.43 85.21 11.00   6.22 3005.35
   01:28:31.447.01-Feb-2020 3990.12 6010.53 85.21 11.00   6.42 3005.35
   01:28:31.647.01-Feb-2020 3990.12 6010.68 85.20 11.00   6.62 3005.35
   01:28:31.848.01-Feb-2020 3990.12 6008.40 85.20 11.00   6.82 3005.35
   01:28:32.049.01-Feb-2020 3990.12 6002.99 85.20 11.00   7.02 3005.35
   01:28:32.249.01-Feb-2020 3990.12 6002.99 85.20 11.00   7.23 3005.35
   01:28:32.450.01-Feb-2020 3990.12 6005.69 85.20 11.00   7.43 3005.35
   01:28:32.651.01-Feb-2020 3990.12 6008.00 85.20 11.00   7.63 3005.35
   01:28:32.851.01-Feb-2020 3990.12 6007.04 85.20 11.00   7.83 3005.35
   01:28:33.052.01-Feb-2020 3990.12 6007.14 85.20 11.00   8.03 3005.35
   01:28:33.253.01-Feb-2020 3990.12 6007.14 85.20 11.00   8.23 3005.35
   01:28:33.454.01-Feb-2020 3990.12 6007.81 85.20 11.00   8.43 3005.35
   01:28:33.654.01-Feb-2020 3990.12 6009.26 85.20 11.00   8.63 3005.35
   01:28:33.855.01-Feb-2020 3990.12 6010.87 85.20 11.00   8.83 3005.35
   01:28:34.056.01-Feb-2020 3990.12 6010.40 85.20 11.00   9.03 3005.35
   01:28:34.256.01-Feb-2020 3990.12 6010.40 85.20 11.00   9.23 3005.35
   01:28:34.457.01-Feb-2020 3990.12 6012.91 85.20 11.00   9.43 3005.35
   01:28:34.658.01-Feb-2020 3990.12 6012.46 85.20 11.00   9.63 3005.35
   01:28:34.858.01-Feb-2020 3990.12 6013.60 85.19 11.00   9.83 3005.35
   01:28:35.059.01-Feb-2020 3990.12 6014.13 85.19 11.00  10.04 3005.35
   01:28:35.260.01-Feb-2020 3990.12 6014.13 85.19 11.00  10.24 3005.35
   01:28:35.461.01-Feb-2020 3990.12 6014.57 85.19 11.00  10.44 3005.35
   01:28:35.661.01-Feb-2020 3990.12 6010.80 85.19 11.00  10.64 3005.35
   01:28:35.862.01-Feb-2020 3990.12 6012.19 85.19 11.00  10.84 3005.35
   01:28:36.063.01-Feb-2020 3990.12 6015.13 85.19 11.00  11.04 3005.35
   01:28:36.263.01-Feb-2020 3990.12 6015.13 85.19 11.00  11.24 3005.35
   01:28:36.464.01-Feb-2020 3990.12 6015.09 85.19 11.00  11.44 3005.35
   01:28:36.665.01-Feb-2020 3990.12 6013.42 85.19 11.00  11.64 3005.35
   01:28:36.865.01-Feb-2020 3990.12 6009.91 85.19 11.00  11.84 3005.35
   01:28:37.066.01-Feb-2020 3990.12 6012.79 85.19 11.00  12.04 3005.35
   01:28:37.267.01-Feb-2020 3990.12 6012.79 85.19 11.00  12.24 3005.35
   01:28:37.468.01-Feb-2020 3990.12 6013.15 85.19 11.00  12.44 3005.35
   01:28:37.668.01-Feb-2020 3990.12 6014.95 85.19 11.00  12.64 3005.35
   01:28:37.869.01-Feb-2020 3990.12 6013.08 85.19 11.00  12.84 3005.35
   01:28:38.070.01-Feb-2020 3990.12 6008.06 85.19 11.00  13.05 3005.35
   01:28:38.270.01-Feb-2020 3990.12 6008.06 85.19 11.00  13.25 3005.35
   01:28:38.471.01-Feb-2020 3990.12 6011.13 85.18 11.00  13.45 3005.35
   01:28:38.672.01-Feb-2020 3990.12 6013.75 85.18 11.00  13.65 3005.35
   01:28:38.872.01-Feb-2020 3990.12 6013.84 85.18 11.00  13.85 3005.35
   01:28:39.073.01-Feb-2020 3990.12 6012.42 85.18 11.00  14.05 3005.35
   01:28:39.274.01-Feb-2020 3990.12 6012.42 85.18 11.00  14.25 3005.35
   01:28:39.475.01-Feb-2020 3990.12 6010.64 85.18 11.00  14.45 3005.35
   01:28:39.675.01-Feb-2020 3990.12 6011.23 85.18 11.00  14.65 3005.35
   01:28:39.876.01-Feb-2020 3990.12 6014.66 85.18 11.00  14.85 3005.35
   01:28:40.077.01-Feb-2020 3990.12 6007.42 85.18 11.00  15.05 3005.35
   01:28:40.277.01-Feb-2020 3990.12 6007.42 85.18 11.00  15.25 3005.35
   01:28:40.478.01-Feb-2020 3990.12 6013.43 85.18 11.00  15.45 3005.35
   01:28:40.679.01-Feb-2020 3990.12 6013.27 85.18 11.00  15.65 3005.35
   01:28:40.880.01-Feb-2020 3990.12 6015.21 85.18 11.00  15.86 3005.35
   01:28:41.080.01-Feb-2020 3990.12 6016.76 85.18 11.00  16.06 3005.35
   01:28:41.281.01-Feb-2020 3990.12 6016.76 85.18 11.00  16.26 3005.35
   01:28:41.482.01-Feb-2020 3990.12 6012.00 85.17 11.00  16.46 3005.35
   01:28:41.682.01-Feb-2020 3990.12 6032.52 85.17 11.00  16.66 3005.35
   01:28:41.883.01-Feb-2020 3990.12 6091.57 85.17 11.00  16.86 3005.35
   01:28:42.084.01-Feb-2020 3990.12 6113.77 85.17 11.00  17.06 3005.35
   01:28:42.284.01-Feb-2020 3990.12 6113.77 85.17 11.00  17.26 3005.35
   01:28:42.485.01-Feb-2020 3990.12 6181.13 85.17 11.00  17.46 3005.35
   01:28:42.686.01-Feb-2020 3990.12 6223.54 85.17 11.00  17.66 3005.35
   01:28:42.887.01-Feb-2020 3990.12 6271.33 85.17 11.00  17.86 3005.35
   01:28:43.087.01-Feb-2020 3990.12 6318.73 85.17 11.00  18.06 3005.35
   01:28:43.288.01-Feb-2020 3990.12 6318.73 85.17 11.00  18.26 3005.35
   01:28:43.489.01-Feb-2020 3990.12 6391.62 85.17 11.00  18.46 3005.35
   01:28:43.689.01-Feb-2020 3990.12 6558.78 85.17 11.00  18.67 3005.35
   01:28:43.890.01-Feb-2020 3990.12 6736.13 85.17 11.00  18.87 3005.35
   01:28:44.091.01-Feb-2020 3990.12 6874.73 85.17 11.00  19.07 3005.35
   01:28:44.291.01-Feb-2020 3990.12 6874.73 85.17 11.00  19.27 3005.35
   01:28:44.492.01-Feb-2020 3990.12 6920.32 85.17 11.00  19.47 3005.35
   01:28:44.693.01-Feb-2020 3990.12 6905.61 85.16 11.00  19.67 3005.35
   01:28:44.894.01-Feb-2020 3990.12 6939.87 85.16 11.00  19.87 3005.35
   01:28:45.094.01-Feb-2020 3990.12 6971.48 85.16 11.00  20.07 3005.35
   01:28:45.295.01-Feb-2020 3990.12 6971.48 85.16 11.00  20.27 3005.35
   01:28:45.496.01-Feb-2020 3990.12 7034.39 85.16 11.00  20.47 3005.35
   01:28:45.696.01-Feb-2020 3990.12 6901.86 85.16 11.00  20.67 3005.35
   01:28:45.897.01-Feb-2020 3990.12 6864.55 85.16 11.00  20.87 3005.35
   01:28:46.098.01-Feb-2020 3990.12 6900.26 85.16 11.00  21.07 3005.35
   01:28:46.298.01-Feb-2020 3990.12 6900.26 85.16 11.00  21.27 3005.35
   01:28:46.499.01-Feb-2020 3990.12 6959.77 85.16 11.00  21.48 3005.35
   01:28:46.700.01-Feb-2020 3990.12 6980.76 85.16 11.00  21.68 3005.35
   01:28:46.901.01-Feb-2020 3990.12 6862.19 85.16 11.00  21.88 3005.35
   01:28:47.101.01-Feb-2020 3990.12 6826.92 85.16 11.00  22.08 3005.35
   01:28:47.302.01-Feb-2020 3990.12 6826.92 85.16 11.00  22.28 3005.35
   01:28:47.503.01-Feb-2020 3990.12 6899.65 85.16 11.00  22.48 3005.35
