~Version Information
 VERS.                  2.0:   CWLS log ASCII Standard -VERSION 2.0
 WRAP.                   NO:   One line per depth step
~Well Information Block
#MNEM.UNIT     VALUE/NAME     DESCRIPTION
#---------     -----------    ---------------------------
 STRT.S             06:25:21 31-Jan-20: START TIME 06:25:21 31-Jan-20
 STOP.S             06:31:52 31-Jan-20: STOP TIME  06:31:52 31-Jan-20
 STEP.S                   0.00: STEP TIME
 NULL.                 -999.25: NULL VALUE
 DFWT.                        :  DIST FWL TEXT
 DFST.                        :  DIST FSL TEXT
 DMF .             Drill Floor:  DRILL MEAS FROM
 STIM.      09.30.00 26-Dec-19:  START TIME
 DATE.      08.00.00 20-Jan-20:  END TIME
 SPUD.               23-Nov-19:  SPUD DATE
 NREF.                    Grid:  NORTH REFERENCE
 HPTY.       Minimum Curvature:  HOLE POS TYPE
 DMOD.             Drill Model:  DRILL MOD DESC
 SVYD.                  Survey:  SURVEY DESC
 ILTD.               Lithology:  INTERP LTH DESC
 FTOP.          Formation Tops:  FORM TOPS DESC
 SON .        AZ-XX-0906192647:  JOB NUMBER
 WTYP.                Deviated:  WELL TYPE
 COMP.     BP Exploration (Caspian Sea) Ltd:  COMPANY
 BASE.              Azerbaijan:  LOGGING EQUIPMENT BASE LOCATION
 REGN.                 Eurasia:  REGION
 FLD .                     ACG:  FIELD NAME
 SRVC.              KCA Deutag:  CONTRACTOR
 MWDS.                    Baku:  MWD SHOP
 WELL.     A10 (Slot 20) - SCP:  WELL NAME
 JOBN.        AZ-XX-0906192647:  JOB TICKET NUMB
 RIG .                 Chirag1:  RIG NAME
 DCON.     Halliburton Sperry Drilling:  DIRECTNL CONTR
 UNIT.                     N/A:  LOGGING EQUIPMENT ID
 PDAT.          Mean Sea Level:  PERMANENT DATUM
 MDS .        Operator Entered:  MAG DATA SOURCE
 CTRY.              Azerbaijan:  COUNTRY NAME
 UWI .            /AZE00000090:  UNIQUE WELL IDENTIFIER
 API .            /AZE00000090:  API NUMBER
 CNTY.                        :  COUNTY
 PROV.                        :  PROVINCE
 STAT.                        :  STATE
 LOC .                        :  LOCATION
 LMF .             Drill Floor:  LOG MEASURED FROM
 TVDS.m                  36.60:  TVDSS CORRECTN
 LATI.deg                40.08:  LATITUDE
 LONG.deg                51.24:  LONGITUDE
 WHNS.m                  -7.94:  WELL HEAD N/S
 WHEW.m                   1.56:  WELL HEAD E/W
 UTMX.m              520429.26:  UTM X
 UTMY.m             4438973.87:  UTM Y
 DFWL.m                   0.00:  DISTANCE FWL
 DFSL.m                   0.00:  DISTANCE FSL
 SDEP.m                1455.00:  START DEPTH
 TDD .m                4047.51:  TOTAL DEPTH (DRILLER)
 VSDR.deg               112.75:  VERT SEC DIRECT
 GVFD.g                   1.00:  GRAVITY FIELD
 MFLD.nT              50261.00:  MAGNETIC FIELD
 MDIP.deg                59.52:  MAGNETIC DIP
 MDEC.deg                 6.42:  MAGNETIC DECL
 GRDC.deg                 0.17:  GRID CORRECTION
 AZTC.deg                 6.25:  AZM TOTAL CORR
 EPD .m                   0.00:  ELEVATION
 EGL .m                   0.00:  GROUND ELEVATION
 WDMS.m                 121.00:  WD ELEV
 APD .m                  36.60:  DEPTH ABOVE PD
 AGAP.m                  36.60:  AIR GAP
 VSEW.m                   1.56:  VERT SEC E/W
 VSNS.m                  -7.94:  VERT SEC N/S
 DEP .m                1140.01:  DEPTH
 EKB .m                  36.60:  KB ELEVATION
 EDF .m                  36.60:  DF ELEVATION
 TDL .m                 169.50:  TOTAL DEPTH (LOGGER)
 CSGD.m                3875.01:  CASING BOTTOM (DRILLER)
 CSGL.m                3875.01:  CASING BOTTOM (LOGGER)
 CSGS.in                  7.63:  CASING SIZE
 CSGW.lbpf               23.50:  CASING WEIGHT
 VSC .                       0:  VS TO CLOSURE
 MAGU.                 1849206:  MAGUTM CHECKSUM
~Parameter Information Block
#MNEM.UNIT       Value        Description
#---------     -----------    ---------------------------
 AV  .mps                 1.90:  Ann Velocity 
 AVMX.mps                 2.54:  Max Ann Veloc 
 AZIF.deg               137.03:  Azm, Final 
 BHAT.        Rotary Steerable:  BHA Type 
 BREV.rev             23610.00:  Rev Bit Total 
 BROT.°/30m               0.80:  Build Rotating 
 BS  .in                  6.50:  Bit Size 
 BTPL.psig              110.00:  Bit Press Loss 
 CABU.                     Yes:  Customer Abuse 
 COMM.                     Ð„:  Run Comments 1 
 TCS .hr                 70.51:  Time Ciculation Ended 
 CV  .mps                 1.41:  Crit Velocity 
 CVMX.mps                 1.42:  Max Crit Veloc 
 DD1 .         Intigam Rahimov:  Direct Drillr 1 
 DD2 .          Rashad Gojayev:  Direct Drillr 2 
 DDSV.               Geo-Pilot:  DD Service 
 DEFF.%                 100.00:  % Det Eff 
 DLRX.°/30m               1.44:  Dogleg Rot Max 
 DLSO.°/30m               0.00:  Dogleg Oriented 
 DLSX.°/30m               0.00:  Dogleg Str Max 
 DRET.      03.05.00 01-Feb-20:  Drill End Time 
 DRST.      15.50.00 28-Jan-20:  Drill Start Tim 
 DTIM.hr                 24.70:  Time Drilling 
 EDEP.m                4047.51:  End Depth 
 ENG1.           Eldar Hajiyev:  Engineer 1 
 ENG2.          Rasim Hashimov:  Engineer 2 
 ENG3.          Rustam Safarov:  Engineer 3 
 ETIM.      22.00.00 01-Feb-20:  End Time 
 FLOI.gpm               370.00:  Flow In 
 FLON.gpm               300.00:  Flow In Min 
 FLOS.cptm                0.00:  Fluid Loss 
 FLOX.gpm               400.00:  Flow In Max 
 FTRO.       Formation Presure:  FTWD Run Obj 
 HFLO.                      No:  High Flow 
 HPRE.                      No:  High Pressure 
 HTEM.                      No:  High Temp 
 HYDO.m                   2.50:  Hydro Offset 
 IFIN.deg                39.54:  Inc, Final 
 IMAX.deg                41.14:  Inc Max 
 IMIN.deg                39.81:  Inc Min 
 IMND.m                4005.21:  Inc Min Depth 
 IMXD.m                3948.42:  Inc Max Depth 
 JARR.                      No:  Jarring 
 LETM.      03.05.00 01-Feb-20:  Log End Time 
 LOST.hr                     0:  Lost Rig Time 
 LSTM.      15.50.00 28-Jan-20:  Log Start Time 
 MDCL.ppm             37500.00:  Mud Chlorides 
 MDES.     Inversion Oil/Synthetic:  Mud Desc 
 DFD .sg                  1.32:  Mud Density 
 MDMN.sg                  1.32:  Dens Mud Min 
 MDMX.sg                  1.32:  Dens Mud Max 
 MOIL.                      55:  Run Mud Oil % 
 MOWR.                   70:30:  Run Mud OWR 
 MSND.                       0:  Run Mud Sand % 
 MSOL.                      17:  Run Mud Solids% 
 DFV .spqt               80.00:  Mud Viscosity 
 MWOD.in                  4.75:  MWD Tool OD 
 MWSI.                      No:  Serv Intrp, MWD 
 OTIM.hr                121.28:  Time Operating 
 PCON.           Look Like New:  Pad Condition 
 PMAX.psia             6171.00:  Press Op, Max 
 PV  .cP                 30.00:  Mud PV 
 RUN .                     300:  Run Number 
 ROPA.m/hr                5.45:  ROP Avg 
 ROPN.m/hr                3.00:  ROP Min 
 ROPX.m/hr               15.00:  ROP Max 
 RPMA.rpm               130.00:  RPM Surface Avg 
 RPMN.rpm                80.00:  RPM Surface Min 
 RPMX.rpm               140.00:  RPM Surface Max 
 RRUN.                     300:  Rig Run Number 
 RTIM.hr                 13.50:  Time Reaming 
 SAZI.deg               133.93:  Azm, Start 
 SDEP.m                3878.01:  Start Depth 
 SIDD.                      No:  Serv Intrp, DD 
 SINC.deg                40.28:  Inc, Start 
 SPPA.psig             4983.00:  SPP Avg 
 SPPN.psig             4370.00:  SPP Min 
 SPPX.psig             5300.00:  SPP Max 
 STIM.      18.33.36 27-Jan-20:  Start Time 
 SVCS.                 DD, MWD:  Services 
 SVER.                    9.20:  Sperry Version 
 TDAT.m                 169.50:  Tot Depth Attmp 
 TDDF.                      No:  Trip for DD 
 TDLG.m                 169.50:  Tot Depth Loggd 
 TFF .                      No:  Trip for Fail 
 TQAA.f-kp               13.25:  Torque Abs Avg 
 TQAN.f-kp               12.00:  Torque Abs Min 
 TQAX.f-kp               14.00:  Torque Abs Max 
 TRRT.°/30m               0.70:  Turn Rotating 
 MRT .                     ADR:  Maximum Recorded Temperature 
 TTMX.degC               92.16:  Max Tool Temp 
 VS01.       AZ90598764G12V7D4:  Virtual Str1 SN 
 VS02.         AZ90571342R12C4:  Virtual Str2 SN 
 VS03.      AZ90580010N2L2X1C4:  Virtual Str3 SN 
 VS04.        AZ90522266O7X1C4:  Virtual Str4 SN 
 VS05.           AZ90598768F11:  Virtual Str5 SN 
 VS06.     AZ90580006XZ1W1X1C4:  Virtual Str6 SN 
 WBMN.klb                 8.00:  WOB Min 
 WITN.            Peter Wilson:  Customer Rep 
 WOBA.klb                 9.88:  WOB Avg 
 WOBX.klb                10.00:  WOB Max 
 YP  .lhf2               27.00:  Yield Point 
~Curve Information Block
#MNEM.UNIT                 API CODE     Curve Description
#---------               -----------    ---------------------------
 TIME.HHMMSS            00 000 000 000:  GT Time & Date
 GTDEPTH.m              00 000 000 000:  GT Depth
 GTPQH.psia             00 000 000 000:  GT HR Quartz Pressure
 GTTQ.degC              00 000 000 000:  GT Quartz Temperature
 GTTN.NONE              00 000 000 000:  GT Test Number
 GTET.sec               00 000 000 000:  GT Elapsed Test Time
 GTTVD.m                00 000 000 000:  GT True Vertical Depth
#Other Information
#
#WARRANTY: Halliburton will use its best efforts to furnish customers with 
#accurate information and interpretations that are part of, and incident to, the services 
#provided.  However, Halliburton cannot and does not warrant the accuracy 
#or correctness of such information and interpretations.  Under no circumstances should any 
#such information or interpretation be relied upon as the sole basis for any drilling, 
#completion, production, or financial decision or any procedure involving any risk to the 
#safety of any drilling venture, drilling rig or its crew or any other third party.  The 
#Customer has full responsibility for all drilling, completion and production operation.  
#Halliburton makes no representations or warranties, either expressed or 
#implied, including, but not limited to, the implied warranties of merchantability or fitness 
#for a particular purpose, with respect to the services rendered.  In no event will 
#Halliburton be liable for failure to obtain any particular results or for 
#any damages, including, but not limited to, indirect, special or consequential damages, 
#resulting from the use of any information or interpretation provided by Halliburton.
#
~A           TIME           GTDEPTH  GTPQH  GTTQ  GTTN  GTET   GTTVD  
# ...
   06:30:43.793.31-Jan-2020 3914.01 2993.75 78.35 4.00 322.07 2947.83
   06:30:43.993.31-Jan-2020 3914.01 2993.75 78.35 4.00 322.27 2947.83
   06:30:44.193.31-Jan-2020 3914.01 2993.67 78.35 4.00 322.47 2947.83
   06:30:44.393.31-Jan-2020 3914.01 2993.68 78.35 4.00 322.67 2947.83
   06:30:44.593.31-Jan-2020 3914.01 2993.68 78.35 4.00 322.87 2947.83
   06:30:44.793.31-Jan-2020 3914.01 2993.67 78.35 4.00 323.07 2947.83
   06:30:44.993.31-Jan-2020 3914.01 2993.67 78.35 4.00 323.27 2947.83
   06:30:45.193.31-Jan-2020 3914.01 2993.70 78.35 4.00 323.47 2947.83
   06:30:45.393.31-Jan-2020 3914.01 2993.72 78.34 4.00 323.67 2947.83
   06:30:45.593.31-Jan-2020 3914.01 2993.66 78.34 4.00 323.87 2947.83
   06:30:45.793.31-Jan-2020 3914.01 2993.64 78.34 4.00 324.07 2947.83
   06:30:45.993.31-Jan-2020 3914.01 2993.64 78.34 4.00 324.27 2947.83
   06:30:46.193.31-Jan-2020 3914.01 2993.48 78.34 4.00 324.47 2947.83
   06:30:46.393.31-Jan-2020 3914.01 2993.82 78.34 4.00 324.67 2947.83
   06:30:46.593.31-Jan-2020 3914.01 2993.78 78.34 4.00 324.87 2947.83
   06:30:46.793.31-Jan-2020 3914.01 2993.77 78.34 4.00 325.07 2947.83
   06:30:46.993.31-Jan-2020 3914.01 2993.77 78.34 4.00 325.27 2947.83
   06:30:47.194.31-Jan-2020 3914.01 2993.70 78.34 4.00 325.47 2947.83
   06:30:47.394.31-Jan-2020 3914.01 2993.70 78.34 4.00 325.67 2947.83
   06:30:47.594.31-Jan-2020 3914.01 2993.69 78.34 4.00 325.87 2947.83
   06:30:47.794.31-Jan-2020 3914.01 2993.68 78.34 4.00 326.07 2947.83
   06:30:47.994.31-Jan-2020 3914.01 2993.68 78.34 4.00 326.27 2947.83
   06:30:48.194.31-Jan-2020 3914.01 2993.69 78.34 4.00 326.47 2947.83
   06:30:48.394.31-Jan-2020 3914.01 2993.65 78.34 4.00 326.67 2947.83
   06:30:48.594.31-Jan-2020 3914.01 2993.65 78.34 4.00 326.87 2947.83
   06:30:48.794.31-Jan-2020 3914.01 2993.65 78.34 4.00 327.07 2947.83
   06:30:48.994.31-Jan-2020 3914.01 2993.65 78.34 4.00 327.27 2947.83
   06:30:49.194.31-Jan-2020 3914.01 2993.71 78.34 4.00 327.47 2947.83
   06:30:49.394.31-Jan-2020 3914.01 2993.39 78.33 4.00 327.67 2947.83
   06:30:49.594.31-Jan-2020 3914.01 2993.87 78.33 4.00 327.87 2947.83
   06:30:49.794.31-Jan-2020 3914.01 2993.72 78.33 4.00 328.07 2947.83
   06:30:49.994.31-Jan-2020 3914.01 2993.72 78.33 4.00 328.27 2947.83
   06:30:50.194.31-Jan-2020 3914.01 2993.72 78.33 4.00 328.47 2947.83
   06:30:50.394.31-Jan-2020 3914.01 2993.41 78.33 4.00 328.67 2947.83
   06:30:50.594.31-Jan-2020 3914.01 2993.91 78.33 4.00 328.87 2947.83
   06:30:50.794.31-Jan-2020 3914.01 2993.78 78.33 4.00 329.07 2947.83
   06:30:50.994.31-Jan-2020 3914.01 2993.78 78.33 4.00 329.27 2947.83
   06:30:51.194.31-Jan-2020 3914.01 2993.72 78.33 4.00 329.47 2947.83
   06:30:51.394.31-Jan-2020 3914.01 2993.71 78.33 4.00 329.67 2947.83
   06:30:51.594.31-Jan-2020 3914.01 2993.72 78.33 4.00 329.87 2947.83
   06:30:51.794.31-Jan-2020 3914.01 2993.41 78.33 4.00 330.07 2947.83
   06:30:51.995.31-Jan-2020 3914.01 2993.41 78.33 4.00 330.27 2947.83
   06:30:52.195.31-Jan-2020 3914.01 2993.79 78.33 4.00 330.47 2947.83
   06:30:52.395.31-Jan-2020 3914.01 2993.78 78.33 4.00 330.67 2947.83
   06:30:52.595.31-Jan-2020 3914.01 2993.73 78.33 4.00 330.87 2947.83
   06:30:52.795.31-Jan-2020 3914.01 2993.47 78.33 4.00 331.07 2947.83
   06:30:52.995.31-Jan-2020 3914.01 2993.47 78.33 4.00 331.27 2947.83
   06:30:53.195.31-Jan-2020 3914.01 2993.81 78.33 4.00 331.47 2947.83
   06:30:53.395.31-Jan-2020 3914.01 2993.78 78.32 4.00 331.67 2947.83
   06:30:53.595.31-Jan-2020 3914.01 2993.74 78.32 4.00 331.87 2947.83
   06:30:53.795.31-Jan-2020 3914.01 2993.71 78.32 4.00 332.07 2947.83
   06:30:53.995.31-Jan-2020 3914.01 2993.71 78.32 4.00 332.27 2947.83
   06:30:54.195.31-Jan-2020 3914.01 2993.72 78.32 4.00 332.47 2947.83
   06:30:54.395.31-Jan-2020 3914.01 2993.51 78.32 4.00 332.67 2947.83
   06:30:54.595.31-Jan-2020 3914.01 2993.90 78.32 4.00 332.87 2947.83
   06:30:54.795.31-Jan-2020 3914.01 2993.80 78.32 4.00 333.07 2947.83
   06:30:54.995.31-Jan-2020 3914.01 2993.80 78.32 4.00 333.27 2947.83
   06:30:55.195.31-Jan-2020 3914.01 2993.73 78.32 4.00 333.47 2947.83
   06:30:55.395.31-Jan-2020 3914.01 2993.69 78.32 4.00 333.67 2947.83
   06:30:55.595.31-Jan-2020 3914.01 2993.69 78.32 4.00 333.87 2947.83
   06:30:55.795.31-Jan-2020 3914.01 2993.75 78.32 4.00 334.07 2947.83
   06:30:55.995.31-Jan-2020 3914.01 2993.75 78.32 4.00 334.27 2947.83
   06:30:56.195.31-Jan-2020 3914.01 2993.69 78.32 4.00 334.47 2947.83
   06:30:56.395.31-Jan-2020 3914.01 2993.68 78.32 4.00 334.67 2947.83
   06:30:56.595.31-Jan-2020 3914.01 2993.68 78.32 4.00 334.87 2947.83
   06:30:56.795.31-Jan-2020 3914.01 2993.67 78.32 4.00 335.07 2947.83
   06:30:56.996.31-Jan-2020 3914.01 2993.67 78.32 4.00 335.27 2947.83
   06:30:57.196.31-Jan-2020 3914.01 2993.72 78.32 4.00 335.47 2947.83
   06:30:57.396.31-Jan-2020 3914.01 2993.71 78.31 4.00 335.67 2947.83
   06:30:57.596.31-Jan-2020 3914.01 2993.64 78.31 4.00 335.87 2947.83
   06:30:57.796.31-Jan-2020 3914.01 2993.65 78.31 4.00 336.07 2947.83
   06:30:57.996.31-Jan-2020 3914.01 2993.65 78.31 4.00 336.27 2947.83
   06:30:58.196.31-Jan-2020 3914.01 2993.59 78.31 4.00 336.47 2947.83
   06:30:58.396.31-Jan-2020 3914.01 2993.77 78.31 4.00 336.67 2947.83
   06:30:58.596.31-Jan-2020 3914.01 2993.76 78.31 4.00 336.87 2947.83
   06:30:58.796.31-Jan-2020 3914.01 2993.74 78.31 4.00 337.07 2947.83
   06:30:58.996.31-Jan-2020 3914.01 2993.74 78.31 4.00 337.27 2947.83
   06:30:59.196.31-Jan-2020 3914.01 2993.67 78.31 4.00 337.47 2947.83
   06:30:59.396.31-Jan-2020 3914.01 2993.70 78.31 4.00 337.67 2947.83
   06:30:59.596.31-Jan-2020 3914.01 2993.67 78.31 4.00 337.87 2947.83
   06:30:59.796.31-Jan-2020 3914.01 2993.68 78.31 4.00 338.07 2947.83
   06:30:59.996.31-Jan-2020 3914.01 2993.68 78.31 4.00 338.27 2947.83
   06:31:00.196.31-Jan-2020 3914.01 2993.68 78.31 4.00 338.47 2947.83
   06:31:00.396.31-Jan-2020 3914.01 2993.66 78.31 4.00 338.67 2947.83
   06:31:00.596.31-Jan-2020 3914.01 2993.63 78.31 4.00 338.87 2947.83
   06:31:00.796.31-Jan-2020 3914.01 2993.64 78.31 4.00 339.07 2947.83
   06:31:00.996.31-Jan-2020 3914.01 2993.64 78.31 4.00 339.27 2947.83
   06:31:01.196.31-Jan-2020 3914.01 2993.68 78.31 4.00 339.47 2947.83
   06:31:01.396.31-Jan-2020 3914.01 2993.43 78.30 4.00 339.67 2947.83
   06:31:01.596.31-Jan-2020 3914.01 2993.79 78.30 4.00 339.87 2947.83
   06:31:01.796.31-Jan-2020 3914.01 2993.72 78.30 4.00 340.07 2947.83
   06:31:01.997.31-Jan-2020 3914.01 2993.72 78.30 4.00 340.27 2947.83
   06:31:02.197.31-Jan-2020 3914.01 2993.73 78.30 4.00 340.47 2947.83
   06:31:02.397.31-Jan-2020 3914.01 2993.48 78.30 4.00 340.67 2947.83
   06:31:02.597.31-Jan-2020 3914.01 2993.84 78.30 4.00 340.87 2947.83
   06:31:02.797.31-Jan-2020 3914.01 2993.76 78.30 4.00 341.07 2947.83
   06:31:02.997.31-Jan-2020 3914.01 2993.76 78.30 4.00 341.27 2947.83
   06:31:03.197.31-Jan-2020 3914.01 2993.71 78.30 4.00 341.47 2947.83
   06:31:03.397.31-Jan-2020 3914.01 2993.69 78.30 4.00 341.67 2947.83
   06:31:03.597.31-Jan-2020 3914.01 2993.73 78.30 4.00 341.87 2947.83
   06:31:03.797.31-Jan-2020 3914.01 2993.47 78.30 4.00 342.07 2947.83
   06:31:03.997.31-Jan-2020 3914.01 2993.47 78.30 4.00 342.27 2947.83
   06:31:04.197.31-Jan-2020 3914.01 2993.78 78.30 4.00 342.47 2947.83
   06:31:04.397.31-Jan-2020 3914.01 2993.78 78.30 4.00 342.67 2947.83
   06:31:04.597.31-Jan-2020 3914.01 2993.70 78.30 4.00 342.87 2947.83
   06:31:04.797.31-Jan-2020 3914.01 2993.39 78.30 4.00 343.07 2947.83
   06:31:04.997.31-Jan-2020 3914.01 2993.39 78.30 4.00 343.27 2947.83
   06:31:05.197.31-Jan-2020 3914.01 2993.80 78.30 4.00 343.47 2947.83
   06:31:05.397.31-Jan-2020 3914.01 2993.76 78.30 4.00 343.67 2947.83
   06:31:05.597.31-Jan-2020 3914.01 2993.71 78.29 4.00 343.87 2947.83
   06:31:05.797.31-Jan-2020 3914.01 2993.71 78.29 4.00 344.07 2947.83
   06:31:05.997.31-Jan-2020 3914.01 2993.71 78.29 4.00 344.27 2947.83
   06:31:06.197.31-Jan-2020 3914.01 2993.64 78.29 4.00 344.47 2947.83
   06:31:06.397.31-Jan-2020 3914.01 2993.62 78.29 4.00 344.67 2947.83
   06:31:06.597.31-Jan-2020 3914.01 2993.84 78.29 4.00 344.87 2947.83
