~Version Information
 VERS.                  2.0:   CWLS log ASCII Standard -VERSION 2.0
 WRAP.                   NO:   One line per depth step
~Well Information Block
#MNEM.UNIT     VALUE/NAME     DESCRIPTION
#---------     -----------    ---------------------------
 STRT.S             09:13:27 31-Jan-20: START TIME 09:13:27 31-Jan-20
 STOP.S             09:19:57 31-Jan-20: STOP TIME  09:19:57 31-Jan-20
 STEP.S                   0.00: STEP TIME
 NULL.                 -999.25: NULL VALUE
 DFWT.                        :  DIST FWL TEXT
 DFST.                        :  DIST FSL TEXT
 DMF .             Drill Floor:  DRILL MEAS FROM
 STIM.      09.30.00 26-Dec-19:  START TIME
 DATE.      08.00.00 20-Jan-20:  END TIME
 SPUD.               23-Nov-19:  SPUD DATE
 NREF.                    Grid:  NORTH REFERENCE
 HPTY.       Minimum Curvature:  HOLE POS TYPE
 DMOD.             Drill Model:  DRILL MOD DESC
 SVYD.                  Survey:  SURVEY DESC
 ILTD.               Lithology:  INTERP LTH DESC
 FTOP.          Formation Tops:  FORM TOPS DESC
 SON .        AZ-XX-0906192647:  JOB NUMBER
 WTYP.                Deviated:  WELL TYPE
 COMP.     BP Exploration (Caspian Sea) Ltd:  COMPANY
 BASE.              Azerbaijan:  LOGGING EQUIPMENT BASE LOCATION
 REGN.                 Eurasia:  REGION
 FLD .                     ACG:  FIELD NAME
 SRVC.              KCA Deutag:  CONTRACTOR
 MWDS.                    Baku:  MWD SHOP
 WELL.     A10 (Slot 20) - SCP:  WELL NAME
 JOBN.        AZ-XX-0906192647:  JOB TICKET NUMB
 RIG .                 Chirag1:  RIG NAME
 DCON.     Halliburton Sperry Drilling:  DIRECTNL CONTR
 UNIT.                     N/A:  LOGGING EQUIPMENT ID
 PDAT.          Mean Sea Level:  PERMANENT DATUM
 MDS .        Operator Entered:  MAG DATA SOURCE
 CTRY.              Azerbaijan:  COUNTRY NAME
 UWI .            /AZE00000090:  UNIQUE WELL IDENTIFIER
 API .            /AZE00000090:  API NUMBER
 CNTY.                        :  COUNTY
 PROV.                        :  PROVINCE
 STAT.                        :  STATE
 LOC .                        :  LOCATION
 LMF .             Drill Floor:  LOG MEASURED FROM
 TVDS.m                  36.60:  TVDSS CORRECTN
 LATI.deg                40.08:  LATITUDE
 LONG.deg                51.24:  LONGITUDE
 WHNS.m                  -7.94:  WELL HEAD N/S
 WHEW.m                   1.56:  WELL HEAD E/W
 UTMX.m              520429.26:  UTM X
 UTMY.m             4438973.87:  UTM Y
 DFWL.m                   0.00:  DISTANCE FWL
 DFSL.m                   0.00:  DISTANCE FSL
 SDEP.m                1455.00:  START DEPTH
 TDD .m                4047.51:  TOTAL DEPTH (DRILLER)
 VSDR.deg               112.75:  VERT SEC DIRECT
 GVFD.g                   1.00:  GRAVITY FIELD
 MFLD.nT              50261.00:  MAGNETIC FIELD
 MDIP.deg                59.52:  MAGNETIC DIP
 MDEC.deg                 6.42:  MAGNETIC DECL
 GRDC.deg                 0.17:  GRID CORRECTION
 AZTC.deg                 6.25:  AZM TOTAL CORR
 EPD .m                   0.00:  ELEVATION
 EGL .m                   0.00:  GROUND ELEVATION
 WDMS.m                 121.00:  WD ELEV
 APD .m                  36.60:  DEPTH ABOVE PD
 AGAP.m                  36.60:  AIR GAP
 VSEW.m                   1.56:  VERT SEC E/W
 VSNS.m                  -7.94:  VERT SEC N/S
 DEP .m                1140.01:  DEPTH
 EKB .m                  36.60:  KB ELEVATION
 EDF .m                  36.60:  DF ELEVATION
 TDL .m                 169.50:  TOTAL DEPTH (LOGGER)
 CSGD.m                3875.01:  CASING BOTTOM (DRILLER)
 CSGL.m                3875.01:  CASING BOTTOM (LOGGER)
 CSGS.in                  7.63:  CASING SIZE
 CSGW.lbpf               23.50:  CASING WEIGHT
 VSC .                       0:  VS TO CLOSURE
 MAGU.                 1849206:  MAGUTM CHECKSUM
~Parameter Information Block
#MNEM.UNIT       Value        Description
#---------     -----------    ---------------------------
 AV  .mps                 1.90:  Ann Velocity 
 AVMX.mps                 2.54:  Max Ann Veloc 
 AZIF.deg               137.03:  Azm, Final 
 BHAT.        Rotary Steerable:  BHA Type 
 BREV.rev             23610.00:  Rev Bit Total 
 BROT.°/30m               0.80:  Build Rotating 
 BS  .in                  6.50:  Bit Size 
 BTPL.psig              110.00:  Bit Press Loss 
 CABU.                     Yes:  Customer Abuse 
 COMM.                     ФЮѓ:  Run Comments 1 
 TCS .hr                 70.51:  Time Ciculation Ended 
 CV  .mps                 1.41:  Crit Velocity 
 CVMX.mps                 1.42:  Max Crit Veloc 
 DD1 .         Intigam Rahimov:  Direct Drillr 1 
 DD2 .          Rashad Gojayev:  Direct Drillr 2 
 DDSV.               Geo-Pilot:  DD Service 
 DEFF.%                 100.00:  % Det Eff 
 DLRX.°/30m               1.44:  Dogleg Rot Max 
 DLSO.°/30m               0.00:  Dogleg Oriented 
 DLSX.°/30m               0.00:  Dogleg Str Max 
 DRET.      03.05.00 01-Feb-20:  Drill End Time 
 DRST.      15.50.00 28-Jan-20:  Drill Start Tim 
 DTIM.hr                 24.70:  Time Drilling 
 EDEP.m                4047.51:  End Depth 
 ENG1.           Eldar Hajiyev:  Engineer 1 
 ENG2.          Rasim Hashimov:  Engineer 2 
 ENG3.          Rustam Safarov:  Engineer 3 
 ETIM.      22.00.00 01-Feb-20:  End Time 
 FLOI.gpm               370.00:  Flow In 
 FLON.gpm               300.00:  Flow In Min 
 FLOS.cptm                0.00:  Fluid Loss 
 FLOX.gpm               400.00:  Flow In Max 
 FTRO.       Formation Presure:  FTWD Run Obj 
 HFLO.                      No:  High Flow 
 HPRE.                      No:  High Pressure 
 HTEM.                      No:  High Temp 
 HYDO.m                   2.50:  Hydro Offset 
 IFIN.deg                39.54:  Inc, Final 
 IMAX.deg                41.14:  Inc Max 
 IMIN.deg                39.81:  Inc Min 
 IMND.m                4005.21:  Inc Min Depth 
 IMXD.m                3948.42:  Inc Max Depth 
 JARR.                      No:  Jarring 
 LETM.      03.05.00 01-Feb-20:  Log End Time 
 LOST.hr                     0:  Lost Rig Time 
 LSTM.      15.50.00 28-Jan-20:  Log Start Time 
 MDCL.ppm             37500.00:  Mud Chlorides 
 MDES.     Inversion Oil/Synthetic:  Mud Desc 
 DFD .sg                  1.32:  Mud Density 
 MDMN.sg                  1.32:  Dens Mud Min 
 MDMX.sg                  1.32:  Dens Mud Max 
 MOIL.                      55:  Run Mud Oil % 
 MOWR.                   70:30:  Run Mud OWR 
 MSND.                       0:  Run Mud Sand % 
 MSOL.                      17:  Run Mud Solids% 
 DFV .spqt               80.00:  Mud Viscosity 
 MWOD.in                  4.75:  MWD Tool OD 
 MWSI.                      No:  Serv Intrp, MWD 
 OTIM.hr                121.28:  Time Operating 
 PCON.           Look Like New:  Pad Condition 
 PMAX.psia             6171.00:  Press Op, Max 
 PV  .cP                 30.00:  Mud PV 
 RUN .                     300:  Run Number 
 ROPA.m/hr                5.45:  ROP Avg 
 ROPN.m/hr                3.00:  ROP Min 
 ROPX.m/hr               15.00:  ROP Max 
 RPMA.rpm               130.00:  RPM Surface Avg 
 RPMN.rpm                80.00:  RPM Surface Min 
 RPMX.rpm               140.00:  RPM Surface Max 
 RRUN.                     300:  Rig Run Number 
 RTIM.hr                 13.50:  Time Reaming 
 SAZI.deg               133.93:  Azm, Start 
 SDEP.m                3878.01:  Start Depth 
 SIDD.                      No:  Serv Intrp, DD 
 SINC.deg                40.28:  Inc, Start 
 SPPA.psig             4983.00:  SPP Avg 
 SPPN.psig             4370.00:  SPP Min 
 SPPX.psig             5300.00:  SPP Max 
 STIM.      18.33.36 27-Jan-20:  Start Time 
 SVCS.                 DD, MWD:  Services 
 SVER.                    9.20:  Sperry Version 
 TDAT.m                 169.50:  Tot Depth Attmp 
 TDDF.                      No:  Trip for DD 
 TDLG.m                 169.50:  Tot Depth Loggd 
 TFF .                      No:  Trip for Fail 
 TQAA.f-kp               13.25:  Torque Abs Avg 
 TQAN.f-kp               12.00:  Torque Abs Min 
 TQAX.f-kp               14.00:  Torque Abs Max 
 TRRT.°/30m               0.70:  Turn Rotating 
 MRT .                     ADR:  Maximum Recorded Temperature 
 TTMX.degC               92.16:  Max Tool Temp 
 VS01.       AZ90598764G12V7D4:  Virtual Str1 SN 
 VS02.         AZ90571342R12C4:  Virtual Str2 SN 
 VS03.      AZ90580010N2L2X1C4:  Virtual Str3 SN 
 VS04.        AZ90522266O7X1C4:  Virtual Str4 SN 
 VS05.           AZ90598768F11:  Virtual Str5 SN 
 VS06.     AZ90580006XZ1W1X1C4:  Virtual Str6 SN 
 WBMN.klb                 8.00:  WOB Min 
 WITN.            Peter Wilson:  Customer Rep 
 WOBA.klb                 9.88:  WOB Avg 
 WOBX.klb                10.00:  WOB Max 
 YP  .lhf2               27.00:  Yield Point 
~Curve Information Block
#MNEM.UNIT                 API CODE     Curve Description
#---------               -----------    ---------------------------
 TIME.HHMMSS            00 000 000 000:  GT Time & Date
 GTDEPTH.m              00 000 000 000:  GT Depth
 GTPQH.psia             00 000 000 000:  GT HR Quartz Pressure
 GTTQ.degC              00 000 000 000:  GT Quartz Temperature
 GTTN.NONE              00 000 000 000:  GT Test Number
 GTET.sec               00 000 000 000:  GT Elapsed Test Time
 GTTVD.m                00 000 000 000:  GT True Vertical Depth
#Other Information
#
#WARRANTY: Halliburton will use its best efforts to furnish customers with 
#accurate information and interpretations that are part of, and incident to, the services 
#provided.  However, Halliburton cannot and does not warrant the accuracy 
#or correctness of such information and interpretations.  Under no circumstances should any 
#such information or interpretation be relied upon as the sole basis for any drilling, 
#completion, production, or financial decision or any procedure involving any risk to the 
#safety of any drilling venture, drilling rig or its crew or any other third party.  The 
#Customer has full responsibility for all drilling, completion and production operation.  
#Halliburton makes no representations or warranties, either expressed or 
#implied, including, but not limited to, the implied warranties of merchantability or fitness 
#for a particular purpose, with respect to the services rendered.  In no event will 
#Halliburton be liable for failure to obtain any particular results or for 
#any damages, including, but not limited to, indirect, special or consequential damages, 
#resulting from the use of any information or interpretation provided by Halliburton.
#
~A           TIME           GTDEPTH  GTPQH  GTTQ  GTTN  GTET   GTTVD  
# ...
   09:19:35.980.31-Jan-2020 3923.01 5995.85 80.00 5.00 368.09 2954.62
   09:19:36.180.31-Jan-2020 3923.01 5995.85 80.00 5.00 368.29 2954.62
   09:19:36.380.31-Jan-2020 3923.01 5996.22 80.00 5.00 368.49 2954.62
   09:19:36.580.31-Jan-2020 3923.01 5997.51 80.00 5.00 368.69 2954.62
   09:19:36.781.31-Jan-2020 3923.01 5996.91 80.00 5.00 368.89 2954.62
   09:19:36.981.31-Jan-2020 3923.01 5996.93 79.99 5.00 369.09 2954.62
   09:19:37.181.31-Jan-2020 3923.01 5996.93 79.99 5.00 369.29 2954.62
   09:19:37.381.31-Jan-2020 3923.01 5995.55 79.99 5.00 369.49 2954.62
   09:19:37.581.31-Jan-2020 3923.01 5995.10 79.99 5.00 369.69 2954.62
   09:19:37.781.31-Jan-2020 3923.01 5994.34 79.99 5.00 369.89 2954.62
   09:19:37.981.31-Jan-2020 3923.01 5996.33 79.99 5.00 370.09 2954.62
   09:19:38.181.31-Jan-2020 3923.01 5996.33 79.99 5.00 370.29 2954.62
   09:19:38.381.31-Jan-2020 3923.01 5996.27 79.99 5.00 370.49 2954.62
   09:19:38.581.31-Jan-2020 3923.01 5996.00 79.99 5.00 370.69 2954.62
   09:19:38.781.31-Jan-2020 3923.01 5987.58 79.99 5.00 370.89 2954.62
   09:19:38.981.31-Jan-2020 3923.01 5994.24 79.99 5.00 371.09 2954.62
   09:19:39.181.31-Jan-2020 3923.01 5994.24 79.99 5.00 371.29 2954.62
   09:19:39.381.31-Jan-2020 3923.01 5996.76 79.99 5.00 371.49 2954.62
   09:19:39.581.31-Jan-2020 3923.01 5996.60 79.99 5.00 371.69 2954.62
   09:19:39.781.31-Jan-2020 3923.01 5996.82 79.99 5.00 371.89 2954.62
   09:19:39.981.31-Jan-2020 3923.01 5996.53 79.99 5.00 372.09 2954.62
   09:19:40.181.31-Jan-2020 3923.01 5996.53 79.99 5.00 372.29 2954.62
   09:19:40.381.31-Jan-2020 3923.01 5996.45 79.99 5.00 372.49 2954.62
   09:19:40.581.31-Jan-2020 3923.01 5996.82 79.99 5.00 372.69 2954.62
   09:19:40.781.31-Jan-2020 3923.01 5997.40 79.99 5.00 372.89 2954.62
   09:19:40.981.31-Jan-2020 3923.01 5997.54 79.99 5.00 373.09 2954.62
   09:19:41.182.31-Jan-2020 3923.01 5997.54 79.99 5.00 373.29 2954.62
   09:19:41.382.31-Jan-2020 3923.01 5995.91 79.99 5.00 373.49 2954.62
   09:19:41.582.31-Jan-2020 3923.01 5997.06 79.99 5.00 373.69 2954.62
   09:19:41.782.31-Jan-2020 3923.01 5999.35 79.99 5.00 373.89 2954.62
   09:19:41.982.31-Jan-2020 3923.01 5999.17 79.98 5.00 374.09 2954.62
   09:19:42.182.31-Jan-2020 3923.01 5999.17 79.98 5.00 374.29 2954.62
   09:19:42.382.31-Jan-2020 3923.01 5987.48 79.98 5.00 374.49 2954.62
   09:19:42.582.31-Jan-2020 3923.01 5994.76 79.98 5.00 374.69 2954.62
   09:19:42.782.31-Jan-2020 3923.01 5995.67 79.98 5.00 374.89 2954.62
   09:19:42.982.31-Jan-2020 3923.01 5996.12 79.98 5.00 375.09 2954.62
   09:19:43.182.31-Jan-2020 3923.01 5996.12 79.98 5.00 375.29 2954.62
   09:19:43.382.31-Jan-2020 3923.01 5987.75 79.98 5.00 375.49 2954.62
   09:19:43.582.31-Jan-2020 3923.01 5995.39 79.98 5.00 375.69 2954.62
   09:19:43.782.31-Jan-2020 3923.01 5996.30 79.98 5.00 375.89 2954.62
   09:19:43.982.31-Jan-2020 3923.01 5996.64 79.98 5.00 376.09 2954.62
   09:19:44.182.31-Jan-2020 3923.01 5996.64 79.98 5.00 376.29 2954.62
   09:19:44.382.31-Jan-2020 3923.01 5989.09 79.98 5.00 376.49 2954.62
   09:19:44.582.31-Jan-2020 3923.01 5992.57 79.98 5.00 376.69 2954.62
   09:19:44.782.31-Jan-2020 3923.01 5994.20 79.98 5.00 376.89 2954.62
   09:19:44.982.31-Jan-2020 3923.01 5994.19 79.98 5.00 377.09 2954.62
   09:19:45.182.31-Jan-2020 3923.01 5994.19 79.98 5.00 377.29 2954.62
   09:19:45.383.31-Jan-2020 3923.01 5996.91 79.98 5.00 377.49 2954.62
   09:19:45.583.31-Jan-2020 3923.01 5993.27 79.98 5.00 377.69 2954.62
   09:19:45.783.31-Jan-2020 3923.01 5989.26 79.98 5.00 377.89 2954.62
   09:19:45.983.31-Jan-2020 3923.01 5993.14 79.98 5.00 378.09 2954.62
   09:19:46.183.31-Jan-2020 3923.01 5993.14 79.98 5.00 378.29 2954.62
   09:19:46.383.31-Jan-2020 3923.01 5996.20 79.98 5.00 378.49 2954.62
   09:19:46.583.31-Jan-2020 3923.01 5995.44 79.97 5.00 378.69 2954.62
   09:19:46.783.31-Jan-2020 3923.01 5995.17 79.97 5.00 378.89 2954.62
   09:19:46.983.31-Jan-2020 3923.01 5995.01 79.97 5.00 379.09 2954.62
   09:19:47.183.31-Jan-2020 3923.01 5995.01 79.97 5.00 379.29 2954.62
   09:19:47.383.31-Jan-2020 3923.01 5994.19 79.97 5.00 379.49 2954.62
   09:19:47.583.31-Jan-2020 3923.01 5995.90 79.97 5.00 379.69 2954.62
   09:19:47.783.31-Jan-2020 3923.01 5996.04 79.97 5.00 379.89 2954.62
   09:19:47.983.31-Jan-2020 3923.01 5995.75 79.97 5.00 380.09 2954.62
   09:19:48.183.31-Jan-2020 3923.01 5995.75 79.97 5.00 380.29 2954.62
   09:19:48.383.31-Jan-2020 3923.01 5994.46 79.97 5.00 380.49 2954.62
   09:19:48.583.31-Jan-2020 3923.01 5996.64 79.97 5.00 380.69 2954.62
   09:19:48.783.31-Jan-2020 3923.01 5996.62 79.97 5.00 380.89 2954.62
   09:19:48.983.31-Jan-2020 3923.01 5995.67 79.97 5.00 381.09 2954.62
   09:19:49.183.31-Jan-2020 3923.01 5995.67 79.97 5.00 381.29 2954.62
   09:19:49.383.31-Jan-2020 3923.01 5994.89 79.97 5.00 381.49 2954.62
   09:19:49.584.31-Jan-2020 3923.01 5994.97 79.97 5.00 381.69 2954.62
   09:19:49.784.31-Jan-2020 3923.01 5994.81 79.97 5.00 381.89 2954.62
   09:19:49.984.31-Jan-2020 3923.01 5994.90 79.97 5.00 382.09 2954.62
   09:19:50.184.31-Jan-2020 3923.01 5994.90 79.97 5.00 382.29 2954.62
   09:19:50.384.31-Jan-2020 3923.01 5996.56 79.97 5.00 382.49 2954.62
   09:19:50.584.31-Jan-2020 3923.01 5996.42 79.97 5.00 382.69 2954.62
   09:19:50.784.31-Jan-2020 3923.01 5993.15 79.97 5.00 382.89 2954.62
   09:19:50.984.31-Jan-2020 3923.01 5989.27 79.96 5.00 383.09 2954.62
   09:19:51.184.31-Jan-2020 3923.01 5989.27 79.96 5.00 383.29 2954.62
   09:19:51.384.31-Jan-2020 3923.01 5996.23 79.96 5.00 383.49 2954.62
   09:19:51.584.31-Jan-2020 3923.01 5996.98 79.96 5.00 383.69 2954.62
   09:19:51.784.31-Jan-2020 3923.01 5996.89 79.96 5.00 383.89 2954.62
   09:19:51.984.31-Jan-2020 3923.01 5996.32 79.96 5.00 384.09 2954.62
   09:19:52.184.31-Jan-2020 3923.01 5996.32 79.96 5.00 384.29 2954.62
   09:19:52.384.31-Jan-2020 3923.01 5995.88 79.96 5.00 384.49 2954.62
   09:19:52.584.31-Jan-2020 3923.01 5996.79 79.96 5.00 384.69 2954.62
   09:19:52.784.31-Jan-2020 3923.01 5996.72 79.96 5.00 384.89 2954.62
   09:19:52.984.31-Jan-2020 3923.01 5996.51 79.96 5.00 385.09 2954.62
   09:19:53.184.31-Jan-2020 3923.01 5996.51 79.96 5.00 385.29 2954.62
   09:19:53.384.31-Jan-2020 3923.01 5995.24 79.96 5.00 385.49 2954.62
   09:19:53.584.31-Jan-2020 3923.01 5995.24 79.96 5.00 385.69 2954.62
   09:19:53.784.31-Jan-2020 3923.01 5997.37 79.96 5.00 385.89 2954.62
   09:19:53.985.31-Jan-2020 3923.01 5998.16 79.96 5.00 386.09 2954.62
   09:19:54.185.31-Jan-2020 3923.01 5998.16 79.96 5.00 386.29 2954.62
   09:19:54.385.31-Jan-2020 3923.01 5989.61 79.96 5.00 386.49 2954.62
   09:19:54.585.31-Jan-2020 3923.01 5993.10 79.96 5.00 386.69 2954.62
   09:19:54.785.31-Jan-2020 3923.01 5994.37 79.96 5.00 386.89 2954.62
   09:19:54.985.31-Jan-2020 3923.01 5994.85 79.96 5.00 387.09 2954.62
   09:19:55.185.31-Jan-2020 3923.01 5994.85 79.96 5.00 387.29 2954.62
   09:19:55.385.31-Jan-2020 3923.01 5989.09 79.95 5.00 387.49 2954.62
   09:19:55.585.31-Jan-2020 3923.01 5993.36 79.95 5.00 387.69 2954.62
   09:19:55.785.31-Jan-2020 3923.01 5995.09 79.95 5.00 387.89 2954.62
   09:19:55.985.31-Jan-2020 3923.01 5995.56 79.95 5.00 388.09 2954.62
   09:19:56.185.31-Jan-2020 3923.01 5995.56 79.95 5.00 388.29 2954.62
   09:19:56.385.31-Jan-2020 3923.01 5992.79 79.95 5.00 388.49 2954.62
   09:19:56.585.31-Jan-2020 3923.01 5989.57 79.95 5.00 388.69 2954.62
   09:19:56.785.31-Jan-2020 3923.01 5993.48 79.95 5.00 388.89 2954.62
   09:19:56.985.31-Jan-2020 3923.01 5993.42 79.95 5.00 389.09 2954.62
   09:19:57.185.31-Jan-2020 3923.01 5993.42 79.95 5.00 389.29 2954.62
   09:19:57.385.31-Jan-2020 3923.01 5996.71 79.95 5.00 389.49 2954.62
   09:19:57.585.31-Jan-2020 3923.01 5996.17 79.95 5.00 389.69 2954.62
   09:19:57.785.31-Jan-2020 3923.01 5986.26 79.95 5.00 389.89 2954.62
