~Version Information
 VERS.                  2.0:   CWLS log ASCII Standard -VERSION 2.0
 WRAP.                   NO:   One line per depth step
~Well Information Block
#MNEM.UNIT     VALUE/NAME     DESCRIPTION
#---------     -----------    ---------------------------
 STRT.S             04:12:25 01-Feb-20: START TIME 04:12:25 01-Feb-20
 STOP.S             04:20:20 01-Feb-20: STOP TIME  04:20:20 01-Feb-20
 STEP.S                   0.00: STEP TIME
 NULL.                 -999.25: NULL VALUE
 DFWT.                        :  DIST FWL TEXT
 DFST.                        :  DIST FSL TEXT
 DMF .             Drill Floor:  DRILL MEAS FROM
 STIM.      09.30.00 26-Dec-19:  START TIME
 DATE.      08.00.00 20-Jan-20:  END TIME
 SPUD.               23-Nov-19:  SPUD DATE
 NREF.                    Grid:  NORTH REFERENCE
 HPTY.       Minimum Curvature:  HOLE POS TYPE
 DMOD.             Drill Model:  DRILL MOD DESC
 SVYD.                  Survey:  SURVEY DESC
 ILTD.               Lithology:  INTERP LTH DESC
 FTOP.          Formation Tops:  FORM TOPS DESC
 SON .        AZ-XX-0906192647:  JOB NUMBER
 WTYP.                Deviated:  WELL TYPE
 COMP.     BP Exploration (Caspian Sea) Ltd:  COMPANY
 BASE.              Azerbaijan:  LOGGING EQUIPMENT BASE LOCATION
 REGN.                 Eurasia:  REGION
 FLD .                     ACG:  FIELD NAME
 SRVC.              KCA Deutag:  CONTRACTOR
 MWDS.                    Baku:  MWD SHOP
 WELL.     A10 (Slot 20) - SCP:  WELL NAME
 JOBN.        AZ-XX-0906192647:  JOB TICKET NUMB
 RIG .                 Chirag1:  RIG NAME
 DCON.     Halliburton Sperry Drilling:  DIRECTNL CONTR
 UNIT.                     N/A:  LOGGING EQUIPMENT ID
 PDAT.          Mean Sea Level:  PERMANENT DATUM
 MDS .        Operator Entered:  MAG DATA SOURCE
 CTRY.              Azerbaijan:  COUNTRY NAME
 UWI .            /AZE00000090:  UNIQUE WELL IDENTIFIER
 API .            /AZE00000090:  API NUMBER
 CNTY.                        :  COUNTY
 PROV.                        :  PROVINCE
 STAT.                        :  STATE
 LOC .                        :  LOCATION
 LMF .             Drill Floor:  LOG MEASURED FROM
 TVDS.m                  36.60:  TVDSS CORRECTN
 LATI.deg                40.08:  LATITUDE
 LONG.deg                51.24:  LONGITUDE
 WHNS.m                  -7.94:  WELL HEAD N/S
 WHEW.m                   1.56:  WELL HEAD E/W
 UTMX.m              520429.26:  UTM X
 UTMY.m             4438973.87:  UTM Y
 DFWL.m                   0.00:  DISTANCE FWL
 DFSL.m                   0.00:  DISTANCE FSL
 SDEP.m                1455.00:  START DEPTH
 TDD .m                4047.51:  TOTAL DEPTH (DRILLER)
 VSDR.deg               112.75:  VERT SEC DIRECT
 GVFD.g                   1.00:  GRAVITY FIELD
 MFLD.nT              50261.00:  MAGNETIC FIELD
 MDIP.deg                59.52:  MAGNETIC DIP
 MDEC.deg                 6.42:  MAGNETIC DECL
 GRDC.deg                 0.17:  GRID CORRECTION
 AZTC.deg                 6.25:  AZM TOTAL CORR
 EPD .m                   0.00:  ELEVATION
 EGL .m                   0.00:  GROUND ELEVATION
 WDMS.m                 121.00:  WD ELEV
 APD .m                  36.60:  DEPTH ABOVE PD
 AGAP.m                  36.60:  AIR GAP
 VSEW.m                   1.56:  VERT SEC E/W
 VSNS.m                  -7.94:  VERT SEC N/S
 DEP .m                1140.01:  DEPTH
 EKB .m                  36.60:  KB ELEVATION
 EDF .m                  36.60:  DF ELEVATION
 TDL .m                 169.50:  TOTAL DEPTH (LOGGER)
 CSGD.m                3875.01:  CASING BOTTOM (DRILLER)
 CSGL.m                3875.01:  CASING BOTTOM (LOGGER)
 CSGS.in                  7.63:  CASING SIZE
 CSGW.lbpf               23.50:  CASING WEIGHT
 VSC .                       0:  VS TO CLOSURE
 MAGU.                 1849206:  MAGUTM CHECKSUM
~Parameter Information Block
#MNEM.UNIT       Value        Description
#---------     -----------    ---------------------------
 AV  .mps                 1.90:  Ann Velocity 
 AVMX.mps                 2.54:  Max Ann Veloc 
 AZIF.deg               137.03:  Azm, Final 
 BHAT.        Rotary Steerable:  BHA Type 
 BREV.rev             23610.00:  Rev Bit Total 
 BROT.°/30m               0.80:  Build Rotating 
 BS  .in                  6.50:  Bit Size 
 BTPL.psig              110.00:  Bit Press Loss 
 CABU.                     Yes:  Customer Abuse 
 TCS .hr                 70.51:  Time Ciculation Ended 
 CV  .mps                 1.41:  Crit Velocity 
 CVMX.mps                 1.42:  Max Crit Veloc 
 DD1 .         Intigam Rahimov:  Direct Drillr 1 
 DD2 .          Rashad Gojayev:  Direct Drillr 2 
 DDSV.               Geo-Pilot:  DD Service 
 DEFF.%                 100.00:  % Det Eff 
 DLRX.°/30m               1.44:  Dogleg Rot Max 
 DLSO.°/30m               0.00:  Dogleg Oriented 
 DLSX.°/30m               0.00:  Dogleg Str Max 
 DRET.      03.05.00 01-Feb-20:  Drill End Time 
 DRST.      15.50.00 28-Jan-20:  Drill Start Tim 
 DTIM.hr                 24.70:  Time Drilling 
 EDEP.m                4047.51:  End Depth 
 ENG1.           Eldar Hajiyev:  Engineer 1 
 ENG2.          Rasim Hashimov:  Engineer 2 
 ENG3.          Rustam Safarov:  Engineer 3 
 ETIM.      22.00.00 01-Feb-20:  End Time 
 FLOI.gpm               370.00:  Flow In 
 FLON.gpm               300.00:  Flow In Min 
 FLOS.cptm                0.00:  Fluid Loss 
 FLOX.gpm               400.00:  Flow In Max 
 FTRO.       Formation Presure:  FTWD Run Obj 
 HFLO.                      No:  High Flow 
 HPRE.                      No:  High Pressure 
 HTEM.                      No:  High Temp 
 HYDO.m                   2.50:  Hydro Offset 
 IFIN.deg                39.54:  Inc, Final 
 IMAX.deg                41.14:  Inc Max 
 IMIN.deg                39.81:  Inc Min 
 IMND.m                4005.21:  Inc Min Depth 
 IMXD.m                3948.42:  Inc Max Depth 
 JARR.                      No:  Jarring 
 LETM.      03.05.00 01-Feb-20:  Log End Time 
 LOST.hr                     0:  Lost Rig Time 
 LSTM.      15.50.00 28-Jan-20:  Log Start Time 
 MDCL.ppm             37500.00:  Mud Chlorides 
 MDES.     Inversion Oil/Synthetic:  Mud Desc 
 DFD .sg                  1.32:  Mud Density 
 MDMN.sg                  1.32:  Dens Mud Min 
 MDMX.sg                  1.32:  Dens Mud Max 
 MOIL.                      55:  Run Mud Oil % 
 MOWR.                   70:30:  Run Mud OWR 
 MSND.                       0:  Run Mud Sand % 
 MSOL.                      17:  Run Mud Solids% 
 DFV .spqt               80.00:  Mud Viscosity 
 MWOD.in                  4.75:  MWD Tool OD 
 MWSI.                      No:  Serv Intrp, MWD 
 OTIM.hr                121.28:  Time Operating 
 PCON.           Look Like New:  Pad Condition 
 PMAX.psia             6171.00:  Press Op, Max 
 PV  .cP                 30.00:  Mud PV 
 RUN .                     300:  Run Number 
 ROPA.m/hr                5.45:  ROP Avg 
 ROPN.m/hr                3.00:  ROP Min 
 ROPX.m/hr               15.00:  ROP Max 
 RPMA.rpm               130.00:  RPM Surface Avg 
 RPMN.rpm                80.00:  RPM Surface Min 
 RPMX.rpm               140.00:  RPM Surface Max 
 RRUN.                     300:  Rig Run Number 
 RTIM.hr                 13.50:  Time Reaming 
 SAZI.deg               133.93:  Azm, Start 
 SDEP.m                3878.01:  Start Depth 
 SIDD.                      No:  Serv Intrp, DD 
 SINC.deg                40.28:  Inc, Start 
 SPPA.psig             4983.00:  SPP Avg 
 SPPN.psig             4370.00:  SPP Min 
 SPPX.psig             5300.00:  SPP Max 
 STIM.      18.33.36 27-Jan-20:  Start Time 
 SVCS.                 DD, MWD:  Services 
 SVER.                    9.20:  Sperry Version 
 TDAT.m                 169.50:  Tot Depth Attmp 
 TDDF.                      No:  Trip for DD 
 TDLG.m                 169.50:  Tot Depth Loggd 
 TFF .                      No:  Trip for Fail 
 TQAA.f-kp               13.25:  Torque Abs Avg 
 TQAN.f-kp               12.00:  Torque Abs Min 
 TQAX.f-kp               14.00:  Torque Abs Max 
 TRRT.°/30m               0.70:  Turn Rotating 
 MRT .                     ADR:  Maximum Recorded Temperature 
 TTMX.degC               92.16:  Max Tool Temp 
 VS01.       AZ90598764G12V7D4:  Virtual Str1 SN 
 VS02.         AZ90571342R12C4:  Virtual Str2 SN 
 VS03.      AZ90580010N2L2X1C4:  Virtual Str3 SN 
 VS04.        AZ90522266O7X1C4:  Virtual Str4 SN 
 VS05.           AZ90598768F11:  Virtual Str5 SN 
 VS06.     AZ90580006XZ1W1X1C4:  Virtual Str6 SN 
 WBMN.klb                 8.00:  WOB Min 
 WITN.            Peter Wilson:  Customer Rep 
 WOBA.klb                 9.88:  WOB Avg 
 WOBX.klb                10.00:  WOB Max 
 YP  .lhf2               27.00:  Yield Point 
~Curve Information Block
#MNEM.UNIT                 API CODE     Curve Description
#---------               -----------    ---------------------------
 TIME.HHMMSS            00 000 000 000:  GT Time & Date
 GTDEPTH.m              00 000 000 000:  GT Depth
 GTPQH.psia             00 000 000 000:  GT HR Quartz Pressure
 GTTQ.degC              00 000 000 000:  GT Quartz Temperature
 GTTN.NONE              00 000 000 000:  GT Test Number
 GTET.sec               00 000 000 000:  GT Elapsed Test Time
 GTTVD.m                00 000 000 000:  GT True Vertical Depth
#Other Information
#
#WARRANTY: Halliburton will use its best efforts to furnish customers with 
#accurate information and interpretations that are part of, and incident to, the services 
#provided.  However, Halliburton cannot and does not warrant the accuracy 
#or correctness of such information and interpretations.  Under no circumstances should any 
#such information or interpretation be relied upon as the sole basis for any drilling, 
#completion, production, or financial decision or any procedure involving any risk to the 
#safety of any drilling venture, drilling rig or its crew or any other third party.  The 
#Customer has full responsibility for all drilling, completion and production operation.  
#Halliburton makes no representations or warranties, either expressed or 
#implied, including, but not limited to, the implied warranties of merchantability or fitness 
#for a particular purpose, with respect to the services rendered.  In no event will 
#Halliburton be liable for failure to obtain any particular results or for 
#any damages, including, but not limited to, indirect, special or consequential damages, 
#resulting from the use of any information or interpretation provided by Halliburton.
#
~A           TIME           GTDEPTH  GTPQH  GTTQ  GTTN   GTET   GTTVD  
# ...
   04:19:59.017.01-Feb-2020 3998.51 6021.38 84.56 12.00 453.59 3011.77
   04:19:59.218.01-Feb-2020 3998.51 6021.38 84.56 12.00 453.79 3011.77
   04:19:59.418.01-Feb-2020 3998.51 6015.69 84.56 12.00 453.99 3011.77
   04:19:59.619.01-Feb-2020 3998.51 6020.45 84.56 12.00 454.19 3011.77
   04:19:59.820.01-Feb-2020 3998.51 6017.88 84.56 12.00 454.39 3011.77
   04:20:00.021.01-Feb-2020 3998.51 6020.85 84.56 12.00 454.59 3011.77
   04:20:00.221.01-Feb-2020 3998.51 6020.85 84.56 12.00 454.79 3011.77
   04:20:00.422.01-Feb-2020 3998.51 6019.46 84.56 12.00 454.99 3011.77
   04:20:00.623.01-Feb-2020 3998.51 6019.29 84.56 12.00 455.19 3011.77
   04:20:00.823.01-Feb-2020 3998.51 6016.18 84.56 12.00 455.39 3011.77
   04:20:01.024.01-Feb-2020 3998.51 6016.84 84.56 12.00 455.59 3011.77
   04:20:01.225.01-Feb-2020 3998.51 6016.84 84.56 12.00 455.79 3011.77
   04:20:01.425.01-Feb-2020 3998.51 6018.53 84.56 12.00 455.99 3011.77
   04:20:01.626.01-Feb-2020 3998.51 6021.28 84.56 12.00 456.20 3011.77
   04:20:01.827.01-Feb-2020 3998.51 6020.56 84.56 12.00 456.40 3011.77
   04:20:02.028.01-Feb-2020 3998.51 6014.42 84.56 12.00 456.60 3011.77
   04:20:02.228.01-Feb-2020 3998.51 6014.42 84.56 12.00 456.80 3011.77
   04:20:02.429.01-Feb-2020 3998.51 6017.59 84.56 12.00 457.00 3011.77
   04:20:02.630.01-Feb-2020 3998.51 6021.57 84.56 12.00 457.20 3011.77
   04:20:02.830.01-Feb-2020 3998.51 6021.58 84.56 12.00 457.40 3011.77
   04:20:03.031.01-Feb-2020 3998.51 6021.31 84.56 12.00 457.60 3011.77
   04:20:03.232.01-Feb-2020 3998.51 6021.31 84.56 12.00 457.80 3011.77
   04:20:03.432.01-Feb-2020 3998.51 6020.42 84.56 12.00 458.00 3011.77
   04:20:03.633.01-Feb-2020 3998.51 6019.89 84.56 12.00 458.20 3011.77
   04:20:03.834.01-Feb-2020 3998.51 6021.05 84.56 12.00 458.40 3011.77
   04:20:04.035.01-Feb-2020 3998.51 6020.85 84.56 12.00 458.60 3011.77
   04:20:04.235.01-Feb-2020 3998.51 6020.85 84.56 12.00 458.80 3011.77
   04:20:04.436.01-Feb-2020 3998.51 6020.06 84.56 12.00 459.00 3011.77
   04:20:04.637.01-Feb-2020 3998.51 6020.08 84.56 12.00 459.21 3011.77
   04:20:04.837.01-Feb-2020 3998.51 6018.90 84.56 12.00 459.41 3011.77
   04:20:05.038.01-Feb-2020 3998.51 6019.20 84.56 12.00 459.61 3011.77
   04:20:05.239.01-Feb-2020 3998.51 6019.20 84.56 12.00 459.81 3011.77
   04:20:05.440.01-Feb-2020 3998.51 6019.82 84.56 12.00 460.01 3011.77
   04:20:05.640.01-Feb-2020 3998.51 6018.22 84.55 12.00 460.21 3011.77
   04:20:05.841.01-Feb-2020 3998.51 6017.15 84.55 12.00 460.41 3011.77
   04:20:06.042.01-Feb-2020 3998.51 6017.05 84.55 12.00 460.61 3011.77
   04:20:06.242.01-Feb-2020 3998.51 6017.05 84.55 12.00 460.81 3011.77
   04:20:06.443.01-Feb-2020 3998.51 6020.73 84.55 12.00 461.01 3011.77
   04:20:06.644.01-Feb-2020 3998.51 6020.35 84.55 12.00 461.21 3011.77
   04:20:06.844.01-Feb-2020 3998.51 6020.98 84.55 12.00 461.41 3011.77
   04:20:07.045.01-Feb-2020 3998.51 6020.36 84.55 12.00 461.61 3011.77
   04:20:07.246.01-Feb-2020 3998.51 6020.36 84.55 12.00 461.81 3011.77
   04:20:07.447.01-Feb-2020 3998.51 6021.24 84.55 12.00 462.02 3011.77
   04:20:07.647.01-Feb-2020 3998.51 6020.00 84.55 12.00 462.22 3011.77
   04:20:07.848.01-Feb-2020 3998.51 6021.17 84.55 12.00 462.42 3011.77
   04:20:08.049.01-Feb-2020 3998.51 6021.97 84.55 12.00 462.62 3011.77
   04:20:08.249.01-Feb-2020 3998.51 6021.97 84.55 12.00 462.82 3011.77
   04:20:08.450.01-Feb-2020 3998.51 6020.77 84.55 12.00 463.02 3011.77
   04:20:08.651.01-Feb-2020 3998.51 6020.81 84.55 12.00 463.22 3011.77
   04:20:08.851.01-Feb-2020 3998.51 6021.06 84.55 12.00 463.42 3011.77
   04:20:09.052.01-Feb-2020 3998.51 6023.55 84.55 12.00 463.62 3011.77
   04:20:09.253.01-Feb-2020 3998.51 6023.55 84.55 12.00 463.82 3011.77
   04:20:09.454.01-Feb-2020 3998.51 6021.41 84.55 12.00 464.02 3011.77
   04:20:09.654.01-Feb-2020 3998.51 6020.07 84.55 12.00 464.22 3011.77
   04:20:09.855.01-Feb-2020 3998.51 6020.14 84.55 12.00 464.42 3011.77
   04:20:10.056.01-Feb-2020 3998.51 6020.63 84.55 12.00 464.62 3011.77
   04:20:10.256.01-Feb-2020 3998.51 6020.63 84.55 12.00 464.83 3011.77
   04:20:10.457.01-Feb-2020 3998.51 6018.73 84.55 12.00 465.03 3011.77
   04:20:10.658.01-Feb-2020 3998.51 6018.56 84.55 12.00 465.23 3011.77
   04:20:10.858.01-Feb-2020 3998.51 6020.65 84.55 12.00 465.43 3011.77
   04:20:11.059.01-Feb-2020 3998.51 6019.67 84.55 12.00 465.63 3011.77
   04:20:11.260.01-Feb-2020 3998.51 6019.67 84.55 12.00 465.83 3011.77
   04:20:11.461.01-Feb-2020 3998.51 6017.29 84.54 12.00 466.03 3011.77
   04:20:11.661.01-Feb-2020 3998.51 6016.33 84.54 12.00 466.23 3011.77
   04:20:11.862.01-Feb-2020 3998.51 6017.72 84.54 12.00 466.43 3011.77
   04:20:12.063.01-Feb-2020 3998.51 6017.61 84.54 12.00 466.63 3011.77
   04:20:12.263.01-Feb-2020 3998.51 6017.61 84.54 12.00 466.83 3011.77
   04:20:12.464.01-Feb-2020 3998.51 6015.20 84.54 12.00 467.03 3011.77
   04:20:12.665.01-Feb-2020 3998.51 6016.77 84.54 12.00 467.23 3011.77
   04:20:12.865.01-Feb-2020 3998.51 6020.40 84.54 12.00 467.43 3011.77
   04:20:13.066.01-Feb-2020 3998.51 6018.54 84.54 12.00 467.64 3011.77
   04:20:13.267.01-Feb-2020 3998.51 6018.54 84.54 12.00 467.84 3011.77
   04:20:13.468.01-Feb-2020 3998.51 6021.40 84.54 12.00 468.04 3011.77
   04:20:13.668.01-Feb-2020 3998.51 6017.74 84.54 12.00 468.24 3011.77
   04:20:13.869.01-Feb-2020 3998.51 6019.70 84.54 12.00 468.44 3011.77
   04:20:14.070.01-Feb-2020 3998.51 6021.04 84.54 12.00 468.64 3011.77
   04:20:14.270.01-Feb-2020 3998.51 6021.04 84.54 12.00 468.84 3011.77
   04:20:14.471.01-Feb-2020 3998.51 6021.29 84.54 12.00 469.04 3011.77
   04:20:14.672.01-Feb-2020 3998.51 6022.02 84.54 12.00 469.24 3011.77
   04:20:14.872.01-Feb-2020 3998.51 6020.42 84.54 12.00 469.44 3011.77
   04:20:15.073.01-Feb-2020 3998.51 6021.24 84.54 12.00 469.64 3011.77
   04:20:15.274.01-Feb-2020 3998.51 6021.24 84.54 12.00 469.84 3011.77
   04:20:15.475.01-Feb-2020 3998.51 6021.24 84.54 12.00 470.04 3011.77
   04:20:15.675.01-Feb-2020 3998.51 6021.89 84.54 12.00 470.24 3011.77
   04:20:15.876.01-Feb-2020 3998.51 6020.32 84.54 12.00 470.44 3011.77
   04:20:16.077.01-Feb-2020 3998.51 6020.22 84.54 12.00 470.65 3011.77
   04:20:16.277.01-Feb-2020 3998.51 6020.22 84.54 12.00 470.85 3011.77
   04:20:16.478.01-Feb-2020 3998.51 6021.00 84.54 12.00 471.05 3011.77
   04:20:16.679.01-Feb-2020 3998.51 6020.98 84.53 12.00 471.25 3011.77
   04:20:16.880.01-Feb-2020 3998.51 6015.03 84.53 12.00 471.45 3011.77
   04:20:17.080.01-Feb-2020 3998.51 6019.02 84.53 12.00 471.65 3011.77
   04:20:17.281.01-Feb-2020 3998.51 6019.02 84.53 12.00 471.85 3011.77
   04:20:17.482.01-Feb-2020 3998.51 6019.91 84.53 12.00 472.05 3011.77
   04:20:17.682.01-Feb-2020 3998.51 6019.18 84.53 12.00 472.25 3011.77
   04:20:17.883.01-Feb-2020 3998.51 6019.82 84.53 12.00 472.45 3011.77
   04:20:18.084.01-Feb-2020 3998.51 6019.85 84.53 12.00 472.65 3011.77
   04:20:18.284.01-Feb-2020 3998.51 6019.85 84.53 12.00 472.85 3011.77
   04:20:18.485.01-Feb-2020 3998.51 6019.83 84.53 12.00 473.05 3011.77
   04:20:18.686.01-Feb-2020 3998.51 6020.24 84.53 12.00 473.25 3011.77
   04:20:18.887.01-Feb-2020 3998.51 6020.46 84.53 12.00 473.46 3011.77
   04:20:19.087.01-Feb-2020 3998.51 6021.11 84.53 12.00 473.66 3011.77
   04:20:19.288.01-Feb-2020 3998.51 6021.11 84.53 12.00 473.86 3011.77
   04:20:19.489.01-Feb-2020 3998.51 6020.34 84.53 12.00 474.06 3011.77
   04:20:19.689.01-Feb-2020 3998.51 6020.01 84.53 12.00 474.26 3011.77
   04:20:19.890.01-Feb-2020 3998.51 6020.38 84.53 12.00 474.46 3011.77
   04:20:20.091.01-Feb-2020 3998.51 6020.81 84.53 12.00 474.66 3011.77
   04:20:20.291.01-Feb-2020 3998.51 6020.81 84.53 12.00 474.86 3011.77
   04:20:20.492.01-Feb-2020 3998.51 6014.75 84.53 12.00 475.06 3011.77
   04:20:20.693.01-Feb-2020 3998.51 6020.15 84.53 12.00 475.26 3011.77
   04:20:20.894.01-Feb-2020 3998.51 6019.92 84.53 12.00 475.46 3011.77
