~Version Information
 VERS.                  2.0:   CWLS log ASCII Standard -VERSION 2.0
 WRAP.                   NO:   One line per depth step
~Well Information Block
#MNEM.UNIT     VALUE/NAME     DESCRIPTION
#---------     -----------    ---------------------------
 STRT.S             06:25:21 31-Jan-20: START TIME 06:25:21 31-Jan-20
 STOP.S             06:31:52 31-Jan-20: STOP TIME  06:31:52 31-Jan-20
 STEP.S                   0.00: STEP TIME
 NULL.                 -999.25: NULL VALUE
 DFWT.                        :  DIST FWL TEXT
 DFST.                        :  DIST FSL TEXT
 DMF .             Drill Floor:  DRILL MEAS FROM
 STIM.      09.30.00 26-Dec-19:  START TIME
 DATE.      08.00.00 20-Jan-20:  END TIME
 SPUD.               23-Nov-19:  SPUD DATE
 NREF.                    Grid:  NORTH REFERENCE
 HPTY.       Minimum Curvature:  HOLE POS TYPE
 DMOD.             Drill Model:  DRILL MOD DESC
 SVYD.                  Survey:  SURVEY DESC
 ILTD.               Lithology:  INTERP LTH DESC
 FTOP.          Formation Tops:  FORM TOPS DESC
 SON .        AZ-XX-0906192647:  JOB NUMBER
 WTYP.                Deviated:  WELL TYPE
 COMP.     BP Exploration (Caspian Sea) Ltd:  COMPANY
 BASE.              Azerbaijan:  LOGGING EQUIPMENT BASE LOCATION
 REGN.                 Eurasia:  REGION
 FLD .                     ACG:  FIELD NAME
 SRVC.              KCA Deutag:  CONTRACTOR
 MWDS.                    Baku:  MWD SHOP
 WELL.     A10 (Slot 20) - SCP:  WELL NAME
 JOBN.        AZ-XX-0906192647:  JOB TICKET NUMB
 RIG .                 Chirag1:  RIG NAME
 DCON.     Halliburton Sperry Drilling:  DIRECTNL CONTR
 UNIT.                     N/A:  LOGGING EQUIPMENT ID
 PDAT.          Mean Sea Level:  PERMANENT DATUM
 MDS .        Operator Entered:  MAG DATA SOURCE
 CTRY.              Azerbaijan:  COUNTRY NAME
 UWI .            /AZE00000090:  UNIQUE WELL IDENTIFIER
 API .            /AZE00000090:  API NUMBER
 CNTY.                        :  COUNTY
 PROV.                        :  PROVINCE
 STAT.                        :  STATE
 LOC .                        :  LOCATION
 LMF .             Drill Floor:  LOG MEASURED FROM
 TVDS.m                  36.60:  TVDSS CORRECTN
 LATI.deg                40.08:  LATITUDE
 LONG.deg                51.24:  LONGITUDE
 WHNS.m                  -7.94:  WELL HEAD N/S
 WHEW.m                   1.56:  WELL HEAD E/W
 UTMX.m              520429.26:  UTM X
 UTMY.m             4438973.87:  UTM Y
 DFWL.m                   0.00:  DISTANCE FWL
 DFSL.m                   0.00:  DISTANCE FSL
 SDEP.m                1455.00:  START DEPTH
 TDD .m                4047.51:  TOTAL DEPTH (DRILLER)
 VSDR.deg               112.75:  VERT SEC DIRECT
 GVFD.g                   1.00:  GRAVITY FIELD
 MFLD.nT              50261.00:  MAGNETIC FIELD
 MDIP.deg                59.52:  MAGNETIC DIP
 MDEC.deg                 6.42:  MAGNETIC DECL
 GRDC.deg                 0.17:  GRID CORRECTION
 AZTC.deg                 6.25:  AZM TOTAL CORR
 EPD .m                   0.00:  ELEVATION
 EGL .m                   0.00:  GROUND ELEVATION
 WDMS.m                 121.00:  WD ELEV
 APD .m                  36.60:  DEPTH ABOVE PD
 AGAP.m                  36.60:  AIR GAP
 VSEW.m                   1.56:  VERT SEC E/W
 VSNS.m                  -7.94:  VERT SEC N/S
 DEP .m                1140.01:  DEPTH
 EKB .m                  36.60:  KB ELEVATION
 EDF .m                  36.60:  DF ELEVATION
 TDL .m                 169.50:  TOTAL DEPTH (LOGGER)
 CSGD.m                3875.01:  CASING BOTTOM (DRILLER)
 CSGL.m                3875.01:  CASING BOTTOM (LOGGER)
 CSGS.in                  7.63:  CASING SIZE
 CSGW.lbpf               23.50:  CASING WEIGHT
 VSC .                       0:  VS TO CLOSURE
 MAGU.                 1849206:  MAGUTM CHECKSUM
~Parameter Information Block
#MNEM.UNIT       Value        Description
#---------     -----------    ---------------------------
 AV  .mps                 1.90:  Ann Velocity 
 AVMX.mps                 2.54:  Max Ann Veloc 
 AZIF.deg               137.03:  Azm, Final 
 BHAT.        Rotary Steerable:  BHA Type 
 BREV.rev             23610.00:  Rev Bit Total 
 BROT.°/30m               0.80:  Build Rotating 
 BS  .in                  6.50:  Bit Size 
 BTPL.psig              110.00:  Bit Press Loss 
 CABU.                     Yes:  Customer Abuse 
 COMM.                     Ð„:  Run Comments 1 
 TCS .hr                 70.51:  Time Ciculation Ended 
 CV  .mps                 1.41:  Crit Velocity 
 CVMX.mps                 1.42:  Max Crit Veloc 
 DD1 .         Intigam Rahimov:  Direct Drillr 1 
 DD2 .          Rashad Gojayev:  Direct Drillr 2 
 DDSV.               Geo-Pilot:  DD Service 
 DEFF.%                 100.00:  % Det Eff 
 DLRX.°/30m               1.44:  Dogleg Rot Max 
 DLSO.°/30m               0.00:  Dogleg Oriented 
 DLSX.°/30m               0.00:  Dogleg Str Max 
 DRET.      03.05.00 01-Feb-20:  Drill End Time 
 DRST.      15.50.00 28-Jan-20:  Drill Start Tim 
 DTIM.hr                 24.70:  Time Drilling 
 EDEP.m                4047.51:  End Depth 
 ENG1.           Eldar Hajiyev:  Engineer 1 
 ENG2.          Rasim Hashimov:  Engineer 2 
 ENG3.          Rustam Safarov:  Engineer 3 
 ETIM.      22.00.00 01-Feb-20:  End Time 
 FLOI.gpm               370.00:  Flow In 
 FLON.gpm               300.00:  Flow In Min 
 FLOS.cptm                0.00:  Fluid Loss 
 FLOX.gpm               400.00:  Flow In Max 
 FTRO.       Formation Presure:  FTWD Run Obj 
 HFLO.                      No:  High Flow 
 HPRE.                      No:  High Pressure 
 HTEM.                      No:  High Temp 
 HYDO.m                   2.50:  Hydro Offset 
 IFIN.deg                39.54:  Inc, Final 
 IMAX.deg                41.14:  Inc Max 
 IMIN.deg                39.81:  Inc Min 
 IMND.m                4005.21:  Inc Min Depth 
 IMXD.m                3948.42:  Inc Max Depth 
 JARR.                      No:  Jarring 
 LETM.      03.05.00 01-Feb-20:  Log End Time 
 LOST.hr                     0:  Lost Rig Time 
 LSTM.      15.50.00 28-Jan-20:  Log Start Time 
 MDCL.ppm             37500.00:  Mud Chlorides 
 MDES.     Inversion Oil/Synthetic:  Mud Desc 
 DFD .sg                  1.32:  Mud Density 
 MDMN.sg                  1.32:  Dens Mud Min 
 MDMX.sg                  1.32:  Dens Mud Max 
 MOIL.                      55:  Run Mud Oil % 
 MOWR.                   70:30:  Run Mud OWR 
 MSND.                       0:  Run Mud Sand % 
 MSOL.                      17:  Run Mud Solids% 
 DFV .spqt               80.00:  Mud Viscosity 
 MWOD.in                  4.75:  MWD Tool OD 
 MWSI.                      No:  Serv Intrp, MWD 
 OTIM.hr                121.28:  Time Operating 
 PCON.           Look Like New:  Pad Condition 
 PMAX.psia             6171.00:  Press Op, Max 
 PV  .cP                 30.00:  Mud PV 
 RUN .                     300:  Run Number 
 ROPA.m/hr                5.45:  ROP Avg 
 ROPN.m/hr                3.00:  ROP Min 
 ROPX.m/hr               15.00:  ROP Max 
 RPMA.rpm               130.00:  RPM Surface Avg 
 RPMN.rpm                80.00:  RPM Surface Min 
 RPMX.rpm               140.00:  RPM Surface Max 
 RRUN.                     300:  Rig Run Number 
 RTIM.hr                 13.50:  Time Reaming 
 SAZI.deg               133.93:  Azm, Start 
 SDEP.m                3878.01:  Start Depth 
 SIDD.                      No:  Serv Intrp, DD 
 SINC.deg                40.28:  Inc, Start 
 SPPA.psig             4983.00:  SPP Avg 
 SPPN.psig             4370.00:  SPP Min 
 SPPX.psig             5300.00:  SPP Max 
 STIM.      18.33.36 27-Jan-20:  Start Time 
 SVCS.                 DD, MWD:  Services 
 SVER.                    9.20:  Sperry Version 
 TDAT.m                 169.50:  Tot Depth Attmp 
 TDDF.                      No:  Trip for DD 
 TDLG.m                 169.50:  Tot Depth Loggd 
 TFF .                      No:  Trip for Fail 
 TQAA.f-kp               13.25:  Torque Abs Avg 
 TQAN.f-kp               12.00:  Torque Abs Min 
 TQAX.f-kp               14.00:  Torque Abs Max 
 TRRT.°/30m               0.70:  Turn Rotating 
 MRT .                     ADR:  Maximum Recorded Temperature 
 TTMX.degC               92.16:  Max Tool Temp 
 VS01.       AZ90598764G12V7D4:  Virtual Str1 SN 
 VS02.         AZ90571342R12C4:  Virtual Str2 SN 
 VS03.      AZ90580010N2L2X1C4:  Virtual Str3 SN 
 VS04.        AZ90522266O7X1C4:  Virtual Str4 SN 
 VS05.           AZ90598768F11:  Virtual Str5 SN 
 VS06.     AZ90580006XZ1W1X1C4:  Virtual Str6 SN 
 WBMN.klb                 8.00:  WOB Min 
 WITN.            Peter Wilson:  Customer Rep 
 WOBA.klb                 9.88:  WOB Avg 
 WOBX.klb                10.00:  WOB Max 
 YP  .lhf2               27.00:  Yield Point 
~Curve Information Block
#MNEM.UNIT                 API CODE     Curve Description
#---------               -----------    ---------------------------
 TIME.HHMMSS            00 000 000 000:  GT Time & Date
 GTDEPTH.m              00 000 000 000:  GT Depth
 GTPQH.psia             00 000 000 000:  GT HR Quartz Pressure
 GTTQ.degC              00 000 000 000:  GT Quartz Temperature
 GTTN.NONE              00 000 000 000:  GT Test Number
 GTET.sec               00 000 000 000:  GT Elapsed Test Time
 GTTVD.m                00 000 000 000:  GT True Vertical Depth
#Other Information
#
#WARRANTY: Halliburton will use its best efforts to furnish customers with 
#accurate information and interpretations that are part of, and incident to, the services 
#provided.  However, Halliburton cannot and does not warrant the accuracy 
#or correctness of such information and interpretations.  Under no circumstances should any 
#such information or interpretation be relied upon as the sole basis for any drilling, 
#completion, production, or financial decision or any procedure involving any risk to the 
#safety of any drilling venture, drilling rig or its crew or any other third party.  The 
#Customer has full responsibility for all drilling, completion and production operation.  
#Halliburton makes no representations or warranties, either expressed or 
#implied, including, but not limited to, the implied warranties of merchantability or fitness 
#for a particular purpose, with respect to the services rendered.  In no event will 
#Halliburton be liable for failure to obtain any particular results or for 
#any damages, including, but not limited to, indirect, special or consequential damages, 
#resulting from the use of any information or interpretation provided by Halliburton.
#
~A           TIME           GTDEPTH  GTPQH  GTTQ  GTTN  GTET   GTTVD  
# ...
   06:31:06.798.31-Jan-2020 3914.01 2993.77 78.29 4.00 345.07 2947.83
   06:31:06.998.31-Jan-2020 3914.01 2993.77 78.29 4.00 345.27 2947.83
   06:31:07.198.31-Jan-2020 3914.01 2993.71 78.29 4.00 345.47 2947.83
   06:31:07.398.31-Jan-2020 3914.01 2993.68 78.29 4.00 345.67 2947.83
   06:31:07.598.31-Jan-2020 3914.01 2993.70 78.29 4.00 345.87 2947.83
   06:31:07.798.31-Jan-2020 3914.01 2993.73 78.29 4.00 346.07 2947.83
   06:31:07.998.31-Jan-2020 3914.01 2993.73 78.29 4.00 346.27 2947.83
   06:31:08.198.31-Jan-2020 3914.01 2993.66 78.29 4.00 346.47 2947.83
   06:31:08.398.31-Jan-2020 3914.01 2993.65 78.29 4.00 346.67 2947.83
   06:31:08.598.31-Jan-2020 3914.01 2993.67 78.29 4.00 346.87 2947.83
   06:31:08.798.31-Jan-2020 3914.01 2993.65 78.29 4.00 347.07 2947.83
   06:31:08.998.31-Jan-2020 3914.01 2993.65 78.29 4.00 347.27 2947.83
   06:31:09.198.31-Jan-2020 3914.01 2994.94 78.29 4.00 347.47 2947.83
   06:31:09.398.31-Jan-2020 3914.01 3011.78 78.29 4.00 347.67 2947.83
   06:31:09.598.31-Jan-2020 3914.01 3642.53 78.29 4.00 347.87 2947.83
   06:31:09.798.31-Jan-2020 3914.01 5943.88 78.28 4.00 348.07 2947.83
   06:31:09.998.31-Jan-2020 3914.01 5943.88 78.28 4.00 348.27 2947.83
   06:31:10.198.31-Jan-2020 3914.01 5938.80 78.28 4.00 348.47 2947.83
   06:31:10.398.31-Jan-2020 3914.01 5942.12 78.28 4.00 348.67 2947.83
   06:31:10.598.31-Jan-2020 3914.01 5943.82 78.28 4.00 348.87 2947.83
   06:31:10.798.31-Jan-2020 3914.01 5945.48 78.28 4.00 349.07 2947.83
   06:31:10.998.31-Jan-2020 3914.01 5945.48 78.28 4.00 349.27 2947.83
   06:31:11.198.31-Jan-2020 3914.01 5946.38 78.28 4.00 349.47 2947.83
   06:31:11.398.31-Jan-2020 3914.01 5947.04 78.28 4.00 349.67 2947.83
   06:31:11.598.31-Jan-2020 3914.01 5947.67 78.28 4.00 349.87 2947.83
   06:31:11.799.31-Jan-2020 3914.01 5948.70 78.28 4.00 350.07 2947.83
   06:31:11.999.31-Jan-2020 3914.01 5948.70 78.28 4.00 350.27 2947.83
   06:31:12.199.31-Jan-2020 3914.01 5950.02 78.28 4.00 350.47 2947.83
   06:31:12.399.31-Jan-2020 3914.01 5949.74 78.28 4.00 350.67 2947.83
   06:31:12.599.31-Jan-2020 3914.01 5949.61 78.28 4.00 350.87 2947.83
   06:31:12.799.31-Jan-2020 3914.01 5949.86 78.28 4.00 351.07 2947.83
   06:31:12.999.31-Jan-2020 3914.01 5949.86 78.28 4.00 351.27 2947.83
   06:31:13.199.31-Jan-2020 3914.01 5951.54 78.28 4.00 351.47 2947.83
   06:31:13.399.31-Jan-2020 3914.01 5944.46 78.28 4.00 351.67 2947.83
   06:31:13.599.31-Jan-2020 3914.01 5950.37 78.28 4.00 351.87 2947.83
   06:31:13.799.31-Jan-2020 3914.01 5950.08 78.28 4.00 352.07 2947.83
   06:31:13.999.31-Jan-2020 3914.01 5950.08 78.28 4.00 352.27 2947.83
   06:31:14.199.31-Jan-2020 3914.01 5949.68 78.28 4.00 352.47 2947.83
   06:31:14.399.31-Jan-2020 3914.01 5944.13 78.28 4.00 352.67 2947.83
   06:31:14.599.31-Jan-2020 3914.01 5951.36 78.28 4.00 352.87 2947.83
   06:31:14.799.31-Jan-2020 3914.01 5952.28 78.28 4.00 353.07 2947.83
   06:31:14.999.31-Jan-2020 3914.01 5952.28 78.28 4.00 353.27 2947.83
   06:31:15.199.31-Jan-2020 3914.01 5952.52 78.28 4.00 353.47 2947.83
   06:31:15.399.31-Jan-2020 3914.01 5952.35 78.28 4.00 353.67 2947.83
   06:31:15.599.31-Jan-2020 3914.01 5951.04 78.29 4.00 353.87 2947.83
   06:31:15.799.31-Jan-2020 3914.01 5944.59 78.29 4.00 354.07 2947.83
   06:31:15.999.31-Jan-2020 3914.01 5944.59 78.29 4.00 354.27 2947.83
   06:31:16.199.31-Jan-2020 3914.01 5952.09 78.29 4.00 354.47 2947.83
   06:31:16.399.31-Jan-2020 3914.01 5953.73 78.29 4.00 354.67 2947.83
   06:31:16.600.31-Jan-2020 3914.01 5952.33 78.29 4.00 354.87 2947.83
   06:31:16.800.31-Jan-2020 3914.01 5943.09 78.29 4.00 355.07 2947.83
   06:31:17.000.31-Jan-2020 3914.01 5943.09 78.29 4.00 355.27 2947.83
   06:31:17.200.31-Jan-2020 3914.01 5953.03 78.29 4.00 355.47 2947.83
   06:31:17.400.31-Jan-2020 3914.01 5953.59 78.29 4.00 355.67 2947.83
   06:31:17.600.31-Jan-2020 3914.01 5952.44 78.29 4.00 355.87 2947.83
   06:31:17.800.31-Jan-2020 3914.01 5951.88 78.29 4.00 356.07 2947.83
   06:31:18.000.31-Jan-2020 3914.01 5951.88 78.29 4.00 356.27 2947.83
   06:31:18.200.31-Jan-2020 3914.01 5946.80 78.29 4.00 356.47 2947.83
   06:31:18.400.31-Jan-2020 3914.01 5948.07 78.29 4.00 356.67 2947.83
   06:31:18.600.31-Jan-2020 3914.01 5953.35 78.29 4.00 356.87 2947.83
   06:31:18.800.31-Jan-2020 3914.01 5954.23 78.29 4.00 357.07 2947.83
   06:31:19.000.31-Jan-2020 3914.01 5954.23 78.29 4.00 357.27 2947.83
   06:31:19.200.31-Jan-2020 3914.01 5952.05 78.29 4.00 357.47 2947.83
   06:31:19.400.31-Jan-2020 3914.01 5951.18 78.29 4.00 357.67 2947.83
   06:31:19.600.31-Jan-2020 3914.01 5952.06 78.29 4.00 357.87 2947.83
   06:31:19.800.31-Jan-2020 3914.01 5953.46 78.29 4.00 358.07 2947.83
   06:31:20.000.31-Jan-2020 3914.01 5953.46 78.29 4.00 358.27 2947.83
   06:31:20.200.31-Jan-2020 3914.01 5952.03 78.29 4.00 358.47 2947.83
   06:31:20.400.31-Jan-2020 3914.01 5951.85 78.29 4.00 358.67 2947.83
   06:31:20.600.31-Jan-2020 3914.01 5951.55 78.29 4.00 358.87 2947.83
   06:31:20.800.31-Jan-2020 3914.01 5950.94 78.29 4.00 359.07 2947.83
   06:31:21.000.31-Jan-2020 3914.01 5950.94 78.29 4.00 359.27 2947.83
   06:31:21.200.31-Jan-2020 3914.01 5953.83 78.29 4.00 359.47 2947.83
   06:31:21.400.31-Jan-2020 3914.01 5954.04 78.29 4.00 359.67 2947.83
   06:31:21.601.31-Jan-2020 3914.01 5952.61 78.29 4.00 359.87 2947.83
   06:31:21.801.31-Jan-2020 3914.01 5951.29 78.29 4.00 360.07 2947.83
   06:31:22.001.31-Jan-2020 3914.01 5951.29 78.29 4.00 360.27 2947.83
   06:31:22.201.31-Jan-2020 3914.01 5951.97 78.29 4.00 360.47 2947.83
   06:31:22.401.31-Jan-2020 3914.01 5952.50 78.29 4.00 360.67 2947.83
   06:31:22.601.31-Jan-2020 3914.01 5954.19 78.29 4.00 360.87 2947.83
   06:31:22.801.31-Jan-2020 3914.01 5954.12 78.29 4.00 361.07 2947.83
   06:31:23.001.31-Jan-2020 3914.01 5954.12 78.29 4.00 361.27 2947.83
   06:31:23.201.31-Jan-2020 3914.01 5952.83 78.29 4.00 361.47 2947.83
   06:31:23.401.31-Jan-2020 3914.01 5952.95 78.29 4.00 361.67 2947.83
   06:31:23.601.31-Jan-2020 3914.01 5953.33 78.29 4.00 361.87 2947.83
   06:31:23.801.31-Jan-2020 3914.01 5953.38 78.29 4.00 362.07 2947.83
   06:31:24.001.31-Jan-2020 3914.01 5953.38 78.29 4.00 362.27 2947.83
   06:31:24.201.31-Jan-2020 3914.01 5953.38 78.28 4.00 362.47 2947.83
   06:31:24.401.31-Jan-2020 3914.01 5952.78 78.28 4.00 362.67 2947.83
   06:31:24.601.31-Jan-2020 3914.01 5952.15 78.28 4.00 362.87 2947.83
   06:31:24.801.31-Jan-2020 3914.01 5953.88 78.28 4.00 363.07 2947.83
   06:31:25.001.31-Jan-2020 3914.01 5953.88 78.28 4.00 363.27 2947.83
   06:31:25.201.31-Jan-2020 3914.01 5954.52 78.28 4.00 363.47 2947.83
   06:31:25.401.31-Jan-2020 3914.01 5948.58 78.28 4.00 363.67 2947.83
   06:31:25.601.31-Jan-2020 3914.01 5948.60 78.28 4.00 363.87 2947.83
   06:31:25.801.31-Jan-2020 3914.01 5951.36 78.28 4.00 364.07 2947.83
   06:31:26.001.31-Jan-2020 3914.01 5951.36 78.28 4.00 364.27 2947.83
   06:31:26.201.31-Jan-2020 3914.01 5952.65 78.28 4.00 364.47 2947.83
   06:31:26.401.31-Jan-2020 3914.01 5948.01 78.28 4.00 364.67 2947.83
   06:31:26.602.31-Jan-2020 3914.01 5949.25 78.28 4.00 364.87 2947.83
   06:31:26.802.31-Jan-2020 3914.01 5952.52 78.28 4.00 365.07 2947.83
   06:31:27.002.31-Jan-2020 3914.01 5952.52 78.28 4.00 365.27 2947.83
   06:31:27.202.31-Jan-2020 3914.01 5952.81 78.28 4.00 365.47 2947.83
   06:31:27.402.31-Jan-2020 3914.01 5952.26 78.28 4.00 365.67 2947.83
   06:31:27.602.31-Jan-2020 3914.01 5943.79 78.28 4.00 365.87 2947.83
   06:31:27.802.31-Jan-2020 3914.01 5951.34 78.28 4.00 366.07 2947.83
   06:31:28.002.31-Jan-2020 3914.01 5951.34 78.28 4.00 366.27 2947.83
   06:31:28.202.31-Jan-2020 3914.01 5951.24 78.28 4.00 366.47 2947.83
   06:31:28.402.31-Jan-2020 3914.01 5953.37 78.28 4.00 366.67 2947.83
   06:31:28.602.31-Jan-2020 3914.01 5944.53 78.28 4.00 366.87 2947.83
   06:31:28.802.31-Jan-2020 3914.01 5951.81 78.28 4.00 367.07 2947.83
   06:31:29.002.31-Jan-2020 3914.01 5951.81 78.28 4.00 367.27 2947.83
   06:31:29.202.31-Jan-2020 3914.01 5951.64 78.28 4.00 367.47 2947.83
   06:31:29.402.31-Jan-2020 3914.01 5953.27 78.28 4.00 367.67 2947.83
   06:31:29.602.31-Jan-2020 3914.01 5944.09 78.28 4.00 367.87 2947.83
