~Version Information
 VERS.                  2.0:   CWLS log ASCII Standard -VERSION 2.0
 WRAP.                   NO:   One line per depth step
~Well Information Block
#MNEM.UNIT     VALUE/NAME     DESCRIPTION
#---------     -----------    ---------------------------
 STRT.S             04:12:25 01-Feb-20: START TIME 04:12:25 01-Feb-20
 STOP.S             04:20:20 01-Feb-20: STOP TIME  04:20:20 01-Feb-20
 STEP.S                   0.00: STEP TIME
 NULL.                 -999.25: NULL VALUE
 DFWT.                        :  DIST FWL TEXT
 DFST.                        :  DIST FSL TEXT
 DMF .             Drill Floor:  DRILL MEAS FROM
 STIM.      09.30.00 26-Dec-19:  START TIME
 DATE.      08.00.00 20-Jan-20:  END TIME
 SPUD.               23-Nov-19:  SPUD DATE
 NREF.                    Grid:  NORTH REFERENCE
 HPTY.       Minimum Curvature:  HOLE POS TYPE
 DMOD.             Drill Model:  DRILL MOD DESC
 SVYD.                  Survey:  SURVEY DESC
 ILTD.               Lithology:  INTERP LTH DESC
 FTOP.          Formation Tops:  FORM TOPS DESC
 SON .        AZ-XX-0906192647:  JOB NUMBER
 WTYP.                Deviated:  WELL TYPE
 COMP.     BP Exploration (Caspian Sea) Ltd:  COMPANY
 BASE.              Azerbaijan:  LOGGING EQUIPMENT BASE LOCATION
 REGN.                 Eurasia:  REGION
 FLD .                     ACG:  FIELD NAME
 SRVC.              KCA Deutag:  CONTRACTOR
 MWDS.                    Baku:  MWD SHOP
 WELL.     A10 (Slot 20) - SCP:  WELL NAME
 JOBN.        AZ-XX-0906192647:  JOB TICKET NUMB
 RIG .                 Chirag1:  RIG NAME
 DCON.     Halliburton Sperry Drilling:  DIRECTNL CONTR
 UNIT.                     N/A:  LOGGING EQUIPMENT ID
 PDAT.          Mean Sea Level:  PERMANENT DATUM
 MDS .        Operator Entered:  MAG DATA SOURCE
 CTRY.              Azerbaijan:  COUNTRY NAME
 UWI .            /AZE00000090:  UNIQUE WELL IDENTIFIER
 API .            /AZE00000090:  API NUMBER
 CNTY.                        :  COUNTY
 PROV.                        :  PROVINCE
 STAT.                        :  STATE
 LOC .                        :  LOCATION
 LMF .             Drill Floor:  LOG MEASURED FROM
 TVDS.m                  36.60:  TVDSS CORRECTN
 LATI.deg                40.08:  LATITUDE
 LONG.deg                51.24:  LONGITUDE
 WHNS.m                  -7.94:  WELL HEAD N/S
 WHEW.m                   1.56:  WELL HEAD E/W
 UTMX.m              520429.26:  UTM X
 UTMY.m             4438973.87:  UTM Y
 DFWL.m                   0.00:  DISTANCE FWL
 DFSL.m                   0.00:  DISTANCE FSL
 SDEP.m                1455.00:  START DEPTH
 TDD .m                4047.51:  TOTAL DEPTH (DRILLER)
 VSDR.deg               112.75:  VERT SEC DIRECT
 GVFD.g                   1.00:  GRAVITY FIELD
 MFLD.nT              50261.00:  MAGNETIC FIELD
 MDIP.deg                59.52:  MAGNETIC DIP
 MDEC.deg                 6.42:  MAGNETIC DECL
 GRDC.deg                 0.17:  GRID CORRECTION
 AZTC.deg                 6.25:  AZM TOTAL CORR
 EPD .m                   0.00:  ELEVATION
 EGL .m                   0.00:  GROUND ELEVATION
 WDMS.m                 121.00:  WD ELEV
 APD .m                  36.60:  DEPTH ABOVE PD
 AGAP.m                  36.60:  AIR GAP
 VSEW.m                   1.56:  VERT SEC E/W
 VSNS.m                  -7.94:  VERT SEC N/S
 DEP .m                1140.01:  DEPTH
 EKB .m                  36.60:  KB ELEVATION
 EDF .m                  36.60:  DF ELEVATION
 TDL .m                 169.50:  TOTAL DEPTH (LOGGER)
 CSGD.m                3875.01:  CASING BOTTOM (DRILLER)
 CSGL.m                3875.01:  CASING BOTTOM (LOGGER)
 CSGS.in                  7.63:  CASING SIZE
 CSGW.lbpf               23.50:  CASING WEIGHT
 VSC .                       0:  VS TO CLOSURE
 MAGU.                 1849206:  MAGUTM CHECKSUM
~Parameter Information Block
#MNEM.UNIT       Value        Description
#---------     -----------    ---------------------------
 AV  .mps                 1.90:  Ann Velocity 
 AVMX.mps                 2.54:  Max Ann Veloc 
 AZIF.deg               137.03:  Azm, Final 
 BHAT.        Rotary Steerable:  BHA Type 
 BREV.rev             23610.00:  Rev Bit Total 
 BROT.°/30m               0.80:  Build Rotating 
 BS  .in                  6.50:  Bit Size 
 BTPL.psig              110.00:  Bit Press Loss 
 CABU.                     Yes:  Customer Abuse 
 TCS .hr                 70.51:  Time Ciculation Ended 
 CV  .mps                 1.41:  Crit Velocity 
 CVMX.mps                 1.42:  Max Crit Veloc 
 DD1 .         Intigam Rahimov:  Direct Drillr 1 
 DD2 .          Rashad Gojayev:  Direct Drillr 2 
 DDSV.               Geo-Pilot:  DD Service 
 DEFF.%                 100.00:  % Det Eff 
 DLRX.°/30m               1.44:  Dogleg Rot Max 
 DLSO.°/30m               0.00:  Dogleg Oriented 
 DLSX.°/30m               0.00:  Dogleg Str Max 
 DRET.      03.05.00 01-Feb-20:  Drill End Time 
 DRST.      15.50.00 28-Jan-20:  Drill Start Tim 
 DTIM.hr                 24.70:  Time Drilling 
 EDEP.m                4047.51:  End Depth 
 ENG1.           Eldar Hajiyev:  Engineer 1 
 ENG2.          Rasim Hashimov:  Engineer 2 
 ENG3.          Rustam Safarov:  Engineer 3 
 ETIM.      22.00.00 01-Feb-20:  End Time 
 FLOI.gpm               370.00:  Flow In 
 FLON.gpm               300.00:  Flow In Min 
 FLOS.cptm                0.00:  Fluid Loss 
 FLOX.gpm               400.00:  Flow In Max 
 FTRO.       Formation Presure:  FTWD Run Obj 
 HFLO.                      No:  High Flow 
 HPRE.                      No:  High Pressure 
 HTEM.                      No:  High Temp 
 HYDO.m                   2.50:  Hydro Offset 
 IFIN.deg                39.54:  Inc, Final 
 IMAX.deg                41.14:  Inc Max 
 IMIN.deg                39.81:  Inc Min 
 IMND.m                4005.21:  Inc Min Depth 
 IMXD.m                3948.42:  Inc Max Depth 
 JARR.                      No:  Jarring 
 LETM.      03.05.00 01-Feb-20:  Log End Time 
 LOST.hr                     0:  Lost Rig Time 
 LSTM.      15.50.00 28-Jan-20:  Log Start Time 
 MDCL.ppm             37500.00:  Mud Chlorides 
 MDES.     Inversion Oil/Synthetic:  Mud Desc 
 DFD .sg                  1.32:  Mud Density 
 MDMN.sg                  1.32:  Dens Mud Min 
 MDMX.sg                  1.32:  Dens Mud Max 
 MOIL.                      55:  Run Mud Oil % 
 MOWR.                   70:30:  Run Mud OWR 
 MSND.                       0:  Run Mud Sand % 
 MSOL.                      17:  Run Mud Solids% 
 DFV .spqt               80.00:  Mud Viscosity 
 MWOD.in                  4.75:  MWD Tool OD 
 MWSI.                      No:  Serv Intrp, MWD 
 OTIM.hr                121.28:  Time Operating 
 PCON.           Look Like New:  Pad Condition 
 PMAX.psia             6171.00:  Press Op, Max 
 PV  .cP                 30.00:  Mud PV 
 RUN .                     300:  Run Number 
 ROPA.m/hr                5.45:  ROP Avg 
 ROPN.m/hr                3.00:  ROP Min 
 ROPX.m/hr               15.00:  ROP Max 
 RPMA.rpm               130.00:  RPM Surface Avg 
 RPMN.rpm                80.00:  RPM Surface Min 
 RPMX.rpm               140.00:  RPM Surface Max 
 RRUN.                     300:  Rig Run Number 
 RTIM.hr                 13.50:  Time Reaming 
 SAZI.deg               133.93:  Azm, Start 
 SDEP.m                3878.01:  Start Depth 
 SIDD.                      No:  Serv Intrp, DD 
 SINC.deg                40.28:  Inc, Start 
 SPPA.psig             4983.00:  SPP Avg 
 SPPN.psig             4370.00:  SPP Min 
 SPPX.psig             5300.00:  SPP Max 
 STIM.      18.33.36 27-Jan-20:  Start Time 
 SVCS.                 DD, MWD:  Services 
 SVER.                    9.20:  Sperry Version 
 TDAT.m                 169.50:  Tot Depth Attmp 
 TDDF.                      No:  Trip for DD 
 TDLG.m                 169.50:  Tot Depth Loggd 
 TFF .                      No:  Trip for Fail 
 TQAA.f-kp               13.25:  Torque Abs Avg 
 TQAN.f-kp               12.00:  Torque Abs Min 
 TQAX.f-kp               14.00:  Torque Abs Max 
 TRRT.°/30m               0.70:  Turn Rotating 
 MRT .                     ADR:  Maximum Recorded Temperature 
 TTMX.degC               92.16:  Max Tool Temp 
 VS01.       AZ90598764G12V7D4:  Virtual Str1 SN 
 VS02.         AZ90571342R12C4:  Virtual Str2 SN 
 VS03.      AZ90580010N2L2X1C4:  Virtual Str3 SN 
 VS04.        AZ90522266O7X1C4:  Virtual Str4 SN 
 VS05.           AZ90598768F11:  Virtual Str5 SN 
 VS06.     AZ90580006XZ1W1X1C4:  Virtual Str6 SN 
 WBMN.klb                 8.00:  WOB Min 
 WITN.            Peter Wilson:  Customer Rep 
 WOBA.klb                 9.88:  WOB Avg 
 WOBX.klb                10.00:  WOB Max 
 YP  .lhf2               27.00:  Yield Point 
~Curve Information Block
#MNEM.UNIT                 API CODE     Curve Description
#---------               -----------    ---------------------------
 TIME.HHMMSS            00 000 000 000:  GT Time & Date
 GTDEPTH.m              00 000 000 000:  GT Depth
 GTPQH.psia             00 000 000 000:  GT HR Quartz Pressure
 GTTQ.degC              00 000 000 000:  GT Quartz Temperature
 GTTN.NONE              00 000 000 000:  GT Test Number
 GTET.sec               00 000 000 000:  GT Elapsed Test Time
 GTTVD.m                00 000 000 000:  GT True Vertical Depth
#Other Information
#
#WARRANTY: Halliburton will use its best efforts to furnish customers with 
#accurate information and interpretations that are part of, and incident to, the services 
#provided.  However, Halliburton cannot and does not warrant the accuracy 
#or correctness of such information and interpretations.  Under no circumstances should any 
#such information or interpretation be relied upon as the sole basis for any drilling, 
#completion, production, or financial decision or any procedure involving any risk to the 
#safety of any drilling venture, drilling rig or its crew or any other third party.  The 
#Customer has full responsibility for all drilling, completion and production operation.  
#Halliburton makes no representations or warranties, either expressed or 
#implied, including, but not limited to, the implied warranties of merchantability or fitness 
#for a particular purpose, with respect to the services rendered.  In no event will 
#Halliburton be liable for failure to obtain any particular results or for 
#any damages, including, but not limited to, indirect, special or consequential damages, 
#resulting from the use of any information or interpretation provided by Halliburton.
#
~A           TIME           GTDEPTH  GTPQH  GTTQ  GTTN   GTET   GTTVD  
   04:12:25.431.01-Feb-2020 3998.51 6005.69 85.79 12.00   0.00 3011.77
   04:12:25.632.01-Feb-2020 3998.51 6005.69 85.79 12.00   0.20 3011.77
   04:12:25.832.01-Feb-2020 3998.51 6003.33 85.79 12.00   0.40 3011.77
   04:12:26.033.01-Feb-2020 3998.51 6003.62 85.79 12.00   0.60 3011.77
   04:12:26.234.01-Feb-2020 3998.51 6003.95 85.79 12.00   0.80 3011.77
   04:12:26.435.01-Feb-2020 3998.51 6002.43 85.79 12.00   1.00 3011.77
   04:12:26.635.01-Feb-2020 3998.51 6002.43 85.79 12.00   1.20 3011.77
   04:12:26.836.01-Feb-2020 3998.51 6004.59 85.79 12.00   1.40 3011.77
   04:12:27.037.01-Feb-2020 3998.51 6001.51 85.79 12.00   1.61 3011.77
   04:12:27.237.01-Feb-2020 3998.51 6004.91 85.79 12.00   1.81 3011.77
   04:12:27.438.01-Feb-2020 3998.51 6004.01 85.79 12.00   2.01 3011.77
   04:12:27.639.01-Feb-2020 3998.51 6004.01 85.79 12.00   2.21 3011.77
   04:12:27.840.01-Feb-2020 3998.51 6006.97 85.78 12.00   2.41 3011.77
   04:12:28.040.01-Feb-2020 3998.51 6005.51 85.78 12.00   2.61 3011.77
   04:12:28.241.01-Feb-2020 3998.51 6007.52 85.78 12.00   2.81 3011.77
   04:12:28.442.01-Feb-2020 3998.51 6007.90 85.78 12.00   3.01 3011.77
   04:12:28.642.01-Feb-2020 3998.51 6007.90 85.78 12.00   3.21 3011.77
   04:12:28.843.01-Feb-2020 3998.51 6006.82 85.78 12.00   3.41 3011.77
   04:12:29.044.01-Feb-2020 3998.51 6007.10 85.78 12.00   3.61 3011.77
   04:12:29.244.01-Feb-2020 3998.51 6009.20 85.78 12.00   3.81 3011.77
   04:12:29.445.01-Feb-2020 3998.51 6010.60 85.78 12.00   4.01 3011.77
   04:12:29.646.01-Feb-2020 3998.51 6010.60 85.78 12.00   4.21 3011.77
   04:12:29.847.01-Feb-2020 3998.51 6011.86 85.78 12.00   4.42 3011.77
   04:12:30.047.01-Feb-2020 3998.51 6012.88 85.78 12.00   4.62 3011.77
   04:12:30.248.01-Feb-2020 3998.51 6010.96 85.78 12.00   4.82 3011.77
   04:12:30.449.01-Feb-2020 3998.51 6011.66 85.77 12.00   5.02 3011.77
   04:12:30.649.01-Feb-2020 3998.51 6011.66 85.77 12.00   5.22 3011.77
   04:12:30.850.01-Feb-2020 3998.51 6011.45 85.77 12.00   5.42 3011.77
   04:12:31.051.01-Feb-2020 3998.51 6011.25 85.77 12.00   5.62 3011.77
   04:12:31.251.01-Feb-2020 3998.51 6009.73 85.77 12.00   5.82 3011.77
   04:12:31.452.01-Feb-2020 3998.51 6008.57 85.77 12.00   6.02 3011.77
   04:12:31.653.01-Feb-2020 3998.51 6008.57 85.77 12.00   6.22 3011.77
   04:12:31.854.01-Feb-2020 3998.51 6008.15 85.77 12.00   6.42 3011.77
   04:12:32.054.01-Feb-2020 3998.51 6007.83 85.77 12.00   6.62 3011.77
   04:12:32.255.01-Feb-2020 3998.51 6006.70 85.77 12.00   6.82 3011.77
   04:12:32.456.01-Feb-2020 3998.51 6001.04 85.77 12.00   7.02 3011.77
   04:12:32.656.01-Feb-2020 3998.51 6001.04 85.77 12.00   7.23 3011.77
   04:12:32.857.01-Feb-2020 3998.51 6005.55 85.76 12.00   7.43 3011.77
   04:12:33.058.01-Feb-2020 3998.51 6005.06 85.76 12.00   7.63 3011.77
   04:12:33.258.01-Feb-2020 3998.51 6006.18 85.76 12.00   7.83 3011.77
   04:12:33.459.01-Feb-2020 3998.51 6006.28 85.76 12.00   8.03 3011.77
   04:12:33.660.01-Feb-2020 3998.51 6006.28 85.76 12.00   8.23 3011.77
   04:12:33.861.01-Feb-2020 3998.51 6006.28 85.76 12.00   8.43 3011.77
   04:12:34.061.01-Feb-2020 3998.51 6008.24 85.76 12.00   8.63 3011.77
   04:12:34.262.01-Feb-2020 3998.51 6009.28 85.76 12.00   8.83 3011.77
   04:12:34.463.01-Feb-2020 3998.51 6010.05 85.76 12.00   9.03 3011.77
   04:12:34.663.01-Feb-2020 3998.51 6010.05 85.76 12.00   9.23 3011.77
   04:12:34.864.01-Feb-2020 3998.51 6010.57 85.76 12.00   9.43 3011.77
   04:12:35.065.01-Feb-2020 3998.51 6010.89 85.76 12.00   9.63 3011.77
   04:12:35.265.01-Feb-2020 3998.51 6010.84 85.76 12.00   9.83 3011.77
   04:12:35.466.01-Feb-2020 3998.51 6012.04 85.75 12.00  10.04 3011.77
   04:12:35.667.01-Feb-2020 3998.51 6012.04 85.75 12.00  10.24 3011.77
   04:12:35.868.01-Feb-2020 3998.51 6006.42 85.75 12.00  10.44 3011.77
   04:12:36.068.01-Feb-2020 3998.51 6013.21 85.75 12.00  10.64 3011.77
   04:12:36.269.01-Feb-2020 3998.51 6010.89 85.75 12.00  10.84 3011.77
   04:12:36.470.01-Feb-2020 3998.51 6012.15 85.75 12.00  11.04 3011.77
   04:12:36.670.01-Feb-2020 3998.51 6012.15 85.75 12.00  11.24 3011.77
   04:12:36.871.01-Feb-2020 3998.51 6012.52 85.75 12.00  11.44 3011.77
   04:12:37.072.01-Feb-2020 3998.51 6005.28 85.75 12.00  11.64 3011.77
   04:12:37.272.01-Feb-2020 3998.51 6013.09 85.75 12.00  11.84 3011.77
   04:12:37.473.01-Feb-2020 3998.51 6010.00 85.75 12.00  12.04 3011.77
   04:12:37.674.01-Feb-2020 3998.51 6010.00 85.75 12.00  12.24 3011.77
   04:12:37.875.01-Feb-2020 3998.51 6011.56 85.75 12.00  12.44 3011.77
   04:12:38.075.01-Feb-2020 3998.51 6011.78 85.74 12.00  12.64 3011.77
   04:12:38.276.01-Feb-2020 3998.51 6008.57 85.74 12.00  12.84 3011.77
   04:12:38.477.01-Feb-2020 3998.51 6010.87 85.74 12.00  13.05 3011.77
   04:12:38.677.01-Feb-2020 3998.51 6010.87 85.74 12.00  13.25 3011.77
   04:12:38.878.01-Feb-2020 3998.51 6011.73 85.74 12.00  13.45 3011.77
   04:12:39.079.01-Feb-2020 3998.51 6012.32 85.74 12.00  13.65 3011.77
   04:12:39.280.01-Feb-2020 3998.51 6010.96 85.74 12.00  13.85 3011.77
   04:12:39.480.01-Feb-2020 3998.51 6009.58 85.74 12.00  14.05 3011.77
   04:12:39.681.01-Feb-2020 3998.51 6009.58 85.74 12.00  14.25 3011.77
   04:12:39.882.01-Feb-2020 3998.51 6007.05 85.74 12.00  14.45 3011.77
   04:12:40.082.01-Feb-2020 3998.51 6012.88 85.74 12.00  14.65 3011.77
   04:12:40.283.01-Feb-2020 3998.51 6010.78 85.74 12.00  14.85 3011.77
   04:12:40.484.01-Feb-2020 3998.51 6007.44 85.74 12.00  15.05 3011.77
   04:12:40.684.01-Feb-2020 3998.51 6007.44 85.74 12.00  15.25 3011.77
   04:12:40.885.01-Feb-2020 3998.51 6011.51 85.73 12.00  15.45 3011.77
   04:12:41.086.01-Feb-2020 3998.51 6012.57 85.73 12.00  15.65 3011.77
   04:12:41.287.01-Feb-2020 3998.51 6013.93 85.73 12.00  15.86 3011.77
   04:12:41.487.01-Feb-2020 3998.51 6013.84 85.73 12.00  16.06 3011.77
   04:12:41.688.01-Feb-2020 3998.51 6013.84 85.73 12.00  16.26 3011.77
   04:12:41.889.01-Feb-2020 3998.51 6008.94 85.73 12.00  16.46 3011.77
   04:12:42.089.01-Feb-2020 3998.51 6010.87 85.73 12.00  16.66 3011.77
   04:12:42.290.01-Feb-2020 3998.51 6013.95 85.73 12.00  16.86 3011.77
   04:12:42.491.01-Feb-2020 3998.51 6012.54 85.73 12.00  17.06 3011.77
   04:12:42.691.01-Feb-2020 3998.51 6012.54 85.73 12.00  17.26 3011.77
   04:12:42.892.01-Feb-2020 3998.51 6095.42 85.73 12.00  17.46 3011.77
   04:12:43.093.01-Feb-2020 3998.51 6147.33 85.72 12.00  17.66 3011.77
   04:12:43.294.01-Feb-2020 3998.51 6211.04 85.72 12.00  17.86 3011.77
   04:12:43.494.01-Feb-2020 3998.51 6275.47 85.72 12.00  18.06 3011.77
   04:12:43.695.01-Feb-2020 3998.51 6275.47 85.72 12.00  18.26 3011.77
   04:12:43.896.01-Feb-2020 3998.51 6405.56 85.72 12.00  18.46 3011.77
   04:12:44.096.01-Feb-2020 3998.51 6438.61 85.72 12.00  18.67 3011.77
   04:12:44.297.01-Feb-2020 3998.51 6418.62 85.72 12.00  18.87 3011.77
   04:12:44.498.01-Feb-2020 3998.51 6478.62 85.72 12.00  19.07 3011.77
   04:12:44.698.01-Feb-2020 3998.51 6478.62 85.72 12.00  19.27 3011.77
   04:12:44.899.01-Feb-2020 3998.51 6573.37 85.72 12.00  19.47 3011.77
   04:12:45.100.01-Feb-2020 3998.51 6654.45 85.72 12.00  19.67 3011.77
   04:12:45.301.01-Feb-2020 3998.51 6723.37 85.72 12.00  19.87 3011.77
   04:12:45.501.01-Feb-2020 3998.51 6676.41 85.72 12.00  20.07 3011.77
   04:12:45.702.01-Feb-2020 3998.51 6676.41 85.72 12.00  20.27 3011.77
   04:12:45.903.01-Feb-2020 3998.51 6742.37 85.71 12.00  20.47 3011.77
   04:12:46.103.01-Feb-2020 3998.51 6720.84 85.71 12.00  20.67 3011.77
   04:12:46.304.01-Feb-2020 3998.51 6738.96 85.71 12.00  20.87 3011.77
   04:12:46.505.01-Feb-2020 3998.51 6746.77 85.71 12.00  21.07 3011.77
   04:12:46.705.01-Feb-2020 3998.51 6746.77 85.71 12.00  21.27 3011.77
   04:12:46.906.01-Feb-2020 3998.51 6759.02 85.71 12.00  21.48 3011.77
   04:12:47.107.01-Feb-2020 3998.51 6687.99 85.71 12.00  21.68 3011.77
   04:12:47.308.01-Feb-2020 3998.51 6705.85 85.71 12.00  21.88 3011.77
   04:12:47.508.01-Feb-2020 3998.51 6743.36 85.71 12.00  22.08 3011.77
   04:12:47.709.01-Feb-2020 3998.51 6743.36 85.71 12.00  22.28 3011.77
   04:12:47.910.01-Feb-2020 3998.51 6819.19 85.71 12.00  22.48 3011.77
