~Version Information
 VERS.                  2.0:   CWLS log ASCII Standard -VERSION 2.0
 WRAP.                   NO:   One line per depth step
~Well Information Block
#MNEM.UNIT     VALUE/NAME     DESCRIPTION
#---------     -----------    ---------------------------
 STRT.S             04:12:25 01-Feb-20: START TIME 04:12:25 01-Feb-20
 STOP.S             04:20:20 01-Feb-20: STOP TIME  04:20:20 01-Feb-20
 STEP.S                   0.00: STEP TIME
 NULL.                 -999.25: NULL VALUE
 DFWT.                        :  DIST FWL TEXT
 DFST.                        :  DIST FSL TEXT
 DMF .             Drill Floor:  DRILL MEAS FROM
 STIM.      09.30.00 26-Dec-19:  START TIME
 DATE.      08.00.00 20-Jan-20:  END TIME
 SPUD.               23-Nov-19:  SPUD DATE
 NREF.                    Grid:  NORTH REFERENCE
 HPTY.       Minimum Curvature:  HOLE POS TYPE
 DMOD.             Drill Model:  DRILL MOD DESC
 SVYD.                  Survey:  SURVEY DESC
 ILTD.               Lithology:  INTERP LTH DESC
 FTOP.          Formation Tops:  FORM TOPS DESC
 SON .        AZ-XX-0906192647:  JOB NUMBER
 WTYP.                Deviated:  WELL TYPE
 COMP.     BP Exploration (Caspian Sea) Ltd:  COMPANY
 BASE.              Azerbaijan:  LOGGING EQUIPMENT BASE LOCATION
 REGN.                 Eurasia:  REGION
 FLD .                     ACG:  FIELD NAME
 SRVC.              KCA Deutag:  CONTRACTOR
 MWDS.                    Baku:  MWD SHOP
 WELL.     A10 (Slot 20) - SCP:  WELL NAME
 JOBN.        AZ-XX-0906192647:  JOB TICKET NUMB
 RIG .                 Chirag1:  RIG NAME
 DCON.     Halliburton Sperry Drilling:  DIRECTNL CONTR
 UNIT.                     N/A:  LOGGING EQUIPMENT ID
 PDAT.          Mean Sea Level:  PERMANENT DATUM
 MDS .        Operator Entered:  MAG DATA SOURCE
 CTRY.              Azerbaijan:  COUNTRY NAME
 UWI .            /AZE00000090:  UNIQUE WELL IDENTIFIER
 API .            /AZE00000090:  API NUMBER
 CNTY.                        :  COUNTY
 PROV.                        :  PROVINCE
 STAT.                        :  STATE
 LOC .                        :  LOCATION
 LMF .             Drill Floor:  LOG MEASURED FROM
 TVDS.m                  36.60:  TVDSS CORRECTN
 LATI.deg                40.08:  LATITUDE
 LONG.deg                51.24:  LONGITUDE
 WHNS.m                  -7.94:  WELL HEAD N/S
 WHEW.m                   1.56:  WELL HEAD E/W
 UTMX.m              520429.26:  UTM X
 UTMY.m             4438973.87:  UTM Y
 DFWL.m                   0.00:  DISTANCE FWL
 DFSL.m                   0.00:  DISTANCE FSL
 SDEP.m                1455.00:  START DEPTH
 TDD .m                4047.51:  TOTAL DEPTH (DRILLER)
 VSDR.deg               112.75:  VERT SEC DIRECT
 GVFD.g                   1.00:  GRAVITY FIELD
 MFLD.nT              50261.00:  MAGNETIC FIELD
 MDIP.deg                59.52:  MAGNETIC DIP
 MDEC.deg                 6.42:  MAGNETIC DECL
 GRDC.deg                 0.17:  GRID CORRECTION
 AZTC.deg                 6.25:  AZM TOTAL CORR
 EPD .m                   0.00:  ELEVATION
 EGL .m                   0.00:  GROUND ELEVATION
 WDMS.m                 121.00:  WD ELEV
 APD .m                  36.60:  DEPTH ABOVE PD
 AGAP.m                  36.60:  AIR GAP
 VSEW.m                   1.56:  VERT SEC E/W
 VSNS.m                  -7.94:  VERT SEC N/S
 DEP .m                1140.01:  DEPTH
 EKB .m                  36.60:  KB ELEVATION
 EDF .m                  36.60:  DF ELEVATION
 TDL .m                 169.50:  TOTAL DEPTH (LOGGER)
 CSGD.m                3875.01:  CASING BOTTOM (DRILLER)
 CSGL.m                3875.01:  CASING BOTTOM (LOGGER)
 CSGS.in                  7.63:  CASING SIZE
 CSGW.lbpf               23.50:  CASING WEIGHT
 VSC .                       0:  VS TO CLOSURE
 MAGU.                 1849206:  MAGUTM CHECKSUM
~Parameter Information Block
#MNEM.UNIT       Value        Description
#---------     -----------    ---------------------------
 AV  .mps                 1.90:  Ann Velocity 
 AVMX.mps                 2.54:  Max Ann Veloc 
 AZIF.deg               137.03:  Azm, Final 
 BHAT.        Rotary Steerable:  BHA Type 
 BREV.rev             23610.00:  Rev Bit Total 
 BROT.°/30m               0.80:  Build Rotating 
 BS  .in                  6.50:  Bit Size 
 BTPL.psig              110.00:  Bit Press Loss 
 CABU.                     Yes:  Customer Abuse 
 TCS .hr                 70.51:  Time Ciculation Ended 
 CV  .mps                 1.41:  Crit Velocity 
 CVMX.mps                 1.42:  Max Crit Veloc 
 DD1 .         Intigam Rahimov:  Direct Drillr 1 
 DD2 .          Rashad Gojayev:  Direct Drillr 2 
 DDSV.               Geo-Pilot:  DD Service 
 DEFF.%                 100.00:  % Det Eff 
 DLRX.°/30m               1.44:  Dogleg Rot Max 
 DLSO.°/30m               0.00:  Dogleg Oriented 
 DLSX.°/30m               0.00:  Dogleg Str Max 
 DRET.      03.05.00 01-Feb-20:  Drill End Time 
 DRST.      15.50.00 28-Jan-20:  Drill Start Tim 
 DTIM.hr                 24.70:  Time Drilling 
 EDEP.m                4047.51:  End Depth 
 ENG1.           Eldar Hajiyev:  Engineer 1 
 ENG2.          Rasim Hashimov:  Engineer 2 
 ENG3.          Rustam Safarov:  Engineer 3 
 ETIM.      22.00.00 01-Feb-20:  End Time 
 FLOI.gpm               370.00:  Flow In 
 FLON.gpm               300.00:  Flow In Min 
 FLOS.cptm                0.00:  Fluid Loss 
 FLOX.gpm               400.00:  Flow In Max 
 FTRO.       Formation Presure:  FTWD Run Obj 
 HFLO.                      No:  High Flow 
 HPRE.                      No:  High Pressure 
 HTEM.                      No:  High Temp 
 HYDO.m                   2.50:  Hydro Offset 
 IFIN.deg                39.54:  Inc, Final 
 IMAX.deg                41.14:  Inc Max 
 IMIN.deg                39.81:  Inc Min 
 IMND.m                4005.21:  Inc Min Depth 
 IMXD.m                3948.42:  Inc Max Depth 
 JARR.                      No:  Jarring 
 LETM.      03.05.00 01-Feb-20:  Log End Time 
 LOST.hr                     0:  Lost Rig Time 
 LSTM.      15.50.00 28-Jan-20:  Log Start Time 
 MDCL.ppm             37500.00:  Mud Chlorides 
 MDES.     Inversion Oil/Synthetic:  Mud Desc 
 DFD .sg                  1.32:  Mud Density 
 MDMN.sg                  1.32:  Dens Mud Min 
 MDMX.sg                  1.32:  Dens Mud Max 
 MOIL.                      55:  Run Mud Oil % 
 MOWR.                   70:30:  Run Mud OWR 
 MSND.                       0:  Run Mud Sand % 
 MSOL.                      17:  Run Mud Solids% 
 DFV .spqt               80.00:  Mud Viscosity 
 MWOD.in                  4.75:  MWD Tool OD 
 MWSI.                      No:  Serv Intrp, MWD 
 OTIM.hr                121.28:  Time Operating 
 PCON.           Look Like New:  Pad Condition 
 PMAX.psia             6171.00:  Press Op, Max 
 PV  .cP                 30.00:  Mud PV 
 RUN .                     300:  Run Number 
 ROPA.m/hr                5.45:  ROP Avg 
 ROPN.m/hr                3.00:  ROP Min 
 ROPX.m/hr               15.00:  ROP Max 
 RPMA.rpm               130.00:  RPM Surface Avg 
 RPMN.rpm                80.00:  RPM Surface Min 
 RPMX.rpm               140.00:  RPM Surface Max 
 RRUN.                     300:  Rig Run Number 
 RTIM.hr                 13.50:  Time Reaming 
 SAZI.deg               133.93:  Azm, Start 
 SDEP.m                3878.01:  Start Depth 
 SIDD.                      No:  Serv Intrp, DD 
 SINC.deg                40.28:  Inc, Start 
 SPPA.psig             4983.00:  SPP Avg 
 SPPN.psig             4370.00:  SPP Min 
 SPPX.psig             5300.00:  SPP Max 
 STIM.      18.33.36 27-Jan-20:  Start Time 
 SVCS.                 DD, MWD:  Services 
 SVER.                    9.20:  Sperry Version 
 TDAT.m                 169.50:  Tot Depth Attmp 
 TDDF.                      No:  Trip for DD 
 TDLG.m                 169.50:  Tot Depth Loggd 
 TFF .                      No:  Trip for Fail 
 TQAA.f-kp               13.25:  Torque Abs Avg 
 TQAN.f-kp               12.00:  Torque Abs Min 
 TQAX.f-kp               14.00:  Torque Abs Max 
 TRRT.°/30m               0.70:  Turn Rotating 
 MRT .                     ADR:  Maximum Recorded Temperature 
 TTMX.degC               92.16:  Max Tool Temp 
 VS01.       AZ90598764G12V7D4:  Virtual Str1 SN 
 VS02.         AZ90571342R12C4:  Virtual Str2 SN 
 VS03.      AZ90580010N2L2X1C4:  Virtual Str3 SN 
 VS04.        AZ90522266O7X1C4:  Virtual Str4 SN 
 VS05.           AZ90598768F11:  Virtual Str5 SN 
 VS06.     AZ90580006XZ1W1X1C4:  Virtual Str6 SN 
 WBMN.klb                 8.00:  WOB Min 
 WITN.            Peter Wilson:  Customer Rep 
 WOBA.klb                 9.88:  WOB Avg 
 WOBX.klb                10.00:  WOB Max 
 YP  .lhf2               27.00:  Yield Point 
~Curve Information Block
#MNEM.UNIT                 API CODE     Curve Description
#---------               -----------    ---------------------------
 TIME.HHMMSS            00 000 000 000:  GT Time & Date
 GTDEPTH.m              00 000 000 000:  GT Depth
 GTPQH.psia             00 000 000 000:  GT HR Quartz Pressure
 GTTQ.degC              00 000 000 000:  GT Quartz Temperature
 GTTN.NONE              00 000 000 000:  GT Test Number
 GTET.sec               00 000 000 000:  GT Elapsed Test Time
 GTTVD.m                00 000 000 000:  GT True Vertical Depth
#Other Information
#
#WARRANTY: Halliburton will use its best efforts to furnish customers with 
#accurate information and interpretations that are part of, and incident to, the services 
#provided.  However, Halliburton cannot and does not warrant the accuracy 
#or correctness of such information and interpretations.  Under no circumstances should any 
#such information or interpretation be relied upon as the sole basis for any drilling, 
#completion, production, or financial decision or any procedure involving any risk to the 
#safety of any drilling venture, drilling rig or its crew or any other third party.  The 
#Customer has full responsibility for all drilling, completion and production operation.  
#Halliburton makes no representations or warranties, either expressed or 
#implied, including, but not limited to, the implied warranties of merchantability or fitness 
#for a particular purpose, with respect to the services rendered.  In no event will 
#Halliburton be liable for failure to obtain any particular results or for 
#any damages, including, but not limited to, indirect, special or consequential damages, 
#resulting from the use of any information or interpretation provided by Halliburton.
#
~A           TIME           GTDEPTH  GTPQH  GTTQ  GTTN   GTET   GTTVD  
# ...
   04:19:36.338.01-Feb-2020 3998.51 3148.99 84.58 12.00 430.91 3011.77
   04:19:36.538.01-Feb-2020 3998.51 3148.89 84.58 12.00 431.11 3011.77
   04:19:36.739.01-Feb-2020 3998.51 3148.96 84.58 12.00 431.31 3011.77
   04:19:36.940.01-Feb-2020 3998.51 3148.93 84.58 12.00 431.51 3011.77
   04:19:37.141.01-Feb-2020 3998.51 3148.93 84.58 12.00 431.71 3011.77
   04:19:37.341.01-Feb-2020 3998.51 3148.97 84.58 12.00 431.91 3011.77
   04:19:37.542.01-Feb-2020 3998.51 3148.66 84.58 12.00 432.11 3011.77
   04:19:37.743.01-Feb-2020 3998.51 3149.06 84.58 12.00 432.31 3011.77
   04:19:37.943.01-Feb-2020 3998.51 3149.00 84.58 12.00 432.51 3011.77
   04:19:38.144.01-Feb-2020 3998.51 3149.00 84.58 12.00 432.71 3011.77
   04:19:38.345.01-Feb-2020 3998.51 3149.00 84.58 12.00 432.91 3011.77
   04:19:38.545.01-Feb-2020 3998.51 3148.95 84.57 12.00 433.11 3011.77
   04:19:38.746.01-Feb-2020 3998.51 3148.97 84.57 12.00 433.32 3011.77
   04:19:38.947.01-Feb-2020 3998.51 3148.78 84.57 12.00 433.52 3011.77
   04:19:39.148.01-Feb-2020 3998.51 3148.78 84.57 12.00 433.72 3011.77
   04:19:39.348.01-Feb-2020 3998.51 3149.08 84.57 12.00 433.92 3011.77
   04:19:39.549.01-Feb-2020 3998.51 3148.95 84.57 12.00 434.12 3011.77
   04:19:39.750.01-Feb-2020 3998.51 3148.94 84.57 12.00 434.32 3011.77
   04:19:39.950.01-Feb-2020 3998.51 3148.99 84.57 12.00 434.52 3011.77
   04:19:40.151.01-Feb-2020 3998.51 3148.99 84.57 12.00 434.72 3011.77
   04:19:40.352.01-Feb-2020 3998.51 3148.89 84.57 12.00 434.92 3011.77
   04:19:40.552.01-Feb-2020 3998.51 3148.99 84.57 12.00 435.12 3011.77
   04:19:40.753.01-Feb-2020 3998.51 3148.89 84.57 12.00 435.32 3011.77
   04:19:40.954.01-Feb-2020 3998.51 3148.91 84.57 12.00 435.52 3011.77
   04:19:41.155.01-Feb-2020 3998.51 3148.91 84.57 12.00 435.72 3011.77
   04:19:41.355.01-Feb-2020 3998.51 3148.88 84.57 12.00 435.92 3011.77
   04:19:41.556.01-Feb-2020 3998.51 3148.92 84.57 12.00 436.12 3011.77
   04:19:41.757.01-Feb-2020 3998.51 3148.87 84.57 12.00 436.33 3011.77
   04:19:41.957.01-Feb-2020 3998.51 3148.90 84.57 12.00 436.53 3011.77
   04:19:42.158.01-Feb-2020 3998.51 3148.90 84.57 12.00 436.73 3011.77
   04:19:42.359.01-Feb-2020 3998.51 3148.86 84.57 12.00 436.93 3011.77
   04:19:42.560.01-Feb-2020 3998.51 3148.63 84.57 12.00 437.13 3011.77
   04:19:42.760.01-Feb-2020 3998.51 3149.14 84.57 12.00 437.33 3011.77
   04:19:42.961.01-Feb-2020 3998.51 3148.81 84.57 12.00 437.53 3011.77
   04:19:43.162.01-Feb-2020 3998.51 3148.81 84.57 12.00 437.73 3011.77
   04:19:43.362.01-Feb-2020 3998.51 3148.97 84.56 12.00 437.93 3011.77
   04:19:43.563.01-Feb-2020 3998.51 3148.89 84.56 12.00 438.13 3011.77
   04:19:43.764.01-Feb-2020 3998.51 3148.97 84.56 12.00 438.33 3011.77
   04:19:43.964.01-Feb-2020 3998.51 3148.91 84.56 12.00 438.53 3011.77
   04:19:44.165.01-Feb-2020 3998.51 3148.91 84.56 12.00 438.73 3011.77
   04:19:44.366.01-Feb-2020 3998.51 3148.98 84.56 12.00 438.93 3011.77
   04:19:44.567.01-Feb-2020 3998.51 3148.88 84.56 12.00 439.14 3011.77
   04:19:44.767.01-Feb-2020 3998.51 3148.94 84.56 12.00 439.34 3011.77
   04:19:44.968.01-Feb-2020 3998.51 3148.99 84.56 12.00 439.54 3011.77
   04:19:45.169.01-Feb-2020 3998.51 3148.99 84.56 12.00 439.74 3011.77
   04:19:45.369.01-Feb-2020 3998.51 3148.89 84.56 12.00 439.94 3011.77
   04:19:45.570.01-Feb-2020 3998.51 3148.91 84.56 12.00 440.14 3011.77
   04:19:45.771.01-Feb-2020 3998.51 3148.89 84.56 12.00 440.34 3011.77
   04:19:45.971.01-Feb-2020 3998.51 3148.83 84.56 12.00 440.54 3011.77
   04:19:46.172.01-Feb-2020 3998.51 3148.83 84.56 12.00 440.74 3011.77
   04:19:46.373.01-Feb-2020 3998.51 3148.99 84.56 12.00 440.94 3011.77
   04:19:46.574.01-Feb-2020 3998.51 3149.00 84.56 12.00 441.14 3011.77
   04:19:46.774.01-Feb-2020 3998.51 3148.91 84.56 12.00 441.34 3011.77
   04:19:46.975.01-Feb-2020 3998.51 3148.77 84.56 12.00 441.54 3011.77
   04:19:47.176.01-Feb-2020 3998.51 3148.77 84.56 12.00 441.74 3011.77
   04:19:47.376.01-Feb-2020 3998.51 3152.03 84.56 12.00 441.95 3011.77
   04:19:47.577.01-Feb-2020 3998.51 3180.42 84.56 12.00 442.15 3011.77
   04:19:47.778.01-Feb-2020 3998.51 5080.04 84.55 12.00 442.35 3011.77
   04:19:47.978.01-Feb-2020 3998.51 6010.43 84.55 12.00 442.55 3011.77
   04:19:48.179.01-Feb-2020 3998.51 6010.43 84.55 12.00 442.75 3011.77
   04:19:48.380.01-Feb-2020 3998.51 6011.21 84.55 12.00 442.95 3011.77
   04:19:48.581.01-Feb-2020 3998.51 6009.57 84.55 12.00 443.15 3011.77
   04:19:48.781.01-Feb-2020 3998.51 6012.10 84.55 12.00 443.35 3011.77
   04:19:48.982.01-Feb-2020 3998.51 6013.52 84.55 12.00 443.55 3011.77
   04:19:49.183.01-Feb-2020 3998.51 6013.52 84.55 12.00 443.75 3011.77
   04:19:49.383.01-Feb-2020 3998.51 6012.88 84.55 12.00 443.95 3011.77
   04:19:49.584.01-Feb-2020 3998.51 6013.93 84.55 12.00 444.15 3011.77
   04:19:49.785.01-Feb-2020 3998.51 6015.26 84.55 12.00 444.35 3011.77
   04:19:49.985.01-Feb-2020 3998.51 6017.31 84.55 12.00 444.55 3011.77
   04:19:50.186.01-Feb-2020 3998.51 6017.31 84.55 12.00 444.76 3011.77
   04:19:50.387.01-Feb-2020 3998.51 6015.72 84.55 12.00 444.96 3011.77
   04:19:50.588.01-Feb-2020 3998.51 6014.09 84.55 12.00 445.16 3011.77
   04:19:50.788.01-Feb-2020 3998.51 6014.95 84.55 12.00 445.36 3011.77
   04:19:50.989.01-Feb-2020 3998.51 6018.87 84.55 12.00 445.56 3011.77
   04:19:51.190.01-Feb-2020 3998.51 6018.87 84.55 12.00 445.76 3011.77
   04:19:51.390.01-Feb-2020 3998.51 6020.31 84.55 12.00 445.96 3011.77
   04:19:51.591.01-Feb-2020 3998.51 6019.88 84.55 12.00 446.16 3011.77
   04:19:51.792.01-Feb-2020 3998.51 6020.01 84.55 12.00 446.36 3011.77
   04:19:51.992.01-Feb-2020 3998.51 6019.41 84.55 12.00 446.56 3011.77
   04:19:52.193.01-Feb-2020 3998.51 6019.41 84.55 12.00 446.76 3011.77
   04:19:52.394.01-Feb-2020 3998.51 6020.59 84.56 12.00 446.96 3011.77
   04:19:52.595.01-Feb-2020 3998.51 6019.74 84.56 12.00 447.16 3011.77
   04:19:52.795.01-Feb-2020 3998.51 6020.17 84.56 12.00 447.36 3011.77
   04:19:52.996.01-Feb-2020 3998.51 6020.20 84.56 12.00 447.56 3011.77
   04:19:53.197.01-Feb-2020 3998.51 6020.20 84.56 12.00 447.77 3011.77
   04:19:53.397.01-Feb-2020 3998.51 6019.44 84.56 12.00 447.97 3011.77
   04:19:53.598.01-Feb-2020 3998.51 6019.51 84.56 12.00 448.17 3011.77
   04:19:53.799.01-Feb-2020 3998.51 6018.87 84.56 12.00 448.37 3011.77
   04:19:54.000.01-Feb-2020 3998.51 6020.64 84.56 12.00 448.57 3011.77
   04:19:54.200.01-Feb-2020 3998.51 6020.64 84.56 12.00 448.77 3011.77
   04:19:54.401.01-Feb-2020 3998.51 6019.37 84.56 12.00 448.97 3011.77
   04:19:54.602.01-Feb-2020 3998.51 6019.03 84.56 12.00 449.17 3011.77
   04:19:54.802.01-Feb-2020 3998.51 6019.30 84.56 12.00 449.37 3011.77
   04:19:55.003.01-Feb-2020 3998.51 6021.14 84.56 12.00 449.57 3011.77
   04:19:55.204.01-Feb-2020 3998.51 6021.14 84.56 12.00 449.77 3011.77
   04:19:55.404.01-Feb-2020 3998.51 6021.14 84.56 12.00 449.97 3011.77
   04:19:55.605.01-Feb-2020 3998.51 6022.48 84.56 12.00 450.17 3011.77
   04:19:55.806.01-Feb-2020 3998.51 6021.31 84.56 12.00 450.37 3011.77
   04:19:56.007.01-Feb-2020 3998.51 6021.06 84.56 12.00 450.58 3011.77
   04:19:56.207.01-Feb-2020 3998.51 6021.06 84.56 12.00 450.78 3011.77
   04:19:56.408.01-Feb-2020 3998.51 6021.18 84.56 12.00 450.98 3011.77
   04:19:56.609.01-Feb-2020 3998.51 6021.45 84.56 12.00 451.18 3011.77
   04:19:56.809.01-Feb-2020 3998.51 6021.76 84.56 12.00 451.38 3011.77
   04:19:57.010.01-Feb-2020 3998.51 6018.75 84.56 12.00 451.58 3011.77
   04:19:57.211.01-Feb-2020 3998.51 6018.75 84.56 12.00 451.78 3011.77
   04:19:57.411.01-Feb-2020 3998.51 6019.50 84.56 12.00 451.98 3011.77
   04:19:57.612.01-Feb-2020 3998.51 6017.13 84.56 12.00 452.18 3011.77
   04:19:57.813.01-Feb-2020 3998.51 6019.67 84.56 12.00 452.38 3011.77
   04:19:58.014.01-Feb-2020 3998.51 6020.21 84.56 12.00 452.58 3011.77
   04:19:58.214.01-Feb-2020 3998.51 6020.21 84.56 12.00 452.78 3011.77
   04:19:58.415.01-Feb-2020 3998.51 6019.94 84.56 12.00 452.98 3011.77
   04:19:58.616.01-Feb-2020 3998.51 6016.22 84.56 12.00 453.18 3011.77
   04:19:58.816.01-Feb-2020 3998.51 6017.38 84.56 12.00 453.39 3011.77
