~Version Information
 VERS.                  2.0:   CWLS log ASCII Standard -VERSION 2.0
 WRAP.                   NO:   One line per depth step
~Well Information Block
#MNEM.UNIT     VALUE/NAME     DESCRIPTION
#---------     -----------    ---------------------------
 STRT.S             21:06:33 30-Jan-20: START TIME 21:06:33 30-Jan-20
 STOP.S             21:13:02 30-Jan-20: STOP TIME  21:13:02 30-Jan-20
 STEP.S                   0.00: STEP TIME
 NULL.                 -999.25: NULL VALUE
 DFWT.                        :  DIST FWL TEXT
 DFST.                        :  DIST FSL TEXT
 DMF .             Drill Floor:  DRILL MEAS FROM
 STIM.      09.30.00 26-Dec-19:  START TIME
 DATE.      08.00.00 20-Jan-20:  END TIME
 SPUD.               23-Nov-19:  SPUD DATE
 NREF.                    Grid:  NORTH REFERENCE
 HPTY.       Minimum Curvature:  HOLE POS TYPE
 DMOD.             Drill Model:  DRILL MOD DESC
 SVYD.                  Survey:  SURVEY DESC
 ILTD.               Lithology:  INTERP LTH DESC
 FTOP.          Formation Tops:  FORM TOPS DESC
 SON .        AZ-XX-0906192647:  JOB NUMBER
 WTYP.                Deviated:  WELL TYPE
 COMP.     BP Exploration (Caspian Sea) Ltd:  COMPANY
 BASE.              Azerbaijan:  LOGGING EQUIPMENT BASE LOCATION
 REGN.                 Eurasia:  REGION
 FLD .                     ACG:  FIELD NAME
 SRVC.              KCA Deutag:  CONTRACTOR
 MWDS.                    Baku:  MWD SHOP
 WELL.     A10 (Slot 20) - SCP:  WELL NAME
 JOBN.        AZ-XX-0906192647:  JOB TICKET NUMB
 RIG .                 Chirag1:  RIG NAME
 DCON.     Halliburton Sperry Drilling:  DIRECTNL CONTR
 UNIT.                     N/A:  LOGGING EQUIPMENT ID
 PDAT.          Mean Sea Level:  PERMANENT DATUM
 MDS .        Operator Entered:  MAG DATA SOURCE
 CTRY.              Azerbaijan:  COUNTRY NAME
 UWI .            /AZE00000090:  UNIQUE WELL IDENTIFIER
 API .            /AZE00000090:  API NUMBER
 CNTY.                        :  COUNTY
 PROV.                        :  PROVINCE
 STAT.                        :  STATE
 LOC .                        :  LOCATION
 LMF .             Drill Floor:  LOG MEASURED FROM
 TVDS.m                  36.60:  TVDSS CORRECTN
 LATI.deg                40.08:  LATITUDE
 LONG.deg                51.24:  LONGITUDE
 WHNS.m                  -7.94:  WELL HEAD N/S
 WHEW.m                   1.56:  WELL HEAD E/W
 UTMX.m              520429.26:  UTM X
 UTMY.m             4438973.87:  UTM Y
 DFWL.m                   0.00:  DISTANCE FWL
 DFSL.m                   0.00:  DISTANCE FSL
 SDEP.m                1455.00:  START DEPTH
 TDD .m                4047.51:  TOTAL DEPTH (DRILLER)
 VSDR.deg               112.75:  VERT SEC DIRECT
 GVFD.g                   1.00:  GRAVITY FIELD
 MFLD.nT              50261.00:  MAGNETIC FIELD
 MDIP.deg                59.52:  MAGNETIC DIP
 MDEC.deg                 6.42:  MAGNETIC DECL
 GRDC.deg                 0.17:  GRID CORRECTION
 AZTC.deg                 6.25:  AZM TOTAL CORR
 EPD .m                   0.00:  ELEVATION
 EGL .m                   0.00:  GROUND ELEVATION
 WDMS.m                 121.00:  WD ELEV
 APD .m                  36.60:  DEPTH ABOVE PD
 AGAP.m                  36.60:  AIR GAP
 VSEW.m                   1.56:  VERT SEC E/W
 VSNS.m                  -7.94:  VERT SEC N/S
 DEP .m                1140.01:  DEPTH
 EKB .m                  36.60:  KB ELEVATION
 EDF .m                  36.60:  DF ELEVATION
 TDL .m                 169.50:  TOTAL DEPTH (LOGGER)
 CSGD.m                3875.01:  CASING BOTTOM (DRILLER)
 CSGL.m                3875.01:  CASING BOTTOM (LOGGER)
 CSGS.in                  7.63:  CASING SIZE
 CSGW.lbpf               23.50:  CASING WEIGHT
 VSC .                       0:  VS TO CLOSURE
 MAGU.                 1849206:  MAGUTM CHECKSUM
~Parameter Information Block
#MNEM.UNIT       Value        Description
#---------     -----------    ---------------------------
 AV  .mps                 1.90:  Ann Velocity 
 AVMX.mps                 2.54:  Max Ann Veloc 
 AZIF.deg               137.03:  Azm, Final 
 BHAT.        Rotary Steerable:  BHA Type 
 BREV.rev             23610.00:  Rev Bit Total 
 BROT.°/30m               0.80:  Build Rotating 
 BS  .in                  6.50:  Bit Size 
 BTPL.psig              110.00:  Bit Press Loss 
 CABU.                     Yes:  Customer Abuse 
 TCS .hr                 70.51:  Time Ciculation Ended 
 CV  .mps                 1.41:  Crit Velocity 
 CVMX.mps                 1.42:  Max Crit Veloc 
 DD1 .         Intigam Rahimov:  Direct Drillr 1 
 DD2 .          Rashad Gojayev:  Direct Drillr 2 
 DDSV.               Geo-Pilot:  DD Service 
 DEFF.%                 100.00:  % Det Eff 
 DLRX.°/30m               1.44:  Dogleg Rot Max 
 DLSO.°/30m               0.00:  Dogleg Oriented 
 DLSX.°/30m               0.00:  Dogleg Str Max 
 DRET.      03.05.00 01-Feb-20:  Drill End Time 
 DRST.      15.50.00 28-Jan-20:  Drill Start Tim 
 DTIM.hr                 24.70:  Time Drilling 
 EDEP.m                4047.51:  End Depth 
 ENG1.           Eldar Hajiyev:  Engineer 1 
 ENG2.          Rasim Hashimov:  Engineer 2 
 ENG3.          Rustam Safarov:  Engineer 3 
 ETIM.      22.00.00 01-Feb-20:  End Time 
 FLOI.gpm               370.00:  Flow In 
 FLON.gpm               300.00:  Flow In Min 
 FLOS.cptm                0.00:  Fluid Loss 
 FLOX.gpm               400.00:  Flow In Max 
 FTRO.       Formation Presure:  FTWD Run Obj 
 HFLO.                      No:  High Flow 
 HPRE.                      No:  High Pressure 
 HTEM.                      No:  High Temp 
 HYDO.m                   2.50:  Hydro Offset 
 IFIN.deg                39.54:  Inc, Final 
 IMAX.deg                41.14:  Inc Max 
 IMIN.deg                39.81:  Inc Min 
 IMND.m                4005.21:  Inc Min Depth 
 IMXD.m                3948.42:  Inc Max Depth 
 JARR.                      No:  Jarring 
 LETM.      03.05.00 01-Feb-20:  Log End Time 
 LOST.hr                     0:  Lost Rig Time 
 LSTM.      15.50.00 28-Jan-20:  Log Start Time 
 MDCL.ppm             37500.00:  Mud Chlorides 
 MDES.     Inversion Oil/Synthetic:  Mud Desc 
 DFD .sg                  1.32:  Mud Density 
 MDMN.sg                  1.32:  Dens Mud Min 
 MDMX.sg                  1.32:  Dens Mud Max 
 MOIL.                      55:  Run Mud Oil % 
 MOWR.                   70:30:  Run Mud OWR 
 MSND.                       0:  Run Mud Sand % 
 MSOL.                      17:  Run Mud Solids% 
 DFV .spqt               80.00:  Mud Viscosity 
 MWOD.in                  4.75:  MWD Tool OD 
 MWSI.                      No:  Serv Intrp, MWD 
 OTIM.hr                121.28:  Time Operating 
 PCON.           Look Like New:  Pad Condition 
 PMAX.psia             6171.00:  Press Op, Max 
 PV  .cP                 30.00:  Mud PV 
 RUN .                     300:  Run Number 
 ROPA.m/hr                5.45:  ROP Avg 
 ROPN.m/hr                3.00:  ROP Min 
 ROPX.m/hr               15.00:  ROP Max 
 RPMA.rpm               130.00:  RPM Surface Avg 
 RPMN.rpm                80.00:  RPM Surface Min 
 RPMX.rpm               140.00:  RPM Surface Max 
 RRUN.                     300:  Rig Run Number 
 RTIM.hr                 13.50:  Time Reaming 
 SAZI.deg               133.93:  Azm, Start 
 SDEP.m                3878.01:  Start Depth 
 SIDD.                      No:  Serv Intrp, DD 
 SINC.deg                40.28:  Inc, Start 
 SPPA.psig             4983.00:  SPP Avg 
 SPPN.psig             4370.00:  SPP Min 
 SPPX.psig             5300.00:  SPP Max 
 STIM.      18.33.36 27-Jan-20:  Start Time 
 SVCS.                 DD, MWD:  Services 
 SVER.                    9.20:  Sperry Version 
 TDAT.m                 169.50:  Tot Depth Attmp 
 TDDF.                      No:  Trip for DD 
 TDLG.m                 169.50:  Tot Depth Loggd 
 TFF .                      No:  Trip for Fail 
 TQAA.f-kp               13.25:  Torque Abs Avg 
 TQAN.f-kp               12.00:  Torque Abs Min 
 TQAX.f-kp               14.00:  Torque Abs Max 
 TRRT.°/30m               0.70:  Turn Rotating 
 MRT .                     ADR:  Maximum Recorded Temperature 
 TTMX.degC               92.16:  Max Tool Temp 
 VS01.       AZ90598764G12V7D4:  Virtual Str1 SN 
 VS02.         AZ90571342R12C4:  Virtual Str2 SN 
 VS03.      AZ90580010N2L2X1C4:  Virtual Str3 SN 
 VS04.        AZ90522266O7X1C4:  Virtual Str4 SN 
 VS05.           AZ90598768F11:  Virtual Str5 SN 
 VS06.     AZ90580006XZ1W1X1C4:  Virtual Str6 SN 
 WBMN.klb                 8.00:  WOB Min 
 WITN.            Peter Wilson:  Customer Rep 
 WOBA.klb                 9.88:  WOB Avg 
 WOBX.klb                10.00:  WOB Max 
 YP  .lhf2               27.00:  Yield Point 
~Curve Information Block
#MNEM.UNIT                 API CODE     Curve Description
#---------               -----------    ---------------------------
 TIME.HHMMSS            00 000 000 000:  GT Time & Date
 GTDEPTH.m              00 000 000 000:  GT Depth
 GTPQH.psia             00 000 000 000:  GT HR Quartz Pressure
 GTTQ.degC              00 000 000 000:  GT Quartz Temperature
 GTTN.NONE              00 000 000 000:  GT Test Number
 GTET.sec               00 000 000 000:  GT Elapsed Test Time
 GTTVD.m                00 000 000 000:  GT True Vertical Depth
#Other Information
#
#WARRANTY: Halliburton will use its best efforts to furnish customers with 
#accurate information and interpretations that are part of, and incident to, the services 
#provided.  However, Halliburton cannot and does not warrant the accuracy 
#or correctness of such information and interpretations.  Under no circumstances should any 
#such information or interpretation be relied upon as the sole basis for any drilling, 
#completion, production, or financial decision or any procedure involving any risk to the 
#safety of any drilling venture, drilling rig or its crew or any other third party.  The 
#Customer has full responsibility for all drilling, completion and production operation.  
#Halliburton makes no representations or warranties, either expressed or 
#implied, including, but not limited to, the implied warranties of merchantability or fitness 
#for a particular purpose, with respect to the services rendered.  In no event will 
#Halliburton be liable for failure to obtain any particular results or for 
#any damages, including, but not limited to, indirect, special or consequential damages, 
#resulting from the use of any information or interpretation provided by Halliburton.
#
~A           TIME           GTDEPTH  GTPQH  GTTQ  GTTN  GTET   GTTVD  
# ...
   21:10:00.044.30-Jan-2020 3895.01 2981.12 72.63 2.00 207.04 2933.47
   21:10:00.244.30-Jan-2020 3895.01 2981.12 72.63 2.00 207.24 2933.47
   21:10:00.444.30-Jan-2020 3895.01 2981.23 72.63 2.00 207.44 2933.47
   21:10:00.644.30-Jan-2020 3895.01 2981.20 72.63 2.00 207.64 2933.47
   21:10:00.844.30-Jan-2020 3895.01 2981.11 72.63 2.00 207.84 2933.47
   21:10:01.044.30-Jan-2020 3895.01 2981.11 72.63 2.00 208.04 2933.47
   21:10:01.244.30-Jan-2020 3895.01 2981.11 72.63 2.00 208.24 2933.47
   21:10:01.444.30-Jan-2020 3895.01 2981.22 72.62 2.00 208.44 2933.47
   21:10:01.644.30-Jan-2020 3895.01 2981.16 72.62 2.00 208.64 2933.47
   21:10:01.844.30-Jan-2020 3895.01 2981.10 72.62 2.00 208.84 2933.47
   21:10:02.044.30-Jan-2020 3895.01 2981.15 72.62 2.00 209.04 2933.47
   21:10:02.244.30-Jan-2020 3895.01 2981.15 72.62 2.00 209.24 2933.47
   21:10:02.444.30-Jan-2020 3895.01 2981.31 72.62 2.00 209.44 2933.47
   21:10:02.644.30-Jan-2020 3895.01 2981.26 72.62 2.00 209.64 2933.47
   21:10:02.844.30-Jan-2020 3895.01 2981.27 72.62 2.00 209.84 2933.47
   21:10:03.044.30-Jan-2020 3895.01 2981.19 72.62 2.00 210.04 2933.47
   21:10:03.244.30-Jan-2020 3895.01 2981.19 72.62 2.00 210.24 2933.47
   21:10:03.444.30-Jan-2020 3895.01 2981.23 72.62 2.00 210.44 2933.47
   21:10:03.644.30-Jan-2020 3895.01 2981.20 72.62 2.00 210.64 2933.47
   21:10:03.844.30-Jan-2020 3895.01 2981.17 72.62 2.00 210.84 2933.47
   21:10:04.044.30-Jan-2020 3895.01 2981.13 72.62 2.00 211.04 2933.47
   21:10:04.244.30-Jan-2020 3895.01 2981.13 72.62 2.00 211.24 2933.47
   21:10:04.444.30-Jan-2020 3895.01 2981.19 72.62 2.00 211.44 2933.47
   21:10:04.644.30-Jan-2020 3895.01 2981.14 72.62 2.00 211.64 2933.47
   21:10:04.844.30-Jan-2020 3895.01 2981.14 72.62 2.00 211.84 2933.47
   21:10:05.045.30-Jan-2020 3895.01 2981.19 72.62 2.00 212.04 2933.47
   21:10:05.245.30-Jan-2020 3895.01 2981.19 72.62 2.00 212.24 2933.47
   21:10:05.445.30-Jan-2020 3895.01 2980.68 72.62 2.00 212.44 2933.47
   21:10:05.645.30-Jan-2020 3895.01 2981.24 72.61 2.00 212.64 2933.47
   21:10:05.845.30-Jan-2020 3895.01 2981.26 72.61 2.00 212.84 2933.47
   21:10:06.045.30-Jan-2020 3895.01 2981.23 72.61 2.00 213.04 2933.47
   21:10:06.245.30-Jan-2020 3895.01 2981.23 72.61 2.00 213.24 2933.47
   21:10:06.445.30-Jan-2020 3895.01 2980.69 72.61 2.00 213.44 2933.47
   21:10:06.645.30-Jan-2020 3895.01 2981.32 72.61 2.00 213.64 2933.47
   21:10:06.845.30-Jan-2020 3895.01 2981.31 72.61 2.00 213.84 2933.47
   21:10:07.045.30-Jan-2020 3895.01 2981.30 72.61 2.00 214.04 2933.47
   21:10:07.245.30-Jan-2020 3895.01 2981.30 72.61 2.00 214.24 2933.47
   21:10:07.445.30-Jan-2020 3895.01 2981.19 72.61 2.00 214.44 2933.47
   21:10:07.645.30-Jan-2020 3895.01 2981.18 72.61 2.00 214.64 2933.47
   21:10:07.845.30-Jan-2020 3895.01 2980.63 72.61 2.00 214.84 2933.47
   21:10:08.045.30-Jan-2020 3895.01 2981.25 72.61 2.00 215.04 2933.47
   21:10:08.245.30-Jan-2020 3895.01 2981.25 72.61 2.00 215.24 2933.47
   21:10:08.445.30-Jan-2020 3895.01 2981.36 72.61 2.00 215.44 2933.47
   21:10:08.645.30-Jan-2020 3895.01 2981.27 72.61 2.00 215.64 2933.47
   21:10:08.845.30-Jan-2020 3895.01 2980.53 72.61 2.00 215.84 2933.47
   21:10:09.045.30-Jan-2020 3895.01 2981.34 72.61 2.00 216.04 2933.47
   21:10:09.245.30-Jan-2020 3895.01 2981.34 72.61 2.00 216.24 2933.47
   21:10:09.445.30-Jan-2020 3895.01 2981.34 72.61 2.00 216.44 2933.47
   21:10:09.645.30-Jan-2020 3895.01 2981.00 72.61 2.00 216.64 2933.47
   21:10:09.845.30-Jan-2020 3895.01 2980.92 72.60 2.00 216.84 2933.47
   21:10:10.045.30-Jan-2020 3895.01 2981.29 72.60 2.00 217.04 2933.47
   21:10:10.245.30-Jan-2020 3895.01 2981.29 72.60 2.00 217.24 2933.47
   21:10:10.446.30-Jan-2020 3895.01 2981.26 72.60 2.00 217.44 2933.47
   21:10:10.646.30-Jan-2020 3895.01 2981.30 72.60 2.00 217.64 2933.47
   21:10:10.846.30-Jan-2020 3895.01 2981.33 72.60 2.00 217.84 2933.47
   21:10:11.046.30-Jan-2020 3895.01 2981.15 72.60 2.00 218.04 2933.47
   21:10:11.246.30-Jan-2020 3895.01 2981.15 72.60 2.00 218.24 2933.47
   21:10:11.446.30-Jan-2020 3895.01 2981.09 72.60 2.00 218.44 2933.47
   21:10:11.646.30-Jan-2020 3895.01 2981.18 72.60 2.00 218.64 2933.47
   21:10:11.846.30-Jan-2020 3895.01 2981.23 72.60 2.00 218.84 2933.47
   21:10:12.046.30-Jan-2020 3895.01 2981.12 72.60 2.00 219.04 2933.47
   21:10:12.246.30-Jan-2020 3895.01 2981.12 72.60 2.00 219.24 2933.47
   21:10:12.446.30-Jan-2020 3895.01 2981.14 72.60 2.00 219.44 2933.47
   21:10:12.646.30-Jan-2020 3895.01 2981.20 72.60 2.00 219.64 2933.47
   21:10:12.846.30-Jan-2020 3895.01 2981.17 72.60 2.00 219.84 2933.47
   21:10:13.046.30-Jan-2020 3895.01 2981.10 72.60 2.00 220.04 2933.47
   21:10:13.246.30-Jan-2020 3895.01 2981.10 72.60 2.00 220.24 2933.47
   21:10:13.446.30-Jan-2020 3895.01 2980.65 72.60 2.00 220.44 2933.47
   21:10:13.646.30-Jan-2020 3895.01 2981.26 72.60 2.00 220.64 2933.47
   21:10:13.846.30-Jan-2020 3895.01 2981.25 72.60 2.00 220.84 2933.47
   21:10:14.046.30-Jan-2020 3895.01 2981.27 72.59 2.00 221.04 2933.47
   21:10:14.246.30-Jan-2020 3895.01 2981.27 72.59 2.00 221.24 2933.47
   21:10:14.446.30-Jan-2020 3895.01 2981.20 72.59 2.00 221.44 2933.47
   21:10:14.646.30-Jan-2020 3895.01 2981.22 72.59 2.00 221.64 2933.47
   21:10:14.846.30-Jan-2020 3895.01 2981.18 72.59 2.00 221.84 2933.47
   21:10:15.046.30-Jan-2020 3895.01 2981.17 72.59 2.00 222.04 2933.47
   21:10:15.246.30-Jan-2020 3895.01 2981.17 72.59 2.00 222.24 2933.47
   21:10:15.446.30-Jan-2020 3895.01 2981.11 72.59 2.00 222.44 2933.47
   21:10:15.647.30-Jan-2020 3895.01 2981.14 72.59 2.00 222.64 2933.47
   21:10:15.847.30-Jan-2020 3895.01 2981.14 72.59 2.00 222.84 2933.47
   21:10:16.047.30-Jan-2020 3895.01 2981.13 72.59 2.00 223.04 2933.47
   21:10:16.247.30-Jan-2020 3895.01 2981.13 72.59 2.00 223.24 2933.47
   21:10:16.447.30-Jan-2020 3895.01 2981.26 72.59 2.00 223.44 2933.47
   21:10:16.647.30-Jan-2020 3895.01 2980.97 72.59 2.00 223.64 2933.47
   21:10:16.847.30-Jan-2020 3895.01 2980.90 72.59 2.00 223.84 2933.47
   21:10:17.047.30-Jan-2020 3895.01 2981.27 72.59 2.00 224.04 2933.47
   21:10:17.247.30-Jan-2020 3895.01 2981.27 72.59 2.00 224.24 2933.47
   21:10:17.447.30-Jan-2020 3895.01 2981.18 72.59 2.00 224.44 2933.47
   21:10:17.647.30-Jan-2020 3895.01 2980.95 72.59 2.00 224.64 2933.47
   21:10:17.847.30-Jan-2020 3895.01 2980.96 72.59 2.00 224.84 2933.47
   21:10:18.047.30-Jan-2020 3895.01 2981.34 72.59 2.00 225.04 2933.47
   21:10:18.247.30-Jan-2020 3895.01 2981.34 72.59 2.00 225.24 2933.47
   21:10:18.447.30-Jan-2020 3895.01 2981.22 72.58 2.00 225.44 2933.47
   21:10:18.647.30-Jan-2020 3895.01 2981.17 72.58 2.00 225.64 2933.47
   21:10:18.847.30-Jan-2020 3895.01 2981.16 72.58 2.00 225.84 2933.47
   21:10:19.047.30-Jan-2020 3895.01 2980.93 72.58 2.00 226.04 2933.47
   21:10:19.247.30-Jan-2020 3895.01 2980.93 72.58 2.00 226.24 2933.47
   21:10:19.447.30-Jan-2020 3895.01 2981.30 72.58 2.00 226.44 2933.47
   21:10:19.647.30-Jan-2020 3895.01 2981.34 72.58 2.00 226.64 2933.47
   21:10:19.847.30-Jan-2020 3895.01 2981.26 72.58 2.00 226.84 2933.47
   21:10:20.047.30-Jan-2020 3895.01 2980.65 72.58 2.00 227.04 2933.47
   21:10:20.247.30-Jan-2020 3895.01 2980.65 72.58 2.00 227.24 2933.47
   21:10:20.447.30-Jan-2020 3895.01 2981.30 72.58 2.00 227.44 2933.47
   21:10:20.647.30-Jan-2020 3895.01 2981.33 72.58 2.00 227.64 2933.47
   21:10:20.847.30-Jan-2020 3895.01 2981.27 72.58 2.00 227.84 2933.47
   21:10:21.048.30-Jan-2020 3895.01 2980.62 72.58 2.00 228.04 2933.47
   21:10:21.248.30-Jan-2020 3895.01 2980.62 72.58 2.00 228.24 2933.47
   21:10:21.448.30-Jan-2020 3895.01 2981.31 72.58 2.00 228.44 2933.47
   21:10:21.648.30-Jan-2020 3895.01 2981.27 72.58 2.00 228.64 2933.47
   21:10:21.848.30-Jan-2020 3895.01 2981.23 72.58 2.00 228.84 2933.47
   21:10:22.048.30-Jan-2020 3895.01 2981.32 72.58 2.00 229.04 2933.47
   21:10:22.248.30-Jan-2020 3895.01 2981.32 72.58 2.00 229.24 2933.47
   21:10:22.448.30-Jan-2020 3895.01 2981.13 72.58 2.00 229.44 2933.47
   21:10:22.648.30-Jan-2020 3895.01 2981.09 72.58 2.00 229.64 2933.47
   21:10:22.848.30-Jan-2020 3895.01 2981.12 72.57 2.00 229.84 2933.47
