~Version Information
 VERS.                  2.0:   CWLS log ASCII Standard -VERSION 2.0
 WRAP.                   NO:   One line per depth step
~Well Information Block
#MNEM.UNIT     VALUE/NAME     DESCRIPTION
#---------     -----------    ---------------------------
 STRT.S             17:04:09 31-Jan-20: START TIME 17:04:09 31-Jan-20
 STOP.S             17:10:42 31-Jan-20: STOP TIME  17:10:42 31-Jan-20
 STEP.S                   0.00: STEP TIME
 NULL.                 -999.25: NULL VALUE
 DFWT.                        :  DIST FWL TEXT
 DFST.                        :  DIST FSL TEXT
 DMF .             Drill Floor:  DRILL MEAS FROM
 STIM.      09.30.00 26-Dec-19:  START TIME
 DATE.      08.00.00 20-Jan-20:  END TIME
 SPUD.               23-Nov-19:  SPUD DATE
 NREF.                    Grid:  NORTH REFERENCE
 HPTY.       Minimum Curvature:  HOLE POS TYPE
 DMOD.             Drill Model:  DRILL MOD DESC
 SVYD.                  Survey:  SURVEY DESC
 ILTD.               Lithology:  INTERP LTH DESC
 FTOP.          Formation Tops:  FORM TOPS DESC
 SON .        AZ-XX-0906192647:  JOB NUMBER
 WTYP.                Deviated:  WELL TYPE
 COMP.     BP Exploration (Caspian Sea) Ltd:  COMPANY
 BASE.              Azerbaijan:  LOGGING EQUIPMENT BASE LOCATION
 REGN.                 Eurasia:  REGION
 FLD .                     ACG:  FIELD NAME
 SRVC.              KCA Deutag:  CONTRACTOR
 MWDS.                    Baku:  MWD SHOP
 WELL.     A10 (Slot 20) - SCP:  WELL NAME
 JOBN.        AZ-XX-0906192647:  JOB TICKET NUMB
 RIG .                 Chirag1:  RIG NAME
 DCON.     Halliburton Sperry Drilling:  DIRECTNL CONTR
 UNIT.                     N/A:  LOGGING EQUIPMENT ID
 PDAT.          Mean Sea Level:  PERMANENT DATUM
 MDS .        Operator Entered:  MAG DATA SOURCE
 CTRY.              Azerbaijan:  COUNTRY NAME
 UWI .            /AZE00000090:  UNIQUE WELL IDENTIFIER
 API .            /AZE00000090:  API NUMBER
 CNTY.                        :  COUNTY
 PROV.                        :  PROVINCE
 STAT.                        :  STATE
 LOC .                        :  LOCATION
 LMF .             Drill Floor:  LOG MEASURED FROM
 TVDS.m                  36.60:  TVDSS CORRECTN
 LATI.deg                40.08:  LATITUDE
 LONG.deg                51.24:  LONGITUDE
 WHNS.m                  -7.94:  WELL HEAD N/S
 WHEW.m                   1.56:  WELL HEAD E/W
 UTMX.m              520429.26:  UTM X
 UTMY.m             4438973.87:  UTM Y
 DFWL.m                   0.00:  DISTANCE FWL
 DFSL.m                   0.00:  DISTANCE FSL
 SDEP.m                1455.00:  START DEPTH
 TDD .m                4047.51:  TOTAL DEPTH (DRILLER)
 VSDR.deg               112.75:  VERT SEC DIRECT
 GVFD.g                   1.00:  GRAVITY FIELD
 MFLD.nT              50261.00:  MAGNETIC FIELD
 MDIP.deg                59.52:  MAGNETIC DIP
 MDEC.deg                 6.42:  MAGNETIC DECL
 GRDC.deg                 0.17:  GRID CORRECTION
 AZTC.deg                 6.25:  AZM TOTAL CORR
 EPD .m                   0.00:  ELEVATION
 EGL .m                   0.00:  GROUND ELEVATION
 WDMS.m                 121.00:  WD ELEV
 APD .m                  36.60:  DEPTH ABOVE PD
 AGAP.m                  36.60:  AIR GAP
 VSEW.m                   1.56:  VERT SEC E/W
 VSNS.m                  -7.94:  VERT SEC N/S
 DEP .m                1140.01:  DEPTH
 EKB .m                  36.60:  KB ELEVATION
 EDF .m                  36.60:  DF ELEVATION
 TDL .m                 169.50:  TOTAL DEPTH (LOGGER)
 CSGD.m                3875.01:  CASING BOTTOM (DRILLER)
 CSGL.m                3875.01:  CASING BOTTOM (LOGGER)
 CSGS.in                  7.63:  CASING SIZE
 CSGW.lbpf               23.50:  CASING WEIGHT
 VSC .                       0:  VS TO CLOSURE
 MAGU.                 1849206:  MAGUTM CHECKSUM
~Parameter Information Block
#MNEM.UNIT       Value        Description
#---------     -----------    ---------------------------
 AV  .mps                 1.90:  Ann Velocity 
 AVMX.mps                 2.54:  Max Ann Veloc 
 AZIF.deg               137.03:  Azm, Final 
 BHAT.        Rotary Steerable:  BHA Type 
 BREV.rev             23610.00:  Rev Bit Total 
 BROT.°/30m               0.80:  Build Rotating 
 BS  .in                  6.50:  Bit Size 
 BTPL.psig              110.00:  Bit Press Loss 
 CABU.                     Yes:  Customer Abuse 
 COMM.                     D7Y:  Run Comments 1 
 TCS .hr                 70.51:  Time Ciculation Ended 
 CV  .mps                 1.41:  Crit Velocity 
 CVMX.mps                 1.42:  Max Crit Veloc 
 DD1 .         Intigam Rahimov:  Direct Drillr 1 
 DD2 .          Rashad Gojayev:  Direct Drillr 2 
 DDSV.               Geo-Pilot:  DD Service 
 DEFF.%                 100.00:  % Det Eff 
 DLRX.°/30m               1.44:  Dogleg Rot Max 
 DLSO.°/30m               0.00:  Dogleg Oriented 
 DLSX.°/30m               0.00:  Dogleg Str Max 
 DRET.      03.05.00 01-Feb-20:  Drill End Time 
 DRST.      15.50.00 28-Jan-20:  Drill Start Tim 
 DTIM.hr                 24.70:  Time Drilling 
 EDEP.m                4047.51:  End Depth 
 ENG1.           Eldar Hajiyev:  Engineer 1 
 ENG2.          Rasim Hashimov:  Engineer 2 
 ENG3.          Rustam Safarov:  Engineer 3 
 ETIM.      22.00.00 01-Feb-20:  End Time 
 FLOI.gpm               370.00:  Flow In 
 FLON.gpm               300.00:  Flow In Min 
 FLOS.cptm                0.00:  Fluid Loss 
 FLOX.gpm               400.00:  Flow In Max 
 FTRO.       Formation Presure:  FTWD Run Obj 
 HFLO.                      No:  High Flow 
 HPRE.                      No:  High Pressure 
 HTEM.                      No:  High Temp 
 HYDO.m                   2.50:  Hydro Offset 
 IFIN.deg                39.54:  Inc, Final 
 IMAX.deg                41.14:  Inc Max 
 IMIN.deg                39.81:  Inc Min 
 IMND.m                4005.21:  Inc Min Depth 
 IMXD.m                3948.42:  Inc Max Depth 
 JARR.                      No:  Jarring 
 LETM.      03.05.00 01-Feb-20:  Log End Time 
 LOST.hr                     0:  Lost Rig Time 
 LSTM.      15.50.00 28-Jan-20:  Log Start Time 
 MDCL.ppm             37500.00:  Mud Chlorides 
 MDES.     Inversion Oil/Synthetic:  Mud Desc 
 DFD .sg                  1.32:  Mud Density 
 MDMN.sg                  1.32:  Dens Mud Min 
 MDMX.sg                  1.32:  Dens Mud Max 
 MOIL.                      55:  Run Mud Oil % 
 MOWR.                   70:30:  Run Mud OWR 
 MSND.                       0:  Run Mud Sand % 
 MSOL.                      17:  Run Mud Solids% 
 DFV .spqt               80.00:  Mud Viscosity 
 MWOD.in                  4.75:  MWD Tool OD 
 MWSI.                      No:  Serv Intrp, MWD 
 OTIM.hr                121.28:  Time Operating 
 PCON.           Look Like New:  Pad Condition 
 PMAX.psia             6171.00:  Press Op, Max 
 PV  .cP                 30.00:  Mud PV 
 RUN .                     300:  Run Number 
 ROPA.m/hr                5.45:  ROP Avg 
 ROPN.m/hr                3.00:  ROP Min 
 ROPX.m/hr               15.00:  ROP Max 
 RPMA.rpm               130.00:  RPM Surface Avg 
 RPMN.rpm                80.00:  RPM Surface Min 
 RPMX.rpm               140.00:  RPM Surface Max 
 RRUN.                     300:  Rig Run Number 
 RTIM.hr                 13.50:  Time Reaming 
 SAZI.deg               133.93:  Azm, Start 
 SDEP.m                3878.01:  Start Depth 
 SIDD.                      No:  Serv Intrp, DD 
 SINC.deg                40.28:  Inc, Start 
 SPPA.psig             4983.00:  SPP Avg 
 SPPN.psig             4370.00:  SPP Min 
 SPPX.psig             5300.00:  SPP Max 
 STIM.      18.33.36 27-Jan-20:  Start Time 
 SVCS.                 DD, MWD:  Services 
 SVER.                    9.20:  Sperry Version 
 TDAT.m                 169.50:  Tot Depth Attmp 
 TDDF.                      No:  Trip for DD 
 TDLG.m                 169.50:  Tot Depth Loggd 
 TFF .                      No:  Trip for Fail 
 TQAA.f-kp               13.25:  Torque Abs Avg 
 TQAN.f-kp               12.00:  Torque Abs Min 
 TQAX.f-kp               14.00:  Torque Abs Max 
 TRRT.°/30m               0.70:  Turn Rotating 
 MRT .                     ADR:  Maximum Recorded Temperature 
 TTMX.degC               92.16:  Max Tool Temp 
 VS01.       AZ90598764G12V7D4:  Virtual Str1 SN 
 VS02.         AZ90571342R12C4:  Virtual Str2 SN 
 VS03.      AZ90580010N2L2X1C4:  Virtual Str3 SN 
 VS04.        AZ90522266O7X1C4:  Virtual Str4 SN 
 VS05.           AZ90598768F11:  Virtual Str5 SN 
 VS06.     AZ90580006XZ1W1X1C4:  Virtual Str6 SN 
 WBMN.klb                 8.00:  WOB Min 
 WITN.            Peter Wilson:  Customer Rep 
 WOBA.klb                 9.88:  WOB Avg 
 WOBX.klb                10.00:  WOB Max 
 YP  .lhf2               27.00:  Yield Point 
~Curve Information Block
#MNEM.UNIT                 API CODE     Curve Description
#---------               -----------    ---------------------------
 TIME.HHMMSS            00 000 000 000:  GT Time & Date
 GTDEPTH.m              00 000 000 000:  GT Depth
 GTPQH.psia             00 000 000 000:  GT HR Quartz Pressure
 GTTQ.degC              00 000 000 000:  GT Quartz Temperature
 GTTN.NONE              00 000 000 000:  GT Test Number
 GTET.sec               00 000 000 000:  GT Elapsed Test Time
 GTTVD.m                00 000 000 000:  GT True Vertical Depth
#Other Information
#
#WARRANTY: Halliburton will use its best efforts to furnish customers with 
#accurate information and interpretations that are part of, and incident to, the services 
#provided.  However, Halliburton cannot and does not warrant the accuracy 
#or correctness of such information and interpretations.  Under no circumstances should any 
#such information or interpretation be relied upon as the sole basis for any drilling, 
#completion, production, or financial decision or any procedure involving any risk to the 
#safety of any drilling venture, drilling rig or its crew or any other third party.  The 
#Customer has full responsibility for all drilling, completion and production operation.  
#Halliburton makes no representations or warranties, either expressed or 
#implied, including, but not limited to, the implied warranties of merchantability or fitness 
#for a particular purpose, with respect to the services rendered.  In no event will 
#Halliburton be liable for failure to obtain any particular results or for 
#any damages, including, but not limited to, indirect, special or consequential damages, 
#resulting from the use of any information or interpretation provided by Halliburton.
#
~A           TIME           GTDEPTH  GTPQH  GTTQ  GTTN  GTET   GTTVD  
# ...
   17:07:36.558.31-Jan-2020 3960.51 3520.37 85.37 8.00 207.05 2982.89
   17:07:36.758.31-Jan-2020 3960.51 3520.37 85.37 8.00 207.25 2982.89
   17:07:36.958.31-Jan-2020 3960.51 3520.23 85.37 8.00 207.45 2982.89
   17:07:37.158.31-Jan-2020 3960.51 3520.35 85.37 8.00 207.65 2982.89
   17:07:37.358.31-Jan-2020 3960.51 3520.29 85.37 8.00 207.85 2982.89
   17:07:37.559.31-Jan-2020 3960.51 3520.33 85.37 8.00 208.05 2982.89
   17:07:37.759.31-Jan-2020 3960.51 3520.33 85.37 8.00 208.25 2982.89
   17:07:37.959.31-Jan-2020 3960.51 3520.33 85.37 8.00 208.45 2982.89
   17:07:38.159.31-Jan-2020 3960.51 3520.51 85.37 8.00 208.65 2982.89
   17:07:38.359.31-Jan-2020 3960.51 3519.85 85.36 8.00 208.85 2982.89
   17:07:38.559.31-Jan-2020 3960.51 3520.22 85.36 8.00 209.05 2982.89
   17:07:38.759.31-Jan-2020 3960.51 3520.22 85.36 8.00 209.25 2982.89
   17:07:38.959.31-Jan-2020 3960.51 3520.36 85.36 8.00 209.45 2982.89
   17:07:39.159.31-Jan-2020 3960.51 3520.53 85.36 8.00 209.65 2982.89
   17:07:39.359.31-Jan-2020 3960.51 3519.89 85.36 8.00 209.85 2982.89
   17:07:39.559.31-Jan-2020 3960.51 3520.23 85.36 8.00 210.05 2982.89
   17:07:39.759.31-Jan-2020 3960.51 3520.23 85.36 8.00 210.25 2982.89
   17:07:39.959.31-Jan-2020 3960.51 3520.41 85.36 8.00 210.45 2982.89
   17:07:40.159.31-Jan-2020 3960.51 3520.46 85.36 8.00 210.65 2982.89
   17:07:40.359.31-Jan-2020 3960.51 3520.54 85.36 8.00 210.85 2982.89
   17:07:40.559.31-Jan-2020 3960.51 3519.95 85.36 8.00 211.05 2982.89
   17:07:40.759.31-Jan-2020 3960.51 3519.95 85.36 8.00 211.25 2982.89
   17:07:40.959.31-Jan-2020 3960.51 3520.25 85.36 8.00 211.45 2982.89
   17:07:41.159.31-Jan-2020 3960.51 3520.36 85.36 8.00 211.65 2982.89
   17:07:41.359.31-Jan-2020 3960.51 3520.49 85.36 8.00 211.85 2982.89
   17:07:41.559.31-Jan-2020 3960.51 3520.51 85.36 8.00 212.05 2982.89
   17:07:41.759.31-Jan-2020 3960.51 3520.51 85.36 8.00 212.25 2982.89
   17:07:41.960.31-Jan-2020 3960.51 3520.19 85.36 8.00 212.45 2982.89
   17:07:42.160.31-Jan-2020 3960.51 3520.37 85.35 8.00 212.65 2982.89
   17:07:42.360.31-Jan-2020 3960.51 3520.44 85.35 8.00 212.85 2982.89
   17:07:42.560.31-Jan-2020 3960.51 3520.58 85.35 8.00 213.05 2982.89
   17:07:42.760.31-Jan-2020 3960.51 3520.58 85.35 8.00 213.25 2982.89
   17:07:42.960.31-Jan-2020 3960.51 3520.25 85.35 8.00 213.45 2982.89
   17:07:43.160.31-Jan-2020 3960.51 3520.39 85.35 8.00 213.65 2982.89
   17:07:43.360.31-Jan-2020 3960.51 3520.48 85.35 8.00 213.85 2982.89
   17:07:43.560.31-Jan-2020 3960.51 3520.54 85.35 8.00 214.05 2982.89
   17:07:43.760.31-Jan-2020 3960.51 3520.54 85.35 8.00 214.25 2982.89
   17:07:43.960.31-Jan-2020 3960.51 3520.38 85.35 8.00 214.45 2982.89
   17:07:44.160.31-Jan-2020 3960.51 3520.35 85.35 8.00 214.65 2982.89
   17:07:44.360.31-Jan-2020 3960.51 3520.28 85.35 8.00 214.85 2982.89
   17:07:44.560.31-Jan-2020 3960.51 3520.36 85.35 8.00 215.05 2982.89
   17:07:44.760.31-Jan-2020 3960.51 3520.36 85.35 8.00 215.25 2982.89
   17:07:44.960.31-Jan-2020 3960.51 3520.36 85.35 8.00 215.45 2982.89
   17:07:45.160.31-Jan-2020 3960.51 3520.34 85.35 8.00 215.65 2982.89
   17:07:45.360.31-Jan-2020 3960.51 3520.27 85.35 8.00 215.85 2982.89
   17:07:45.560.31-Jan-2020 3960.51 3520.27 85.35 8.00 216.05 2982.89
   17:07:45.760.31-Jan-2020 3960.51 3520.27 85.35 8.00 216.25 2982.89
   17:07:45.960.31-Jan-2020 3960.51 3520.30 85.34 8.00 216.45 2982.89
   17:07:46.161.31-Jan-2020 3960.51 3520.28 85.34 8.00 216.65 2982.89
   17:07:46.361.31-Jan-2020 3960.51 3520.20 85.34 8.00 216.85 2982.89
   17:07:46.561.31-Jan-2020 3960.51 3520.03 85.34 8.00 217.05 2982.89
   17:07:46.761.31-Jan-2020 3960.51 3520.03 85.34 8.00 217.25 2982.89
   17:07:46.961.31-Jan-2020 3960.51 3520.48 85.34 8.00 217.45 2982.89
   17:07:47.161.31-Jan-2020 3960.51 3520.41 85.34 8.00 217.65 2982.89
   17:07:47.361.31-Jan-2020 3960.51 3520.41 85.34 8.00 217.85 2982.89
   17:07:47.561.31-Jan-2020 3960.51 3520.39 85.34 8.00 218.05 2982.89
   17:07:47.761.31-Jan-2020 3960.51 3520.39 85.34 8.00 218.25 2982.89
   17:07:47.961.31-Jan-2020 3960.51 3520.42 85.34 8.00 218.45 2982.89
   17:07:48.161.31-Jan-2020 3960.51 3520.35 85.34 8.00 218.65 2982.89
   17:07:48.361.31-Jan-2020 3960.51 3520.32 85.34 8.00 218.85 2982.89
   17:07:48.561.31-Jan-2020 3960.51 3520.45 85.34 8.00 219.05 2982.89
   17:07:48.761.31-Jan-2020 3960.51 3520.45 85.34 8.00 219.25 2982.89
   17:07:48.961.31-Jan-2020 3960.51 3520.29 85.34 8.00 219.45 2982.89
   17:07:49.161.31-Jan-2020 3960.51 3520.25 85.34 8.00 219.65 2982.89
   17:07:49.361.31-Jan-2020 3960.51 3520.33 85.33 8.00 219.85 2982.89
   17:07:49.561.31-Jan-2020 3960.51 3520.46 85.33 8.00 220.05 2982.89
   17:07:49.761.31-Jan-2020 3960.51 3520.46 85.33 8.00 220.25 2982.89
   17:07:49.961.31-Jan-2020 3960.51 3520.24 85.33 8.00 220.45 2982.89
   17:07:50.161.31-Jan-2020 3960.51 3520.38 85.33 8.00 220.65 2982.89
   17:07:50.362.31-Jan-2020 3960.51 3520.34 85.33 8.00 220.85 2982.89
   17:07:50.562.31-Jan-2020 3960.51 3520.46 85.33 8.00 221.05 2982.89
   17:07:50.762.31-Jan-2020 3960.51 3520.46 85.33 8.00 221.25 2982.89
   17:07:50.962.31-Jan-2020 3960.51 3520.28 85.33 8.00 221.45 2982.89
   17:07:51.162.31-Jan-2020 3960.51 3520.41 85.33 8.00 221.65 2982.89
   17:07:51.362.31-Jan-2020 3960.51 3520.33 85.33 8.00 221.85 2982.89
   17:07:51.562.31-Jan-2020 3960.51 3520.46 85.33 8.00 222.05 2982.89
   17:07:51.762.31-Jan-2020 3960.51 3520.46 85.33 8.00 222.25 2982.89
   17:07:51.962.31-Jan-2020 3960.51 3520.07 85.33 8.00 222.45 2982.89
   17:07:52.162.31-Jan-2020 3960.51 3520.22 85.33 8.00 222.65 2982.89
   17:07:52.362.31-Jan-2020 3960.51 3520.27 85.33 8.00 222.85 2982.89
   17:07:52.562.31-Jan-2020 3960.51 3520.45 85.33 8.00 223.05 2982.89
   17:07:52.762.31-Jan-2020 3960.51 3520.45 85.33 8.00 223.25 2982.89
   17:07:52.962.31-Jan-2020 3960.51 3520.46 85.32 8.00 223.45 2982.89
   17:07:53.162.31-Jan-2020 3960.51 3520.16 85.32 8.00 223.65 2982.89
   17:07:53.362.31-Jan-2020 3960.51 3520.25 85.32 8.00 223.85 2982.89
   17:07:53.562.31-Jan-2020 3960.51 3520.47 85.32 8.00 224.05 2982.89
   17:07:53.762.31-Jan-2020 3960.51 3520.47 85.32 8.00 224.25 2982.89
   17:07:53.962.31-Jan-2020 3960.51 3520.54 85.32 8.00 224.45 2982.89
   17:07:54.162.31-Jan-2020 3960.51 3520.07 85.32 8.00 224.65 2982.89
   17:07:54.362.31-Jan-2020 3960.51 3520.15 85.32 8.00 224.85 2982.89
   17:07:54.562.31-Jan-2020 3960.51 3520.47 85.32 8.00 225.05 2982.89
   17:07:54.763.31-Jan-2020 3960.51 3520.47 85.32 8.00 225.25 2982.89
   17:07:54.963.31-Jan-2020 3960.51 3520.60 85.32 8.00 225.45 2982.89
   17:07:55.163.31-Jan-2020 3960.51 3520.66 85.32 8.00 225.65 2982.89
   17:07:55.363.31-Jan-2020 3960.51 3520.41 85.32 8.00 225.85 2982.89
   17:07:55.563.31-Jan-2020 3960.51 3520.51 85.32 8.00 226.05 2982.89
   17:07:55.763.31-Jan-2020 3960.51 3520.51 85.32 8.00 226.25 2982.89
   17:07:55.963.31-Jan-2020 3960.51 3520.38 85.32 8.00 226.45 2982.89
   17:07:56.163.31-Jan-2020 3960.51 3520.44 85.32 8.00 226.65 2982.89
   17:07:56.363.31-Jan-2020 3960.51 3520.21 85.32 8.00 226.85 2982.89
   17:07:56.563.31-Jan-2020 3960.51 3520.35 85.32 8.00 227.05 2982.89
   17:07:56.763.31-Jan-2020 3960.51 3520.35 85.32 8.00 227.25 2982.89
   17:07:56.963.31-Jan-2020 3960.51 3520.32 85.31 8.00 227.45 2982.89
   17:07:57.163.31-Jan-2020 3960.51 3520.38 85.31 8.00 227.65 2982.89
   17:07:57.363.31-Jan-2020 3960.51 3520.23 85.31 8.00 227.85 2982.89
   17:07:57.563.31-Jan-2020 3960.51 3520.38 85.31 8.00 228.05 2982.89
   17:07:57.763.31-Jan-2020 3960.51 3520.38 85.31 8.00 228.25 2982.89
   17:07:57.963.31-Jan-2020 3960.51 3521.46 84.66 8.00 228.45 2982.89
   17:07:58.163.31-Jan-2020 3960.51 3520.35 85.31 8.00 228.65 2982.89
   17:07:58.363.31-Jan-2020 3960.51 3520.30 85.31 8.00 228.85 2982.89
   17:07:58.563.31-Jan-2020 3960.51 3520.51 85.31 8.00 229.05 2982.89
   17:07:58.763.31-Jan-2020 3960.51 3520.51 85.31 8.00 229.25 2982.89
   17:07:58.964.31-Jan-2020 3960.51 3520.34 85.31 8.00 229.45 2982.89
   17:07:59.164.31-Jan-2020 3960.51 3520.48 85.31 8.00 229.65 2982.89
   17:07:59.364.31-Jan-2020 3960.51 3520.33 85.31 8.00 229.85 2982.89
