~Version Information
 VERS.                  2.0:   CWLS log ASCII Standard -VERSION 2.0
 WRAP.                   NO:   One line per depth step
~Well Information Block
#MNEM.UNIT     VALUE/NAME     DESCRIPTION
#---------     -----------    ---------------------------
 STRT.S             01:40:55 31-Jan-20: START TIME 01:40:55 31-Jan-20
 STOP.S             01:47:23 31-Jan-20: STOP TIME  01:47:23 31-Jan-20
 STEP.S                   0.00: STEP TIME
 NULL.                 -999.25: NULL VALUE
 DFWT.                        :  DIST FWL TEXT
 DFST.                        :  DIST FSL TEXT
 DMF .             Drill Floor:  DRILL MEAS FROM
 STIM.      09.30.00 26-Dec-19:  START TIME
 DATE.      08.00.00 20-Jan-20:  END TIME
 SPUD.               23-Nov-19:  SPUD DATE
 NREF.                    Grid:  NORTH REFERENCE
 HPTY.       Minimum Curvature:  HOLE POS TYPE
 DMOD.             Drill Model:  DRILL MOD DESC
 SVYD.                  Survey:  SURVEY DESC
 ILTD.               Lithology:  INTERP LTH DESC
 FTOP.          Formation Tops:  FORM TOPS DESC
 SON .        AZ-XX-0906192647:  JOB NUMBER
 WTYP.                Deviated:  WELL TYPE
 COMP.     BP Exploration (Caspian Sea) Ltd:  COMPANY
 BASE.              Azerbaijan:  LOGGING EQUIPMENT BASE LOCATION
 REGN.                 Eurasia:  REGION
 FLD .                     ACG:  FIELD NAME
 SRVC.              KCA Deutag:  CONTRACTOR
 MWDS.                    Baku:  MWD SHOP
 WELL.     A10 (Slot 20) - SCP:  WELL NAME
 JOBN.        AZ-XX-0906192647:  JOB TICKET NUMB
 RIG .                 Chirag1:  RIG NAME
 DCON.     Halliburton Sperry Drilling:  DIRECTNL CONTR
 UNIT.                     N/A:  LOGGING EQUIPMENT ID
 PDAT.          Mean Sea Level:  PERMANENT DATUM
 MDS .        Operator Entered:  MAG DATA SOURCE
 CTRY.              Azerbaijan:  COUNTRY NAME
 UWI .            /AZE00000090:  UNIQUE WELL IDENTIFIER
 API .            /AZE00000090:  API NUMBER
 CNTY.                        :  COUNTY
 PROV.                        :  PROVINCE
 STAT.                        :  STATE
 LOC .                        :  LOCATION
 LMF .             Drill Floor:  LOG MEASURED FROM
 TVDS.m                  36.60:  TVDSS CORRECTN
 LATI.deg                40.08:  LATITUDE
 LONG.deg                51.24:  LONGITUDE
 WHNS.m                  -7.94:  WELL HEAD N/S
 WHEW.m                   1.56:  WELL HEAD E/W
 UTMX.m              520429.26:  UTM X
 UTMY.m             4438973.87:  UTM Y
 DFWL.m                   0.00:  DISTANCE FWL
 DFSL.m                   0.00:  DISTANCE FSL
 SDEP.m                1455.00:  START DEPTH
 TDD .m                4047.51:  TOTAL DEPTH (DRILLER)
 VSDR.deg               112.75:  VERT SEC DIRECT
 GVFD.g                   1.00:  GRAVITY FIELD
 MFLD.nT              50261.00:  MAGNETIC FIELD
 MDIP.deg                59.52:  MAGNETIC DIP
 MDEC.deg                 6.42:  MAGNETIC DECL
 GRDC.deg                 0.17:  GRID CORRECTION
 AZTC.deg                 6.25:  AZM TOTAL CORR
 EPD .m                   0.00:  ELEVATION
 EGL .m                   0.00:  GROUND ELEVATION
 WDMS.m                 121.00:  WD ELEV
 APD .m                  36.60:  DEPTH ABOVE PD
 AGAP.m                  36.60:  AIR GAP
 VSEW.m                   1.56:  VERT SEC E/W
 VSNS.m                  -7.94:  VERT SEC N/S
 DEP .m                1140.01:  DEPTH
 EKB .m                  36.60:  KB ELEVATION
 EDF .m                  36.60:  DF ELEVATION
 TDL .m                 169.50:  TOTAL DEPTH (LOGGER)
 CSGD.m                3875.01:  CASING BOTTOM (DRILLER)
 CSGL.m                3875.01:  CASING BOTTOM (LOGGER)
 CSGS.in                  7.63:  CASING SIZE
 CSGW.lbpf               23.50:  CASING WEIGHT
 VSC .                       0:  VS TO CLOSURE
 MAGU.                 1849206:  MAGUTM CHECKSUM
~Parameter Information Block
#MNEM.UNIT       Value        Description
#---------     -----------    ---------------------------
 AV  .mps                 1.90:  Ann Velocity 
 AVMX.mps                 2.54:  Max Ann Veloc 
 AZIF.deg               137.03:  Azm, Final 
 BHAT.        Rotary Steerable:  BHA Type 
 BREV.rev             23610.00:  Rev Bit Total 
 BROT.°/30m               0.80:  Build Rotating 
 BS  .in                  6.50:  Bit Size 
 BTPL.psig              110.00:  Bit Press Loss 
 CABU.                     Yes:  Customer Abuse 
 COMM.                     šn:  Run Comments 1 
 TCS .hr                 70.51:  Time Ciculation Ended 
 CV  .mps                 1.41:  Crit Velocity 
 CVMX.mps                 1.42:  Max Crit Veloc 
 DD1 .         Intigam Rahimov:  Direct Drillr 1 
 DD2 .          Rashad Gojayev:  Direct Drillr 2 
 DDSV.               Geo-Pilot:  DD Service 
 DEFF.%                 100.00:  % Det Eff 
 DLRX.°/30m               1.44:  Dogleg Rot Max 
 DLSO.°/30m               0.00:  Dogleg Oriented 
 DLSX.°/30m               0.00:  Dogleg Str Max 
 DRET.      03.05.00 01-Feb-20:  Drill End Time 
 DRST.      15.50.00 28-Jan-20:  Drill Start Tim 
 DTIM.hr                 24.70:  Time Drilling 
 EDEP.m                4047.51:  End Depth 
 ENG1.           Eldar Hajiyev:  Engineer 1 
 ENG2.          Rasim Hashimov:  Engineer 2 
 ENG3.          Rustam Safarov:  Engineer 3 
 ETIM.      22.00.00 01-Feb-20:  End Time 
 FLOI.gpm               370.00:  Flow In 
 FLON.gpm               300.00:  Flow In Min 
 FLOS.cptm                0.00:  Fluid Loss 
 FLOX.gpm               400.00:  Flow In Max 
 FTRO.       Formation Presure:  FTWD Run Obj 
 HFLO.                      No:  High Flow 
 HPRE.                      No:  High Pressure 
 HTEM.                      No:  High Temp 
 HYDO.m                   2.50:  Hydro Offset 
 IFIN.deg                39.54:  Inc, Final 
 IMAX.deg                41.14:  Inc Max 
 IMIN.deg                39.81:  Inc Min 
 IMND.m                4005.21:  Inc Min Depth 
 IMXD.m                3948.42:  Inc Max Depth 
 JARR.                      No:  Jarring 
 LETM.      03.05.00 01-Feb-20:  Log End Time 
 LOST.hr                     0:  Lost Rig Time 
 LSTM.      15.50.00 28-Jan-20:  Log Start Time 
 MDCL.ppm             37500.00:  Mud Chlorides 
 MDES.     Inversion Oil/Synthetic:  Mud Desc 
 DFD .sg                  1.32:  Mud Density 
 MDMN.sg                  1.32:  Dens Mud Min 
 MDMX.sg                  1.32:  Dens Mud Max 
 MOIL.                      55:  Run Mud Oil % 
 MOWR.                   70:30:  Run Mud OWR 
 MSND.                       0:  Run Mud Sand % 
 MSOL.                      17:  Run Mud Solids% 
 DFV .spqt               80.00:  Mud Viscosity 
 MWOD.in                  4.75:  MWD Tool OD 
 MWSI.                      No:  Serv Intrp, MWD 
 OTIM.hr                121.28:  Time Operating 
 PCON.           Look Like New:  Pad Condition 
 PMAX.psia             6171.00:  Press Op, Max 
 PV  .cP                 30.00:  Mud PV 
 RUN .                     300:  Run Number 
 ROPA.m/hr                5.45:  ROP Avg 
 ROPN.m/hr                3.00:  ROP Min 
 ROPX.m/hr               15.00:  ROP Max 
 RPMA.rpm               130.00:  RPM Surface Avg 
 RPMN.rpm                80.00:  RPM Surface Min 
 RPMX.rpm               140.00:  RPM Surface Max 
 RRUN.                     300:  Rig Run Number 
 RTIM.hr                 13.50:  Time Reaming 
 SAZI.deg               133.93:  Azm, Start 
 SDEP.m                3878.01:  Start Depth 
 SIDD.                      No:  Serv Intrp, DD 
 SINC.deg                40.28:  Inc, Start 
 SPPA.psig             4983.00:  SPP Avg 
 SPPN.psig             4370.00:  SPP Min 
 SPPX.psig             5300.00:  SPP Max 
 STIM.      18.33.36 27-Jan-20:  Start Time 
 SVCS.                 DD, MWD:  Services 
 SVER.                    9.20:  Sperry Version 
 TDAT.m                 169.50:  Tot Depth Attmp 
 TDDF.                      No:  Trip for DD 
 TDLG.m                 169.50:  Tot Depth Loggd 
 TFF .                      No:  Trip for Fail 
 TQAA.f-kp               13.25:  Torque Abs Avg 
 TQAN.f-kp               12.00:  Torque Abs Min 
 TQAX.f-kp               14.00:  Torque Abs Max 
 TRRT.°/30m               0.70:  Turn Rotating 
 MRT .                     ADR:  Maximum Recorded Temperature 
 TTMX.degC               92.16:  Max Tool Temp 
 VS01.       AZ90598764G12V7D4:  Virtual Str1 SN 
 VS02.         AZ90571342R12C4:  Virtual Str2 SN 
 VS03.      AZ90580010N2L2X1C4:  Virtual Str3 SN 
 VS04.        AZ90522266O7X1C4:  Virtual Str4 SN 
 VS05.           AZ90598768F11:  Virtual Str5 SN 
 VS06.     AZ90580006XZ1W1X1C4:  Virtual Str6 SN 
 WBMN.klb                 8.00:  WOB Min 
 WITN.            Peter Wilson:  Customer Rep 
 WOBA.klb                 9.88:  WOB Avg 
 WOBX.klb                10.00:  WOB Max 
 YP  .lhf2               27.00:  Yield Point 
~Curve Information Block
#MNEM.UNIT                 API CODE     Curve Description
#---------               -----------    ---------------------------
 TIME.HHMMSS            00 000 000 000:  GT Time & Date
 GTDEPTH.m              00 000 000 000:  GT Depth
 GTPQH.psia             00 000 000 000:  GT HR Quartz Pressure
 GTTQ.degC              00 000 000 000:  GT Quartz Temperature
 GTTN.NONE              00 000 000 000:  GT Test Number
 GTET.sec               00 000 000 000:  GT Elapsed Test Time
 GTTVD.m                00 000 000 000:  GT True Vertical Depth
#Other Information
#
#WARRANTY: Halliburton will use its best efforts to furnish customers with 
#accurate information and interpretations that are part of, and incident to, the services 
#provided.  However, Halliburton cannot and does not warrant the accuracy 
#or correctness of such information and interpretations.  Under no circumstances should any 
#such information or interpretation be relied upon as the sole basis for any drilling, 
#completion, production, or financial decision or any procedure involving any risk to the 
#safety of any drilling venture, drilling rig or its crew or any other third party.  The 
#Customer has full responsibility for all drilling, completion and production operation.  
#Halliburton makes no representations or warranties, either expressed or 
#implied, including, but not limited to, the implied warranties of merchantability or fitness 
#for a particular purpose, with respect to the services rendered.  In no event will 
#Halliburton be liable for failure to obtain any particular results or for 
#any damages, including, but not limited to, indirect, special or consequential damages, 
#resulting from the use of any information or interpretation provided by Halliburton.
#
~A           TIME           GTDEPTH  GTPQH  GTTQ  GTTN  GTET   GTTVD  
   01:40:55.063.31-Jan-2020 3902.01 5959.59 76.89 3.00   0.00 2938.77
   01:40:55.263.31-Jan-2020 3902.01 5959.59 76.89 3.00   0.20 2938.77
   01:40:55.463.31-Jan-2020 3902.01 5961.77 76.89 3.00   0.40 2938.77
   01:40:55.663.31-Jan-2020 3902.01 5961.24 76.89 3.00   0.60 2938.77
   01:40:55.864.31-Jan-2020 3902.01 5953.84 76.89 3.00   0.80 2938.77
   01:40:56.064.31-Jan-2020 3902.01 5962.67 76.89 3.00   1.00 2938.77
   01:40:56.264.31-Jan-2020 3902.01 5962.67 76.89 3.00   1.20 2938.77
   01:40:56.464.31-Jan-2020 3902.01 5966.65 76.88 3.00   1.40 2938.77
   01:40:56.664.31-Jan-2020 3902.01 5958.44 76.88 3.00   1.60 2938.77
   01:40:56.864.31-Jan-2020 3902.01 5967.52 76.88 3.00   1.80 2938.77
   01:40:57.064.31-Jan-2020 3902.01 5967.46 76.88 3.00   2.00 2938.77
   01:40:57.264.31-Jan-2020 3902.01 5967.46 76.88 3.00   2.20 2938.77
   01:40:57.464.31-Jan-2020 3902.01 5968.37 76.88 3.00   2.40 2938.77
   01:40:57.664.31-Jan-2020 3902.01 5968.72 76.88 3.00   2.60 2938.77
   01:40:57.864.31-Jan-2020 3902.01 5967.56 76.88 3.00   2.80 2938.77
   01:40:58.064.31-Jan-2020 3902.01 5963.00 76.88 3.00   3.00 2938.77
   01:40:58.264.31-Jan-2020 3902.01 5963.00 76.88 3.00   3.20 2938.77
   01:40:58.464.31-Jan-2020 3902.01 5966.30 76.87 3.00   3.40 2938.77
   01:40:58.664.31-Jan-2020 3902.01 5968.29 76.87 3.00   3.60 2938.77
   01:40:58.864.31-Jan-2020 3902.01 5968.80 76.87 3.00   3.80 2938.77
   01:40:59.064.31-Jan-2020 3902.01 5967.48 76.87 3.00   4.00 2938.77
   01:40:59.264.31-Jan-2020 3902.01 5967.48 76.87 3.00   4.20 2938.77
   01:40:59.464.31-Jan-2020 3902.01 5957.06 76.87 3.00   4.40 2938.77
   01:40:59.664.31-Jan-2020 3902.01 5965.00 76.87 3.00   4.60 2938.77
   01:40:59.864.31-Jan-2020 3902.01 5964.41 76.87 3.00   4.80 2938.77
   01:41:00.064.31-Jan-2020 3902.01 5959.78 76.87 3.00   5.00 2938.77
   01:41:00.264.31-Jan-2020 3902.01 5959.78 76.87 3.00   5.20 2938.77
   01:41:00.464.31-Jan-2020 3902.01 5962.91 76.87 3.00   5.40 2938.77
   01:41:00.664.31-Jan-2020 3902.01 5963.04 76.86 3.00   5.60 2938.77
   01:41:00.864.31-Jan-2020 3902.01 5963.88 76.86 3.00   5.80 2938.77
   01:41:01.064.31-Jan-2020 3902.01 5965.73 76.86 3.00   6.00 2938.77
   01:41:01.265.31-Jan-2020 3902.01 5965.73 76.86 3.00   6.20 2938.77
   01:41:01.465.31-Jan-2020 3902.01 5964.47 76.86 3.00   6.40 2938.77
   01:41:01.665.31-Jan-2020 3902.01 5964.79 76.86 3.00   6.60 2938.77
   01:41:01.865.31-Jan-2020 3902.01 5965.48 76.86 3.00   6.80 2938.77
   01:41:02.065.31-Jan-2020 3902.01 5967.58 76.86 3.00   7.00 2938.77
   01:41:02.265.31-Jan-2020 3902.01 5967.58 76.86 3.00   7.20 2938.77
   01:41:02.465.31-Jan-2020 3902.01 5969.22 76.86 3.00   7.40 2938.77
   01:41:02.665.31-Jan-2020 3902.01 5960.97 76.86 3.00   7.60 2938.77
   01:41:02.865.31-Jan-2020 3902.01 5970.24 76.85 3.00   7.80 2938.77
   01:41:03.065.31-Jan-2020 3902.01 5972.11 76.85 3.00   8.00 2938.77
   01:41:03.265.31-Jan-2020 3902.01 5972.11 76.85 3.00   8.20 2938.77
   01:41:03.465.31-Jan-2020 3902.01 5972.14 76.85 3.00   8.40 2938.77
   01:41:03.665.31-Jan-2020 3902.01 5971.07 76.85 3.00   8.60 2938.77
   01:41:03.865.31-Jan-2020 3902.01 5971.12 76.85 3.00   8.80 2938.77
   01:41:04.065.31-Jan-2020 3902.01 5967.80 76.85 3.00   9.00 2938.77
   01:41:04.265.31-Jan-2020 3902.01 5967.80 76.85 3.00   9.20 2938.77
   01:41:04.465.31-Jan-2020 3902.01 5971.91 76.85 3.00   9.40 2938.77
   01:41:04.665.31-Jan-2020 3902.01 5971.82 76.85 3.00   9.60 2938.77
   01:41:04.865.31-Jan-2020 3902.01 5972.45 76.85 3.00   9.80 2938.77
   01:41:05.065.31-Jan-2020 3902.01 5971.83 76.84 3.00  10.00 2938.77
   01:41:05.265.31-Jan-2020 3902.01 5971.83 76.84 3.00  10.20 2938.77
   01:41:05.465.31-Jan-2020 3902.01 5971.54 76.84 3.00  10.40 2938.77
   01:41:05.665.31-Jan-2020 3902.01 5971.88 76.84 3.00  10.60 2938.77
   01:41:05.865.31-Jan-2020 3902.01 5970.53 76.84 3.00  10.80 2938.77
   01:41:06.065.31-Jan-2020 3902.01 5971.22 76.84 3.00  11.00 2938.77
   01:41:06.265.31-Jan-2020 3902.01 5971.22 76.84 3.00  11.20 2938.77
   01:41:06.465.31-Jan-2020 3902.01 5971.75 76.84 3.00  11.40 2938.77
   01:41:06.665.31-Jan-2020 3902.01 5970.76 76.84 3.00  11.60 2938.77
   01:41:06.866.31-Jan-2020 3902.01 5971.40 76.84 3.00  11.80 2938.77
   01:41:07.066.31-Jan-2020 3902.01 5973.76 76.84 3.00  12.00 2938.77
   01:41:07.266.31-Jan-2020 3902.01 5973.76 76.84 3.00  12.20 2938.77
   01:41:07.466.31-Jan-2020 3902.01 5973.19 76.83 3.00  12.40 2938.77
   01:41:07.666.31-Jan-2020 3902.01 5968.20 76.83 3.00  12.60 2938.77
   01:41:07.866.31-Jan-2020 3902.01 5967.26 76.83 3.00  12.80 2938.77
   01:41:08.066.31-Jan-2020 3902.01 5972.42 76.83 3.00  13.00 2938.77
   01:41:08.266.31-Jan-2020 3902.01 5972.42 76.83 3.00  13.20 2938.77
   01:41:08.466.31-Jan-2020 3902.01 5973.25 76.83 3.00  13.40 2938.77
   01:41:08.666.31-Jan-2020 3902.01 5973.28 76.83 3.00  13.60 2938.77
   01:41:08.866.31-Jan-2020 3902.01 5973.28 76.83 3.00  13.80 2938.77
   01:41:09.066.31-Jan-2020 3902.01 5973.32 76.83 3.00  14.00 2938.77
   01:41:09.266.31-Jan-2020 3902.01 5973.32 76.83 3.00  14.20 2938.77
   01:41:09.466.31-Jan-2020 3902.01 5974.78 76.82 3.00  14.40 2938.77
   01:41:09.666.31-Jan-2020 3902.01 5974.82 76.82 3.00  14.60 2938.77
   01:41:09.866.31-Jan-2020 3902.01 5974.29 76.82 3.00  14.80 2938.77
   01:41:10.066.31-Jan-2020 3902.01 5973.69 76.82 3.00  15.00 2938.77
   01:41:10.266.31-Jan-2020 3902.01 5973.69 76.82 3.00  15.20 2938.77
   01:41:10.466.31-Jan-2020 3902.01 5973.23 76.82 3.00  15.40 2938.77
   01:41:10.666.31-Jan-2020 3902.01 5975.50 76.82 3.00  15.60 2938.77
   01:41:10.866.31-Jan-2020 3902.01 5975.61 76.82 3.00  15.80 2938.77
   01:41:11.066.31-Jan-2020 3902.01 5974.83 76.82 3.00  16.00 2938.77
   01:41:11.266.31-Jan-2020 3902.01 5974.83 76.82 3.00  16.20 2938.77
   01:41:11.466.31-Jan-2020 3902.01 5974.83 76.82 3.00  16.40 2938.77
   01:41:11.666.31-Jan-2020 3902.01 6008.69 76.81 3.00  16.60 2938.77
   01:41:11.866.31-Jan-2020 3902.01 6083.42 76.81 3.00  16.80 2938.77
   01:41:12.066.31-Jan-2020 3902.01 6140.48 76.81 3.00  17.00 2938.77
   01:41:12.266.31-Jan-2020 3902.01 6140.48 76.81 3.00  17.20 2938.77
   01:41:12.467.31-Jan-2020 3902.01 6262.21 76.81 3.00  17.40 2938.77
   01:41:12.667.31-Jan-2020 3902.01 6332.86 76.81 3.00  17.60 2938.77
   01:41:12.867.31-Jan-2020 3902.01 6391.54 76.81 3.00  17.80 2938.77
   01:41:13.067.31-Jan-2020 3902.01 6446.19 76.81 3.00  18.00 2938.77
   01:41:13.267.31-Jan-2020 3902.01 6446.19 76.81 3.00  18.20 2938.77
   01:41:13.467.31-Jan-2020 3902.01 6564.73 76.81 3.00  18.40 2938.77
   01:41:13.667.31-Jan-2020 3902.01 6615.66 76.81 3.00  18.60 2938.77
   01:41:13.867.31-Jan-2020 3902.01 6681.86 76.80 3.00  18.80 2938.77
   01:41:14.067.31-Jan-2020 3902.01 6674.67 76.80 3.00  19.00 2938.77
   01:41:14.267.31-Jan-2020 3902.01 6674.67 76.80 3.00  19.20 2938.77
   01:41:14.467.31-Jan-2020 3902.01 6505.78 76.80 3.00  19.40 2938.77
   01:41:14.667.31-Jan-2020 3902.01 6603.05 76.80 3.00  19.60 2938.77
   01:41:14.867.31-Jan-2020 3902.01 6617.48 76.80 3.00  19.80 2938.77
   01:41:15.067.31-Jan-2020 3902.01 6668.22 76.80 3.00  20.00 2938.77
   01:41:15.267.31-Jan-2020 3902.01 6668.22 76.80 3.00  20.20 2938.77
   01:41:15.467.31-Jan-2020 3902.01 6691.50 76.80 3.00  20.40 2938.77
   01:41:15.667.31-Jan-2020 3902.01 6743.72 76.80 3.00  20.60 2938.77
   01:41:15.867.31-Jan-2020 3902.01 6711.72 76.80 3.00  20.80 2938.77
   01:41:16.067.31-Jan-2020 3902.01 6644.56 76.80 3.00  21.00 2938.77
   01:41:16.267.31-Jan-2020 3902.01 6644.56 76.80 3.00  21.20 2938.77
   01:41:16.467.31-Jan-2020 3902.01 6484.15 76.79 3.00  21.40 2938.77
   01:41:16.667.31-Jan-2020 3902.01 6521.10 76.79 3.00  21.60 2938.77
   01:41:16.867.31-Jan-2020 3902.01 6561.34 76.79 3.00  21.80 2938.77
   01:41:17.067.31-Jan-2020 3902.01 6592.07 76.79 3.00  22.00 2938.77
   01:41:17.267.31-Jan-2020 3902.01 6592.07 76.79 3.00  22.20 2938.77
   01:41:17.467.31-Jan-2020 3902.01 6620.80 76.79 3.00  22.40 2938.77
   01:41:17.667.31-Jan-2020 3902.01 6630.54 76.79 3.00  22.60 2938.77
   01:41:17.868.31-Jan-2020 3902.01 6638.23 76.79 3.00  22.80 2938.77
