~Version Information
 VERS.                  2.0:   CWLS log ASCII Standard -VERSION 2.0
 WRAP.                   NO:   One line per depth step
~Well Information Block
#MNEM.UNIT     VALUE/NAME     DESCRIPTION
#---------     -----------    ---------------------------
 STRT.S             09:13:27 31-Jan-20: START TIME 09:13:27 31-Jan-20
 STOP.S             09:19:57 31-Jan-20: STOP TIME  09:19:57 31-Jan-20
 STEP.S                   0.00: STEP TIME
 NULL.                 -999.25: NULL VALUE
 DFWT.                        :  DIST FWL TEXT
 DFST.                        :  DIST FSL TEXT
 DMF .             Drill Floor:  DRILL MEAS FROM
 STIM.      09.30.00 26-Dec-19:  START TIME
 DATE.      08.00.00 20-Jan-20:  END TIME
 SPUD.               23-Nov-19:  SPUD DATE
 NREF.                    Grid:  NORTH REFERENCE
 HPTY.       Minimum Curvature:  HOLE POS TYPE
 DMOD.             Drill Model:  DRILL MOD DESC
 SVYD.                  Survey:  SURVEY DESC
 ILTD.               Lithology:  INTERP LTH DESC
 FTOP.          Formation Tops:  FORM TOPS DESC
 SON .        AZ-XX-0906192647:  JOB NUMBER
 WTYP.                Deviated:  WELL TYPE
 COMP.     BP Exploration (Caspian Sea) Ltd:  COMPANY
 BASE.              Azerbaijan:  LOGGING EQUIPMENT BASE LOCATION
 REGN.                 Eurasia:  REGION
 FLD .                     ACG:  FIELD NAME
 SRVC.              KCA Deutag:  CONTRACTOR
 MWDS.                    Baku:  MWD SHOP
 WELL.     A10 (Slot 20) - SCP:  WELL NAME
 JOBN.        AZ-XX-0906192647:  JOB TICKET NUMB
 RIG .                 Chirag1:  RIG NAME
 DCON.     Halliburton Sperry Drilling:  DIRECTNL CONTR
 UNIT.                     N/A:  LOGGING EQUIPMENT ID
 PDAT.          Mean Sea Level:  PERMANENT DATUM
 MDS .        Operator Entered:  MAG DATA SOURCE
 CTRY.              Azerbaijan:  COUNTRY NAME
 UWI .            /AZE00000090:  UNIQUE WELL IDENTIFIER
 API .            /AZE00000090:  API NUMBER
 CNTY.                        :  COUNTY
 PROV.                        :  PROVINCE
 STAT.                        :  STATE
 LOC .                        :  LOCATION
 LMF .             Drill Floor:  LOG MEASURED FROM
 TVDS.m                  36.60:  TVDSS CORRECTN
 LATI.deg                40.08:  LATITUDE
 LONG.deg                51.24:  LONGITUDE
 WHNS.m                  -7.94:  WELL HEAD N/S
 WHEW.m                   1.56:  WELL HEAD E/W
 UTMX.m              520429.26:  UTM X
 UTMY.m             4438973.87:  UTM Y
 DFWL.m                   0.00:  DISTANCE FWL
 DFSL.m                   0.00:  DISTANCE FSL
 SDEP.m                1455.00:  START DEPTH
 TDD .m                4047.51:  TOTAL DEPTH (DRILLER)
 VSDR.deg               112.75:  VERT SEC DIRECT
 GVFD.g                   1.00:  GRAVITY FIELD
 MFLD.nT              50261.00:  MAGNETIC FIELD
 MDIP.deg                59.52:  MAGNETIC DIP
 MDEC.deg                 6.42:  MAGNETIC DECL
 GRDC.deg                 0.17:  GRID CORRECTION
 AZTC.deg                 6.25:  AZM TOTAL CORR
 EPD .m                   0.00:  ELEVATION
 EGL .m                   0.00:  GROUND ELEVATION
 WDMS.m                 121.00:  WD ELEV
 APD .m                  36.60:  DEPTH ABOVE PD
 AGAP.m                  36.60:  AIR GAP
 VSEW.m                   1.56:  VERT SEC E/W
 VSNS.m                  -7.94:  VERT SEC N/S
 DEP .m                1140.01:  DEPTH
 EKB .m                  36.60:  KB ELEVATION
 EDF .m                  36.60:  DF ELEVATION
 TDL .m                 169.50:  TOTAL DEPTH (LOGGER)
 CSGD.m                3875.01:  CASING BOTTOM (DRILLER)
 CSGL.m                3875.01:  CASING BOTTOM (LOGGER)
 CSGS.in                  7.63:  CASING SIZE
 CSGW.lbpf               23.50:  CASING WEIGHT
 VSC .                       0:  VS TO CLOSURE
 MAGU.                 1849206:  MAGUTM CHECKSUM
~Parameter Information Block
#MNEM.UNIT       Value        Description
#---------     -----------    ---------------------------
 AV  .mps                 1.90:  Ann Velocity 
 AVMX.mps                 2.54:  Max Ann Veloc 
 AZIF.deg               137.03:  Azm, Final 
 BHAT.        Rotary Steerable:  BHA Type 
 BREV.rev             23610.00:  Rev Bit Total 
 BROT.°/30m               0.80:  Build Rotating 
 BS  .in                  6.50:  Bit Size 
 BTPL.psig              110.00:  Bit Press Loss 
 CABU.                     Yes:  Customer Abuse 
 COMM.                     ФЮѓ:  Run Comments 1 
 TCS .hr                 70.51:  Time Ciculation Ended 
 CV  .mps                 1.41:  Crit Velocity 
 CVMX.mps                 1.42:  Max Crit Veloc 
 DD1 .         Intigam Rahimov:  Direct Drillr 1 
 DD2 .          Rashad Gojayev:  Direct Drillr 2 
 DDSV.               Geo-Pilot:  DD Service 
 DEFF.%                 100.00:  % Det Eff 
 DLRX.°/30m               1.44:  Dogleg Rot Max 
 DLSO.°/30m               0.00:  Dogleg Oriented 
 DLSX.°/30m               0.00:  Dogleg Str Max 
 DRET.      03.05.00 01-Feb-20:  Drill End Time 
 DRST.      15.50.00 28-Jan-20:  Drill Start Tim 
 DTIM.hr                 24.70:  Time Drilling 
 EDEP.m                4047.51:  End Depth 
 ENG1.           Eldar Hajiyev:  Engineer 1 
 ENG2.          Rasim Hashimov:  Engineer 2 
 ENG3.          Rustam Safarov:  Engineer 3 
 ETIM.      22.00.00 01-Feb-20:  End Time 
 FLOI.gpm               370.00:  Flow In 
 FLON.gpm               300.00:  Flow In Min 
 FLOS.cptm                0.00:  Fluid Loss 
 FLOX.gpm               400.00:  Flow In Max 
 FTRO.       Formation Presure:  FTWD Run Obj 
 HFLO.                      No:  High Flow 
 HPRE.                      No:  High Pressure 
 HTEM.                      No:  High Temp 
 HYDO.m                   2.50:  Hydro Offset 
 IFIN.deg                39.54:  Inc, Final 
 IMAX.deg                41.14:  Inc Max 
 IMIN.deg                39.81:  Inc Min 
 IMND.m                4005.21:  Inc Min Depth 
 IMXD.m                3948.42:  Inc Max Depth 
 JARR.                      No:  Jarring 
 LETM.      03.05.00 01-Feb-20:  Log End Time 
 LOST.hr                     0:  Lost Rig Time 
 LSTM.      15.50.00 28-Jan-20:  Log Start Time 
 MDCL.ppm             37500.00:  Mud Chlorides 
 MDES.     Inversion Oil/Synthetic:  Mud Desc 
 DFD .sg                  1.32:  Mud Density 
 MDMN.sg                  1.32:  Dens Mud Min 
 MDMX.sg                  1.32:  Dens Mud Max 
 MOIL.                      55:  Run Mud Oil % 
 MOWR.                   70:30:  Run Mud OWR 
 MSND.                       0:  Run Mud Sand % 
 MSOL.                      17:  Run Mud Solids% 
 DFV .spqt               80.00:  Mud Viscosity 
 MWOD.in                  4.75:  MWD Tool OD 
 MWSI.                      No:  Serv Intrp, MWD 
 OTIM.hr                121.28:  Time Operating 
 PCON.           Look Like New:  Pad Condition 
 PMAX.psia             6171.00:  Press Op, Max 
 PV  .cP                 30.00:  Mud PV 
 RUN .                     300:  Run Number 
 ROPA.m/hr                5.45:  ROP Avg 
 ROPN.m/hr                3.00:  ROP Min 
 ROPX.m/hr               15.00:  ROP Max 
 RPMA.rpm               130.00:  RPM Surface Avg 
 RPMN.rpm                80.00:  RPM Surface Min 
 RPMX.rpm               140.00:  RPM Surface Max 
 RRUN.                     300:  Rig Run Number 
 RTIM.hr                 13.50:  Time Reaming 
 SAZI.deg               133.93:  Azm, Start 
 SDEP.m                3878.01:  Start Depth 
 SIDD.                      No:  Serv Intrp, DD 
 SINC.deg                40.28:  Inc, Start 
 SPPA.psig             4983.00:  SPP Avg 
 SPPN.psig             4370.00:  SPP Min 
 SPPX.psig             5300.00:  SPP Max 
 STIM.      18.33.36 27-Jan-20:  Start Time 
 SVCS.                 DD, MWD:  Services 
 SVER.                    9.20:  Sperry Version 
 TDAT.m                 169.50:  Tot Depth Attmp 
 TDDF.                      No:  Trip for DD 
 TDLG.m                 169.50:  Tot Depth Loggd 
 TFF .                      No:  Trip for Fail 
 TQAA.f-kp               13.25:  Torque Abs Avg 
 TQAN.f-kp               12.00:  Torque Abs Min 
 TQAX.f-kp               14.00:  Torque Abs Max 
 TRRT.°/30m               0.70:  Turn Rotating 
 MRT .                     ADR:  Maximum Recorded Temperature 
 TTMX.degC               92.16:  Max Tool Temp 
 VS01.       AZ90598764G12V7D4:  Virtual Str1 SN 
 VS02.         AZ90571342R12C4:  Virtual Str2 SN 
 VS03.      AZ90580010N2L2X1C4:  Virtual Str3 SN 
 VS04.        AZ90522266O7X1C4:  Virtual Str4 SN 
 VS05.           AZ90598768F11:  Virtual Str5 SN 
 VS06.     AZ90580006XZ1W1X1C4:  Virtual Str6 SN 
 WBMN.klb                 8.00:  WOB Min 
 WITN.            Peter Wilson:  Customer Rep 
 WOBA.klb                 9.88:  WOB Avg 
 WOBX.klb                10.00:  WOB Max 
 YP  .lhf2               27.00:  Yield Point 
~Curve Information Block
#MNEM.UNIT                 API CODE     Curve Description
#---------               -----------    ---------------------------
 TIME.HHMMSS            00 000 000 000:  GT Time & Date
 GTDEPTH.m              00 000 000 000:  GT Depth
 GTPQH.psia             00 000 000 000:  GT HR Quartz Pressure
 GTTQ.degC              00 000 000 000:  GT Quartz Temperature
 GTTN.NONE              00 000 000 000:  GT Test Number
 GTET.sec               00 000 000 000:  GT Elapsed Test Time
 GTTVD.m                00 000 000 000:  GT True Vertical Depth
#Other Information
#
#WARRANTY: Halliburton will use its best efforts to furnish customers with 
#accurate information and interpretations that are part of, and incident to, the services 
#provided.  However, Halliburton cannot and does not warrant the accuracy 
#or correctness of such information and interpretations.  Under no circumstances should any 
#such information or interpretation be relied upon as the sole basis for any drilling, 
#completion, production, or financial decision or any procedure involving any risk to the 
#safety of any drilling venture, drilling rig or its crew or any other third party.  The 
#Customer has full responsibility for all drilling, completion and production operation.  
#Halliburton makes no representations or warranties, either expressed or 
#implied, including, but not limited to, the implied warranties of merchantability or fitness 
#for a particular purpose, with respect to the services rendered.  In no event will 
#Halliburton be liable for failure to obtain any particular results or for 
#any damages, including, but not limited to, indirect, special or consequential damages, 
#resulting from the use of any information or interpretation provided by Halliburton.
#
~A           TIME           GTDEPTH  GTPQH  GTTQ  GTTN  GTET   GTTVD  
# ...
   09:16:08.932.31-Jan-2020 3923.01 2997.83 80.48 5.00 161.04 2954.62
   09:16:09.132.31-Jan-2020 3923.01 2997.83 80.48 5.00 161.24 2954.62
   09:16:09.332.31-Jan-2020 3923.01 2997.90 80.48 5.00 161.44 2954.62
   09:16:09.532.31-Jan-2020 3923.01 2997.87 80.48 5.00 161.64 2954.62
   09:16:09.732.31-Jan-2020 3923.01 2997.84 80.48 5.00 161.84 2954.62
   09:16:09.932.31-Jan-2020 3923.01 2997.85 80.48 5.00 162.04 2954.62
   09:16:10.132.31-Jan-2020 3923.01 2997.85 80.48 5.00 162.24 2954.62
   09:16:10.332.31-Jan-2020 3923.01 2997.93 80.48 5.00 162.44 2954.62
   09:16:10.532.31-Jan-2020 3923.01 2997.87 80.48 5.00 162.64 2954.62
   09:16:10.732.31-Jan-2020 3923.01 2997.86 80.48 5.00 162.84 2954.62
   09:16:10.932.31-Jan-2020 3923.01 2997.86 80.48 5.00 163.04 2954.62
   09:16:11.132.31-Jan-2020 3923.01 2997.86 80.48 5.00 163.24 2954.62
   09:16:11.332.31-Jan-2020 3923.01 2997.83 80.47 5.00 163.44 2954.62
   09:16:11.532.31-Jan-2020 3923.01 2997.70 80.47 5.00 163.64 2954.62
   09:16:11.732.31-Jan-2020 3923.01 2997.91 80.47 5.00 163.84 2954.62
   09:16:11.933.31-Jan-2020 3923.01 2997.88 80.47 5.00 164.04 2954.62
   09:16:12.133.31-Jan-2020 3923.01 2997.88 80.47 5.00 164.24 2954.62
   09:16:12.333.31-Jan-2020 3923.01 2997.84 80.47 5.00 164.44 2954.62
   09:16:12.533.31-Jan-2020 3923.01 2997.84 80.47 5.00 164.64 2954.62
   09:16:12.733.31-Jan-2020 3923.01 2997.74 80.47 5.00 164.84 2954.62
   09:16:12.933.31-Jan-2020 3923.01 2997.92 80.47 5.00 165.04 2954.62
   09:16:13.133.31-Jan-2020 3923.01 2997.92 80.47 5.00 165.24 2954.62
   09:16:13.333.31-Jan-2020 3923.01 2997.85 80.47 5.00 165.44 2954.62
   09:16:13.533.31-Jan-2020 3923.01 2997.85 80.47 5.00 165.64 2954.62
   09:16:13.733.31-Jan-2020 3923.01 2997.84 80.47 5.00 165.84 2954.62
   09:16:13.933.31-Jan-2020 3923.01 2997.77 80.47 5.00 166.04 2954.62
   09:16:14.133.31-Jan-2020 3923.01 2997.77 80.47 5.00 166.24 2954.62
   09:16:14.333.31-Jan-2020 3923.01 2997.87 80.47 5.00 166.44 2954.62
   09:16:14.533.31-Jan-2020 3923.01 2997.87 80.47 5.00 166.64 2954.62
   09:16:14.733.31-Jan-2020 3923.01 2997.85 80.46 5.00 166.84 2954.62
   09:16:14.933.31-Jan-2020 3923.01 2997.85 80.46 5.00 167.04 2954.62
   09:16:15.133.31-Jan-2020 3923.01 2997.85 80.46 5.00 167.24 2954.62
   09:16:15.333.31-Jan-2020 3923.01 2997.81 80.46 5.00 167.44 2954.62
   09:16:15.533.31-Jan-2020 3923.01 2997.84 80.46 5.00 167.64 2954.62
   09:16:15.733.31-Jan-2020 3923.01 2997.84 80.46 5.00 167.84 2954.62
   09:16:15.933.31-Jan-2020 3923.01 2997.82 80.46 5.00 168.04 2954.62
   09:16:16.133.31-Jan-2020 3923.01 2997.82 80.46 5.00 168.24 2954.62
   09:16:16.334.31-Jan-2020 3923.01 2997.81 80.46 5.00 168.44 2954.62
   09:16:16.534.31-Jan-2020 3923.01 2997.81 80.46 5.00 168.64 2954.62
   09:16:16.734.31-Jan-2020 3923.01 2997.81 80.46 5.00 168.84 2954.62
   09:16:16.934.31-Jan-2020 3923.01 2997.83 80.46 5.00 169.04 2954.62
   09:16:17.134.31-Jan-2020 3923.01 2997.83 80.46 5.00 169.24 2954.62
   09:16:17.334.31-Jan-2020 3923.01 2997.80 80.46 5.00 169.44 2954.62
   09:16:17.534.31-Jan-2020 3923.01 2997.80 80.46 5.00 169.64 2954.62
   09:16:17.734.31-Jan-2020 3923.01 2997.69 80.46 5.00 169.84 2954.62
   09:16:17.934.31-Jan-2020 3923.01 2997.89 80.46 5.00 170.04 2954.62
   09:16:18.134.31-Jan-2020 3923.01 2997.89 80.46 5.00 170.24 2954.62
   09:16:18.334.31-Jan-2020 3923.01 2997.85 80.46 5.00 170.44 2954.62
   09:16:18.534.31-Jan-2020 3923.01 2997.83 80.45 5.00 170.64 2954.62
   09:16:18.734.31-Jan-2020 3923.01 2997.81 80.45 5.00 170.84 2954.62
   09:16:18.934.31-Jan-2020 3923.01 2997.82 80.45 5.00 171.04 2954.62
   09:16:19.134.31-Jan-2020 3923.01 2997.82 80.45 5.00 171.24 2954.62
   09:16:19.334.31-Jan-2020 3923.01 2997.80 80.45 5.00 171.44 2954.62
   09:16:19.534.31-Jan-2020 3923.01 2997.82 80.45 5.00 171.64 2954.62
   09:16:19.734.31-Jan-2020 3923.01 2997.80 80.45 5.00 171.84 2954.62
   09:16:19.934.31-Jan-2020 3923.01 2997.79 80.45 5.00 172.04 2954.62
   09:16:20.134.31-Jan-2020 3923.01 2997.79 80.45 5.00 172.24 2954.62
   09:16:20.334.31-Jan-2020 3923.01 2997.77 80.45 5.00 172.44 2954.62
   09:16:20.535.31-Jan-2020 3923.01 2997.79 80.45 5.00 172.64 2954.62
   09:16:20.735.31-Jan-2020 3923.01 2997.81 80.45 5.00 172.84 2954.62
   09:16:20.935.31-Jan-2020 3923.01 2997.72 80.45 5.00 173.04 2954.62
   09:16:21.135.31-Jan-2020 3923.01 2997.72 80.45 5.00 173.24 2954.62
   09:16:21.335.31-Jan-2020 3923.01 2997.82 80.45 5.00 173.44 2954.62
   09:16:21.535.31-Jan-2020 3923.01 2997.83 80.45 5.00 173.64 2954.62
   09:16:21.735.31-Jan-2020 3923.01 2997.82 80.45 5.00 173.84 2954.62
   09:16:21.935.31-Jan-2020 3923.01 2997.74 80.44 5.00 174.04 2954.62
   09:16:22.135.31-Jan-2020 3923.01 2997.74 80.44 5.00 174.24 2954.62
   09:16:22.335.31-Jan-2020 3923.01 2997.85 80.44 5.00 174.44 2954.62
   09:16:22.535.31-Jan-2020 3923.01 2997.85 80.44 5.00 174.64 2954.62
   09:16:22.735.31-Jan-2020 3923.01 2997.84 80.44 5.00 174.84 2954.62
   09:16:22.935.31-Jan-2020 3923.01 2997.82 80.44 5.00 175.04 2954.62
   09:16:23.135.31-Jan-2020 3923.01 2997.82 80.44 5.00 175.24 2954.62
   09:16:23.335.31-Jan-2020 3923.01 2997.74 80.44 5.00 175.44 2954.62
   09:16:23.535.31-Jan-2020 3923.01 2997.86 80.44 5.00 175.64 2954.62
   09:16:23.735.31-Jan-2020 3923.01 2997.86 80.44 5.00 175.84 2954.62
   09:16:23.935.31-Jan-2020 3923.01 2997.85 80.44 5.00 176.04 2954.62
   09:16:24.135.31-Jan-2020 3923.01 2997.85 80.44 5.00 176.24 2954.62
   09:16:24.335.31-Jan-2020 3923.01 2997.83 80.44 5.00 176.44 2954.62
   09:16:24.535.31-Jan-2020 3923.01 2997.71 80.44 5.00 176.64 2954.62
   09:16:24.736.31-Jan-2020 3923.01 2997.90 80.44 5.00 176.84 2954.62
   09:16:24.936.31-Jan-2020 3923.01 2997.85 80.44 5.00 177.04 2954.62
   09:16:25.136.31-Jan-2020 3923.01 2997.85 80.44 5.00 177.24 2954.62
   09:16:25.336.31-Jan-2020 3923.01 2997.82 80.44 5.00 177.44 2954.62
   09:16:25.536.31-Jan-2020 3923.01 2997.83 80.44 5.00 177.64 2954.62
   09:16:25.736.31-Jan-2020 3923.01 2997.82 80.43 5.00 177.84 2954.62
   09:16:25.936.31-Jan-2020 3923.01 2997.75 80.43 5.00 178.04 2954.62
   09:16:26.136.31-Jan-2020 3923.01 2997.75 80.43 5.00 178.24 2954.62
   09:16:26.336.31-Jan-2020 3923.01 2997.86 80.43 5.00 178.44 2954.62
   09:16:26.536.31-Jan-2020 3923.01 2997.83 80.43 5.00 178.64 2954.62
   09:16:26.736.31-Jan-2020 3923.01 2997.82 80.43 5.00 178.84 2954.62
   09:16:26.936.31-Jan-2020 3923.01 2997.80 80.43 5.00 179.04 2954.62
   09:16:27.136.31-Jan-2020 3923.01 2997.80 80.43 5.00 179.24 2954.62
   09:16:27.336.31-Jan-2020 3923.01 2997.80 80.43 5.00 179.44 2954.62
   09:16:27.536.31-Jan-2020 3923.01 2997.82 80.43 5.00 179.64 2954.62
   09:16:27.736.31-Jan-2020 3923.01 2997.80 80.43 5.00 179.84 2954.62
   09:16:27.936.31-Jan-2020 3923.01 2997.77 80.43 5.00 180.04 2954.62
   09:16:28.136.31-Jan-2020 3923.01 2997.77 80.43 5.00 180.24 2954.62
   09:16:28.336.31-Jan-2020 3923.01 2997.78 80.43 5.00 180.44 2954.62
   09:16:28.536.31-Jan-2020 3923.01 2997.77 80.43 5.00 180.64 2954.62
   09:16:28.736.31-Jan-2020 3923.01 2997.79 80.43 5.00 180.84 2954.62
   09:16:28.936.31-Jan-2020 3923.01 2997.78 80.43 5.00 181.04 2954.62
   09:16:29.137.31-Jan-2020 3923.01 2997.78 80.43 5.00 181.24 2954.62
   09:16:29.337.31-Jan-2020 3923.01 2997.78 80.42 5.00 181.44 2954.62
   09:16:29.537.31-Jan-2020 3923.01 2997.70 80.42 5.00 181.64 2954.62
   09:16:29.737.31-Jan-2020 3923.01 2997.80 80.42 5.00 181.84 2954.62
   09:16:29.937.31-Jan-2020 3923.01 2997.82 80.42 5.00 182.04 2954.62
   09:16:30.137.31-Jan-2020 3923.01 2997.82 80.42 5.00 182.24 2954.62
   09:16:30.337.31-Jan-2020 3923.01 2997.81 80.42 5.00 182.44 2954.62
   09:16:30.537.31-Jan-2020 3923.01 2997.79 80.42 5.00 182.64 2954.62
   09:16:30.737.31-Jan-2020 3923.01 2997.79 80.42 5.00 182.84 2954.62
   09:16:30.937.31-Jan-2020 3923.01 2997.78 80.42 5.00 183.04 2954.62
   09:16:31.137.31-Jan-2020 3923.01 2997.78 80.42 5.00 183.24 2954.62
   09:16:31.337.31-Jan-2020 3923.01 2997.78 80.42 5.00 183.44 2954.62
   09:16:31.537.31-Jan-2020 3923.01 2997.78 80.42 5.00 183.64 2954.62
   09:16:31.737.31-Jan-2020 3923.01 2997.77 80.42 5.00 183.84 2954.62
