~Version Information
 VERS.                  2.0:   CWLS log ASCII Standard -VERSION 2.0
 WRAP.                   NO:   One line per depth step
~Well Information Block
#MNEM.UNIT     VALUE/NAME     DESCRIPTION
#---------     -----------    ---------------------------
 STRT.S             21:06:33 30-Jan-20: START TIME 21:06:33 30-Jan-20
 STOP.S             21:13:02 30-Jan-20: STOP TIME  21:13:02 30-Jan-20
 STEP.S                   0.00: STEP TIME
 NULL.                 -999.25: NULL VALUE
 DFWT.                        :  DIST FWL TEXT
 DFST.                        :  DIST FSL TEXT
 DMF .             Drill Floor:  DRILL MEAS FROM
 STIM.      09.30.00 26-Dec-19:  START TIME
 DATE.      08.00.00 20-Jan-20:  END TIME
 SPUD.               23-Nov-19:  SPUD DATE
 NREF.                    Grid:  NORTH REFERENCE
 HPTY.       Minimum Curvature:  HOLE POS TYPE
 DMOD.             Drill Model:  DRILL MOD DESC
 SVYD.                  Survey:  SURVEY DESC
 ILTD.               Lithology:  INTERP LTH DESC
 FTOP.          Formation Tops:  FORM TOPS DESC
 SON .        AZ-XX-0906192647:  JOB NUMBER
 WTYP.                Deviated:  WELL TYPE
 COMP.     BP Exploration (Caspian Sea) Ltd:  COMPANY
 BASE.              Azerbaijan:  LOGGING EQUIPMENT BASE LOCATION
 REGN.                 Eurasia:  REGION
 FLD .                     ACG:  FIELD NAME
 SRVC.              KCA Deutag:  CONTRACTOR
 MWDS.                    Baku:  MWD SHOP
 WELL.     A10 (Slot 20) - SCP:  WELL NAME
 JOBN.        AZ-XX-0906192647:  JOB TICKET NUMB
 RIG .                 Chirag1:  RIG NAME
 DCON.     Halliburton Sperry Drilling:  DIRECTNL CONTR
 UNIT.                     N/A:  LOGGING EQUIPMENT ID
 PDAT.          Mean Sea Level:  PERMANENT DATUM
 MDS .        Operator Entered:  MAG DATA SOURCE
 CTRY.              Azerbaijan:  COUNTRY NAME
 UWI .            /AZE00000090:  UNIQUE WELL IDENTIFIER
 API .            /AZE00000090:  API NUMBER
 CNTY.                        :  COUNTY
 PROV.                        :  PROVINCE
 STAT.                        :  STATE
 LOC .                        :  LOCATION
 LMF .             Drill Floor:  LOG MEASURED FROM
 TVDS.m                  36.60:  TVDSS CORRECTN
 LATI.deg                40.08:  LATITUDE
 LONG.deg                51.24:  LONGITUDE
 WHNS.m                  -7.94:  WELL HEAD N/S
 WHEW.m                   1.56:  WELL HEAD E/W
 UTMX.m              520429.26:  UTM X
 UTMY.m             4438973.87:  UTM Y
 DFWL.m                   0.00:  DISTANCE FWL
 DFSL.m                   0.00:  DISTANCE FSL
 SDEP.m                1455.00:  START DEPTH
 TDD .m                4047.51:  TOTAL DEPTH (DRILLER)
 VSDR.deg               112.75:  VERT SEC DIRECT
 GVFD.g                   1.00:  GRAVITY FIELD
 MFLD.nT              50261.00:  MAGNETIC FIELD
 MDIP.deg                59.52:  MAGNETIC DIP
 MDEC.deg                 6.42:  MAGNETIC DECL
 GRDC.deg                 0.17:  GRID CORRECTION
 AZTC.deg                 6.25:  AZM TOTAL CORR
 EPD .m                   0.00:  ELEVATION
 EGL .m                   0.00:  GROUND ELEVATION
 WDMS.m                 121.00:  WD ELEV
 APD .m                  36.60:  DEPTH ABOVE PD
 AGAP.m                  36.60:  AIR GAP
 VSEW.m                   1.56:  VERT SEC E/W
 VSNS.m                  -7.94:  VERT SEC N/S
 DEP .m                1140.01:  DEPTH
 EKB .m                  36.60:  KB ELEVATION
 EDF .m                  36.60:  DF ELEVATION
 TDL .m                 169.50:  TOTAL DEPTH (LOGGER)
 CSGD.m                3875.01:  CASING BOTTOM (DRILLER)
 CSGL.m                3875.01:  CASING BOTTOM (LOGGER)
 CSGS.in                  7.63:  CASING SIZE
 CSGW.lbpf               23.50:  CASING WEIGHT
 VSC .                       0:  VS TO CLOSURE
 MAGU.                 1849206:  MAGUTM CHECKSUM
~Parameter Information Block
#MNEM.UNIT       Value        Description
#---------     -----------    ---------------------------
 AV  .mps                 1.90:  Ann Velocity 
 AVMX.mps                 2.54:  Max Ann Veloc 
 AZIF.deg               137.03:  Azm, Final 
 BHAT.        Rotary Steerable:  BHA Type 
 BREV.rev             23610.00:  Rev Bit Total 
 BROT.°/30m               0.80:  Build Rotating 
 BS  .in                  6.50:  Bit Size 
 BTPL.psig              110.00:  Bit Press Loss 
 CABU.                     Yes:  Customer Abuse 
 TCS .hr                 70.51:  Time Ciculation Ended 
 CV  .mps                 1.41:  Crit Velocity 
 CVMX.mps                 1.42:  Max Crit Veloc 
 DD1 .         Intigam Rahimov:  Direct Drillr 1 
 DD2 .          Rashad Gojayev:  Direct Drillr 2 
 DDSV.               Geo-Pilot:  DD Service 
 DEFF.%                 100.00:  % Det Eff 
 DLRX.°/30m               1.44:  Dogleg Rot Max 
 DLSO.°/30m               0.00:  Dogleg Oriented 
 DLSX.°/30m               0.00:  Dogleg Str Max 
 DRET.      03.05.00 01-Feb-20:  Drill End Time 
 DRST.      15.50.00 28-Jan-20:  Drill Start Tim 
 DTIM.hr                 24.70:  Time Drilling 
 EDEP.m                4047.51:  End Depth 
 ENG1.           Eldar Hajiyev:  Engineer 1 
 ENG2.          Rasim Hashimov:  Engineer 2 
 ENG3.          Rustam Safarov:  Engineer 3 
 ETIM.      22.00.00 01-Feb-20:  End Time 
 FLOI.gpm               370.00:  Flow In 
 FLON.gpm               300.00:  Flow In Min 
 FLOS.cptm                0.00:  Fluid Loss 
 FLOX.gpm               400.00:  Flow In Max 
 FTRO.       Formation Presure:  FTWD Run Obj 
 HFLO.                      No:  High Flow 
 HPRE.                      No:  High Pressure 
 HTEM.                      No:  High Temp 
 HYDO.m                   2.50:  Hydro Offset 
 IFIN.deg                39.54:  Inc, Final 
 IMAX.deg                41.14:  Inc Max 
 IMIN.deg                39.81:  Inc Min 
 IMND.m                4005.21:  Inc Min Depth 
 IMXD.m                3948.42:  Inc Max Depth 
 JARR.                      No:  Jarring 
 LETM.      03.05.00 01-Feb-20:  Log End Time 
 LOST.hr                     0:  Lost Rig Time 
 LSTM.      15.50.00 28-Jan-20:  Log Start Time 
 MDCL.ppm             37500.00:  Mud Chlorides 
 MDES.     Inversion Oil/Synthetic:  Mud Desc 
 DFD .sg                  1.32:  Mud Density 
 MDMN.sg                  1.32:  Dens Mud Min 
 MDMX.sg                  1.32:  Dens Mud Max 
 MOIL.                      55:  Run Mud Oil % 
 MOWR.                   70:30:  Run Mud OWR 
 MSND.                       0:  Run Mud Sand % 
 MSOL.                      17:  Run Mud Solids% 
 DFV .spqt               80.00:  Mud Viscosity 
 MWOD.in                  4.75:  MWD Tool OD 
 MWSI.                      No:  Serv Intrp, MWD 
 OTIM.hr                121.28:  Time Operating 
 PCON.           Look Like New:  Pad Condition 
 PMAX.psia             6171.00:  Press Op, Max 
 PV  .cP                 30.00:  Mud PV 
 RUN .                     300:  Run Number 
 ROPA.m/hr                5.45:  ROP Avg 
 ROPN.m/hr                3.00:  ROP Min 
 ROPX.m/hr               15.00:  ROP Max 
 RPMA.rpm               130.00:  RPM Surface Avg 
 RPMN.rpm                80.00:  RPM Surface Min 
 RPMX.rpm               140.00:  RPM Surface Max 
 RRUN.                     300:  Rig Run Number 
 RTIM.hr                 13.50:  Time Reaming 
 SAZI.deg               133.93:  Azm, Start 
 SDEP.m                3878.01:  Start Depth 
 SIDD.                      No:  Serv Intrp, DD 
 SINC.deg                40.28:  Inc, Start 
 SPPA.psig             4983.00:  SPP Avg 
 SPPN.psig             4370.00:  SPP Min 
 SPPX.psig             5300.00:  SPP Max 
 STIM.      18.33.36 27-Jan-20:  Start Time 
 SVCS.                 DD, MWD:  Services 
 SVER.                    9.20:  Sperry Version 
 TDAT.m                 169.50:  Tot Depth Attmp 
 TDDF.                      No:  Trip for DD 
 TDLG.m                 169.50:  Tot Depth Loggd 
 TFF .                      No:  Trip for Fail 
 TQAA.f-kp               13.25:  Torque Abs Avg 
 TQAN.f-kp               12.00:  Torque Abs Min 
 TQAX.f-kp               14.00:  Torque Abs Max 
 TRRT.°/30m               0.70:  Turn Rotating 
 MRT .                     ADR:  Maximum Recorded Temperature 
 TTMX.degC               92.16:  Max Tool Temp 
 VS01.       AZ90598764G12V7D4:  Virtual Str1 SN 
 VS02.         AZ90571342R12C4:  Virtual Str2 SN 
 VS03.      AZ90580010N2L2X1C4:  Virtual Str3 SN 
 VS04.        AZ90522266O7X1C4:  Virtual Str4 SN 
 VS05.           AZ90598768F11:  Virtual Str5 SN 
 VS06.     AZ90580006XZ1W1X1C4:  Virtual Str6 SN 
 WBMN.klb                 8.00:  WOB Min 
 WITN.            Peter Wilson:  Customer Rep 
 WOBA.klb                 9.88:  WOB Avg 
 WOBX.klb                10.00:  WOB Max 
 YP  .lhf2               27.00:  Yield Point 
~Curve Information Block
#MNEM.UNIT                 API CODE     Curve Description
#---------               -----------    ---------------------------
 TIME.HHMMSS            00 000 000 000:  GT Time & Date
 GTDEPTH.m              00 000 000 000:  GT Depth
 GTPQH.psia             00 000 000 000:  GT HR Quartz Pressure
 GTTQ.degC              00 000 000 000:  GT Quartz Temperature
 GTTN.NONE              00 000 000 000:  GT Test Number
 GTET.sec               00 000 000 000:  GT Elapsed Test Time
 GTTVD.m                00 000 000 000:  GT True Vertical Depth
#Other Information
#
#WARRANTY: Halliburton will use its best efforts to furnish customers with 
#accurate information and interpretations that are part of, and incident to, the services 
#provided.  However, Halliburton cannot and does not warrant the accuracy 
#or correctness of such information and interpretations.  Under no circumstances should any 
#such information or interpretation be relied upon as the sole basis for any drilling, 
#completion, production, or financial decision or any procedure involving any risk to the 
#safety of any drilling venture, drilling rig or its crew or any other third party.  The 
#Customer has full responsibility for all drilling, completion and production operation.  
#Halliburton makes no representations or warranties, either expressed or 
#implied, including, but not limited to, the implied warranties of merchantability or fitness 
#for a particular purpose, with respect to the services rendered.  In no event will 
#Halliburton be liable for failure to obtain any particular results or for 
#any damages, including, but not limited to, indirect, special or consequential damages, 
#resulting from the use of any information or interpretation provided by Halliburton.
#
~A           TIME           GTDEPTH  GTPQH  GTTQ  GTTN  GTET   GTTVD  
# ...
   21:07:42.018.30-Jan-2020 3895.01 2981.96 73.03 2.00  69.01 2933.47
   21:07:42.218.30-Jan-2020 3895.01 2981.96 73.03 2.00  69.21 2933.47
   21:07:42.418.30-Jan-2020 3895.01 2981.97 73.03 2.00  69.41 2933.47
   21:07:42.618.30-Jan-2020 3895.01 2981.64 73.03 2.00  69.61 2933.47
   21:07:42.818.30-Jan-2020 3895.01 2981.58 73.03 2.00  69.81 2933.47
   21:07:43.018.30-Jan-2020 3895.01 2981.98 73.03 2.00  70.01 2933.47
   21:07:43.218.30-Jan-2020 3895.01 2981.98 73.03 2.00  70.21 2933.47
   21:07:43.418.30-Jan-2020 3895.01 2982.03 73.03 2.00  70.41 2933.47
   21:07:43.618.30-Jan-2020 3895.01 2981.27 73.02 2.00  70.61 2933.47
   21:07:43.818.30-Jan-2020 3895.01 2981.98 73.02 2.00  70.81 2933.47
   21:07:44.018.30-Jan-2020 3895.01 2981.94 73.02 2.00  71.01 2933.47
   21:07:44.218.30-Jan-2020 3895.01 2981.94 73.02 2.00  71.21 2933.47
   21:07:44.418.30-Jan-2020 3895.01 2981.91 73.02 2.00  71.41 2933.47
   21:07:44.618.30-Jan-2020 3895.01 2982.04 73.02 2.00  71.61 2933.47
   21:07:44.818.30-Jan-2020 3895.01 2981.99 73.02 2.00  71.81 2933.47
   21:07:45.018.30-Jan-2020 3895.01 2981.83 73.02 2.00  72.01 2933.47
   21:07:45.218.30-Jan-2020 3895.01 2981.83 73.02 2.00  72.21 2933.47
   21:07:45.418.30-Jan-2020 3895.01 2981.85 73.02 2.00  72.41 2933.47
   21:07:45.618.30-Jan-2020 3895.01 2981.97 73.02 2.00  72.61 2933.47
   21:07:45.818.30-Jan-2020 3895.01 2981.91 73.02 2.00  72.81 2933.47
   21:07:46.018.30-Jan-2020 3895.01 2981.81 73.02 2.00  73.01 2933.47
   21:07:46.218.30-Jan-2020 3895.01 2981.81 73.02 2.00  73.21 2933.47
   21:07:46.418.30-Jan-2020 3895.01 2981.93 73.02 2.00  73.41 2933.47
   21:07:46.618.30-Jan-2020 3895.01 2981.94 73.01 2.00  73.61 2933.47
   21:07:46.818.30-Jan-2020 3895.01 2981.85 73.01 2.00  73.81 2933.47
   21:07:47.019.30-Jan-2020 3895.01 2981.85 73.01 2.00  74.01 2933.47
   21:07:47.219.30-Jan-2020 3895.01 2981.85 73.01 2.00  74.21 2933.47
   21:07:47.419.30-Jan-2020 3895.01 2981.36 73.01 2.00  74.41 2933.47
   21:07:47.619.30-Jan-2020 3895.01 2982.01 73.01 2.00  74.61 2933.47
   21:07:47.819.30-Jan-2020 3895.01 2981.92 73.01 2.00  74.81 2933.47
   21:07:48.019.30-Jan-2020 3895.01 2981.97 73.01 2.00  75.01 2933.47
   21:07:48.219.30-Jan-2020 3895.01 2981.97 73.01 2.00  75.21 2933.47
   21:07:48.419.30-Jan-2020 3895.01 2981.95 73.01 2.00  75.41 2933.47
   21:07:48.619.30-Jan-2020 3895.01 2981.98 73.01 2.00  75.61 2933.47
   21:07:48.819.30-Jan-2020 3895.01 2981.90 73.01 2.00  75.81 2933.47
   21:07:49.019.30-Jan-2020 3895.01 2981.90 73.01 2.00  76.01 2933.47
   21:07:49.219.30-Jan-2020 3895.01 2981.90 73.01 2.00  76.21 2933.47
   21:07:49.419.30-Jan-2020 3895.01 2981.84 73.00 2.00  76.41 2933.47
   21:07:49.619.30-Jan-2020 3895.01 2981.93 73.00 2.00  76.61 2933.47
   21:07:49.819.30-Jan-2020 3895.01 2981.90 73.00 2.00  76.81 2933.47
   21:07:50.019.30-Jan-2020 3895.01 2981.89 73.00 2.00  77.01 2933.47
   21:07:50.219.30-Jan-2020 3895.01 2981.89 73.00 2.00  77.21 2933.47
   21:07:50.419.30-Jan-2020 3895.01 2982.01 73.00 2.00  77.41 2933.47
   21:07:50.619.30-Jan-2020 3895.01 2981.34 73.00 2.00  77.61 2933.47
   21:07:50.819.30-Jan-2020 3895.01 2982.00 73.00 2.00  77.81 2933.47
   21:07:51.019.30-Jan-2020 3895.01 2981.93 73.00 2.00  78.01 2933.47
   21:07:51.219.30-Jan-2020 3895.01 2981.93 73.00 2.00  78.21 2933.47
   21:07:51.419.30-Jan-2020 3895.01 2981.94 73.00 2.00  78.41 2933.47
   21:07:51.619.30-Jan-2020 3895.01 2981.31 73.00 2.00  78.61 2933.47
   21:07:51.819.30-Jan-2020 3895.01 2982.10 73.00 2.00  78.81 2933.47
   21:07:52.019.30-Jan-2020 3895.01 2981.96 73.00 2.00  79.01 2933.47
   21:07:52.220.30-Jan-2020 3895.01 2981.96 73.00 2.00  79.21 2933.47
   21:07:52.420.30-Jan-2020 3895.01 2981.91 72.99 2.00  79.41 2933.47
   21:07:52.620.30-Jan-2020 3895.01 2981.86 72.99 2.00  79.61 2933.47
   21:07:52.820.30-Jan-2020 3895.01 2981.94 72.99 2.00  79.82 2933.47
   21:07:53.020.30-Jan-2020 3895.01 2981.25 72.99 2.00  80.02 2933.47
   21:07:53.220.30-Jan-2020 3895.01 2981.25 72.99 2.00  80.22 2933.47
   21:07:53.420.30-Jan-2020 3895.01 2982.04 72.99 2.00  80.42 2933.47
   21:07:53.620.30-Jan-2020 3895.01 2982.05 72.99 2.00  80.62 2933.47
   21:07:53.820.30-Jan-2020 3895.01 2981.94 72.99 2.00  80.82 2933.47
   21:07:54.020.30-Jan-2020 3895.01 2981.29 72.99 2.00  81.02 2933.47
   21:07:54.220.30-Jan-2020 3895.01 2981.29 72.99 2.00  81.22 2933.47
   21:07:54.420.30-Jan-2020 3895.01 2982.03 72.99 2.00  81.42 2933.47
   21:07:54.620.30-Jan-2020 3895.01 2982.04 72.99 2.00  81.62 2933.47
   21:07:54.820.30-Jan-2020 3895.01 2981.33 72.99 2.00  81.82 2933.47
   21:07:55.020.30-Jan-2020 3895.01 2981.95 72.99 2.00  82.02 2933.47
   21:07:55.220.30-Jan-2020 3895.01 2981.95 72.99 2.00  82.22 2933.47
   21:07:55.420.30-Jan-2020 3895.01 2981.98 72.98 2.00  82.42 2933.47
   21:07:55.620.30-Jan-2020 3895.01 2981.95 72.98 2.00  82.62 2933.47
   21:07:55.820.30-Jan-2020 3895.01 2981.97 72.98 2.00  82.82 2933.47
   21:07:56.020.30-Jan-2020 3895.01 2982.00 72.98 2.00  83.02 2933.47
   21:07:56.220.30-Jan-2020 3895.01 2982.00 72.98 2.00  83.22 2933.47
   21:07:56.420.30-Jan-2020 3895.01 2981.78 72.98 2.00  83.42 2933.47
   21:07:56.620.30-Jan-2020 3895.01 2981.83 72.98 2.00  83.62 2933.47
   21:07:56.820.30-Jan-2020 3895.01 2981.91 72.98 2.00  83.82 2933.47
   21:07:57.020.30-Jan-2020 3895.01 2981.89 72.98 2.00  84.02 2933.47
   21:07:57.220.30-Jan-2020 3895.01 2981.89 72.98 2.00  84.22 2933.47
   21:07:57.420.30-Jan-2020 3895.01 2981.78 72.98 2.00  84.42 2933.47
   21:07:57.621.30-Jan-2020 3895.01 2981.89 72.98 2.00  84.62 2933.47
   21:07:57.821.30-Jan-2020 3895.01 2981.93 72.98 2.00  84.82 2933.47
   21:07:58.021.30-Jan-2020 3895.01 2981.82 72.97 2.00  85.02 2933.47
   21:07:58.221.30-Jan-2020 3895.01 2981.82 72.97 2.00  85.22 2933.47
   21:07:58.421.30-Jan-2020 3895.01 2981.89 72.97 2.00  85.42 2933.47
   21:07:58.621.30-Jan-2020 3895.01 2981.29 72.97 2.00  85.62 2933.47
   21:07:58.821.30-Jan-2020 3895.01 2982.01 72.97 2.00  85.82 2933.47
   21:07:59.021.30-Jan-2020 3895.01 2981.90 72.97 2.00  86.02 2933.47
   21:07:59.221.30-Jan-2020 3895.01 2981.90 72.97 2.00  86.22 2933.47
   21:07:59.421.30-Jan-2020 3895.01 2981.88 72.97 2.00  86.42 2933.47
   21:07:59.621.30-Jan-2020 3895.01 2981.89 72.97 2.00  86.62 2933.47
   21:07:59.821.30-Jan-2020 3895.01 2981.96 72.97 2.00  86.82 2933.47
   21:08:00.021.30-Jan-2020 3895.01 2981.88 72.97 2.00  87.02 2933.47
   21:08:00.221.30-Jan-2020 3895.01 2981.88 72.97 2.00  87.22 2933.47
   21:08:00.421.30-Jan-2020 3895.01 2981.84 72.97 2.00  87.42 2933.47
   21:08:00.621.30-Jan-2020 3895.01 2981.80 72.97 2.00  87.62 2933.47
   21:08:00.821.30-Jan-2020 3895.01 2981.86 72.97 2.00  87.82 2933.47
   21:08:01.021.30-Jan-2020 3895.01 2981.87 72.96 2.00  88.02 2933.47
   21:08:01.221.30-Jan-2020 3895.01 2981.87 72.96 2.00  88.22 2933.47
   21:08:01.421.30-Jan-2020 3895.01 2981.93 72.96 2.00  88.42 2933.47
   21:08:01.621.30-Jan-2020 3895.01 2981.96 72.96 2.00  88.62 2933.47
   21:08:01.821.30-Jan-2020 3895.01 2981.35 72.96 2.00  88.82 2933.47
   21:08:02.021.30-Jan-2020 3895.01 2981.91 72.96 2.00  89.02 2933.47
   21:08:02.221.30-Jan-2020 3895.01 2981.91 72.96 2.00  89.22 2933.47
   21:08:02.421.30-Jan-2020 3895.01 2981.87 72.96 2.00  89.42 2933.47
   21:08:02.621.30-Jan-2020 3895.01 2981.85 72.96 2.00  89.62 2933.47
   21:08:02.822.30-Jan-2020 3895.01 2981.29 72.96 2.00  89.82 2933.47
   21:08:03.022.30-Jan-2020 3895.01 2981.99 72.96 2.00  90.02 2933.47
   21:08:03.222.30-Jan-2020 3895.01 2981.99 72.96 2.00  90.22 2933.47
   21:08:03.422.30-Jan-2020 3895.01 2981.91 72.96 2.00  90.42 2933.47
   21:08:03.622.30-Jan-2020 3895.01 2981.91 72.96 2.00  90.62 2933.47
   21:08:03.822.30-Jan-2020 3895.01 2981.81 72.96 2.00  90.82 2933.47
   21:08:04.022.30-Jan-2020 3895.01 2981.83 72.95 2.00  91.02 2933.47
   21:08:04.222.30-Jan-2020 3895.01 2981.83 72.95 2.00  91.22 2933.47
   21:08:04.422.30-Jan-2020 3895.01 2981.82 72.95 2.00  91.42 2933.47
   21:08:04.622.30-Jan-2020 3895.01 2981.95 72.95 2.00  91.62 2933.47
   21:08:04.822.30-Jan-2020 3895.01 2982.00 72.95 2.00  91.82 2933.47
