~Version Information
 VERS.                  2.0:   CWLS log ASCII Standard -VERSION 2.0
 WRAP.                   NO:   One line per depth step
~Well Information Block
#MNEM.UNIT     VALUE/NAME     DESCRIPTION
#---------     -----------    ---------------------------
 STRT.S             12:23:22 31-Jan-20: START TIME 12:23:22 31-Jan-20
 STOP.S             12:29:53 31-Jan-20: STOP TIME  12:29:53 31-Jan-20
 STEP.S                   0.00: STEP TIME
 NULL.                 -999.25: NULL VALUE
 DFWT.                        :  DIST FWL TEXT
 DFST.                        :  DIST FSL TEXT
 DMF .             Drill Floor:  DRILL MEAS FROM
 STIM.      09.30.00 26-Dec-19:  START TIME
 DATE.      08.00.00 20-Jan-20:  END TIME
 SPUD.               23-Nov-19:  SPUD DATE
 NREF.                    Grid:  NORTH REFERENCE
 HPTY.       Minimum Curvature:  HOLE POS TYPE
 DMOD.             Drill Model:  DRILL MOD DESC
 SVYD.                  Survey:  SURVEY DESC
 ILTD.               Lithology:  INTERP LTH DESC
 FTOP.          Formation Tops:  FORM TOPS DESC
 SON .        AZ-XX-0906192647:  JOB NUMBER
 WTYP.                Deviated:  WELL TYPE
 COMP.     BP Exploration (Caspian Sea) Ltd:  COMPANY
 BASE.              Azerbaijan:  LOGGING EQUIPMENT BASE LOCATION
 REGN.                 Eurasia:  REGION
 FLD .                     ACG:  FIELD NAME
 SRVC.              KCA Deutag:  CONTRACTOR
 MWDS.                    Baku:  MWD SHOP
 WELL.     A10 (Slot 20) - SCP:  WELL NAME
 JOBN.        AZ-XX-0906192647:  JOB TICKET NUMB
 RIG .                 Chirag1:  RIG NAME
 DCON.     Halliburton Sperry Drilling:  DIRECTNL CONTR
 UNIT.                     N/A:  LOGGING EQUIPMENT ID
 PDAT.          Mean Sea Level:  PERMANENT DATUM
 MDS .        Operator Entered:  MAG DATA SOURCE
 CTRY.              Azerbaijan:  COUNTRY NAME
 UWI .            /AZE00000090:  UNIQUE WELL IDENTIFIER
 API .            /AZE00000090:  API NUMBER
 CNTY.                        :  COUNTY
 PROV.                        :  PROVINCE
 STAT.                        :  STATE
 LOC .                        :  LOCATION
 LMF .             Drill Floor:  LOG MEASURED FROM
 TVDS.m                  36.60:  TVDSS CORRECTN
 LATI.deg                40.08:  LATITUDE
 LONG.deg                51.24:  LONGITUDE
 WHNS.m                  -7.94:  WELL HEAD N/S
 WHEW.m                   1.56:  WELL HEAD E/W
 UTMX.m              520429.26:  UTM X
 UTMY.m             4438973.87:  UTM Y
 DFWL.m                   0.00:  DISTANCE FWL
 DFSL.m                   0.00:  DISTANCE FSL
 SDEP.m                1455.00:  START DEPTH
 TDD .m                4047.51:  TOTAL DEPTH (DRILLER)
 VSDR.deg               112.75:  VERT SEC DIRECT
 GVFD.g                   1.00:  GRAVITY FIELD
 MFLD.nT              50261.00:  MAGNETIC FIELD
 MDIP.deg                59.52:  MAGNETIC DIP
 MDEC.deg                 6.42:  MAGNETIC DECL
 GRDC.deg                 0.17:  GRID CORRECTION
 AZTC.deg                 6.25:  AZM TOTAL CORR
 EPD .m                   0.00:  ELEVATION
 EGL .m                   0.00:  GROUND ELEVATION
 WDMS.m                 121.00:  WD ELEV
 APD .m                  36.60:  DEPTH ABOVE PD
 AGAP.m                  36.60:  AIR GAP
 VSEW.m                   1.56:  VERT SEC E/W
 VSNS.m                  -7.94:  VERT SEC N/S
 DEP .m                1140.01:  DEPTH
 EKB .m                  36.60:  KB ELEVATION
 EDF .m                  36.60:  DF ELEVATION
 TDL .m                 169.50:  TOTAL DEPTH (LOGGER)
 CSGD.m                3875.01:  CASING BOTTOM (DRILLER)
 CSGL.m                3875.01:  CASING BOTTOM (LOGGER)
 CSGS.in                  7.63:  CASING SIZE
 CSGW.lbpf               23.50:  CASING WEIGHT
 VSC .                       0:  VS TO CLOSURE
 MAGU.                 1849206:  MAGUTM CHECKSUM
~Parameter Information Block
#MNEM.UNIT       Value        Description
#---------     -----------    ---------------------------
 AV  .mps                 1.90:  Ann Velocity 
 AVMX.mps                 2.54:  Max Ann Veloc 
 AZIF.deg               137.03:  Azm, Final 
 BHAT.        Rotary Steerable:  BHA Type 
 BREV.rev             23610.00:  Rev Bit Total 
 BROT.°/30m               0.80:  Build Rotating 
 BS  .in                  6.50:  Bit Size 
 BTPL.psig              110.00:  Bit Press Loss 
 CABU.                     Yes:  Customer Abuse 
 COMM.                     Ô W:  Run Comments 1 
 TCS .hr                 70.51:  Time Ciculation Ended 
 CV  .mps                 1.41:  Crit Velocity 
 CVMX.mps                 1.42:  Max Crit Veloc 
 DD1 .         Intigam Rahimov:  Direct Drillr 1 
 DD2 .          Rashad Gojayev:  Direct Drillr 2 
 DDSV.               Geo-Pilot:  DD Service 
 DEFF.%                 100.00:  % Det Eff 
 DLRX.°/30m               1.44:  Dogleg Rot Max 
 DLSO.°/30m               0.00:  Dogleg Oriented 
 DLSX.°/30m               0.00:  Dogleg Str Max 
 DRET.      03.05.00 01-Feb-20:  Drill End Time 
 DRST.      15.50.00 28-Jan-20:  Drill Start Tim 
 DTIM.hr                 24.70:  Time Drilling 
 EDEP.m                4047.51:  End Depth 
 ENG1.           Eldar Hajiyev:  Engineer 1 
 ENG2.          Rasim Hashimov:  Engineer 2 
 ENG3.          Rustam Safarov:  Engineer 3 
 ETIM.      22.00.00 01-Feb-20:  End Time 
 FLOI.gpm               370.00:  Flow In 
 FLON.gpm               300.00:  Flow In Min 
 FLOS.cptm                0.00:  Fluid Loss 
 FLOX.gpm               400.00:  Flow In Max 
 FTRO.       Formation Presure:  FTWD Run Obj 
 HFLO.                      No:  High Flow 
 HPRE.                      No:  High Pressure 
 HTEM.                      No:  High Temp 
 HYDO.m                   2.50:  Hydro Offset 
 IFIN.deg                39.54:  Inc, Final 
 IMAX.deg                41.14:  Inc Max 
 IMIN.deg                39.81:  Inc Min 
 IMND.m                4005.21:  Inc Min Depth 
 IMXD.m                3948.42:  Inc Max Depth 
 JARR.                      No:  Jarring 
 LETM.      03.05.00 01-Feb-20:  Log End Time 
 LOST.hr                     0:  Lost Rig Time 
 LSTM.      15.50.00 28-Jan-20:  Log Start Time 
 MDCL.ppm             37500.00:  Mud Chlorides 
 MDES.     Inversion Oil/Synthetic:  Mud Desc 
 DFD .sg                  1.32:  Mud Density 
 MDMN.sg                  1.32:  Dens Mud Min 
 MDMX.sg                  1.32:  Dens Mud Max 
 MOIL.                      55:  Run Mud Oil % 
 MOWR.                   70:30:  Run Mud OWR 
 MSND.                       0:  Run Mud Sand % 
 MSOL.                      17:  Run Mud Solids% 
 DFV .spqt               80.00:  Mud Viscosity 
 MWOD.in                  4.75:  MWD Tool OD 
 MWSI.                      No:  Serv Intrp, MWD 
 OTIM.hr                121.28:  Time Operating 
 PCON.           Look Like New:  Pad Condition 
 PMAX.psia             6171.00:  Press Op, Max 
 PV  .cP                 30.00:  Mud PV 
 RUN .                     300:  Run Number 
 ROPA.m/hr                5.45:  ROP Avg 
 ROPN.m/hr                3.00:  ROP Min 
 ROPX.m/hr               15.00:  ROP Max 
 RPMA.rpm               130.00:  RPM Surface Avg 
 RPMN.rpm                80.00:  RPM Surface Min 
 RPMX.rpm               140.00:  RPM Surface Max 
 RRUN.                     300:  Rig Run Number 
 RTIM.hr                 13.50:  Time Reaming 
 SAZI.deg               133.93:  Azm, Start 
 SDEP.m                3878.01:  Start Depth 
 SIDD.                      No:  Serv Intrp, DD 
 SINC.deg                40.28:  Inc, Start 
 SPPA.psig             4983.00:  SPP Avg 
 SPPN.psig             4370.00:  SPP Min 
 SPPX.psig             5300.00:  SPP Max 
 STIM.      18.33.36 27-Jan-20:  Start Time 
 SVCS.                 DD, MWD:  Services 
 SVER.                    9.20:  Sperry Version 
 TDAT.m                 169.50:  Tot Depth Attmp 
 TDDF.                      No:  Trip for DD 
 TDLG.m                 169.50:  Tot Depth Loggd 
 TFF .                      No:  Trip for Fail 
 TQAA.f-kp               13.25:  Torque Abs Avg 
 TQAN.f-kp               12.00:  Torque Abs Min 
 TQAX.f-kp               14.00:  Torque Abs Max 
 TRRT.°/30m               0.70:  Turn Rotating 
 MRT .                     ADR:  Maximum Recorded Temperature 
 TTMX.degC               92.16:  Max Tool Temp 
 VS01.       AZ90598764G12V7D4:  Virtual Str1 SN 
 VS02.         AZ90571342R12C4:  Virtual Str2 SN 
 VS03.      AZ90580010N2L2X1C4:  Virtual Str3 SN 
 VS04.        AZ90522266O7X1C4:  Virtual Str4 SN 
 VS05.           AZ90598768F11:  Virtual Str5 SN 
 VS06.     AZ90580006XZ1W1X1C4:  Virtual Str6 SN 
 WBMN.klb                 8.00:  WOB Min 
 WITN.            Peter Wilson:  Customer Rep 
 WOBA.klb                 9.88:  WOB Avg 
 WOBX.klb                10.00:  WOB Max 
 YP  .lhf2               27.00:  Yield Point 
~Curve Information Block
#MNEM.UNIT                 API CODE     Curve Description
#---------               -----------    ---------------------------
 TIME.HHMMSS            00 000 000 000:  GT Time & Date
 GTDEPTH.m              00 000 000 000:  GT Depth
 GTPQH.psia             00 000 000 000:  GT HR Quartz Pressure
 GTTQ.degC              00 000 000 000:  GT Quartz Temperature
 GTTN.NONE              00 000 000 000:  GT Test Number
 GTET.sec               00 000 000 000:  GT Elapsed Test Time
 GTTVD.m                00 000 000 000:  GT True Vertical Depth
#Other Information
#
#WARRANTY: Halliburton will use its best efforts to furnish customers with 
#accurate information and interpretations that are part of, and incident to, the services 
#provided.  However, Halliburton cannot and does not warrant the accuracy 
#or correctness of such information and interpretations.  Under no circumstances should any 
#such information or interpretation be relied upon as the sole basis for any drilling, 
#completion, production, or financial decision or any procedure involving any risk to the 
#safety of any drilling venture, drilling rig or its crew or any other third party.  The 
#Customer has full responsibility for all drilling, completion and production operation.  
#Halliburton makes no representations or warranties, either expressed or 
#implied, including, but not limited to, the implied warranties of merchantability or fitness 
#for a particular purpose, with respect to the services rendered.  In no event will 
#Halliburton be liable for failure to obtain any particular results or for 
#any damages, including, but not limited to, indirect, special or consequential damages, 
#resulting from the use of any information or interpretation provided by Halliburton.
#
~A           TIME           GTDEPTH  GTPQH  GTTQ  GTTN  GTET   GTTVD  
# ...
   12:23:45.569.31-Jan-2020 3939.51 6788.89 83.66 6.00  23.01 2967.06
   12:23:45.769.31-Jan-2020 3939.51 6788.89 83.66 6.00  23.21 2967.06
   12:23:45.969.31-Jan-2020 3939.51 6797.43 83.66 6.00  23.41 2967.06
   12:23:46.169.31-Jan-2020 3939.51 6776.52 83.66 6.00  23.61 2967.06
   12:23:46.369.31-Jan-2020 3939.51 6772.01 83.66 6.00  23.81 2967.06
   12:23:46.569.31-Jan-2020 3939.51 6779.59 83.66 6.00  24.01 2967.06
   12:23:46.769.31-Jan-2020 3939.51 6779.59 83.66 6.00  24.21 2967.06
   12:23:46.969.31-Jan-2020 3939.51 6786.20 83.66 6.00  24.41 2967.06
   12:23:47.169.31-Jan-2020 3939.51 6786.75 83.65 6.00  24.61 2967.06
   12:23:47.369.31-Jan-2020 3939.51 6787.26 83.65 6.00  24.81 2967.06
   12:23:47.569.31-Jan-2020 3939.51 6787.77 83.65 6.00  25.01 2967.06
   12:23:47.769.31-Jan-2020 3939.51 6787.77 83.65 6.00  25.21 2967.06
   12:23:47.969.31-Jan-2020 3939.51 6791.11 83.65 6.00  25.41 2967.06
   12:23:48.169.31-Jan-2020 3939.51 6792.37 83.65 6.00  25.61 2967.06
   12:23:48.369.31-Jan-2020 3939.51 6792.61 83.65 6.00  25.81 2967.06
   12:23:48.569.31-Jan-2020 3939.51 6794.19 83.65 6.00  26.01 2967.06
   12:23:48.769.31-Jan-2020 3939.51 6794.19 83.65 6.00  26.21 2967.06
   12:23:48.970.31-Jan-2020 3939.51 6794.90 83.65 6.00  26.41 2967.06
   12:23:49.170.31-Jan-2020 3939.51 6794.08 83.65 6.00  26.61 2967.06
   12:23:49.370.31-Jan-2020 3939.51 6225.76 83.65 6.00  26.81 2967.06
   12:23:49.570.31-Jan-2020 3939.51 5731.73 83.65 6.00  27.01 2967.06
   12:23:49.770.31-Jan-2020 3939.51 5731.73 83.65 6.00  27.21 2967.06
   12:23:49.970.31-Jan-2020 3939.51 4736.76 83.65 6.00  27.41 2967.06
   12:23:50.170.31-Jan-2020 3939.51 3972.49 83.65 6.00  27.61 2967.06
   12:23:50.370.31-Jan-2020 3939.51 3217.59 83.64 6.00  27.81 2967.06
   12:23:50.570.31-Jan-2020 3939.51 2612.49 83.64 6.00  28.01 2967.06
   12:23:50.770.31-Jan-2020 3939.51 2612.49 83.64 6.00  28.21 2967.06
   12:23:50.970.31-Jan-2020 3939.51 2274.69 83.64 6.00  28.41 2967.06
   12:23:51.170.31-Jan-2020 3939.51 2193.76 83.64 6.00  28.61 2967.06
   12:23:51.370.31-Jan-2020 3939.51 2248.60 83.64 6.00  28.81 2967.06
   12:23:51.570.31-Jan-2020 3939.51 2290.89 83.64 6.00  29.01 2967.06
   12:23:51.770.31-Jan-2020 3939.51 2290.89 83.64 6.00  29.21 2967.06
   12:23:51.970.31-Jan-2020 3939.51 2263.42 83.64 6.00  29.41 2967.06
   12:23:52.170.31-Jan-2020 3939.51 2216.24 83.63 6.00  29.61 2967.06
   12:23:52.370.31-Jan-2020 3939.51 2192.33 83.63 6.00  29.81 2967.06
   12:23:52.570.31-Jan-2020 3939.51 2204.61 83.63 6.00  30.01 2967.06
   12:23:52.770.31-Jan-2020 3939.51 2204.61 83.63 6.00  30.21 2967.06
   12:23:52.970.31-Jan-2020 3939.51 2184.05 83.63 6.00  30.41 2967.06
   12:23:53.170.31-Jan-2020 3939.51 2235.33 83.63 6.00  30.61 2967.06
   12:23:53.371.31-Jan-2020 3939.51 2234.38 83.63 6.00  30.81 2967.06
   12:23:53.571.31-Jan-2020 3939.51 2202.79 83.62 6.00  31.01 2967.06
   12:23:53.771.31-Jan-2020 3939.51 2202.79 83.62 6.00  31.21 2967.06
   12:23:53.971.31-Jan-2020 3939.51 2178.11 83.62 6.00  31.41 2967.06
   12:23:54.171.31-Jan-2020 3939.51 2168.56 83.62 6.00  31.61 2967.06
   12:23:54.371.31-Jan-2020 3939.51 2167.94 83.62 6.00  31.81 2967.06
   12:23:54.571.31-Jan-2020 3939.51 2168.48 83.62 6.00  32.01 2967.06
   12:23:54.771.31-Jan-2020 3939.51 2168.48 83.62 6.00  32.21 2967.06
   12:23:54.971.31-Jan-2020 3939.51 2169.30 83.61 6.00  32.41 2967.06
   12:23:55.171.31-Jan-2020 3939.51 2166.78 83.61 6.00  32.61 2967.06
   12:23:55.371.31-Jan-2020 3939.51 2164.22 83.61 6.00  32.81 2967.06
   12:23:55.571.31-Jan-2020 3939.51 2160.71 83.61 6.00  33.01 2967.06
   12:23:55.771.31-Jan-2020 3939.51 2160.71 83.61 6.00  33.21 2967.06
   12:23:55.971.31-Jan-2020 3939.51 2160.85 83.60 6.00  33.41 2967.06
   12:23:56.171.31-Jan-2020 3939.51 2160.15 83.60 6.00  33.61 2967.06
   12:23:56.371.31-Jan-2020 3939.51 2159.69 83.60 6.00  33.81 2967.06
   12:23:56.571.31-Jan-2020 3939.51 2159.69 83.60 6.00  34.01 2967.06
   12:23:56.771.31-Jan-2020 3939.51 2159.69 83.60 6.00  34.21 2967.06
   12:23:56.971.31-Jan-2020 3939.51 2158.63 83.59 6.00  34.41 2967.06
   12:23:57.171.31-Jan-2020 3939.51 2159.33 83.59 6.00  34.61 2967.06
   12:23:57.371.31-Jan-2020 3939.51 2159.19 83.59 6.00  34.81 2967.06
   12:23:57.572.31-Jan-2020 3939.51 2158.22 83.59 6.00  35.01 2967.06
   12:23:57.772.31-Jan-2020 3939.51 2158.22 83.59 6.00  35.21 2967.06
   12:23:57.972.31-Jan-2020 3939.51 2158.55 83.59 6.00  35.41 2967.06
   12:23:58.172.31-Jan-2020 3939.51 2157.23 83.58 6.00  35.61 2967.06
   12:23:58.372.31-Jan-2020 3939.51 2156.45 83.58 6.00  35.81 2967.06
   12:23:58.572.31-Jan-2020 3939.51 2157.34 83.58 6.00  36.01 2967.06
   12:23:58.772.31-Jan-2020 3939.51 2157.34 83.58 6.00  36.21 2967.06
   12:23:58.972.31-Jan-2020 3939.51 2157.70 83.58 6.00  36.41 2967.06
   12:23:59.172.31-Jan-2020 3939.51 2155.26 83.58 6.00  36.61 2967.06
   12:23:59.372.31-Jan-2020 3939.51 2204.28 83.57 6.00  36.81 2967.06
   12:23:59.572.31-Jan-2020 3939.51 2557.63 83.57 6.00  37.01 2967.06
   12:23:59.772.31-Jan-2020 3939.51 2557.63 83.57 6.00  37.21 2967.06
   12:23:59.972.31-Jan-2020 3939.51 2898.36 83.57 6.00  37.41 2967.06
   12:24:00.172.31-Jan-2020 3939.51 2953.64 83.57 6.00  37.61 2967.06
   12:24:00.372.31-Jan-2020 3939.51 2980.78 83.57 6.00  37.81 2967.06
   12:24:00.572.31-Jan-2020 3939.51 2995.06 83.57 6.00  38.01 2967.06
   12:24:00.772.31-Jan-2020 3939.51 2995.06 83.57 6.00  38.21 2967.06
   12:24:00.972.31-Jan-2020 3939.51 3007.01 83.56 6.00  38.41 2967.06
   12:24:01.172.31-Jan-2020 3939.51 3009.59 83.56 6.00  38.61 2967.06
   12:24:01.372.31-Jan-2020 3939.51 3011.48 83.56 6.00  38.81 2967.06
   12:24:01.572.31-Jan-2020 3939.51 3012.43 83.56 6.00  39.01 2967.06
   12:24:01.773.31-Jan-2020 3939.51 3012.43 83.56 6.00  39.21 2967.06
   12:24:01.973.31-Jan-2020 3939.51 3014.05 83.56 6.00  39.41 2967.06
   12:24:02.173.31-Jan-2020 3939.51 3014.88 83.56 6.00  39.61 2967.06
   12:24:02.373.31-Jan-2020 3939.51 3015.31 83.55 6.00  39.81 2967.06
   12:24:02.573.31-Jan-2020 3939.51 3015.80 83.55 6.00  40.01 2967.06
   12:24:02.773.31-Jan-2020 3939.51 3015.80 83.55 6.00  40.21 2967.06
   12:24:02.973.31-Jan-2020 3939.51 3016.30 83.55 6.00  40.41 2967.06
   12:24:03.173.31-Jan-2020 3939.51 3016.49 83.55 6.00  40.61 2967.06
   12:24:03.373.31-Jan-2020 3939.51 3016.81 83.55 6.00  40.81 2967.06
   12:24:03.573.31-Jan-2020 3939.51 3017.00 83.55 6.00  41.01 2967.06
   12:24:03.773.31-Jan-2020 3939.51 3017.00 83.55 6.00  41.21 2967.06
   12:24:03.973.31-Jan-2020 3939.51 3016.76 83.55 6.00  41.41 2967.06
   12:24:04.173.31-Jan-2020 3939.51 3017.58 83.54 6.00  41.61 2967.06
   12:24:04.373.31-Jan-2020 3939.51 3017.56 83.54 6.00  41.81 2967.06
   12:24:04.573.31-Jan-2020 3939.51 3017.86 83.54 6.00  42.01 2967.06
   12:24:04.773.31-Jan-2020 3939.51 3017.86 83.54 6.00  42.21 2967.06
   12:24:04.973.31-Jan-2020 3939.51 3018.15 83.54 6.00  42.41 2967.06
   12:24:05.173.31-Jan-2020 3939.51 3017.55 83.54 6.00  42.61 2967.06
   12:24:05.373.31-Jan-2020 3939.51 3018.11 83.54 6.00  42.81 2967.06
   12:24:05.573.31-Jan-2020 3939.51 3018.34 83.54 6.00  43.01 2967.06
   12:24:05.773.31-Jan-2020 3939.51 3018.34 83.54 6.00  43.21 2967.06
   12:24:05.973.31-Jan-2020 3939.51 3018.58 83.54 6.00  43.41 2967.06
   12:24:06.174.31-Jan-2020 3939.51 3018.70 83.54 6.00  43.61 2967.06
   12:24:06.374.31-Jan-2020 3939.51 3018.11 83.54 6.00  43.81 2967.06
   12:24:06.574.31-Jan-2020 3939.51 3018.40 83.53 6.00  44.01 2967.06
   12:24:06.774.31-Jan-2020 3939.51 3018.40 83.53 6.00  44.21 2967.06
   12:24:06.974.31-Jan-2020 3939.51 3019.00 83.53 6.00  44.41 2967.06
   12:24:07.174.31-Jan-2020 3939.51 3018.54 83.53 6.00  44.61 2967.06
   12:24:07.374.31-Jan-2020 3939.51 3018.71 83.53 6.00  44.81 2967.06
   12:24:07.574.31-Jan-2020 3939.51 3019.08 83.53 6.00  45.01 2967.06
   12:24:07.774.31-Jan-2020 3939.51 3019.08 83.53 6.00  45.21 2967.06
   12:24:07.974.31-Jan-2020 3939.51 3019.28 83.53 6.00  45.41 2967.06
   12:24:08.174.31-Jan-2020 3939.51 3019.24 83.53 6.00  45.61 2967.06
   12:24:08.374.31-Jan-2020 3939.51 3019.33 83.53 6.00  45.81 2967.06
