~Version Information
 VERS.                  2.0:   CWLS log ASCII Standard -VERSION 2.0
 WRAP.                   NO:   One line per depth step
~Well Information Block
#MNEM.UNIT     VALUE/NAME     DESCRIPTION
#---------     -----------    ---------------------------
 STRT.S             01:28:25 01-Feb-20: START TIME 01:28:25 01-Feb-20
 STOP.S             01:36:19 01-Feb-20: STOP TIME  01:36:19 01-Feb-20
 STEP.S                   0.00: STEP TIME
 NULL.                 -999.25: NULL VALUE
 DFWT.                        :  DIST FWL TEXT
 DFST.                        :  DIST FSL TEXT
 DMF .             Drill Floor:  DRILL MEAS FROM
 STIM.      09.30.00 26-Dec-19:  START TIME
 DATE.      08.00.00 20-Jan-20:  END TIME
 SPUD.               23-Nov-19:  SPUD DATE
 NREF.                    Grid:  NORTH REFERENCE
 HPTY.       Minimum Curvature:  HOLE POS TYPE
 DMOD.             Drill Model:  DRILL MOD DESC
 SVYD.                  Survey:  SURVEY DESC
 ILTD.               Lithology:  INTERP LTH DESC
 FTOP.          Formation Tops:  FORM TOPS DESC
 SON .        AZ-XX-0906192647:  JOB NUMBER
 WTYP.                Deviated:  WELL TYPE
 COMP.     BP Exploration (Caspian Sea) Ltd:  COMPANY
 BASE.              Azerbaijan:  LOGGING EQUIPMENT BASE LOCATION
 REGN.                 Eurasia:  REGION
 FLD .                     ACG:  FIELD NAME
 SRVC.              KCA Deutag:  CONTRACTOR
 MWDS.                    Baku:  MWD SHOP
 WELL.     A10 (Slot 20) - SCP:  WELL NAME
 JOBN.        AZ-XX-0906192647:  JOB TICKET NUMB
 RIG .                 Chirag1:  RIG NAME
 DCON.     Halliburton Sperry Drilling:  DIRECTNL CONTR
 UNIT.                     N/A:  LOGGING EQUIPMENT ID
 PDAT.          Mean Sea Level:  PERMANENT DATUM
 MDS .        Operator Entered:  MAG DATA SOURCE
 CTRY.              Azerbaijan:  COUNTRY NAME
 UWI .            /AZE00000090:  UNIQUE WELL IDENTIFIER
 API .            /AZE00000090:  API NUMBER
 CNTY.                        :  COUNTY
 PROV.                        :  PROVINCE
 STAT.                        :  STATE
 LOC .                        :  LOCATION
 LMF .             Drill Floor:  LOG MEASURED FROM
 TVDS.m                  36.60:  TVDSS CORRECTN
 LATI.deg                40.08:  LATITUDE
 LONG.deg                51.24:  LONGITUDE
 WHNS.m                  -7.94:  WELL HEAD N/S
 WHEW.m                   1.56:  WELL HEAD E/W
 UTMX.m              520429.26:  UTM X
 UTMY.m             4438973.87:  UTM Y
 DFWL.m                   0.00:  DISTANCE FWL
 DFSL.m                   0.00:  DISTANCE FSL
 SDEP.m                1455.00:  START DEPTH
 TDD .m                4047.51:  TOTAL DEPTH (DRILLER)
 VSDR.deg               112.75:  VERT SEC DIRECT
 GVFD.g                   1.00:  GRAVITY FIELD
 MFLD.nT              50261.00:  MAGNETIC FIELD
 MDIP.deg                59.52:  MAGNETIC DIP
 MDEC.deg                 6.42:  MAGNETIC DECL
 GRDC.deg                 0.17:  GRID CORRECTION
 AZTC.deg                 6.25:  AZM TOTAL CORR
 EPD .m                   0.00:  ELEVATION
 EGL .m                   0.00:  GROUND ELEVATION
 WDMS.m                 121.00:  WD ELEV
 APD .m                  36.60:  DEPTH ABOVE PD
 AGAP.m                  36.60:  AIR GAP
 VSEW.m                   1.56:  VERT SEC E/W
 VSNS.m                  -7.94:  VERT SEC N/S
 DEP .m                1140.01:  DEPTH
 EKB .m                  36.60:  KB ELEVATION
 EDF .m                  36.60:  DF ELEVATION
 TDL .m                 169.50:  TOTAL DEPTH (LOGGER)
 CSGD.m                3875.01:  CASING BOTTOM (DRILLER)
 CSGL.m                3875.01:  CASING BOTTOM (LOGGER)
 CSGS.in                  7.63:  CASING SIZE
 CSGW.lbpf               23.50:  CASING WEIGHT
 VSC .                       0:  VS TO CLOSURE
 MAGU.                 1849206:  MAGUTM CHECKSUM
~Parameter Information Block
#MNEM.UNIT       Value        Description
#---------     -----------    ---------------------------
 AV  .mps                 1.90:  Ann Velocity 
 AVMX.mps                 2.54:  Max Ann Veloc 
 AZIF.deg               137.03:  Azm, Final 
 BHAT.        Rotary Steerable:  BHA Type 
 BREV.rev             23610.00:  Rev Bit Total 
 BROT.°/30m               0.80:  Build Rotating 
 BS  .in                  6.50:  Bit Size 
 BTPL.psig              110.00:  Bit Press Loss 
 CABU.                     Yes:  Customer Abuse 
 COMM.                     ì…†:  Run Comments 1 
 TCS .hr                 70.51:  Time Ciculation Ended 
 CV  .mps                 1.41:  Crit Velocity 
 CVMX.mps                 1.42:  Max Crit Veloc 
 DD1 .         Intigam Rahimov:  Direct Drillr 1 
 DD2 .          Rashad Gojayev:  Direct Drillr 2 
 DDSV.               Geo-Pilot:  DD Service 
 DEFF.%                 100.00:  % Det Eff 
 DLRX.°/30m               1.44:  Dogleg Rot Max 
 DLSO.°/30m               0.00:  Dogleg Oriented 
 DLSX.°/30m               0.00:  Dogleg Str Max 
 DRET.      03.05.00 01-Feb-20:  Drill End Time 
 DRST.      15.50.00 28-Jan-20:  Drill Start Tim 
 DTIM.hr                 24.70:  Time Drilling 
 EDEP.m                4047.51:  End Depth 
 ENG1.           Eldar Hajiyev:  Engineer 1 
 ENG2.          Rasim Hashimov:  Engineer 2 
 ENG3.          Rustam Safarov:  Engineer 3 
 ETIM.      22.00.00 01-Feb-20:  End Time 
 FLOI.gpm               370.00:  Flow In 
 FLON.gpm               300.00:  Flow In Min 
 FLOS.cptm                0.00:  Fluid Loss 
 FLOX.gpm               400.00:  Flow In Max 
 FTRO.       Formation Presure:  FTWD Run Obj 
 HFLO.                      No:  High Flow 
 HPRE.                      No:  High Pressure 
 HTEM.                      No:  High Temp 
 HYDO.m                   2.50:  Hydro Offset 
 IFIN.deg                39.54:  Inc, Final 
 IMAX.deg                41.14:  Inc Max 
 IMIN.deg                39.81:  Inc Min 
 IMND.m                4005.21:  Inc Min Depth 
 IMXD.m                3948.42:  Inc Max Depth 
 JARR.                      No:  Jarring 
 LETM.      03.05.00 01-Feb-20:  Log End Time 
 LOST.hr                     0:  Lost Rig Time 
 LSTM.      15.50.00 28-Jan-20:  Log Start Time 
 MDCL.ppm             37500.00:  Mud Chlorides 
 MDES.     Inversion Oil/Synthetic:  Mud Desc 
 DFD .sg                  1.32:  Mud Density 
 MDMN.sg                  1.32:  Dens Mud Min 
 MDMX.sg                  1.32:  Dens Mud Max 
 MOIL.                      55:  Run Mud Oil % 
 MOWR.                   70:30:  Run Mud OWR 
 MSND.                       0:  Run Mud Sand % 
 MSOL.                      17:  Run Mud Solids% 
 DFV .spqt               80.00:  Mud Viscosity 
 MWOD.in                  4.75:  MWD Tool OD 
 MWSI.                      No:  Serv Intrp, MWD 
 OTIM.hr                121.28:  Time Operating 
 PCON.           Look Like New:  Pad Condition 
 PMAX.psia             6171.00:  Press Op, Max 
 PV  .cP                 30.00:  Mud PV 
 RUN .                     300:  Run Number 
 ROPA.m/hr                5.45:  ROP Avg 
 ROPN.m/hr                3.00:  ROP Min 
 ROPX.m/hr               15.00:  ROP Max 
 RPMA.rpm               130.00:  RPM Surface Avg 
 RPMN.rpm                80.00:  RPM Surface Min 
 RPMX.rpm               140.00:  RPM Surface Max 
 RRUN.                     300:  Rig Run Number 
 RTIM.hr                 13.50:  Time Reaming 
 SAZI.deg               133.93:  Azm, Start 
 SDEP.m                3878.01:  Start Depth 
 SIDD.                      No:  Serv Intrp, DD 
 SINC.deg                40.28:  Inc, Start 
 SPPA.psig             4983.00:  SPP Avg 
 SPPN.psig             4370.00:  SPP Min 
 SPPX.psig             5300.00:  SPP Max 
 STIM.      18.33.36 27-Jan-20:  Start Time 
 SVCS.                 DD, MWD:  Services 
 SVER.                    9.20:  Sperry Version 
 TDAT.m                 169.50:  Tot Depth Attmp 
 TDDF.                      No:  Trip for DD 
 TDLG.m                 169.50:  Tot Depth Loggd 
 TFF .                      No:  Trip for Fail 
 TQAA.f-kp               13.25:  Torque Abs Avg 
 TQAN.f-kp               12.00:  Torque Abs Min 
 TQAX.f-kp               14.00:  Torque Abs Max 
 TRRT.°/30m               0.70:  Turn Rotating 
 MRT .                     ADR:  Maximum Recorded Temperature 
 TTMX.degC               92.16:  Max Tool Temp 
 VS01.       AZ90598764G12V7D4:  Virtual Str1 SN 
 VS02.         AZ90571342R12C4:  Virtual Str2 SN 
 VS03.      AZ90580010N2L2X1C4:  Virtual Str3 SN 
 VS04.        AZ90522266O7X1C4:  Virtual Str4 SN 
 VS05.           AZ90598768F11:  Virtual Str5 SN 
 VS06.     AZ90580006XZ1W1X1C4:  Virtual Str6 SN 
 WBMN.klb                 8.00:  WOB Min 
 WITN.            Peter Wilson:  Customer Rep 
 WOBA.klb                 9.88:  WOB Avg 
 WOBX.klb                10.00:  WOB Max 
 YP  .lhf2               27.00:  Yield Point 
~Curve Information Block
#MNEM.UNIT                 API CODE     Curve Description
#---------               -----------    ---------------------------
 TIME.HHMMSS            00 000 000 000:  GT Time & Date
 GTDEPTH.m              00 000 000 000:  GT Depth
 GTPQH.psia             00 000 000 000:  GT HR Quartz Pressure
 GTTQ.degC              00 000 000 000:  GT Quartz Temperature
 GTTN.NONE              00 000 000 000:  GT Test Number
 GTET.sec               00 000 000 000:  GT Elapsed Test Time
 GTTVD.m                00 000 000 000:  GT True Vertical Depth
#Other Information
#
#WARRANTY: Halliburton will use its best efforts to furnish customers with 
#accurate information and interpretations that are part of, and incident to, the services 
#provided.  However, Halliburton cannot and does not warrant the accuracy 
#or correctness of such information and interpretations.  Under no circumstances should any 
#such information or interpretation be relied upon as the sole basis for any drilling, 
#completion, production, or financial decision or any procedure involving any risk to the 
#safety of any drilling venture, drilling rig or its crew or any other third party.  The 
#Customer has full responsibility for all drilling, completion and production operation.  
#Halliburton makes no representations or warranties, either expressed or 
#implied, including, but not limited to, the implied warranties of merchantability or fitness 
#for a particular purpose, with respect to the services rendered.  In no event will 
#Halliburton be liable for failure to obtain any particular results or for 
#any damages, including, but not limited to, indirect, special or consequential damages, 
#resulting from the use of any information or interpretation provided by Halliburton.
#
~A           TIME           GTDEPTH  GTPQH  GTTQ  GTTN   GTET   GTTVD  
# ...
   01:31:26.458.01-Feb-2020 3990.12 3205.73 84.72 11.00 181.43 3005.35
   01:31:26.659.01-Feb-2020 3990.12 3206.13 84.72 11.00 181.64 3005.35
   01:31:26.860.01-Feb-2020 3990.12 3206.13 84.72 11.00 181.84 3005.35
   01:31:27.061.01-Feb-2020 3990.12 3206.66 84.72 11.00 182.04 3005.35
   01:31:27.261.01-Feb-2020 3990.12 3206.92 84.72 11.00 182.24 3005.35
   01:31:27.462.01-Feb-2020 3990.12 3207.14 84.72 11.00 182.44 3005.35
   01:31:27.663.01-Feb-2020 3990.12 3207.16 84.72 11.00 182.64 3005.35
   01:31:27.863.01-Feb-2020 3990.12 3207.16 84.72 11.00 182.84 3005.35
   01:31:28.064.01-Feb-2020 3990.12 3207.69 84.72 11.00 183.04 3005.35
   01:31:28.265.01-Feb-2020 3990.12 3207.82 84.72 11.00 183.24 3005.35
   01:31:28.465.01-Feb-2020 3990.12 3208.09 84.71 11.00 183.44 3005.35
   01:31:28.666.01-Feb-2020 3990.12 3208.09 84.71 11.00 183.64 3005.35
   01:31:28.867.01-Feb-2020 3990.12 3208.09 84.71 11.00 183.84 3005.35
   01:31:29.068.01-Feb-2020 3990.12 3208.40 84.71 11.00 184.04 3005.35
   01:31:29.268.01-Feb-2020 3990.12 3208.49 84.71 11.00 184.24 3005.35
   01:31:29.469.01-Feb-2020 3990.12 3208.76 84.71 11.00 184.44 3005.35
   01:31:29.670.01-Feb-2020 3990.12 3208.97 84.71 11.00 184.65 3005.35
   01:31:29.870.01-Feb-2020 3990.12 3208.97 84.71 11.00 184.85 3005.35
   01:31:30.071.01-Feb-2020 3990.12 3209.16 84.71 11.00 185.05 3005.35
   01:31:30.272.01-Feb-2020 3990.12 3209.25 84.71 11.00 185.25 3005.35
   01:31:30.472.01-Feb-2020 3990.12 3209.37 84.71 11.00 185.45 3005.35
   01:31:30.673.01-Feb-2020 3990.12 3209.68 84.71 11.00 185.65 3005.35
   01:31:30.874.01-Feb-2020 3990.12 3209.68 84.71 11.00 185.85 3005.35
   01:31:31.075.01-Feb-2020 3990.12 3209.74 84.71 11.00 186.05 3005.35
   01:31:31.275.01-Feb-2020 3990.12 3209.97 84.71 11.00 186.25 3005.35
   01:31:31.476.01-Feb-2020 3990.12 3209.95 84.71 11.00 186.45 3005.35
   01:31:31.677.01-Feb-2020 3990.12 3210.05 84.71 11.00 186.65 3005.35
   01:31:31.877.01-Feb-2020 3990.12 3210.05 84.71 11.00 186.85 3005.35
   01:31:32.078.01-Feb-2020 3990.12 3210.26 84.71 11.00 187.05 3005.35
   01:31:32.279.01-Feb-2020 3990.12 3210.35 84.71 11.00 187.25 3005.35
   01:31:32.480.01-Feb-2020 3990.12 3210.45 84.71 11.00 187.46 3005.35
   01:31:32.680.01-Feb-2020 3990.12 3210.40 84.71 11.00 187.66 3005.35
   01:31:32.881.01-Feb-2020 3990.12 3210.40 84.71 11.00 187.86 3005.35
   01:31:33.082.01-Feb-2020 3990.12 3210.82 84.71 11.00 188.06 3005.35
   01:31:33.282.01-Feb-2020 3990.12 3210.34 84.71 11.00 188.26 3005.35
   01:31:33.483.01-Feb-2020 3990.12 3210.85 84.71 11.00 188.46 3005.35
   01:31:33.684.01-Feb-2020 3990.12 3210.90 84.71 11.00 188.66 3005.35
   01:31:33.884.01-Feb-2020 3990.12 3210.90 84.71 11.00 188.86 3005.35
   01:31:34.085.01-Feb-2020 3990.12 3211.28 84.70 11.00 189.06 3005.35
   01:31:34.286.01-Feb-2020 3990.12 3210.63 84.70 11.00 189.26 3005.35
   01:31:34.487.01-Feb-2020 3990.12 3211.08 84.70 11.00 189.46 3005.35
   01:31:34.687.01-Feb-2020 3990.12 3211.31 84.70 11.00 189.66 3005.35
   01:31:34.888.01-Feb-2020 3990.12 3211.31 84.70 11.00 189.86 3005.35
   01:31:35.089.01-Feb-2020 3990.12 3211.56 84.70 11.00 190.06 3005.35
   01:31:35.289.01-Feb-2020 3990.12 3211.64 84.70 11.00 190.27 3005.35
   01:31:35.490.01-Feb-2020 3990.12 3211.23 84.70 11.00 190.47 3005.35
   01:31:35.691.01-Feb-2020 3990.12 3211.48 84.70 11.00 190.67 3005.35
   01:31:35.891.01-Feb-2020 3990.12 3211.48 84.70 11.00 190.87 3005.35
   01:31:36.092.01-Feb-2020 3990.12 3211.66 84.70 11.00 191.07 3005.35
   01:31:36.293.01-Feb-2020 3990.12 3211.87 84.70 11.00 191.27 3005.35
   01:31:36.494.01-Feb-2020 3990.12 3212.02 84.70 11.00 191.47 3005.35
   01:31:36.694.01-Feb-2020 3990.12 3211.50 84.70 11.00 191.67 3005.35
   01:31:36.895.01-Feb-2020 3990.12 3211.50 84.70 11.00 191.87 3005.35
   01:31:37.096.01-Feb-2020 3990.12 3211.94 84.70 11.00 192.07 3005.35
   01:31:37.296.01-Feb-2020 3990.12 3212.12 84.70 11.00 192.27 3005.35
   01:31:37.497.01-Feb-2020 3990.12 3212.20 84.70 11.00 192.47 3005.35
   01:31:37.698.01-Feb-2020 3990.12 3212.35 84.70 11.00 192.67 3005.35
   01:31:37.898.01-Feb-2020 3990.12 3212.35 84.70 11.00 192.87 3005.35
   01:31:38.099.01-Feb-2020 3990.12 3212.07 84.70 11.00 193.08 3005.35
   01:31:38.300.01-Feb-2020 3990.12 3212.24 84.70 11.00 193.28 3005.35
   01:31:38.501.01-Feb-2020 3990.12 3212.46 84.70 11.00 193.48 3005.35
   01:31:38.701.01-Feb-2020 3990.12 3212.50 84.70 11.00 193.68 3005.35
   01:31:38.902.01-Feb-2020 3990.12 3212.50 84.70 11.00 193.88 3005.35
   01:31:39.103.01-Feb-2020 3990.12 3212.53 84.69 11.00 194.08 3005.35
   01:31:39.303.01-Feb-2020 3990.12 3212.51 84.69 11.00 194.28 3005.35
   01:31:39.504.01-Feb-2020 3990.12 3212.53 84.69 11.00 194.48 3005.35
   01:31:39.705.01-Feb-2020 3990.12 3212.63 84.69 11.00 194.68 3005.35
   01:31:39.905.01-Feb-2020 3990.12 3212.63 84.69 11.00 194.88 3005.35
   01:31:40.106.01-Feb-2020 3990.12 3212.62 84.69 11.00 195.08 3005.35
   01:31:40.307.01-Feb-2020 3990.12 3212.76 84.69 11.00 195.28 3005.35
   01:31:40.508.01-Feb-2020 3990.12 3212.69 84.69 11.00 195.48 3005.35
   01:31:40.708.01-Feb-2020 3990.12 3212.69 84.69 11.00 195.68 3005.35
   01:31:40.909.01-Feb-2020 3990.12 3212.69 84.69 11.00 195.88 3005.35
   01:31:41.110.01-Feb-2020 3990.12 3212.82 84.69 11.00 196.09 3005.35
   01:31:41.310.01-Feb-2020 3990.12 3212.92 84.69 11.00 196.29 3005.35
   01:31:41.511.01-Feb-2020 3990.12 3212.73 84.69 11.00 196.49 3005.35
   01:31:41.712.01-Feb-2020 3990.12 3212.80 84.69 11.00 196.69 3005.35
   01:31:41.912.01-Feb-2020 3990.12 3212.80 84.69 11.00 196.89 3005.35
   01:31:42.113.01-Feb-2020 3990.12 3213.01 84.69 11.00 197.09 3005.35
   01:31:42.314.01-Feb-2020 3990.12 3213.08 84.69 11.00 197.29 3005.35
   01:31:42.515.01-Feb-2020 3990.12 3213.20 84.69 11.00 197.49 3005.35
   01:31:42.715.01-Feb-2020 3990.12 3213.22 84.69 11.00 197.69 3005.35
   01:31:42.916.01-Feb-2020 3990.12 3213.22 84.69 11.00 197.89 3005.35
   01:31:43.117.01-Feb-2020 3990.12 3213.29 84.69 11.00 198.09 3005.35
   01:31:43.317.01-Feb-2020 3990.12 3213.25 84.69 11.00 198.29 3005.35
   01:31:43.518.01-Feb-2020 3990.12 3213.23 84.69 11.00 198.49 3005.35
   01:31:43.719.01-Feb-2020 3990.12 3213.31 84.69 11.00 198.69 3005.35
   01:31:43.920.01-Feb-2020 3990.12 3213.31 84.69 11.00 198.90 3005.35
   01:31:44.120.01-Feb-2020 3990.12 3213.33 84.68 11.00 199.10 3005.35
   01:31:44.321.01-Feb-2020 3990.12 3213.32 84.68 11.00 199.30 3005.35
   01:31:44.522.01-Feb-2020 3990.12 3213.40 84.68 11.00 199.50 3005.35
   01:31:44.722.01-Feb-2020 3990.12 3213.61 84.68 11.00 199.70 3005.35
   01:31:44.923.01-Feb-2020 3990.12 3213.61 84.68 11.00 199.90 3005.35
   01:31:45.124.01-Feb-2020 3990.12 3213.33 84.68 11.00 200.10 3005.35
   01:31:45.324.01-Feb-2020 3990.12 3213.52 84.68 11.00 200.30 3005.35
   01:31:45.525.01-Feb-2020 3990.12 3213.55 84.68 11.00 200.50 3005.35
   01:31:45.726.01-Feb-2020 3990.12 3213.75 84.68 11.00 200.70 3005.35
   01:31:45.927.01-Feb-2020 3990.12 3213.75 84.68 11.00 200.90 3005.35
   01:31:46.127.01-Feb-2020 3990.12 3213.43 84.68 11.00 201.10 3005.35
   01:31:46.328.01-Feb-2020 3990.12 3213.60 84.68 11.00 201.30 3005.35
   01:31:46.529.01-Feb-2020 3990.12 3213.72 84.68 11.00 201.50 3005.35
   01:31:46.729.01-Feb-2020 3990.12 3213.74 84.68 11.00 201.71 3005.35
   01:31:46.930.01-Feb-2020 3990.12 3213.74 84.68 11.00 201.91 3005.35
   01:31:47.131.01-Feb-2020 3990.12 3213.83 84.68 11.00 202.11 3005.35
   01:31:47.331.01-Feb-2020 3990.12 3213.45 84.68 11.00 202.31 3005.35
   01:31:47.532.01-Feb-2020 3990.12 3213.56 84.68 11.00 202.51 3005.35
   01:31:47.733.01-Feb-2020 3990.12 3213.76 84.68 11.00 202.71 3005.35
   01:31:47.934.01-Feb-2020 3990.12 3213.76 84.68 11.00 202.91 3005.35
   01:31:48.134.01-Feb-2020 3990.12 3213.62 84.68 11.00 203.11 3005.35
   01:31:48.335.01-Feb-2020 3990.12 3213.71 84.68 11.00 203.31 3005.35
   01:31:48.536.01-Feb-2020 3990.12 3213.88 84.67 11.00 203.51 3005.35
   01:31:48.736.01-Feb-2020 3990.12 3213.98 84.67 11.00 203.71 3005.35
   01:31:48.937.01-Feb-2020 3990.12 3213.98 84.67 11.00 203.91 3005.35
