~Version Information
 VERS.                  2.0:   CWLS log ASCII Standard -VERSION 2.0
 WRAP.                   NO:   One line per depth step
~Well Information Block
#MNEM.UNIT     VALUE/NAME     DESCRIPTION
#---------     -----------    ---------------------------
 STRT.S             00:13:57 01-Feb-20: START TIME 00:13:57 01-Feb-20
 STOP.S             00:20:28 01-Feb-20: STOP TIME  00:20:28 01-Feb-20
 STEP.S                   0.00: STEP TIME
 NULL.                 -999.25: NULL VALUE
 DFWT.                        :  DIST FWL TEXT
 DFST.                        :  DIST FSL TEXT
 DMF .             Drill Floor:  DRILL MEAS FROM
 STIM.      09.30.00 26-Dec-19:  START TIME
 DATE.      08.00.00 20-Jan-20:  END TIME
 SPUD.               23-Nov-19:  SPUD DATE
 NREF.                    Grid:  NORTH REFERENCE
 HPTY.       Minimum Curvature:  HOLE POS TYPE
 DMOD.             Drill Model:  DRILL MOD DESC
 SVYD.                  Survey:  SURVEY DESC
 ILTD.               Lithology:  INTERP LTH DESC
 FTOP.          Formation Tops:  FORM TOPS DESC
 SON .        AZ-XX-0906192647:  JOB NUMBER
 WTYP.                Deviated:  WELL TYPE
 COMP.     BP Exploration (Caspian Sea) Ltd:  COMPANY
 BASE.              Azerbaijan:  LOGGING EQUIPMENT BASE LOCATION
 REGN.                 Eurasia:  REGION
 FLD .                     ACG:  FIELD NAME
 SRVC.              KCA Deutag:  CONTRACTOR
 MWDS.                    Baku:  MWD SHOP
 WELL.     A10 (Slot 20) - SCP:  WELL NAME
 JOBN.        AZ-XX-0906192647:  JOB TICKET NUMB
 RIG .                 Chirag1:  RIG NAME
 DCON.     Halliburton Sperry Drilling:  DIRECTNL CONTR
 UNIT.                     N/A:  LOGGING EQUIPMENT ID
 PDAT.          Mean Sea Level:  PERMANENT DATUM
 MDS .        Operator Entered:  MAG DATA SOURCE
 CTRY.              Azerbaijan:  COUNTRY NAME
 UWI .            /AZE00000090:  UNIQUE WELL IDENTIFIER
 API .            /AZE00000090:  API NUMBER
 CNTY.                        :  COUNTY
 PROV.                        :  PROVINCE
 STAT.                        :  STATE
 LOC .                        :  LOCATION
 LMF .             Drill Floor:  LOG MEASURED FROM
 TVDS.m                  36.60:  TVDSS CORRECTN
 LATI.deg                40.08:  LATITUDE
 LONG.deg                51.24:  LONGITUDE
 WHNS.m                  -7.94:  WELL HEAD N/S
 WHEW.m                   1.56:  WELL HEAD E/W
 UTMX.m              520429.26:  UTM X
 UTMY.m             4438973.87:  UTM Y
 DFWL.m                   0.00:  DISTANCE FWL
 DFSL.m                   0.00:  DISTANCE FSL
 SDEP.m                1455.00:  START DEPTH
 TDD .m                4047.51:  TOTAL DEPTH (DRILLER)
 VSDR.deg               112.75:  VERT SEC DIRECT
 GVFD.g                   1.00:  GRAVITY FIELD
 MFLD.nT              50261.00:  MAGNETIC FIELD
 MDIP.deg                59.52:  MAGNETIC DIP
 MDEC.deg                 6.42:  MAGNETIC DECL
 GRDC.deg                 0.17:  GRID CORRECTION
 AZTC.deg                 6.25:  AZM TOTAL CORR
 EPD .m                   0.00:  ELEVATION
 EGL .m                   0.00:  GROUND ELEVATION
 WDMS.m                 121.00:  WD ELEV
 APD .m                  36.60:  DEPTH ABOVE PD
 AGAP.m                  36.60:  AIR GAP
 VSEW.m                   1.56:  VERT SEC E/W
 VSNS.m                  -7.94:  VERT SEC N/S
 DEP .m                1140.01:  DEPTH
 EKB .m                  36.60:  KB ELEVATION
 EDF .m                  36.60:  DF ELEVATION
 TDL .m                 169.50:  TOTAL DEPTH (LOGGER)
 CSGD.m                3875.01:  CASING BOTTOM (DRILLER)
 CSGL.m                3875.01:  CASING BOTTOM (LOGGER)
 CSGS.in                  7.63:  CASING SIZE
 CSGW.lbpf               23.50:  CASING WEIGHT
 VSC .                       0:  VS TO CLOSURE
 MAGU.                 1849206:  MAGUTM CHECKSUM
~Parameter Information Block
#MNEM.UNIT       Value        Description
#---------     -----------    ---------------------------
 AV  .mps                 1.90:  Ann Velocity 
 AVMX.mps                 2.54:  Max Ann Veloc 
 AZIF.deg               137.03:  Azm, Final 
 BHAT.        Rotary Steerable:  BHA Type 
 BREV.rev             23610.00:  Rev Bit Total 
 BROT.°/30m               0.80:  Build Rotating 
 BS  .in                  6.50:  Bit Size 
 BTPL.psig              110.00:  Bit Press Loss 
 CABU.                     Yes:  Customer Abuse 
 TCS .hr                 70.51:  Time Ciculation Ended 
 CV  .mps                 1.41:  Crit Velocity 
 CVMX.mps                 1.42:  Max Crit Veloc 
 DD1 .         Intigam Rahimov:  Direct Drillr 1 
 DD2 .          Rashad Gojayev:  Direct Drillr 2 
 DDSV.               Geo-Pilot:  DD Service 
 DEFF.%                 100.00:  % Det Eff 
 DLRX.°/30m               1.44:  Dogleg Rot Max 
 DLSO.°/30m               0.00:  Dogleg Oriented 
 DLSX.°/30m               0.00:  Dogleg Str Max 
 DRET.      03.05.00 01-Feb-20:  Drill End Time 
 DRST.      15.50.00 28-Jan-20:  Drill Start Tim 
 DTIM.hr                 24.70:  Time Drilling 
 EDEP.m                4047.51:  End Depth 
 ENG1.           Eldar Hajiyev:  Engineer 1 
 ENG2.          Rasim Hashimov:  Engineer 2 
 ENG3.          Rustam Safarov:  Engineer 3 
 ETIM.      22.00.00 01-Feb-20:  End Time 
 FLOI.gpm               370.00:  Flow In 
 FLON.gpm               300.00:  Flow In Min 
 FLOS.cptm                0.00:  Fluid Loss 
 FLOX.gpm               400.00:  Flow In Max 
 FTRO.       Formation Presure:  FTWD Run Obj 
 HFLO.                      No:  High Flow 
 HPRE.                      No:  High Pressure 
 HTEM.                      No:  High Temp 
 HYDO.m                   2.50:  Hydro Offset 
 IFIN.deg                39.54:  Inc, Final 
 IMAX.deg                41.14:  Inc Max 
 IMIN.deg                39.81:  Inc Min 
 IMND.m                4005.21:  Inc Min Depth 
 IMXD.m                3948.42:  Inc Max Depth 
 JARR.                      No:  Jarring 
 LETM.      03.05.00 01-Feb-20:  Log End Time 
 LOST.hr                     0:  Lost Rig Time 
 LSTM.      15.50.00 28-Jan-20:  Log Start Time 
 MDCL.ppm             37500.00:  Mud Chlorides 
 MDES.     Inversion Oil/Synthetic:  Mud Desc 
 DFD .sg                  1.32:  Mud Density 
 MDMN.sg                  1.32:  Dens Mud Min 
 MDMX.sg                  1.32:  Dens Mud Max 
 MOIL.                      55:  Run Mud Oil % 
 MOWR.                   70:30:  Run Mud OWR 
 MSND.                       0:  Run Mud Sand % 
 MSOL.                      17:  Run Mud Solids% 
 DFV .spqt               80.00:  Mud Viscosity 
 MWOD.in                  4.75:  MWD Tool OD 
 MWSI.                      No:  Serv Intrp, MWD 
 OTIM.hr                121.28:  Time Operating 
 PCON.           Look Like New:  Pad Condition 
 PMAX.psia             6171.00:  Press Op, Max 
 PV  .cP                 30.00:  Mud PV 
 RUN .                     300:  Run Number 
 ROPA.m/hr                5.45:  ROP Avg 
 ROPN.m/hr                3.00:  ROP Min 
 ROPX.m/hr               15.00:  ROP Max 
 RPMA.rpm               130.00:  RPM Surface Avg 
 RPMN.rpm                80.00:  RPM Surface Min 
 RPMX.rpm               140.00:  RPM Surface Max 
 RRUN.                     300:  Rig Run Number 
 RTIM.hr                 13.50:  Time Reaming 
 SAZI.deg               133.93:  Azm, Start 
 SDEP.m                3878.01:  Start Depth 
 SIDD.                      No:  Serv Intrp, DD 
 SINC.deg                40.28:  Inc, Start 
 SPPA.psig             4983.00:  SPP Avg 
 SPPN.psig             4370.00:  SPP Min 
 SPPX.psig             5300.00:  SPP Max 
 STIM.      18.33.36 27-Jan-20:  Start Time 
 SVCS.                 DD, MWD:  Services 
 SVER.                    9.20:  Sperry Version 
 TDAT.m                 169.50:  Tot Depth Attmp 
 TDDF.                      No:  Trip for DD 
 TDLG.m                 169.50:  Tot Depth Loggd 
 TFF .                      No:  Trip for Fail 
 TQAA.f-kp               13.25:  Torque Abs Avg 
 TQAN.f-kp               12.00:  Torque Abs Min 
 TQAX.f-kp               14.00:  Torque Abs Max 
 TRRT.°/30m               0.70:  Turn Rotating 
 MRT .                     ADR:  Maximum Recorded Temperature 
 TTMX.degC               92.16:  Max Tool Temp 
 VS01.       AZ90598764G12V7D4:  Virtual Str1 SN 
 VS02.         AZ90571342R12C4:  Virtual Str2 SN 
 VS03.      AZ90580010N2L2X1C4:  Virtual Str3 SN 
 VS04.        AZ90522266O7X1C4:  Virtual Str4 SN 
 VS05.           AZ90598768F11:  Virtual Str5 SN 
 VS06.     AZ90580006XZ1W1X1C4:  Virtual Str6 SN 
 WBMN.klb                 8.00:  WOB Min 
 WITN.            Peter Wilson:  Customer Rep 
 WOBA.klb                 9.88:  WOB Avg 
 WOBX.klb                10.00:  WOB Max 
 YP  .lhf2               27.00:  Yield Point 
~Curve Information Block
#MNEM.UNIT                 API CODE     Curve Description
#---------               -----------    ---------------------------
 TIME.HHMMSS            00 000 000 000:  GT Time & Date
 GTDEPTH.m              00 000 000 000:  GT Depth
 GTPQH.psia             00 000 000 000:  GT HR Quartz Pressure
 GTTQ.degC              00 000 000 000:  GT Quartz Temperature
 GTTN.NONE              00 000 000 000:  GT Test Number
 GTET.sec               00 000 000 000:  GT Elapsed Test Time
 GTTVD.m                00 000 000 000:  GT True Vertical Depth
#Other Information
#
#WARRANTY: Halliburton will use its best efforts to furnish customers with 
#accurate information and interpretations that are part of, and incident to, the services 
#provided.  However, Halliburton cannot and does not warrant the accuracy 
#or correctness of such information and interpretations.  Under no circumstances should any 
#such information or interpretation be relied upon as the sole basis for any drilling, 
#completion, production, or financial decision or any procedure involving any risk to the 
#safety of any drilling venture, drilling rig or its crew or any other third party.  The 
#Customer has full responsibility for all drilling, completion and production operation.  
#Halliburton makes no representations or warranties, either expressed or 
#implied, including, but not limited to, the implied warranties of merchantability or fitness 
#for a particular purpose, with respect to the services rendered.  In no event will 
#Halliburton be liable for failure to obtain any particular results or for 
#any damages, including, but not limited to, indirect, special or consequential damages, 
#resulting from the use of any information or interpretation provided by Halliburton.
#
~A           TIME           GTDEPTH  GTPQH  GTTQ  GTTN   GTET   GTTVD  
# ...
   00:18:51.534.01-Feb-2020 3989.40 3222.04 86.65 10.00 293.83 3004.80
   00:18:51.734.01-Feb-2020 3989.40 3222.01 86.65 10.00 294.03 3004.80
   00:18:51.934.01-Feb-2020 3989.40 3222.01 86.65 10.00 294.23 3004.80
   00:18:52.134.01-Feb-2020 3989.40 3221.96 86.64 10.00 294.43 3004.80
   00:18:52.334.01-Feb-2020 3989.40 3221.98 86.64 10.00 294.63 3004.80
   00:18:52.534.01-Feb-2020 3989.40 3222.09 86.64 10.00 294.83 3004.80
   00:18:52.734.01-Feb-2020 3989.40 3222.16 86.64 10.00 295.03 3004.80
   00:18:52.934.01-Feb-2020 3989.40 3222.16 86.64 10.00 295.23 3004.80
   00:18:53.134.01-Feb-2020 3989.40 3222.11 86.64 10.00 295.43 3004.80
   00:18:53.334.01-Feb-2020 3989.40 3222.14 86.64 10.00 295.63 3004.80
   00:18:53.534.01-Feb-2020 3989.40 3222.21 86.64 10.00 295.83 3004.80
   00:18:53.734.01-Feb-2020 3989.40 3222.28 86.64 10.00 296.03 3004.80
   00:18:53.934.01-Feb-2020 3989.40 3222.28 86.64 10.00 296.23 3004.80
   00:18:54.134.01-Feb-2020 3989.40 3222.16 86.64 10.00 296.43 3004.80
   00:18:54.334.01-Feb-2020 3989.40 3222.19 86.64 10.00 296.63 3004.80
   00:18:54.534.01-Feb-2020 3989.40 3222.25 86.64 10.00 296.83 3004.80
   00:18:54.734.01-Feb-2020 3989.40 3222.37 86.64 10.00 297.03 3004.80
   00:18:54.934.01-Feb-2020 3989.40 3222.37 86.64 10.00 297.23 3004.80
   00:18:55.134.01-Feb-2020 3989.40 3222.13 86.64 10.00 297.43 3004.80
   00:18:55.334.01-Feb-2020 3989.40 3222.28 86.64 10.00 297.63 3004.80
   00:18:55.534.01-Feb-2020 3989.40 3222.23 86.63 10.00 297.83 3004.80
   00:18:55.734.01-Feb-2020 3989.40 3222.31 86.63 10.00 298.03 3004.80
   00:18:55.934.01-Feb-2020 3989.40 3222.31 86.63 10.00 298.23 3004.80
   00:18:56.134.01-Feb-2020 3989.40 3222.27 86.63 10.00 298.43 3004.80
   00:18:56.334.01-Feb-2020 3989.40 3222.24 86.63 10.00 298.63 3004.80
   00:18:56.534.01-Feb-2020 3989.40 3222.25 86.63 10.00 298.83 3004.80
   00:18:56.734.01-Feb-2020 3989.40 3222.33 86.63 10.00 299.03 3004.80
   00:18:56.934.01-Feb-2020 3989.40 3222.33 86.63 10.00 299.23 3004.80
   00:18:57.134.01-Feb-2020 3989.40 3222.38 86.63 10.00 299.43 3004.80
   00:18:57.334.01-Feb-2020 3989.40 3222.48 86.63 10.00 299.63 3004.80
   00:18:57.534.01-Feb-2020 3989.40 3222.10 86.63 10.00 299.83 3004.80
   00:18:57.734.01-Feb-2020 3989.40 3222.27 86.63 10.00 300.03 3004.80
   00:18:57.934.01-Feb-2020 3989.40 3222.27 86.63 10.00 300.23 3004.80
   00:18:58.134.01-Feb-2020 3989.40 3222.55 86.63 10.00 300.43 3004.80
   00:18:58.334.01-Feb-2020 3989.40 3222.52 86.63 10.00 300.63 3004.80
   00:18:58.534.01-Feb-2020 3989.40 3222.55 86.63 10.00 300.83 3004.80
   00:18:58.734.01-Feb-2020 3989.40 3222.53 86.63 10.00 301.03 3004.80
   00:18:58.934.01-Feb-2020 3989.40 3222.53 86.63 10.00 301.23 3004.80
   00:18:59.134.01-Feb-2020 3989.40 3222.50 86.62 10.00 301.43 3004.80
   00:18:59.334.01-Feb-2020 3989.40 3222.53 86.62 10.00 301.63 3004.80
   00:18:59.534.01-Feb-2020 3989.40 3222.54 86.62 10.00 301.83 3004.80
   00:18:59.734.01-Feb-2020 3989.40 3222.57 86.62 10.00 302.03 3004.80
   00:18:59.934.01-Feb-2020 3989.40 3222.57 86.62 10.00 302.23 3004.80
   00:19:00.134.01-Feb-2020 3989.40 3222.55 86.62 10.00 302.43 3004.80
   00:19:00.335.01-Feb-2020 3989.40 3222.53 86.62 10.00 302.63 3004.80
   00:19:00.535.01-Feb-2020 3989.40 3222.59 86.62 10.00 302.83 3004.80
   00:19:00.735.01-Feb-2020 3989.40 3222.60 86.62 10.00 303.03 3004.80
   00:19:00.935.01-Feb-2020 3989.40 3222.60 86.62 10.00 303.23 3004.80
   00:19:01.135.01-Feb-2020 3989.40 3222.53 86.62 10.00 303.43 3004.80
   00:19:01.335.01-Feb-2020 3989.40 3222.45 86.62 10.00 303.63 3004.80
   00:19:01.535.01-Feb-2020 3989.40 3222.48 86.62 10.00 303.83 3004.80
   00:19:01.735.01-Feb-2020 3989.40 3222.52 86.62 10.00 304.03 3004.80
   00:19:01.935.01-Feb-2020 3989.40 3222.52 86.62 10.00 304.23 3004.80
   00:19:02.135.01-Feb-2020 3989.40 3222.64 86.62 10.00 304.43 3004.80
   00:19:02.335.01-Feb-2020 3989.40 3222.60 86.62 10.00 304.63 3004.80
   00:19:02.535.01-Feb-2020 3989.40 3222.68 86.61 10.00 304.83 3004.80
   00:19:02.735.01-Feb-2020 3989.40 3222.71 86.61 10.00 305.03 3004.80
   00:19:02.935.01-Feb-2020 3989.40 3222.71 86.61 10.00 305.23 3004.80
   00:19:03.135.01-Feb-2020 3989.40 3222.72 86.61 10.00 305.43 3004.80
   00:19:03.335.01-Feb-2020 3989.40 3222.68 86.61 10.00 305.63 3004.80
   00:19:03.535.01-Feb-2020 3989.40 3222.70 86.61 10.00 305.83 3004.80
   00:19:03.735.01-Feb-2020 3989.40 3222.74 86.61 10.00 306.03 3004.80
   00:19:03.935.01-Feb-2020 3989.40 3222.74 86.61 10.00 306.23 3004.80
   00:19:04.135.01-Feb-2020 3989.40 3222.73 86.61 10.00 306.43 3004.80
   00:19:04.335.01-Feb-2020 3989.40 3222.89 86.61 10.00 306.63 3004.80
   00:19:04.535.01-Feb-2020 3989.40 3222.48 86.61 10.00 306.83 3004.80
   00:19:04.735.01-Feb-2020 3989.40 3222.69 86.61 10.00 307.03 3004.80
   00:19:04.935.01-Feb-2020 3989.40 3222.69 86.61 10.00 307.23 3004.80
   00:19:05.135.01-Feb-2020 3989.40 3222.76 86.61 10.00 307.43 3004.80
   00:19:05.335.01-Feb-2020 3989.40 3222.97 86.61 10.00 307.63 3004.80
   00:19:05.535.01-Feb-2020 3989.40 3222.58 86.61 10.00 307.83 3004.80
   00:19:05.735.01-Feb-2020 3989.40 3222.73 86.61 10.00 308.03 3004.80
   00:19:05.935.01-Feb-2020 3989.40 3222.73 86.61 10.00 308.23 3004.80
   00:19:06.135.01-Feb-2020 3989.40 3222.90 86.60 10.00 308.43 3004.80
   00:19:06.335.01-Feb-2020 3989.40 3222.94 86.60 10.00 308.63 3004.80
   00:19:06.535.01-Feb-2020 3989.40 3223.10 86.60 10.00 308.83 3004.80
   00:19:06.735.01-Feb-2020 3989.40 3222.64 86.60 10.00 309.03 3004.80
   00:19:06.935.01-Feb-2020 3989.40 3222.64 86.60 10.00 309.23 3004.80
   00:19:07.135.01-Feb-2020 3989.40 3222.94 86.60 10.00 309.43 3004.80
   00:19:07.335.01-Feb-2020 3989.40 3222.87 86.60 10.00 309.63 3004.80
   00:19:07.535.01-Feb-2020 3989.40 3222.98 86.60 10.00 309.83 3004.80
   00:19:07.735.01-Feb-2020 3989.40 3223.03 86.60 10.00 310.03 3004.80
   00:19:07.935.01-Feb-2020 3989.40 3223.03 86.60 10.00 310.23 3004.80
   00:19:08.135.01-Feb-2020 3989.40 3222.87 86.60 10.00 310.43 3004.80
   00:19:08.335.01-Feb-2020 3989.40 3222.88 86.60 10.00 310.63 3004.80
   00:19:08.535.01-Feb-2020 3989.40 3222.99 86.60 10.00 310.83 3004.80
   00:19:08.735.01-Feb-2020 3989.40 3223.08 86.60 10.00 311.03 3004.80
   00:19:08.935.01-Feb-2020 3989.40 3223.08 86.60 10.00 311.23 3004.80
   00:19:09.135.01-Feb-2020 3989.40 3222.84 86.60 10.00 311.43 3004.80
   00:19:09.335.01-Feb-2020 3989.40 3222.98 86.60 10.00 311.63 3004.80
   00:19:09.535.01-Feb-2020 3989.40 3222.86 86.59 10.00 311.83 3004.80
   00:19:09.735.01-Feb-2020 3989.40 3223.13 86.59 10.00 312.03 3004.80
   00:19:09.935.01-Feb-2020 3989.40 3223.13 86.59 10.00 312.23 3004.80
   00:19:10.135.01-Feb-2020 3989.40 3223.09 86.59 10.00 312.43 3004.80
   00:19:10.335.01-Feb-2020 3989.40 3223.16 86.59 10.00 312.63 3004.80
   00:19:10.535.01-Feb-2020 3989.40 3223.09 86.59 10.00 312.83 3004.80
   00:19:10.735.01-Feb-2020 3989.40 3223.09 86.59 10.00 313.03 3004.80
   00:19:10.935.01-Feb-2020 3989.40 3223.09 86.59 10.00 313.23 3004.80
   00:19:11.135.01-Feb-2020 3989.40 3223.12 86.59 10.00 313.43 3004.80
   00:19:11.335.01-Feb-2020 3989.40 3223.14 86.59 10.00 313.63 3004.80
   00:19:11.535.01-Feb-2020 3989.40 3223.16 86.59 10.00 313.83 3004.80
   00:19:11.736.01-Feb-2020 3989.40 3223.06 86.59 10.00 314.03 3004.80
   00:19:11.936.01-Feb-2020 3989.40 3223.06 86.59 10.00 314.23 3004.80
   00:19:12.136.01-Feb-2020 3989.40 3223.12 86.59 10.00 314.43 3004.80
   00:19:12.336.01-Feb-2020 3989.40 3223.12 86.59 10.00 314.63 3004.80
   00:19:12.536.01-Feb-2020 3989.40 3223.21 86.59 10.00 314.83 3004.80
   00:19:12.736.01-Feb-2020 3989.40 3223.18 86.59 10.00 315.03 3004.80
   00:19:12.936.01-Feb-2020 3989.40 3223.18 86.59 10.00 315.23 3004.80
   00:19:13.136.01-Feb-2020 3989.40 3223.04 86.58 10.00 315.43 3004.80
   00:19:13.336.01-Feb-2020 3989.40 3223.07 86.58 10.00 315.63 3004.80
   00:19:13.536.01-Feb-2020 3989.40 3223.18 86.58 10.00 315.83 3004.80
   00:19:13.736.01-Feb-2020 3989.40 3223.24 86.58 10.00 316.03 3004.80
   00:19:13.936.01-Feb-2020 3989.40 3223.24 86.58 10.00 316.23 3004.80
