~Version Information
 VERS.                  2.0:   CWLS log ASCII Standard -VERSION 2.0
 WRAP.                   NO:   One line per depth step
~Well Information Block
#MNEM.UNIT     VALUE/NAME     DESCRIPTION
#---------     -----------    ---------------------------
 STRT.S             00:13:57 01-Feb-20: START TIME 00:13:57 01-Feb-20
 STOP.S             00:20:28 01-Feb-20: STOP TIME  00:20:28 01-Feb-20
 STEP.S                   0.00: STEP TIME
 NULL.                 -999.25: NULL VALUE
 DFWT.                        :  DIST FWL TEXT
 DFST.                        :  DIST FSL TEXT
 DMF .             Drill Floor:  DRILL MEAS FROM
 STIM.      09.30.00 26-Dec-19:  START TIME
 DATE.      08.00.00 20-Jan-20:  END TIME
 SPUD.               23-Nov-19:  SPUD DATE
 NREF.                    Grid:  NORTH REFERENCE
 HPTY.       Minimum Curvature:  HOLE POS TYPE
 DMOD.             Drill Model:  DRILL MOD DESC
 SVYD.                  Survey:  SURVEY DESC
 ILTD.               Lithology:  INTERP LTH DESC
 FTOP.          Formation Tops:  FORM TOPS DESC
 SON .        AZ-XX-0906192647:  JOB NUMBER
 WTYP.                Deviated:  WELL TYPE
 COMP.     BP Exploration (Caspian Sea) Ltd:  COMPANY
 BASE.              Azerbaijan:  LOGGING EQUIPMENT BASE LOCATION
 REGN.                 Eurasia:  REGION
 FLD .                     ACG:  FIELD NAME
 SRVC.              KCA Deutag:  CONTRACTOR
 MWDS.                    Baku:  MWD SHOP
 WELL.     A10 (Slot 20) - SCP:  WELL NAME
 JOBN.        AZ-XX-0906192647:  JOB TICKET NUMB
 RIG .                 Chirag1:  RIG NAME
 DCON.     Halliburton Sperry Drilling:  DIRECTNL CONTR
 UNIT.                     N/A:  LOGGING EQUIPMENT ID
 PDAT.          Mean Sea Level:  PERMANENT DATUM
 MDS .        Operator Entered:  MAG DATA SOURCE
 CTRY.              Azerbaijan:  COUNTRY NAME
 UWI .            /AZE00000090:  UNIQUE WELL IDENTIFIER
 API .            /AZE00000090:  API NUMBER
 CNTY.                        :  COUNTY
 PROV.                        :  PROVINCE
 STAT.                        :  STATE
 LOC .                        :  LOCATION
 LMF .             Drill Floor:  LOG MEASURED FROM
 TVDS.m                  36.60:  TVDSS CORRECTN
 LATI.deg                40.08:  LATITUDE
 LONG.deg                51.24:  LONGITUDE
 WHNS.m                  -7.94:  WELL HEAD N/S
 WHEW.m                   1.56:  WELL HEAD E/W
 UTMX.m              520429.26:  UTM X
 UTMY.m             4438973.87:  UTM Y
 DFWL.m                   0.00:  DISTANCE FWL
 DFSL.m                   0.00:  DISTANCE FSL
 SDEP.m                1455.00:  START DEPTH
 TDD .m                4047.51:  TOTAL DEPTH (DRILLER)
 VSDR.deg               112.75:  VERT SEC DIRECT
 GVFD.g                   1.00:  GRAVITY FIELD
 MFLD.nT              50261.00:  MAGNETIC FIELD
 MDIP.deg                59.52:  MAGNETIC DIP
 MDEC.deg                 6.42:  MAGNETIC DECL
 GRDC.deg                 0.17:  GRID CORRECTION
 AZTC.deg                 6.25:  AZM TOTAL CORR
 EPD .m                   0.00:  ELEVATION
 EGL .m                   0.00:  GROUND ELEVATION
 WDMS.m                 121.00:  WD ELEV
 APD .m                  36.60:  DEPTH ABOVE PD
 AGAP.m                  36.60:  AIR GAP
 VSEW.m                   1.56:  VERT SEC E/W
 VSNS.m                  -7.94:  VERT SEC N/S
 DEP .m                1140.01:  DEPTH
 EKB .m                  36.60:  KB ELEVATION
 EDF .m                  36.60:  DF ELEVATION
 TDL .m                 169.50:  TOTAL DEPTH (LOGGER)
 CSGD.m                3875.01:  CASING BOTTOM (DRILLER)
 CSGL.m                3875.01:  CASING BOTTOM (LOGGER)
 CSGS.in                  7.63:  CASING SIZE
 CSGW.lbpf               23.50:  CASING WEIGHT
 VSC .                       0:  VS TO CLOSURE
 MAGU.                 1849206:  MAGUTM CHECKSUM
~Parameter Information Block
#MNEM.UNIT       Value        Description
#---------     -----------    ---------------------------
 AV  .mps                 1.90:  Ann Velocity 
 AVMX.mps                 2.54:  Max Ann Veloc 
 AZIF.deg               137.03:  Azm, Final 
 BHAT.        Rotary Steerable:  BHA Type 
 BREV.rev             23610.00:  Rev Bit Total 
 BROT.°/30m               0.80:  Build Rotating 
 BS  .in                  6.50:  Bit Size 
 BTPL.psig              110.00:  Bit Press Loss 
 CABU.                     Yes:  Customer Abuse 
 TCS .hr                 70.51:  Time Ciculation Ended 
 CV  .mps                 1.41:  Crit Velocity 
 CVMX.mps                 1.42:  Max Crit Veloc 
 DD1 .         Intigam Rahimov:  Direct Drillr 1 
 DD2 .          Rashad Gojayev:  Direct Drillr 2 
 DDSV.               Geo-Pilot:  DD Service 
 DEFF.%                 100.00:  % Det Eff 
 DLRX.°/30m               1.44:  Dogleg Rot Max 
 DLSO.°/30m               0.00:  Dogleg Oriented 
 DLSX.°/30m               0.00:  Dogleg Str Max 
 DRET.      03.05.00 01-Feb-20:  Drill End Time 
 DRST.      15.50.00 28-Jan-20:  Drill Start Tim 
 DTIM.hr                 24.70:  Time Drilling 
 EDEP.m                4047.51:  End Depth 
 ENG1.           Eldar Hajiyev:  Engineer 1 
 ENG2.          Rasim Hashimov:  Engineer 2 
 ENG3.          Rustam Safarov:  Engineer 3 
 ETIM.      22.00.00 01-Feb-20:  End Time 
 FLOI.gpm               370.00:  Flow In 
 FLON.gpm               300.00:  Flow In Min 
 FLOS.cptm                0.00:  Fluid Loss 
 FLOX.gpm               400.00:  Flow In Max 
 FTRO.       Formation Presure:  FTWD Run Obj 
 HFLO.                      No:  High Flow 
 HPRE.                      No:  High Pressure 
 HTEM.                      No:  High Temp 
 HYDO.m                   2.50:  Hydro Offset 
 IFIN.deg                39.54:  Inc, Final 
 IMAX.deg                41.14:  Inc Max 
 IMIN.deg                39.81:  Inc Min 
 IMND.m                4005.21:  Inc Min Depth 
 IMXD.m                3948.42:  Inc Max Depth 
 JARR.                      No:  Jarring 
 LETM.      03.05.00 01-Feb-20:  Log End Time 
 LOST.hr                     0:  Lost Rig Time 
 LSTM.      15.50.00 28-Jan-20:  Log Start Time 
 MDCL.ppm             37500.00:  Mud Chlorides 
 MDES.     Inversion Oil/Synthetic:  Mud Desc 
 DFD .sg                  1.32:  Mud Density 
 MDMN.sg                  1.32:  Dens Mud Min 
 MDMX.sg                  1.32:  Dens Mud Max 
 MOIL.                      55:  Run Mud Oil % 
 MOWR.                   70:30:  Run Mud OWR 
 MSND.                       0:  Run Mud Sand % 
 MSOL.                      17:  Run Mud Solids% 
 DFV .spqt               80.00:  Mud Viscosity 
 MWOD.in                  4.75:  MWD Tool OD 
 MWSI.                      No:  Serv Intrp, MWD 
 OTIM.hr                121.28:  Time Operating 
 PCON.           Look Like New:  Pad Condition 
 PMAX.psia             6171.00:  Press Op, Max 
 PV  .cP                 30.00:  Mud PV 
 RUN .                     300:  Run Number 
 ROPA.m/hr                5.45:  ROP Avg 
 ROPN.m/hr                3.00:  ROP Min 
 ROPX.m/hr               15.00:  ROP Max 
 RPMA.rpm               130.00:  RPM Surface Avg 
 RPMN.rpm                80.00:  RPM Surface Min 
 RPMX.rpm               140.00:  RPM Surface Max 
 RRUN.                     300:  Rig Run Number 
 RTIM.hr                 13.50:  Time Reaming 
 SAZI.deg               133.93:  Azm, Start 
 SDEP.m                3878.01:  Start Depth 
 SIDD.                      No:  Serv Intrp, DD 
 SINC.deg                40.28:  Inc, Start 
 SPPA.psig             4983.00:  SPP Avg 
 SPPN.psig             4370.00:  SPP Min 
 SPPX.psig             5300.00:  SPP Max 
 STIM.      18.33.36 27-Jan-20:  Start Time 
 SVCS.                 DD, MWD:  Services 
 SVER.                    9.20:  Sperry Version 
 TDAT.m                 169.50:  Tot Depth Attmp 
 TDDF.                      No:  Trip for DD 
 TDLG.m                 169.50:  Tot Depth Loggd 
 TFF .                      No:  Trip for Fail 
 TQAA.f-kp               13.25:  Torque Abs Avg 
 TQAN.f-kp               12.00:  Torque Abs Min 
 TQAX.f-kp               14.00:  Torque Abs Max 
 TRRT.°/30m               0.70:  Turn Rotating 
 MRT .                     ADR:  Maximum Recorded Temperature 
 TTMX.degC               92.16:  Max Tool Temp 
 VS01.       AZ90598764G12V7D4:  Virtual Str1 SN 
 VS02.         AZ90571342R12C4:  Virtual Str2 SN 
 VS03.      AZ90580010N2L2X1C4:  Virtual Str3 SN 
 VS04.        AZ90522266O7X1C4:  Virtual Str4 SN 
 VS05.           AZ90598768F11:  Virtual Str5 SN 
 VS06.     AZ90580006XZ1W1X1C4:  Virtual Str6 SN 
 WBMN.klb                 8.00:  WOB Min 
 WITN.            Peter Wilson:  Customer Rep 
 WOBA.klb                 9.88:  WOB Avg 
 WOBX.klb                10.00:  WOB Max 
 YP  .lhf2               27.00:  Yield Point 
~Curve Information Block
#MNEM.UNIT                 API CODE     Curve Description
#---------               -----------    ---------------------------
 TIME.HHMMSS            00 000 000 000:  GT Time & Date
 GTDEPTH.m              00 000 000 000:  GT Depth
 GTPQH.psia             00 000 000 000:  GT HR Quartz Pressure
 GTTQ.degC              00 000 000 000:  GT Quartz Temperature
 GTTN.NONE              00 000 000 000:  GT Test Number
 GTET.sec               00 000 000 000:  GT Elapsed Test Time
 GTTVD.m                00 000 000 000:  GT True Vertical Depth
#Other Information
#
#WARRANTY: Halliburton will use its best efforts to furnish customers with 
#accurate information and interpretations that are part of, and incident to, the services 
#provided.  However, Halliburton cannot and does not warrant the accuracy 
#or correctness of such information and interpretations.  Under no circumstances should any 
#such information or interpretation be relied upon as the sole basis for any drilling, 
#completion, production, or financial decision or any procedure involving any risk to the 
#safety of any drilling venture, drilling rig or its crew or any other third party.  The 
#Customer has full responsibility for all drilling, completion and production operation.  
#Halliburton makes no representations or warranties, either expressed or 
#implied, including, but not limited to, the implied warranties of merchantability or fitness 
#for a particular purpose, with respect to the services rendered.  In no event will 
#Halliburton be liable for failure to obtain any particular results or for 
#any damages, including, but not limited to, indirect, special or consequential damages, 
#resulting from the use of any information or interpretation provided by Halliburton.
#
~A           TIME           GTDEPTH  GTPQH  GTTQ  GTTN   GTET   GTTVD  
# ...
   00:19:36.738.01-Feb-2020 3989.40 3223.71 86.52 10.00 339.03 3004.80
   00:19:36.938.01-Feb-2020 3989.40 3223.71 86.52 10.00 339.23 3004.80
   00:19:37.138.01-Feb-2020 3989.40 3223.93 86.52 10.00 339.43 3004.80
   00:19:37.338.01-Feb-2020 3989.40 3223.91 86.52 10.00 339.63 3004.80
   00:19:37.538.01-Feb-2020 3989.40 3223.96 86.51 10.00 339.83 3004.80
   00:19:37.738.01-Feb-2020 3989.40 3223.93 86.51 10.00 340.03 3004.80
   00:19:37.938.01-Feb-2020 3989.40 3223.93 86.51 10.00 340.23 3004.80
   00:19:38.138.01-Feb-2020 3989.40 3223.95 86.51 10.00 340.43 3004.80
   00:19:38.338.01-Feb-2020 3989.40 3223.92 86.51 10.00 340.63 3004.80
   00:19:38.538.01-Feb-2020 3989.40 3223.93 86.51 10.00 340.83 3004.80
   00:19:38.738.01-Feb-2020 3989.40 3223.99 86.51 10.00 341.03 3004.80
   00:19:38.938.01-Feb-2020 3989.40 3223.99 86.51 10.00 341.23 3004.80
   00:19:39.138.01-Feb-2020 3989.40 3223.92 86.51 10.00 341.43 3004.80
   00:19:39.338.01-Feb-2020 3989.40 3223.89 86.51 10.00 341.63 3004.80
   00:19:39.538.01-Feb-2020 3989.40 3223.87 86.51 10.00 341.83 3004.80
   00:19:39.738.01-Feb-2020 3989.40 3223.95 86.51 10.00 342.03 3004.80
   00:19:39.938.01-Feb-2020 3989.40 3223.95 86.51 10.00 342.23 3004.80
   00:19:40.138.01-Feb-2020 3989.40 3223.84 86.51 10.00 342.43 3004.80
   00:19:40.338.01-Feb-2020 3989.40 3223.94 86.51 10.00 342.63 3004.80
   00:19:40.538.01-Feb-2020 3989.40 3223.91 86.51 10.00 342.83 3004.80
   00:19:40.738.01-Feb-2020 3989.40 3223.84 86.51 10.00 343.03 3004.80
   00:19:40.938.01-Feb-2020 3989.40 3223.84 86.51 10.00 343.23 3004.80
   00:19:41.138.01-Feb-2020 3989.40 3223.82 86.50 10.00 343.43 3004.80
   00:19:41.338.01-Feb-2020 3989.40 3223.94 86.50 10.00 343.63 3004.80
   00:19:41.538.01-Feb-2020 3989.40 3224.00 86.50 10.00 343.83 3004.80
   00:19:41.738.01-Feb-2020 3989.40 3224.03 86.50 10.00 344.03 3004.80
   00:19:41.938.01-Feb-2020 3989.40 3224.03 86.50 10.00 344.23 3004.80
   00:19:42.138.01-Feb-2020 3989.40 3223.76 86.50 10.00 344.43 3004.80
   00:19:42.338.01-Feb-2020 3989.40 3223.86 86.50 10.00 344.63 3004.80
   00:19:42.538.01-Feb-2020 3989.40 3223.93 86.50 10.00 344.83 3004.80
   00:19:42.738.01-Feb-2020 3989.40 3224.00 86.50 10.00 345.03 3004.80
   00:19:42.938.01-Feb-2020 3989.40 3224.00 86.50 10.00 345.23 3004.80
   00:19:43.138.01-Feb-2020 3989.40 3223.95 86.50 10.00 345.43 3004.80
   00:19:43.338.01-Feb-2020 3989.40 3223.88 86.50 10.00 345.63 3004.80
   00:19:43.538.01-Feb-2020 3989.40 3223.90 86.50 10.00 345.83 3004.80
   00:19:43.738.01-Feb-2020 3989.40 3224.04 86.50 10.00 346.03 3004.80
   00:19:43.938.01-Feb-2020 3989.40 3224.04 86.50 10.00 346.23 3004.80
   00:19:44.138.01-Feb-2020 3989.40 3224.07 86.50 10.00 346.43 3004.80
   00:19:44.338.01-Feb-2020 3989.40 3224.06 86.50 10.00 346.63 3004.80
   00:19:44.538.01-Feb-2020 3989.40 3224.16 86.50 10.00 346.83 3004.80
   00:19:44.738.01-Feb-2020 3989.40 3223.66 86.49 10.00 347.03 3004.80
   00:19:44.938.01-Feb-2020 3989.40 3223.66 86.49 10.00 347.23 3004.80
   00:19:45.138.01-Feb-2020 3989.40 3224.03 86.49 10.00 347.43 3004.80
   00:19:45.338.01-Feb-2020 3989.40 3224.04 86.49 10.00 347.63 3004.80
   00:19:45.538.01-Feb-2020 3989.40 3219.72 86.49 10.00 347.83 3004.80
   00:19:45.738.01-Feb-2020 3989.40 3212.47 86.49 10.00 348.03 3004.80
   00:19:45.939.01-Feb-2020 3989.40 3212.47 86.49 10.00 348.23 3004.80
   00:19:46.139.01-Feb-2020 3989.40 6007.93 86.49 10.00 348.43 3004.80
   00:19:46.339.01-Feb-2020 3989.40 6009.23 86.49 10.00 348.63 3004.80
   00:19:46.539.01-Feb-2020 3989.40 6009.69 86.49 10.00 348.83 3004.80
   00:19:46.739.01-Feb-2020 3989.40 6010.15 86.49 10.00 349.03 3004.80
   00:19:46.939.01-Feb-2020 3989.40 6010.15 86.49 10.00 349.23 3004.80
   00:19:47.139.01-Feb-2020 3989.40 6011.56 86.49 10.00 349.43 3004.80
   00:19:47.339.01-Feb-2020 3989.40 6010.26 86.49 10.00 349.63 3004.80
   00:19:47.539.01-Feb-2020 3989.40 6010.51 86.49 10.00 349.83 3004.80
   00:19:47.739.01-Feb-2020 3989.40 6014.71 86.49 10.00 350.03 3004.80
   00:19:47.939.01-Feb-2020 3989.40 6014.71 86.49 10.00 350.23 3004.80
   00:19:48.139.01-Feb-2020 3989.40 6015.34 86.49 10.00 350.43 3004.80
   00:19:48.339.01-Feb-2020 3989.40 6012.48 86.49 10.00 350.63 3004.80
   00:19:48.539.01-Feb-2020 3989.40 6014.06 86.49 10.00 350.83 3004.80
   00:19:48.739.01-Feb-2020 3989.40 6014.51 86.49 10.00 351.03 3004.80
   00:19:48.939.01-Feb-2020 3989.40 6014.51 86.49 10.00 351.23 3004.80
   00:19:49.139.01-Feb-2020 3989.40 6016.45 86.49 10.00 351.43 3004.80
   00:19:49.339.01-Feb-2020 3989.40 6019.25 86.49 10.00 351.63 3004.80
   00:19:49.539.01-Feb-2020 3989.40 6018.06 86.49 10.00 351.83 3004.80
   00:19:49.739.01-Feb-2020 3989.40 6017.67 86.49 10.00 352.03 3004.80
   00:19:49.939.01-Feb-2020 3989.40 6017.67 86.49 10.00 352.23 3004.80
   00:19:50.139.01-Feb-2020 3989.40 6016.75 86.49 10.00 352.43 3004.80
   00:19:50.339.01-Feb-2020 3989.40 6017.37 86.49 10.00 352.63 3004.80
   00:19:50.539.01-Feb-2020 3989.40 6018.91 86.49 10.00 352.83 3004.80
   00:19:50.739.01-Feb-2020 3989.40 6016.61 86.49 10.00 353.03 3004.80
   00:19:50.939.01-Feb-2020 3989.40 6016.61 86.49 10.00 353.23 3004.80
   00:19:51.139.01-Feb-2020 3989.40 6017.24 86.49 10.00 353.43 3004.80
   00:19:51.339.01-Feb-2020 3989.40 6016.58 86.49 10.00 353.63 3004.80
   00:19:51.539.01-Feb-2020 3989.40 6019.63 86.49 10.00 353.83 3004.80
   00:19:51.739.01-Feb-2020 3989.40 6012.18 86.49 10.00 354.03 3004.80
   00:19:51.939.01-Feb-2020 3989.40 6012.18 86.49 10.00 354.23 3004.80
   00:19:52.139.01-Feb-2020 3989.40 6018.89 86.49 10.00 354.43 3004.80
   00:19:52.339.01-Feb-2020 3989.40 6016.81 86.49 10.00 354.63 3004.80
   00:19:52.539.01-Feb-2020 3989.40 6017.52 86.49 10.00 354.83 3004.80
   00:19:52.739.01-Feb-2020 3989.40 6012.25 86.49 10.00 355.03 3004.80
   00:19:52.939.01-Feb-2020 3989.40 6012.25 86.49 10.00 355.23 3004.80
   00:19:53.139.01-Feb-2020 3989.40 6017.60 86.49 10.00 355.43 3004.80
   00:19:53.339.01-Feb-2020 3989.40 6018.77 86.49 10.00 355.63 3004.80
   00:19:53.539.01-Feb-2020 3989.40 6018.35 86.49 10.00 355.83 3004.80
   00:19:53.739.01-Feb-2020 3989.40 6020.50 86.49 10.00 356.03 3004.80
   00:19:53.939.01-Feb-2020 3989.40 6020.50 86.49 10.00 356.23 3004.80
   00:19:54.139.01-Feb-2020 3989.40 6017.49 86.49 10.00 356.43 3004.80
   00:19:54.339.01-Feb-2020 3989.40 6017.94 86.49 10.00 356.63 3004.80
   00:19:54.539.01-Feb-2020 3989.40 6017.01 86.49 10.00 356.83 3004.80
   00:19:54.739.01-Feb-2020 3989.40 6019.12 86.49 10.00 357.03 3004.80
   00:19:54.939.01-Feb-2020 3989.40 6019.12 86.49 10.00 357.23 3004.80
   00:19:55.139.01-Feb-2020 3989.40 6010.61 86.49 10.00 357.43 3004.80
   00:19:55.339.01-Feb-2020 3989.40 6016.19 86.49 10.00 357.63 3004.80
   00:19:55.539.01-Feb-2020 3989.40 6016.75 86.49 10.00 357.83 3004.80
   00:19:55.739.01-Feb-2020 3989.40 6017.02 86.49 10.00 358.03 3004.80
   00:19:55.939.01-Feb-2020 3989.40 6017.02 86.49 10.00 358.23 3004.80
   00:19:56.139.01-Feb-2020 3989.40 6017.84 86.49 10.00 358.43 3004.80
   00:19:56.339.01-Feb-2020 3989.40 6017.62 86.49 10.00 358.63 3004.80
   00:19:56.539.01-Feb-2020 3989.40 6014.14 86.49 10.00 358.83 3004.80
   00:19:56.739.01-Feb-2020 3989.40 6014.72 86.49 10.00 359.03 3004.80
   00:19:56.939.01-Feb-2020 3989.40 6014.72 86.49 10.00 359.23 3004.80
   00:19:57.139.01-Feb-2020 3989.40 6019.76 86.49 10.00 359.43 3004.80
   00:19:57.340.01-Feb-2020 3989.40 6017.49 86.49 10.00 359.63 3004.80
   00:19:57.540.01-Feb-2020 3989.40 6019.13 86.49 10.00 359.83 3004.80
   00:19:57.740.01-Feb-2020 3989.40 6018.22 86.49 10.00 360.03 3004.80
   00:19:57.940.01-Feb-2020 3989.40 6018.22 86.49 10.00 360.23 3004.80
   00:19:58.140.01-Feb-2020 3989.40 6019.23 86.49 10.00 360.43 3004.80
   00:19:58.340.01-Feb-2020 3989.40 6018.69 86.49 10.00 360.63 3004.80
   00:19:58.540.01-Feb-2020 3989.40 6017.76 86.49 10.00 360.83 3004.80
   00:19:58.740.01-Feb-2020 3989.40 6019.32 86.49 10.00 361.03 3004.80
   00:19:58.940.01-Feb-2020 3989.40 6019.32 86.49 10.00 361.23 3004.80
   00:19:59.140.01-Feb-2020 3989.40 6017.68 86.49 10.00 361.43 3004.80
