~Version Information
 VERS.                  2.0:   CWLS log ASCII Standard -VERSION 2.0
 WRAP.                   NO:   One line per depth step
~Well Information Block
#MNEM.UNIT     VALUE/NAME     DESCRIPTION
#---------     -----------    ---------------------------
 STRT.S             09:13:27 31-Jan-20: START TIME 09:13:27 31-Jan-20
 STOP.S             09:19:57 31-Jan-20: STOP TIME  09:19:57 31-Jan-20
 STEP.S                   0.00: STEP TIME
 NULL.                 -999.25: NULL VALUE
 DFWT.                        :  DIST FWL TEXT
 DFST.                        :  DIST FSL TEXT
 DMF .             Drill Floor:  DRILL MEAS FROM
 STIM.      09.30.00 26-Dec-19:  START TIME
 DATE.      08.00.00 20-Jan-20:  END TIME
 SPUD.               23-Nov-19:  SPUD DATE
 NREF.                    Grid:  NORTH REFERENCE
 HPTY.       Minimum Curvature:  HOLE POS TYPE
 DMOD.             Drill Model:  DRILL MOD DESC
 SVYD.                  Survey:  SURVEY DESC
 ILTD.               Lithology:  INTERP LTH DESC
 FTOP.          Formation Tops:  FORM TOPS DESC
 SON .        AZ-XX-0906192647:  JOB NUMBER
 WTYP.                Deviated:  WELL TYPE
 COMP.     BP Exploration (Caspian Sea) Ltd:  COMPANY
 BASE.              Azerbaijan:  LOGGING EQUIPMENT BASE LOCATION
 REGN.                 Eurasia:  REGION
 FLD .                     ACG:  FIELD NAME
 SRVC.              KCA Deutag:  CONTRACTOR
 MWDS.                    Baku:  MWD SHOP
 WELL.     A10 (Slot 20) - SCP:  WELL NAME
 JOBN.        AZ-XX-0906192647:  JOB TICKET NUMB
 RIG .                 Chirag1:  RIG NAME
 DCON.     Halliburton Sperry Drilling:  DIRECTNL CONTR
 UNIT.                     N/A:  LOGGING EQUIPMENT ID
 PDAT.          Mean Sea Level:  PERMANENT DATUM
 MDS .        Operator Entered:  MAG DATA SOURCE
 CTRY.              Azerbaijan:  COUNTRY NAME
 UWI .            /AZE00000090:  UNIQUE WELL IDENTIFIER
 API .            /AZE00000090:  API NUMBER
 CNTY.                        :  COUNTY
 PROV.                        :  PROVINCE
 STAT.                        :  STATE
 LOC .                        :  LOCATION
 LMF .             Drill Floor:  LOG MEASURED FROM
 TVDS.m                  36.60:  TVDSS CORRECTN
 LATI.deg                40.08:  LATITUDE
 LONG.deg                51.24:  LONGITUDE
 WHNS.m                  -7.94:  WELL HEAD N/S
 WHEW.m                   1.56:  WELL HEAD E/W
 UTMX.m              520429.26:  UTM X
 UTMY.m             4438973.87:  UTM Y
 DFWL.m                   0.00:  DISTANCE FWL
 DFSL.m                   0.00:  DISTANCE FSL
 SDEP.m                1455.00:  START DEPTH
 TDD .m                4047.51:  TOTAL DEPTH (DRILLER)
 VSDR.deg               112.75:  VERT SEC DIRECT
 GVFD.g                   1.00:  GRAVITY FIELD
 MFLD.nT              50261.00:  MAGNETIC FIELD
 MDIP.deg                59.52:  MAGNETIC DIP
 MDEC.deg                 6.42:  MAGNETIC DECL
 GRDC.deg                 0.17:  GRID CORRECTION
 AZTC.deg                 6.25:  AZM TOTAL CORR
 EPD .m                   0.00:  ELEVATION
 EGL .m                   0.00:  GROUND ELEVATION
 WDMS.m                 121.00:  WD ELEV
 APD .m                  36.60:  DEPTH ABOVE PD
 AGAP.m                  36.60:  AIR GAP
 VSEW.m                   1.56:  VERT SEC E/W
 VSNS.m                  -7.94:  VERT SEC N/S
 DEP .m                1140.01:  DEPTH
 EKB .m                  36.60:  KB ELEVATION
 EDF .m                  36.60:  DF ELEVATION
 TDL .m                 169.50:  TOTAL DEPTH (LOGGER)
 CSGD.m                3875.01:  CASING BOTTOM (DRILLER)
 CSGL.m                3875.01:  CASING BOTTOM (LOGGER)
 CSGS.in                  7.63:  CASING SIZE
 CSGW.lbpf               23.50:  CASING WEIGHT
 VSC .                       0:  VS TO CLOSURE
 MAGU.                 1849206:  MAGUTM CHECKSUM
~Parameter Information Block
#MNEM.UNIT       Value        Description
#---------     -----------    ---------------------------
 AV  .mps                 1.90:  Ann Velocity 
 AVMX.mps                 2.54:  Max Ann Veloc 
 AZIF.deg               137.03:  Azm, Final 
 BHAT.        Rotary Steerable:  BHA Type 
 BREV.rev             23610.00:  Rev Bit Total 
 BROT.°/30m               0.80:  Build Rotating 
 BS  .in                  6.50:  Bit Size 
 BTPL.psig              110.00:  Bit Press Loss 
 CABU.                     Yes:  Customer Abuse 
 COMM.                     ФЮѓ:  Run Comments 1 
 TCS .hr                 70.51:  Time Ciculation Ended 
 CV  .mps                 1.41:  Crit Velocity 
 CVMX.mps                 1.42:  Max Crit Veloc 
 DD1 .         Intigam Rahimov:  Direct Drillr 1 
 DD2 .          Rashad Gojayev:  Direct Drillr 2 
 DDSV.               Geo-Pilot:  DD Service 
 DEFF.%                 100.00:  % Det Eff 
 DLRX.°/30m               1.44:  Dogleg Rot Max 
 DLSO.°/30m               0.00:  Dogleg Oriented 
 DLSX.°/30m               0.00:  Dogleg Str Max 
 DRET.      03.05.00 01-Feb-20:  Drill End Time 
 DRST.      15.50.00 28-Jan-20:  Drill Start Tim 
 DTIM.hr                 24.70:  Time Drilling 
 EDEP.m                4047.51:  End Depth 
 ENG1.           Eldar Hajiyev:  Engineer 1 
 ENG2.          Rasim Hashimov:  Engineer 2 
 ENG3.          Rustam Safarov:  Engineer 3 
 ETIM.      22.00.00 01-Feb-20:  End Time 
 FLOI.gpm               370.00:  Flow In 
 FLON.gpm               300.00:  Flow In Min 
 FLOS.cptm                0.00:  Fluid Loss 
 FLOX.gpm               400.00:  Flow In Max 
 FTRO.       Formation Presure:  FTWD Run Obj 
 HFLO.                      No:  High Flow 
 HPRE.                      No:  High Pressure 
 HTEM.                      No:  High Temp 
 HYDO.m                   2.50:  Hydro Offset 
 IFIN.deg                39.54:  Inc, Final 
 IMAX.deg                41.14:  Inc Max 
 IMIN.deg                39.81:  Inc Min 
 IMND.m                4005.21:  Inc Min Depth 
 IMXD.m                3948.42:  Inc Max Depth 
 JARR.                      No:  Jarring 
 LETM.      03.05.00 01-Feb-20:  Log End Time 
 LOST.hr                     0:  Lost Rig Time 
 LSTM.      15.50.00 28-Jan-20:  Log Start Time 
 MDCL.ppm             37500.00:  Mud Chlorides 
 MDES.     Inversion Oil/Synthetic:  Mud Desc 
 DFD .sg                  1.32:  Mud Density 
 MDMN.sg                  1.32:  Dens Mud Min 
 MDMX.sg                  1.32:  Dens Mud Max 
 MOIL.                      55:  Run Mud Oil % 
 MOWR.                   70:30:  Run Mud OWR 
 MSND.                       0:  Run Mud Sand % 
 MSOL.                      17:  Run Mud Solids% 
 DFV .spqt               80.00:  Mud Viscosity 
 MWOD.in                  4.75:  MWD Tool OD 
 MWSI.                      No:  Serv Intrp, MWD 
 OTIM.hr                121.28:  Time Operating 
 PCON.           Look Like New:  Pad Condition 
 PMAX.psia             6171.00:  Press Op, Max 
 PV  .cP                 30.00:  Mud PV 
 RUN .                     300:  Run Number 
 ROPA.m/hr                5.45:  ROP Avg 
 ROPN.m/hr                3.00:  ROP Min 
 ROPX.m/hr               15.00:  ROP Max 
 RPMA.rpm               130.00:  RPM Surface Avg 
 RPMN.rpm                80.00:  RPM Surface Min 
 RPMX.rpm               140.00:  RPM Surface Max 
 RRUN.                     300:  Rig Run Number 
 RTIM.hr                 13.50:  Time Reaming 
 SAZI.deg               133.93:  Azm, Start 
 SDEP.m                3878.01:  Start Depth 
 SIDD.                      No:  Serv Intrp, DD 
 SINC.deg                40.28:  Inc, Start 
 SPPA.psig             4983.00:  SPP Avg 
 SPPN.psig             4370.00:  SPP Min 
 SPPX.psig             5300.00:  SPP Max 
 STIM.      18.33.36 27-Jan-20:  Start Time 
 SVCS.                 DD, MWD:  Services 
 SVER.                    9.20:  Sperry Version 
 TDAT.m                 169.50:  Tot Depth Attmp 
 TDDF.                      No:  Trip for DD 
 TDLG.m                 169.50:  Tot Depth Loggd 
 TFF .                      No:  Trip for Fail 
 TQAA.f-kp               13.25:  Torque Abs Avg 
 TQAN.f-kp               12.00:  Torque Abs Min 
 TQAX.f-kp               14.00:  Torque Abs Max 
 TRRT.°/30m               0.70:  Turn Rotating 
 MRT .                     ADR:  Maximum Recorded Temperature 
 TTMX.degC               92.16:  Max Tool Temp 
 VS01.       AZ90598764G12V7D4:  Virtual Str1 SN 
 VS02.         AZ90571342R12C4:  Virtual Str2 SN 
 VS03.      AZ90580010N2L2X1C4:  Virtual Str3 SN 
 VS04.        AZ90522266O7X1C4:  Virtual Str4 SN 
 VS05.           AZ90598768F11:  Virtual Str5 SN 
 VS06.     AZ90580006XZ1W1X1C4:  Virtual Str6 SN 
 WBMN.klb                 8.00:  WOB Min 
 WITN.            Peter Wilson:  Customer Rep 
 WOBA.klb                 9.88:  WOB Avg 
 WOBX.klb                10.00:  WOB Max 
 YP  .lhf2               27.00:  Yield Point 
~Curve Information Block
#MNEM.UNIT                 API CODE     Curve Description
#---------               -----------    ---------------------------
 TIME.HHMMSS            00 000 000 000:  GT Time & Date
 GTDEPTH.m              00 000 000 000:  GT Depth
 GTPQH.psia             00 000 000 000:  GT HR Quartz Pressure
 GTTQ.degC              00 000 000 000:  GT Quartz Temperature
 GTTN.NONE              00 000 000 000:  GT Test Number
 GTET.sec               00 000 000 000:  GT Elapsed Test Time
 GTTVD.m                00 000 000 000:  GT True Vertical Depth
#Other Information
#
#WARRANTY: Halliburton will use its best efforts to furnish customers with 
#accurate information and interpretations that are part of, and incident to, the services 
#provided.  However, Halliburton cannot and does not warrant the accuracy 
#or correctness of such information and interpretations.  Under no circumstances should any 
#such information or interpretation be relied upon as the sole basis for any drilling, 
#completion, production, or financial decision or any procedure involving any risk to the 
#safety of any drilling venture, drilling rig or its crew or any other third party.  The 
#Customer has full responsibility for all drilling, completion and production operation.  
#Halliburton makes no representations or warranties, either expressed or 
#implied, including, but not limited to, the implied warranties of merchantability or fitness 
#for a particular purpose, with respect to the services rendered.  In no event will 
#Halliburton be liable for failure to obtain any particular results or for 
#any damages, including, but not limited to, indirect, special or consequential damages, 
#resulting from the use of any information or interpretation provided by Halliburton.
#
~A           TIME           GTDEPTH  GTPQH  GTTQ  GTTN  GTET   GTTVD  
# ...
   09:15:22.921.31-Jan-2020 3923.01 2998.17 80.61 5.00 115.03 2954.62
   09:15:23.121.31-Jan-2020 3923.01 2998.17 80.61 5.00 115.23 2954.62
   09:15:23.321.31-Jan-2020 3923.01 2998.20 80.61 5.00 115.43 2954.62
   09:15:23.521.31-Jan-2020 3923.01 2998.19 80.61 5.00 115.63 2954.62
   09:15:23.721.31-Jan-2020 3923.01 2998.18 80.61 5.00 115.83 2954.62
   09:15:23.921.31-Jan-2020 3923.01 2998.16 80.61 5.00 116.03 2954.62
   09:15:24.121.31-Jan-2020 3923.01 2998.16 80.61 5.00 116.23 2954.62
   09:15:24.321.31-Jan-2020 3923.01 2998.15 80.61 5.00 116.43 2954.62
   09:15:24.521.31-Jan-2020 3923.01 2998.09 80.61 5.00 116.63 2954.62
   09:15:24.721.31-Jan-2020 3923.01 2998.19 80.61 5.00 116.83 2954.62
   09:15:24.922.31-Jan-2020 3923.01 2998.19 80.61 5.00 117.03 2954.62
   09:15:25.122.31-Jan-2020 3923.01 2998.19 80.61 5.00 117.23 2954.62
   09:15:25.322.31-Jan-2020 3923.01 2998.14 80.61 5.00 117.43 2954.62
   09:15:25.522.31-Jan-2020 3923.01 2998.07 80.60 5.00 117.63 2954.62
   09:15:25.722.31-Jan-2020 3923.01 2998.20 80.60 5.00 117.83 2954.62
   09:15:25.922.31-Jan-2020 3923.01 2998.16 80.60 5.00 118.03 2954.62
   09:15:26.122.31-Jan-2020 3923.01 2998.16 80.60 5.00 118.23 2954.62
   09:15:26.322.31-Jan-2020 3923.01 2998.14 80.60 5.00 118.43 2954.62
   09:15:26.522.31-Jan-2020 3923.01 2998.14 80.60 5.00 118.63 2954.62
   09:15:26.722.31-Jan-2020 3923.01 2998.14 80.60 5.00 118.83 2954.62
   09:15:26.922.31-Jan-2020 3923.01 2998.06 80.60 5.00 119.03 2954.62
   09:15:27.122.31-Jan-2020 3923.01 2998.06 80.60 5.00 119.23 2954.62
   09:15:27.322.31-Jan-2020 3923.01 2998.16 80.60 5.00 119.43 2954.62
   09:15:27.522.31-Jan-2020 3923.01 2998.16 80.60 5.00 119.63 2954.62
   09:15:27.722.31-Jan-2020 3923.01 2998.13 80.60 5.00 119.83 2954.62
   09:15:27.922.31-Jan-2020 3923.01 2998.13 80.60 5.00 120.03 2954.62
   09:15:28.122.31-Jan-2020 3923.01 2998.13 80.60 5.00 120.23 2954.62
   09:15:28.322.31-Jan-2020 3923.01 2998.12 80.60 5.00 120.43 2954.62
   09:15:28.522.31-Jan-2020 3923.01 2998.14 80.60 5.00 120.63 2954.62
   09:15:28.722.31-Jan-2020 3923.01 2998.12 80.60 5.00 120.83 2954.62
   09:15:28.922.31-Jan-2020 3923.01 2998.12 80.60 5.00 121.03 2954.62
   09:15:29.122.31-Jan-2020 3923.01 2998.12 80.60 5.00 121.23 2954.62
   09:15:29.323.31-Jan-2020 3923.01 2998.11 80.59 5.00 121.43 2954.62
   09:15:29.523.31-Jan-2020 3923.01 2998.11 80.59 5.00 121.63 2954.62
   09:15:29.723.31-Jan-2020 3923.01 2998.10 80.59 5.00 121.83 2954.62
   09:15:29.923.31-Jan-2020 3923.01 2998.14 80.59 5.00 122.03 2954.62
   09:15:30.123.31-Jan-2020 3923.01 2998.14 80.59 5.00 122.23 2954.62
   09:15:30.323.31-Jan-2020 3923.01 2998.10 80.59 5.00 122.43 2954.62
   09:15:30.523.31-Jan-2020 3923.01 2998.10 80.59 5.00 122.63 2954.62
   09:15:30.723.31-Jan-2020 3923.01 2997.99 80.59 5.00 122.83 2954.62
   09:15:30.923.31-Jan-2020 3923.01 2998.17 80.59 5.00 123.03 2954.62
   09:15:31.123.31-Jan-2020 3923.01 2998.17 80.59 5.00 123.23 2954.62
   09:15:31.323.31-Jan-2020 3923.01 2998.15 80.59 5.00 123.43 2954.62
   09:15:31.523.31-Jan-2020 3923.01 2998.11 80.59 5.00 123.63 2954.62
   09:15:31.723.31-Jan-2020 3923.01 2998.11 80.59 5.00 123.83 2954.62
   09:15:31.923.31-Jan-2020 3923.01 2998.10 80.59 5.00 124.03 2954.62
   09:15:32.123.31-Jan-2020 3923.01 2998.10 80.59 5.00 124.23 2954.62
   09:15:32.323.31-Jan-2020 3923.01 2998.11 80.59 5.00 124.43 2954.62
   09:15:32.523.31-Jan-2020 3923.01 2998.10 80.58 5.00 124.63 2954.62
   09:15:32.723.31-Jan-2020 3923.01 2998.10 80.58 5.00 124.83 2954.62
   09:15:32.923.31-Jan-2020 3923.01 2998.09 80.58 5.00 125.03 2954.62
   09:15:33.123.31-Jan-2020 3923.01 2998.09 80.58 5.00 125.23 2954.62
   09:15:33.323.31-Jan-2020 3923.01 2998.08 80.58 5.00 125.43 2954.62
   09:15:33.524.31-Jan-2020 3923.01 2998.09 80.58 5.00 125.63 2954.62
   09:15:33.724.31-Jan-2020 3923.01 2998.11 80.58 5.00 125.83 2954.62
   09:15:33.924.31-Jan-2020 3923.01 2998.00 80.58 5.00 126.03 2954.62
   09:15:34.124.31-Jan-2020 3923.01 2998.00 80.58 5.00 126.23 2954.62
   09:15:34.324.31-Jan-2020 3923.01 2998.10 80.58 5.00 126.43 2954.62
   09:15:34.524.31-Jan-2020 3923.01 2998.10 80.58 5.00 126.63 2954.62
   09:15:34.724.31-Jan-2020 3923.01 2998.09 80.58 5.00 126.83 2954.62
   09:15:34.924.31-Jan-2020 3923.01 2998.01 80.58 5.00 127.03 2954.62
   09:15:35.124.31-Jan-2020 3923.01 2998.01 80.58 5.00 127.23 2954.62
   09:15:35.324.31-Jan-2020 3923.01 2998.12 80.58 5.00 127.43 2954.62
   09:15:35.524.31-Jan-2020 3923.01 2998.11 80.58 5.00 127.63 2954.62
   09:15:35.724.31-Jan-2020 3923.01 2998.08 80.58 5.00 127.83 2954.62
   09:15:35.924.31-Jan-2020 3923.01 2998.09 80.57 5.00 128.03 2954.62
   09:15:36.124.31-Jan-2020 3923.01 2998.09 80.57 5.00 128.23 2954.62
   09:15:36.324.31-Jan-2020 3923.01 2998.08 80.57 5.00 128.43 2954.62
   09:15:36.524.31-Jan-2020 3923.01 2998.02 80.57 5.00 128.63 2954.62
   09:15:36.724.31-Jan-2020 3923.01 2998.11 80.57 5.00 128.83 2954.62
   09:15:36.924.31-Jan-2020 3923.01 2998.11 80.57 5.00 129.03 2954.62
   09:15:37.124.31-Jan-2020 3923.01 2998.11 80.57 5.00 129.23 2954.62
   09:15:37.324.31-Jan-2020 3923.01 2998.09 80.57 5.00 129.43 2954.62
   09:15:37.524.31-Jan-2020 3923.01 2997.96 80.57 5.00 129.63 2954.62
   09:15:37.725.31-Jan-2020 3923.01 2998.15 80.57 5.00 129.83 2954.62
   09:15:37.925.31-Jan-2020 3923.01 2998.11 80.57 5.00 130.03 2954.62
   09:15:38.125.31-Jan-2020 3923.01 2998.11 80.57 5.00 130.23 2954.62
   09:15:38.325.31-Jan-2020 3923.01 2998.10 80.57 5.00 130.43 2954.62
   09:15:38.525.31-Jan-2020 3923.01 2998.08 80.57 5.00 130.63 2954.62
   09:15:38.725.31-Jan-2020 3923.01 2998.07 80.57 5.00 130.83 2954.62
   09:15:38.925.31-Jan-2020 3923.01 2997.97 80.57 5.00 131.03 2954.62
   09:15:39.125.31-Jan-2020 3923.01 2997.97 80.57 5.00 131.23 2954.62
   09:15:39.325.31-Jan-2020 3923.01 2998.13 80.56 5.00 131.43 2954.62
   09:15:39.525.31-Jan-2020 3923.01 2998.09 80.56 5.00 131.63 2954.62
   09:15:39.725.31-Jan-2020 3923.01 2998.07 80.56 5.00 131.83 2954.62
   09:15:39.925.31-Jan-2020 3923.01 2998.07 80.56 5.00 132.03 2954.62
   09:15:40.125.31-Jan-2020 3923.01 2998.07 80.56 5.00 132.23 2954.62
   09:15:40.325.31-Jan-2020 3923.01 2998.07 80.56 5.00 132.43 2954.62
   09:15:40.525.31-Jan-2020 3923.01 2998.05 80.56 5.00 132.63 2954.62
   09:15:40.725.31-Jan-2020 3923.01 2991.44 80.56 5.00 132.83 2954.62
   09:15:40.925.31-Jan-2020 3923.01 2971.41 80.56 5.00 133.03 2954.62
   09:15:41.125.31-Jan-2020 3923.01 2971.41 80.56 5.00 133.23 2954.62
   09:15:41.325.31-Jan-2020 3923.01 2970.27 80.56 5.00 133.43 2954.62
   09:15:41.525.31-Jan-2020 3923.01 2970.20 80.56 5.00 133.63 2954.62
   09:15:41.725.31-Jan-2020 3923.01 2970.48 80.56 5.00 133.83 2954.62
   09:15:41.925.31-Jan-2020 3923.01 2971.58 80.56 5.00 134.03 2954.62
   09:15:42.126.31-Jan-2020 3923.01 2971.58 80.56 5.00 134.23 2954.62
   09:15:42.326.31-Jan-2020 3923.01 2971.91 80.56 5.00 134.43 2954.62
   09:15:42.526.31-Jan-2020 3923.01 2971.53 80.56 5.00 134.63 2954.62
   09:15:42.726.31-Jan-2020 3923.01 2971.30 80.55 5.00 134.83 2954.62
   09:15:42.926.31-Jan-2020 3923.01 2971.77 80.55 5.00 135.03 2954.62
   09:15:43.126.31-Jan-2020 3923.01 2971.77 80.55 5.00 135.23 2954.62
   09:15:43.326.31-Jan-2020 3923.01 2971.51 80.55 5.00 135.43 2954.62
   09:15:43.526.31-Jan-2020 3923.01 2971.41 80.55 5.00 135.63 2954.62
   09:15:43.726.31-Jan-2020 3923.01 2971.37 80.55 5.00 135.83 2954.62
   09:15:43.926.31-Jan-2020 3923.01 2971.27 80.55 5.00 136.03 2954.62
   09:15:44.126.31-Jan-2020 3923.01 2971.27 80.55 5.00 136.23 2954.62
   09:15:44.326.31-Jan-2020 3923.01 2971.31 80.55 5.00 136.43 2954.62
   09:15:44.526.31-Jan-2020 3923.01 2971.32 80.55 5.00 136.63 2954.62
   09:15:44.726.31-Jan-2020 3923.01 2971.38 80.55 5.00 136.83 2954.62
   09:15:44.926.31-Jan-2020 3923.01 2971.27 80.55 5.00 137.03 2954.62
   09:15:45.126.31-Jan-2020 3923.01 2971.27 80.55 5.00 137.23 2954.62
   09:15:45.326.31-Jan-2020 3923.01 2971.25 80.55 5.00 137.43 2954.62
   09:15:45.526.31-Jan-2020 3923.01 2971.34 80.55 5.00 137.63 2954.62
   09:15:45.726.31-Jan-2020 3923.01 2971.18 80.55 5.00 137.83 2954.62
