~Version Information
 VERS.                  2.0:   CWLS log ASCII Standard -VERSION 2.0
 WRAP.                   NO:   One line per depth step
~Well Information Block
#MNEM.UNIT     VALUE/NAME     DESCRIPTION
#---------     -----------    ---------------------------
 STRT.S             01:28:25 01-Feb-20: START TIME 01:28:25 01-Feb-20
 STOP.S             01:36:19 01-Feb-20: STOP TIME  01:36:19 01-Feb-20
 STEP.S                   0.00: STEP TIME
 NULL.                 -999.25: NULL VALUE
 DFWT.                        :  DIST FWL TEXT
 DFST.                        :  DIST FSL TEXT
 DMF .             Drill Floor:  DRILL MEAS FROM
 STIM.      09.30.00 26-Dec-19:  START TIME
 DATE.      08.00.00 20-Jan-20:  END TIME
 SPUD.               23-Nov-19:  SPUD DATE
 NREF.                    Grid:  NORTH REFERENCE
 HPTY.       Minimum Curvature:  HOLE POS TYPE
 DMOD.             Drill Model:  DRILL MOD DESC
 SVYD.                  Survey:  SURVEY DESC
 ILTD.               Lithology:  INTERP LTH DESC
 FTOP.          Formation Tops:  FORM TOPS DESC
 SON .        AZ-XX-0906192647:  JOB NUMBER
 WTYP.                Deviated:  WELL TYPE
 COMP.     BP Exploration (Caspian Sea) Ltd:  COMPANY
 BASE.              Azerbaijan:  LOGGING EQUIPMENT BASE LOCATION
 REGN.                 Eurasia:  REGION
 FLD .                     ACG:  FIELD NAME
 SRVC.              KCA Deutag:  CONTRACTOR
 MWDS.                    Baku:  MWD SHOP
 WELL.     A10 (Slot 20) - SCP:  WELL NAME
 JOBN.        AZ-XX-0906192647:  JOB TICKET NUMB
 RIG .                 Chirag1:  RIG NAME
 DCON.     Halliburton Sperry Drilling:  DIRECTNL CONTR
 UNIT.                     N/A:  LOGGING EQUIPMENT ID
 PDAT.          Mean Sea Level:  PERMANENT DATUM
 MDS .        Operator Entered:  MAG DATA SOURCE
 CTRY.              Azerbaijan:  COUNTRY NAME
 UWI .            /AZE00000090:  UNIQUE WELL IDENTIFIER
 API .            /AZE00000090:  API NUMBER
 CNTY.                        :  COUNTY
 PROV.                        :  PROVINCE
 STAT.                        :  STATE
 LOC .                        :  LOCATION
 LMF .             Drill Floor:  LOG MEASURED FROM
 TVDS.m                  36.60:  TVDSS CORRECTN
 LATI.deg                40.08:  LATITUDE
 LONG.deg                51.24:  LONGITUDE
 WHNS.m                  -7.94:  WELL HEAD N/S
 WHEW.m                   1.56:  WELL HEAD E/W
 UTMX.m              520429.26:  UTM X
 UTMY.m             4438973.87:  UTM Y
 DFWL.m                   0.00:  DISTANCE FWL
 DFSL.m                   0.00:  DISTANCE FSL
 SDEP.m                1455.00:  START DEPTH
 TDD .m                4047.51:  TOTAL DEPTH (DRILLER)
 VSDR.deg               112.75:  VERT SEC DIRECT
 GVFD.g                   1.00:  GRAVITY FIELD
 MFLD.nT              50261.00:  MAGNETIC FIELD
 MDIP.deg                59.52:  MAGNETIC DIP
 MDEC.deg                 6.42:  MAGNETIC DECL
 GRDC.deg                 0.17:  GRID CORRECTION
 AZTC.deg                 6.25:  AZM TOTAL CORR
 EPD .m                   0.00:  ELEVATION
 EGL .m                   0.00:  GROUND ELEVATION
 WDMS.m                 121.00:  WD ELEV
 APD .m                  36.60:  DEPTH ABOVE PD
 AGAP.m                  36.60:  AIR GAP
 VSEW.m                   1.56:  VERT SEC E/W
 VSNS.m                  -7.94:  VERT SEC N/S
 DEP .m                1140.01:  DEPTH
 EKB .m                  36.60:  KB ELEVATION
 EDF .m                  36.60:  DF ELEVATION
 TDL .m                 169.50:  TOTAL DEPTH (LOGGER)
 CSGD.m                3875.01:  CASING BOTTOM (DRILLER)
 CSGL.m                3875.01:  CASING BOTTOM (LOGGER)
 CSGS.in                  7.63:  CASING SIZE
 CSGW.lbpf               23.50:  CASING WEIGHT
 VSC .                       0:  VS TO CLOSURE
 MAGU.                 1849206:  MAGUTM CHECKSUM
~Parameter Information Block
#MNEM.UNIT       Value        Description
#---------     -----------    ---------------------------
 AV  .mps                 1.90:  Ann Velocity 
 AVMX.mps                 2.54:  Max Ann Veloc 
 AZIF.deg               137.03:  Azm, Final 
 BHAT.        Rotary Steerable:  BHA Type 
 BREV.rev             23610.00:  Rev Bit Total 
 BROT.°/30m               0.80:  Build Rotating 
 BS  .in                  6.50:  Bit Size 
 BTPL.psig              110.00:  Bit Press Loss 
 CABU.                     Yes:  Customer Abuse 
 COMM.                     ì…†:  Run Comments 1 
 TCS .hr                 70.51:  Time Ciculation Ended 
 CV  .mps                 1.41:  Crit Velocity 
 CVMX.mps                 1.42:  Max Crit Veloc 
 DD1 .         Intigam Rahimov:  Direct Drillr 1 
 DD2 .          Rashad Gojayev:  Direct Drillr 2 
 DDSV.               Geo-Pilot:  DD Service 
 DEFF.%                 100.00:  % Det Eff 
 DLRX.°/30m               1.44:  Dogleg Rot Max 
 DLSO.°/30m               0.00:  Dogleg Oriented 
 DLSX.°/30m               0.00:  Dogleg Str Max 
 DRET.      03.05.00 01-Feb-20:  Drill End Time 
 DRST.      15.50.00 28-Jan-20:  Drill Start Tim 
 DTIM.hr                 24.70:  Time Drilling 
 EDEP.m                4047.51:  End Depth 
 ENG1.           Eldar Hajiyev:  Engineer 1 
 ENG2.          Rasim Hashimov:  Engineer 2 
 ENG3.          Rustam Safarov:  Engineer 3 
 ETIM.      22.00.00 01-Feb-20:  End Time 
 FLOI.gpm               370.00:  Flow In 
 FLON.gpm               300.00:  Flow In Min 
 FLOS.cptm                0.00:  Fluid Loss 
 FLOX.gpm               400.00:  Flow In Max 
 FTRO.       Formation Presure:  FTWD Run Obj 
 HFLO.                      No:  High Flow 
 HPRE.                      No:  High Pressure 
 HTEM.                      No:  High Temp 
 HYDO.m                   2.50:  Hydro Offset 
 IFIN.deg                39.54:  Inc, Final 
 IMAX.deg                41.14:  Inc Max 
 IMIN.deg                39.81:  Inc Min 
 IMND.m                4005.21:  Inc Min Depth 
 IMXD.m                3948.42:  Inc Max Depth 
 JARR.                      No:  Jarring 
 LETM.      03.05.00 01-Feb-20:  Log End Time 
 LOST.hr                     0:  Lost Rig Time 
 LSTM.      15.50.00 28-Jan-20:  Log Start Time 
 MDCL.ppm             37500.00:  Mud Chlorides 
 MDES.     Inversion Oil/Synthetic:  Mud Desc 
 DFD .sg                  1.32:  Mud Density 
 MDMN.sg                  1.32:  Dens Mud Min 
 MDMX.sg                  1.32:  Dens Mud Max 
 MOIL.                      55:  Run Mud Oil % 
 MOWR.                   70:30:  Run Mud OWR 
 MSND.                       0:  Run Mud Sand % 
 MSOL.                      17:  Run Mud Solids% 
 DFV .spqt               80.00:  Mud Viscosity 
 MWOD.in                  4.75:  MWD Tool OD 
 MWSI.                      No:  Serv Intrp, MWD 
 OTIM.hr                121.28:  Time Operating 
 PCON.           Look Like New:  Pad Condition 
 PMAX.psia             6171.00:  Press Op, Max 
 PV  .cP                 30.00:  Mud PV 
 RUN .                     300:  Run Number 
 ROPA.m/hr                5.45:  ROP Avg 
 ROPN.m/hr                3.00:  ROP Min 
 ROPX.m/hr               15.00:  ROP Max 
 RPMA.rpm               130.00:  RPM Surface Avg 
 RPMN.rpm                80.00:  RPM Surface Min 
 RPMX.rpm               140.00:  RPM Surface Max 
 RRUN.                     300:  Rig Run Number 
 RTIM.hr                 13.50:  Time Reaming 
 SAZI.deg               133.93:  Azm, Start 
 SDEP.m                3878.01:  Start Depth 
 SIDD.                      No:  Serv Intrp, DD 
 SINC.deg                40.28:  Inc, Start 
 SPPA.psig             4983.00:  SPP Avg 
 SPPN.psig             4370.00:  SPP Min 
 SPPX.psig             5300.00:  SPP Max 
 STIM.      18.33.36 27-Jan-20:  Start Time 
 SVCS.                 DD, MWD:  Services 
 SVER.                    9.20:  Sperry Version 
 TDAT.m                 169.50:  Tot Depth Attmp 
 TDDF.                      No:  Trip for DD 
 TDLG.m                 169.50:  Tot Depth Loggd 
 TFF .                      No:  Trip for Fail 
 TQAA.f-kp               13.25:  Torque Abs Avg 
 TQAN.f-kp               12.00:  Torque Abs Min 
 TQAX.f-kp               14.00:  Torque Abs Max 
 TRRT.°/30m               0.70:  Turn Rotating 
 MRT .                     ADR:  Maximum Recorded Temperature 
 TTMX.degC               92.16:  Max Tool Temp 
 VS01.       AZ90598764G12V7D4:  Virtual Str1 SN 
 VS02.         AZ90571342R12C4:  Virtual Str2 SN 
 VS03.      AZ90580010N2L2X1C4:  Virtual Str3 SN 
 VS04.        AZ90522266O7X1C4:  Virtual Str4 SN 
 VS05.           AZ90598768F11:  Virtual Str5 SN 
 VS06.     AZ90580006XZ1W1X1C4:  Virtual Str6 SN 
 WBMN.klb                 8.00:  WOB Min 
 WITN.            Peter Wilson:  Customer Rep 
 WOBA.klb                 9.88:  WOB Avg 
 WOBX.klb                10.00:  WOB Max 
 YP  .lhf2               27.00:  Yield Point 
~Curve Information Block
#MNEM.UNIT                 API CODE     Curve Description
#---------               -----------    ---------------------------
 TIME.HHMMSS            00 000 000 000:  GT Time & Date
 GTDEPTH.m              00 000 000 000:  GT Depth
 GTPQH.psia             00 000 000 000:  GT HR Quartz Pressure
 GTTQ.degC              00 000 000 000:  GT Quartz Temperature
 GTTN.NONE              00 000 000 000:  GT Test Number
 GTET.sec               00 000 000 000:  GT Elapsed Test Time
 GTTVD.m                00 000 000 000:  GT True Vertical Depth
#Other Information
#
#WARRANTY: Halliburton will use its best efforts to furnish customers with 
#accurate information and interpretations that are part of, and incident to, the services 
#provided.  However, Halliburton cannot and does not warrant the accuracy 
#or correctness of such information and interpretations.  Under no circumstances should any 
#such information or interpretation be relied upon as the sole basis for any drilling, 
#completion, production, or financial decision or any procedure involving any risk to the 
#safety of any drilling venture, drilling rig or its crew or any other third party.  The 
#Customer has full responsibility for all drilling, completion and production operation.  
#Halliburton makes no representations or warranties, either expressed or 
#implied, including, but not limited to, the implied warranties of merchantability or fitness 
#for a particular purpose, with respect to the services rendered.  In no event will 
#Halliburton be liable for failure to obtain any particular results or for 
#any damages, including, but not limited to, indirect, special or consequential damages, 
#resulting from the use of any information or interpretation provided by Halliburton.
#
~A           TIME           GTDEPTH  GTPQH  GTTQ  GTTN   GTET   GTTVD  
# ...
   01:29:33.062.01-Feb-2020 3990.12 3212.85 84.99 11.00  68.04 3005.35
   01:29:33.263.01-Feb-2020 3990.12 3213.12 84.99 11.00  68.24 3005.35
   01:29:33.463.01-Feb-2020 3990.12 3213.12 84.99 11.00  68.44 3005.35
   01:29:33.664.01-Feb-2020 3990.12 3213.09 84.99 11.00  68.64 3005.35
   01:29:33.865.01-Feb-2020 3990.12 3213.24 84.99 11.00  68.84 3005.35
   01:29:34.065.01-Feb-2020 3990.12 3213.29 84.98 11.00  69.04 3005.35
   01:29:34.266.01-Feb-2020 3990.12 3213.26 84.98 11.00  69.24 3005.35
   01:29:34.467.01-Feb-2020 3990.12 3213.26 84.98 11.00  69.44 3005.35
   01:29:34.668.01-Feb-2020 3990.12 3213.25 84.98 11.00  69.64 3005.35
   01:29:34.868.01-Feb-2020 3990.12 3213.24 84.98 11.00  69.84 3005.35
   01:29:35.069.01-Feb-2020 3990.12 3213.35 84.98 11.00  70.04 3005.35
   01:29:35.270.01-Feb-2020 3990.12 3213.24 84.98 11.00  70.25 3005.35
   01:29:35.470.01-Feb-2020 3990.12 3213.24 84.98 11.00  70.45 3005.35
   01:29:35.671.01-Feb-2020 3990.12 3213.42 84.98 11.00  70.65 3005.35
   01:29:35.872.01-Feb-2020 3990.12 3213.54 84.98 11.00  70.85 3005.35
   01:29:36.072.01-Feb-2020 3990.12 3213.22 84.98 11.00  71.05 3005.35
   01:29:36.273.01-Feb-2020 3990.12 3213.42 84.98 11.00  71.25 3005.35
   01:29:36.474.01-Feb-2020 3990.12 3213.42 84.98 11.00  71.45 3005.35
   01:29:36.675.01-Feb-2020 3990.12 3213.46 84.98 11.00  71.65 3005.35
   01:29:36.875.01-Feb-2020 3990.12 3213.45 84.98 11.00  71.85 3005.35
   01:29:37.076.01-Feb-2020 3990.12 3213.02 84.98 11.00  72.05 3005.35
   01:29:37.277.01-Feb-2020 3990.12 3213.31 84.98 11.00  72.25 3005.35
   01:29:37.477.01-Feb-2020 3990.12 3213.31 84.98 11.00  72.45 3005.35
   01:29:37.678.01-Feb-2020 3990.12 3213.50 84.98 11.00  72.65 3005.35
   01:29:37.879.01-Feb-2020 3990.12 3213.60 84.97 11.00  72.85 3005.35
   01:29:38.080.01-Feb-2020 3990.12 3213.53 84.97 11.00  73.06 3005.35
   01:29:38.280.01-Feb-2020 3990.12 3213.76 84.97 11.00  73.26 3005.35
   01:29:38.481.01-Feb-2020 3990.12 3213.76 84.97 11.00  73.46 3005.35
   01:29:38.682.01-Feb-2020 3990.12 3213.30 84.97 11.00  73.66 3005.35
   01:29:38.882.01-Feb-2020 3990.12 3213.51 84.97 11.00  73.86 3005.35
   01:29:39.083.01-Feb-2020 3990.12 3213.70 84.97 11.00  74.06 3005.35
   01:29:39.284.01-Feb-2020 3990.12 3213.34 84.97 11.00  74.26 3005.35
   01:29:39.484.01-Feb-2020 3990.12 3213.34 84.97 11.00  74.46 3005.35
   01:29:39.685.01-Feb-2020 3990.12 3213.52 84.97 11.00  74.66 3005.35
   01:29:39.886.01-Feb-2020 3990.12 3213.62 84.97 11.00  74.86 3005.35
   01:29:40.087.01-Feb-2020 3990.12 3213.72 84.97 11.00  75.06 3005.35
   01:29:40.287.01-Feb-2020 3990.12 3213.79 84.97 11.00  75.26 3005.35
   01:29:40.488.01-Feb-2020 3990.12 3213.79 84.97 11.00  75.46 3005.35
   01:29:40.689.01-Feb-2020 3990.12 3213.65 84.97 11.00  75.66 3005.35
   01:29:40.889.01-Feb-2020 3990.12 3213.62 84.97 11.00  75.87 3005.35
   01:29:41.090.01-Feb-2020 3990.12 3213.74 84.97 11.00  76.07 3005.35
   01:29:41.291.01-Feb-2020 3990.12 3213.83 84.97 11.00  76.27 3005.35
   01:29:41.491.01-Feb-2020 3990.12 3213.83 84.97 11.00  76.47 3005.35
   01:29:41.692.01-Feb-2020 3990.12 3213.95 84.97 11.00  76.67 3005.35
   01:29:41.893.01-Feb-2020 3990.12 3213.85 84.96 11.00  76.87 3005.35
   01:29:42.094.01-Feb-2020 3990.12 3213.88 84.96 11.00  77.07 3005.35
   01:29:42.294.01-Feb-2020 3990.12 3213.93 84.96 11.00  77.27 3005.35
   01:29:42.495.01-Feb-2020 3990.12 3213.93 84.96 11.00  77.47 3005.35
   01:29:42.696.01-Feb-2020 3990.12 3213.95 84.96 11.00  77.67 3005.35
   01:29:42.896.01-Feb-2020 3990.12 3213.92 84.96 11.00  77.87 3005.35
   01:29:43.097.01-Feb-2020 3990.12 3213.84 84.96 11.00  78.07 3005.35
   01:29:43.298.01-Feb-2020 3990.12 3213.82 84.96 11.00  78.27 3005.35
   01:29:43.498.01-Feb-2020 3990.12 3213.82 84.96 11.00  78.47 3005.35
   01:29:43.699.01-Feb-2020 3990.12 3213.90 84.96 11.00  78.68 3005.35
   01:29:43.900.01-Feb-2020 3990.12 3213.97 84.96 11.00  78.88 3005.35
   01:29:44.101.01-Feb-2020 3990.12 3214.04 84.96 11.00  79.08 3005.35
   01:29:44.301.01-Feb-2020 3990.12 3213.56 84.96 11.00  79.28 3005.35
   01:29:44.502.01-Feb-2020 3990.12 3213.56 84.96 11.00  79.48 3005.35
   01:29:44.703.01-Feb-2020 3990.12 3213.87 84.96 11.00  79.68 3005.35
   01:29:44.903.01-Feb-2020 3990.12 3213.99 84.96 11.00  79.88 3005.35
   01:29:45.104.01-Feb-2020 3990.12 3214.09 84.96 11.00  80.08 3005.35
   01:29:45.305.01-Feb-2020 3990.12 3214.04 84.96 11.00  80.28 3005.35
   01:29:45.505.01-Feb-2020 3990.12 3214.04 84.96 11.00  80.48 3005.35
   01:29:45.706.01-Feb-2020 3990.12 3214.12 84.95 11.00  80.68 3005.35
   01:29:45.907.01-Feb-2020 3990.12 3214.11 84.95 11.00  80.88 3005.35
   01:29:46.108.01-Feb-2020 3990.12 3214.14 84.95 11.00  81.08 3005.35
   01:29:46.308.01-Feb-2020 3990.12 3214.17 84.95 11.00  81.28 3005.35
   01:29:46.509.01-Feb-2020 3990.12 3214.17 84.95 11.00  81.48 3005.35
   01:29:46.710.01-Feb-2020 3990.12 3214.08 84.95 11.00  81.69 3005.35
   01:29:46.910.01-Feb-2020 3990.12 3214.14 84.95 11.00  81.89 3005.35
   01:29:47.111.01-Feb-2020 3990.12 3214.17 84.95 11.00  82.09 3005.35
   01:29:47.312.01-Feb-2020 3990.12 3214.33 84.95 11.00  82.29 3005.35
   01:29:47.512.01-Feb-2020 3990.12 3214.33 84.95 11.00  82.49 3005.35
   01:29:47.713.01-Feb-2020 3990.12 3214.11 84.95 11.00  82.69 3005.35
   01:29:47.914.01-Feb-2020 3990.12 3214.17 84.95 11.00  82.89 3005.35
   01:29:48.115.01-Feb-2020 3990.12 3214.23 84.95 11.00  83.09 3005.35
   01:29:48.315.01-Feb-2020 3990.12 3214.26 84.95 11.00  83.29 3005.35
   01:29:48.516.01-Feb-2020 3990.12 3214.26 84.95 11.00  83.49 3005.35
   01:29:48.717.01-Feb-2020 3990.12 3214.04 84.95 11.00  83.69 3005.35
   01:29:48.917.01-Feb-2020 3990.12 3214.13 84.95 11.00  83.89 3005.35
   01:29:49.118.01-Feb-2020 3990.12 3214.35 84.95 11.00  84.09 3005.35
   01:29:49.319.01-Feb-2020 3990.12 3214.32 84.95 11.00  84.29 3005.35
   01:29:49.520.01-Feb-2020 3990.12 3214.32 84.95 11.00  84.50 3005.35
   01:29:49.720.01-Feb-2020 3990.12 3214.41 84.94 11.00  84.70 3005.35
   01:29:49.921.01-Feb-2020 3990.12 3213.90 84.94 11.00  84.90 3005.35
   01:29:50.122.01-Feb-2020 3990.12 3214.09 84.94 11.00  85.10 3005.35
   01:29:50.322.01-Feb-2020 3990.12 3214.18 84.94 11.00  85.30 3005.35
   01:29:50.523.01-Feb-2020 3990.12 3214.18 84.94 11.00  85.50 3005.35
   01:29:50.724.01-Feb-2020 3990.12 3214.26 84.94 11.00  85.70 3005.35
   01:29:50.924.01-Feb-2020 3990.12 3214.15 84.94 11.00  85.90 3005.35
   01:29:51.125.01-Feb-2020 3990.12 3214.19 84.94 11.00  86.10 3005.35
   01:29:51.326.01-Feb-2020 3990.12 3214.37 84.94 11.00  86.30 3005.35
   01:29:51.527.01-Feb-2020 3990.12 3214.37 84.94 11.00  86.50 3005.35
   01:29:51.727.01-Feb-2020 3990.12 3214.43 84.94 11.00  86.70 3005.35
   01:29:51.928.01-Feb-2020 3990.12 3214.65 84.94 11.00  86.90 3005.35
   01:29:52.129.01-Feb-2020 3990.12 3213.97 84.94 11.00  87.10 3005.35
   01:29:52.329.01-Feb-2020 3990.12 3214.22 84.94 11.00  87.31 3005.35
   01:29:52.530.01-Feb-2020 3990.12 3214.22 84.94 11.00  87.51 3005.35
   01:29:52.731.01-Feb-2020 3990.12 3214.47 84.94 11.00  87.71 3005.35
   01:29:52.931.01-Feb-2020 3990.12 3214.65 84.94 11.00  87.91 3005.35
   01:29:53.132.01-Feb-2020 3990.12 3214.65 84.94 11.00  88.11 3005.35
   01:29:53.333.01-Feb-2020 3990.12 3214.52 84.94 11.00  88.31 3005.35
   01:29:53.534.01-Feb-2020 3990.12 3214.52 84.94 11.00  88.51 3005.35
   01:29:53.734.01-Feb-2020 3990.12 3214.47 84.93 11.00  88.71 3005.35
   01:29:53.935.01-Feb-2020 3990.12 3214.53 84.93 11.00  88.91 3005.35
   01:29:54.136.01-Feb-2020 3990.12 3214.59 84.93 11.00  89.11 3005.35
   01:29:54.336.01-Feb-2020 3990.12 3214.54 84.93 11.00  89.31 3005.35
   01:29:54.537.01-Feb-2020 3990.12 3214.54 84.93 11.00  89.51 3005.35
   01:29:54.738.01-Feb-2020 3990.12 3214.57 84.93 11.00  89.71 3005.35
   01:29:54.938.01-Feb-2020 3990.12 3214.40 84.93 11.00  89.91 3005.35
   01:29:55.139.01-Feb-2020 3990.12 3214.48 84.93 11.00  90.12 3005.35
   01:29:55.340.01-Feb-2020 3990.12 3214.54 84.93 11.00  90.32 3005.35
   01:29:55.541.01-Feb-2020 3990.12 3214.54 84.93 11.00  90.52 3005.35
