~Version Information
 VERS.                  2.0:   CWLS log ASCII Standard -VERSION 2.0
 WRAP.                   NO:   One line per depth step
~Well Information Block
#MNEM.UNIT     VALUE/NAME     DESCRIPTION
#---------     -----------    ---------------------------
 STRT.S             06:25:21 31-Jan-20: START TIME 06:25:21 31-Jan-20
 STOP.S             06:31:52 31-Jan-20: STOP TIME  06:31:52 31-Jan-20
 STEP.S                   0.00: STEP TIME
 NULL.                 -999.25: NULL VALUE
 DFWT.                        :  DIST FWL TEXT
 DFST.                        :  DIST FSL TEXT
 DMF .             Drill Floor:  DRILL MEAS FROM
 STIM.      09.30.00 26-Dec-19:  START TIME
 DATE.      08.00.00 20-Jan-20:  END TIME
 SPUD.               23-Nov-19:  SPUD DATE
 NREF.                    Grid:  NORTH REFERENCE
 HPTY.       Minimum Curvature:  HOLE POS TYPE
 DMOD.             Drill Model:  DRILL MOD DESC
 SVYD.                  Survey:  SURVEY DESC
 ILTD.               Lithology:  INTERP LTH DESC
 FTOP.          Formation Tops:  FORM TOPS DESC
 SON .        AZ-XX-0906192647:  JOB NUMBER
 WTYP.                Deviated:  WELL TYPE
 COMP.     BP Exploration (Caspian Sea) Ltd:  COMPANY
 BASE.              Azerbaijan:  LOGGING EQUIPMENT BASE LOCATION
 REGN.                 Eurasia:  REGION
 FLD .                     ACG:  FIELD NAME
 SRVC.              KCA Deutag:  CONTRACTOR
 MWDS.                    Baku:  MWD SHOP
 WELL.     A10 (Slot 20) - SCP:  WELL NAME
 JOBN.        AZ-XX-0906192647:  JOB TICKET NUMB
 RIG .                 Chirag1:  RIG NAME
 DCON.     Halliburton Sperry Drilling:  DIRECTNL CONTR
 UNIT.                     N/A:  LOGGING EQUIPMENT ID
 PDAT.          Mean Sea Level:  PERMANENT DATUM
 MDS .        Operator Entered:  MAG DATA SOURCE
 CTRY.              Azerbaijan:  COUNTRY NAME
 UWI .            /AZE00000090:  UNIQUE WELL IDENTIFIER
 API .            /AZE00000090:  API NUMBER
 CNTY.                        :  COUNTY
 PROV.                        :  PROVINCE
 STAT.                        :  STATE
 LOC .                        :  LOCATION
 LMF .             Drill Floor:  LOG MEASURED FROM
 TVDS.m                  36.60:  TVDSS CORRECTN
 LATI.deg                40.08:  LATITUDE
 LONG.deg                51.24:  LONGITUDE
 WHNS.m                  -7.94:  WELL HEAD N/S
 WHEW.m                   1.56:  WELL HEAD E/W
 UTMX.m              520429.26:  UTM X
 UTMY.m             4438973.87:  UTM Y
 DFWL.m                   0.00:  DISTANCE FWL
 DFSL.m                   0.00:  DISTANCE FSL
 SDEP.m                1455.00:  START DEPTH
 TDD .m                4047.51:  TOTAL DEPTH (DRILLER)
 VSDR.deg               112.75:  VERT SEC DIRECT
 GVFD.g                   1.00:  GRAVITY FIELD
 MFLD.nT              50261.00:  MAGNETIC FIELD
 MDIP.deg                59.52:  MAGNETIC DIP
 MDEC.deg                 6.42:  MAGNETIC DECL
 GRDC.deg                 0.17:  GRID CORRECTION
 AZTC.deg                 6.25:  AZM TOTAL CORR
 EPD .m                   0.00:  ELEVATION
 EGL .m                   0.00:  GROUND ELEVATION
 WDMS.m                 121.00:  WD ELEV
 APD .m                  36.60:  DEPTH ABOVE PD
 AGAP.m                  36.60:  AIR GAP
 VSEW.m                   1.56:  VERT SEC E/W
 VSNS.m                  -7.94:  VERT SEC N/S
 DEP .m                1140.01:  DEPTH
 EKB .m                  36.60:  KB ELEVATION
 EDF .m                  36.60:  DF ELEVATION
 TDL .m                 169.50:  TOTAL DEPTH (LOGGER)
 CSGD.m                3875.01:  CASING BOTTOM (DRILLER)
 CSGL.m                3875.01:  CASING BOTTOM (LOGGER)
 CSGS.in                  7.63:  CASING SIZE
 CSGW.lbpf               23.50:  CASING WEIGHT
 VSC .                       0:  VS TO CLOSURE
 MAGU.                 1849206:  MAGUTM CHECKSUM
~Parameter Information Block
#MNEM.UNIT       Value        Description
#---------     -----------    ---------------------------
 AV  .mps                 1.90:  Ann Velocity 
 AVMX.mps                 2.54:  Max Ann Veloc 
 AZIF.deg               137.03:  Azm, Final 
 BHAT.        Rotary Steerable:  BHA Type 
 BREV.rev             23610.00:  Rev Bit Total 
 BROT.°/30m               0.80:  Build Rotating 
 BS  .in                  6.50:  Bit Size 
 BTPL.psig              110.00:  Bit Press Loss 
 CABU.                     Yes:  Customer Abuse 
 COMM.                     Ð„:  Run Comments 1 
 TCS .hr                 70.51:  Time Ciculation Ended 
 CV  .mps                 1.41:  Crit Velocity 
 CVMX.mps                 1.42:  Max Crit Veloc 
 DD1 .         Intigam Rahimov:  Direct Drillr 1 
 DD2 .          Rashad Gojayev:  Direct Drillr 2 
 DDSV.               Geo-Pilot:  DD Service 
 DEFF.%                 100.00:  % Det Eff 
 DLRX.°/30m               1.44:  Dogleg Rot Max 
 DLSO.°/30m               0.00:  Dogleg Oriented 
 DLSX.°/30m               0.00:  Dogleg Str Max 
 DRET.      03.05.00 01-Feb-20:  Drill End Time 
 DRST.      15.50.00 28-Jan-20:  Drill Start Tim 
 DTIM.hr                 24.70:  Time Drilling 
 EDEP.m                4047.51:  End Depth 
 ENG1.           Eldar Hajiyev:  Engineer 1 
 ENG2.          Rasim Hashimov:  Engineer 2 
 ENG3.          Rustam Safarov:  Engineer 3 
 ETIM.      22.00.00 01-Feb-20:  End Time 
 FLOI.gpm               370.00:  Flow In 
 FLON.gpm               300.00:  Flow In Min 
 FLOS.cptm                0.00:  Fluid Loss 
 FLOX.gpm               400.00:  Flow In Max 
 FTRO.       Formation Presure:  FTWD Run Obj 
 HFLO.                      No:  High Flow 
 HPRE.                      No:  High Pressure 
 HTEM.                      No:  High Temp 
 HYDO.m                   2.50:  Hydro Offset 
 IFIN.deg                39.54:  Inc, Final 
 IMAX.deg                41.14:  Inc Max 
 IMIN.deg                39.81:  Inc Min 
 IMND.m                4005.21:  Inc Min Depth 
 IMXD.m                3948.42:  Inc Max Depth 
 JARR.                      No:  Jarring 
 LETM.      03.05.00 01-Feb-20:  Log End Time 
 LOST.hr                     0:  Lost Rig Time 
 LSTM.      15.50.00 28-Jan-20:  Log Start Time 
 MDCL.ppm             37500.00:  Mud Chlorides 
 MDES.     Inversion Oil/Synthetic:  Mud Desc 
 DFD .sg                  1.32:  Mud Density 
 MDMN.sg                  1.32:  Dens Mud Min 
 MDMX.sg                  1.32:  Dens Mud Max 
 MOIL.                      55:  Run Mud Oil % 
 MOWR.                   70:30:  Run Mud OWR 
 MSND.                       0:  Run Mud Sand % 
 MSOL.                      17:  Run Mud Solids% 
 DFV .spqt               80.00:  Mud Viscosity 
 MWOD.in                  4.75:  MWD Tool OD 
 MWSI.                      No:  Serv Intrp, MWD 
 OTIM.hr                121.28:  Time Operating 
 PCON.           Look Like New:  Pad Condition 
 PMAX.psia             6171.00:  Press Op, Max 
 PV  .cP                 30.00:  Mud PV 
 RUN .                     300:  Run Number 
 ROPA.m/hr                5.45:  ROP Avg 
 ROPN.m/hr                3.00:  ROP Min 
 ROPX.m/hr               15.00:  ROP Max 
 RPMA.rpm               130.00:  RPM Surface Avg 
 RPMN.rpm                80.00:  RPM Surface Min 
 RPMX.rpm               140.00:  RPM Surface Max 
 RRUN.                     300:  Rig Run Number 
 RTIM.hr                 13.50:  Time Reaming 
 SAZI.deg               133.93:  Azm, Start 
 SDEP.m                3878.01:  Start Depth 
 SIDD.                      No:  Serv Intrp, DD 
 SINC.deg                40.28:  Inc, Start 
 SPPA.psig             4983.00:  SPP Avg 
 SPPN.psig             4370.00:  SPP Min 
 SPPX.psig             5300.00:  SPP Max 
 STIM.      18.33.36 27-Jan-20:  Start Time 
 SVCS.                 DD, MWD:  Services 
 SVER.                    9.20:  Sperry Version 
 TDAT.m                 169.50:  Tot Depth Attmp 
 TDDF.                      No:  Trip for DD 
 TDLG.m                 169.50:  Tot Depth Loggd 
 TFF .                      No:  Trip for Fail 
 TQAA.f-kp               13.25:  Torque Abs Avg 
 TQAN.f-kp               12.00:  Torque Abs Min 
 TQAX.f-kp               14.00:  Torque Abs Max 
 TRRT.°/30m               0.70:  Turn Rotating 
 MRT .                     ADR:  Maximum Recorded Temperature 
 TTMX.degC               92.16:  Max Tool Temp 
 VS01.       AZ90598764G12V7D4:  Virtual Str1 SN 
 VS02.         AZ90571342R12C4:  Virtual Str2 SN 
 VS03.      AZ90580010N2L2X1C4:  Virtual Str3 SN 
 VS04.        AZ90522266O7X1C4:  Virtual Str4 SN 
 VS05.           AZ90598768F11:  Virtual Str5 SN 
 VS06.     AZ90580006XZ1W1X1C4:  Virtual Str6 SN 
 WBMN.klb                 8.00:  WOB Min 
 WITN.            Peter Wilson:  Customer Rep 
 WOBA.klb                 9.88:  WOB Avg 
 WOBX.klb                10.00:  WOB Max 
 YP  .lhf2               27.00:  Yield Point 
~Curve Information Block
#MNEM.UNIT                 API CODE     Curve Description
#---------               -----------    ---------------------------
 TIME.HHMMSS            00 000 000 000:  GT Time & Date
 GTDEPTH.m              00 000 000 000:  GT Depth
 GTPQH.psia             00 000 000 000:  GT HR Quartz Pressure
 GTTQ.degC              00 000 000 000:  GT Quartz Temperature
 GTTN.NONE              00 000 000 000:  GT Test Number
 GTET.sec               00 000 000 000:  GT Elapsed Test Time
 GTTVD.m                00 000 000 000:  GT True Vertical Depth
#Other Information
#
#WARRANTY: Halliburton will use its best efforts to furnish customers with 
#accurate information and interpretations that are part of, and incident to, the services 
#provided.  However, Halliburton cannot and does not warrant the accuracy 
#or correctness of such information and interpretations.  Under no circumstances should any 
#such information or interpretation be relied upon as the sole basis for any drilling, 
#completion, production, or financial decision or any procedure involving any risk to the 
#safety of any drilling venture, drilling rig or its crew or any other third party.  The 
#Customer has full responsibility for all drilling, completion and production operation.  
#Halliburton makes no representations or warranties, either expressed or 
#implied, including, but not limited to, the implied warranties of merchantability or fitness 
#for a particular purpose, with respect to the services rendered.  In no event will 
#Halliburton be liable for failure to obtain any particular results or for 
#any damages, including, but not limited to, indirect, special or consequential damages, 
#resulting from the use of any information or interpretation provided by Halliburton.
#
~A           TIME           GTDEPTH  GTPQH  GTTQ  GTTN  GTET   GTTVD  
# ...
   06:30:20.788.31-Jan-2020 3914.01 2993.68 78.41 4.00 299.06 2947.83
   06:30:20.988.31-Jan-2020 3914.01 2993.68 78.41 4.00 299.26 2947.83
   06:30:21.188.31-Jan-2020 3914.01 2993.68 78.41 4.00 299.46 2947.83
   06:30:21.388.31-Jan-2020 3914.01 2993.75 78.40 4.00 299.66 2947.83
   06:30:21.588.31-Jan-2020 3914.01 2993.69 78.40 4.00 299.86 2947.83
   06:30:21.788.31-Jan-2020 3914.01 2993.67 78.40 4.00 300.06 2947.83
   06:30:21.988.31-Jan-2020 3914.01 2993.67 78.40 4.00 300.26 2947.83
   06:30:22.188.31-Jan-2020 3914.01 2993.49 78.40 4.00 300.46 2947.83
   06:30:22.388.31-Jan-2020 3914.01 2993.83 78.40 4.00 300.66 2947.83
   06:30:22.589.31-Jan-2020 3914.01 2993.79 78.40 4.00 300.86 2947.83
   06:30:22.789.31-Jan-2020 3914.01 2993.79 78.40 4.00 301.06 2947.83
   06:30:22.989.31-Jan-2020 3914.01 2993.79 78.40 4.00 301.26 2947.83
   06:30:23.189.31-Jan-2020 3914.01 2993.73 78.40 4.00 301.46 2947.83
   06:30:23.389.31-Jan-2020 3914.01 2993.72 78.40 4.00 301.66 2947.83
   06:30:23.589.31-Jan-2020 3914.01 2993.69 78.40 4.00 301.86 2947.83
   06:30:23.789.31-Jan-2020 3914.01 2993.70 78.40 4.00 302.06 2947.83
   06:30:23.989.31-Jan-2020 3914.01 2993.70 78.40 4.00 302.26 2947.83
   06:30:24.189.31-Jan-2020 3914.01 2993.70 78.40 4.00 302.46 2947.83
   06:30:24.389.31-Jan-2020 3914.01 2993.67 78.40 4.00 302.66 2947.83
   06:30:24.589.31-Jan-2020 3914.01 2993.68 78.40 4.00 302.86 2947.83
   06:30:24.789.31-Jan-2020 3914.01 2993.66 78.40 4.00 303.06 2947.83
   06:30:24.989.31-Jan-2020 3914.01 2993.66 78.40 4.00 303.26 2947.83
   06:30:25.189.31-Jan-2020 3914.01 2993.71 78.40 4.00 303.46 2947.83
   06:30:25.389.31-Jan-2020 3914.01 2993.67 78.39 4.00 303.66 2947.83
   06:30:25.589.31-Jan-2020 3914.01 2993.57 78.39 4.00 303.86 2947.83
   06:30:25.789.31-Jan-2020 3914.01 2993.77 78.39 4.00 304.06 2947.83
   06:30:25.989.31-Jan-2020 3914.01 2993.77 78.39 4.00 304.26 2947.83
   06:30:26.189.31-Jan-2020 3914.01 2993.74 78.39 4.00 304.46 2947.83
   06:30:26.389.31-Jan-2020 3914.01 2993.68 78.39 4.00 304.66 2947.83
   06:30:26.589.31-Jan-2020 3914.01 2993.62 78.39 4.00 304.86 2947.83
   06:30:26.789.31-Jan-2020 3914.01 2993.85 78.39 4.00 305.06 2947.83
   06:30:26.989.31-Jan-2020 3914.01 2993.85 78.39 4.00 305.26 2947.83
   06:30:27.189.31-Jan-2020 3914.01 2993.76 78.39 4.00 305.46 2947.83
   06:30:27.390.31-Jan-2020 3914.01 2993.72 78.39 4.00 305.66 2947.83
   06:30:27.590.31-Jan-2020 3914.01 2993.74 78.39 4.00 305.86 2947.83
   06:30:27.790.31-Jan-2020 3914.01 2993.68 78.39 4.00 306.06 2947.83
   06:30:27.990.31-Jan-2020 3914.01 2993.68 78.39 4.00 306.26 2947.83
   06:30:28.190.31-Jan-2020 3914.01 2993.81 78.39 4.00 306.46 2947.83
   06:30:28.390.31-Jan-2020 3914.01 2993.81 78.39 4.00 306.66 2947.83
   06:30:28.590.31-Jan-2020 3914.01 2993.77 78.39 4.00 306.86 2947.83
   06:30:28.790.31-Jan-2020 3914.01 2993.73 78.39 4.00 307.06 2947.83
   06:30:28.990.31-Jan-2020 3914.01 2993.73 78.39 4.00 307.26 2947.83
   06:30:29.190.31-Jan-2020 3914.01 2993.86 78.39 4.00 307.46 2947.83
   06:30:29.390.31-Jan-2020 3914.01 2993.82 78.38 4.00 307.66 2947.83
   06:30:29.590.31-Jan-2020 3914.01 2993.78 78.38 4.00 307.86 2947.83
   06:30:29.790.31-Jan-2020 3914.01 2993.74 78.38 4.00 308.06 2947.83
   06:30:29.990.31-Jan-2020 3914.01 2993.74 78.38 4.00 308.26 2947.83
   06:30:30.190.31-Jan-2020 3914.01 2993.73 78.38 4.00 308.46 2947.83
   06:30:30.390.31-Jan-2020 3914.01 2993.51 78.38 4.00 308.66 2947.83
   06:30:30.590.31-Jan-2020 3914.01 2993.85 78.38 4.00 308.86 2947.83
   06:30:30.790.31-Jan-2020 3914.01 2993.84 78.38 4.00 309.06 2947.83
   06:30:30.990.31-Jan-2020 3914.01 2993.84 78.38 4.00 309.26 2947.83
   06:30:31.190.31-Jan-2020 3914.01 2993.73 78.38 4.00 309.46 2947.83
   06:30:31.390.31-Jan-2020 3914.01 2993.71 78.38 4.00 309.66 2947.83
   06:30:31.590.31-Jan-2020 3914.01 2993.69 78.38 4.00 309.86 2947.83
   06:30:31.790.31-Jan-2020 3914.01 2993.76 78.38 4.00 310.06 2947.83
   06:30:31.990.31-Jan-2020 3914.01 2993.76 78.38 4.00 310.26 2947.83
   06:30:32.190.31-Jan-2020 3914.01 2993.69 78.38 4.00 310.46 2947.83
   06:30:32.391.31-Jan-2020 3914.01 2993.69 78.38 4.00 310.66 2947.83
   06:30:32.591.31-Jan-2020 3914.01 2993.69 78.38 4.00 310.86 2947.83
   06:30:32.791.31-Jan-2020 3914.01 2993.69 78.38 4.00 311.06 2947.83
   06:30:32.991.31-Jan-2020 3914.01 2993.69 78.38 4.00 311.26 2947.83
   06:30:33.191.31-Jan-2020 3914.01 2993.69 78.38 4.00 311.46 2947.83
   06:30:33.391.31-Jan-2020 3914.01 2993.73 78.37 4.00 311.66 2947.83
   06:30:33.591.31-Jan-2020 3914.01 2993.68 78.37 4.00 311.86 2947.83
   06:30:33.791.31-Jan-2020 3914.01 2993.65 78.37 4.00 312.06 2947.83
   06:30:33.991.31-Jan-2020 3914.01 2993.65 78.37 4.00 312.26 2947.83
   06:30:34.191.31-Jan-2020 3914.01 2993.41 78.37 4.00 312.46 2947.83
   06:30:34.391.31-Jan-2020 3914.01 2993.89 78.37 4.00 312.66 2947.83
   06:30:34.591.31-Jan-2020 3914.01 2993.78 78.37 4.00 312.86 2947.83
   06:30:34.791.31-Jan-2020 3914.01 2993.78 78.37 4.00 313.06 2947.83
   06:30:34.991.31-Jan-2020 3914.01 2993.78 78.37 4.00 313.26 2947.83
   06:30:35.191.31-Jan-2020 3914.01 2993.70 78.37 4.00 313.46 2947.83
   06:30:35.391.31-Jan-2020 3914.01 2993.73 78.37 4.00 313.66 2947.83
   06:30:35.591.31-Jan-2020 3914.01 2993.68 78.37 4.00 313.86 2947.83
   06:30:35.791.31-Jan-2020 3914.01 2993.70 78.37 4.00 314.06 2947.83
   06:30:35.991.31-Jan-2020 3914.01 2993.70 78.37 4.00 314.26 2947.83
   06:30:36.191.31-Jan-2020 3914.01 2993.68 78.37 4.00 314.46 2947.83
   06:30:36.391.31-Jan-2020 3914.01 2993.66 78.37 4.00 314.66 2947.83
   06:30:36.591.31-Jan-2020 3914.01 2993.66 78.37 4.00 314.86 2947.83
   06:30:36.791.31-Jan-2020 3914.01 2993.67 78.37 4.00 315.06 2947.83
   06:30:36.991.31-Jan-2020 3914.01 2993.67 78.37 4.00 315.26 2947.83
   06:30:37.192.31-Jan-2020 3914.01 2993.70 78.37 4.00 315.46 2947.83
   06:30:37.392.31-Jan-2020 3914.01 2993.47 78.36 4.00 315.66 2947.83
   06:30:37.592.31-Jan-2020 3914.01 2993.81 78.36 4.00 315.86 2947.83
   06:30:37.792.31-Jan-2020 3914.01 2993.73 78.36 4.00 316.06 2947.83
   06:30:37.992.31-Jan-2020 3914.01 2993.73 78.36 4.00 316.26 2947.83
   06:30:38.192.31-Jan-2020 3914.01 2993.72 78.36 4.00 316.46 2947.83
   06:30:38.392.31-Jan-2020 3914.01 2993.51 78.36 4.00 316.66 2947.83
   06:30:38.592.31-Jan-2020 3914.01 2993.84 78.36 4.00 316.86 2947.83
   06:30:38.792.31-Jan-2020 3914.01 2993.79 78.36 4.00 317.06 2947.83
   06:30:38.992.31-Jan-2020 3914.01 2993.79 78.36 4.00 317.26 2947.83
   06:30:39.192.31-Jan-2020 3914.01 2993.73 78.36 4.00 317.46 2947.83
   06:30:39.392.31-Jan-2020 3914.01 2993.71 78.36 4.00 317.66 2947.83
   06:30:39.592.31-Jan-2020 3914.01 2993.72 78.36 4.00 317.86 2947.83
   06:30:39.792.31-Jan-2020 3914.01 2993.51 78.36 4.00 318.06 2947.83
   06:30:39.992.31-Jan-2020 3914.01 2993.51 78.36 4.00 318.26 2947.83
   06:30:40.192.31-Jan-2020 3914.01 2993.78 78.36 4.00 318.46 2947.83
   06:30:40.392.31-Jan-2020 3914.01 2993.79 78.36 4.00 318.66 2947.83
   06:30:40.592.31-Jan-2020 3914.01 2993.73 78.36 4.00 318.86 2947.83
   06:30:40.792.31-Jan-2020 3914.01 2993.65 78.36 4.00 319.06 2947.83
   06:30:40.992.31-Jan-2020 3914.01 2993.65 78.36 4.00 319.26 2947.83
   06:30:41.192.31-Jan-2020 3914.01 2993.82 78.36 4.00 319.46 2947.83
   06:30:41.392.31-Jan-2020 3914.01 2993.79 78.35 4.00 319.66 2947.83
   06:30:41.592.31-Jan-2020 3914.01 2993.75 78.35 4.00 319.86 2947.83
   06:30:41.792.31-Jan-2020 3914.01 2993.72 78.35 4.00 320.06 2947.83
   06:30:41.992.31-Jan-2020 3914.01 2993.72 78.35 4.00 320.27 2947.83
   06:30:42.193.31-Jan-2020 3914.01 2993.71 78.35 4.00 320.47 2947.83
   06:30:42.393.31-Jan-2020 3914.01 2993.43 78.35 4.00 320.67 2947.83
   06:30:42.593.31-Jan-2020 3914.01 2993.94 78.35 4.00 320.87 2947.83
   06:30:42.793.31-Jan-2020 3914.01 2993.81 78.35 4.00 321.07 2947.83
   06:30:42.993.31-Jan-2020 3914.01 2993.81 78.35 4.00 321.27 2947.83
   06:30:43.193.31-Jan-2020 3914.01 2993.72 78.35 4.00 321.47 2947.83
   06:30:43.393.31-Jan-2020 3914.01 2993.69 78.35 4.00 321.67 2947.83
   06:30:43.593.31-Jan-2020 3914.01 2993.70 78.35 4.00 321.87 2947.83
