~Version Information
 VERS.                  2.0:   CWLS log ASCII Standard -VERSION 2.0
 WRAP.                   NO:   One line per depth step
~Well Information Block
#MNEM.UNIT     VALUE/NAME     DESCRIPTION
#---------     -----------    ---------------------------
 STRT.S             01:28:25 01-Feb-20: START TIME 01:28:25 01-Feb-20
 STOP.S             01:36:19 01-Feb-20: STOP TIME  01:36:19 01-Feb-20
 STEP.S                   0.00: STEP TIME
 NULL.                 -999.25: NULL VALUE
 DFWT.                        :  DIST FWL TEXT
 DFST.                        :  DIST FSL TEXT
 DMF .             Drill Floor:  DRILL MEAS FROM
 STIM.      09.30.00 26-Dec-19:  START TIME
 DATE.      08.00.00 20-Jan-20:  END TIME
 SPUD.               23-Nov-19:  SPUD DATE
 NREF.                    Grid:  NORTH REFERENCE
 HPTY.       Minimum Curvature:  HOLE POS TYPE
 DMOD.             Drill Model:  DRILL MOD DESC
 SVYD.                  Survey:  SURVEY DESC
 ILTD.               Lithology:  INTERP LTH DESC
 FTOP.          Formation Tops:  FORM TOPS DESC
 SON .        AZ-XX-0906192647:  JOB NUMBER
 WTYP.                Deviated:  WELL TYPE
 COMP.     BP Exploration (Caspian Sea) Ltd:  COMPANY
 BASE.              Azerbaijan:  LOGGING EQUIPMENT BASE LOCATION
 REGN.                 Eurasia:  REGION
 FLD .                     ACG:  FIELD NAME
 SRVC.              KCA Deutag:  CONTRACTOR
 MWDS.                    Baku:  MWD SHOP
 WELL.     A10 (Slot 20) - SCP:  WELL NAME
 JOBN.        AZ-XX-0906192647:  JOB TICKET NUMB
 RIG .                 Chirag1:  RIG NAME
 DCON.     Halliburton Sperry Drilling:  DIRECTNL CONTR
 UNIT.                     N/A:  LOGGING EQUIPMENT ID
 PDAT.          Mean Sea Level:  PERMANENT DATUM
 MDS .        Operator Entered:  MAG DATA SOURCE
 CTRY.              Azerbaijan:  COUNTRY NAME
 UWI .            /AZE00000090:  UNIQUE WELL IDENTIFIER
 API .            /AZE00000090:  API NUMBER
 CNTY.                        :  COUNTY
 PROV.                        :  PROVINCE
 STAT.                        :  STATE
 LOC .                        :  LOCATION
 LMF .             Drill Floor:  LOG MEASURED FROM
 TVDS.m                  36.60:  TVDSS CORRECTN
 LATI.deg                40.08:  LATITUDE
 LONG.deg                51.24:  LONGITUDE
 WHNS.m                  -7.94:  WELL HEAD N/S
 WHEW.m                   1.56:  WELL HEAD E/W
 UTMX.m              520429.26:  UTM X
 UTMY.m             4438973.87:  UTM Y
 DFWL.m                   0.00:  DISTANCE FWL
 DFSL.m                   0.00:  DISTANCE FSL
 SDEP.m                1455.00:  START DEPTH
 TDD .m                4047.51:  TOTAL DEPTH (DRILLER)
 VSDR.deg               112.75:  VERT SEC DIRECT
 GVFD.g                   1.00:  GRAVITY FIELD
 MFLD.nT              50261.00:  MAGNETIC FIELD
 MDIP.deg                59.52:  MAGNETIC DIP
 MDEC.deg                 6.42:  MAGNETIC DECL
 GRDC.deg                 0.17:  GRID CORRECTION
 AZTC.deg                 6.25:  AZM TOTAL CORR
 EPD .m                   0.00:  ELEVATION
 EGL .m                   0.00:  GROUND ELEVATION
 WDMS.m                 121.00:  WD ELEV
 APD .m                  36.60:  DEPTH ABOVE PD
 AGAP.m                  36.60:  AIR GAP
 VSEW.m                   1.56:  VERT SEC E/W
 VSNS.m                  -7.94:  VERT SEC N/S
 DEP .m                1140.01:  DEPTH
 EKB .m                  36.60:  KB ELEVATION
 EDF .m                  36.60:  DF ELEVATION
 TDL .m                 169.50:  TOTAL DEPTH (LOGGER)
 CSGD.m                3875.01:  CASING BOTTOM (DRILLER)
 CSGL.m                3875.01:  CASING BOTTOM (LOGGER)
 CSGS.in                  7.63:  CASING SIZE
 CSGW.lbpf               23.50:  CASING WEIGHT
 VSC .                       0:  VS TO CLOSURE
 MAGU.                 1849206:  MAGUTM CHECKSUM
~Parameter Information Block
#MNEM.UNIT       Value        Description
#---------     -----------    ---------------------------
 AV  .mps                 1.90:  Ann Velocity 
 AVMX.mps                 2.54:  Max Ann Veloc 
 AZIF.deg               137.03:  Azm, Final 
 BHAT.        Rotary Steerable:  BHA Type 
 BREV.rev             23610.00:  Rev Bit Total 
 BROT.°/30m               0.80:  Build Rotating 
 BS  .in                  6.50:  Bit Size 
 BTPL.psig              110.00:  Bit Press Loss 
 CABU.                     Yes:  Customer Abuse 
 COMM.                     ì…†:  Run Comments 1 
 TCS .hr                 70.51:  Time Ciculation Ended 
 CV  .mps                 1.41:  Crit Velocity 
 CVMX.mps                 1.42:  Max Crit Veloc 
 DD1 .         Intigam Rahimov:  Direct Drillr 1 
 DD2 .          Rashad Gojayev:  Direct Drillr 2 
 DDSV.               Geo-Pilot:  DD Service 
 DEFF.%                 100.00:  % Det Eff 
 DLRX.°/30m               1.44:  Dogleg Rot Max 
 DLSO.°/30m               0.00:  Dogleg Oriented 
 DLSX.°/30m               0.00:  Dogleg Str Max 
 DRET.      03.05.00 01-Feb-20:  Drill End Time 
 DRST.      15.50.00 28-Jan-20:  Drill Start Tim 
 DTIM.hr                 24.70:  Time Drilling 
 EDEP.m                4047.51:  End Depth 
 ENG1.           Eldar Hajiyev:  Engineer 1 
 ENG2.          Rasim Hashimov:  Engineer 2 
 ENG3.          Rustam Safarov:  Engineer 3 
 ETIM.      22.00.00 01-Feb-20:  End Time 
 FLOI.gpm               370.00:  Flow In 
 FLON.gpm               300.00:  Flow In Min 
 FLOS.cptm                0.00:  Fluid Loss 
 FLOX.gpm               400.00:  Flow In Max 
 FTRO.       Formation Presure:  FTWD Run Obj 
 HFLO.                      No:  High Flow 
 HPRE.                      No:  High Pressure 
 HTEM.                      No:  High Temp 
 HYDO.m                   2.50:  Hydro Offset 
 IFIN.deg                39.54:  Inc, Final 
 IMAX.deg                41.14:  Inc Max 
 IMIN.deg                39.81:  Inc Min 
 IMND.m                4005.21:  Inc Min Depth 
 IMXD.m                3948.42:  Inc Max Depth 
 JARR.                      No:  Jarring 
 LETM.      03.05.00 01-Feb-20:  Log End Time 
 LOST.hr                     0:  Lost Rig Time 
 LSTM.      15.50.00 28-Jan-20:  Log Start Time 
 MDCL.ppm             37500.00:  Mud Chlorides 
 MDES.     Inversion Oil/Synthetic:  Mud Desc 
 DFD .sg                  1.32:  Mud Density 
 MDMN.sg                  1.32:  Dens Mud Min 
 MDMX.sg                  1.32:  Dens Mud Max 
 MOIL.                      55:  Run Mud Oil % 
 MOWR.                   70:30:  Run Mud OWR 
 MSND.                       0:  Run Mud Sand % 
 MSOL.                      17:  Run Mud Solids% 
 DFV .spqt               80.00:  Mud Viscosity 
 MWOD.in                  4.75:  MWD Tool OD 
 MWSI.                      No:  Serv Intrp, MWD 
 OTIM.hr                121.28:  Time Operating 
 PCON.           Look Like New:  Pad Condition 
 PMAX.psia             6171.00:  Press Op, Max 
 PV  .cP                 30.00:  Mud PV 
 RUN .                     300:  Run Number 
 ROPA.m/hr                5.45:  ROP Avg 
 ROPN.m/hr                3.00:  ROP Min 
 ROPX.m/hr               15.00:  ROP Max 
 RPMA.rpm               130.00:  RPM Surface Avg 
 RPMN.rpm                80.00:  RPM Surface Min 
 RPMX.rpm               140.00:  RPM Surface Max 
 RRUN.                     300:  Rig Run Number 
 RTIM.hr                 13.50:  Time Reaming 
 SAZI.deg               133.93:  Azm, Start 
 SDEP.m                3878.01:  Start Depth 
 SIDD.                      No:  Serv Intrp, DD 
 SINC.deg                40.28:  Inc, Start 
 SPPA.psig             4983.00:  SPP Avg 
 SPPN.psig             4370.00:  SPP Min 
 SPPX.psig             5300.00:  SPP Max 
 STIM.      18.33.36 27-Jan-20:  Start Time 
 SVCS.                 DD, MWD:  Services 
 SVER.                    9.20:  Sperry Version 
 TDAT.m                 169.50:  Tot Depth Attmp 
 TDDF.                      No:  Trip for DD 
 TDLG.m                 169.50:  Tot Depth Loggd 
 TFF .                      No:  Trip for Fail 
 TQAA.f-kp               13.25:  Torque Abs Avg 
 TQAN.f-kp               12.00:  Torque Abs Min 
 TQAX.f-kp               14.00:  Torque Abs Max 
 TRRT.°/30m               0.70:  Turn Rotating 
 MRT .                     ADR:  Maximum Recorded Temperature 
 TTMX.degC               92.16:  Max Tool Temp 
 VS01.       AZ90598764G12V7D4:  Virtual Str1 SN 
 VS02.         AZ90571342R12C4:  Virtual Str2 SN 
 VS03.      AZ90580010N2L2X1C4:  Virtual Str3 SN 
 VS04.        AZ90522266O7X1C4:  Virtual Str4 SN 
 VS05.           AZ90598768F11:  Virtual Str5 SN 
 VS06.     AZ90580006XZ1W1X1C4:  Virtual Str6 SN 
 WBMN.klb                 8.00:  WOB Min 
 WITN.            Peter Wilson:  Customer Rep 
 WOBA.klb                 9.88:  WOB Avg 
 WOBX.klb                10.00:  WOB Max 
 YP  .lhf2               27.00:  Yield Point 
~Curve Information Block
#MNEM.UNIT                 API CODE     Curve Description
#---------               -----------    ---------------------------
 TIME.HHMMSS            00 000 000 000:  GT Time & Date
 GTDEPTH.m              00 000 000 000:  GT Depth
 GTPQH.psia             00 000 000 000:  GT HR Quartz Pressure
 GTTQ.degC              00 000 000 000:  GT Quartz Temperature
 GTTN.NONE              00 000 000 000:  GT Test Number
 GTET.sec               00 000 000 000:  GT Elapsed Test Time
 GTTVD.m                00 000 000 000:  GT True Vertical Depth
#Other Information
#
#WARRANTY: Halliburton will use its best efforts to furnish customers with 
#accurate information and interpretations that are part of, and incident to, the services 
#provided.  However, Halliburton cannot and does not warrant the accuracy 
#or correctness of such information and interpretations.  Under no circumstances should any 
#such information or interpretation be relied upon as the sole basis for any drilling, 
#completion, production, or financial decision or any procedure involving any risk to the 
#safety of any drilling venture, drilling rig or its crew or any other third party.  The 
#Customer has full responsibility for all drilling, completion and production operation.  
#Halliburton makes no representations or warranties, either expressed or 
#implied, including, but not limited to, the implied warranties of merchantability or fitness 
#for a particular purpose, with respect to the services rendered.  In no event will 
#Halliburton be liable for failure to obtain any particular results or for 
#any damages, including, but not limited to, indirect, special or consequential damages, 
#resulting from the use of any information or interpretation provided by Halliburton.
#
~A           TIME           GTDEPTH  GTPQH  GTTQ  GTTN   GTET   GTTVD  
# ...
   01:34:50.572.01-Feb-2020 3990.12 3216.92 84.30 11.00 385.55 3005.35
   01:34:50.773.01-Feb-2020 3990.12 3216.80 84.30 11.00 385.75 3005.35
   01:34:50.974.01-Feb-2020 3990.12 3217.00 84.30 11.00 385.95 3005.35
   01:34:51.174.01-Feb-2020 3990.12 3216.66 84.30 11.00 386.15 3005.35
   01:34:51.375.01-Feb-2020 3990.12 3216.90 84.30 11.00 386.35 3005.35
   01:34:51.576.01-Feb-2020 3990.12 3216.90 84.30 11.00 386.55 3005.35
   01:34:51.776.01-Feb-2020 3990.12 3216.96 84.30 11.00 386.75 3005.35
   01:34:51.977.01-Feb-2020 3990.12 3216.98 84.30 11.00 386.95 3005.35
   01:34:52.178.01-Feb-2020 3990.12 3216.57 84.30 11.00 387.15 3005.35
   01:34:52.378.01-Feb-2020 3990.12 3216.70 84.30 11.00 387.35 3005.35
   01:34:52.579.01-Feb-2020 3990.12 3216.70 84.30 11.00 387.56 3005.35
   01:34:52.780.01-Feb-2020 3990.12 3216.96 84.29 11.00 387.76 3005.35
   01:34:52.981.01-Feb-2020 3990.12 3217.01 84.29 11.00 387.96 3005.35
   01:34:53.181.01-Feb-2020 3990.12 3217.19 84.29 11.00 388.16 3005.35
   01:34:53.382.01-Feb-2020 3990.12 3216.68 84.29 11.00 388.36 3005.35
   01:34:53.583.01-Feb-2020 3990.12 3216.68 84.29 11.00 388.56 3005.35
   01:34:53.783.01-Feb-2020 3990.12 3216.90 84.29 11.00 388.76 3005.35
   01:34:53.984.01-Feb-2020 3990.12 3216.86 84.29 11.00 388.96 3005.35
   01:34:54.185.01-Feb-2020 3990.12 3217.10 84.29 11.00 389.16 3005.35
   01:34:54.385.01-Feb-2020 3990.12 3216.79 84.29 11.00 389.36 3005.35
   01:34:54.586.01-Feb-2020 3990.12 3216.79 84.29 11.00 389.56 3005.35
   01:34:54.787.01-Feb-2020 3990.12 3216.93 84.29 11.00 389.76 3005.35
   01:34:54.988.01-Feb-2020 3990.12 3216.97 84.29 11.00 389.96 3005.35
   01:34:55.188.01-Feb-2020 3990.12 3217.04 84.29 11.00 390.16 3005.35
   01:34:55.389.01-Feb-2020 3990.12 3217.15 84.29 11.00 390.36 3005.35
   01:34:55.590.01-Feb-2020 3990.12 3217.15 84.29 11.00 390.57 3005.35
   01:34:55.790.01-Feb-2020 3990.12 3216.70 84.29 11.00 390.77 3005.35
   01:34:55.991.01-Feb-2020 3990.12 3216.89 84.29 11.00 390.97 3005.35
   01:34:56.192.01-Feb-2020 3990.12 3216.79 84.29 11.00 391.17 3005.35
   01:34:56.392.01-Feb-2020 3990.12 3217.07 84.29 11.00 391.37 3005.35
   01:34:56.593.01-Feb-2020 3990.12 3217.07 84.29 11.00 391.57 3005.35
   01:34:56.794.01-Feb-2020 3990.12 3217.04 84.29 11.00 391.77 3005.35
   01:34:56.995.01-Feb-2020 3990.12 3217.12 84.29 11.00 391.97 3005.35
   01:34:57.195.01-Feb-2020 3990.12 3217.05 84.29 11.00 392.17 3005.35
   01:34:57.396.01-Feb-2020 3990.12 3216.98 84.29 11.00 392.37 3005.35
   01:34:57.597.01-Feb-2020 3990.12 3216.98 84.29 11.00 392.57 3005.35
   01:34:57.797.01-Feb-2020 3990.12 3217.02 84.28 11.00 392.77 3005.35
   01:34:57.998.01-Feb-2020 3990.12 3217.02 84.28 11.00 392.97 3005.35
   01:34:58.199.01-Feb-2020 3990.12 3217.15 84.28 11.00 393.17 3005.35
   01:34:58.400.01-Feb-2020 3990.12 3216.96 84.28 11.00 393.38 3005.35
   01:34:58.600.01-Feb-2020 3990.12 3216.96 84.28 11.00 393.58 3005.35
   01:34:58.801.01-Feb-2020 3990.12 3217.04 84.28 11.00 393.78 3005.35
   01:34:59.002.01-Feb-2020 3990.12 3216.99 84.28 11.00 393.98 3005.35
   01:34:59.202.01-Feb-2020 3990.12 3217.07 84.28 11.00 394.18 3005.35
   01:34:59.403.01-Feb-2020 3990.12 3217.18 84.28 11.00 394.38 3005.35
   01:34:59.604.01-Feb-2020 3990.12 3217.18 84.28 11.00 394.58 3005.35
   01:34:59.804.01-Feb-2020 3990.12 3217.01 84.28 11.00 394.78 3005.35
   01:35:00.005.01-Feb-2020 3990.12 3217.07 84.28 11.00 394.98 3005.35
   01:35:00.206.01-Feb-2020 3990.12 3217.04 84.28 11.00 395.18 3005.35
   01:35:00.407.01-Feb-2020 3990.12 3217.22 84.28 11.00 395.38 3005.35
   01:35:00.607.01-Feb-2020 3990.12 3217.22 84.28 11.00 395.58 3005.35
   01:35:00.808.01-Feb-2020 3990.12 3217.14 84.28 11.00 395.78 3005.35
   01:35:01.009.01-Feb-2020 3990.12 3217.21 84.28 11.00 395.98 3005.35
   01:35:01.209.01-Feb-2020 3990.12 3217.05 84.28 11.00 396.19 3005.35
   01:35:01.410.01-Feb-2020 3990.12 3217.20 84.28 11.00 396.39 3005.35
   01:35:01.611.01-Feb-2020 3990.12 3217.20 84.28 11.00 396.59 3005.35
   01:35:01.811.01-Feb-2020 3990.12 3217.12 84.28 11.00 396.79 3005.35
   01:35:02.012.01-Feb-2020 3990.12 3217.18 84.28 11.00 396.99 3005.35
   01:35:02.213.01-Feb-2020 3990.12 3217.10 84.28 11.00 397.19 3005.35
   01:35:02.414.01-Feb-2020 3990.12 3217.09 84.28 11.00 397.39 3005.35
   01:35:02.614.01-Feb-2020 3990.12 3217.09 84.28 11.00 397.59 3005.35
   01:35:02.815.01-Feb-2020 3990.12 3216.87 84.27 11.00 397.79 3005.35
   01:35:03.016.01-Feb-2020 3990.12 3217.10 84.27 11.00 397.99 3005.35
   01:35:03.216.01-Feb-2020 3990.12 3217.21 84.27 11.00 398.19 3005.35
   01:35:03.417.01-Feb-2020 3990.12 3217.11 84.27 11.00 398.39 3005.35
   01:35:03.618.01-Feb-2020 3990.12 3217.11 84.27 11.00 398.59 3005.35
   01:35:03.818.01-Feb-2020 3990.12 3216.90 84.27 11.00 398.79 3005.35
   01:35:04.019.01-Feb-2020 3990.12 3217.01 84.27 11.00 399.00 3005.35
   01:35:04.220.01-Feb-2020 3990.12 3217.16 84.27 11.00 399.20 3005.35
   01:35:04.421.01-Feb-2020 3990.12 3217.19 84.27 11.00 399.40 3005.35
   01:35:04.621.01-Feb-2020 3990.12 3217.19 84.27 11.00 399.60 3005.35
   01:35:04.822.01-Feb-2020 3990.12 3217.45 84.27 11.00 399.80 3005.35
   01:35:05.023.01-Feb-2020 3990.12 3216.94 84.27 11.00 400.00 3005.35
   01:35:05.223.01-Feb-2020 3990.12 3217.09 84.27 11.00 400.20 3005.35
   01:35:05.424.01-Feb-2020 3990.12 3217.19 84.27 11.00 400.40 3005.35
   01:35:05.625.01-Feb-2020 3990.12 3217.19 84.27 11.00 400.60 3005.35
   01:35:05.825.01-Feb-2020 3990.12 3217.34 84.27 11.00 400.80 3005.35
   01:35:06.026.01-Feb-2020 3990.12 3217.05 84.27 11.00 401.00 3005.35
   01:35:06.227.01-Feb-2020 3990.12 3217.06 84.27 11.00 401.20 3005.35
   01:35:06.428.01-Feb-2020 3990.12 3217.20 84.27 11.00 401.40 3005.35
   01:35:06.628.01-Feb-2020 3990.12 3217.20 84.27 11.00 401.60 3005.35
   01:35:06.829.01-Feb-2020 3990.12 3217.25 84.27 11.00 401.80 3005.35
   01:35:07.030.01-Feb-2020 3990.12 3217.40 84.27 11.00 402.01 3005.35
   01:35:07.230.01-Feb-2020 3990.12 3217.34 84.27 11.00 402.21 3005.35
   01:35:07.431.01-Feb-2020 3990.12 3216.94 84.27 11.00 402.41 3005.35
   01:35:07.632.01-Feb-2020 3990.12 3216.94 84.27 11.00 402.61 3005.35
   01:35:07.832.01-Feb-2020 3990.12 3217.16 84.26 11.00 402.81 3005.35
   01:35:08.033.01-Feb-2020 3990.12 3217.34 84.26 11.00 403.01 3005.35
   01:35:08.234.01-Feb-2020 3990.12 3217.51 84.26 11.00 403.21 3005.35
   01:35:08.435.01-Feb-2020 3990.12 3217.36 84.26 11.00 403.41 3005.35
   01:35:08.635.01-Feb-2020 3990.12 3217.36 84.26 11.00 403.61 3005.35
   01:35:08.836.01-Feb-2020 3990.12 3217.32 84.26 11.00 403.81 3005.35
   01:35:09.037.01-Feb-2020 3990.12 3217.28 84.26 11.00 404.01 3005.35
   01:35:09.237.01-Feb-2020 3990.12 3217.40 84.26 11.00 404.21 3005.35
   01:35:09.438.01-Feb-2020 3990.12 3217.27 84.26 11.00 404.41 3005.35
   01:35:09.639.01-Feb-2020 3990.12 3217.27 84.26 11.00 404.61 3005.35
   01:35:09.840.01-Feb-2020 3990.12 3217.39 84.26 11.00 404.82 3005.35
   01:35:10.040.01-Feb-2020 3990.12 3217.25 84.26 11.00 405.02 3005.35
   01:35:10.241.01-Feb-2020 3990.12 3217.23 84.26 11.00 405.22 3005.35
   01:35:10.442.01-Feb-2020 3990.12 3217.32 84.26 11.00 405.42 3005.35
   01:35:10.642.01-Feb-2020 3990.12 3217.32 84.26 11.00 405.62 3005.35
   01:35:10.843.01-Feb-2020 3990.12 3217.37 84.26 11.00 405.82 3005.35
   01:35:11.044.01-Feb-2020 3990.12 3217.44 84.26 11.00 406.02 3005.35
   01:35:11.244.01-Feb-2020 3990.12 3216.97 84.26 11.00 406.22 3005.35
   01:35:11.445.01-Feb-2020 3990.12 3217.21 84.26 11.00 406.42 3005.35
   01:35:11.646.01-Feb-2020 3990.12 3217.21 84.26 11.00 406.62 3005.35
   01:35:11.847.01-Feb-2020 3990.12 3217.29 84.26 11.00 406.82 3005.35
   01:35:12.047.01-Feb-2020 3990.12 3217.42 84.26 11.00 407.02 3005.35
   01:35:12.248.01-Feb-2020 3990.12 3217.31 84.26 11.00 407.22 3005.35
   01:35:12.449.01-Feb-2020 3990.12 3217.34 84.26 11.00 407.42 3005.35
   01:35:12.649.01-Feb-2020 3990.12 3217.34 84.26 11.00 407.63 3005.35
   01:35:12.850.01-Feb-2020 3990.12 3217.37 84.25 11.00 407.83 3005.35
   01:35:13.051.01-Feb-2020 3990.12 3217.42 84.25 11.00 408.03 3005.35
