~Version Information
 VERS.                  2.0:   CWLS log ASCII Standard -VERSION 2.0
 WRAP.                   NO:   One line per depth step
~Well Information Block
#MNEM.UNIT     VALUE/NAME     DESCRIPTION
#---------     -----------    ---------------------------
 STRT.S             04:12:25 01-Feb-20: START TIME 04:12:25 01-Feb-20
 STOP.S             04:20:20 01-Feb-20: STOP TIME  04:20:20 01-Feb-20
 STEP.S                   0.00: STEP TIME
 NULL.                 -999.25: NULL VALUE
 DFWT.                        :  DIST FWL TEXT
 DFST.                        :  DIST FSL TEXT
 DMF .             Drill Floor:  DRILL MEAS FROM
 STIM.      09.30.00 26-Dec-19:  START TIME
 DATE.      08.00.00 20-Jan-20:  END TIME
 SPUD.               23-Nov-19:  SPUD DATE
 NREF.                    Grid:  NORTH REFERENCE
 HPTY.       Minimum Curvature:  HOLE POS TYPE
 DMOD.             Drill Model:  DRILL MOD DESC
 SVYD.                  Survey:  SURVEY DESC
 ILTD.               Lithology:  INTERP LTH DESC
 FTOP.          Formation Tops:  FORM TOPS DESC
 SON .        AZ-XX-0906192647:  JOB NUMBER
 WTYP.                Deviated:  WELL TYPE
 COMP.     BP Exploration (Caspian Sea) Ltd:  COMPANY
 BASE.              Azerbaijan:  LOGGING EQUIPMENT BASE LOCATION
 REGN.                 Eurasia:  REGION
 FLD .                     ACG:  FIELD NAME
 SRVC.              KCA Deutag:  CONTRACTOR
 MWDS.                    Baku:  MWD SHOP
 WELL.     A10 (Slot 20) - SCP:  WELL NAME
 JOBN.        AZ-XX-0906192647:  JOB TICKET NUMB
 RIG .                 Chirag1:  RIG NAME
 DCON.     Halliburton Sperry Drilling:  DIRECTNL CONTR
 UNIT.                     N/A:  LOGGING EQUIPMENT ID
 PDAT.          Mean Sea Level:  PERMANENT DATUM
 MDS .        Operator Entered:  MAG DATA SOURCE
 CTRY.              Azerbaijan:  COUNTRY NAME
 UWI .            /AZE00000090:  UNIQUE WELL IDENTIFIER
 API .            /AZE00000090:  API NUMBER
 CNTY.                        :  COUNTY
 PROV.                        :  PROVINCE
 STAT.                        :  STATE
 LOC .                        :  LOCATION
 LMF .             Drill Floor:  LOG MEASURED FROM
 TVDS.m                  36.60:  TVDSS CORRECTN
 LATI.deg                40.08:  LATITUDE
 LONG.deg                51.24:  LONGITUDE
 WHNS.m                  -7.94:  WELL HEAD N/S
 WHEW.m                   1.56:  WELL HEAD E/W
 UTMX.m              520429.26:  UTM X
 UTMY.m             4438973.87:  UTM Y
 DFWL.m                   0.00:  DISTANCE FWL
 DFSL.m                   0.00:  DISTANCE FSL
 SDEP.m                1455.00:  START DEPTH
 TDD .m                4047.51:  TOTAL DEPTH (DRILLER)
 VSDR.deg               112.75:  VERT SEC DIRECT
 GVFD.g                   1.00:  GRAVITY FIELD
 MFLD.nT              50261.00:  MAGNETIC FIELD
 MDIP.deg                59.52:  MAGNETIC DIP
 MDEC.deg                 6.42:  MAGNETIC DECL
 GRDC.deg                 0.17:  GRID CORRECTION
 AZTC.deg                 6.25:  AZM TOTAL CORR
 EPD .m                   0.00:  ELEVATION
 EGL .m                   0.00:  GROUND ELEVATION
 WDMS.m                 121.00:  WD ELEV
 APD .m                  36.60:  DEPTH ABOVE PD
 AGAP.m                  36.60:  AIR GAP
 VSEW.m                   1.56:  VERT SEC E/W
 VSNS.m                  -7.94:  VERT SEC N/S
 DEP .m                1140.01:  DEPTH
 EKB .m                  36.60:  KB ELEVATION
 EDF .m                  36.60:  DF ELEVATION
 TDL .m                 169.50:  TOTAL DEPTH (LOGGER)
 CSGD.m                3875.01:  CASING BOTTOM (DRILLER)
 CSGL.m                3875.01:  CASING BOTTOM (LOGGER)
 CSGS.in                  7.63:  CASING SIZE
 CSGW.lbpf               23.50:  CASING WEIGHT
 VSC .                       0:  VS TO CLOSURE
 MAGU.                 1849206:  MAGUTM CHECKSUM
~Parameter Information Block
#MNEM.UNIT       Value        Description
#---------     -----------    ---------------------------
 AV  .mps                 1.90:  Ann Velocity 
 AVMX.mps                 2.54:  Max Ann Veloc 
 AZIF.deg               137.03:  Azm, Final 
 BHAT.        Rotary Steerable:  BHA Type 
 BREV.rev             23610.00:  Rev Bit Total 
 BROT.°/30m               0.80:  Build Rotating 
 BS  .in                  6.50:  Bit Size 
 BTPL.psig              110.00:  Bit Press Loss 
 CABU.                     Yes:  Customer Abuse 
 TCS .hr                 70.51:  Time Ciculation Ended 
 CV  .mps                 1.41:  Crit Velocity 
 CVMX.mps                 1.42:  Max Crit Veloc 
 DD1 .         Intigam Rahimov:  Direct Drillr 1 
 DD2 .          Rashad Gojayev:  Direct Drillr 2 
 DDSV.               Geo-Pilot:  DD Service 
 DEFF.%                 100.00:  % Det Eff 
 DLRX.°/30m               1.44:  Dogleg Rot Max 
 DLSO.°/30m               0.00:  Dogleg Oriented 
 DLSX.°/30m               0.00:  Dogleg Str Max 
 DRET.      03.05.00 01-Feb-20:  Drill End Time 
 DRST.      15.50.00 28-Jan-20:  Drill Start Tim 
 DTIM.hr                 24.70:  Time Drilling 
 EDEP.m                4047.51:  End Depth 
 ENG1.           Eldar Hajiyev:  Engineer 1 
 ENG2.          Rasim Hashimov:  Engineer 2 
 ENG3.          Rustam Safarov:  Engineer 3 
 ETIM.      22.00.00 01-Feb-20:  End Time 
 FLOI.gpm               370.00:  Flow In 
 FLON.gpm               300.00:  Flow In Min 
 FLOS.cptm                0.00:  Fluid Loss 
 FLOX.gpm               400.00:  Flow In Max 
 FTRO.       Formation Presure:  FTWD Run Obj 
 HFLO.                      No:  High Flow 
 HPRE.                      No:  High Pressure 
 HTEM.                      No:  High Temp 
 HYDO.m                   2.50:  Hydro Offset 
 IFIN.deg                39.54:  Inc, Final 
 IMAX.deg                41.14:  Inc Max 
 IMIN.deg                39.81:  Inc Min 
 IMND.m                4005.21:  Inc Min Depth 
 IMXD.m                3948.42:  Inc Max Depth 
 JARR.                      No:  Jarring 
 LETM.      03.05.00 01-Feb-20:  Log End Time 
 LOST.hr                     0:  Lost Rig Time 
 LSTM.      15.50.00 28-Jan-20:  Log Start Time 
 MDCL.ppm             37500.00:  Mud Chlorides 
 MDES.     Inversion Oil/Synthetic:  Mud Desc 
 DFD .sg                  1.32:  Mud Density 
 MDMN.sg                  1.32:  Dens Mud Min 
 MDMX.sg                  1.32:  Dens Mud Max 
 MOIL.                      55:  Run Mud Oil % 
 MOWR.                   70:30:  Run Mud OWR 
 MSND.                       0:  Run Mud Sand % 
 MSOL.                      17:  Run Mud Solids% 
 DFV .spqt               80.00:  Mud Viscosity 
 MWOD.in                  4.75:  MWD Tool OD 
 MWSI.                      No:  Serv Intrp, MWD 
 OTIM.hr                121.28:  Time Operating 
 PCON.           Look Like New:  Pad Condition 
 PMAX.psia             6171.00:  Press Op, Max 
 PV  .cP                 30.00:  Mud PV 
 RUN .                     300:  Run Number 
 ROPA.m/hr                5.45:  ROP Avg 
 ROPN.m/hr                3.00:  ROP Min 
 ROPX.m/hr               15.00:  ROP Max 
 RPMA.rpm               130.00:  RPM Surface Avg 
 RPMN.rpm                80.00:  RPM Surface Min 
 RPMX.rpm               140.00:  RPM Surface Max 
 RRUN.                     300:  Rig Run Number 
 RTIM.hr                 13.50:  Time Reaming 
 SAZI.deg               133.93:  Azm, Start 
 SDEP.m                3878.01:  Start Depth 
 SIDD.                      No:  Serv Intrp, DD 
 SINC.deg                40.28:  Inc, Start 
 SPPA.psig             4983.00:  SPP Avg 
 SPPN.psig             4370.00:  SPP Min 
 SPPX.psig             5300.00:  SPP Max 
 STIM.      18.33.36 27-Jan-20:  Start Time 
 SVCS.                 DD, MWD:  Services 
 SVER.                    9.20:  Sperry Version 
 TDAT.m                 169.50:  Tot Depth Attmp 
 TDDF.                      No:  Trip for DD 
 TDLG.m                 169.50:  Tot Depth Loggd 
 TFF .                      No:  Trip for Fail 
 TQAA.f-kp               13.25:  Torque Abs Avg 
 TQAN.f-kp               12.00:  Torque Abs Min 
 TQAX.f-kp               14.00:  Torque Abs Max 
 TRRT.°/30m               0.70:  Turn Rotating 
 MRT .                     ADR:  Maximum Recorded Temperature 
 TTMX.degC               92.16:  Max Tool Temp 
 VS01.       AZ90598764G12V7D4:  Virtual Str1 SN 
 VS02.         AZ90571342R12C4:  Virtual Str2 SN 
 VS03.      AZ90580010N2L2X1C4:  Virtual Str3 SN 
 VS04.        AZ90522266O7X1C4:  Virtual Str4 SN 
 VS05.           AZ90598768F11:  Virtual Str5 SN 
 VS06.     AZ90580006XZ1W1X1C4:  Virtual Str6 SN 
 WBMN.klb                 8.00:  WOB Min 
 WITN.            Peter Wilson:  Customer Rep 
 WOBA.klb                 9.88:  WOB Avg 
 WOBX.klb                10.00:  WOB Max 
 YP  .lhf2               27.00:  Yield Point 
~Curve Information Block
#MNEM.UNIT                 API CODE     Curve Description
#---------               -----------    ---------------------------
 TIME.HHMMSS            00 000 000 000:  GT Time & Date
 GTDEPTH.m              00 000 000 000:  GT Depth
 GTPQH.psia             00 000 000 000:  GT HR Quartz Pressure
 GTTQ.degC              00 000 000 000:  GT Quartz Temperature
 GTTN.NONE              00 000 000 000:  GT Test Number
 GTET.sec               00 000 000 000:  GT Elapsed Test Time
 GTTVD.m                00 000 000 000:  GT True Vertical Depth
#Other Information
#
#WARRANTY: Halliburton will use its best efforts to furnish customers with 
#accurate information and interpretations that are part of, and incident to, the services 
#provided.  However, Halliburton cannot and does not warrant the accuracy 
#or correctness of such information and interpretations.  Under no circumstances should any 
#such information or interpretation be relied upon as the sole basis for any drilling, 
#completion, production, or financial decision or any procedure involving any risk to the 
#safety of any drilling venture, drilling rig or its crew or any other third party.  The 
#Customer has full responsibility for all drilling, completion and production operation.  
#Halliburton makes no representations or warranties, either expressed or 
#implied, including, but not limited to, the implied warranties of merchantability or fitness 
#for a particular purpose, with respect to the services rendered.  In no event will 
#Halliburton be liable for failure to obtain any particular results or for 
#any damages, including, but not limited to, indirect, special or consequential damages, 
#resulting from the use of any information or interpretation provided by Halliburton.
#
~A           TIME           GTDEPTH  GTPQH  GTTQ  GTTN   GTET   GTTVD  
# ...
   04:18:50.979.01-Feb-2020 3998.51 3148.85 84.68 12.00 385.55 3011.77
   04:18:51.180.01-Feb-2020 3998.51 3148.76 84.65 12.00 385.75 3011.77
   04:18:51.381.01-Feb-2020 3998.51 3148.93 84.68 12.00 385.95 3011.77
   04:18:51.581.01-Feb-2020 3998.51 3148.93 84.68 12.00 386.15 3011.77
   04:18:51.782.01-Feb-2020 3998.51 3148.95 84.68 12.00 386.35 3011.77
   04:18:51.983.01-Feb-2020 3998.51 3148.95 84.68 12.00 386.55 3011.77
   04:18:52.183.01-Feb-2020 3998.51 3148.92 84.68 12.00 386.75 3011.77
   04:18:52.384.01-Feb-2020 3998.51 3148.91 84.68 12.00 386.95 3011.77
   04:18:52.585.01-Feb-2020 3998.51 3148.65 84.68 12.00 387.15 3011.77
   04:18:52.785.01-Feb-2020 3998.51 3148.90 84.68 12.00 387.35 3011.77
   04:18:52.986.01-Feb-2020 3998.51 3148.90 84.68 12.00 387.56 3011.77
   04:18:53.187.01-Feb-2020 3998.51 3148.88 84.67 12.00 387.76 3011.77
   04:18:53.388.01-Feb-2020 3998.51 3148.99 84.67 12.00 387.96 3011.77
   04:18:53.588.01-Feb-2020 3998.51 3148.85 84.67 12.00 388.16 3011.77
   04:18:53.789.01-Feb-2020 3998.51 3148.91 84.67 12.00 388.36 3011.77
   04:18:53.990.01-Feb-2020 3998.51 3148.91 84.67 12.00 388.56 3011.77
   04:18:54.190.01-Feb-2020 3998.51 3148.86 84.67 12.00 388.76 3011.77
   04:18:54.391.01-Feb-2020 3998.51 3148.91 84.67 12.00 388.96 3011.77
   04:18:54.592.01-Feb-2020 3998.51 3148.85 84.67 12.00 389.16 3011.77
   04:18:54.792.01-Feb-2020 3998.51 3148.84 84.67 12.00 389.36 3011.77
   04:18:54.993.01-Feb-2020 3998.51 3148.84 84.67 12.00 389.56 3011.77
   04:18:55.194.01-Feb-2020 3998.51 3148.84 84.67 12.00 389.76 3011.77
   04:18:55.395.01-Feb-2020 3998.51 3148.83 84.67 12.00 389.96 3011.77
   04:18:55.595.01-Feb-2020 3998.51 3148.88 84.67 12.00 390.16 3011.77
   04:18:55.796.01-Feb-2020 3998.51 3148.82 84.67 12.00 390.36 3011.77
   04:18:55.997.01-Feb-2020 3998.51 3148.82 84.67 12.00 390.57 3011.77
   04:18:56.197.01-Feb-2020 3998.51 3148.61 84.67 12.00 390.77 3011.77
   04:18:56.398.01-Feb-2020 3998.51 3149.01 84.67 12.00 390.97 3011.77
   04:18:56.599.01-Feb-2020 3998.51 3148.85 84.67 12.00 391.17 3011.77
   04:18:56.800.01-Feb-2020 3998.51 3148.94 84.67 12.00 391.37 3011.77
   04:18:57.000.01-Feb-2020 3998.51 3148.94 84.67 12.00 391.57 3011.77
   04:18:57.201.01-Feb-2020 3998.51 3148.88 84.67 12.00 391.77 3011.77
   04:18:57.402.01-Feb-2020 3998.51 3148.89 84.67 12.00 391.97 3011.77
   04:18:57.602.01-Feb-2020 3998.51 3148.89 84.66 12.00 392.17 3011.77
   04:18:57.803.01-Feb-2020 3998.51 3148.86 84.66 12.00 392.37 3011.77
   04:18:58.004.01-Feb-2020 3998.51 3148.86 84.66 12.00 392.57 3011.77
   04:18:58.204.01-Feb-2020 3998.51 3148.89 84.66 12.00 392.77 3011.77
   04:18:58.405.01-Feb-2020 3998.51 3148.88 84.66 12.00 392.97 3011.77
   04:18:58.606.01-Feb-2020 3998.51 3148.87 84.66 12.00 393.17 3011.77
   04:18:58.807.01-Feb-2020 3998.51 3148.85 84.66 12.00 393.38 3011.77
   04:18:59.007.01-Feb-2020 3998.51 3148.85 84.66 12.00 393.58 3011.77
   04:18:59.208.01-Feb-2020 3998.51 3148.86 84.66 12.00 393.78 3011.77
   04:18:59.409.01-Feb-2020 3998.51 3148.85 84.66 12.00 393.98 3011.77
   04:18:59.609.01-Feb-2020 3998.51 3148.74 84.66 12.00 394.18 3011.77
   04:18:59.810.01-Feb-2020 3998.51 3148.86 84.66 12.00 394.38 3011.77
   04:19:00.011.01-Feb-2020 3998.51 3148.86 84.66 12.00 394.58 3011.77
   04:19:00.211.01-Feb-2020 3998.51 3148.95 84.66 12.00 394.78 3011.77
   04:19:00.412.01-Feb-2020 3998.51 3148.90 84.66 12.00 394.98 3011.77
   04:19:00.613.01-Feb-2020 3998.51 3148.70 84.66 12.00 395.18 3011.77
   04:19:00.814.01-Feb-2020 3998.51 3148.91 84.66 12.00 395.38 3011.77
   04:19:01.014.01-Feb-2020 3998.51 3148.91 84.66 12.00 395.58 3011.77
   04:19:01.215.01-Feb-2020 3998.51 3148.96 84.66 12.00 395.78 3011.77
   04:19:01.416.01-Feb-2020 3998.51 3148.69 84.66 12.00 395.98 3011.77
   04:19:01.616.01-Feb-2020 3998.51 3149.04 84.66 12.00 396.19 3011.77
   04:19:01.817.01-Feb-2020 3998.51 3148.90 84.66 12.00 396.39 3011.77
   04:19:02.018.01-Feb-2020 3998.51 3148.90 84.66 12.00 396.59 3011.77
   04:19:02.218.01-Feb-2020 3998.51 3148.89 84.65 12.00 396.79 3011.77
   04:19:02.419.01-Feb-2020 3998.51 3148.97 84.65 12.00 396.99 3011.77
   04:19:02.620.01-Feb-2020 3998.51 3148.89 84.65 12.00 397.19 3011.77
   04:19:02.821.01-Feb-2020 3998.51 3148.72 84.65 12.00 397.39 3011.77
   04:19:03.021.01-Feb-2020 3998.51 3148.72 84.65 12.00 397.59 3011.77
   04:19:03.222.01-Feb-2020 3998.51 3148.92 84.65 12.00 397.79 3011.77
   04:19:03.423.01-Feb-2020 3998.51 3148.94 84.65 12.00 397.99 3011.77
   04:19:03.623.01-Feb-2020 3998.51 3148.96 84.65 12.00 398.19 3011.77
   04:19:03.824.01-Feb-2020 3998.51 3148.86 84.65 12.00 398.39 3011.77
   04:19:04.025.01-Feb-2020 3998.51 3148.86 84.65 12.00 398.59 3011.77
   04:19:04.225.01-Feb-2020 3998.51 3148.84 84.65 12.00 398.79 3011.77
   04:19:04.426.01-Feb-2020 3998.51 3148.86 84.65 12.00 399.00 3011.77
   04:19:04.627.01-Feb-2020 3998.51 3149.09 84.65 12.00 399.20 3011.77
   04:19:04.828.01-Feb-2020 3998.51 3148.87 84.65 12.00 399.40 3011.77
   04:19:05.028.01-Feb-2020 3998.51 3148.87 84.65 12.00 399.60 3011.77
   04:19:05.229.01-Feb-2020 3998.51 3148.96 84.65 12.00 399.80 3011.77
   04:19:05.430.01-Feb-2020 3998.51 3148.85 84.65 12.00 400.00 3011.77
   04:19:05.630.01-Feb-2020 3998.51 3148.94 84.65 12.00 400.20 3011.77
   04:19:05.831.01-Feb-2020 3998.51 3148.91 84.65 12.00 400.40 3011.77
   04:19:06.032.01-Feb-2020 3998.51 3148.91 84.65 12.00 400.60 3011.77
   04:19:06.232.01-Feb-2020 3998.51 3148.93 84.65 12.00 400.80 3011.77
   04:19:06.433.01-Feb-2020 3998.51 3148.83 84.65 12.00 401.00 3011.77
   04:19:06.634.01-Feb-2020 3998.51 3148.86 84.64 12.00 401.20 3011.77
   04:19:06.835.01-Feb-2020 3998.51 3148.87 84.64 12.00 401.40 3011.77
   04:19:07.035.01-Feb-2020 3998.51 3148.87 84.64 12.00 401.60 3011.77
   04:19:07.236.01-Feb-2020 3998.51 3148.90 84.64 12.00 401.80 3011.77
   04:19:07.437.01-Feb-2020 3998.51 3148.88 84.64 12.00 402.01 3011.77
   04:19:07.637.01-Feb-2020 3998.51 3148.85 84.64 12.00 402.21 3011.77
   04:19:07.838.01-Feb-2020 3998.51 3148.61 84.64 12.00 402.41 3011.77
   04:19:08.039.01-Feb-2020 3998.51 3148.61 84.64 12.00 402.61 3011.77
   04:19:08.240.01-Feb-2020 3998.51 3148.93 84.64 12.00 402.81 3011.77
   04:19:08.440.01-Feb-2020 3998.51 3148.95 84.64 12.00 403.01 3011.77
   04:19:08.641.01-Feb-2020 3998.51 3148.92 84.64 12.00 403.21 3011.77
   04:19:08.842.01-Feb-2020 3998.51 3148.88 84.64 12.00 403.41 3011.77
   04:19:09.042.01-Feb-2020 3998.51 3148.88 84.64 12.00 403.61 3011.77
   04:19:09.243.01-Feb-2020 3998.51 3148.86 84.64 12.00 403.81 3011.77
   04:19:09.444.01-Feb-2020 3998.51 3148.91 84.64 12.00 404.01 3011.77
   04:19:09.644.01-Feb-2020 3998.51 3148.87 84.64 12.00 404.21 3011.77
   04:19:09.845.01-Feb-2020 3998.51 3148.87 84.64 12.00 404.41 3011.77
   04:19:10.046.01-Feb-2020 3998.51 3148.87 84.64 12.00 404.61 3011.77
   04:19:10.247.01-Feb-2020 3998.51 3148.86 84.64 12.00 404.82 3011.77
   04:19:10.447.01-Feb-2020 3998.51 3148.83 84.64 12.00 405.02 3011.77
   04:19:10.648.01-Feb-2020 3998.51 3148.83 84.64 12.00 405.22 3011.77
   04:19:10.849.01-Feb-2020 3998.51 3148.91 84.64 12.00 405.42 3011.77
   04:19:11.049.01-Feb-2020 3998.51 3148.91 84.64 12.00 405.62 3011.77
   04:19:11.250.01-Feb-2020 3998.51 3148.91 84.63 12.00 405.82 3011.77
   04:19:11.451.01-Feb-2020 3998.51 3148.85 84.63 12.00 406.02 3011.77
   04:19:11.651.01-Feb-2020 3998.51 3148.97 84.63 12.00 406.22 3011.77
   04:19:11.852.01-Feb-2020 3998.51 3148.90 84.63 12.00 406.42 3011.77
   04:19:12.053.01-Feb-2020 3998.51 3148.90 84.63 12.00 406.62 3011.77
   04:19:12.254.01-Feb-2020 3998.51 3148.90 84.63 12.00 406.82 3011.77
   04:19:12.454.01-Feb-2020 3998.51 3148.86 84.63 12.00 407.02 3011.77
   04:19:12.655.01-Feb-2020 3998.51 3148.99 84.63 12.00 407.22 3011.77
   04:19:12.856.01-Feb-2020 3998.51 3148.91 84.63 12.00 407.42 3011.77
   04:19:13.056.01-Feb-2020 3998.51 3148.91 84.63 12.00 407.63 3011.77
   04:19:13.257.01-Feb-2020 3998.51 3149.00 84.63 12.00 407.83 3011.77
   04:19:13.458.01-Feb-2020 3998.51 3148.94 84.63 12.00 408.03 3011.77
