~Version Information
 VERS.                  2.0:   CWLS log ASCII Standard -VERSION 2.0
 WRAP.                   NO:   One line per depth step
~Well Information Block
#MNEM.UNIT     VALUE/NAME     DESCRIPTION
#---------     -----------    ---------------------------
 STRT.S             21:06:33 30-Jan-20: START TIME 21:06:33 30-Jan-20
 STOP.S             21:13:02 30-Jan-20: STOP TIME  21:13:02 30-Jan-20
 STEP.S                   0.00: STEP TIME
 NULL.                 -999.25: NULL VALUE
 DFWT.                        :  DIST FWL TEXT
 DFST.                        :  DIST FSL TEXT
 DMF .             Drill Floor:  DRILL MEAS FROM
 STIM.      09.30.00 26-Dec-19:  START TIME
 DATE.      08.00.00 20-Jan-20:  END TIME
 SPUD.               23-Nov-19:  SPUD DATE
 NREF.                    Grid:  NORTH REFERENCE
 HPTY.       Minimum Curvature:  HOLE POS TYPE
 DMOD.             Drill Model:  DRILL MOD DESC
 SVYD.                  Survey:  SURVEY DESC
 ILTD.               Lithology:  INTERP LTH DESC
 FTOP.          Formation Tops:  FORM TOPS DESC
 SON .        AZ-XX-0906192647:  JOB NUMBER
 WTYP.                Deviated:  WELL TYPE
 COMP.     BP Exploration (Caspian Sea) Ltd:  COMPANY
 BASE.              Azerbaijan:  LOGGING EQUIPMENT BASE LOCATION
 REGN.                 Eurasia:  REGION
 FLD .                     ACG:  FIELD NAME
 SRVC.              KCA Deutag:  CONTRACTOR
 MWDS.                    Baku:  MWD SHOP
 WELL.     A10 (Slot 20) - SCP:  WELL NAME
 JOBN.        AZ-XX-0906192647:  JOB TICKET NUMB
 RIG .                 Chirag1:  RIG NAME
 DCON.     Halliburton Sperry Drilling:  DIRECTNL CONTR
 UNIT.                     N/A:  LOGGING EQUIPMENT ID
 PDAT.          Mean Sea Level:  PERMANENT DATUM
 MDS .        Operator Entered:  MAG DATA SOURCE
 CTRY.              Azerbaijan:  COUNTRY NAME
 UWI .            /AZE00000090:  UNIQUE WELL IDENTIFIER
 API .            /AZE00000090:  API NUMBER
 CNTY.                        :  COUNTY
 PROV.                        :  PROVINCE
 STAT.                        :  STATE
 LOC .                        :  LOCATION
 LMF .             Drill Floor:  LOG MEASURED FROM
 TVDS.m                  36.60:  TVDSS CORRECTN
 LATI.deg                40.08:  LATITUDE
 LONG.deg                51.24:  LONGITUDE
 WHNS.m                  -7.94:  WELL HEAD N/S
 WHEW.m                   1.56:  WELL HEAD E/W
 UTMX.m              520429.26:  UTM X
 UTMY.m             4438973.87:  UTM Y
 DFWL.m                   0.00:  DISTANCE FWL
 DFSL.m                   0.00:  DISTANCE FSL
 SDEP.m                1455.00:  START DEPTH
 TDD .m                4047.51:  TOTAL DEPTH (DRILLER)
 VSDR.deg               112.75:  VERT SEC DIRECT
 GVFD.g                   1.00:  GRAVITY FIELD
 MFLD.nT              50261.00:  MAGNETIC FIELD
 MDIP.deg                59.52:  MAGNETIC DIP
 MDEC.deg                 6.42:  MAGNETIC DECL
 GRDC.deg                 0.17:  GRID CORRECTION
 AZTC.deg                 6.25:  AZM TOTAL CORR
 EPD .m                   0.00:  ELEVATION
 EGL .m                   0.00:  GROUND ELEVATION
 WDMS.m                 121.00:  WD ELEV
 APD .m                  36.60:  DEPTH ABOVE PD
 AGAP.m                  36.60:  AIR GAP
 VSEW.m                   1.56:  VERT SEC E/W
 VSNS.m                  -7.94:  VERT SEC N/S
 DEP .m                1140.01:  DEPTH
 EKB .m                  36.60:  KB ELEVATION
 EDF .m                  36.60:  DF ELEVATION
 TDL .m                 169.50:  TOTAL DEPTH (LOGGER)
 CSGD.m                3875.01:  CASING BOTTOM (DRILLER)
 CSGL.m                3875.01:  CASING BOTTOM (LOGGER)
 CSGS.in                  7.63:  CASING SIZE
 CSGW.lbpf               23.50:  CASING WEIGHT
 VSC .                       0:  VS TO CLOSURE
 MAGU.                 1849206:  MAGUTM CHECKSUM
~Parameter Information Block
#MNEM.UNIT       Value        Description
#---------     -----------    ---------------------------
 AV  .mps                 1.90:  Ann Velocity 
 AVMX.mps                 2.54:  Max Ann Veloc 
 AZIF.deg               137.03:  Azm, Final 
 BHAT.        Rotary Steerable:  BHA Type 
 BREV.rev             23610.00:  Rev Bit Total 
 BROT.°/30m               0.80:  Build Rotating 
 BS  .in                  6.50:  Bit Size 
 BTPL.psig              110.00:  Bit Press Loss 
 CABU.                     Yes:  Customer Abuse 
 TCS .hr                 70.51:  Time Ciculation Ended 
 CV  .mps                 1.41:  Crit Velocity 
 CVMX.mps                 1.42:  Max Crit Veloc 
 DD1 .         Intigam Rahimov:  Direct Drillr 1 
 DD2 .          Rashad Gojayev:  Direct Drillr 2 
 DDSV.               Geo-Pilot:  DD Service 
 DEFF.%                 100.00:  % Det Eff 
 DLRX.°/30m               1.44:  Dogleg Rot Max 
 DLSO.°/30m               0.00:  Dogleg Oriented 
 DLSX.°/30m               0.00:  Dogleg Str Max 
 DRET.      03.05.00 01-Feb-20:  Drill End Time 
 DRST.      15.50.00 28-Jan-20:  Drill Start Tim 
 DTIM.hr                 24.70:  Time Drilling 
 EDEP.m                4047.51:  End Depth 
 ENG1.           Eldar Hajiyev:  Engineer 1 
 ENG2.          Rasim Hashimov:  Engineer 2 
 ENG3.          Rustam Safarov:  Engineer 3 
 ETIM.      22.00.00 01-Feb-20:  End Time 
 FLOI.gpm               370.00:  Flow In 
 FLON.gpm               300.00:  Flow In Min 
 FLOS.cptm                0.00:  Fluid Loss 
 FLOX.gpm               400.00:  Flow In Max 
 FTRO.       Formation Presure:  FTWD Run Obj 
 HFLO.                      No:  High Flow 
 HPRE.                      No:  High Pressure 
 HTEM.                      No:  High Temp 
 HYDO.m                   2.50:  Hydro Offset 
 IFIN.deg                39.54:  Inc, Final 
 IMAX.deg                41.14:  Inc Max 
 IMIN.deg                39.81:  Inc Min 
 IMND.m                4005.21:  Inc Min Depth 
 IMXD.m                3948.42:  Inc Max Depth 
 JARR.                      No:  Jarring 
 LETM.      03.05.00 01-Feb-20:  Log End Time 
 LOST.hr                     0:  Lost Rig Time 
 LSTM.      15.50.00 28-Jan-20:  Log Start Time 
 MDCL.ppm             37500.00:  Mud Chlorides 
 MDES.     Inversion Oil/Synthetic:  Mud Desc 
 DFD .sg                  1.32:  Mud Density 
 MDMN.sg                  1.32:  Dens Mud Min 
 MDMX.sg                  1.32:  Dens Mud Max 
 MOIL.                      55:  Run Mud Oil % 
 MOWR.                   70:30:  Run Mud OWR 
 MSND.                       0:  Run Mud Sand % 
 MSOL.                      17:  Run Mud Solids% 
 DFV .spqt               80.00:  Mud Viscosity 
 MWOD.in                  4.75:  MWD Tool OD 
 MWSI.                      No:  Serv Intrp, MWD 
 OTIM.hr                121.28:  Time Operating 
 PCON.           Look Like New:  Pad Condition 
 PMAX.psia             6171.00:  Press Op, Max 
 PV  .cP                 30.00:  Mud PV 
 RUN .                     300:  Run Number 
 ROPA.m/hr                5.45:  ROP Avg 
 ROPN.m/hr                3.00:  ROP Min 
 ROPX.m/hr               15.00:  ROP Max 
 RPMA.rpm               130.00:  RPM Surface Avg 
 RPMN.rpm                80.00:  RPM Surface Min 
 RPMX.rpm               140.00:  RPM Surface Max 
 RRUN.                     300:  Rig Run Number 
 RTIM.hr                 13.50:  Time Reaming 
 SAZI.deg               133.93:  Azm, Start 
 SDEP.m                3878.01:  Start Depth 
 SIDD.                      No:  Serv Intrp, DD 
 SINC.deg                40.28:  Inc, Start 
 SPPA.psig             4983.00:  SPP Avg 
 SPPN.psig             4370.00:  SPP Min 
 SPPX.psig             5300.00:  SPP Max 
 STIM.      18.33.36 27-Jan-20:  Start Time 
 SVCS.                 DD, MWD:  Services 
 SVER.                    9.20:  Sperry Version 
 TDAT.m                 169.50:  Tot Depth Attmp 
 TDDF.                      No:  Trip for DD 
 TDLG.m                 169.50:  Tot Depth Loggd 
 TFF .                      No:  Trip for Fail 
 TQAA.f-kp               13.25:  Torque Abs Avg 
 TQAN.f-kp               12.00:  Torque Abs Min 
 TQAX.f-kp               14.00:  Torque Abs Max 
 TRRT.°/30m               0.70:  Turn Rotating 
 MRT .                     ADR:  Maximum Recorded Temperature 
 TTMX.degC               92.16:  Max Tool Temp 
 VS01.       AZ90598764G12V7D4:  Virtual Str1 SN 
 VS02.         AZ90571342R12C4:  Virtual Str2 SN 
 VS03.      AZ90580010N2L2X1C4:  Virtual Str3 SN 
 VS04.        AZ90522266O7X1C4:  Virtual Str4 SN 
 VS05.           AZ90598768F11:  Virtual Str5 SN 
 VS06.     AZ90580006XZ1W1X1C4:  Virtual Str6 SN 
 WBMN.klb                 8.00:  WOB Min 
 WITN.            Peter Wilson:  Customer Rep 
 WOBA.klb                 9.88:  WOB Avg 
 WOBX.klb                10.00:  WOB Max 
 YP  .lhf2               27.00:  Yield Point 
~Curve Information Block
#MNEM.UNIT                 API CODE     Curve Description
#---------               -----------    ---------------------------
 TIME.HHMMSS            00 000 000 000:  GT Time & Date
 GTDEPTH.m              00 000 000 000:  GT Depth
 GTPQH.psia             00 000 000 000:  GT HR Quartz Pressure
 GTTQ.degC              00 000 000 000:  GT Quartz Temperature
 GTTN.NONE              00 000 000 000:  GT Test Number
 GTET.sec               00 000 000 000:  GT Elapsed Test Time
 GTTVD.m                00 000 000 000:  GT True Vertical Depth
#Other Information
#
#WARRANTY: Halliburton will use its best efforts to furnish customers with 
#accurate information and interpretations that are part of, and incident to, the services 
#provided.  However, Halliburton cannot and does not warrant the accuracy 
#or correctness of such information and interpretations.  Under no circumstances should any 
#such information or interpretation be relied upon as the sole basis for any drilling, 
#completion, production, or financial decision or any procedure involving any risk to the 
#safety of any drilling venture, drilling rig or its crew or any other third party.  The 
#Customer has full responsibility for all drilling, completion and production operation.  
#Halliburton makes no representations or warranties, either expressed or 
#implied, including, but not limited to, the implied warranties of merchantability or fitness 
#for a particular purpose, with respect to the services rendered.  In no event will 
#Halliburton be liable for failure to obtain any particular results or for 
#any damages, including, but not limited to, indirect, special or consequential damages, 
#resulting from the use of any information or interpretation provided by Halliburton.
#
~A           TIME           GTDEPTH  GTPQH  GTTQ  GTTN  GTET   GTTVD  
# ...
   21:08:28.026.30-Jan-2020 3895.01 2981.78 72.88 2.00 115.02 2933.47
   21:08:28.226.30-Jan-2020 3895.01 2981.78 72.88 2.00 115.22 2933.47
   21:08:28.426.30-Jan-2020 3895.01 2981.86 72.88 2.00 115.42 2933.47
   21:08:28.626.30-Jan-2020 3895.01 2981.05 72.88 2.00 115.62 2933.47
   21:08:28.826.30-Jan-2020 3895.01 2981.83 72.88 2.00 115.82 2933.47
   21:08:29.026.30-Jan-2020 3895.01 2981.75 72.87 2.00 116.02 2933.47
   21:08:29.226.30-Jan-2020 3895.01 2981.75 72.87 2.00 116.22 2933.47
   21:08:29.427.30-Jan-2020 3895.01 2981.78 72.87 2.00 116.42 2933.47
   21:08:29.627.30-Jan-2020 3895.01 2981.82 72.87 2.00 116.62 2933.47
   21:08:29.827.30-Jan-2020 3895.01 2981.77 72.87 2.00 116.82 2933.47
   21:08:30.027.30-Jan-2020 3895.01 2981.65 72.87 2.00 117.02 2933.47
   21:08:30.227.30-Jan-2020 3895.01 2981.65 72.87 2.00 117.22 2933.47
   21:08:30.427.30-Jan-2020 3895.01 2981.67 72.87 2.00 117.42 2933.47
   21:08:30.627.30-Jan-2020 3895.01 2981.74 72.87 2.00 117.62 2933.47
   21:08:30.827.30-Jan-2020 3895.01 2981.67 72.87 2.00 117.82 2933.47
   21:08:31.027.30-Jan-2020 3895.01 2981.64 72.87 2.00 118.02 2933.47
   21:08:31.227.30-Jan-2020 3895.01 2981.64 72.87 2.00 118.22 2933.47
   21:08:31.427.30-Jan-2020 3895.01 2981.71 72.87 2.00 118.42 2933.47
   21:08:31.627.30-Jan-2020 3895.01 2981.71 72.87 2.00 118.62 2933.47
   21:08:31.827.30-Jan-2020 3895.01 2981.59 72.87 2.00 118.82 2933.47
   21:08:32.027.30-Jan-2020 3895.01 2981.60 72.87 2.00 119.02 2933.47
   21:08:32.227.30-Jan-2020 3895.01 2981.60 72.87 2.00 119.22 2933.47
   21:08:32.427.30-Jan-2020 3895.01 2981.11 72.86 2.00 119.42 2933.47
   21:08:32.627.30-Jan-2020 3895.01 2981.84 72.86 2.00 119.62 2933.47
   21:08:32.827.30-Jan-2020 3895.01 2981.68 72.86 2.00 119.82 2933.47
   21:08:33.027.30-Jan-2020 3895.01 2981.72 72.86 2.00 120.02 2933.47
   21:08:33.227.30-Jan-2020 3895.01 2981.72 72.86 2.00 120.22 2933.47
   21:08:33.427.30-Jan-2020 3895.01 2981.68 72.86 2.00 120.42 2933.47
   21:08:33.627.30-Jan-2020 3895.01 2981.75 72.86 2.00 120.62 2933.47
   21:08:33.827.30-Jan-2020 3895.01 2981.66 72.86 2.00 120.82 2933.47
   21:08:34.027.30-Jan-2020 3895.01 2981.62 72.86 2.00 121.02 2933.47
   21:08:34.227.30-Jan-2020 3895.01 2981.62 72.86 2.00 121.22 2933.47
   21:08:34.427.30-Jan-2020 3895.01 2981.62 72.86 2.00 121.42 2933.47
   21:08:34.627.30-Jan-2020 3895.01 2981.67 72.86 2.00 121.62 2933.47
   21:08:34.828.30-Jan-2020 3895.01 2981.65 72.86 2.00 121.82 2933.47
   21:08:35.028.30-Jan-2020 3895.01 2981.61 72.86 2.00 122.02 2933.47
   21:08:35.228.30-Jan-2020 3895.01 2981.61 72.86 2.00 122.22 2933.47
   21:08:35.428.30-Jan-2020 3895.01 2981.74 72.86 2.00 122.42 2933.47
   21:08:35.628.30-Jan-2020 3895.01 2981.03 72.85 2.00 122.62 2933.47
   21:08:35.828.30-Jan-2020 3895.01 2981.76 72.85 2.00 122.82 2933.47
   21:08:36.028.30-Jan-2020 3895.01 2981.67 72.85 2.00 123.02 2933.47
   21:08:36.228.30-Jan-2020 3895.01 2981.67 72.85 2.00 123.22 2933.47
   21:08:36.428.30-Jan-2020 3895.01 2981.71 72.85 2.00 123.42 2933.47
   21:08:36.628.30-Jan-2020 3895.01 2981.01 72.85 2.00 123.62 2933.47
   21:08:36.828.30-Jan-2020 3895.01 2981.85 72.85 2.00 123.82 2933.47
   21:08:37.028.30-Jan-2020 3895.01 2981.78 72.85 2.00 124.02 2933.47
   21:08:37.228.30-Jan-2020 3895.01 2981.78 72.85 2.00 124.22 2933.47
   21:08:37.428.30-Jan-2020 3895.01 2981.68 72.85 2.00 124.42 2933.47
   21:08:37.628.30-Jan-2020 3895.01 2981.60 72.85 2.00 124.62 2933.47
   21:08:37.828.30-Jan-2020 3895.01 2981.65 72.85 2.00 124.82 2933.47
   21:08:38.028.30-Jan-2020 3895.01 2981.05 72.85 2.00 125.02 2933.47
   21:08:38.228.30-Jan-2020 3895.01 2981.05 72.85 2.00 125.22 2933.47
   21:08:38.428.30-Jan-2020 3895.01 2981.78 72.85 2.00 125.42 2933.47
   21:08:38.628.30-Jan-2020 3895.01 2981.81 72.85 2.00 125.62 2933.47
   21:08:38.828.30-Jan-2020 3895.01 2981.68 72.85 2.00 125.82 2933.47
   21:08:39.028.30-Jan-2020 3895.01 2981.03 72.84 2.00 126.02 2933.47
   21:08:39.228.30-Jan-2020 3895.01 2981.03 72.84 2.00 126.22 2933.47
   21:08:39.428.30-Jan-2020 3895.01 2981.76 72.84 2.00 126.42 2933.47
   21:08:39.628.30-Jan-2020 3895.01 2981.80 72.84 2.00 126.62 2933.47
   21:08:39.828.30-Jan-2020 3895.01 2981.14 72.84 2.00 126.82 2933.47
   21:08:40.029.30-Jan-2020 3895.01 2981.64 72.84 2.00 127.02 2933.47
   21:08:40.229.30-Jan-2020 3895.01 2981.64 72.84 2.00 127.22 2933.47
   21:08:40.429.30-Jan-2020 3895.01 2981.74 72.84 2.00 127.42 2933.47
   21:08:40.629.30-Jan-2020 3895.01 2981.70 72.84 2.00 127.62 2933.47
   21:08:40.829.30-Jan-2020 3895.01 2981.74 72.84 2.00 127.82 2933.47
   21:08:41.029.30-Jan-2020 3895.01 2981.74 72.84 2.00 128.02 2933.47
   21:08:41.229.30-Jan-2020 3895.01 2981.74 72.84 2.00 128.22 2933.47
   21:08:41.429.30-Jan-2020 3895.01 2981.51 72.84 2.00 128.42 2933.47
   21:08:41.629.30-Jan-2020 3895.01 2981.55 72.84 2.00 128.62 2933.47
   21:08:41.829.30-Jan-2020 3895.01 2981.70 72.84 2.00 128.82 2933.47
   21:08:42.029.30-Jan-2020 3895.01 2981.63 72.84 2.00 129.02 2933.47
   21:08:42.229.30-Jan-2020 3895.01 2981.63 72.84 2.00 129.22 2933.47
   21:08:42.429.30-Jan-2020 3895.01 2981.55 72.83 2.00 129.42 2933.47
   21:08:42.629.30-Jan-2020 3895.01 2981.57 72.83 2.00 129.62 2933.47
   21:08:42.829.30-Jan-2020 3895.01 2981.69 72.83 2.00 129.82 2933.47
   21:08:43.029.30-Jan-2020 3895.01 2981.54 72.83 2.00 130.02 2933.47
   21:08:43.229.30-Jan-2020 3895.01 2981.54 72.83 2.00 130.22 2933.47
   21:08:43.429.30-Jan-2020 3895.01 2981.64 72.83 2.00 130.42 2933.47
   21:08:43.629.30-Jan-2020 3895.01 2980.97 72.83 2.00 130.62 2933.47
   21:08:43.829.30-Jan-2020 3895.01 2981.76 72.83 2.00 130.82 2933.47
   21:08:44.029.30-Jan-2020 3895.01 2981.69 72.83 2.00 131.02 2933.47
   21:08:44.229.30-Jan-2020 3895.01 2981.69 72.83 2.00 131.22 2933.47
   21:08:44.429.30-Jan-2020 3895.01 2981.66 72.83 2.00 131.42 2933.47
   21:08:44.629.30-Jan-2020 3895.01 2981.63 72.83 2.00 131.62 2933.47
   21:08:44.829.30-Jan-2020 3895.01 2981.67 72.83 2.00 131.82 2933.47
   21:08:45.029.30-Jan-2020 3895.01 2981.64 72.83 2.00 132.02 2933.47
   21:08:45.229.30-Jan-2020 3895.01 2981.64 72.83 2.00 132.22 2933.47
   21:08:45.430.30-Jan-2020 3895.01 2981.39 72.83 2.00 132.42 2933.47
   21:08:45.630.30-Jan-2020 3895.01 2941.57 72.82 2.00 132.62 2933.47
   21:08:45.830.30-Jan-2020 3895.01 2546.47 72.82 2.00 132.83 2933.47
   21:08:46.030.30-Jan-2020 3895.01 2243.36 72.82 2.00 133.03 2933.47
   21:08:46.230.30-Jan-2020 3895.01 2243.36 72.82 2.00 133.23 2933.47
   21:08:46.430.30-Jan-2020 3895.01 2089.42 72.82 2.00 133.43 2933.47
   21:08:46.630.30-Jan-2020 3895.01 1965.42 72.82 2.00 133.63 2933.47
   21:08:46.830.30-Jan-2020 3895.01 1939.57 72.82 2.00 133.83 2933.47
   21:08:47.030.30-Jan-2020 3895.01 1932.63 72.82 2.00 134.03 2933.47
   21:08:47.230.30-Jan-2020 3895.01 1932.63 72.82 2.00 134.23 2933.47
   21:08:47.430.30-Jan-2020 3895.01 1931.93 72.82 2.00 134.43 2933.47
   21:08:47.630.30-Jan-2020 3895.01 1948.07 72.82 2.00 134.63 2933.47
   21:08:47.830.30-Jan-2020 3895.01 1973.57 72.82 2.00 134.83 2933.47
   21:08:48.030.30-Jan-2020 3895.01 1971.41 72.82 2.00 135.03 2933.47
   21:08:48.230.30-Jan-2020 3895.01 1971.41 72.82 2.00 135.23 2933.47
   21:08:48.430.30-Jan-2020 3895.01 1973.67 72.82 2.00 135.43 2933.47
   21:08:48.630.30-Jan-2020 3895.01 1972.91 72.81 2.00 135.63 2933.47
   21:08:48.830.30-Jan-2020 3895.01 1973.83 72.81 2.00 135.83 2933.47
   21:08:49.030.30-Jan-2020 3895.01 1980.88 72.81 2.00 136.03 2933.47
   21:08:49.230.30-Jan-2020 3895.01 1980.88 72.81 2.00 136.23 2933.47
   21:08:49.430.30-Jan-2020 3895.01 1999.69 72.81 2.00 136.43 2933.47
   21:08:49.630.30-Jan-2020 3895.01 2008.10 72.81 2.00 136.63 2933.47
   21:08:49.830.30-Jan-2020 3895.01 2014.28 72.81 2.00 136.83 2933.47
   21:08:50.030.30-Jan-2020 3895.01 2017.46 72.81 2.00 137.03 2933.47
   21:08:50.230.30-Jan-2020 3895.01 2017.46 72.81 2.00 137.23 2933.47
   21:08:50.430.30-Jan-2020 3895.01 2030.64 72.81 2.00 137.43 2933.47
   21:08:50.631.30-Jan-2020 3895.01 2038.52 72.81 2.00 137.63 2933.47
   21:08:50.831.30-Jan-2020 3895.01 2046.01 72.81 2.00 137.83 2933.47
