~Version Information
 VERS.                  2.0:   CWLS log ASCII Standard -VERSION 2.0
 WRAP.                   NO:   One line per depth step
~Well Information Block
#MNEM.UNIT     VALUE/NAME     DESCRIPTION
#---------     -----------    ---------------------------
 STRT.S             01:40:55 31-Jan-20: START TIME 01:40:55 31-Jan-20
 STOP.S             01:47:23 31-Jan-20: STOP TIME  01:47:23 31-Jan-20
 STEP.S                   0.00: STEP TIME
 NULL.                 -999.25: NULL VALUE
 DFWT.                        :  DIST FWL TEXT
 DFST.                        :  DIST FSL TEXT
 DMF .             Drill Floor:  DRILL MEAS FROM
 STIM.      09.30.00 26-Dec-19:  START TIME
 DATE.      08.00.00 20-Jan-20:  END TIME
 SPUD.               23-Nov-19:  SPUD DATE
 NREF.                    Grid:  NORTH REFERENCE
 HPTY.       Minimum Curvature:  HOLE POS TYPE
 DMOD.             Drill Model:  DRILL MOD DESC
 SVYD.                  Survey:  SURVEY DESC
 ILTD.               Lithology:  INTERP LTH DESC
 FTOP.          Formation Tops:  FORM TOPS DESC
 SON .        AZ-XX-0906192647:  JOB NUMBER
 WTYP.                Deviated:  WELL TYPE
 COMP.     BP Exploration (Caspian Sea) Ltd:  COMPANY
 BASE.              Azerbaijan:  LOGGING EQUIPMENT BASE LOCATION
 REGN.                 Eurasia:  REGION
 FLD .                     ACG:  FIELD NAME
 SRVC.              KCA Deutag:  CONTRACTOR
 MWDS.                    Baku:  MWD SHOP
 WELL.     A10 (Slot 20) - SCP:  WELL NAME
 JOBN.        AZ-XX-0906192647:  JOB TICKET NUMB
 RIG .                 Chirag1:  RIG NAME
 DCON.     Halliburton Sperry Drilling:  DIRECTNL CONTR
 UNIT.                     N/A:  LOGGING EQUIPMENT ID
 PDAT.          Mean Sea Level:  PERMANENT DATUM
 MDS .        Operator Entered:  MAG DATA SOURCE
 CTRY.              Azerbaijan:  COUNTRY NAME
 UWI .            /AZE00000090:  UNIQUE WELL IDENTIFIER
 API .            /AZE00000090:  API NUMBER
 CNTY.                        :  COUNTY
 PROV.                        :  PROVINCE
 STAT.                        :  STATE
 LOC .                        :  LOCATION
 LMF .             Drill Floor:  LOG MEASURED FROM
 TVDS.m                  36.60:  TVDSS CORRECTN
 LATI.deg                40.08:  LATITUDE
 LONG.deg                51.24:  LONGITUDE
 WHNS.m                  -7.94:  WELL HEAD N/S
 WHEW.m                   1.56:  WELL HEAD E/W
 UTMX.m              520429.26:  UTM X
 UTMY.m             4438973.87:  UTM Y
 DFWL.m                   0.00:  DISTANCE FWL
 DFSL.m                   0.00:  DISTANCE FSL
 SDEP.m                1455.00:  START DEPTH
 TDD .m                4047.51:  TOTAL DEPTH (DRILLER)
 VSDR.deg               112.75:  VERT SEC DIRECT
 GVFD.g                   1.00:  GRAVITY FIELD
 MFLD.nT              50261.00:  MAGNETIC FIELD
 MDIP.deg                59.52:  MAGNETIC DIP
 MDEC.deg                 6.42:  MAGNETIC DECL
 GRDC.deg                 0.17:  GRID CORRECTION
 AZTC.deg                 6.25:  AZM TOTAL CORR
 EPD .m                   0.00:  ELEVATION
 EGL .m                   0.00:  GROUND ELEVATION
 WDMS.m                 121.00:  WD ELEV
 APD .m                  36.60:  DEPTH ABOVE PD
 AGAP.m                  36.60:  AIR GAP
 VSEW.m                   1.56:  VERT SEC E/W
 VSNS.m                  -7.94:  VERT SEC N/S
 DEP .m                1140.01:  DEPTH
 EKB .m                  36.60:  KB ELEVATION
 EDF .m                  36.60:  DF ELEVATION
 TDL .m                 169.50:  TOTAL DEPTH (LOGGER)
 CSGD.m                3875.01:  CASING BOTTOM (DRILLER)
 CSGL.m                3875.01:  CASING BOTTOM (LOGGER)
 CSGS.in                  7.63:  CASING SIZE
 CSGW.lbpf               23.50:  CASING WEIGHT
 VSC .                       0:  VS TO CLOSURE
 MAGU.                 1849206:  MAGUTM CHECKSUM
~Parameter Information Block
#MNEM.UNIT       Value        Description
#---------     -----------    ---------------------------
 AV  .mps                 1.90:  Ann Velocity 
 AVMX.mps                 2.54:  Max Ann Veloc 
 AZIF.deg               137.03:  Azm, Final 
 BHAT.        Rotary Steerable:  BHA Type 
 BREV.rev             23610.00:  Rev Bit Total 
 BROT.°/30m               0.80:  Build Rotating 
 BS  .in                  6.50:  Bit Size 
 BTPL.psig              110.00:  Bit Press Loss 
 CABU.                     Yes:  Customer Abuse 
 COMM.                     šn:  Run Comments 1 
 TCS .hr                 70.51:  Time Ciculation Ended 
 CV  .mps                 1.41:  Crit Velocity 
 CVMX.mps                 1.42:  Max Crit Veloc 
 DD1 .         Intigam Rahimov:  Direct Drillr 1 
 DD2 .          Rashad Gojayev:  Direct Drillr 2 
 DDSV.               Geo-Pilot:  DD Service 
 DEFF.%                 100.00:  % Det Eff 
 DLRX.°/30m               1.44:  Dogleg Rot Max 
 DLSO.°/30m               0.00:  Dogleg Oriented 
 DLSX.°/30m               0.00:  Dogleg Str Max 
 DRET.      03.05.00 01-Feb-20:  Drill End Time 
 DRST.      15.50.00 28-Jan-20:  Drill Start Tim 
 DTIM.hr                 24.70:  Time Drilling 
 EDEP.m                4047.51:  End Depth 
 ENG1.           Eldar Hajiyev:  Engineer 1 
 ENG2.          Rasim Hashimov:  Engineer 2 
 ENG3.          Rustam Safarov:  Engineer 3 
 ETIM.      22.00.00 01-Feb-20:  End Time 
 FLOI.gpm               370.00:  Flow In 
 FLON.gpm               300.00:  Flow In Min 
 FLOS.cptm                0.00:  Fluid Loss 
 FLOX.gpm               400.00:  Flow In Max 
 FTRO.       Formation Presure:  FTWD Run Obj 
 HFLO.                      No:  High Flow 
 HPRE.                      No:  High Pressure 
 HTEM.                      No:  High Temp 
 HYDO.m                   2.50:  Hydro Offset 
 IFIN.deg                39.54:  Inc, Final 
 IMAX.deg                41.14:  Inc Max 
 IMIN.deg                39.81:  Inc Min 
 IMND.m                4005.21:  Inc Min Depth 
 IMXD.m                3948.42:  Inc Max Depth 
 JARR.                      No:  Jarring 
 LETM.      03.05.00 01-Feb-20:  Log End Time 
 LOST.hr                     0:  Lost Rig Time 
 LSTM.      15.50.00 28-Jan-20:  Log Start Time 
 MDCL.ppm             37500.00:  Mud Chlorides 
 MDES.     Inversion Oil/Synthetic:  Mud Desc 
 DFD .sg                  1.32:  Mud Density 
 MDMN.sg                  1.32:  Dens Mud Min 
 MDMX.sg                  1.32:  Dens Mud Max 
 MOIL.                      55:  Run Mud Oil % 
 MOWR.                   70:30:  Run Mud OWR 
 MSND.                       0:  Run Mud Sand % 
 MSOL.                      17:  Run Mud Solids% 
 DFV .spqt               80.00:  Mud Viscosity 
 MWOD.in                  4.75:  MWD Tool OD 
 MWSI.                      No:  Serv Intrp, MWD 
 OTIM.hr                121.28:  Time Operating 
 PCON.           Look Like New:  Pad Condition 
 PMAX.psia             6171.00:  Press Op, Max 
 PV  .cP                 30.00:  Mud PV 
 RUN .                     300:  Run Number 
 ROPA.m/hr                5.45:  ROP Avg 
 ROPN.m/hr                3.00:  ROP Min 
 ROPX.m/hr               15.00:  ROP Max 
 RPMA.rpm               130.00:  RPM Surface Avg 
 RPMN.rpm                80.00:  RPM Surface Min 
 RPMX.rpm               140.00:  RPM Surface Max 
 RRUN.                     300:  Rig Run Number 
 RTIM.hr                 13.50:  Time Reaming 
 SAZI.deg               133.93:  Azm, Start 
 SDEP.m                3878.01:  Start Depth 
 SIDD.                      No:  Serv Intrp, DD 
 SINC.deg                40.28:  Inc, Start 
 SPPA.psig             4983.00:  SPP Avg 
 SPPN.psig             4370.00:  SPP Min 
 SPPX.psig             5300.00:  SPP Max 
 STIM.      18.33.36 27-Jan-20:  Start Time 
 SVCS.                 DD, MWD:  Services 
 SVER.                    9.20:  Sperry Version 
 TDAT.m                 169.50:  Tot Depth Attmp 
 TDDF.                      No:  Trip for DD 
 TDLG.m                 169.50:  Tot Depth Loggd 
 TFF .                      No:  Trip for Fail 
 TQAA.f-kp               13.25:  Torque Abs Avg 
 TQAN.f-kp               12.00:  Torque Abs Min 
 TQAX.f-kp               14.00:  Torque Abs Max 
 TRRT.°/30m               0.70:  Turn Rotating 
 MRT .                     ADR:  Maximum Recorded Temperature 
 TTMX.degC               92.16:  Max Tool Temp 
 VS01.       AZ90598764G12V7D4:  Virtual Str1 SN 
 VS02.         AZ90571342R12C4:  Virtual Str2 SN 
 VS03.      AZ90580010N2L2X1C4:  Virtual Str3 SN 
 VS04.        AZ90522266O7X1C4:  Virtual Str4 SN 
 VS05.           AZ90598768F11:  Virtual Str5 SN 
 VS06.     AZ90580006XZ1W1X1C4:  Virtual Str6 SN 
 WBMN.klb                 8.00:  WOB Min 
 WITN.            Peter Wilson:  Customer Rep 
 WOBA.klb                 9.88:  WOB Avg 
 WOBX.klb                10.00:  WOB Max 
 YP  .lhf2               27.00:  Yield Point 
~Curve Information Block
#MNEM.UNIT                 API CODE     Curve Description
#---------               -----------    ---------------------------
 TIME.HHMMSS            00 000 000 000:  GT Time & Date
 GTDEPTH.m              00 000 000 000:  GT Depth
 GTPQH.psia             00 000 000 000:  GT HR Quartz Pressure
 GTTQ.degC              00 000 000 000:  GT Quartz Temperature
 GTTN.NONE              00 000 000 000:  GT Test Number
 GTET.sec               00 000 000 000:  GT Elapsed Test Time
 GTTVD.m                00 000 000 000:  GT True Vertical Depth
#Other Information
#
#WARRANTY: Halliburton will use its best efforts to furnish customers with 
#accurate information and interpretations that are part of, and incident to, the services 
#provided.  However, Halliburton cannot and does not warrant the accuracy 
#or correctness of such information and interpretations.  Under no circumstances should any 
#such information or interpretation be relied upon as the sole basis for any drilling, 
#completion, production, or financial decision or any procedure involving any risk to the 
#safety of any drilling venture, drilling rig or its crew or any other third party.  The 
#Customer has full responsibility for all drilling, completion and production operation.  
#Halliburton makes no representations or warranties, either expressed or 
#implied, including, but not limited to, the implied warranties of merchantability or fitness 
#for a particular purpose, with respect to the services rendered.  In no event will 
#Halliburton be liable for failure to obtain any particular results or for 
#any damages, including, but not limited to, indirect, special or consequential damages, 
#resulting from the use of any information or interpretation provided by Halliburton.
#
~A           TIME           GTDEPTH  GTPQH  GTTQ  GTTN  GTET   GTTVD  
# ...
   01:46:17.122.31-Jan-2020 3902.01 2983.80 75.91 3.00 322.06 2938.77
   01:46:17.322.31-Jan-2020 3902.01 2983.80 75.91 3.00 322.26 2938.77
   01:46:17.522.31-Jan-2020 3902.01 2983.83 75.91 3.00 322.46 2938.77
   01:46:17.722.31-Jan-2020 3902.01 2983.38 75.91 3.00 322.66 2938.77
   01:46:17.922.31-Jan-2020 3902.01 2983.84 75.91 3.00 322.86 2938.77
   01:46:18.122.31-Jan-2020 3902.01 2983.89 75.91 3.00 323.06 2938.77
   01:46:18.322.31-Jan-2020 3902.01 2983.89 75.91 3.00 323.26 2938.77
   01:46:18.522.31-Jan-2020 3902.01 2983.88 75.91 3.00 323.46 2938.77
   01:46:18.722.31-Jan-2020 3902.01 2983.44 75.91 3.00 323.66 2938.77
   01:46:18.922.31-Jan-2020 3902.01 2983.84 75.91 3.00 323.86 2938.77
   01:46:19.122.31-Jan-2020 3902.01 2983.89 75.91 3.00 324.06 2938.77
   01:46:19.322.31-Jan-2020 3902.01 2983.89 75.91 3.00 324.26 2938.77
   01:46:19.522.31-Jan-2020 3902.01 2983.81 75.90 3.00 324.46 2938.77
   01:46:19.722.31-Jan-2020 3902.01 2983.45 75.90 3.00 324.66 2938.77
   01:46:19.922.31-Jan-2020 3902.01 2983.86 75.90 3.00 324.86 2938.77
   01:46:20.122.31-Jan-2020 3902.01 2983.84 75.90 3.00 325.06 2938.77
   01:46:20.322.31-Jan-2020 3902.01 2983.84 75.90 3.00 325.26 2938.77
   01:46:20.522.31-Jan-2020 3902.01 2983.92 75.90 3.00 325.46 2938.77
   01:46:20.722.31-Jan-2020 3902.01 2983.85 75.90 3.00 325.66 2938.77
   01:46:20.922.31-Jan-2020 3902.01 2983.79 75.90 3.00 325.86 2938.77
   01:46:21.122.31-Jan-2020 3902.01 2983.72 75.90 3.00 326.06 2938.77
   01:46:21.323.31-Jan-2020 3902.01 2983.72 75.90 3.00 326.26 2938.77
   01:46:21.523.31-Jan-2020 3902.01 2983.81 75.90 3.00 326.46 2938.77
   01:46:21.723.31-Jan-2020 3902.01 2983.77 75.90 3.00 326.66 2938.77
   01:46:21.923.31-Jan-2020 3902.01 2983.75 75.90 3.00 326.86 2938.77
   01:46:22.123.31-Jan-2020 3902.01 2983.73 75.90 3.00 327.06 2938.77
   01:46:22.323.31-Jan-2020 3902.01 2983.73 75.90 3.00 327.26 2938.77
   01:46:22.523.31-Jan-2020 3902.01 2983.75 75.90 3.00 327.46 2938.77
   01:46:22.723.31-Jan-2020 3902.01 2983.75 75.90 3.00 327.66 2938.77
   01:46:22.923.31-Jan-2020 3902.01 2983.73 75.90 3.00 327.86 2938.77
   01:46:23.123.31-Jan-2020 3902.01 2983.72 75.90 3.00 328.06 2938.77
   01:46:23.323.31-Jan-2020 3902.01 2983.72 75.90 3.00 328.26 2938.77
   01:46:23.523.31-Jan-2020 3902.01 2983.35 75.90 3.00 328.46 2938.77
   01:46:23.723.31-Jan-2020 3902.01 2983.82 75.90 3.00 328.66 2938.77
   01:46:23.923.31-Jan-2020 3902.01 2983.84 75.90 3.00 328.86 2938.77
   01:46:24.123.31-Jan-2020 3902.01 2983.85 75.90 3.00 329.06 2938.77
   01:46:24.323.31-Jan-2020 3902.01 2983.85 75.90 3.00 329.26 2938.77
   01:46:24.523.31-Jan-2020 3902.01 2983.82 75.90 3.00 329.46 2938.77
   01:46:24.723.31-Jan-2020 3902.01 2983.77 75.89 3.00 329.66 2938.77
   01:46:24.923.31-Jan-2020 3902.01 2983.76 75.89 3.00 329.86 2938.77
   01:46:25.123.31-Jan-2020 3902.01 2983.75 75.89 3.00 330.06 2938.77
   01:46:25.323.31-Jan-2020 3902.01 2983.75 75.89 3.00 330.26 2938.77
   01:46:25.523.31-Jan-2020 3902.01 2983.73 75.89 3.00 330.46 2938.77
   01:46:25.723.31-Jan-2020 3902.01 2983.72 75.89 3.00 330.66 2938.77
   01:46:25.923.31-Jan-2020 3902.01 2983.74 75.89 3.00 330.86 2938.77
   01:46:26.123.31-Jan-2020 3902.01 2983.72 75.89 3.00 331.06 2938.77
   01:46:26.323.31-Jan-2020 3902.01 2983.72 75.89 3.00 331.26 2938.77
   01:46:26.523.31-Jan-2020 3902.01 2983.78 75.89 3.00 331.46 2938.77
   01:46:26.723.31-Jan-2020 3902.01 2983.47 75.89 3.00 331.66 2938.77
   01:46:26.924.31-Jan-2020 3902.01 2983.79 75.89 3.00 331.86 2938.77
   01:46:27.124.31-Jan-2020 3902.01 2983.81 75.89 3.00 332.06 2938.77
   01:46:27.324.31-Jan-2020 3902.01 2983.81 75.89 3.00 332.26 2938.77
   01:46:27.524.31-Jan-2020 3902.01 2983.79 75.89 3.00 332.46 2938.77
   01:46:27.724.31-Jan-2020 3902.01 2983.48 75.89 3.00 332.66 2938.77
   01:46:27.924.31-Jan-2020 3902.01 2983.86 75.89 3.00 332.86 2938.77
   01:46:28.124.31-Jan-2020 3902.01 2983.83 75.89 3.00 333.06 2938.77
   01:46:28.324.31-Jan-2020 3902.01 2983.83 75.89 3.00 333.26 2938.77
   01:46:28.524.31-Jan-2020 3902.01 2983.80 75.89 3.00 333.46 2938.77
   01:46:28.724.31-Jan-2020 3902.01 2983.79 75.89 3.00 333.66 2938.77
   01:46:28.924.31-Jan-2020 3902.01 2983.75 75.89 3.00 333.86 2938.77
   01:46:29.124.31-Jan-2020 3902.01 2983.64 75.89 3.00 334.06 2938.77
   01:46:29.324.31-Jan-2020 3902.01 2983.64 75.89 3.00 334.26 2938.77
   01:46:29.524.31-Jan-2020 3902.01 2983.87 75.89 3.00 334.46 2938.77
   01:46:29.724.31-Jan-2020 3902.01 2983.89 75.89 3.00 334.66 2938.77
   01:46:29.924.31-Jan-2020 3902.01 2983.85 75.89 3.00 334.86 2938.77
   01:46:30.124.31-Jan-2020 3902.01 2983.47 75.89 3.00 335.06 2938.77
   01:46:30.324.31-Jan-2020 3902.01 2983.47 75.89 3.00 335.26 2938.77
   01:46:30.524.31-Jan-2020 3902.01 2983.89 75.88 3.00 335.46 2938.77
   01:46:30.724.31-Jan-2020 3902.01 2983.91 75.88 3.00 335.66 2938.77
   01:46:30.924.31-Jan-2020 3902.01 2983.83 75.88 3.00 335.86 2938.77
   01:46:31.124.31-Jan-2020 3902.01 2983.84 75.88 3.00 336.06 2938.77
   01:46:31.324.31-Jan-2020 3902.01 2983.84 75.88 3.00 336.26 2938.77
   01:46:31.524.31-Jan-2020 3902.01 2983.88 75.88 3.00 336.46 2938.77
   01:46:31.724.31-Jan-2020 3902.01 2983.84 75.88 3.00 336.66 2938.77
   01:46:31.924.31-Jan-2020 3902.01 2983.86 75.88 3.00 336.86 2938.77
   01:46:32.124.31-Jan-2020 3902.01 2983.90 75.88 3.00 337.06 2938.77
   01:46:32.325.31-Jan-2020 3902.01 2983.90 75.88 3.00 337.26 2938.77
   01:46:32.525.31-Jan-2020 3902.01 2983.77 75.88 3.00 337.46 2938.77
   01:46:32.725.31-Jan-2020 3902.01 2983.71 75.88 3.00 337.66 2938.77
   01:46:32.925.31-Jan-2020 3902.01 2983.78 75.88 3.00 337.86 2938.77
   01:46:33.125.31-Jan-2020 3902.01 2983.83 75.88 3.00 338.06 2938.77
   01:46:33.325.31-Jan-2020 3902.01 2983.83 75.88 3.00 338.26 2938.77
   01:46:33.525.31-Jan-2020 3902.01 2983.75 75.88 3.00 338.46 2938.77
   01:46:33.725.31-Jan-2020 3902.01 2983.70 75.88 3.00 338.66 2938.77
   01:46:33.925.31-Jan-2020 3902.01 2983.74 75.88 3.00 338.86 2938.77
   01:46:34.125.31-Jan-2020 3902.01 2983.81 75.88 3.00 339.06 2938.77
   01:46:34.325.31-Jan-2020 3902.01 2983.81 75.88 3.00 339.26 2938.77
   01:46:34.525.31-Jan-2020 3902.01 2983.73 75.88 3.00 339.46 2938.77
   01:46:34.725.31-Jan-2020 3902.01 2983.75 75.88 3.00 339.66 2938.77
   01:46:34.925.31-Jan-2020 3902.01 2983.62 75.88 3.00 339.86 2938.77
   01:46:35.125.31-Jan-2020 3902.01 2983.62 75.88 3.00 340.06 2938.77
   01:46:35.325.31-Jan-2020 3902.01 2983.62 75.88 3.00 340.26 2938.77
   01:46:35.525.31-Jan-2020 3902.01 2983.81 75.88 3.00 340.46 2938.77
   01:46:35.725.31-Jan-2020 3902.01 2983.83 75.88 3.00 340.66 2938.77
   01:46:35.925.31-Jan-2020 3902.01 2983.84 75.87 3.00 340.86 2938.77
   01:46:36.125.31-Jan-2020 3902.01 2983.80 75.87 3.00 341.06 2938.77
   01:46:36.325.31-Jan-2020 3902.01 2983.80 75.87 3.00 341.26 2938.77
   01:46:36.525.31-Jan-2020 3902.01 2983.75 75.87 3.00 341.46 2938.77
   01:46:36.725.31-Jan-2020 3902.01 2983.73 75.87 3.00 341.66 2938.77
   01:46:36.925.31-Jan-2020 3902.01 2983.77 75.87 3.00 341.86 2938.77
   01:46:37.125.31-Jan-2020 3902.01 2983.71 75.87 3.00 342.06 2938.77
   01:46:37.325.31-Jan-2020 3902.01 2983.71 75.87 3.00 342.26 2938.77
   01:46:37.525.31-Jan-2020 3902.01 2983.73 75.87 3.00 342.46 2938.77
   01:46:37.725.31-Jan-2020 3902.01 2983.75 75.87 3.00 342.66 2938.77
   01:46:37.926.31-Jan-2020 3902.01 2983.78 75.87 3.00 342.86 2938.77
   01:46:38.126.31-Jan-2020 3902.01 2983.83 75.87 3.00 343.06 2938.77
   01:46:38.326.31-Jan-2020 3902.01 2983.83 75.87 3.00 343.26 2938.77
   01:46:38.526.31-Jan-2020 3902.01 2983.79 75.87 3.00 343.46 2938.77
   01:46:38.726.31-Jan-2020 3902.01 2983.77 75.87 3.00 343.66 2938.77
   01:46:38.926.31-Jan-2020 3902.01 2983.78 75.87 3.00 343.86 2938.77
   01:46:39.126.31-Jan-2020 3902.01 2983.81 75.87 3.00 344.06 2938.77
   01:46:39.326.31-Jan-2020 3902.01 2983.81 75.87 3.00 344.26 2938.77
   01:46:39.526.31-Jan-2020 3902.01 2983.88 75.87 3.00 344.46 2938.77
   01:46:39.726.31-Jan-2020 3902.01 2983.85 75.87 3.00 344.66 2938.77
   01:46:39.926.31-Jan-2020 3902.01 2983.82 75.87 3.00 344.86 2938.77
