~Version Information
 VERS.                  2.0:   CWLS log ASCII Standard -VERSION 2.0
 WRAP.                   NO:   One line per depth step
~Well Information Block
#MNEM.UNIT     VALUE/NAME     DESCRIPTION
#---------     -----------    ---------------------------
 STRT.S             01:28:25 01-Feb-20: START TIME 01:28:25 01-Feb-20
 STOP.S             01:36:19 01-Feb-20: STOP TIME  01:36:19 01-Feb-20
 STEP.S                   0.00: STEP TIME
 NULL.                 -999.25: NULL VALUE
 DFWT.                        :  DIST FWL TEXT
 DFST.                        :  DIST FSL TEXT
 DMF .             Drill Floor:  DRILL MEAS FROM
 STIM.      09.30.00 26-Dec-19:  START TIME
 DATE.      08.00.00 20-Jan-20:  END TIME
 SPUD.               23-Nov-19:  SPUD DATE
 NREF.                    Grid:  NORTH REFERENCE
 HPTY.       Minimum Curvature:  HOLE POS TYPE
 DMOD.             Drill Model:  DRILL MOD DESC
 SVYD.                  Survey:  SURVEY DESC
 ILTD.               Lithology:  INTERP LTH DESC
 FTOP.          Formation Tops:  FORM TOPS DESC
 SON .        AZ-XX-0906192647:  JOB NUMBER
 WTYP.                Deviated:  WELL TYPE
 COMP.     BP Exploration (Caspian Sea) Ltd:  COMPANY
 BASE.              Azerbaijan:  LOGGING EQUIPMENT BASE LOCATION
 REGN.                 Eurasia:  REGION
 FLD .                     ACG:  FIELD NAME
 SRVC.              KCA Deutag:  CONTRACTOR
 MWDS.                    Baku:  MWD SHOP
 WELL.     A10 (Slot 20) - SCP:  WELL NAME
 JOBN.        AZ-XX-0906192647:  JOB TICKET NUMB
 RIG .                 Chirag1:  RIG NAME
 DCON.     Halliburton Sperry Drilling:  DIRECTNL CONTR
 UNIT.                     N/A:  LOGGING EQUIPMENT ID
 PDAT.          Mean Sea Level:  PERMANENT DATUM
 MDS .        Operator Entered:  MAG DATA SOURCE
 CTRY.              Azerbaijan:  COUNTRY NAME
 UWI .            /AZE00000090:  UNIQUE WELL IDENTIFIER
 API .            /AZE00000090:  API NUMBER
 CNTY.                        :  COUNTY
 PROV.                        :  PROVINCE
 STAT.                        :  STATE
 LOC .                        :  LOCATION
 LMF .             Drill Floor:  LOG MEASURED FROM
 TVDS.m                  36.60:  TVDSS CORRECTN
 LATI.deg                40.08:  LATITUDE
 LONG.deg                51.24:  LONGITUDE
 WHNS.m                  -7.94:  WELL HEAD N/S
 WHEW.m                   1.56:  WELL HEAD E/W
 UTMX.m              520429.26:  UTM X
 UTMY.m             4438973.87:  UTM Y
 DFWL.m                   0.00:  DISTANCE FWL
 DFSL.m                   0.00:  DISTANCE FSL
 SDEP.m                1455.00:  START DEPTH
 TDD .m                4047.51:  TOTAL DEPTH (DRILLER)
 VSDR.deg               112.75:  VERT SEC DIRECT
 GVFD.g                   1.00:  GRAVITY FIELD
 MFLD.nT              50261.00:  MAGNETIC FIELD
 MDIP.deg                59.52:  MAGNETIC DIP
 MDEC.deg                 6.42:  MAGNETIC DECL
 GRDC.deg                 0.17:  GRID CORRECTION
 AZTC.deg                 6.25:  AZM TOTAL CORR
 EPD .m                   0.00:  ELEVATION
 EGL .m                   0.00:  GROUND ELEVATION
 WDMS.m                 121.00:  WD ELEV
 APD .m                  36.60:  DEPTH ABOVE PD
 AGAP.m                  36.60:  AIR GAP
 VSEW.m                   1.56:  VERT SEC E/W
 VSNS.m                  -7.94:  VERT SEC N/S
 DEP .m                1140.01:  DEPTH
 EKB .m                  36.60:  KB ELEVATION
 EDF .m                  36.60:  DF ELEVATION
 TDL .m                 169.50:  TOTAL DEPTH (LOGGER)
 CSGD.m                3875.01:  CASING BOTTOM (DRILLER)
 CSGL.m                3875.01:  CASING BOTTOM (LOGGER)
 CSGS.in                  7.63:  CASING SIZE
 CSGW.lbpf               23.50:  CASING WEIGHT
 VSC .                       0:  VS TO CLOSURE
 MAGU.                 1849206:  MAGUTM CHECKSUM
~Parameter Information Block
#MNEM.UNIT       Value        Description
#---------     -----------    ---------------------------
 AV  .mps                 1.90:  Ann Velocity 
 AVMX.mps                 2.54:  Max Ann Veloc 
 AZIF.deg               137.03:  Azm, Final 
 BHAT.        Rotary Steerable:  BHA Type 
 BREV.rev             23610.00:  Rev Bit Total 
 BROT.°/30m               0.80:  Build Rotating 
 BS  .in                  6.50:  Bit Size 
 BTPL.psig              110.00:  Bit Press Loss 
 CABU.                     Yes:  Customer Abuse 
 COMM.                     ì…†:  Run Comments 1 
 TCS .hr                 70.51:  Time Ciculation Ended 
 CV  .mps                 1.41:  Crit Velocity 
 CVMX.mps                 1.42:  Max Crit Veloc 
 DD1 .         Intigam Rahimov:  Direct Drillr 1 
 DD2 .          Rashad Gojayev:  Direct Drillr 2 
 DDSV.               Geo-Pilot:  DD Service 
 DEFF.%                 100.00:  % Det Eff 
 DLRX.°/30m               1.44:  Dogleg Rot Max 
 DLSO.°/30m               0.00:  Dogleg Oriented 
 DLSX.°/30m               0.00:  Dogleg Str Max 
 DRET.      03.05.00 01-Feb-20:  Drill End Time 
 DRST.      15.50.00 28-Jan-20:  Drill Start Tim 
 DTIM.hr                 24.70:  Time Drilling 
 EDEP.m                4047.51:  End Depth 
 ENG1.           Eldar Hajiyev:  Engineer 1 
 ENG2.          Rasim Hashimov:  Engineer 2 
 ENG3.          Rustam Safarov:  Engineer 3 
 ETIM.      22.00.00 01-Feb-20:  End Time 
 FLOI.gpm               370.00:  Flow In 
 FLON.gpm               300.00:  Flow In Min 
 FLOS.cptm                0.00:  Fluid Loss 
 FLOX.gpm               400.00:  Flow In Max 
 FTRO.       Formation Presure:  FTWD Run Obj 
 HFLO.                      No:  High Flow 
 HPRE.                      No:  High Pressure 
 HTEM.                      No:  High Temp 
 HYDO.m                   2.50:  Hydro Offset 
 IFIN.deg                39.54:  Inc, Final 
 IMAX.deg                41.14:  Inc Max 
 IMIN.deg                39.81:  Inc Min 
 IMND.m                4005.21:  Inc Min Depth 
 IMXD.m                3948.42:  Inc Max Depth 
 JARR.                      No:  Jarring 
 LETM.      03.05.00 01-Feb-20:  Log End Time 
 LOST.hr                     0:  Lost Rig Time 
 LSTM.      15.50.00 28-Jan-20:  Log Start Time 
 MDCL.ppm             37500.00:  Mud Chlorides 
 MDES.     Inversion Oil/Synthetic:  Mud Desc 
 DFD .sg                  1.32:  Mud Density 
 MDMN.sg                  1.32:  Dens Mud Min 
 MDMX.sg                  1.32:  Dens Mud Max 
 MOIL.                      55:  Run Mud Oil % 
 MOWR.                   70:30:  Run Mud OWR 
 MSND.                       0:  Run Mud Sand % 
 MSOL.                      17:  Run Mud Solids% 
 DFV .spqt               80.00:  Mud Viscosity 
 MWOD.in                  4.75:  MWD Tool OD 
 MWSI.                      No:  Serv Intrp, MWD 
 OTIM.hr                121.28:  Time Operating 
 PCON.           Look Like New:  Pad Condition 
 PMAX.psia             6171.00:  Press Op, Max 
 PV  .cP                 30.00:  Mud PV 
 RUN .                     300:  Run Number 
 ROPA.m/hr                5.45:  ROP Avg 
 ROPN.m/hr                3.00:  ROP Min 
 ROPX.m/hr               15.00:  ROP Max 
 RPMA.rpm               130.00:  RPM Surface Avg 
 RPMN.rpm                80.00:  RPM Surface Min 
 RPMX.rpm               140.00:  RPM Surface Max 
 RRUN.                     300:  Rig Run Number 
 RTIM.hr                 13.50:  Time Reaming 
 SAZI.deg               133.93:  Azm, Start 
 SDEP.m                3878.01:  Start Depth 
 SIDD.                      No:  Serv Intrp, DD 
 SINC.deg                40.28:  Inc, Start 
 SPPA.psig             4983.00:  SPP Avg 
 SPPN.psig             4370.00:  SPP Min 
 SPPX.psig             5300.00:  SPP Max 
 STIM.      18.33.36 27-Jan-20:  Start Time 
 SVCS.                 DD, MWD:  Services 
 SVER.                    9.20:  Sperry Version 
 TDAT.m                 169.50:  Tot Depth Attmp 
 TDDF.                      No:  Trip for DD 
 TDLG.m                 169.50:  Tot Depth Loggd 
 TFF .                      No:  Trip for Fail 
 TQAA.f-kp               13.25:  Torque Abs Avg 
 TQAN.f-kp               12.00:  Torque Abs Min 
 TQAX.f-kp               14.00:  Torque Abs Max 
 TRRT.°/30m               0.70:  Turn Rotating 
 MRT .                     ADR:  Maximum Recorded Temperature 
 TTMX.degC               92.16:  Max Tool Temp 
 VS01.       AZ90598764G12V7D4:  Virtual Str1 SN 
 VS02.         AZ90571342R12C4:  Virtual Str2 SN 
 VS03.      AZ90580010N2L2X1C4:  Virtual Str3 SN 
 VS04.        AZ90522266O7X1C4:  Virtual Str4 SN 
 VS05.           AZ90598768F11:  Virtual Str5 SN 
 VS06.     AZ90580006XZ1W1X1C4:  Virtual Str6 SN 
 WBMN.klb                 8.00:  WOB Min 
 WITN.            Peter Wilson:  Customer Rep 
 WOBA.klb                 9.88:  WOB Avg 
 WOBX.klb                10.00:  WOB Max 
 YP  .lhf2               27.00:  Yield Point 
~Curve Information Block
#MNEM.UNIT                 API CODE     Curve Description
#---------               -----------    ---------------------------
 TIME.HHMMSS            00 000 000 000:  GT Time & Date
 GTDEPTH.m              00 000 000 000:  GT Depth
 GTPQH.psia             00 000 000 000:  GT HR Quartz Pressure
 GTTQ.degC              00 000 000 000:  GT Quartz Temperature
 GTTN.NONE              00 000 000 000:  GT Test Number
 GTET.sec               00 000 000 000:  GT Elapsed Test Time
 GTTVD.m                00 000 000 000:  GT True Vertical Depth
#Other Information
#
#WARRANTY: Halliburton will use its best efforts to furnish customers with 
#accurate information and interpretations that are part of, and incident to, the services 
#provided.  However, Halliburton cannot and does not warrant the accuracy 
#or correctness of such information and interpretations.  Under no circumstances should any 
#such information or interpretation be relied upon as the sole basis for any drilling, 
#completion, production, or financial decision or any procedure involving any risk to the 
#safety of any drilling venture, drilling rig or its crew or any other third party.  The 
#Customer has full responsibility for all drilling, completion and production operation.  
#Halliburton makes no representations or warranties, either expressed or 
#implied, including, but not limited to, the implied warranties of merchantability or fitness 
#for a particular purpose, with respect to the services rendered.  In no event will 
#Halliburton be liable for failure to obtain any particular results or for 
#any damages, including, but not limited to, indirect, special or consequential damages, 
#resulting from the use of any information or interpretation provided by Halliburton.
#
~A           TIME           GTDEPTH  GTPQH  GTTQ  GTTN   GTET   GTTVD  
# ...
   01:28:47.703.01-Feb-2020 3990.12 6916.37 85.16 11.00  22.68 3005.35
   01:28:47.904.01-Feb-2020 3990.12 6926.85 85.16 11.00  22.88 3005.35
   01:28:48.105.01-Feb-2020 3990.12 6935.75 85.16 11.00  23.08 3005.35
   01:28:48.305.01-Feb-2020 3990.12 6935.75 85.16 11.00  23.28 3005.35
   01:28:48.506.01-Feb-2020 3990.12 6945.88 85.16 11.00  23.48 3005.35
   01:28:48.707.01-Feb-2020 3990.12 6947.15 85.16 11.00  23.68 3005.35
   01:28:48.908.01-Feb-2020 3990.12 6947.26 85.16 11.00  23.88 3005.35
   01:28:49.108.01-Feb-2020 3990.12 6947.98 85.16 11.00  24.08 3005.35
   01:28:49.309.01-Feb-2020 3990.12 6947.98 85.16 11.00  24.28 3005.35
   01:28:49.510.01-Feb-2020 3990.12 6950.63 85.16 11.00  24.49 3005.35
   01:28:49.710.01-Feb-2020 3990.12 6950.58 85.15 11.00  24.69 3005.35
   01:28:49.911.01-Feb-2020 3990.12 6952.06 85.15 11.00  24.89 3005.35
   01:28:50.112.01-Feb-2020 3990.12 6952.72 85.15 11.00  25.09 3005.35
   01:28:50.312.01-Feb-2020 3990.12 6952.72 85.15 11.00  25.29 3005.35
   01:28:50.513.01-Feb-2020 3990.12 6956.38 85.15 11.00  25.49 3005.35
   01:28:50.714.01-Feb-2020 3990.12 6957.82 85.15 11.00  25.69 3005.35
   01:28:50.915.01-Feb-2020 3990.12 6957.27 85.15 11.00  25.89 3005.35
   01:28:51.115.01-Feb-2020 3990.12 6958.74 85.15 11.00  26.09 3005.35
   01:28:51.316.01-Feb-2020 3990.12 6958.74 85.15 11.00  26.29 3005.35
   01:28:51.517.01-Feb-2020 3990.12 6960.13 85.15 11.00  26.49 3005.35
   01:28:51.717.01-Feb-2020 3990.12 6451.53 85.15 11.00  26.69 3005.35
   01:28:51.918.01-Feb-2020 3990.12 5950.30 85.15 11.00  26.89 3005.35
   01:28:52.119.01-Feb-2020 3990.12 5753.56 85.15 11.00  27.09 3005.35
   01:28:52.320.01-Feb-2020 3990.12 5753.56 85.15 11.00  27.30 3005.35
   01:28:52.520.01-Feb-2020 3990.12 5142.21 85.15 11.00  27.50 3005.35
   01:28:52.721.01-Feb-2020 3990.12 4714.58 85.15 11.00  27.70 3005.35
   01:28:52.922.01-Feb-2020 3990.12 4301.89 85.15 11.00  27.90 3005.35
   01:28:53.122.01-Feb-2020 3990.12 3881.87 85.15 11.00  28.10 3005.35
   01:28:53.323.01-Feb-2020 3990.12 3881.87 85.15 11.00  28.30 3005.35
   01:28:53.524.01-Feb-2020 3990.12 3125.83 85.15 11.00  28.50 3005.35
   01:28:53.724.01-Feb-2020 3990.12 2893.81 85.15 11.00  28.70 3005.35
   01:28:53.925.01-Feb-2020 3990.12 2750.26 85.14 11.00  28.90 3005.35
   01:28:54.126.01-Feb-2020 3990.12 2669.96 85.14 11.00  29.10 3005.35
   01:28:54.327.01-Feb-2020 3990.12 2669.96 85.14 11.00  29.30 3005.35
   01:28:54.527.01-Feb-2020 3990.12 2599.99 85.14 11.00  29.50 3005.35
   01:28:54.728.01-Feb-2020 3990.12 2585.17 85.14 11.00  29.70 3005.35
   01:28:54.929.01-Feb-2020 3990.12 2579.81 85.14 11.00  29.90 3005.35
   01:28:55.129.01-Feb-2020 3990.12 2588.64 85.14 11.00  30.11 3005.35
   01:28:55.330.01-Feb-2020 3990.12 2588.64 85.14 11.00  30.31 3005.35
   01:28:55.531.01-Feb-2020 3990.12 2727.67 85.14 11.00  30.51 3005.35
   01:28:55.731.01-Feb-2020 3990.12 2723.46 85.13 11.00  30.71 3005.35
   01:28:55.932.01-Feb-2020 3990.12 2725.33 85.13 11.00  30.91 3005.35
   01:28:56.133.01-Feb-2020 3990.12 2707.60 85.13 11.00  31.11 3005.35
   01:28:56.334.01-Feb-2020 3990.12 2707.60 85.13 11.00  31.31 3005.35
   01:28:56.534.01-Feb-2020 3990.12 2710.89 85.13 11.00  31.51 3005.35
   01:28:56.735.01-Feb-2020 3990.12 2711.77 85.13 11.00  31.71 3005.35
   01:28:56.936.01-Feb-2020 3990.12 2706.55 85.13 11.00  31.91 3005.35
   01:28:57.136.01-Feb-2020 3990.12 2693.60 85.12 11.00  32.11 3005.35
   01:28:57.337.01-Feb-2020 3990.12 2693.60 85.12 11.00  32.31 3005.35
   01:28:57.538.01-Feb-2020 3990.12 2677.88 85.12 11.00  32.51 3005.35
   01:28:57.738.01-Feb-2020 3990.12 2670.04 85.12 11.00  32.71 3005.35
   01:28:57.939.01-Feb-2020 3990.12 2667.73 85.12 11.00  32.92 3005.35
   01:28:58.140.01-Feb-2020 3990.12 2668.12 85.12 11.00  33.12 3005.35
   01:28:58.341.01-Feb-2020 3990.12 2668.12 85.12 11.00  33.32 3005.35
   01:28:58.541.01-Feb-2020 3990.12 2662.18 85.11 11.00  33.52 3005.35
   01:28:58.742.01-Feb-2020 3990.12 2660.81 85.11 11.00  33.72 3005.35
   01:28:58.943.01-Feb-2020 3990.12 2658.97 85.11 11.00  33.92 3005.35
   01:28:59.143.01-Feb-2020 3990.12 2660.58 85.11 11.00  34.12 3005.35
   01:28:59.344.01-Feb-2020 3990.12 2660.58 85.11 11.00  34.32 3005.35
   01:28:59.545.01-Feb-2020 3990.12 2661.81 85.11 11.00  34.52 3005.35
   01:28:59.745.01-Feb-2020 3990.12 2667.43 85.10 11.00  34.72 3005.35
   01:28:59.946.01-Feb-2020 3990.12 2673.17 85.10 11.00  34.92 3005.35
   01:29:00.147.01-Feb-2020 3990.12 2680.69 85.10 11.00  35.12 3005.35
   01:29:00.348.01-Feb-2020 3990.12 2680.69 85.10 11.00  35.32 3005.35
   01:29:00.548.01-Feb-2020 3990.12 2674.62 85.10 11.00  35.52 3005.35
   01:29:00.749.01-Feb-2020 3990.12 2673.08 85.10 11.00  35.72 3005.35
   01:29:00.950.01-Feb-2020 3990.12 2669.52 85.09 11.00  35.93 3005.35
   01:29:01.150.01-Feb-2020 3990.12 2678.26 85.09 11.00  36.13 3005.35
   01:29:01.351.01-Feb-2020 3990.12 2678.26 85.09 11.00  36.33 3005.35
   01:29:01.552.01-Feb-2020 3990.12 3008.86 85.09 11.00  36.53 3005.35
   01:29:01.752.01-Feb-2020 3990.12 3084.59 85.09 11.00  36.73 3005.35
   01:29:01.953.01-Feb-2020 3990.12 3124.61 85.09 11.00  36.93 3005.35
   01:29:02.154.01-Feb-2020 3990.12 3147.24 85.09 11.00  37.13 3005.35
   01:29:02.355.01-Feb-2020 3990.12 3147.24 85.09 11.00  37.33 3005.35
   01:29:02.555.01-Feb-2020 3990.12 3171.11 85.08 11.00  37.53 3005.35
   01:29:02.756.01-Feb-2020 3990.12 3177.43 85.08 11.00  37.73 3005.35
   01:29:02.957.01-Feb-2020 3990.12 3182.22 85.08 11.00  37.93 3005.35
   01:29:03.157.01-Feb-2020 3990.12 3185.99 85.08 11.00  38.13 3005.35
   01:29:03.358.01-Feb-2020 3990.12 3185.99 85.08 11.00  38.33 3005.35
   01:29:03.559.01-Feb-2020 3990.12 3190.24 85.08 11.00  38.53 3005.35
   01:29:03.760.01-Feb-2020 3990.12 3192.72 85.08 11.00  38.74 3005.35
   01:29:03.960.01-Feb-2020 3990.12 3194.58 85.08 11.00  38.94 3005.35
   01:29:04.161.01-Feb-2020 3990.12 3195.93 85.08 11.00  39.14 3005.35
   01:29:04.362.01-Feb-2020 3990.12 3195.93 85.08 11.00  39.34 3005.35
   01:29:04.562.01-Feb-2020 3990.12 3197.74 85.07 11.00  39.54 3005.35
   01:29:04.763.01-Feb-2020 3990.12 3198.96 85.07 11.00  39.74 3005.35
   01:29:04.964.01-Feb-2020 3990.12 3199.81 85.07 11.00  39.94 3005.35
   01:29:05.164.01-Feb-2020 3990.12 3200.55 85.07 11.00  40.14 3005.35
   01:29:05.365.01-Feb-2020 3990.12 3200.55 85.07 11.00  40.34 3005.35
   01:29:05.566.01-Feb-2020 3990.12 3201.71 85.07 11.00  40.54 3005.35
   01:29:05.767.01-Feb-2020 3990.12 3202.31 85.07 11.00  40.74 3005.35
   01:29:05.967.01-Feb-2020 3990.12 3202.72 85.07 11.00  40.94 3005.35
   01:29:06.168.01-Feb-2020 3990.12 3203.10 85.07 11.00  41.14 3005.35
   01:29:06.369.01-Feb-2020 3990.12 3203.10 85.07 11.00  41.34 3005.35
   01:29:06.569.01-Feb-2020 3990.12 3203.88 85.06 11.00  41.55 3005.35
   01:29:06.770.01-Feb-2020 3990.12 3204.16 85.06 11.00  41.75 3005.35
   01:29:06.971.01-Feb-2020 3990.12 3204.45 85.06 11.00  41.95 3005.35
   01:29:07.171.01-Feb-2020 3990.12 3204.69 85.06 11.00  42.15 3005.35
   01:29:07.372.01-Feb-2020 3990.12 3204.69 85.06 11.00  42.35 3005.35
   01:29:07.573.01-Feb-2020 3990.12 3205.36 85.06 11.00  42.55 3005.35
   01:29:07.774.01-Feb-2020 3990.12 3205.61 85.06 11.00  42.75 3005.35
   01:29:07.974.01-Feb-2020 3990.12 3205.90 85.06 11.00  42.95 3005.35
   01:29:08.175.01-Feb-2020 3990.12 3205.58 85.06 11.00  43.15 3005.35
   01:29:08.376.01-Feb-2020 3990.12 3205.58 85.06 11.00  43.35 3005.35
   01:29:08.576.01-Feb-2020 3990.12 3206.31 85.06 11.00  43.55 3005.35
   01:29:08.777.01-Feb-2020 3990.12 3206.56 85.06 11.00  43.75 3005.35
   01:29:08.978.01-Feb-2020 3990.12 3206.73 85.06 11.00  43.95 3005.35
   01:29:09.178.01-Feb-2020 3990.12 3206.96 85.05 11.00  44.15 3005.35
   01:29:09.379.01-Feb-2020 3990.12 3206.96 85.05 11.00  44.36 3005.35
   01:29:09.580.01-Feb-2020 3990.12 3207.31 85.05 11.00  44.56 3005.35
   01:29:09.781.01-Feb-2020 3990.12 3207.45 85.05 11.00  44.76 3005.35
   01:29:09.981.01-Feb-2020 3990.12 3207.61 85.05 11.00  44.96 3005.35
   01:29:10.182.01-Feb-2020 3990.12 3207.75 85.05 11.00  45.16 3005.35
