~Version Information
 VERS.                  2.0:   CWLS log ASCII Standard -VERSION 2.0
 WRAP.                   NO:   One line per depth step
~Well Information Block
#MNEM.UNIT     VALUE/NAME     DESCRIPTION
#---------     -----------    ---------------------------
 STRT.S             21:06:33 30-Jan-20: START TIME 21:06:33 30-Jan-20
 STOP.S             21:13:02 30-Jan-20: STOP TIME  21:13:02 30-Jan-20
 STEP.S                   0.00: STEP TIME
 NULL.                 -999.25: NULL VALUE
 DFWT.                        :  DIST FWL TEXT
 DFST.                        :  DIST FSL TEXT
 DMF .             Drill Floor:  DRILL MEAS FROM
 STIM.      09.30.00 26-Dec-19:  START TIME
 DATE.      08.00.00 20-Jan-20:  END TIME
 SPUD.               23-Nov-19:  SPUD DATE
 NREF.                    Grid:  NORTH REFERENCE
 HPTY.       Minimum Curvature:  HOLE POS TYPE
 DMOD.             Drill Model:  DRILL MOD DESC
 SVYD.                  Survey:  SURVEY DESC
 ILTD.               Lithology:  INTERP LTH DESC
 FTOP.          Formation Tops:  FORM TOPS DESC
 SON .        AZ-XX-0906192647:  JOB NUMBER
 WTYP.                Deviated:  WELL TYPE
 COMP.     BP Exploration (Caspian Sea) Ltd:  COMPANY
 BASE.              Azerbaijan:  LOGGING EQUIPMENT BASE LOCATION
 REGN.                 Eurasia:  REGION
 FLD .                     ACG:  FIELD NAME
 SRVC.              KCA Deutag:  CONTRACTOR
 MWDS.                    Baku:  MWD SHOP
 WELL.     A10 (Slot 20) - SCP:  WELL NAME
 JOBN.        AZ-XX-0906192647:  JOB TICKET NUMB
 RIG .                 Chirag1:  RIG NAME
 DCON.     Halliburton Sperry Drilling:  DIRECTNL CONTR
 UNIT.                     N/A:  LOGGING EQUIPMENT ID
 PDAT.          Mean Sea Level:  PERMANENT DATUM
 MDS .        Operator Entered:  MAG DATA SOURCE
 CTRY.              Azerbaijan:  COUNTRY NAME
 UWI .            /AZE00000090:  UNIQUE WELL IDENTIFIER
 API .            /AZE00000090:  API NUMBER
 CNTY.                        :  COUNTY
 PROV.                        :  PROVINCE
 STAT.                        :  STATE
 LOC .                        :  LOCATION
 LMF .             Drill Floor:  LOG MEASURED FROM
 TVDS.m                  36.60:  TVDSS CORRECTN
 LATI.deg                40.08:  LATITUDE
 LONG.deg                51.24:  LONGITUDE
 WHNS.m                  -7.94:  WELL HEAD N/S
 WHEW.m                   1.56:  WELL HEAD E/W
 UTMX.m              520429.26:  UTM X
 UTMY.m             4438973.87:  UTM Y
 DFWL.m                   0.00:  DISTANCE FWL
 DFSL.m                   0.00:  DISTANCE FSL
 SDEP.m                1455.00:  START DEPTH
 TDD .m                4047.51:  TOTAL DEPTH (DRILLER)
 VSDR.deg               112.75:  VERT SEC DIRECT
 GVFD.g                   1.00:  GRAVITY FIELD
 MFLD.nT              50261.00:  MAGNETIC FIELD
 MDIP.deg                59.52:  MAGNETIC DIP
 MDEC.deg                 6.42:  MAGNETIC DECL
 GRDC.deg                 0.17:  GRID CORRECTION
 AZTC.deg                 6.25:  AZM TOTAL CORR
 EPD .m                   0.00:  ELEVATION
 EGL .m                   0.00:  GROUND ELEVATION
 WDMS.m                 121.00:  WD ELEV
 APD .m                  36.60:  DEPTH ABOVE PD
 AGAP.m                  36.60:  AIR GAP
 VSEW.m                   1.56:  VERT SEC E/W
 VSNS.m                  -7.94:  VERT SEC N/S
 DEP .m                1140.01:  DEPTH
 EKB .m                  36.60:  KB ELEVATION
 EDF .m                  36.60:  DF ELEVATION
 TDL .m                 169.50:  TOTAL DEPTH (LOGGER)
 CSGD.m                3875.01:  CASING BOTTOM (DRILLER)
 CSGL.m                3875.01:  CASING BOTTOM (LOGGER)
 CSGS.in                  7.63:  CASING SIZE
 CSGW.lbpf               23.50:  CASING WEIGHT
 VSC .                       0:  VS TO CLOSURE
 MAGU.                 1849206:  MAGUTM CHECKSUM
~Parameter Information Block
#MNEM.UNIT       Value        Description
#---------     -----------    ---------------------------
 AV  .mps                 1.90:  Ann Velocity 
 AVMX.mps                 2.54:  Max Ann Veloc 
 AZIF.deg               137.03:  Azm, Final 
 BHAT.        Rotary Steerable:  BHA Type 
 BREV.rev             23610.00:  Rev Bit Total 
 BROT.°/30m               0.80:  Build Rotating 
 BS  .in                  6.50:  Bit Size 
 BTPL.psig              110.00:  Bit Press Loss 
 CABU.                     Yes:  Customer Abuse 
 TCS .hr                 70.51:  Time Ciculation Ended 
 CV  .mps                 1.41:  Crit Velocity 
 CVMX.mps                 1.42:  Max Crit Veloc 
 DD1 .         Intigam Rahimov:  Direct Drillr 1 
 DD2 .          Rashad Gojayev:  Direct Drillr 2 
 DDSV.               Geo-Pilot:  DD Service 
 DEFF.%                 100.00:  % Det Eff 
 DLRX.°/30m               1.44:  Dogleg Rot Max 
 DLSO.°/30m               0.00:  Dogleg Oriented 
 DLSX.°/30m               0.00:  Dogleg Str Max 
 DRET.      03.05.00 01-Feb-20:  Drill End Time 
 DRST.      15.50.00 28-Jan-20:  Drill Start Tim 
 DTIM.hr                 24.70:  Time Drilling 
 EDEP.m                4047.51:  End Depth 
 ENG1.           Eldar Hajiyev:  Engineer 1 
 ENG2.          Rasim Hashimov:  Engineer 2 
 ENG3.          Rustam Safarov:  Engineer 3 
 ETIM.      22.00.00 01-Feb-20:  End Time 
 FLOI.gpm               370.00:  Flow In 
 FLON.gpm               300.00:  Flow In Min 
 FLOS.cptm                0.00:  Fluid Loss 
 FLOX.gpm               400.00:  Flow In Max 
 FTRO.       Formation Presure:  FTWD Run Obj 
 HFLO.                      No:  High Flow 
 HPRE.                      No:  High Pressure 
 HTEM.                      No:  High Temp 
 HYDO.m                   2.50:  Hydro Offset 
 IFIN.deg                39.54:  Inc, Final 
 IMAX.deg                41.14:  Inc Max 
 IMIN.deg                39.81:  Inc Min 
 IMND.m                4005.21:  Inc Min Depth 
 IMXD.m                3948.42:  Inc Max Depth 
 JARR.                      No:  Jarring 
 LETM.      03.05.00 01-Feb-20:  Log End Time 
 LOST.hr                     0:  Lost Rig Time 
 LSTM.      15.50.00 28-Jan-20:  Log Start Time 
 MDCL.ppm             37500.00:  Mud Chlorides 
 MDES.     Inversion Oil/Synthetic:  Mud Desc 
 DFD .sg                  1.32:  Mud Density 
 MDMN.sg                  1.32:  Dens Mud Min 
 MDMX.sg                  1.32:  Dens Mud Max 
 MOIL.                      55:  Run Mud Oil % 
 MOWR.                   70:30:  Run Mud OWR 
 MSND.                       0:  Run Mud Sand % 
 MSOL.                      17:  Run Mud Solids% 
 DFV .spqt               80.00:  Mud Viscosity 
 MWOD.in                  4.75:  MWD Tool OD 
 MWSI.                      No:  Serv Intrp, MWD 
 OTIM.hr                121.28:  Time Operating 
 PCON.           Look Like New:  Pad Condition 
 PMAX.psia             6171.00:  Press Op, Max 
 PV  .cP                 30.00:  Mud PV 
 RUN .                     300:  Run Number 
 ROPA.m/hr                5.45:  ROP Avg 
 ROPN.m/hr                3.00:  ROP Min 
 ROPX.m/hr               15.00:  ROP Max 
 RPMA.rpm               130.00:  RPM Surface Avg 
 RPMN.rpm                80.00:  RPM Surface Min 
 RPMX.rpm               140.00:  RPM Surface Max 
 RRUN.                     300:  Rig Run Number 
 RTIM.hr                 13.50:  Time Reaming 
 SAZI.deg               133.93:  Azm, Start 
 SDEP.m                3878.01:  Start Depth 
 SIDD.                      No:  Serv Intrp, DD 
 SINC.deg                40.28:  Inc, Start 
 SPPA.psig             4983.00:  SPP Avg 
 SPPN.psig             4370.00:  SPP Min 
 SPPX.psig             5300.00:  SPP Max 
 STIM.      18.33.36 27-Jan-20:  Start Time 
 SVCS.                 DD, MWD:  Services 
 SVER.                    9.20:  Sperry Version 
 TDAT.m                 169.50:  Tot Depth Attmp 
 TDDF.                      No:  Trip for DD 
 TDLG.m                 169.50:  Tot Depth Loggd 
 TFF .                      No:  Trip for Fail 
 TQAA.f-kp               13.25:  Torque Abs Avg 
 TQAN.f-kp               12.00:  Torque Abs Min 
 TQAX.f-kp               14.00:  Torque Abs Max 
 TRRT.°/30m               0.70:  Turn Rotating 
 MRT .                     ADR:  Maximum Recorded Temperature 
 TTMX.degC               92.16:  Max Tool Temp 
 VS01.       AZ90598764G12V7D4:  Virtual Str1 SN 
 VS02.         AZ90571342R12C4:  Virtual Str2 SN 
 VS03.      AZ90580010N2L2X1C4:  Virtual Str3 SN 
 VS04.        AZ90522266O7X1C4:  Virtual Str4 SN 
 VS05.           AZ90598768F11:  Virtual Str5 SN 
 VS06.     AZ90580006XZ1W1X1C4:  Virtual Str6 SN 
 WBMN.klb                 8.00:  WOB Min 
 WITN.            Peter Wilson:  Customer Rep 
 WOBA.klb                 9.88:  WOB Avg 
 WOBX.klb                10.00:  WOB Max 
 YP  .lhf2               27.00:  Yield Point 
~Curve Information Block
#MNEM.UNIT                 API CODE     Curve Description
#---------               -----------    ---------------------------
 TIME.HHMMSS            00 000 000 000:  GT Time & Date
 GTDEPTH.m              00 000 000 000:  GT Depth
 GTPQH.psia             00 000 000 000:  GT HR Quartz Pressure
 GTTQ.degC              00 000 000 000:  GT Quartz Temperature
 GTTN.NONE              00 000 000 000:  GT Test Number
 GTET.sec               00 000 000 000:  GT Elapsed Test Time
 GTTVD.m                00 000 000 000:  GT True Vertical Depth
#Other Information
#
#WARRANTY: Halliburton will use its best efforts to furnish customers with 
#accurate information and interpretations that are part of, and incident to, the services 
#provided.  However, Halliburton cannot and does not warrant the accuracy 
#or correctness of such information and interpretations.  Under no circumstances should any 
#such information or interpretation be relied upon as the sole basis for any drilling, 
#completion, production, or financial decision or any procedure involving any risk to the 
#safety of any drilling venture, drilling rig or its crew or any other third party.  The 
#Customer has full responsibility for all drilling, completion and production operation.  
#Halliburton makes no representations or warranties, either expressed or 
#implied, including, but not limited to, the implied warranties of merchantability or fitness 
#for a particular purpose, with respect to the services rendered.  In no event will 
#Halliburton be liable for failure to obtain any particular results or for 
#any damages, including, but not limited to, indirect, special or consequential damages, 
#resulting from the use of any information or interpretation provided by Halliburton.
#
~A           TIME           GTDEPTH  GTPQH  GTTQ  GTTN  GTET   GTTVD  
   21:06:33.005.30-Jan-2020 3895.01 5857.00 73.35 2.00   0.00 2933.47
   21:06:33.205.30-Jan-2020 3895.01 5857.00 73.35 2.00   0.20 2933.47
   21:06:33.405.30-Jan-2020 3895.01 5849.87 73.35 2.00   0.40 2933.47
   21:06:33.605.30-Jan-2020 3895.01 5847.07 73.35 2.00   0.60 2933.47
   21:06:33.805.30-Jan-2020 3895.01 5848.12 73.35 2.00   0.80 2933.47
   21:06:34.005.30-Jan-2020 3895.01 5847.63 73.35 2.00   1.00 2933.47
   21:06:34.205.30-Jan-2020 3895.01 5847.63 73.35 2.00   1.20 2933.47
   21:06:34.405.30-Jan-2020 3895.01 5844.66 73.34 2.00   1.40 2933.47
   21:06:34.605.30-Jan-2020 3895.01 5845.16 73.34 2.00   1.60 2933.47
   21:06:34.805.30-Jan-2020 3895.01 5846.93 73.34 2.00   1.80 2933.47
   21:06:35.005.30-Jan-2020 3895.01 5837.42 73.34 2.00   2.00 2933.47
   21:06:35.205.30-Jan-2020 3895.01 5837.42 73.34 2.00   2.20 2933.47
   21:06:35.405.30-Jan-2020 3895.01 5846.87 73.34 2.00   2.40 2933.47
   21:06:35.605.30-Jan-2020 3895.01 5847.97 73.34 2.00   2.60 2933.47
   21:06:35.805.30-Jan-2020 3895.01 5849.42 73.34 2.00   2.80 2933.47
   21:06:36.005.30-Jan-2020 3895.01 5852.40 73.34 2.00   3.00 2933.47
   21:06:36.205.30-Jan-2020 3895.01 5852.40 73.34 2.00   3.20 2933.47
   21:06:36.405.30-Jan-2020 3895.01 5852.95 73.34 2.00   3.40 2933.47
   21:06:36.605.30-Jan-2020 3895.01 5853.40 73.33 2.00   3.60 2933.47
   21:06:36.805.30-Jan-2020 3895.01 5853.45 73.33 2.00   3.80 2933.47
   21:06:37.005.30-Jan-2020 3895.01 5853.82 73.33 2.00   4.00 2933.47
   21:06:37.205.30-Jan-2020 3895.01 5853.82 73.33 2.00   4.20 2933.47
   21:06:37.405.30-Jan-2020 3895.01 5852.69 73.33 2.00   4.40 2933.47
   21:06:37.605.30-Jan-2020 3895.01 5852.12 73.33 2.00   4.60 2933.47
   21:06:37.805.30-Jan-2020 3895.01 5852.80 73.33 2.00   4.80 2933.47
   21:06:38.006.30-Jan-2020 3895.01 5855.36 73.33 2.00   5.00 2933.47
   21:06:38.206.30-Jan-2020 3895.01 5855.36 73.33 2.00   5.20 2933.47
   21:06:38.406.30-Jan-2020 3895.01 5855.36 73.33 2.00   5.40 2933.47
   21:06:38.606.30-Jan-2020 3895.01 5851.78 73.33 2.00   5.60 2933.47
   21:06:38.806.30-Jan-2020 3895.01 5851.36 73.33 2.00   5.80 2933.47
   21:06:39.006.30-Jan-2020 3895.01 5846.72 73.32 2.00   6.00 2933.47
   21:06:39.206.30-Jan-2020 3895.01 5846.72 73.32 2.00   6.20 2933.47
   21:06:39.406.30-Jan-2020 3895.01 5848.83 73.32 2.00   6.40 2933.47
   21:06:39.606.30-Jan-2020 3895.01 5848.35 73.32 2.00   6.60 2933.47
   21:06:39.806.30-Jan-2020 3895.01 5848.48 73.32 2.00   6.80 2933.47
   21:06:40.006.30-Jan-2020 3895.01 5847.70 73.32 2.00   7.00 2933.47
   21:06:40.206.30-Jan-2020 3895.01 5847.70 73.32 2.00   7.20 2933.47
   21:06:40.406.30-Jan-2020 3895.01 5845.82 73.32 2.00   7.40 2933.47
   21:06:40.606.30-Jan-2020 3895.01 5845.27 73.32 2.00   7.60 2933.47
   21:06:40.806.30-Jan-2020 3895.01 5845.42 73.32 2.00   7.80 2933.47
   21:06:41.006.30-Jan-2020 3895.01 5845.40 73.32 2.00   8.00 2933.47
   21:06:41.206.30-Jan-2020 3895.01 5845.40 73.32 2.00   8.20 2933.47
   21:06:41.406.30-Jan-2020 3895.01 5849.74 73.31 2.00   8.40 2933.47
   21:06:41.606.30-Jan-2020 3895.01 5848.41 73.31 2.00   8.60 2933.47
   21:06:41.806.30-Jan-2020 3895.01 5840.52 73.31 2.00   8.80 2933.47
   21:06:42.006.30-Jan-2020 3895.01 5853.31 73.31 2.00   9.00 2933.47
   21:06:42.206.30-Jan-2020 3895.01 5853.31 73.31 2.00   9.20 2933.47
   21:06:42.406.30-Jan-2020 3895.01 5853.25 73.31 2.00   9.40 2933.47
   21:06:42.606.30-Jan-2020 3895.01 5852.62 73.31 2.00   9.60 2933.47
   21:06:42.806.30-Jan-2020 3895.01 5852.82 73.31 2.00   9.80 2933.47
   21:06:43.006.30-Jan-2020 3895.01 5854.67 73.31 2.00  10.00 2933.47
   21:06:43.207.30-Jan-2020 3895.01 5854.67 73.31 2.00  10.20 2933.47
   21:06:43.407.30-Jan-2020 3895.01 5851.97 73.31 2.00  10.40 2933.47
   21:06:43.607.30-Jan-2020 3895.01 5850.50 73.30 2.00  10.60 2933.47
   21:06:43.807.30-Jan-2020 3895.01 5854.43 73.30 2.00  10.80 2933.47
   21:06:44.007.30-Jan-2020 3895.01 5854.59 73.30 2.00  11.00 2933.47
   21:06:44.207.30-Jan-2020 3895.01 5854.59 73.30 2.00  11.20 2933.47
   21:06:44.407.30-Jan-2020 3895.01 5854.59 73.30 2.00  11.40 2933.47
   21:06:44.607.30-Jan-2020 3895.01 5854.57 73.30 2.00  11.60 2933.47
   21:06:44.807.30-Jan-2020 3895.01 5854.53 73.30 2.00  11.80 2933.47
   21:06:45.007.30-Jan-2020 3895.01 5853.63 73.30 2.00  12.00 2933.47
   21:06:45.207.30-Jan-2020 3895.01 5853.63 73.30 2.00  12.20 2933.47
   21:06:45.407.30-Jan-2020 3895.01 5853.13 73.30 2.00  12.40 2933.47
   21:06:45.607.30-Jan-2020 3895.01 5853.44 73.30 2.00  12.60 2933.47
   21:06:45.807.30-Jan-2020 3895.01 5853.10 73.29 2.00  12.80 2933.47
   21:06:46.007.30-Jan-2020 3895.01 5852.92 73.29 2.00  13.00 2933.47
   21:06:46.207.30-Jan-2020 3895.01 5852.92 73.29 2.00  13.20 2933.47
   21:06:46.407.30-Jan-2020 3895.01 5855.51 73.29 2.00  13.40 2933.47
   21:06:46.607.30-Jan-2020 3895.01 5855.68 73.29 2.00  13.60 2933.47
   21:06:46.807.30-Jan-2020 3895.01 5854.81 73.29 2.00  13.80 2933.47
   21:06:47.007.30-Jan-2020 3895.01 5849.96 73.29 2.00  14.00 2933.47
   21:06:47.207.30-Jan-2020 3895.01 5849.96 73.29 2.00  14.20 2933.47
   21:06:47.407.30-Jan-2020 3895.01 5855.39 73.29 2.00  14.40 2933.47
   21:06:47.607.30-Jan-2020 3895.01 5854.92 73.29 2.00  14.60 2933.47
   21:06:47.807.30-Jan-2020 3895.01 5855.64 73.29 2.00  14.80 2933.47
   21:06:48.007.30-Jan-2020 3895.01 5855.02 73.29 2.00  15.00 2933.47
   21:06:48.207.30-Jan-2020 3895.01 5855.02 73.29 2.00  15.20 2933.47
   21:06:48.407.30-Jan-2020 3895.01 5856.65 73.28 2.00  15.40 2933.47
   21:06:48.608.30-Jan-2020 3895.01 5857.15 73.28 2.00  15.60 2933.47
   21:06:48.808.30-Jan-2020 3895.01 5858.00 73.28 2.00  15.80 2933.47
   21:06:49.008.30-Jan-2020 3895.01 5857.60 73.28 2.00  16.00 2933.47
   21:06:49.208.30-Jan-2020 3895.01 5857.60 73.28 2.00  16.20 2933.47
   21:06:49.408.30-Jan-2020 3895.01 5857.00 73.28 2.00  16.40 2933.47
   21:06:49.608.30-Jan-2020 3895.01 5856.20 73.28 2.00  16.60 2933.47
   21:06:49.808.30-Jan-2020 3895.01 5856.91 73.28 2.00  16.80 2933.47
   21:06:50.008.30-Jan-2020 3895.01 5859.81 73.28 2.00  17.00 2933.47
   21:06:50.208.30-Jan-2020 3895.01 5859.81 73.28 2.00  17.20 2933.47
   21:06:50.408.30-Jan-2020 3895.01 5861.23 73.28 2.00  17.40 2933.47
   21:06:50.608.30-Jan-2020 3895.01 5903.79 73.27 2.00  17.60 2933.47
   21:06:50.808.30-Jan-2020 3895.01 6001.62 73.27 2.00  17.80 2933.47
   21:06:51.008.30-Jan-2020 3895.01 6058.24 73.27 2.00  18.00 2933.47
   21:06:51.208.30-Jan-2020 3895.01 6058.24 73.27 2.00  18.20 2933.47
   21:06:51.408.30-Jan-2020 3895.01 6168.81 73.27 2.00  18.40 2933.47
   21:06:51.608.30-Jan-2020 3895.01 6235.41 73.27 2.00  18.60 2933.47
   21:06:51.808.30-Jan-2020 3895.01 6286.39 73.27 2.00  18.80 2933.47
   21:06:52.008.30-Jan-2020 3895.01 6348.02 73.27 2.00  19.00 2933.47
   21:06:52.208.30-Jan-2020 3895.01 6348.02 73.27 2.00  19.20 2933.47
   21:06:52.408.30-Jan-2020 3895.01 6704.64 73.27 2.00  19.40 2933.47
   21:06:52.608.30-Jan-2020 3895.01 6688.82 73.27 2.00  19.60 2933.47
   21:06:52.808.30-Jan-2020 3895.01 6704.53 73.27 2.00  19.80 2933.47
   21:06:53.008.30-Jan-2020 3895.01 6716.63 73.26 2.00  20.00 2933.47
   21:06:53.208.30-Jan-2020 3895.01 6716.63 73.26 2.00  20.20 2933.47
   21:06:53.408.30-Jan-2020 3895.01 6753.44 73.26 2.00  20.40 2933.47
   21:06:53.608.30-Jan-2020 3895.01 6732.80 73.26 2.00  20.60 2933.47
   21:06:53.809.30-Jan-2020 3895.01 6725.45 73.26 2.00  20.80 2933.47
   21:06:54.009.30-Jan-2020 3895.01 6769.35 73.26 2.00  21.00 2933.47
   21:06:54.209.30-Jan-2020 3895.01 6769.35 73.26 2.00  21.20 2933.47
   21:06:54.409.30-Jan-2020 3895.01 6617.51 73.26 2.00  21.40 2933.47
   21:06:54.609.30-Jan-2020 3895.01 6686.46 73.26 2.00  21.60 2933.47
   21:06:54.809.30-Jan-2020 3895.01 6715.52 73.26 2.00  21.80 2933.47
   21:06:55.009.30-Jan-2020 3895.01 6752.68 73.26 2.00  22.00 2933.47
   21:06:55.209.30-Jan-2020 3895.01 6752.68 73.26 2.00  22.20 2933.47
   21:06:55.409.30-Jan-2020 3895.01 6755.74 73.26 2.00  22.40 2933.47
   21:06:55.609.30-Jan-2020 3895.01 6777.56 73.25 2.00  22.60 2933.47
   21:06:55.809.30-Jan-2020 3895.01 6787.05 73.25 2.00  22.80 2933.47
