~Version Information
 VERS.                  2.0:   CWLS log ASCII Standard -VERSION 2.0
 WRAP.                   NO:   One line per depth step
~Well Information Block
#MNEM.UNIT     VALUE/NAME     DESCRIPTION
#---------     -----------    ---------------------------
 STRT.S             01:40:55 31-Jan-20: START TIME 01:40:55 31-Jan-20
 STOP.S             01:47:23 31-Jan-20: STOP TIME  01:47:23 31-Jan-20
 STEP.S                   0.00: STEP TIME
 NULL.                 -999.25: NULL VALUE
 DFWT.                        :  DIST FWL TEXT
 DFST.                        :  DIST FSL TEXT
 DMF .             Drill Floor:  DRILL MEAS FROM
 STIM.      09.30.00 26-Dec-19:  START TIME
 DATE.      08.00.00 20-Jan-20:  END TIME
 SPUD.               23-Nov-19:  SPUD DATE
 NREF.                    Grid:  NORTH REFERENCE
 HPTY.       Minimum Curvature:  HOLE POS TYPE
 DMOD.             Drill Model:  DRILL MOD DESC
 SVYD.                  Survey:  SURVEY DESC
 ILTD.               Lithology:  INTERP LTH DESC
 FTOP.          Formation Tops:  FORM TOPS DESC
 SON .        AZ-XX-0906192647:  JOB NUMBER
 WTYP.                Deviated:  WELL TYPE
 COMP.     BP Exploration (Caspian Sea) Ltd:  COMPANY
 BASE.              Azerbaijan:  LOGGING EQUIPMENT BASE LOCATION
 REGN.                 Eurasia:  REGION
 FLD .                     ACG:  FIELD NAME
 SRVC.              KCA Deutag:  CONTRACTOR
 MWDS.                    Baku:  MWD SHOP
 WELL.     A10 (Slot 20) - SCP:  WELL NAME
 JOBN.        AZ-XX-0906192647:  JOB TICKET NUMB
 RIG .                 Chirag1:  RIG NAME
 DCON.     Halliburton Sperry Drilling:  DIRECTNL CONTR
 UNIT.                     N/A:  LOGGING EQUIPMENT ID
 PDAT.          Mean Sea Level:  PERMANENT DATUM
 MDS .        Operator Entered:  MAG DATA SOURCE
 CTRY.              Azerbaijan:  COUNTRY NAME
 UWI .            /AZE00000090:  UNIQUE WELL IDENTIFIER
 API .            /AZE00000090:  API NUMBER
 CNTY.                        :  COUNTY
 PROV.                        :  PROVINCE
 STAT.                        :  STATE
 LOC .                        :  LOCATION
 LMF .             Drill Floor:  LOG MEASURED FROM
 TVDS.m                  36.60:  TVDSS CORRECTN
 LATI.deg                40.08:  LATITUDE
 LONG.deg                51.24:  LONGITUDE
 WHNS.m                  -7.94:  WELL HEAD N/S
 WHEW.m                   1.56:  WELL HEAD E/W
 UTMX.m              520429.26:  UTM X
 UTMY.m             4438973.87:  UTM Y
 DFWL.m                   0.00:  DISTANCE FWL
 DFSL.m                   0.00:  DISTANCE FSL
 SDEP.m                1455.00:  START DEPTH
 TDD .m                4047.51:  TOTAL DEPTH (DRILLER)
 VSDR.deg               112.75:  VERT SEC DIRECT
 GVFD.g                   1.00:  GRAVITY FIELD
 MFLD.nT              50261.00:  MAGNETIC FIELD
 MDIP.deg                59.52:  MAGNETIC DIP
 MDEC.deg                 6.42:  MAGNETIC DECL
 GRDC.deg                 0.17:  GRID CORRECTION
 AZTC.deg                 6.25:  AZM TOTAL CORR
 EPD .m                   0.00:  ELEVATION
 EGL .m                   0.00:  GROUND ELEVATION
 WDMS.m                 121.00:  WD ELEV
 APD .m                  36.60:  DEPTH ABOVE PD
 AGAP.m                  36.60:  AIR GAP
 VSEW.m                   1.56:  VERT SEC E/W
 VSNS.m                  -7.94:  VERT SEC N/S
 DEP .m                1140.01:  DEPTH
 EKB .m                  36.60:  KB ELEVATION
 EDF .m                  36.60:  DF ELEVATION
 TDL .m                 169.50:  TOTAL DEPTH (LOGGER)
 CSGD.m                3875.01:  CASING BOTTOM (DRILLER)
 CSGL.m                3875.01:  CASING BOTTOM (LOGGER)
 CSGS.in                  7.63:  CASING SIZE
 CSGW.lbpf               23.50:  CASING WEIGHT
 VSC .                       0:  VS TO CLOSURE
 MAGU.                 1849206:  MAGUTM CHECKSUM
~Parameter Information Block
#MNEM.UNIT       Value        Description
#---------     -----------    ---------------------------
 AV  .mps                 1.90:  Ann Velocity 
 AVMX.mps                 2.54:  Max Ann Veloc 
 AZIF.deg               137.03:  Azm, Final 
 BHAT.        Rotary Steerable:  BHA Type 
 BREV.rev             23610.00:  Rev Bit Total 
 BROT.°/30m               0.80:  Build Rotating 
 BS  .in                  6.50:  Bit Size 
 BTPL.psig              110.00:  Bit Press Loss 
 CABU.                     Yes:  Customer Abuse 
 COMM.                     šn:  Run Comments 1 
 TCS .hr                 70.51:  Time Ciculation Ended 
 CV  .mps                 1.41:  Crit Velocity 
 CVMX.mps                 1.42:  Max Crit Veloc 
 DD1 .         Intigam Rahimov:  Direct Drillr 1 
 DD2 .          Rashad Gojayev:  Direct Drillr 2 
 DDSV.               Geo-Pilot:  DD Service 
 DEFF.%                 100.00:  % Det Eff 
 DLRX.°/30m               1.44:  Dogleg Rot Max 
 DLSO.°/30m               0.00:  Dogleg Oriented 
 DLSX.°/30m               0.00:  Dogleg Str Max 
 DRET.      03.05.00 01-Feb-20:  Drill End Time 
 DRST.      15.50.00 28-Jan-20:  Drill Start Tim 
 DTIM.hr                 24.70:  Time Drilling 
 EDEP.m                4047.51:  End Depth 
 ENG1.           Eldar Hajiyev:  Engineer 1 
 ENG2.          Rasim Hashimov:  Engineer 2 
 ENG3.          Rustam Safarov:  Engineer 3 
 ETIM.      22.00.00 01-Feb-20:  End Time 
 FLOI.gpm               370.00:  Flow In 
 FLON.gpm               300.00:  Flow In Min 
 FLOS.cptm                0.00:  Fluid Loss 
 FLOX.gpm               400.00:  Flow In Max 
 FTRO.       Formation Presure:  FTWD Run Obj 
 HFLO.                      No:  High Flow 
 HPRE.                      No:  High Pressure 
 HTEM.                      No:  High Temp 
 HYDO.m                   2.50:  Hydro Offset 
 IFIN.deg                39.54:  Inc, Final 
 IMAX.deg                41.14:  Inc Max 
 IMIN.deg                39.81:  Inc Min 
 IMND.m                4005.21:  Inc Min Depth 
 IMXD.m                3948.42:  Inc Max Depth 
 JARR.                      No:  Jarring 
 LETM.      03.05.00 01-Feb-20:  Log End Time 
 LOST.hr                     0:  Lost Rig Time 
 LSTM.      15.50.00 28-Jan-20:  Log Start Time 
 MDCL.ppm             37500.00:  Mud Chlorides 
 MDES.     Inversion Oil/Synthetic:  Mud Desc 
 DFD .sg                  1.32:  Mud Density 
 MDMN.sg                  1.32:  Dens Mud Min 
 MDMX.sg                  1.32:  Dens Mud Max 
 MOIL.                      55:  Run Mud Oil % 
 MOWR.                   70:30:  Run Mud OWR 
 MSND.                       0:  Run Mud Sand % 
 MSOL.                      17:  Run Mud Solids% 
 DFV .spqt               80.00:  Mud Viscosity 
 MWOD.in                  4.75:  MWD Tool OD 
 MWSI.                      No:  Serv Intrp, MWD 
 OTIM.hr                121.28:  Time Operating 
 PCON.           Look Like New:  Pad Condition 
 PMAX.psia             6171.00:  Press Op, Max 
 PV  .cP                 30.00:  Mud PV 
 RUN .                     300:  Run Number 
 ROPA.m/hr                5.45:  ROP Avg 
 ROPN.m/hr                3.00:  ROP Min 
 ROPX.m/hr               15.00:  ROP Max 
 RPMA.rpm               130.00:  RPM Surface Avg 
 RPMN.rpm                80.00:  RPM Surface Min 
 RPMX.rpm               140.00:  RPM Surface Max 
 RRUN.                     300:  Rig Run Number 
 RTIM.hr                 13.50:  Time Reaming 
 SAZI.deg               133.93:  Azm, Start 
 SDEP.m                3878.01:  Start Depth 
 SIDD.                      No:  Serv Intrp, DD 
 SINC.deg                40.28:  Inc, Start 
 SPPA.psig             4983.00:  SPP Avg 
 SPPN.psig             4370.00:  SPP Min 
 SPPX.psig             5300.00:  SPP Max 
 STIM.      18.33.36 27-Jan-20:  Start Time 
 SVCS.                 DD, MWD:  Services 
 SVER.                    9.20:  Sperry Version 
 TDAT.m                 169.50:  Tot Depth Attmp 
 TDDF.                      No:  Trip for DD 
 TDLG.m                 169.50:  Tot Depth Loggd 
 TFF .                      No:  Trip for Fail 
 TQAA.f-kp               13.25:  Torque Abs Avg 
 TQAN.f-kp               12.00:  Torque Abs Min 
 TQAX.f-kp               14.00:  Torque Abs Max 
 TRRT.°/30m               0.70:  Turn Rotating 
 MRT .                     ADR:  Maximum Recorded Temperature 
 TTMX.degC               92.16:  Max Tool Temp 
 VS01.       AZ90598764G12V7D4:  Virtual Str1 SN 
 VS02.         AZ90571342R12C4:  Virtual Str2 SN 
 VS03.      AZ90580010N2L2X1C4:  Virtual Str3 SN 
 VS04.        AZ90522266O7X1C4:  Virtual Str4 SN 
 VS05.           AZ90598768F11:  Virtual Str5 SN 
 VS06.     AZ90580006XZ1W1X1C4:  Virtual Str6 SN 
 WBMN.klb                 8.00:  WOB Min 
 WITN.            Peter Wilson:  Customer Rep 
 WOBA.klb                 9.88:  WOB Avg 
 WOBX.klb                10.00:  WOB Max 
 YP  .lhf2               27.00:  Yield Point 
~Curve Information Block
#MNEM.UNIT                 API CODE     Curve Description
#---------               -----------    ---------------------------
 TIME.HHMMSS            00 000 000 000:  GT Time & Date
 GTDEPTH.m              00 000 000 000:  GT Depth
 GTPQH.psia             00 000 000 000:  GT HR Quartz Pressure
 GTTQ.degC              00 000 000 000:  GT Quartz Temperature
 GTTN.NONE              00 000 000 000:  GT Test Number
 GTET.sec               00 000 000 000:  GT Elapsed Test Time
 GTTVD.m                00 000 000 000:  GT True Vertical Depth
#Other Information
#
#WARRANTY: Halliburton will use its best efforts to furnish customers with 
#accurate information and interpretations that are part of, and incident to, the services 
#provided.  However, Halliburton cannot and does not warrant the accuracy 
#or correctness of such information and interpretations.  Under no circumstances should any 
#such information or interpretation be relied upon as the sole basis for any drilling, 
#completion, production, or financial decision or any procedure involving any risk to the 
#safety of any drilling venture, drilling rig or its crew or any other third party.  The 
#Customer has full responsibility for all drilling, completion and production operation.  
#Halliburton makes no representations or warranties, either expressed or 
#implied, including, but not limited to, the implied warranties of merchantability or fitness 
#for a particular purpose, with respect to the services rendered.  In no event will 
#Halliburton be liable for failure to obtain any particular results or for 
#any damages, including, but not limited to, indirect, special or consequential damages, 
#resulting from the use of any information or interpretation provided by Halliburton.
#
~A           TIME           GTDEPTH  GTPQH  GTTQ  GTTN  GTET   GTTVD  
# ...
   01:41:18.068.31-Jan-2020 3902.01 6644.04 76.79 3.00  23.00 2938.77
   01:41:18.268.31-Jan-2020 3902.01 6644.04 76.79 3.00  23.20 2938.77
   01:41:18.468.31-Jan-2020 3902.01 6652.46 76.79 3.00  23.40 2938.77
   01:41:18.668.31-Jan-2020 3902.01 6656.31 76.79 3.00  23.60 2938.77
   01:41:18.868.31-Jan-2020 3902.01 6658.92 76.79 3.00  23.80 2938.77
   01:41:19.068.31-Jan-2020 3902.01 6661.89 76.78 3.00  24.00 2938.77
   01:41:19.268.31-Jan-2020 3902.01 6661.89 76.78 3.00  24.20 2938.77
   01:41:19.468.31-Jan-2020 3902.01 6664.53 76.78 3.00  24.40 2938.77
   01:41:19.668.31-Jan-2020 3902.01 6668.95 76.78 3.00  24.60 2938.77
   01:41:19.868.31-Jan-2020 3902.01 6670.92 76.78 3.00  24.80 2938.77
   01:41:20.068.31-Jan-2020 3902.01 6672.99 76.78 3.00  25.00 2938.77
   01:41:20.268.31-Jan-2020 3902.01 6672.99 76.78 3.00  25.20 2938.77
   01:41:20.468.31-Jan-2020 3902.01 6433.53 76.78 3.00  25.40 2938.77
   01:41:20.668.31-Jan-2020 3902.01 5508.21 76.78 3.00  25.60 2938.77
   01:41:20.868.31-Jan-2020 3902.01 4757.15 76.78 3.00  25.80 2938.77
   01:41:21.068.31-Jan-2020 3902.01 3788.58 76.78 3.00  26.00 2938.77
   01:41:21.268.31-Jan-2020 3902.01 3788.58 76.78 3.00  26.20 2938.77
   01:41:21.468.31-Jan-2020 3902.01 2286.06 76.77 3.00  26.40 2938.77
   01:41:21.668.31-Jan-2020 3902.01 1940.36 76.77 3.00  26.60 2938.77
   01:41:21.868.31-Jan-2020 3902.01 1787.87 76.77 3.00  26.80 2938.77
   01:41:22.068.31-Jan-2020 3902.01 1706.50 76.77 3.00  27.00 2938.77
   01:41:22.268.31-Jan-2020 3902.01 1706.50 76.77 3.00  27.20 2938.77
   01:41:22.468.31-Jan-2020 3902.01 1622.44 76.77 3.00  27.40 2938.77
   01:41:22.668.31-Jan-2020 3902.01 1608.44 76.77 3.00  27.61 2938.77
   01:41:22.868.31-Jan-2020 3902.01 1595.06 76.77 3.00  27.81 2938.77
   01:41:23.068.31-Jan-2020 3902.01 1589.35 76.77 3.00  28.01 2938.77
   01:41:23.268.31-Jan-2020 3902.01 1589.35 76.77 3.00  28.21 2938.77
   01:41:23.469.31-Jan-2020 3902.01 1582.55 76.76 3.00  28.41 2938.77
   01:41:23.669.31-Jan-2020 3902.01 1591.48 76.76 3.00  28.61 2938.77
   01:41:23.869.31-Jan-2020 3902.01 1611.80 76.76 3.00  28.81 2938.77
   01:41:24.069.31-Jan-2020 3902.01 1624.04 76.76 3.00  29.01 2938.77
   01:41:24.269.31-Jan-2020 3902.01 1624.04 76.76 3.00  29.21 2938.77
   01:41:24.469.31-Jan-2020 3902.01 1615.97 76.75 3.00  29.41 2938.77
   01:41:24.669.31-Jan-2020 3902.01 1607.95 76.75 3.00  29.61 2938.77
   01:41:24.869.31-Jan-2020 3902.01 1598.93 76.75 3.00  29.81 2938.77
   01:41:25.069.31-Jan-2020 3902.01 1589.77 76.75 3.00  30.01 2938.77
   01:41:25.269.31-Jan-2020 3902.01 1589.77 76.75 3.00  30.21 2938.77
   01:41:25.469.31-Jan-2020 3902.01 1578.64 76.74 3.00  30.41 2938.77
   01:41:25.669.31-Jan-2020 3902.01 1575.32 76.74 3.00  30.61 2938.77
   01:41:25.869.31-Jan-2020 3902.01 1574.28 76.74 3.00  30.81 2938.77
   01:41:26.069.31-Jan-2020 3902.01 1573.07 76.74 3.00  31.01 2938.77
   01:41:26.269.31-Jan-2020 3902.01 1573.07 76.74 3.00  31.21 2938.77
   01:41:26.469.31-Jan-2020 3902.01 1567.08 76.73 3.00  31.41 2938.77
   01:41:26.669.31-Jan-2020 3902.01 1562.33 76.73 3.00  31.61 2938.77
   01:41:26.869.31-Jan-2020 3902.01 1555.94 76.73 3.00  31.81 2938.77
   01:41:27.069.31-Jan-2020 3902.01 1556.62 76.73 3.00  32.01 2938.77
   01:41:27.269.31-Jan-2020 3902.01 1556.62 76.73 3.00  32.21 2938.77
   01:41:27.469.31-Jan-2020 3902.01 1554.81 76.73 3.00  32.41 2938.77
   01:41:27.669.31-Jan-2020 3902.01 1546.81 76.72 3.00  32.61 2938.77
   01:41:27.869.31-Jan-2020 3902.01 1539.87 76.72 3.00  32.81 2938.77
   01:41:28.069.31-Jan-2020 3902.01 1546.31 76.72 3.00  33.01 2938.77
   01:41:28.269.31-Jan-2020 3902.01 1546.31 76.72 3.00  33.21 2938.77
   01:41:28.469.31-Jan-2020 3902.01 1547.84 76.71 3.00  33.41 2938.77
   01:41:28.669.31-Jan-2020 3902.01 1548.28 76.71 3.00  33.61 2938.77
   01:41:28.870.31-Jan-2020 3902.01 1548.88 76.71 3.00  33.81 2938.77
   01:41:29.070.31-Jan-2020 3902.01 1557.20 76.71 3.00  34.01 2938.77
   01:41:29.270.31-Jan-2020 3902.01 1557.20 76.71 3.00  34.21 2938.77
   01:41:29.470.31-Jan-2020 3902.01 1593.60 76.71 3.00  34.41 2938.77
   01:41:29.670.31-Jan-2020 3902.01 1606.52 76.70 3.00  34.61 2938.77
   01:41:29.870.31-Jan-2020 3902.01 1611.94 76.70 3.00  34.81 2938.77
   01:41:30.070.31-Jan-2020 3902.01 1614.19 76.70 3.00  35.01 2938.77
   01:41:30.270.31-Jan-2020 3902.01 1614.19 76.70 3.00  35.21 2938.77
   01:41:30.470.31-Jan-2020 3902.01 1610.63 76.70 3.00  35.41 2938.77
   01:41:30.670.31-Jan-2020 3902.01 1880.46 76.69 3.00  35.61 2938.77
   01:41:30.870.31-Jan-2020 3902.01 2316.94 76.69 3.00  35.81 2938.77
   01:41:31.070.31-Jan-2020 3902.01 2590.83 76.69 3.00  36.01 2938.77
   01:41:31.270.31-Jan-2020 3902.01 2590.83 76.69 3.00  36.21 2938.77
   01:41:31.470.31-Jan-2020 3902.01 2852.19 76.69 3.00  36.41 2938.77
   01:41:31.670.31-Jan-2020 3902.01 2905.62 76.69 3.00  36.61 2938.77
   01:41:31.870.31-Jan-2020 3902.01 2936.54 76.69 3.00  36.81 2938.77
   01:41:32.070.31-Jan-2020 3902.01 2953.99 76.68 3.00  37.01 2938.77
   01:41:32.270.31-Jan-2020 3902.01 2953.99 76.68 3.00  37.21 2938.77
   01:41:32.470.31-Jan-2020 3902.01 2970.67 76.68 3.00  37.41 2938.77
   01:41:32.670.31-Jan-2020 3902.01 2973.49 76.68 3.00  37.61 2938.77
   01:41:32.870.31-Jan-2020 3902.01 2976.39 76.68 3.00  37.81 2938.77
   01:41:33.070.31-Jan-2020 3902.01 2978.27 76.68 3.00  38.01 2938.77
   01:41:33.270.31-Jan-2020 3902.01 2978.27 76.68 3.00  38.21 2938.77
   01:41:33.470.31-Jan-2020 3902.01 2980.33 76.67 3.00  38.41 2938.77
   01:41:33.670.31-Jan-2020 3902.01 2980.86 76.67 3.00  38.61 2938.77
   01:41:33.870.31-Jan-2020 3902.01 2981.37 76.67 3.00  38.81 2938.77
   01:41:34.070.31-Jan-2020 3902.01 2981.75 76.67 3.00  39.01 2938.77
   01:41:34.270.31-Jan-2020 3902.01 2981.75 76.67 3.00  39.21 2938.77
   01:41:34.471.31-Jan-2020 3902.01 2982.21 76.67 3.00  39.41 2938.77
   01:41:34.671.31-Jan-2020 3902.01 2982.48 76.67 3.00  39.61 2938.77
   01:41:34.871.31-Jan-2020 3902.01 2982.66 76.67 3.00  39.81 2938.77
   01:41:35.071.31-Jan-2020 3902.01 2982.73 76.67 3.00  40.01 2938.77
   01:41:35.271.31-Jan-2020 3902.01 2982.73 76.67 3.00  40.21 2938.77
   01:41:35.471.31-Jan-2020 3902.01 2982.91 76.66 3.00  40.41 2938.77
   01:41:35.671.31-Jan-2020 3902.01 2983.21 76.66 3.00  40.61 2938.77
   01:41:35.871.31-Jan-2020 3902.01 2983.21 76.66 3.00  40.81 2938.77
   01:41:36.071.31-Jan-2020 3902.01 2983.11 76.66 3.00  41.01 2938.77
   01:41:36.271.31-Jan-2020 3902.01 2983.11 76.66 3.00  41.21 2938.77
   01:41:36.471.31-Jan-2020 3902.01 2983.53 76.66 3.00  41.41 2938.77
   01:41:36.671.31-Jan-2020 3902.01 2983.57 76.66 3.00  41.61 2938.77
   01:41:36.871.31-Jan-2020 3902.01 2983.67 76.66 3.00  41.81 2938.77
   01:41:37.071.31-Jan-2020 3902.01 2983.72 76.66 3.00  42.01 2938.77
   01:41:37.271.31-Jan-2020 3902.01 2983.72 76.66 3.00  42.21 2938.77
   01:41:37.471.31-Jan-2020 3902.01 2983.82 76.66 3.00  42.41 2938.77
   01:41:37.671.31-Jan-2020 3902.01 2983.96 76.65 3.00  42.61 2938.77
   01:41:37.871.31-Jan-2020 3902.01 2983.97 76.65 3.00  42.81 2938.77
   01:41:38.071.31-Jan-2020 3902.01 2984.09 76.65 3.00  43.01 2938.77
   01:41:38.271.31-Jan-2020 3902.01 2984.09 76.65 3.00  43.21 2938.77
   01:41:38.471.31-Jan-2020 3902.01 2984.05 76.65 3.00  43.41 2938.77
   01:41:38.671.31-Jan-2020 3902.01 2983.91 76.65 3.00  43.61 2938.77
   01:41:38.871.31-Jan-2020 3902.01 2984.24 76.65 3.00  43.81 2938.77
   01:41:39.071.31-Jan-2020 3902.01 2984.28 76.65 3.00  44.01 2938.77
   01:41:39.271.31-Jan-2020 3902.01 2984.28 76.65 3.00  44.21 2938.77
   01:41:39.471.31-Jan-2020 3902.01 2984.29 76.65 3.00  44.41 2938.77
   01:41:39.671.31-Jan-2020 3902.01 2984.21 76.65 3.00  44.61 2938.77
   01:41:39.872.31-Jan-2020 3902.01 2984.08 76.65 3.00  44.81 2938.77
   01:41:40.072.31-Jan-2020 3902.01 2984.40 76.65 3.00  45.01 2938.77
   01:41:40.272.31-Jan-2020 3902.01 2984.40 76.65 3.00  45.21 2938.77
   01:41:40.472.31-Jan-2020 3902.01 2984.79 76.64 3.00  45.41 2938.77
   01:41:40.672.31-Jan-2020 3902.01 2984.20 76.64 3.00  45.61 2938.77
   01:41:40.872.31-Jan-2020 3902.01 2984.64 76.64 3.00  45.81 2938.77
