~Version Information
 VERS.                  2.0:   CWLS log ASCII Standard -VERSION 2.0
 WRAP.                   NO:   One line per depth step
~Well Information Block
#MNEM.UNIT     VALUE/NAME     DESCRIPTION
#---------     -----------    ---------------------------
 STRT.S             12:23:22 31-Jan-20: START TIME 12:23:22 31-Jan-20
 STOP.S             12:29:53 31-Jan-20: STOP TIME  12:29:53 31-Jan-20
 STEP.S                   0.00: STEP TIME
 NULL.                 -999.25: NULL VALUE
 DFWT.                        :  DIST FWL TEXT
 DFST.                        :  DIST FSL TEXT
 DMF .             Drill Floor:  DRILL MEAS FROM
 STIM.      09.30.00 26-Dec-19:  START TIME
 DATE.      08.00.00 20-Jan-20:  END TIME
 SPUD.               23-Nov-19:  SPUD DATE
 NREF.                    Grid:  NORTH REFERENCE
 HPTY.       Minimum Curvature:  HOLE POS TYPE
 DMOD.             Drill Model:  DRILL MOD DESC
 SVYD.                  Survey:  SURVEY DESC
 ILTD.               Lithology:  INTERP LTH DESC
 FTOP.          Formation Tops:  FORM TOPS DESC
 SON .        AZ-XX-0906192647:  JOB NUMBER
 WTYP.                Deviated:  WELL TYPE
 COMP.     BP Exploration (Caspian Sea) Ltd:  COMPANY
 BASE.              Azerbaijan:  LOGGING EQUIPMENT BASE LOCATION
 REGN.                 Eurasia:  REGION
 FLD .                     ACG:  FIELD NAME
 SRVC.              KCA Deutag:  CONTRACTOR
 MWDS.                    Baku:  MWD SHOP
 WELL.     A10 (Slot 20) - SCP:  WELL NAME
 JOBN.        AZ-XX-0906192647:  JOB TICKET NUMB
 RIG .                 Chirag1:  RIG NAME
 DCON.     Halliburton Sperry Drilling:  DIRECTNL CONTR
 UNIT.                     N/A:  LOGGING EQUIPMENT ID
 PDAT.          Mean Sea Level:  PERMANENT DATUM
 MDS .        Operator Entered:  MAG DATA SOURCE
 CTRY.              Azerbaijan:  COUNTRY NAME
 UWI .            /AZE00000090:  UNIQUE WELL IDENTIFIER
 API .            /AZE00000090:  API NUMBER
 CNTY.                        :  COUNTY
 PROV.                        :  PROVINCE
 STAT.                        :  STATE
 LOC .                        :  LOCATION
 LMF .             Drill Floor:  LOG MEASURED FROM
 TVDS.m                  36.60:  TVDSS CORRECTN
 LATI.deg                40.08:  LATITUDE
 LONG.deg                51.24:  LONGITUDE
 WHNS.m                  -7.94:  WELL HEAD N/S
 WHEW.m                   1.56:  WELL HEAD E/W
 UTMX.m              520429.26:  UTM X
 UTMY.m             4438973.87:  UTM Y
 DFWL.m                   0.00:  DISTANCE FWL
 DFSL.m                   0.00:  DISTANCE FSL
 SDEP.m                1455.00:  START DEPTH
 TDD .m                4047.51:  TOTAL DEPTH (DRILLER)
 VSDR.deg               112.75:  VERT SEC DIRECT
 GVFD.g                   1.00:  GRAVITY FIELD
 MFLD.nT              50261.00:  MAGNETIC FIELD
 MDIP.deg                59.52:  MAGNETIC DIP
 MDEC.deg                 6.42:  MAGNETIC DECL
 GRDC.deg                 0.17:  GRID CORRECTION
 AZTC.deg                 6.25:  AZM TOTAL CORR
 EPD .m                   0.00:  ELEVATION
 EGL .m                   0.00:  GROUND ELEVATION
 WDMS.m                 121.00:  WD ELEV
 APD .m                  36.60:  DEPTH ABOVE PD
 AGAP.m                  36.60:  AIR GAP
 VSEW.m                   1.56:  VERT SEC E/W
 VSNS.m                  -7.94:  VERT SEC N/S
 DEP .m                1140.01:  DEPTH
 EKB .m                  36.60:  KB ELEVATION
 EDF .m                  36.60:  DF ELEVATION
 TDL .m                 169.50:  TOTAL DEPTH (LOGGER)
 CSGD.m                3875.01:  CASING BOTTOM (DRILLER)
 CSGL.m                3875.01:  CASING BOTTOM (LOGGER)
 CSGS.in                  7.63:  CASING SIZE
 CSGW.lbpf               23.50:  CASING WEIGHT
 VSC .                       0:  VS TO CLOSURE
 MAGU.                 1849206:  MAGUTM CHECKSUM
~Parameter Information Block
#MNEM.UNIT       Value        Description
#---------     -----------    ---------------------------
 AV  .mps                 1.90:  Ann Velocity 
 AVMX.mps                 2.54:  Max Ann Veloc 
 AZIF.deg               137.03:  Azm, Final 
 BHAT.        Rotary Steerable:  BHA Type 
 BREV.rev             23610.00:  Rev Bit Total 
 BROT.°/30m               0.80:  Build Rotating 
 BS  .in                  6.50:  Bit Size 
 BTPL.psig              110.00:  Bit Press Loss 
 CABU.                     Yes:  Customer Abuse 
 COMM.                     Ô W:  Run Comments 1 
 TCS .hr                 70.51:  Time Ciculation Ended 
 CV  .mps                 1.41:  Crit Velocity 
 CVMX.mps                 1.42:  Max Crit Veloc 
 DD1 .         Intigam Rahimov:  Direct Drillr 1 
 DD2 .          Rashad Gojayev:  Direct Drillr 2 
 DDSV.               Geo-Pilot:  DD Service 
 DEFF.%                 100.00:  % Det Eff 
 DLRX.°/30m               1.44:  Dogleg Rot Max 
 DLSO.°/30m               0.00:  Dogleg Oriented 
 DLSX.°/30m               0.00:  Dogleg Str Max 
 DRET.      03.05.00 01-Feb-20:  Drill End Time 
 DRST.      15.50.00 28-Jan-20:  Drill Start Tim 
 DTIM.hr                 24.70:  Time Drilling 
 EDEP.m                4047.51:  End Depth 
 ENG1.           Eldar Hajiyev:  Engineer 1 
 ENG2.          Rasim Hashimov:  Engineer 2 
 ENG3.          Rustam Safarov:  Engineer 3 
 ETIM.      22.00.00 01-Feb-20:  End Time 
 FLOI.gpm               370.00:  Flow In 
 FLON.gpm               300.00:  Flow In Min 
 FLOS.cptm                0.00:  Fluid Loss 
 FLOX.gpm               400.00:  Flow In Max 
 FTRO.       Formation Presure:  FTWD Run Obj 
 HFLO.                      No:  High Flow 
 HPRE.                      No:  High Pressure 
 HTEM.                      No:  High Temp 
 HYDO.m                   2.50:  Hydro Offset 
 IFIN.deg                39.54:  Inc, Final 
 IMAX.deg                41.14:  Inc Max 
 IMIN.deg                39.81:  Inc Min 
 IMND.m                4005.21:  Inc Min Depth 
 IMXD.m                3948.42:  Inc Max Depth 
 JARR.                      No:  Jarring 
 LETM.      03.05.00 01-Feb-20:  Log End Time 
 LOST.hr                     0:  Lost Rig Time 
 LSTM.      15.50.00 28-Jan-20:  Log Start Time 
 MDCL.ppm             37500.00:  Mud Chlorides 
 MDES.     Inversion Oil/Synthetic:  Mud Desc 
 DFD .sg                  1.32:  Mud Density 
 MDMN.sg                  1.32:  Dens Mud Min 
 MDMX.sg                  1.32:  Dens Mud Max 
 MOIL.                      55:  Run Mud Oil % 
 MOWR.                   70:30:  Run Mud OWR 
 MSND.                       0:  Run Mud Sand % 
 MSOL.                      17:  Run Mud Solids% 
 DFV .spqt               80.00:  Mud Viscosity 
 MWOD.in                  4.75:  MWD Tool OD 
 MWSI.                      No:  Serv Intrp, MWD 
 OTIM.hr                121.28:  Time Operating 
 PCON.           Look Like New:  Pad Condition 
 PMAX.psia             6171.00:  Press Op, Max 
 PV  .cP                 30.00:  Mud PV 
 RUN .                     300:  Run Number 
 ROPA.m/hr                5.45:  ROP Avg 
 ROPN.m/hr                3.00:  ROP Min 
 ROPX.m/hr               15.00:  ROP Max 
 RPMA.rpm               130.00:  RPM Surface Avg 
 RPMN.rpm                80.00:  RPM Surface Min 
 RPMX.rpm               140.00:  RPM Surface Max 
 RRUN.                     300:  Rig Run Number 
 RTIM.hr                 13.50:  Time Reaming 
 SAZI.deg               133.93:  Azm, Start 
 SDEP.m                3878.01:  Start Depth 
 SIDD.                      No:  Serv Intrp, DD 
 SINC.deg                40.28:  Inc, Start 
 SPPA.psig             4983.00:  SPP Avg 
 SPPN.psig             4370.00:  SPP Min 
 SPPX.psig             5300.00:  SPP Max 
 STIM.      18.33.36 27-Jan-20:  Start Time 
 SVCS.                 DD, MWD:  Services 
 SVER.                    9.20:  Sperry Version 
 TDAT.m                 169.50:  Tot Depth Attmp 
 TDDF.                      No:  Trip for DD 
 TDLG.m                 169.50:  Tot Depth Loggd 
 TFF .                      No:  Trip for Fail 
 TQAA.f-kp               13.25:  Torque Abs Avg 
 TQAN.f-kp               12.00:  Torque Abs Min 
 TQAX.f-kp               14.00:  Torque Abs Max 
 TRRT.°/30m               0.70:  Turn Rotating 
 MRT .                     ADR:  Maximum Recorded Temperature 
 TTMX.degC               92.16:  Max Tool Temp 
 VS01.       AZ90598764G12V7D4:  Virtual Str1 SN 
 VS02.         AZ90571342R12C4:  Virtual Str2 SN 
 VS03.      AZ90580010N2L2X1C4:  Virtual Str3 SN 
 VS04.        AZ90522266O7X1C4:  Virtual Str4 SN 
 VS05.           AZ90598768F11:  Virtual Str5 SN 
 VS06.     AZ90580006XZ1W1X1C4:  Virtual Str6 SN 
 WBMN.klb                 8.00:  WOB Min 
 WITN.            Peter Wilson:  Customer Rep 
 WOBA.klb                 9.88:  WOB Avg 
 WOBX.klb                10.00:  WOB Max 
 YP  .lhf2               27.00:  Yield Point 
~Curve Information Block
#MNEM.UNIT                 API CODE     Curve Description
#---------               -----------    ---------------------------
 TIME.HHMMSS            00 000 000 000:  GT Time & Date
 GTDEPTH.m              00 000 000 000:  GT Depth
 GTPQH.psia             00 000 000 000:  GT HR Quartz Pressure
 GTTQ.degC              00 000 000 000:  GT Quartz Temperature
 GTTN.NONE              00 000 000 000:  GT Test Number
 GTET.sec               00 000 000 000:  GT Elapsed Test Time
 GTTVD.m                00 000 000 000:  GT True Vertical Depth
#Other Information
#
#WARRANTY: Halliburton will use its best efforts to furnish customers with 
#accurate information and interpretations that are part of, and incident to, the services 
#provided.  However, Halliburton cannot and does not warrant the accuracy 
#or correctness of such information and interpretations.  Under no circumstances should any 
#such information or interpretation be relied upon as the sole basis for any drilling, 
#completion, production, or financial decision or any procedure involving any risk to the 
#safety of any drilling venture, drilling rig or its crew or any other third party.  The 
#Customer has full responsibility for all drilling, completion and production operation.  
#Halliburton makes no representations or warranties, either expressed or 
#implied, including, but not limited to, the implied warranties of merchantability or fitness 
#for a particular purpose, with respect to the services rendered.  In no event will 
#Halliburton be liable for failure to obtain any particular results or for 
#any damages, including, but not limited to, indirect, special or consequential damages, 
#resulting from the use of any information or interpretation provided by Halliburton.
#
~A           TIME           GTDEPTH  GTPQH  GTTQ  GTTN  GTET   GTTVD  
# ...
   12:29:30.650.31-Jan-2020 3939.51 6022.97 82.76 6.00 368.09 2967.06
   12:29:30.850.31-Jan-2020 3939.51 6022.97 82.76 6.00 368.29 2967.06
   12:29:31.050.31-Jan-2020 3939.51 6018.77 82.76 6.00 368.49 2967.06
   12:29:31.250.31-Jan-2020 3939.51 6017.62 82.76 6.00 368.69 2967.06
   12:29:31.450.31-Jan-2020 3939.51 6020.55 82.76 6.00 368.89 2967.06
   12:29:31.650.31-Jan-2020 3939.51 6021.65 82.76 6.00 369.09 2967.06
   12:29:31.850.31-Jan-2020 3939.51 6021.65 82.76 6.00 369.29 2967.06
   12:29:32.050.31-Jan-2020 3939.51 6024.41 82.76 6.00 369.49 2967.06
   12:29:32.250.31-Jan-2020 3939.51 6024.34 82.75 6.00 369.69 2967.06
   12:29:32.450.31-Jan-2020 3939.51 6023.68 82.75 6.00 369.89 2967.06
   12:29:32.650.31-Jan-2020 3939.51 6023.47 82.75 6.00 370.09 2967.06
   12:29:32.850.31-Jan-2020 3939.51 6023.47 82.75 6.00 370.29 2967.06
   12:29:33.050.31-Jan-2020 3939.51 6023.10 82.75 6.00 370.49 2967.06
   12:29:33.250.31-Jan-2020 3939.51 6023.96 82.75 6.00 370.69 2967.06
   12:29:33.450.31-Jan-2020 3939.51 6024.13 82.75 6.00 370.89 2967.06
   12:29:33.650.31-Jan-2020 3939.51 6023.67 82.75 6.00 371.09 2967.06
   12:29:33.850.31-Jan-2020 3939.51 6023.67 82.75 6.00 371.29 2967.06
   12:29:34.050.31-Jan-2020 3939.51 6024.96 82.75 6.00 371.49 2967.06
   12:29:34.250.31-Jan-2020 3939.51 6024.58 82.75 6.00 371.69 2967.06
   12:29:34.450.31-Jan-2020 3939.51 6023.34 82.75 6.00 371.89 2967.06
   12:29:34.650.31-Jan-2020 3939.51 6016.63 82.75 6.00 372.09 2967.06
   12:29:34.851.31-Jan-2020 3939.51 6016.63 82.75 6.00 372.29 2967.06
   12:29:35.051.31-Jan-2020 3939.51 6021.98 82.75 6.00 372.49 2967.06
   12:29:35.251.31-Jan-2020 3939.51 6022.21 82.75 6.00 372.69 2967.06
   12:29:35.451.31-Jan-2020 3939.51 6022.42 82.75 6.00 372.89 2967.06
   12:29:35.651.31-Jan-2020 3939.51 6016.21 82.75 6.00 373.09 2967.06
   12:29:35.851.31-Jan-2020 3939.51 6016.21 82.75 6.00 373.29 2967.06
   12:29:36.051.31-Jan-2020 3939.51 6021.80 82.75 6.00 373.49 2967.06
   12:29:36.251.31-Jan-2020 3939.51 6022.24 82.75 6.00 373.69 2967.06
   12:29:36.451.31-Jan-2020 3939.51 6021.79 82.75 6.00 373.89 2967.06
   12:29:36.651.31-Jan-2020 3939.51 6021.70 82.75 6.00 374.09 2967.06
   12:29:36.851.31-Jan-2020 3939.51 6021.70 82.75 6.00 374.29 2967.06
   12:29:37.051.31-Jan-2020 3939.51 6013.24 82.75 6.00 374.49 2967.06
   12:29:37.251.31-Jan-2020 3939.51 6017.86 82.75 6.00 374.69 2967.06
   12:29:37.451.31-Jan-2020 3939.51 6020.08 82.75 6.00 374.89 2967.06
   12:29:37.651.31-Jan-2020 3939.51 6022.67 82.75 6.00 375.09 2967.06
   12:29:37.851.31-Jan-2020 3939.51 6022.67 82.75 6.00 375.29 2967.06
   12:29:38.051.31-Jan-2020 3939.51 6019.91 82.75 6.00 375.49 2967.06
   12:29:38.251.31-Jan-2020 3939.51 6020.03 82.74 6.00 375.69 2967.06
   12:29:38.451.31-Jan-2020 3939.51 6020.60 82.74 6.00 375.89 2967.06
   12:29:38.651.31-Jan-2020 3939.51 6022.82 82.74 6.00 376.09 2967.06
   12:29:38.851.31-Jan-2020 3939.51 6022.82 82.74 6.00 376.29 2967.06
   12:29:39.052.31-Jan-2020 3939.51 6021.33 82.74 6.00 376.49 2967.06
   12:29:39.252.31-Jan-2020 3939.51 6018.36 82.74 6.00 376.69 2967.06
   12:29:39.452.31-Jan-2020 3939.51 6016.26 82.74 6.00 376.89 2967.06
   12:29:39.652.31-Jan-2020 3939.51 6020.26 82.74 6.00 377.09 2967.06
   12:29:39.852.31-Jan-2020 3939.51 6020.26 82.74 6.00 377.29 2967.06
   12:29:40.052.31-Jan-2020 3939.51 6024.07 82.74 6.00 377.49 2967.06
   12:29:40.252.31-Jan-2020 3939.51 6022.72 82.74 6.00 377.69 2967.06
   12:29:40.452.31-Jan-2020 3939.51 6021.26 82.74 6.00 377.89 2967.06
   12:29:40.652.31-Jan-2020 3939.51 6022.32 82.74 6.00 378.09 2967.06
   12:29:40.852.31-Jan-2020 3939.51 6022.32 82.74 6.00 378.29 2967.06
   12:29:41.052.31-Jan-2020 3939.51 6023.02 82.74 6.00 378.49 2967.06
   12:29:41.252.31-Jan-2020 3939.51 6021.41 82.74 6.00 378.69 2967.06
   12:29:41.452.31-Jan-2020 3939.51 6022.20 82.74 6.00 378.89 2967.06
   12:29:41.652.31-Jan-2020 3939.51 6022.01 82.74 6.00 379.09 2967.06
   12:29:41.852.31-Jan-2020 3939.51 6022.01 82.74 6.00 379.29 2967.06
   12:29:42.052.31-Jan-2020 3939.51 6020.77 82.74 6.00 379.49 2967.06
   12:29:42.252.31-Jan-2020 3939.51 6022.57 82.74 6.00 379.69 2967.06
   12:29:42.452.31-Jan-2020 3939.51 6023.13 82.74 6.00 379.89 2967.06
   12:29:42.652.31-Jan-2020 3939.51 6022.94 82.74 6.00 380.09 2967.06
   12:29:42.852.31-Jan-2020 3939.51 6022.94 82.74 6.00 380.29 2967.06
   12:29:43.052.31-Jan-2020 3939.51 6015.13 82.74 6.00 380.49 2967.06
   12:29:43.253.31-Jan-2020 3939.51 6020.18 82.74 6.00 380.69 2967.06
   12:29:43.453.31-Jan-2020 3939.51 6022.06 82.74 6.00 380.89 2967.06
   12:29:43.653.31-Jan-2020 3939.51 6022.94 82.74 6.00 381.09 2967.06
   12:29:43.853.31-Jan-2020 3939.51 6022.94 82.74 6.00 381.29 2967.06
   12:29:44.053.31-Jan-2020 3939.51 6023.82 82.73 6.00 381.49 2967.06
   12:29:44.253.31-Jan-2020 3939.51 6023.13 82.73 6.00 381.69 2967.06
   12:29:44.453.31-Jan-2020 3939.51 6023.04 82.73 6.00 381.89 2967.06
   12:29:44.653.31-Jan-2020 3939.51 6023.40 82.73 6.00 382.09 2967.06
   12:29:44.853.31-Jan-2020 3939.51 6023.40 82.73 6.00 382.29 2967.06
   12:29:45.053.31-Jan-2020 3939.51 6022.56 82.73 6.00 382.49 2967.06
   12:29:45.253.31-Jan-2020 3939.51 6022.66 82.73 6.00 382.69 2967.06
   12:29:45.453.31-Jan-2020 3939.51 6022.70 82.73 6.00 382.89 2967.06
   12:29:45.653.31-Jan-2020 3939.51 6022.38 82.73 6.00 383.09 2967.06
   12:29:45.853.31-Jan-2020 3939.51 6022.38 82.73 6.00 383.29 2967.06
   12:29:46.053.31-Jan-2020 3939.51 6025.06 82.73 6.00 383.49 2967.06
   12:29:46.253.31-Jan-2020 3939.51 6024.46 82.73 6.00 383.69 2967.06
   12:29:46.453.31-Jan-2020 3939.51 6020.42 82.73 6.00 383.89 2967.06
   12:29:46.653.31-Jan-2020 3939.51 6017.41 82.73 6.00 384.09 2967.06
   12:29:46.853.31-Jan-2020 3939.51 6017.41 82.73 6.00 384.29 2967.06
   12:29:47.053.31-Jan-2020 3939.51 6021.18 82.73 6.00 384.49 2967.06
   12:29:47.253.31-Jan-2020 3939.51 6021.71 82.73 6.00 384.69 2967.06
   12:29:47.453.31-Jan-2020 3939.51 6019.72 82.73 6.00 384.89 2967.06
   12:29:47.654.31-Jan-2020 3939.51 6017.62 82.73 6.00 385.09 2967.06
   12:29:47.854.31-Jan-2020 3939.51 6017.62 82.73 6.00 385.29 2967.06
   12:29:48.054.31-Jan-2020 3939.51 6022.50 82.73 6.00 385.49 2967.06
   12:29:48.254.31-Jan-2020 3939.51 6022.67 82.73 6.00 385.69 2967.06
   12:29:48.454.31-Jan-2020 3939.51 6022.68 82.73 6.00 385.89 2967.06
   12:29:48.654.31-Jan-2020 3939.51 6019.60 82.73 6.00 386.09 2967.06
   12:29:48.854.31-Jan-2020 3939.51 6019.60 82.73 6.00 386.29 2967.06
   12:29:49.054.31-Jan-2020 3939.51 6019.63 82.73 6.00 386.49 2967.06
   12:29:49.254.31-Jan-2020 3939.51 6020.41 82.72 6.00 386.69 2967.06
   12:29:49.454.31-Jan-2020 3939.51 6019.74 82.72 6.00 386.89 2967.06
   12:29:49.654.31-Jan-2020 3939.51 6017.90 82.72 6.00 387.09 2967.06
   12:29:49.854.31-Jan-2020 3939.51 6017.90 82.72 6.00 387.29 2967.06
   12:29:50.054.31-Jan-2020 3939.51 6021.16 82.72 6.00 387.49 2967.06
   12:29:50.254.31-Jan-2020 3939.51 6021.32 82.72 6.00 387.69 2967.06
   12:29:50.454.31-Jan-2020 3939.51 6023.70 82.72 6.00 387.89 2967.06
   12:29:50.654.31-Jan-2020 3939.51 6016.60 82.72 6.00 388.09 2967.06
   12:29:50.854.31-Jan-2020 3939.51 6016.60 82.72 6.00 388.29 2967.06
   12:29:51.054.31-Jan-2020 3939.51 6020.41 82.72 6.00 388.49 2967.06
   12:29:51.254.31-Jan-2020 3939.51 6021.75 82.72 6.00 388.69 2967.06
   12:29:51.454.31-Jan-2020 3939.51 6022.29 82.72 6.00 388.89 2967.06
   12:29:51.654.31-Jan-2020 3939.51 6024.50 82.72 6.00 389.09 2967.06
   12:29:51.855.31-Jan-2020 3939.51 6024.50 82.72 6.00 389.29 2967.06
   12:29:52.055.31-Jan-2020 3939.51 6022.65 82.72 6.00 389.49 2967.06
   12:29:52.255.31-Jan-2020 3939.51 6021.89 82.72 6.00 389.69 2967.06
   12:29:52.455.31-Jan-2020 3939.51 6023.54 82.72 6.00 389.89 2967.06
   12:29:52.655.31-Jan-2020 3939.51 6023.31 82.72 6.00 390.09 2967.06
   12:29:52.855.31-Jan-2020 3939.51 6023.31 82.72 6.00 390.29 2967.06
   12:29:53.055.31-Jan-2020 3939.51 6021.76 82.72 6.00 390.49 2967.06
   12:29:53.255.31-Jan-2020 3939.51 6021.56 82.72 6.00 390.69 2967.06
   12:29:53.455.31-Jan-2020 3939.51 6022.13 82.72 6.00 390.89 2967.06
