~Version Information
 VERS.                  2.0:   CWLS log ASCII Standard -VERSION 2.0
 WRAP.                   NO:   One line per depth step
~Well Information Block
#MNEM.UNIT     VALUE/NAME     DESCRIPTION
#---------     -----------    ---------------------------
 STRT.S             14:09:29 31-Jan-20: START TIME 14:09:29 31-Jan-20
 STOP.S             14:15:59 31-Jan-20: STOP TIME  14:15:59 31-Jan-20
 STEP.S                   0.00: STEP TIME
 NULL.                 -999.25: NULL VALUE
 DFWT.                        :  DIST FWL TEXT
 DFST.                        :  DIST FSL TEXT
 DMF .             Drill Floor:  DRILL MEAS FROM
 STIM.      09.30.00 26-Dec-19:  START TIME
 DATE.      08.00.00 20-Jan-20:  END TIME
 SPUD.               23-Nov-19:  SPUD DATE
 NREF.                    Grid:  NORTH REFERENCE
 HPTY.       Minimum Curvature:  HOLE POS TYPE
 DMOD.             Drill Model:  DRILL MOD DESC
 SVYD.                  Survey:  SURVEY DESC
 ILTD.               Lithology:  INTERP LTH DESC
 FTOP.          Formation Tops:  FORM TOPS DESC
 SON .        AZ-XX-0906192647:  JOB NUMBER
 WTYP.                Deviated:  WELL TYPE
 COMP.     BP Exploration (Caspian Sea) Ltd:  COMPANY
 BASE.              Azerbaijan:  LOGGING EQUIPMENT BASE LOCATION
 REGN.                 Eurasia:  REGION
 FLD .                     ACG:  FIELD NAME
 SRVC.              KCA Deutag:  CONTRACTOR
 MWDS.                    Baku:  MWD SHOP
 WELL.     A10 (Slot 20) - SCP:  WELL NAME
 JOBN.        AZ-XX-0906192647:  JOB TICKET NUMB
 RIG .                 Chirag1:  RIG NAME
 DCON.     Halliburton Sperry Drilling:  DIRECTNL CONTR
 UNIT.                     N/A:  LOGGING EQUIPMENT ID
 PDAT.          Mean Sea Level:  PERMANENT DATUM
 MDS .        Operator Entered:  MAG DATA SOURCE
 CTRY.              Azerbaijan:  COUNTRY NAME
 UWI .            /AZE00000090:  UNIQUE WELL IDENTIFIER
 API .            /AZE00000090:  API NUMBER
 CNTY.                        :  COUNTY
 PROV.                        :  PROVINCE
 STAT.                        :  STATE
 LOC .                        :  LOCATION
 LMF .             Drill Floor:  LOG MEASURED FROM
 TVDS.m                  36.60:  TVDSS CORRECTN
 LATI.deg                40.08:  LATITUDE
 LONG.deg                51.24:  LONGITUDE
 WHNS.m                  -7.94:  WELL HEAD N/S
 WHEW.m                   1.56:  WELL HEAD E/W
 UTMX.m              520429.26:  UTM X
 UTMY.m             4438973.87:  UTM Y
 DFWL.m                   0.00:  DISTANCE FWL
 DFSL.m                   0.00:  DISTANCE FSL
 SDEP.m                1455.00:  START DEPTH
 TDD .m                4047.51:  TOTAL DEPTH (DRILLER)
 VSDR.deg               112.75:  VERT SEC DIRECT
 GVFD.g                   1.00:  GRAVITY FIELD
 MFLD.nT              50261.00:  MAGNETIC FIELD
 MDIP.deg                59.52:  MAGNETIC DIP
 MDEC.deg                 6.42:  MAGNETIC DECL
 GRDC.deg                 0.17:  GRID CORRECTION
 AZTC.deg                 6.25:  AZM TOTAL CORR
 EPD .m                   0.00:  ELEVATION
 EGL .m                   0.00:  GROUND ELEVATION
 WDMS.m                 121.00:  WD ELEV
 APD .m                  36.60:  DEPTH ABOVE PD
 AGAP.m                  36.60:  AIR GAP
 VSEW.m                   1.56:  VERT SEC E/W
 VSNS.m                  -7.94:  VERT SEC N/S
 DEP .m                1140.01:  DEPTH
 EKB .m                  36.60:  KB ELEVATION
 EDF .m                  36.60:  DF ELEVATION
 TDL .m                 169.50:  TOTAL DEPTH (LOGGER)
 CSGD.m                3875.01:  CASING BOTTOM (DRILLER)
 CSGL.m                3875.01:  CASING BOTTOM (LOGGER)
 CSGS.in                  7.63:  CASING SIZE
 CSGW.lbpf               23.50:  CASING WEIGHT
 VSC .                       0:  VS TO CLOSURE
 MAGU.                 1849206:  MAGUTM CHECKSUM
~Parameter Information Block
#MNEM.UNIT       Value        Description
#---------     -----------    ---------------------------
 AV  .mps                 1.90:  Ann Velocity 
 AVMX.mps                 2.54:  Max Ann Veloc 
 AZIF.deg               137.03:  Azm, Final 
 BHAT.        Rotary Steerable:  BHA Type 
 BREV.rev             23610.00:  Rev Bit Total 
 BROT.°/30m               0.80:  Build Rotating 
 BS  .in                  6.50:  Bit Size 
 BTPL.psig              110.00:  Bit Press Loss 
 CABU.                     Yes:  Customer Abuse 
 COMM.                     ÇV:  Run Comments 1 
 TCS .hr                 70.51:  Time Ciculation Ended 
 CV  .mps                 1.41:  Crit Velocity 
 CVMX.mps                 1.42:  Max Crit Veloc 
 DD1 .         Intigam Rahimov:  Direct Drillr 1 
 DD2 .          Rashad Gojayev:  Direct Drillr 2 
 DDSV.               Geo-Pilot:  DD Service 
 DEFF.%                 100.00:  % Det Eff 
 DLRX.°/30m               1.44:  Dogleg Rot Max 
 DLSO.°/30m               0.00:  Dogleg Oriented 
 DLSX.°/30m               0.00:  Dogleg Str Max 
 DRET.      03.05.00 01-Feb-20:  Drill End Time 
 DRST.      15.50.00 28-Jan-20:  Drill Start Tim 
 DTIM.hr                 24.70:  Time Drilling 
 EDEP.m                4047.51:  End Depth 
 ENG1.           Eldar Hajiyev:  Engineer 1 
 ENG2.          Rasim Hashimov:  Engineer 2 
 ENG3.          Rustam Safarov:  Engineer 3 
 ETIM.      22.00.00 01-Feb-20:  End Time 
 FLOI.gpm               370.00:  Flow In 
 FLON.gpm               300.00:  Flow In Min 
 FLOS.cptm                0.00:  Fluid Loss 
 FLOX.gpm               400.00:  Flow In Max 
 FTRO.       Formation Presure:  FTWD Run Obj 
 HFLO.                      No:  High Flow 
 HPRE.                      No:  High Pressure 
 HTEM.                      No:  High Temp 
 HYDO.m                   2.50:  Hydro Offset 
 IFIN.deg                39.54:  Inc, Final 
 IMAX.deg                41.14:  Inc Max 
 IMIN.deg                39.81:  Inc Min 
 IMND.m                4005.21:  Inc Min Depth 
 IMXD.m                3948.42:  Inc Max Depth 
 JARR.                      No:  Jarring 
 LETM.      03.05.00 01-Feb-20:  Log End Time 
 LOST.hr                     0:  Lost Rig Time 
 LSTM.      15.50.00 28-Jan-20:  Log Start Time 
 MDCL.ppm             37500.00:  Mud Chlorides 
 MDES.     Inversion Oil/Synthetic:  Mud Desc 
 DFD .sg                  1.32:  Mud Density 
 MDMN.sg                  1.32:  Dens Mud Min 
 MDMX.sg                  1.32:  Dens Mud Max 
 MOIL.                      55:  Run Mud Oil % 
 MOWR.                   70:30:  Run Mud OWR 
 MSND.                       0:  Run Mud Sand % 
 MSOL.                      17:  Run Mud Solids% 
 DFV .spqt               80.00:  Mud Viscosity 
 MWOD.in                  4.75:  MWD Tool OD 
 MWSI.                      No:  Serv Intrp, MWD 
 OTIM.hr                121.28:  Time Operating 
 PCON.           Look Like New:  Pad Condition 
 PMAX.psia             6171.00:  Press Op, Max 
 PV  .cP                 30.00:  Mud PV 
 RUN .                     300:  Run Number 
 ROPA.m/hr                5.45:  ROP Avg 
 ROPN.m/hr                3.00:  ROP Min 
 ROPX.m/hr               15.00:  ROP Max 
 RPMA.rpm               130.00:  RPM Surface Avg 
 RPMN.rpm                80.00:  RPM Surface Min 
 RPMX.rpm               140.00:  RPM Surface Max 
 RRUN.                     300:  Rig Run Number 
 RTIM.hr                 13.50:  Time Reaming 
 SAZI.deg               133.93:  Azm, Start 
 SDEP.m                3878.01:  Start Depth 
 SIDD.                      No:  Serv Intrp, DD 
 SINC.deg                40.28:  Inc, Start 
 SPPA.psig             4983.00:  SPP Avg 
 SPPN.psig             4370.00:  SPP Min 
 SPPX.psig             5300.00:  SPP Max 
 STIM.      18.33.36 27-Jan-20:  Start Time 
 SVCS.                 DD, MWD:  Services 
 SVER.                    9.20:  Sperry Version 
 TDAT.m                 169.50:  Tot Depth Attmp 
 TDDF.                      No:  Trip for DD 
 TDLG.m                 169.50:  Tot Depth Loggd 
 TFF .                      No:  Trip for Fail 
 TQAA.f-kp               13.25:  Torque Abs Avg 
 TQAN.f-kp               12.00:  Torque Abs Min 
 TQAX.f-kp               14.00:  Torque Abs Max 
 TRRT.°/30m               0.70:  Turn Rotating 
 MRT .                     ADR:  Maximum Recorded Temperature 
 TTMX.degC               92.16:  Max Tool Temp 
 VS01.       AZ90598764G12V7D4:  Virtual Str1 SN 
 VS02.         AZ90571342R12C4:  Virtual Str2 SN 
 VS03.      AZ90580010N2L2X1C4:  Virtual Str3 SN 
 VS04.        AZ90522266O7X1C4:  Virtual Str4 SN 
 VS05.           AZ90598768F11:  Virtual Str5 SN 
 VS06.     AZ90580006XZ1W1X1C4:  Virtual Str6 SN 
 WBMN.klb                 8.00:  WOB Min 
 WITN.            Peter Wilson:  Customer Rep 
 WOBA.klb                 9.88:  WOB Avg 
 WOBX.klb                10.00:  WOB Max 
 YP  .lhf2               27.00:  Yield Point 
~Curve Information Block
#MNEM.UNIT                 API CODE     Curve Description
#---------               -----------    ---------------------------
 TIME.HHMMSS            00 000 000 000:  GT Time & Date
 GTDEPTH.m              00 000 000 000:  GT Depth
 GTPQH.psia             00 000 000 000:  GT HR Quartz Pressure
 GTTQ.degC              00 000 000 000:  GT Quartz Temperature
 GTTN.NONE              00 000 000 000:  GT Test Number
 GTET.sec               00 000 000 000:  GT Elapsed Test Time
 GTTVD.m                00 000 000 000:  GT True Vertical Depth
#Other Information
#
#WARRANTY: Halliburton will use its best efforts to furnish customers with 
#accurate information and interpretations that are part of, and incident to, the services 
#provided.  However, Halliburton cannot and does not warrant the accuracy 
#or correctness of such information and interpretations.  Under no circumstances should any 
#such information or interpretation be relied upon as the sole basis for any drilling, 
#completion, production, or financial decision or any procedure involving any risk to the 
#safety of any drilling venture, drilling rig or its crew or any other third party.  The 
#Customer has full responsibility for all drilling, completion and production operation.  
#Halliburton makes no representations or warranties, either expressed or 
#implied, including, but not limited to, the implied warranties of merchantability or fitness 
#for a particular purpose, with respect to the services rendered.  In no event will 
#Halliburton be liable for failure to obtain any particular results or for 
#any damages, including, but not limited to, indirect, special or consequential damages, 
#resulting from the use of any information or interpretation provided by Halliburton.
#
~A           TIME           GTDEPTH  GTPQH  GTTQ  GTTN  GTET   GTTVD  
   14:09:29.055.31-Jan-2020 3945.01 6014.61 84.82 7.00   0.00 2971.20
   14:09:29.255.31-Jan-2020 3945.01 6014.61 84.82 7.00   0.20 2971.20
   14:09:29.455.31-Jan-2020 3945.01 6011.09 84.82 7.00   0.40 2971.20
   14:09:29.655.31-Jan-2020 3945.01 6008.06 84.82 7.00   0.60 2971.20
   14:09:29.855.31-Jan-2020 3945.01 6004.46 84.82 7.00   0.80 2971.20
   14:09:30.055.31-Jan-2020 3945.01 5997.11 84.82 7.00   1.00 2971.20
   14:09:30.255.31-Jan-2020 3945.01 5997.11 84.82 7.00   1.20 2971.20
   14:09:30.455.31-Jan-2020 3945.01 6000.08 84.81 7.00   1.40 2971.20
   14:09:30.655.31-Jan-2020 3945.01 6000.49 84.81 7.00   1.60 2971.20
   14:09:30.855.31-Jan-2020 3945.01 6000.12 84.81 7.00   1.80 2971.20
   14:09:31.055.31-Jan-2020 3945.01 5996.18 84.81 7.00   2.00 2971.20
   14:09:31.255.31-Jan-2020 3945.01 5996.18 84.81 7.00   2.20 2971.20
   14:09:31.455.31-Jan-2020 3945.01 5998.74 84.81 7.00   2.40 2971.20
   14:09:31.655.31-Jan-2020 3945.01 5999.76 84.81 7.00   2.60 2971.20
   14:09:31.855.31-Jan-2020 3945.01 6001.28 84.81 7.00   2.80 2971.20
   14:09:32.055.31-Jan-2020 3945.01 6003.56 84.81 7.00   3.00 2971.20
   14:09:32.255.31-Jan-2020 3945.01 6003.56 84.81 7.00   3.20 2971.20
   14:09:32.455.31-Jan-2020 3945.01 6002.28 84.81 7.00   3.40 2971.20
   14:09:32.656.31-Jan-2020 3945.01 6002.71 84.80 7.00   3.60 2971.20
   14:09:32.856.31-Jan-2020 3945.01 6004.50 84.80 7.00   3.80 2971.20
   14:09:33.056.31-Jan-2020 3945.01 6009.59 84.80 7.00   4.00 2971.20
   14:09:33.256.31-Jan-2020 3945.01 6009.59 84.80 7.00   4.20 2971.20
   14:09:33.456.31-Jan-2020 3945.01 6005.44 84.80 7.00   4.40 2971.20
   14:09:33.656.31-Jan-2020 3945.01 6005.21 84.80 7.00   4.60 2971.20
   14:09:33.856.31-Jan-2020 3945.01 6003.94 84.80 7.00   4.80 2971.20
   14:09:34.056.31-Jan-2020 3945.01 6008.09 84.80 7.00   5.00 2971.20
   14:09:34.256.31-Jan-2020 3945.01 6008.09 84.80 7.00   5.20 2971.20
   14:09:34.456.31-Jan-2020 3945.01 6007.01 84.80 7.00   5.40 2971.20
   14:09:34.656.31-Jan-2020 3945.01 5998.64 84.80 7.00   5.60 2971.20
   14:09:34.856.31-Jan-2020 3945.01 6003.54 84.80 7.00   5.80 2971.20
   14:09:35.056.31-Jan-2020 3945.01 6006.48 84.79 7.00   6.00 2971.20
   14:09:35.256.31-Jan-2020 3945.01 6006.48 84.79 7.00   6.20 2971.20
   14:09:35.456.31-Jan-2020 3945.01 6008.59 84.79 7.00   6.40 2971.20
   14:09:35.656.31-Jan-2020 3945.01 6006.90 84.79 7.00   6.60 2971.20
   14:09:35.856.31-Jan-2020 3945.01 5997.43 84.79 7.00   6.80 2971.20
   14:09:36.056.31-Jan-2020 3945.01 6004.35 84.79 7.00   7.00 2971.20
   14:09:36.256.31-Jan-2020 3945.01 6004.35 84.79 7.00   7.20 2971.20
   14:09:36.456.31-Jan-2020 3945.01 6006.32 84.79 7.00   7.40 2971.20
   14:09:36.656.31-Jan-2020 3945.01 6004.46 84.79 7.00   7.60 2971.20
   14:09:36.857.31-Jan-2020 3945.01 6003.05 84.79 7.00   7.80 2971.20
   14:09:37.057.31-Jan-2020 3945.01 6005.49 84.79 7.00   8.00 2971.20
   14:09:37.257.31-Jan-2020 3945.01 6005.49 84.79 7.00   8.20 2971.20
   14:09:37.457.31-Jan-2020 3945.01 6005.49 84.79 7.00   8.40 2971.20
   14:09:37.657.31-Jan-2020 3945.01 6005.27 84.78 7.00   8.60 2971.20
   14:09:37.857.31-Jan-2020 3945.01 6003.96 84.78 7.00   8.80 2971.20
   14:09:38.057.31-Jan-2020 3945.01 6006.40 84.78 7.00   9.00 2971.20
   14:09:38.257.31-Jan-2020 3945.01 6006.40 84.78 7.00   9.20 2971.20
   14:09:38.457.31-Jan-2020 3945.01 6006.01 84.78 7.00   9.40 2971.20
   14:09:38.657.31-Jan-2020 3945.01 6006.67 84.78 7.00   9.60 2971.20
   14:09:38.857.31-Jan-2020 3945.01 6007.73 84.78 7.00   9.80 2971.20
   14:09:39.057.31-Jan-2020 3945.01 6009.98 84.78 7.00  10.00 2971.20
   14:09:39.257.31-Jan-2020 3945.01 6009.98 84.78 7.00  10.20 2971.20
   14:09:39.457.31-Jan-2020 3945.01 6002.30 84.78 7.00  10.40 2971.20
   14:09:39.657.31-Jan-2020 3945.01 6008.12 84.77 7.00  10.60 2971.20
   14:09:39.857.31-Jan-2020 3945.01 6008.05 84.77 7.00  10.80 2971.20
   14:09:40.057.31-Jan-2020 3945.01 6010.41 84.77 7.00  11.00 2971.20
   14:09:40.257.31-Jan-2020 3945.01 6010.41 84.77 7.00  11.20 2971.20
   14:09:40.457.31-Jan-2020 3945.01 6010.47 84.77 7.00  11.40 2971.20
   14:09:40.657.31-Jan-2020 3945.01 6010.54 84.77 7.00  11.60 2971.20
   14:09:40.857.31-Jan-2020 3945.01 6009.57 84.77 7.00  11.80 2971.20
   14:09:41.058.31-Jan-2020 3945.01 6010.76 84.77 7.00  12.00 2971.20
   14:09:41.258.31-Jan-2020 3945.01 6010.76 84.77 7.00  12.20 2971.20
   14:09:41.458.31-Jan-2020 3945.01 6009.83 84.77 7.00  12.40 2971.20
   14:09:41.658.31-Jan-2020 3945.01 6010.48 84.77 7.00  12.60 2971.20
   14:09:41.858.31-Jan-2020 3945.01 6009.44 84.76 7.00  12.80 2971.20
   14:09:42.058.31-Jan-2020 3945.01 6009.73 84.76 7.00  13.00 2971.20
   14:09:42.258.31-Jan-2020 3945.01 6009.73 84.76 7.00  13.20 2971.20
   14:09:42.458.31-Jan-2020 3945.01 6010.69 84.76 7.00  13.40 2971.20
   14:09:42.658.31-Jan-2020 3945.01 6010.36 84.76 7.00  13.60 2971.20
   14:09:42.858.31-Jan-2020 3945.01 6007.77 84.76 7.00  13.80 2971.20
   14:09:43.058.31-Jan-2020 3945.01 6004.61 84.76 7.00  14.00 2971.20
   14:09:43.258.31-Jan-2020 3945.01 6004.61 84.76 7.00  14.20 2971.20
   14:09:43.458.31-Jan-2020 3945.01 6010.05 84.76 7.00  14.40 2971.20
   14:09:43.658.31-Jan-2020 3945.01 6010.38 84.76 7.00  14.60 2971.20
   14:09:43.858.31-Jan-2020 3945.01 6009.95 84.76 7.00  14.80 2971.20
   14:09:44.058.31-Jan-2020 3945.01 6008.41 84.75 7.00  15.00 2971.20
   14:09:44.258.31-Jan-2020 3945.01 6008.41 84.75 7.00  15.20 2971.20
   14:09:44.458.31-Jan-2020 3945.01 6009.49 84.75 7.00  15.40 2971.20
   14:09:44.658.31-Jan-2020 3945.01 6010.66 84.75 7.00  15.60 2971.20
   14:09:44.858.31-Jan-2020 3945.01 6011.05 84.75 7.00  15.80 2971.20
   14:09:45.058.31-Jan-2020 3945.01 6010.75 84.75 7.00  16.00 2971.20
   14:09:45.258.31-Jan-2020 3945.01 6010.75 84.75 7.00  16.20 2971.20
   14:09:45.459.31-Jan-2020 3945.01 6003.75 84.75 7.00  16.40 2971.20
   14:09:45.659.31-Jan-2020 3945.01 6007.22 84.75 7.00  16.60 2971.20
   14:09:45.859.31-Jan-2020 3945.01 6010.84 84.75 7.00  16.80 2971.20
   14:09:46.059.31-Jan-2020 3945.01 6011.98 84.75 7.00  17.00 2971.20
   14:09:46.259.31-Jan-2020 3945.01 6011.98 84.75 7.00  17.20 2971.20
   14:09:46.459.31-Jan-2020 3945.01 6011.37 84.74 7.00  17.40 2971.20
   14:09:46.659.31-Jan-2020 3945.01 6003.38 84.74 7.00  17.60 2971.20
   14:09:46.859.31-Jan-2020 3945.01 6007.31 84.74 7.00  17.80 2971.20
   14:09:47.059.31-Jan-2020 3945.01 6010.01 84.74 7.00  18.00 2971.20
   14:09:47.259.31-Jan-2020 3945.01 6010.01 84.74 7.00  18.20 2971.20
   14:09:47.459.31-Jan-2020 3945.01 6003.28 84.74 7.00  18.40 2971.20
   14:09:47.659.31-Jan-2020 3945.01 6008.26 84.74 7.00  18.60 2971.20
   14:09:47.859.31-Jan-2020 3945.01 6010.52 84.74 7.00  18.80 2971.20
   14:09:48.059.31-Jan-2020 3945.01 6010.02 84.74 7.00  19.00 2971.20
   14:09:48.259.31-Jan-2020 3945.01 6010.02 84.74 7.00  19.20 2971.20
   14:09:48.459.31-Jan-2020 3945.01 6013.27 84.74 7.00  19.40 2971.20
   14:09:48.659.31-Jan-2020 3945.01 6011.91 84.73 7.00  19.60 2971.20
   14:09:48.859.31-Jan-2020 3945.01 6004.60 84.73 7.00  19.80 2971.20
   14:09:49.059.31-Jan-2020 3945.01 6108.95 84.73 7.00  20.00 2971.20
   14:09:49.259.31-Jan-2020 3945.01 6108.95 84.73 7.00  20.20 2971.20
   14:09:49.459.31-Jan-2020 3945.01 6292.79 84.73 7.00  20.40 2971.20
   14:09:49.660.31-Jan-2020 3945.01 6342.37 84.73 7.00  20.60 2971.20
   14:09:49.860.31-Jan-2020 3945.01 6409.91 84.73 7.00  20.80 2971.20
   14:09:50.060.31-Jan-2020 3945.01 6474.78 84.73 7.00  21.00 2971.20
   14:09:50.260.31-Jan-2020 3945.01 6474.78 84.73 7.00  21.20 2971.20
   14:09:50.460.31-Jan-2020 3945.01 6423.10 84.73 7.00  21.41 2971.20
   14:09:50.660.31-Jan-2020 3945.01 6472.51 84.73 7.00  21.61 2971.20
   14:09:50.860.31-Jan-2020 3945.01 6489.28 84.73 7.00  21.81 2971.20
   14:09:51.060.31-Jan-2020 3945.01 6502.95 84.72 7.00  22.01 2971.20
   14:09:51.260.31-Jan-2020 3945.01 6502.95 84.72 7.00  22.21 2971.20
   14:09:51.460.31-Jan-2020 3945.01 6538.79 84.72 7.00  22.41 2971.20
   14:09:51.660.31-Jan-2020 3945.01 6562.41 84.72 7.00  22.61 2971.20
   14:09:51.860.31-Jan-2020 3945.01 6585.88 84.72 7.00  22.81 2971.20
