~Version Information
 VERS.                  2.0:   CWLS log ASCII Standard -VERSION 2.0
 WRAP.                   NO:   One line per depth step
~Well Information Block
#MNEM.UNIT     VALUE/NAME     DESCRIPTION
#---------     -----------    ---------------------------
 STRT.S             06:25:21 31-Jan-20: START TIME 06:25:21 31-Jan-20
 STOP.S             06:31:52 31-Jan-20: STOP TIME  06:31:52 31-Jan-20
 STEP.S                   0.00: STEP TIME
 NULL.                 -999.25: NULL VALUE
 DFWT.                        :  DIST FWL TEXT
 DFST.                        :  DIST FSL TEXT
 DMF .             Drill Floor:  DRILL MEAS FROM
 STIM.      09.30.00 26-Dec-19:  START TIME
 DATE.      08.00.00 20-Jan-20:  END TIME
 SPUD.               23-Nov-19:  SPUD DATE
 NREF.                    Grid:  NORTH REFERENCE
 HPTY.       Minimum Curvature:  HOLE POS TYPE
 DMOD.             Drill Model:  DRILL MOD DESC
 SVYD.                  Survey:  SURVEY DESC
 ILTD.               Lithology:  INTERP LTH DESC
 FTOP.          Formation Tops:  FORM TOPS DESC
 SON .        AZ-XX-0906192647:  JOB NUMBER
 WTYP.                Deviated:  WELL TYPE
 COMP.     BP Exploration (Caspian Sea) Ltd:  COMPANY
 BASE.              Azerbaijan:  LOGGING EQUIPMENT BASE LOCATION
 REGN.                 Eurasia:  REGION
 FLD .                     ACG:  FIELD NAME
 SRVC.              KCA Deutag:  CONTRACTOR
 MWDS.                    Baku:  MWD SHOP
 WELL.     A10 (Slot 20) - SCP:  WELL NAME
 JOBN.        AZ-XX-0906192647:  JOB TICKET NUMB
 RIG .                 Chirag1:  RIG NAME
 DCON.     Halliburton Sperry Drilling:  DIRECTNL CONTR
 UNIT.                     N/A:  LOGGING EQUIPMENT ID
 PDAT.          Mean Sea Level:  PERMANENT DATUM
 MDS .        Operator Entered:  MAG DATA SOURCE
 CTRY.              Azerbaijan:  COUNTRY NAME
 UWI .            /AZE00000090:  UNIQUE WELL IDENTIFIER
 API .            /AZE00000090:  API NUMBER
 CNTY.                        :  COUNTY
 PROV.                        :  PROVINCE
 STAT.                        :  STATE
 LOC .                        :  LOCATION
 LMF .             Drill Floor:  LOG MEASURED FROM
 TVDS.m                  36.60:  TVDSS CORRECTN
 LATI.deg                40.08:  LATITUDE
 LONG.deg                51.24:  LONGITUDE
 WHNS.m                  -7.94:  WELL HEAD N/S
 WHEW.m                   1.56:  WELL HEAD E/W
 UTMX.m              520429.26:  UTM X
 UTMY.m             4438973.87:  UTM Y
 DFWL.m                   0.00:  DISTANCE FWL
 DFSL.m                   0.00:  DISTANCE FSL
 SDEP.m                1455.00:  START DEPTH
 TDD .m                4047.51:  TOTAL DEPTH (DRILLER)
 VSDR.deg               112.75:  VERT SEC DIRECT
 GVFD.g                   1.00:  GRAVITY FIELD
 MFLD.nT              50261.00:  MAGNETIC FIELD
 MDIP.deg                59.52:  MAGNETIC DIP
 MDEC.deg                 6.42:  MAGNETIC DECL
 GRDC.deg                 0.17:  GRID CORRECTION
 AZTC.deg                 6.25:  AZM TOTAL CORR
 EPD .m                   0.00:  ELEVATION
 EGL .m                   0.00:  GROUND ELEVATION
 WDMS.m                 121.00:  WD ELEV
 APD .m                  36.60:  DEPTH ABOVE PD
 AGAP.m                  36.60:  AIR GAP
 VSEW.m                   1.56:  VERT SEC E/W
 VSNS.m                  -7.94:  VERT SEC N/S
 DEP .m                1140.01:  DEPTH
 EKB .m                  36.60:  KB ELEVATION
 EDF .m                  36.60:  DF ELEVATION
 TDL .m                 169.50:  TOTAL DEPTH (LOGGER)
 CSGD.m                3875.01:  CASING BOTTOM (DRILLER)
 CSGL.m                3875.01:  CASING BOTTOM (LOGGER)
 CSGS.in                  7.63:  CASING SIZE
 CSGW.lbpf               23.50:  CASING WEIGHT
 VSC .                       0:  VS TO CLOSURE
 MAGU.                 1849206:  MAGUTM CHECKSUM
~Parameter Information Block
#MNEM.UNIT       Value        Description
#---------     -----------    ---------------------------
 AV  .mps                 1.90:  Ann Velocity 
 AVMX.mps                 2.54:  Max Ann Veloc 
 AZIF.deg               137.03:  Azm, Final 
 BHAT.        Rotary Steerable:  BHA Type 
 BREV.rev             23610.00:  Rev Bit Total 
 BROT.°/30m               0.80:  Build Rotating 
 BS  .in                  6.50:  Bit Size 
 BTPL.psig              110.00:  Bit Press Loss 
 CABU.                     Yes:  Customer Abuse 
 COMM.                     Ð„:  Run Comments 1 
 TCS .hr                 70.51:  Time Ciculation Ended 
 CV  .mps                 1.41:  Crit Velocity 
 CVMX.mps                 1.42:  Max Crit Veloc 
 DD1 .         Intigam Rahimov:  Direct Drillr 1 
 DD2 .          Rashad Gojayev:  Direct Drillr 2 
 DDSV.               Geo-Pilot:  DD Service 
 DEFF.%                 100.00:  % Det Eff 
 DLRX.°/30m               1.44:  Dogleg Rot Max 
 DLSO.°/30m               0.00:  Dogleg Oriented 
 DLSX.°/30m               0.00:  Dogleg Str Max 
 DRET.      03.05.00 01-Feb-20:  Drill End Time 
 DRST.      15.50.00 28-Jan-20:  Drill Start Tim 
 DTIM.hr                 24.70:  Time Drilling 
 EDEP.m                4047.51:  End Depth 
 ENG1.           Eldar Hajiyev:  Engineer 1 
 ENG2.          Rasim Hashimov:  Engineer 2 
 ENG3.          Rustam Safarov:  Engineer 3 
 ETIM.      22.00.00 01-Feb-20:  End Time 
 FLOI.gpm               370.00:  Flow In 
 FLON.gpm               300.00:  Flow In Min 
 FLOS.cptm                0.00:  Fluid Loss 
 FLOX.gpm               400.00:  Flow In Max 
 FTRO.       Formation Presure:  FTWD Run Obj 
 HFLO.                      No:  High Flow 
 HPRE.                      No:  High Pressure 
 HTEM.                      No:  High Temp 
 HYDO.m                   2.50:  Hydro Offset 
 IFIN.deg                39.54:  Inc, Final 
 IMAX.deg                41.14:  Inc Max 
 IMIN.deg                39.81:  Inc Min 
 IMND.m                4005.21:  Inc Min Depth 
 IMXD.m                3948.42:  Inc Max Depth 
 JARR.                      No:  Jarring 
 LETM.      03.05.00 01-Feb-20:  Log End Time 
 LOST.hr                     0:  Lost Rig Time 
 LSTM.      15.50.00 28-Jan-20:  Log Start Time 
 MDCL.ppm             37500.00:  Mud Chlorides 
 MDES.     Inversion Oil/Synthetic:  Mud Desc 
 DFD .sg                  1.32:  Mud Density 
 MDMN.sg                  1.32:  Dens Mud Min 
 MDMX.sg                  1.32:  Dens Mud Max 
 MOIL.                      55:  Run Mud Oil % 
 MOWR.                   70:30:  Run Mud OWR 
 MSND.                       0:  Run Mud Sand % 
 MSOL.                      17:  Run Mud Solids% 
 DFV .spqt               80.00:  Mud Viscosity 
 MWOD.in                  4.75:  MWD Tool OD 
 MWSI.                      No:  Serv Intrp, MWD 
 OTIM.hr                121.28:  Time Operating 
 PCON.           Look Like New:  Pad Condition 
 PMAX.psia             6171.00:  Press Op, Max 
 PV  .cP                 30.00:  Mud PV 
 RUN .                     300:  Run Number 
 ROPA.m/hr                5.45:  ROP Avg 
 ROPN.m/hr                3.00:  ROP Min 
 ROPX.m/hr               15.00:  ROP Max 
 RPMA.rpm               130.00:  RPM Surface Avg 
 RPMN.rpm                80.00:  RPM Surface Min 
 RPMX.rpm               140.00:  RPM Surface Max 
 RRUN.                     300:  Rig Run Number 
 RTIM.hr                 13.50:  Time Reaming 
 SAZI.deg               133.93:  Azm, Start 
 SDEP.m                3878.01:  Start Depth 
 SIDD.                      No:  Serv Intrp, DD 
 SINC.deg                40.28:  Inc, Start 
 SPPA.psig             4983.00:  SPP Avg 
 SPPN.psig             4370.00:  SPP Min 
 SPPX.psig             5300.00:  SPP Max 
 STIM.      18.33.36 27-Jan-20:  Start Time 
 SVCS.                 DD, MWD:  Services 
 SVER.                    9.20:  Sperry Version 
 TDAT.m                 169.50:  Tot Depth Attmp 
 TDDF.                      No:  Trip for DD 
 TDLG.m                 169.50:  Tot Depth Loggd 
 TFF .                      No:  Trip for Fail 
 TQAA.f-kp               13.25:  Torque Abs Avg 
 TQAN.f-kp               12.00:  Torque Abs Min 
 TQAX.f-kp               14.00:  Torque Abs Max 
 TRRT.°/30m               0.70:  Turn Rotating 
 MRT .                     ADR:  Maximum Recorded Temperature 
 TTMX.degC               92.16:  Max Tool Temp 
 VS01.       AZ90598764G12V7D4:  Virtual Str1 SN 
 VS02.         AZ90571342R12C4:  Virtual Str2 SN 
 VS03.      AZ90580010N2L2X1C4:  Virtual Str3 SN 
 VS04.        AZ90522266O7X1C4:  Virtual Str4 SN 
 VS05.           AZ90598768F11:  Virtual Str5 SN 
 VS06.     AZ90580006XZ1W1X1C4:  Virtual Str6 SN 
 WBMN.klb                 8.00:  WOB Min 
 WITN.            Peter Wilson:  Customer Rep 
 WOBA.klb                 9.88:  WOB Avg 
 WOBX.klb                10.00:  WOB Max 
 YP  .lhf2               27.00:  Yield Point 
~Curve Information Block
#MNEM.UNIT                 API CODE     Curve Description
#---------               -----------    ---------------------------
 TIME.HHMMSS            00 000 000 000:  GT Time & Date
 GTDEPTH.m              00 000 000 000:  GT Depth
 GTPQH.psia             00 000 000 000:  GT HR Quartz Pressure
 GTTQ.degC              00 000 000 000:  GT Quartz Temperature
 GTTN.NONE              00 000 000 000:  GT Test Number
 GTET.sec               00 000 000 000:  GT Elapsed Test Time
 GTTVD.m                00 000 000 000:  GT True Vertical Depth
#Other Information
#
#WARRANTY: Halliburton will use its best efforts to furnish customers with 
#accurate information and interpretations that are part of, and incident to, the services 
#provided.  However, Halliburton cannot and does not warrant the accuracy 
#or correctness of such information and interpretations.  Under no circumstances should any 
#such information or interpretation be relied upon as the sole basis for any drilling, 
#completion, production, or financial decision or any procedure involving any risk to the 
#safety of any drilling venture, drilling rig or its crew or any other third party.  The 
#Customer has full responsibility for all drilling, completion and production operation.  
#Halliburton makes no representations or warranties, either expressed or 
#implied, including, but not limited to, the implied warranties of merchantability or fitness 
#for a particular purpose, with respect to the services rendered.  In no event will 
#Halliburton be liable for failure to obtain any particular results or for 
#any damages, including, but not limited to, indirect, special or consequential damages, 
#resulting from the use of any information or interpretation provided by Halliburton.
#
~A           TIME           GTDEPTH  GTPQH  GTTQ  GTTN  GTET   GTTVD  
# ...
   06:28:02.760.31-Jan-2020 3914.01 2993.84 78.78 4.00 161.03 2947.83
   06:28:02.960.31-Jan-2020 3914.01 2993.84 78.78 4.00 161.23 2947.83
   06:28:03.160.31-Jan-2020 3914.01 2994.04 78.78 4.00 161.43 2947.83
   06:28:03.360.31-Jan-2020 3914.01 2993.94 78.78 4.00 161.63 2947.83
   06:28:03.560.31-Jan-2020 3914.01 2993.90 78.78 4.00 161.83 2947.83
   06:28:03.760.31-Jan-2020 3914.01 2993.89 78.78 4.00 162.03 2947.83
   06:28:03.960.31-Jan-2020 3914.01 2993.89 78.78 4.00 162.23 2947.83
   06:28:04.160.31-Jan-2020 3914.01 2993.85 78.78 4.00 162.43 2947.83
   06:28:04.360.31-Jan-2020 3914.01 2993.66 78.78 4.00 162.63 2947.83
   06:28:04.561.31-Jan-2020 3914.01 2993.98 78.78 4.00 162.83 2947.83
   06:28:04.761.31-Jan-2020 3914.01 2993.93 78.78 4.00 163.03 2947.83
   06:28:04.961.31-Jan-2020 3914.01 2993.93 78.78 4.00 163.23 2947.83
   06:28:05.161.31-Jan-2020 3914.01 2993.89 78.77 4.00 163.43 2947.83
   06:28:05.361.31-Jan-2020 3914.01 2993.83 78.77 4.00 163.63 2947.83
   06:28:05.561.31-Jan-2020 3914.01 2993.81 78.77 4.00 163.83 2947.83
   06:28:05.761.31-Jan-2020 3914.01 2993.96 78.77 4.00 164.03 2947.83
   06:28:05.961.31-Jan-2020 3914.01 2993.96 78.77 4.00 164.23 2947.83
   06:28:06.161.31-Jan-2020 3914.01 2993.90 78.77 4.00 164.43 2947.83
   06:28:06.361.31-Jan-2020 3914.01 2993.86 78.77 4.00 164.63 2947.83
   06:28:06.561.31-Jan-2020 3914.01 2993.86 78.77 4.00 164.83 2947.83
   06:28:06.761.31-Jan-2020 3914.01 2993.89 78.77 4.00 165.03 2947.83
   06:28:06.961.31-Jan-2020 3914.01 2993.89 78.77 4.00 165.23 2947.83
   06:28:07.161.31-Jan-2020 3914.01 2994.07 78.77 4.00 165.43 2947.83
   06:28:07.361.31-Jan-2020 3914.01 2993.98 78.77 4.00 165.63 2947.83
   06:28:07.561.31-Jan-2020 3914.01 2993.91 78.77 4.00 165.83 2947.83
   06:28:07.761.31-Jan-2020 3914.01 2993.86 78.77 4.00 166.03 2947.83
   06:28:07.961.31-Jan-2020 3914.01 2993.86 78.77 4.00 166.23 2947.83
   06:28:08.161.31-Jan-2020 3914.01 2993.86 78.77 4.00 166.43 2947.83
   06:28:08.361.31-Jan-2020 3914.01 2993.90 78.76 4.00 166.63 2947.83
   06:28:08.561.31-Jan-2020 3914.01 2993.85 78.76 4.00 166.83 2947.83
   06:28:08.761.31-Jan-2020 3914.01 2993.85 78.76 4.00 167.03 2947.83
   06:28:08.961.31-Jan-2020 3914.01 2993.85 78.76 4.00 167.23 2947.83
   06:28:09.161.31-Jan-2020 3914.01 2993.82 78.76 4.00 167.43 2947.83
   06:28:09.361.31-Jan-2020 3914.01 2993.82 78.76 4.00 167.63 2947.83
   06:28:09.562.31-Jan-2020 3914.01 2993.82 78.76 4.00 167.83 2947.83
   06:28:09.762.31-Jan-2020 3914.01 2993.84 78.76 4.00 168.03 2947.83
   06:28:09.962.31-Jan-2020 3914.01 2993.84 78.76 4.00 168.23 2947.83
   06:28:10.162.31-Jan-2020 3914.01 2993.83 78.76 4.00 168.43 2947.83
   06:28:10.362.31-Jan-2020 3914.01 2993.81 78.76 4.00 168.63 2947.83
   06:28:10.562.31-Jan-2020 3914.01 2993.83 78.76 4.00 168.83 2947.83
   06:28:10.762.31-Jan-2020 3914.01 2993.65 78.76 4.00 169.03 2947.83
   06:28:10.962.31-Jan-2020 3914.01 2993.65 78.76 4.00 169.23 2947.83
   06:28:11.162.31-Jan-2020 3914.01 2993.93 78.76 4.00 169.43 2947.83
   06:28:11.362.31-Jan-2020 3914.01 2993.89 78.76 4.00 169.63 2947.83
   06:28:11.562.31-Jan-2020 3914.01 2993.87 78.76 4.00 169.83 2947.83
   06:28:11.762.31-Jan-2020 3914.01 2993.87 78.75 4.00 170.03 2947.83
   06:28:11.962.31-Jan-2020 3914.01 2993.87 78.75 4.00 170.23 2947.83
   06:28:12.162.31-Jan-2020 3914.01 2993.83 78.75 4.00 170.43 2947.83
   06:28:12.362.31-Jan-2020 3914.01 2993.86 78.75 4.00 170.63 2947.83
   06:28:12.562.31-Jan-2020 3914.01 2993.84 78.75 4.00 170.83 2947.83
   06:28:12.762.31-Jan-2020 3914.01 2993.81 78.75 4.00 171.03 2947.83
   06:28:12.962.31-Jan-2020 3914.01 2993.81 78.75 4.00 171.23 2947.83
   06:28:13.162.31-Jan-2020 3914.01 2993.82 78.75 4.00 171.43 2947.83
   06:28:13.362.31-Jan-2020 3914.01 2993.79 78.75 4.00 171.63 2947.83
   06:28:13.562.31-Jan-2020 3914.01 2993.84 78.75 4.00 171.83 2947.83
   06:28:13.762.31-Jan-2020 3914.01 2993.87 78.75 4.00 172.03 2947.83
   06:28:13.962.31-Jan-2020 3914.01 2993.87 78.75 4.00 172.23 2947.83
   06:28:14.162.31-Jan-2020 3914.01 2994.01 78.75 4.00 172.43 2947.83
   06:28:14.363.31-Jan-2020 3914.01 2993.90 78.75 4.00 172.64 2947.83
   06:28:14.563.31-Jan-2020 3914.01 2993.89 78.75 4.00 172.84 2947.83
   06:28:14.763.31-Jan-2020 3914.01 2993.86 78.75 4.00 173.04 2947.83
   06:28:14.963.31-Jan-2020 3914.01 2993.86 78.75 4.00 173.24 2947.83
   06:28:15.163.31-Jan-2020 3914.01 2994.09 78.74 4.00 173.44 2947.83
   06:28:15.363.31-Jan-2020 3914.01 2993.93 78.74 4.00 173.64 2947.83
   06:28:15.563.31-Jan-2020 3914.01 2993.91 78.74 4.00 173.84 2947.83
   06:28:15.763.31-Jan-2020 3914.01 2993.88 78.74 4.00 174.04 2947.83
   06:28:15.963.31-Jan-2020 3914.01 2993.88 78.74 4.00 174.24 2947.83
   06:28:16.163.31-Jan-2020 3914.01 2993.88 78.74 4.00 174.44 2947.83
   06:28:16.363.31-Jan-2020 3914.01 2993.59 78.74 4.00 174.64 2947.83
   06:28:16.563.31-Jan-2020 3914.01 2994.06 78.74 4.00 174.84 2947.83
   06:28:16.763.31-Jan-2020 3914.01 2993.95 78.74 4.00 175.04 2947.83
   06:28:16.963.31-Jan-2020 3914.01 2993.95 78.74 4.00 175.24 2947.83
   06:28:17.163.31-Jan-2020 3914.01 2993.88 78.74 4.00 175.44 2947.83
   06:28:17.363.31-Jan-2020 3914.01 2993.67 78.74 4.00 175.64 2947.83
   06:28:17.563.31-Jan-2020 3914.01 2993.98 78.74 4.00 175.84 2947.83
   06:28:17.763.31-Jan-2020 3914.01 2993.95 78.74 4.00 176.04 2947.83
   06:28:17.963.31-Jan-2020 3914.01 2993.95 78.74 4.00 176.24 2947.83
   06:28:18.163.31-Jan-2020 3914.01 2993.89 78.74 4.00 176.44 2947.83
   06:28:18.363.31-Jan-2020 3914.01 2993.86 78.74 4.00 176.64 2947.83
   06:28:18.563.31-Jan-2020 3914.01 2993.87 78.74 4.00 176.84 2947.83
   06:28:18.763.31-Jan-2020 3914.01 2993.90 78.73 4.00 177.04 2947.83
   06:28:18.963.31-Jan-2020 3914.01 2993.90 78.73 4.00 177.24 2947.83
   06:28:19.163.31-Jan-2020 3914.01 2994.02 78.73 4.00 177.44 2947.83
   06:28:19.364.31-Jan-2020 3914.01 2993.98 78.73 4.00 177.64 2947.83
   06:28:19.564.31-Jan-2020 3914.01 2993.91 78.73 4.00 177.84 2947.83
   06:28:19.764.31-Jan-2020 3914.01 2993.87 78.73 4.00 178.04 2947.83
   06:28:19.964.31-Jan-2020 3914.01 2993.87 78.73 4.00 178.24 2947.83
   06:28:20.164.31-Jan-2020 3914.01 2993.88 78.73 4.00 178.44 2947.83
   06:28:20.364.31-Jan-2020 3914.01 2993.90 78.73 4.00 178.64 2947.83
   06:28:20.564.31-Jan-2020 3914.01 2993.84 78.73 4.00 178.84 2947.83
   06:28:20.764.31-Jan-2020 3914.01 2993.86 78.73 4.00 179.04 2947.83
   06:28:20.964.31-Jan-2020 3914.01 2993.86 78.73 4.00 179.24 2947.83
   06:28:21.164.31-Jan-2020 3914.01 2993.81 78.73 4.00 179.44 2947.83
   06:28:21.364.31-Jan-2020 3914.01 2993.83 78.73 4.00 179.64 2947.83
   06:28:21.564.31-Jan-2020 3914.01 2993.82 78.73 4.00 179.84 2947.83
   06:28:21.764.31-Jan-2020 3914.01 2993.87 78.73 4.00 180.04 2947.83
   06:28:21.964.31-Jan-2020 3914.01 2993.87 78.73 4.00 180.24 2947.83
   06:28:22.164.31-Jan-2020 3914.01 2993.80 78.72 4.00 180.44 2947.83
   06:28:22.364.31-Jan-2020 3914.01 2993.82 78.72 4.00 180.64 2947.83
   06:28:22.564.31-Jan-2020 3914.01 2993.76 78.72 4.00 180.84 2947.83
   06:28:22.764.31-Jan-2020 3914.01 2993.78 78.72 4.00 181.04 2947.83
   06:28:22.964.31-Jan-2020 3914.01 2993.78 78.72 4.00 181.24 2947.83
   06:28:23.164.31-Jan-2020 3914.01 2993.91 78.72 4.00 181.44 2947.83
   06:28:23.364.31-Jan-2020 3914.01 2993.88 78.72 4.00 181.64 2947.83
   06:28:23.564.31-Jan-2020 3914.01 2993.86 78.72 4.00 181.84 2947.83
   06:28:23.764.31-Jan-2020 3914.01 2993.87 78.72 4.00 182.04 2947.83
   06:28:23.964.31-Jan-2020 3914.01 2993.87 78.72 4.00 182.24 2947.83
   06:28:24.165.31-Jan-2020 3914.01 2993.84 78.72 4.00 182.44 2947.83
   06:28:24.365.31-Jan-2020 3914.01 2993.85 78.72 4.00 182.64 2947.83
   06:28:24.565.31-Jan-2020 3914.01 2993.84 78.72 4.00 182.84 2947.83
   06:28:24.765.31-Jan-2020 3914.01 2993.81 78.72 4.00 183.04 2947.83
   06:28:24.965.31-Jan-2020 3914.01 2993.81 78.72 4.00 183.24 2947.83
   06:28:25.165.31-Jan-2020 3914.01 2993.80 78.72 4.00 183.44 2947.83
   06:28:25.365.31-Jan-2020 3914.01 2993.80 78.72 4.00 183.64 2947.83
   06:28:25.565.31-Jan-2020 3914.01 2993.85 78.71 4.00 183.84 2947.83
