~Version Information
 VERS.                  2.0:   CWLS log ASCII Standard -VERSION 2.0
 WRAP.                   NO:   One line per depth step
~Well Information Block
#MNEM.UNIT     VALUE/NAME     DESCRIPTION
#---------     -----------    ---------------------------
 STRT.S             04:12:25 01-Feb-20: START TIME 04:12:25 01-Feb-20
 STOP.S             04:20:20 01-Feb-20: STOP TIME  04:20:20 01-Feb-20
 STEP.S                   0.00: STEP TIME
 NULL.                 -999.25: NULL VALUE
 DFWT.                        :  DIST FWL TEXT
 DFST.                        :  DIST FSL TEXT
 DMF .             Drill Floor:  DRILL MEAS FROM
 STIM.      09.30.00 26-Dec-19:  START TIME
 DATE.      08.00.00 20-Jan-20:  END TIME
 SPUD.               23-Nov-19:  SPUD DATE
 NREF.                    Grid:  NORTH REFERENCE
 HPTY.       Minimum Curvature:  HOLE POS TYPE
 DMOD.             Drill Model:  DRILL MOD DESC
 SVYD.                  Survey:  SURVEY DESC
 ILTD.               Lithology:  INTERP LTH DESC
 FTOP.          Formation Tops:  FORM TOPS DESC
 SON .        AZ-XX-0906192647:  JOB NUMBER
 WTYP.                Deviated:  WELL TYPE
 COMP.     BP Exploration (Caspian Sea) Ltd:  COMPANY
 BASE.              Azerbaijan:  LOGGING EQUIPMENT BASE LOCATION
 REGN.                 Eurasia:  REGION
 FLD .                     ACG:  FIELD NAME
 SRVC.              KCA Deutag:  CONTRACTOR
 MWDS.                    Baku:  MWD SHOP
 WELL.     A10 (Slot 20) - SCP:  WELL NAME
 JOBN.        AZ-XX-0906192647:  JOB TICKET NUMB
 RIG .                 Chirag1:  RIG NAME
 DCON.     Halliburton Sperry Drilling:  DIRECTNL CONTR
 UNIT.                     N/A:  LOGGING EQUIPMENT ID
 PDAT.          Mean Sea Level:  PERMANENT DATUM
 MDS .        Operator Entered:  MAG DATA SOURCE
 CTRY.              Azerbaijan:  COUNTRY NAME
 UWI .            /AZE00000090:  UNIQUE WELL IDENTIFIER
 API .            /AZE00000090:  API NUMBER
 CNTY.                        :  COUNTY
 PROV.                        :  PROVINCE
 STAT.                        :  STATE
 LOC .                        :  LOCATION
 LMF .             Drill Floor:  LOG MEASURED FROM
 TVDS.m                  36.60:  TVDSS CORRECTN
 LATI.deg                40.08:  LATITUDE
 LONG.deg                51.24:  LONGITUDE
 WHNS.m                  -7.94:  WELL HEAD N/S
 WHEW.m                   1.56:  WELL HEAD E/W
 UTMX.m              520429.26:  UTM X
 UTMY.m             4438973.87:  UTM Y
 DFWL.m                   0.00:  DISTANCE FWL
 DFSL.m                   0.00:  DISTANCE FSL
 SDEP.m                1455.00:  START DEPTH
 TDD .m                4047.51:  TOTAL DEPTH (DRILLER)
 VSDR.deg               112.75:  VERT SEC DIRECT
 GVFD.g                   1.00:  GRAVITY FIELD
 MFLD.nT              50261.00:  MAGNETIC FIELD
 MDIP.deg                59.52:  MAGNETIC DIP
 MDEC.deg                 6.42:  MAGNETIC DECL
 GRDC.deg                 0.17:  GRID CORRECTION
 AZTC.deg                 6.25:  AZM TOTAL CORR
 EPD .m                   0.00:  ELEVATION
 EGL .m                   0.00:  GROUND ELEVATION
 WDMS.m                 121.00:  WD ELEV
 APD .m                  36.60:  DEPTH ABOVE PD
 AGAP.m                  36.60:  AIR GAP
 VSEW.m                   1.56:  VERT SEC E/W
 VSNS.m                  -7.94:  VERT SEC N/S
 DEP .m                1140.01:  DEPTH
 EKB .m                  36.60:  KB ELEVATION
 EDF .m                  36.60:  DF ELEVATION
 TDL .m                 169.50:  TOTAL DEPTH (LOGGER)
 CSGD.m                3875.01:  CASING BOTTOM (DRILLER)
 CSGL.m                3875.01:  CASING BOTTOM (LOGGER)
 CSGS.in                  7.63:  CASING SIZE
 CSGW.lbpf               23.50:  CASING WEIGHT
 VSC .                       0:  VS TO CLOSURE
 MAGU.                 1849206:  MAGUTM CHECKSUM
~Parameter Information Block
#MNEM.UNIT       Value        Description
#---------     -----------    ---------------------------
 AV  .mps                 1.90:  Ann Velocity 
 AVMX.mps                 2.54:  Max Ann Veloc 
 AZIF.deg               137.03:  Azm, Final 
 BHAT.        Rotary Steerable:  BHA Type 
 BREV.rev             23610.00:  Rev Bit Total 
 BROT.°/30m               0.80:  Build Rotating 
 BS  .in                  6.50:  Bit Size 
 BTPL.psig              110.00:  Bit Press Loss 
 CABU.                     Yes:  Customer Abuse 
 TCS .hr                 70.51:  Time Ciculation Ended 
 CV  .mps                 1.41:  Crit Velocity 
 CVMX.mps                 1.42:  Max Crit Veloc 
 DD1 .         Intigam Rahimov:  Direct Drillr 1 
 DD2 .          Rashad Gojayev:  Direct Drillr 2 
 DDSV.               Geo-Pilot:  DD Service 
 DEFF.%                 100.00:  % Det Eff 
 DLRX.°/30m               1.44:  Dogleg Rot Max 
 DLSO.°/30m               0.00:  Dogleg Oriented 
 DLSX.°/30m               0.00:  Dogleg Str Max 
 DRET.      03.05.00 01-Feb-20:  Drill End Time 
 DRST.      15.50.00 28-Jan-20:  Drill Start Tim 
 DTIM.hr                 24.70:  Time Drilling 
 EDEP.m                4047.51:  End Depth 
 ENG1.           Eldar Hajiyev:  Engineer 1 
 ENG2.          Rasim Hashimov:  Engineer 2 
 ENG3.          Rustam Safarov:  Engineer 3 
 ETIM.      22.00.00 01-Feb-20:  End Time 
 FLOI.gpm               370.00:  Flow In 
 FLON.gpm               300.00:  Flow In Min 
 FLOS.cptm                0.00:  Fluid Loss 
 FLOX.gpm               400.00:  Flow In Max 
 FTRO.       Formation Presure:  FTWD Run Obj 
 HFLO.                      No:  High Flow 
 HPRE.                      No:  High Pressure 
 HTEM.                      No:  High Temp 
 HYDO.m                   2.50:  Hydro Offset 
 IFIN.deg                39.54:  Inc, Final 
 IMAX.deg                41.14:  Inc Max 
 IMIN.deg                39.81:  Inc Min 
 IMND.m                4005.21:  Inc Min Depth 
 IMXD.m                3948.42:  Inc Max Depth 
 JARR.                      No:  Jarring 
 LETM.      03.05.00 01-Feb-20:  Log End Time 
 LOST.hr                     0:  Lost Rig Time 
 LSTM.      15.50.00 28-Jan-20:  Log Start Time 
 MDCL.ppm             37500.00:  Mud Chlorides 
 MDES.     Inversion Oil/Synthetic:  Mud Desc 
 DFD .sg                  1.32:  Mud Density 
 MDMN.sg                  1.32:  Dens Mud Min 
 MDMX.sg                  1.32:  Dens Mud Max 
 MOIL.                      55:  Run Mud Oil % 
 MOWR.                   70:30:  Run Mud OWR 
 MSND.                       0:  Run Mud Sand % 
 MSOL.                      17:  Run Mud Solids% 
 DFV .spqt               80.00:  Mud Viscosity 
 MWOD.in                  4.75:  MWD Tool OD 
 MWSI.                      No:  Serv Intrp, MWD 
 OTIM.hr                121.28:  Time Operating 
 PCON.           Look Like New:  Pad Condition 
 PMAX.psia             6171.00:  Press Op, Max 
 PV  .cP                 30.00:  Mud PV 
 RUN .                     300:  Run Number 
 ROPA.m/hr                5.45:  ROP Avg 
 ROPN.m/hr                3.00:  ROP Min 
 ROPX.m/hr               15.00:  ROP Max 
 RPMA.rpm               130.00:  RPM Surface Avg 
 RPMN.rpm                80.00:  RPM Surface Min 
 RPMX.rpm               140.00:  RPM Surface Max 
 RRUN.                     300:  Rig Run Number 
 RTIM.hr                 13.50:  Time Reaming 
 SAZI.deg               133.93:  Azm, Start 
 SDEP.m                3878.01:  Start Depth 
 SIDD.                      No:  Serv Intrp, DD 
 SINC.deg                40.28:  Inc, Start 
 SPPA.psig             4983.00:  SPP Avg 
 SPPN.psig             4370.00:  SPP Min 
 SPPX.psig             5300.00:  SPP Max 
 STIM.      18.33.36 27-Jan-20:  Start Time 
 SVCS.                 DD, MWD:  Services 
 SVER.                    9.20:  Sperry Version 
 TDAT.m                 169.50:  Tot Depth Attmp 
 TDDF.                      No:  Trip for DD 
 TDLG.m                 169.50:  Tot Depth Loggd 
 TFF .                      No:  Trip for Fail 
 TQAA.f-kp               13.25:  Torque Abs Avg 
 TQAN.f-kp               12.00:  Torque Abs Min 
 TQAX.f-kp               14.00:  Torque Abs Max 
 TRRT.°/30m               0.70:  Turn Rotating 
 MRT .                     ADR:  Maximum Recorded Temperature 
 TTMX.degC               92.16:  Max Tool Temp 
 VS01.       AZ90598764G12V7D4:  Virtual Str1 SN 
 VS02.         AZ90571342R12C4:  Virtual Str2 SN 
 VS03.      AZ90580010N2L2X1C4:  Virtual Str3 SN 
 VS04.        AZ90522266O7X1C4:  Virtual Str4 SN 
 VS05.           AZ90598768F11:  Virtual Str5 SN 
 VS06.     AZ90580006XZ1W1X1C4:  Virtual Str6 SN 
 WBMN.klb                 8.00:  WOB Min 
 WITN.            Peter Wilson:  Customer Rep 
 WOBA.klb                 9.88:  WOB Avg 
 WOBX.klb                10.00:  WOB Max 
 YP  .lhf2               27.00:  Yield Point 
~Curve Information Block
#MNEM.UNIT                 API CODE     Curve Description
#---------               -----------    ---------------------------
 TIME.HHMMSS            00 000 000 000:  GT Time & Date
 GTDEPTH.m              00 000 000 000:  GT Depth
 GTPQH.psia             00 000 000 000:  GT HR Quartz Pressure
 GTTQ.degC              00 000 000 000:  GT Quartz Temperature
 GTTN.NONE              00 000 000 000:  GT Test Number
 GTET.sec               00 000 000 000:  GT Elapsed Test Time
 GTTVD.m                00 000 000 000:  GT True Vertical Depth
#Other Information
#
#WARRANTY: Halliburton will use its best efforts to furnish customers with 
#accurate information and interpretations that are part of, and incident to, the services 
#provided.  However, Halliburton cannot and does not warrant the accuracy 
#or correctness of such information and interpretations.  Under no circumstances should any 
#such information or interpretation be relied upon as the sole basis for any drilling, 
#completion, production, or financial decision or any procedure involving any risk to the 
#safety of any drilling venture, drilling rig or its crew or any other third party.  The 
#Customer has full responsibility for all drilling, completion and production operation.  
#Halliburton makes no representations or warranties, either expressed or 
#implied, including, but not limited to, the implied warranties of merchantability or fitness 
#for a particular purpose, with respect to the services rendered.  In no event will 
#Halliburton be liable for failure to obtain any particular results or for 
#any damages, including, but not limited to, indirect, special or consequential damages, 
#resulting from the use of any information or interpretation provided by Halliburton.
#
~A           TIME           GTDEPTH  GTPQH  GTTQ  GTTN   GTET   GTTVD  
# ...
   04:12:48.110.01-Feb-2020 3998.51 6844.46 85.71 12.00  22.68 3011.77
   04:12:48.311.01-Feb-2020 3998.51 6859.12 85.71 12.00  22.88 3011.77
   04:12:48.512.01-Feb-2020 3998.51 6866.72 85.71 12.00  23.08 3011.77
   04:12:48.712.01-Feb-2020 3998.51 6866.72 85.71 12.00  23.28 3011.77
   04:12:48.913.01-Feb-2020 3998.51 6839.78 85.71 12.00  23.48 3011.77
   04:12:49.114.01-Feb-2020 3998.51 6845.53 85.71 12.00  23.68 3011.77
   04:12:49.315.01-Feb-2020 3998.51 6850.47 85.70 12.00  23.88 3011.77
   04:12:49.515.01-Feb-2020 3998.51 6852.59 85.70 12.00  24.08 3011.77
   04:12:49.716.01-Feb-2020 3998.51 6852.59 85.70 12.00  24.28 3011.77
   04:12:49.917.01-Feb-2020 3998.51 6853.35 85.70 12.00  24.49 3011.77
   04:12:50.117.01-Feb-2020 3998.51 6851.93 85.70 12.00  24.69 3011.77
   04:12:50.318.01-Feb-2020 3998.51 6853.43 85.70 12.00  24.89 3011.77
   04:12:50.519.01-Feb-2020 3998.51 6854.79 85.70 12.00  25.09 3011.77
   04:12:50.720.01-Feb-2020 3998.51 6854.79 85.70 12.00  25.29 3011.77
   04:12:50.920.01-Feb-2020 3998.51 6857.09 85.70 12.00  25.49 3011.77
   04:12:51.121.01-Feb-2020 3998.51 6856.50 85.70 12.00  25.69 3011.77
   04:12:51.322.01-Feb-2020 3998.51 6857.53 85.70 12.00  25.89 3011.77
   04:12:51.522.01-Feb-2020 3998.51 6858.02 85.70 12.00  26.09 3011.77
   04:12:51.723.01-Feb-2020 3998.51 6858.02 85.70 12.00  26.29 3011.77
   04:12:51.924.01-Feb-2020 3998.51 6860.01 85.70 12.00  26.49 3011.77
   04:12:52.124.01-Feb-2020 3998.51 6860.82 85.70 12.00  26.69 3011.77
   04:12:52.325.01-Feb-2020 3998.51 6697.57 85.70 12.00  26.89 3011.77
   04:12:52.526.01-Feb-2020 3998.51 5954.67 85.70 12.00  27.09 3011.77
   04:12:52.727.01-Feb-2020 3998.51 5954.67 85.70 12.00  27.30 3011.77
   04:12:52.927.01-Feb-2020 3998.51 5369.32 85.69 12.00  27.50 3011.77
   04:12:53.128.01-Feb-2020 3998.51 4834.26 85.69 12.00  27.70 3011.77
   04:12:53.329.01-Feb-2020 3998.51 4350.74 85.69 12.00  27.90 3011.77
   04:12:53.529.01-Feb-2020 3998.51 3933.17 85.69 12.00  28.10 3011.77
   04:12:53.730.01-Feb-2020 3998.51 3933.17 85.69 12.00  28.30 3011.77
   04:12:53.931.01-Feb-2020 3998.51 3245.28 85.69 12.00  28.50 3011.77
   04:12:54.131.01-Feb-2020 3998.51 3091.07 85.69 12.00  28.70 3011.77
   04:12:54.332.01-Feb-2020 3998.51 3111.03 85.69 12.00  28.90 3011.77
   04:12:54.533.01-Feb-2020 3998.51 3112.83 85.69 12.00  29.10 3011.77
   04:12:54.734.01-Feb-2020 3998.51 3112.83 85.69 12.00  29.30 3011.77
   04:12:54.934.01-Feb-2020 3998.51 3116.26 85.69 12.00  29.50 3011.77
   04:12:55.135.01-Feb-2020 3998.51 3119.80 85.68 12.00  29.70 3011.77
   04:12:55.336.01-Feb-2020 3998.51 3122.62 85.68 12.00  29.90 3011.77
   04:12:55.536.01-Feb-2020 3998.51 3117.94 85.68 12.00  30.11 3011.77
   04:12:55.737.01-Feb-2020 3998.51 3117.94 85.68 12.00  30.31 3011.77
   04:12:55.938.01-Feb-2020 3998.51 3124.69 85.68 12.00  30.51 3011.77
   04:12:56.138.01-Feb-2020 3998.51 3121.17 85.68 12.00  30.71 3011.77
   04:12:56.339.01-Feb-2020 3998.51 3131.62 85.68 12.00  30.91 3011.77
   04:12:56.540.01-Feb-2020 3998.51 3119.42 85.68 12.00  31.11 3011.77
   04:12:56.741.01-Feb-2020 3998.51 3119.42 85.68 12.00  31.31 3011.77
   04:12:56.941.01-Feb-2020 3998.51 3108.01 85.67 12.00  31.51 3011.77
   04:12:57.142.01-Feb-2020 3998.51 3106.55 85.67 12.00  31.71 3011.77
   04:12:57.343.01-Feb-2020 3998.51 3105.18 85.67 12.00  31.91 3011.77
   04:12:57.543.01-Feb-2020 3998.51 3104.75 85.67 12.00  32.11 3011.77
   04:12:57.744.01-Feb-2020 3998.51 3104.75 85.67 12.00  32.31 3011.77
   04:12:57.945.01-Feb-2020 3998.51 3103.75 85.66 12.00  32.51 3011.77
   04:12:58.145.01-Feb-2020 3998.51 3104.58 85.66 12.00  32.71 3011.77
   04:12:58.346.01-Feb-2020 3998.51 3104.70 85.66 12.00  32.92 3011.77
   04:12:58.547.01-Feb-2020 3998.51 3104.10 85.66 12.00  33.12 3011.77
   04:12:58.748.01-Feb-2020 3998.51 3104.10 85.66 12.00  33.32 3011.77
   04:12:58.948.01-Feb-2020 3998.51 3103.82 85.66 12.00  33.52 3011.77
   04:12:59.149.01-Feb-2020 3998.51 3104.04 85.65 12.00  33.72 3011.77
   04:12:59.350.01-Feb-2020 3998.51 3103.05 85.65 12.00  33.92 3011.77
   04:12:59.550.01-Feb-2020 3998.51 3103.82 85.65 12.00  34.12 3011.77
   04:12:59.751.01-Feb-2020 3998.51 3103.82 85.65 12.00  34.32 3011.77
   04:12:59.952.01-Feb-2020 3998.51 3102.57 85.65 12.00  34.52 3011.77
   04:13:00.152.01-Feb-2020 3998.51 3102.58 85.65 12.00  34.72 3011.77
   04:13:00.353.01-Feb-2020 3998.51 3102.72 85.65 12.00  34.92 3011.77
   04:13:00.554.01-Feb-2020 3998.51 3102.87 85.64 12.00  35.12 3011.77
   04:13:00.755.01-Feb-2020 3998.51 3102.87 85.64 12.00  35.32 3011.77
   04:13:00.955.01-Feb-2020 3998.51 3102.84 85.64 12.00  35.52 3011.77
   04:13:01.156.01-Feb-2020 3998.51 3103.22 85.64 12.00  35.72 3011.77
   04:13:01.357.01-Feb-2020 3998.51 3102.61 85.64 12.00  35.93 3011.77
   04:13:01.557.01-Feb-2020 3998.51 3102.05 85.64 12.00  36.13 3011.77
   04:13:01.758.01-Feb-2020 3998.51 3102.05 85.64 12.00  36.33 3011.77
   04:13:01.959.01-Feb-2020 3998.51 3128.42 85.63 12.00  36.53 3011.77
   04:13:02.160.01-Feb-2020 3998.51 3144.64 85.63 12.00  36.73 3011.77
   04:13:02.360.01-Feb-2020 3998.51 3145.55 85.63 12.00  36.93 3011.77
   04:13:02.561.01-Feb-2020 3998.51 3145.90 85.63 12.00  37.13 3011.77
   04:13:02.762.01-Feb-2020 3998.51 3145.90 85.63 12.00  37.33 3011.77
   04:13:02.962.01-Feb-2020 3998.51 3146.22 85.63 12.00  37.53 3011.77
   04:13:03.163.01-Feb-2020 3998.51 3146.59 85.63 12.00  37.73 3011.77
   04:13:03.364.01-Feb-2020 3998.51 3146.79 85.62 12.00  37.93 3011.77
   04:13:03.564.01-Feb-2020 3998.51 3146.89 85.62 12.00  38.13 3011.77
   04:13:03.765.01-Feb-2020 3998.51 3146.89 85.62 12.00  38.33 3011.77
   04:13:03.966.01-Feb-2020 3998.51 3147.14 85.62 12.00  38.53 3011.77
   04:13:04.167.01-Feb-2020 3998.51 3147.16 85.62 12.00  38.74 3011.77
   04:13:04.367.01-Feb-2020 3998.51 3147.14 85.62 12.00  38.94 3011.77
   04:13:04.568.01-Feb-2020 3998.51 3147.27 85.62 12.00  39.14 3011.77
   04:13:04.769.01-Feb-2020 3998.51 3147.27 85.62 12.00  39.34 3011.77
   04:13:04.969.01-Feb-2020 3998.51 3147.44 85.61 12.00  39.54 3011.77
   04:13:05.170.01-Feb-2020 3998.51 3147.30 85.61 12.00  39.74 3011.77
   04:13:05.371.01-Feb-2020 3998.51 3147.71 85.61 12.00  39.94 3011.77
   04:13:05.571.01-Feb-2020 3998.51 3147.49 85.61 12.00  40.14 3011.77
   04:13:05.772.01-Feb-2020 3998.51 3147.49 85.61 12.00  40.34 3011.77
   04:13:05.973.01-Feb-2020 3998.51 3147.75 85.61 12.00  40.54 3011.77
   04:13:06.174.01-Feb-2020 3998.51 3147.81 85.61 12.00  40.74 3011.77
   04:13:06.374.01-Feb-2020 3998.51 3147.82 85.61 12.00  40.94 3011.77
   04:13:06.575.01-Feb-2020 3998.51 3147.80 85.61 12.00  41.14 3011.77
   04:13:06.776.01-Feb-2020 3998.51 3147.80 85.61 12.00  41.34 3011.77
   04:13:06.976.01-Feb-2020 3998.51 3147.90 85.60 12.00  41.55 3011.77
   04:13:07.177.01-Feb-2020 3998.51 3147.91 85.60 12.00  41.75 3011.77
   04:13:07.378.01-Feb-2020 3998.51 3148.06 85.60 12.00  41.95 3011.77
   04:13:07.578.01-Feb-2020 3998.51 3147.98 85.60 12.00  42.15 3011.77
   04:13:07.779.01-Feb-2020 3998.51 3147.98 85.60 12.00  42.35 3011.77
   04:13:07.980.01-Feb-2020 3998.51 3148.07 85.60 12.00  42.55 3011.77
   04:13:08.181.01-Feb-2020 3998.51 3148.06 85.60 12.00  42.75 3011.77
   04:13:08.381.01-Feb-2020 3998.51 3148.16 85.60 12.00  42.95 3011.77
   04:13:08.582.01-Feb-2020 3998.51 3148.18 85.60 12.00  43.15 3011.77
   04:13:08.783.01-Feb-2020 3998.51 3148.18 85.60 12.00  43.35 3011.77
   04:13:08.983.01-Feb-2020 3998.51 3148.35 85.59 12.00  43.55 3011.77
   04:13:09.184.01-Feb-2020 3998.51 3148.05 85.59 12.00  43.75 3011.77
   04:13:09.385.01-Feb-2020 3998.51 3148.23 85.59 12.00  43.95 3011.77
   04:13:09.585.01-Feb-2020 3998.51 3148.30 85.59 12.00  44.15 3011.77
   04:13:09.786.01-Feb-2020 3998.51 3148.30 85.59 12.00  44.36 3011.77
   04:13:09.987.01-Feb-2020 3998.51 3148.31 85.59 12.00  44.56 3011.77
   04:13:10.188.01-Feb-2020 3998.51 3148.39 85.59 12.00  44.76 3011.77
   04:13:10.388.01-Feb-2020 3998.51 3148.27 85.59 12.00  44.96 3011.77
   04:13:10.589.01-Feb-2020 3998.51 3148.37 85.59 12.00  45.16 3011.77
