~Version Information
 VERS.                  2.0:   CWLS log ASCII Standard -VERSION 2.0
 WRAP.                   NO:   One line per depth step
~Well Information Block
#MNEM.UNIT     VALUE/NAME     DESCRIPTION
#---------     -----------    ---------------------------
 STRT.S             04:12:25 01-Feb-20: START TIME 04:12:25 01-Feb-20
 STOP.S             04:20:20 01-Feb-20: STOP TIME  04:20:20 01-Feb-20
 STEP.S                   0.00: STEP TIME
 NULL.                 -999.25: NULL VALUE
 DFWT.                        :  DIST FWL TEXT
 DFST.                        :  DIST FSL TEXT
 DMF .             Drill Floor:  DRILL MEAS FROM
 STIM.      09.30.00 26-Dec-19:  START TIME
 DATE.      08.00.00 20-Jan-20:  END TIME
 SPUD.               23-Nov-19:  SPUD DATE
 NREF.                    Grid:  NORTH REFERENCE
 HPTY.       Minimum Curvature:  HOLE POS TYPE
 DMOD.             Drill Model:  DRILL MOD DESC
 SVYD.                  Survey:  SURVEY DESC
 ILTD.               Lithology:  INTERP LTH DESC
 FTOP.          Formation Tops:  FORM TOPS DESC
 SON .        AZ-XX-0906192647:  JOB NUMBER
 WTYP.                Deviated:  WELL TYPE
 COMP.     BP Exploration (Caspian Sea) Ltd:  COMPANY
 BASE.              Azerbaijan:  LOGGING EQUIPMENT BASE LOCATION
 REGN.                 Eurasia:  REGION
 FLD .                     ACG:  FIELD NAME
 SRVC.              KCA Deutag:  CONTRACTOR
 MWDS.                    Baku:  MWD SHOP
 WELL.     A10 (Slot 20) - SCP:  WELL NAME
 JOBN.        AZ-XX-0906192647:  JOB TICKET NUMB
 RIG .                 Chirag1:  RIG NAME
 DCON.     Halliburton Sperry Drilling:  DIRECTNL CONTR
 UNIT.                     N/A:  LOGGING EQUIPMENT ID
 PDAT.          Mean Sea Level:  PERMANENT DATUM
 MDS .        Operator Entered:  MAG DATA SOURCE
 CTRY.              Azerbaijan:  COUNTRY NAME
 UWI .            /AZE00000090:  UNIQUE WELL IDENTIFIER
 API .            /AZE00000090:  API NUMBER
 CNTY.                        :  COUNTY
 PROV.                        :  PROVINCE
 STAT.                        :  STATE
 LOC .                        :  LOCATION
 LMF .             Drill Floor:  LOG MEASURED FROM
 TVDS.m                  36.60:  TVDSS CORRECTN
 LATI.deg                40.08:  LATITUDE
 LONG.deg                51.24:  LONGITUDE
 WHNS.m                  -7.94:  WELL HEAD N/S
 WHEW.m                   1.56:  WELL HEAD E/W
 UTMX.m              520429.26:  UTM X
 UTMY.m             4438973.87:  UTM Y
 DFWL.m                   0.00:  DISTANCE FWL
 DFSL.m                   0.00:  DISTANCE FSL
 SDEP.m                1455.00:  START DEPTH
 TDD .m                4047.51:  TOTAL DEPTH (DRILLER)
 VSDR.deg               112.75:  VERT SEC DIRECT
 GVFD.g                   1.00:  GRAVITY FIELD
 MFLD.nT              50261.00:  MAGNETIC FIELD
 MDIP.deg                59.52:  MAGNETIC DIP
 MDEC.deg                 6.42:  MAGNETIC DECL
 GRDC.deg                 0.17:  GRID CORRECTION
 AZTC.deg                 6.25:  AZM TOTAL CORR
 EPD .m                   0.00:  ELEVATION
 EGL .m                   0.00:  GROUND ELEVATION
 WDMS.m                 121.00:  WD ELEV
 APD .m                  36.60:  DEPTH ABOVE PD
 AGAP.m                  36.60:  AIR GAP
 VSEW.m                   1.56:  VERT SEC E/W
 VSNS.m                  -7.94:  VERT SEC N/S
 DEP .m                1140.01:  DEPTH
 EKB .m                  36.60:  KB ELEVATION
 EDF .m                  36.60:  DF ELEVATION
 TDL .m                 169.50:  TOTAL DEPTH (LOGGER)
 CSGD.m                3875.01:  CASING BOTTOM (DRILLER)
 CSGL.m                3875.01:  CASING BOTTOM (LOGGER)
 CSGS.in                  7.63:  CASING SIZE
 CSGW.lbpf               23.50:  CASING WEIGHT
 VSC .                       0:  VS TO CLOSURE
 MAGU.                 1849206:  MAGUTM CHECKSUM
~Parameter Information Block
#MNEM.UNIT       Value        Description
#---------     -----------    ---------------------------
 AV  .mps                 1.90:  Ann Velocity 
 AVMX.mps                 2.54:  Max Ann Veloc 
 AZIF.deg               137.03:  Azm, Final 
 BHAT.        Rotary Steerable:  BHA Type 
 BREV.rev             23610.00:  Rev Bit Total 
 BROT.°/30m               0.80:  Build Rotating 
 BS  .in                  6.50:  Bit Size 
 BTPL.psig              110.00:  Bit Press Loss 
 CABU.                     Yes:  Customer Abuse 
 TCS .hr                 70.51:  Time Ciculation Ended 
 CV  .mps                 1.41:  Crit Velocity 
 CVMX.mps                 1.42:  Max Crit Veloc 
 DD1 .         Intigam Rahimov:  Direct Drillr 1 
 DD2 .          Rashad Gojayev:  Direct Drillr 2 
 DDSV.               Geo-Pilot:  DD Service 
 DEFF.%                 100.00:  % Det Eff 
 DLRX.°/30m               1.44:  Dogleg Rot Max 
 DLSO.°/30m               0.00:  Dogleg Oriented 
 DLSX.°/30m               0.00:  Dogleg Str Max 
 DRET.      03.05.00 01-Feb-20:  Drill End Time 
 DRST.      15.50.00 28-Jan-20:  Drill Start Tim 
 DTIM.hr                 24.70:  Time Drilling 
 EDEP.m                4047.51:  End Depth 
 ENG1.           Eldar Hajiyev:  Engineer 1 
 ENG2.          Rasim Hashimov:  Engineer 2 
 ENG3.          Rustam Safarov:  Engineer 3 
 ETIM.      22.00.00 01-Feb-20:  End Time 
 FLOI.gpm               370.00:  Flow In 
 FLON.gpm               300.00:  Flow In Min 
 FLOS.cptm                0.00:  Fluid Loss 
 FLOX.gpm               400.00:  Flow In Max 
 FTRO.       Formation Presure:  FTWD Run Obj 
 HFLO.                      No:  High Flow 
 HPRE.                      No:  High Pressure 
 HTEM.                      No:  High Temp 
 HYDO.m                   2.50:  Hydro Offset 
 IFIN.deg                39.54:  Inc, Final 
 IMAX.deg                41.14:  Inc Max 
 IMIN.deg                39.81:  Inc Min 
 IMND.m                4005.21:  Inc Min Depth 
 IMXD.m                3948.42:  Inc Max Depth 
 JARR.                      No:  Jarring 
 LETM.      03.05.00 01-Feb-20:  Log End Time 
 LOST.hr                     0:  Lost Rig Time 
 LSTM.      15.50.00 28-Jan-20:  Log Start Time 
 MDCL.ppm             37500.00:  Mud Chlorides 
 MDES.     Inversion Oil/Synthetic:  Mud Desc 
 DFD .sg                  1.32:  Mud Density 
 MDMN.sg                  1.32:  Dens Mud Min 
 MDMX.sg                  1.32:  Dens Mud Max 
 MOIL.                      55:  Run Mud Oil % 
 MOWR.                   70:30:  Run Mud OWR 
 MSND.                       0:  Run Mud Sand % 
 MSOL.                      17:  Run Mud Solids% 
 DFV .spqt               80.00:  Mud Viscosity 
 MWOD.in                  4.75:  MWD Tool OD 
 MWSI.                      No:  Serv Intrp, MWD 
 OTIM.hr                121.28:  Time Operating 
 PCON.           Look Like New:  Pad Condition 
 PMAX.psia             6171.00:  Press Op, Max 
 PV  .cP                 30.00:  Mud PV 
 RUN .                     300:  Run Number 
 ROPA.m/hr                5.45:  ROP Avg 
 ROPN.m/hr                3.00:  ROP Min 
 ROPX.m/hr               15.00:  ROP Max 
 RPMA.rpm               130.00:  RPM Surface Avg 
 RPMN.rpm                80.00:  RPM Surface Min 
 RPMX.rpm               140.00:  RPM Surface Max 
 RRUN.                     300:  Rig Run Number 
 RTIM.hr                 13.50:  Time Reaming 
 SAZI.deg               133.93:  Azm, Start 
 SDEP.m                3878.01:  Start Depth 
 SIDD.                      No:  Serv Intrp, DD 
 SINC.deg                40.28:  Inc, Start 
 SPPA.psig             4983.00:  SPP Avg 
 SPPN.psig             4370.00:  SPP Min 
 SPPX.psig             5300.00:  SPP Max 
 STIM.      18.33.36 27-Jan-20:  Start Time 
 SVCS.                 DD, MWD:  Services 
 SVER.                    9.20:  Sperry Version 
 TDAT.m                 169.50:  Tot Depth Attmp 
 TDDF.                      No:  Trip for DD 
 TDLG.m                 169.50:  Tot Depth Loggd 
 TFF .                      No:  Trip for Fail 
 TQAA.f-kp               13.25:  Torque Abs Avg 
 TQAN.f-kp               12.00:  Torque Abs Min 
 TQAX.f-kp               14.00:  Torque Abs Max 
 TRRT.°/30m               0.70:  Turn Rotating 
 MRT .                     ADR:  Maximum Recorded Temperature 
 TTMX.degC               92.16:  Max Tool Temp 
 VS01.       AZ90598764G12V7D4:  Virtual Str1 SN 
 VS02.         AZ90571342R12C4:  Virtual Str2 SN 
 VS03.      AZ90580010N2L2X1C4:  Virtual Str3 SN 
 VS04.        AZ90522266O7X1C4:  Virtual Str4 SN 
 VS05.           AZ90598768F11:  Virtual Str5 SN 
 VS06.     AZ90580006XZ1W1X1C4:  Virtual Str6 SN 
 WBMN.klb                 8.00:  WOB Min 
 WITN.            Peter Wilson:  Customer Rep 
 WOBA.klb                 9.88:  WOB Avg 
 WOBX.klb                10.00:  WOB Max 
 YP  .lhf2               27.00:  Yield Point 
~Curve Information Block
#MNEM.UNIT                 API CODE     Curve Description
#---------               -----------    ---------------------------
 TIME.HHMMSS            00 000 000 000:  GT Time & Date
 GTDEPTH.m              00 000 000 000:  GT Depth
 GTPQH.psia             00 000 000 000:  GT HR Quartz Pressure
 GTTQ.degC              00 000 000 000:  GT Quartz Temperature
 GTTN.NONE              00 000 000 000:  GT Test Number
 GTET.sec               00 000 000 000:  GT Elapsed Test Time
 GTTVD.m                00 000 000 000:  GT True Vertical Depth
#Other Information
#
#WARRANTY: Halliburton will use its best efforts to furnish customers with 
#accurate information and interpretations that are part of, and incident to, the services 
#provided.  However, Halliburton cannot and does not warrant the accuracy 
#or correctness of such information and interpretations.  Under no circumstances should any 
#such information or interpretation be relied upon as the sole basis for any drilling, 
#completion, production, or financial decision or any procedure involving any risk to the 
#safety of any drilling venture, drilling rig or its crew or any other third party.  The 
#Customer has full responsibility for all drilling, completion and production operation.  
#Halliburton makes no representations or warranties, either expressed or 
#implied, including, but not limited to, the implied warranties of merchantability or fitness 
#for a particular purpose, with respect to the services rendered.  In no event will 
#Halliburton be liable for failure to obtain any particular results or for 
#any damages, including, but not limited to, indirect, special or consequential damages, 
#resulting from the use of any information or interpretation provided by Halliburton.
#
~A           TIME           GTDEPTH  GTPQH  GTTQ  GTTN   GTET   GTTVD  
# ...
   04:14:18.828.01-Feb-2020 3998.51 3149.36 85.36 12.00 113.40 3011.77
   04:14:19.028.01-Feb-2020 3998.51 3149.36 85.36 12.00 113.60 3011.77
   04:14:19.229.01-Feb-2020 3998.51 3149.38 85.36 12.00 113.80 3011.77
   04:14:19.430.01-Feb-2020 3998.51 3149.40 85.36 12.00 114.00 3011.77
   04:14:19.630.01-Feb-2020 3998.51 3149.26 85.36 12.00 114.20 3011.77
   04:14:19.831.01-Feb-2020 3998.51 3149.28 85.36 12.00 114.40 3011.77
   04:14:20.032.01-Feb-2020 3998.51 3149.28 85.36 12.00 114.60 3011.77
   04:14:20.232.01-Feb-2020 3998.51 3149.36 85.36 12.00 114.80 3011.77
   04:14:20.433.01-Feb-2020 3998.51 3149.37 85.36 12.00 115.00 3011.77
   04:14:20.634.01-Feb-2020 3998.51 3149.41 85.36 12.00 115.20 3011.77
   04:14:20.835.01-Feb-2020 3998.51 3149.28 85.36 12.00 115.40 3011.77
   04:14:21.035.01-Feb-2020 3998.51 3149.28 85.36 12.00 115.60 3011.77
   04:14:21.236.01-Feb-2020 3998.51 3149.36 85.36 12.00 115.80 3011.77
   04:14:21.437.01-Feb-2020 3998.51 3149.31 85.35 12.00 116.01 3011.77
   04:14:21.637.01-Feb-2020 3998.51 3149.41 85.35 12.00 116.21 3011.77
   04:14:21.838.01-Feb-2020 3998.51 3149.32 85.35 12.00 116.41 3011.77
   04:14:22.039.01-Feb-2020 3998.51 3149.32 85.35 12.00 116.61 3011.77
   04:14:22.240.01-Feb-2020 3998.51 3149.43 85.35 12.00 116.81 3011.77
   04:14:22.440.01-Feb-2020 3998.51 3149.25 85.35 12.00 117.01 3011.77
   04:14:22.641.01-Feb-2020 3998.51 3149.36 85.35 12.00 117.21 3011.77
   04:14:22.842.01-Feb-2020 3998.51 3149.39 85.35 12.00 117.41 3011.77
   04:14:23.042.01-Feb-2020 3998.51 3149.39 85.35 12.00 117.61 3011.77
   04:14:23.243.01-Feb-2020 3998.51 3148.99 85.35 12.00 117.81 3011.77
   04:14:23.444.01-Feb-2020 3998.51 3149.36 85.35 12.00 118.01 3011.77
   04:14:23.644.01-Feb-2020 3998.51 3149.33 85.35 12.00 118.21 3011.77
   04:14:23.845.01-Feb-2020 3998.51 3149.42 85.35 12.00 118.41 3011.77
   04:14:24.046.01-Feb-2020 3998.51 3149.42 85.35 12.00 118.61 3011.77
   04:14:24.247.01-Feb-2020 3998.51 3149.50 85.35 12.00 118.82 3011.77
   04:14:24.447.01-Feb-2020 3998.51 3149.41 85.35 12.00 119.02 3011.77
   04:14:24.648.01-Feb-2020 3998.51 3149.33 85.35 12.00 119.22 3011.77
   04:14:24.849.01-Feb-2020 3998.51 3149.33 85.34 12.00 119.42 3011.77
   04:14:25.049.01-Feb-2020 3998.51 3149.33 85.34 12.00 119.62 3011.77
   04:14:25.250.01-Feb-2020 3998.51 3149.21 85.34 12.00 119.82 3011.77
   04:14:25.451.01-Feb-2020 3998.51 3149.45 85.34 12.00 120.02 3011.77
   04:14:25.651.01-Feb-2020 3998.51 3149.32 85.34 12.00 120.22 3011.77
   04:14:25.852.01-Feb-2020 3998.51 3149.33 85.34 12.00 120.42 3011.77
   04:14:26.053.01-Feb-2020 3998.51 3149.33 85.34 12.00 120.62 3011.77
   04:14:26.254.01-Feb-2020 3998.51 3149.10 85.34 12.00 120.82 3011.77
   04:14:26.454.01-Feb-2020 3998.51 3149.49 85.34 12.00 121.02 3011.77
   04:14:26.655.01-Feb-2020 3998.51 3149.26 85.34 12.00 121.22 3011.77
   04:14:26.856.01-Feb-2020 3998.51 3149.33 85.34 12.00 121.42 3011.77
   04:14:27.056.01-Feb-2020 3998.51 3149.33 85.34 12.00 121.63 3011.77
   04:14:27.257.01-Feb-2020 3998.51 3149.39 85.34 12.00 121.83 3011.77
   04:14:27.458.01-Feb-2020 3998.51 3149.24 85.34 12.00 122.03 3011.77
   04:14:27.658.01-Feb-2020 3998.51 3149.29 85.34 12.00 122.23 3011.77
   04:14:27.859.01-Feb-2020 3998.51 3149.28 85.34 12.00 122.43 3011.77
   04:14:28.060.01-Feb-2020 3998.51 3149.28 85.34 12.00 122.63 3011.77
   04:14:28.261.01-Feb-2020 3998.51 3149.32 85.33 12.00 122.83 3011.77
   04:14:28.461.01-Feb-2020 3998.51 3149.40 85.33 12.00 123.03 3011.77
   04:14:28.662.01-Feb-2020 3998.51 3149.34 85.33 12.00 123.23 3011.77
   04:14:28.863.01-Feb-2020 3998.51 3149.32 85.33 12.00 123.43 3011.77
   04:14:29.063.01-Feb-2020 3998.51 3149.32 85.33 12.00 123.63 3011.77
   04:14:29.264.01-Feb-2020 3998.51 3149.36 85.33 12.00 123.83 3011.77
   04:14:29.465.01-Feb-2020 3998.51 3149.35 85.33 12.00 124.03 3011.77
   04:14:29.665.01-Feb-2020 3998.51 3149.31 85.33 12.00 124.23 3011.77
   04:14:29.866.01-Feb-2020 3998.51 3149.29 85.33 12.00 124.44 3011.77
   04:14:30.067.01-Feb-2020 3998.51 3149.29 85.33 12.00 124.64 3011.77
   04:14:30.268.01-Feb-2020 3998.51 3149.26 85.33 12.00 124.84 3011.77
   04:14:30.468.01-Feb-2020 3998.51 3149.27 85.33 12.00 125.04 3011.77
   04:14:30.669.01-Feb-2020 3998.51 3149.37 85.33 12.00 125.24 3011.77
   04:14:30.870.01-Feb-2020 3998.51 3149.28 85.33 12.00 125.44 3011.77
   04:14:31.070.01-Feb-2020 3998.51 3149.28 85.33 12.00 125.64 3011.77
   04:14:31.271.01-Feb-2020 3998.51 3149.29 85.33 12.00 125.84 3011.77
   04:14:31.472.01-Feb-2020 3998.51 3149.43 85.33 12.00 126.04 3011.77
   04:14:31.672.01-Feb-2020 3998.51 3149.36 85.32 12.00 126.24 3011.77
   04:14:31.873.01-Feb-2020 3998.51 3149.38 85.32 12.00 126.44 3011.77
   04:14:32.074.01-Feb-2020 3998.51 3149.38 85.32 12.00 126.64 3011.77
   04:14:32.275.01-Feb-2020 3998.51 3149.35 85.32 12.00 126.84 3011.77
   04:14:32.475.01-Feb-2020 3998.51 3149.32 85.32 12.00 127.04 3011.77
   04:14:32.676.01-Feb-2020 3998.51 3149.29 85.32 12.00 127.24 3011.77
   04:14:32.877.01-Feb-2020 3998.51 3149.38 85.32 12.00 127.45 3011.77
   04:14:33.077.01-Feb-2020 3998.51 3149.38 85.32 12.00 127.65 3011.77
   04:14:33.278.01-Feb-2020 3998.51 3149.32 85.32 12.00 127.85 3011.77
   04:14:33.479.01-Feb-2020 3998.51 3149.37 85.32 12.00 128.05 3011.77
   04:14:33.680.01-Feb-2020 3998.51 3149.24 85.32 12.00 128.25 3011.77
   04:14:33.880.01-Feb-2020 3998.51 3149.29 85.32 12.00 128.45 3011.77
   04:14:34.081.01-Feb-2020 3998.51 3149.29 85.32 12.00 128.65 3011.77
   04:14:34.282.01-Feb-2020 3998.51 3149.23 85.32 12.00 128.85 3011.77
   04:14:34.482.01-Feb-2020 3998.51 3149.32 85.32 12.00 129.05 3011.77
   04:14:34.683.01-Feb-2020 3998.51 3149.25 85.32 12.00 129.25 3011.77
   04:14:34.884.01-Feb-2020 3998.51 3149.23 85.32 12.00 129.45 3011.77
   04:14:35.084.01-Feb-2020 3998.51 3149.23 85.32 12.00 129.65 3011.77
   04:14:35.285.01-Feb-2020 3998.51 3149.46 85.32 12.00 129.85 3011.77
   04:14:35.486.01-Feb-2020 3998.51 3149.27 85.31 12.00 130.05 3011.77
   04:14:35.687.01-Feb-2020 3998.51 3149.31 85.31 12.00 130.26 3011.77
   04:14:35.887.01-Feb-2020 3998.51 3149.18 85.31 12.00 130.46 3011.77
   04:14:36.088.01-Feb-2020 3998.51 3149.18 85.31 12.00 130.66 3011.77
   04:14:36.289.01-Feb-2020 3998.51 3149.37 85.31 12.00 130.86 3011.77
   04:14:36.489.01-Feb-2020 3998.51 3148.98 85.31 12.00 131.06 3011.77
   04:14:36.690.01-Feb-2020 3998.51 3149.50 85.31 12.00 131.26 3011.77
   04:14:36.891.01-Feb-2020 3998.51 3149.31 85.31 12.00 131.46 3011.77
   04:14:37.091.01-Feb-2020 3998.51 3149.31 85.31 12.00 131.66 3011.77
   04:14:37.292.01-Feb-2020 3998.51 3149.36 85.31 12.00 131.86 3011.77
   04:14:37.493.01-Feb-2020 3998.51 3149.25 85.31 12.00 132.06 3011.77
   04:14:37.694.01-Feb-2020 3998.51 3149.38 85.31 12.00 132.26 3011.77
   04:14:37.894.01-Feb-2020 3998.51 3149.16 85.31 12.00 132.46 3011.77
   04:14:38.095.01-Feb-2020 3998.51 3149.16 85.31 12.00 132.66 3011.77
   04:14:38.296.01-Feb-2020 3998.51 3149.41 85.31 12.00 132.86 3011.77
   04:14:38.496.01-Feb-2020 3998.51 3149.32 85.31 12.00 133.07 3011.77
   04:14:38.697.01-Feb-2020 3998.51 3149.31 85.30 12.00 133.27 3011.77
   04:14:38.898.01-Feb-2020 3998.51 3149.36 85.30 12.00 133.47 3011.77
   04:14:39.098.01-Feb-2020 3998.51 3149.36 85.30 12.00 133.67 3011.77
   04:14:39.299.01-Feb-2020 3998.51 3146.69 85.30 12.00 133.87 3011.77
   04:14:39.500.01-Feb-2020 3998.51 3149.41 85.30 12.00 134.07 3011.77
   04:14:39.701.01-Feb-2020 3998.51 3149.35 85.30 12.00 134.27 3011.77
   04:14:39.901.01-Feb-2020 3998.51 3149.37 85.30 12.00 134.47 3011.77
   04:14:40.102.01-Feb-2020 3998.51 3149.37 85.30 12.00 134.67 3011.77
   04:14:40.303.01-Feb-2020 3998.51 3149.30 85.30 12.00 134.87 3011.77
   04:14:40.503.01-Feb-2020 3998.51 3149.31 85.30 12.00 135.07 3011.77
   04:14:40.704.01-Feb-2020 3998.51 3149.29 85.30 12.00 135.27 3011.77
   04:14:40.905.01-Feb-2020 3998.51 3149.29 85.30 12.00 135.47 3011.77
   04:14:41.105.01-Feb-2020 3998.51 3149.29 85.30 12.00 135.67 3011.77
   04:14:41.306.01-Feb-2020 3998.51 3149.28 85.30 12.00 135.88 3011.77
