~Version Information
 VERS.                  2.0:   CWLS log ASCII Standard -VERSION 2.0
 WRAP.                   NO:   One line per depth step
~Well Information Block
#MNEM.UNIT     VALUE/NAME     DESCRIPTION
#---------     -----------    ---------------------------
 STRT.S             00:13:57 01-Feb-20: START TIME 00:13:57 01-Feb-20
 STOP.S             00:20:28 01-Feb-20: STOP TIME  00:20:28 01-Feb-20
 STEP.S                   0.00: STEP TIME
 NULL.                 -999.25: NULL VALUE
 DFWT.                        :  DIST FWL TEXT
 DFST.                        :  DIST FSL TEXT
 DMF .             Drill Floor:  DRILL MEAS FROM
 STIM.      09.30.00 26-Dec-19:  START TIME
 DATE.      08.00.00 20-Jan-20:  END TIME
 SPUD.               23-Nov-19:  SPUD DATE
 NREF.                    Grid:  NORTH REFERENCE
 HPTY.       Minimum Curvature:  HOLE POS TYPE
 DMOD.             Drill Model:  DRILL MOD DESC
 SVYD.                  Survey:  SURVEY DESC
 ILTD.               Lithology:  INTERP LTH DESC
 FTOP.          Formation Tops:  FORM TOPS DESC
 SON .        AZ-XX-0906192647:  JOB NUMBER
 WTYP.                Deviated:  WELL TYPE
 COMP.     BP Exploration (Caspian Sea) Ltd:  COMPANY
 BASE.              Azerbaijan:  LOGGING EQUIPMENT BASE LOCATION
 REGN.                 Eurasia:  REGION
 FLD .                     ACG:  FIELD NAME
 SRVC.              KCA Deutag:  CONTRACTOR
 MWDS.                    Baku:  MWD SHOP
 WELL.     A10 (Slot 20) - SCP:  WELL NAME
 JOBN.        AZ-XX-0906192647:  JOB TICKET NUMB
 RIG .                 Chirag1:  RIG NAME
 DCON.     Halliburton Sperry Drilling:  DIRECTNL CONTR
 UNIT.                     N/A:  LOGGING EQUIPMENT ID
 PDAT.          Mean Sea Level:  PERMANENT DATUM
 MDS .        Operator Entered:  MAG DATA SOURCE
 CTRY.              Azerbaijan:  COUNTRY NAME
 UWI .            /AZE00000090:  UNIQUE WELL IDENTIFIER
 API .            /AZE00000090:  API NUMBER
 CNTY.                        :  COUNTY
 PROV.                        :  PROVINCE
 STAT.                        :  STATE
 LOC .                        :  LOCATION
 LMF .             Drill Floor:  LOG MEASURED FROM
 TVDS.m                  36.60:  TVDSS CORRECTN
 LATI.deg                40.08:  LATITUDE
 LONG.deg                51.24:  LONGITUDE
 WHNS.m                  -7.94:  WELL HEAD N/S
 WHEW.m                   1.56:  WELL HEAD E/W
 UTMX.m              520429.26:  UTM X
 UTMY.m             4438973.87:  UTM Y
 DFWL.m                   0.00:  DISTANCE FWL
 DFSL.m                   0.00:  DISTANCE FSL
 SDEP.m                1455.00:  START DEPTH
 TDD .m                4047.51:  TOTAL DEPTH (DRILLER)
 VSDR.deg               112.75:  VERT SEC DIRECT
 GVFD.g                   1.00:  GRAVITY FIELD
 MFLD.nT              50261.00:  MAGNETIC FIELD
 MDIP.deg                59.52:  MAGNETIC DIP
 MDEC.deg                 6.42:  MAGNETIC DECL
 GRDC.deg                 0.17:  GRID CORRECTION
 AZTC.deg                 6.25:  AZM TOTAL CORR
 EPD .m                   0.00:  ELEVATION
 EGL .m                   0.00:  GROUND ELEVATION
 WDMS.m                 121.00:  WD ELEV
 APD .m                  36.60:  DEPTH ABOVE PD
 AGAP.m                  36.60:  AIR GAP
 VSEW.m                   1.56:  VERT SEC E/W
 VSNS.m                  -7.94:  VERT SEC N/S
 DEP .m                1140.01:  DEPTH
 EKB .m                  36.60:  KB ELEVATION
 EDF .m                  36.60:  DF ELEVATION
 TDL .m                 169.50:  TOTAL DEPTH (LOGGER)
 CSGD.m                3875.01:  CASING BOTTOM (DRILLER)
 CSGL.m                3875.01:  CASING BOTTOM (LOGGER)
 CSGS.in                  7.63:  CASING SIZE
 CSGW.lbpf               23.50:  CASING WEIGHT
 VSC .                       0:  VS TO CLOSURE
 MAGU.                 1849206:  MAGUTM CHECKSUM
~Parameter Information Block
#MNEM.UNIT       Value        Description
#---------     -----------    ---------------------------
 AV  .mps                 1.90:  Ann Velocity 
 AVMX.mps                 2.54:  Max Ann Veloc 
 AZIF.deg               137.03:  Azm, Final 
 BHAT.        Rotary Steerable:  BHA Type 
 BREV.rev             23610.00:  Rev Bit Total 
 BROT.°/30m               0.80:  Build Rotating 
 BS  .in                  6.50:  Bit Size 
 BTPL.psig              110.00:  Bit Press Loss 
 CABU.                     Yes:  Customer Abuse 
 TCS .hr                 70.51:  Time Ciculation Ended 
 CV  .mps                 1.41:  Crit Velocity 
 CVMX.mps                 1.42:  Max Crit Veloc 
 DD1 .         Intigam Rahimov:  Direct Drillr 1 
 DD2 .          Rashad Gojayev:  Direct Drillr 2 
 DDSV.               Geo-Pilot:  DD Service 
 DEFF.%                 100.00:  % Det Eff 
 DLRX.°/30m               1.44:  Dogleg Rot Max 
 DLSO.°/30m               0.00:  Dogleg Oriented 
 DLSX.°/30m               0.00:  Dogleg Str Max 
 DRET.      03.05.00 01-Feb-20:  Drill End Time 
 DRST.      15.50.00 28-Jan-20:  Drill Start Tim 
 DTIM.hr                 24.70:  Time Drilling 
 EDEP.m                4047.51:  End Depth 
 ENG1.           Eldar Hajiyev:  Engineer 1 
 ENG2.          Rasim Hashimov:  Engineer 2 
 ENG3.          Rustam Safarov:  Engineer 3 
 ETIM.      22.00.00 01-Feb-20:  End Time 
 FLOI.gpm               370.00:  Flow In 
 FLON.gpm               300.00:  Flow In Min 
 FLOS.cptm                0.00:  Fluid Loss 
 FLOX.gpm               400.00:  Flow In Max 
 FTRO.       Formation Presure:  FTWD Run Obj 
 HFLO.                      No:  High Flow 
 HPRE.                      No:  High Pressure 
 HTEM.                      No:  High Temp 
 HYDO.m                   2.50:  Hydro Offset 
 IFIN.deg                39.54:  Inc, Final 
 IMAX.deg                41.14:  Inc Max 
 IMIN.deg                39.81:  Inc Min 
 IMND.m                4005.21:  Inc Min Depth 
 IMXD.m                3948.42:  Inc Max Depth 
 JARR.                      No:  Jarring 
 LETM.      03.05.00 01-Feb-20:  Log End Time 
 LOST.hr                     0:  Lost Rig Time 
 LSTM.      15.50.00 28-Jan-20:  Log Start Time 
 MDCL.ppm             37500.00:  Mud Chlorides 
 MDES.     Inversion Oil/Synthetic:  Mud Desc 
 DFD .sg                  1.32:  Mud Density 
 MDMN.sg                  1.32:  Dens Mud Min 
 MDMX.sg                  1.32:  Dens Mud Max 
 MOIL.                      55:  Run Mud Oil % 
 MOWR.                   70:30:  Run Mud OWR 
 MSND.                       0:  Run Mud Sand % 
 MSOL.                      17:  Run Mud Solids% 
 DFV .spqt               80.00:  Mud Viscosity 
 MWOD.in                  4.75:  MWD Tool OD 
 MWSI.                      No:  Serv Intrp, MWD 
 OTIM.hr                121.28:  Time Operating 
 PCON.           Look Like New:  Pad Condition 
 PMAX.psia             6171.00:  Press Op, Max 
 PV  .cP                 30.00:  Mud PV 
 RUN .                     300:  Run Number 
 ROPA.m/hr                5.45:  ROP Avg 
 ROPN.m/hr                3.00:  ROP Min 
 ROPX.m/hr               15.00:  ROP Max 
 RPMA.rpm               130.00:  RPM Surface Avg 
 RPMN.rpm                80.00:  RPM Surface Min 
 RPMX.rpm               140.00:  RPM Surface Max 
 RRUN.                     300:  Rig Run Number 
 RTIM.hr                 13.50:  Time Reaming 
 SAZI.deg               133.93:  Azm, Start 
 SDEP.m                3878.01:  Start Depth 
 SIDD.                      No:  Serv Intrp, DD 
 SINC.deg                40.28:  Inc, Start 
 SPPA.psig             4983.00:  SPP Avg 
 SPPN.psig             4370.00:  SPP Min 
 SPPX.psig             5300.00:  SPP Max 
 STIM.      18.33.36 27-Jan-20:  Start Time 
 SVCS.                 DD, MWD:  Services 
 SVER.                    9.20:  Sperry Version 
 TDAT.m                 169.50:  Tot Depth Attmp 
 TDDF.                      No:  Trip for DD 
 TDLG.m                 169.50:  Tot Depth Loggd 
 TFF .                      No:  Trip for Fail 
 TQAA.f-kp               13.25:  Torque Abs Avg 
 TQAN.f-kp               12.00:  Torque Abs Min 
 TQAX.f-kp               14.00:  Torque Abs Max 
 TRRT.°/30m               0.70:  Turn Rotating 
 MRT .                     ADR:  Maximum Recorded Temperature 
 TTMX.degC               92.16:  Max Tool Temp 
 VS01.       AZ90598764G12V7D4:  Virtual Str1 SN 
 VS02.         AZ90571342R12C4:  Virtual Str2 SN 
 VS03.      AZ90580010N2L2X1C4:  Virtual Str3 SN 
 VS04.        AZ90522266O7X1C4:  Virtual Str4 SN 
 VS05.           AZ90598768F11:  Virtual Str5 SN 
 VS06.     AZ90580006XZ1W1X1C4:  Virtual Str6 SN 
 WBMN.klb                 8.00:  WOB Min 
 WITN.            Peter Wilson:  Customer Rep 
 WOBA.klb                 9.88:  WOB Avg 
 WOBX.klb                10.00:  WOB Max 
 YP  .lhf2               27.00:  Yield Point 
~Curve Information Block
#MNEM.UNIT                 API CODE     Curve Description
#---------               -----------    ---------------------------
 TIME.HHMMSS            00 000 000 000:  GT Time & Date
 GTDEPTH.m              00 000 000 000:  GT Depth
 GTPQH.psia             00 000 000 000:  GT HR Quartz Pressure
 GTTQ.degC              00 000 000 000:  GT Quartz Temperature
 GTTN.NONE              00 000 000 000:  GT Test Number
 GTET.sec               00 000 000 000:  GT Elapsed Test Time
 GTTVD.m                00 000 000 000:  GT True Vertical Depth
#Other Information
#
#WARRANTY: Halliburton will use its best efforts to furnish customers with 
#accurate information and interpretations that are part of, and incident to, the services 
#provided.  However, Halliburton cannot and does not warrant the accuracy 
#or correctness of such information and interpretations.  Under no circumstances should any 
#such information or interpretation be relied upon as the sole basis for any drilling, 
#completion, production, or financial decision or any procedure involving any risk to the 
#safety of any drilling venture, drilling rig or its crew or any other third party.  The 
#Customer has full responsibility for all drilling, completion and production operation.  
#Halliburton makes no representations or warranties, either expressed or 
#implied, including, but not limited to, the implied warranties of merchantability or fitness 
#for a particular purpose, with respect to the services rendered.  In no event will 
#Halliburton be liable for failure to obtain any particular results or for 
#any damages, including, but not limited to, indirect, special or consequential damages, 
#resulting from the use of any information or interpretation provided by Halliburton.
#
~A           TIME           GTDEPTH  GTPQH  GTTQ  GTTN   GTET   GTTVD  
# ...
   00:15:05.514.01-Feb-2020 3989.40 3219.29 87.38 10.00  67.81 3004.80
   00:15:05.714.01-Feb-2020 3989.40 3219.54 87.38 10.00  68.01 3004.80
   00:15:05.914.01-Feb-2020 3989.40 3219.54 87.38 10.00  68.21 3004.80
   00:15:06.114.01-Feb-2020 3989.40 3219.83 87.37 10.00  68.41 3004.80
   00:15:06.314.01-Feb-2020 3989.40 3219.92 87.37 10.00  68.61 3004.80
   00:15:06.514.01-Feb-2020 3989.40 3219.98 87.37 10.00  68.81 3004.80
   00:15:06.714.01-Feb-2020 3989.40 3219.96 87.37 10.00  69.01 3004.80
   00:15:06.914.01-Feb-2020 3989.40 3219.96 87.37 10.00  69.21 3004.80
   00:15:07.114.01-Feb-2020 3989.40 3219.98 87.37 10.00  69.41 3004.80
   00:15:07.314.01-Feb-2020 3989.40 3220.01 87.37 10.00  69.61 3004.80
   00:15:07.514.01-Feb-2020 3989.40 3220.01 87.37 10.00  69.81 3004.80
   00:15:07.714.01-Feb-2020 3989.40 3220.08 87.37 10.00  70.01 3004.80
   00:15:07.914.01-Feb-2020 3989.40 3220.08 87.37 10.00  70.21 3004.80
   00:15:08.114.01-Feb-2020 3989.40 3220.07 87.37 10.00  70.41 3004.80
   00:15:08.314.01-Feb-2020 3989.40 3220.05 87.37 10.00  70.61 3004.80
   00:15:08.514.01-Feb-2020 3989.40 3220.14 87.36 10.00  70.81 3004.80
   00:15:08.714.01-Feb-2020 3989.40 3220.20 87.36 10.00  71.01 3004.80
   00:15:08.914.01-Feb-2020 3989.40 3220.20 87.36 10.00  71.21 3004.80
   00:15:09.114.01-Feb-2020 3989.40 3220.05 87.36 10.00  71.41 3004.80
   00:15:09.314.01-Feb-2020 3989.40 3220.16 87.36 10.00  71.61 3004.80
   00:15:09.514.01-Feb-2020 3989.40 3220.13 87.36 10.00  71.81 3004.80
   00:15:09.714.01-Feb-2020 3989.40 3220.30 87.36 10.00  72.01 3004.80
   00:15:09.914.01-Feb-2020 3989.40 3220.30 87.36 10.00  72.21 3004.80
   00:15:10.114.01-Feb-2020 3989.40 3220.30 87.36 10.00  72.41 3004.80
   00:15:10.314.01-Feb-2020 3989.40 3220.38 87.36 10.00  72.61 3004.80
   00:15:10.514.01-Feb-2020 3989.40 3220.35 87.36 10.00  72.81 3004.80
   00:15:10.714.01-Feb-2020 3989.40 3220.36 87.36 10.00  73.01 3004.80
   00:15:10.914.01-Feb-2020 3989.40 3220.36 87.36 10.00  73.21 3004.80
   00:15:11.114.01-Feb-2020 3989.40 3220.41 87.36 10.00  73.41 3004.80
   00:15:11.314.01-Feb-2020 3989.40 3220.38 87.35 10.00  73.61 3004.80
   00:15:11.514.01-Feb-2020 3989.40 3220.46 87.35 10.00  73.81 3004.80
   00:15:11.714.01-Feb-2020 3989.40 3220.43 87.35 10.00  74.01 3004.80
   00:15:11.914.01-Feb-2020 3989.40 3220.43 87.35 10.00  74.21 3004.80
   00:15:12.114.01-Feb-2020 3989.40 3220.53 87.35 10.00  74.41 3004.80
   00:15:12.314.01-Feb-2020 3989.40 3220.63 87.35 10.00  74.61 3004.80
   00:15:12.514.01-Feb-2020 3989.40 3220.31 87.35 10.00  74.81 3004.80
   00:15:12.714.01-Feb-2020 3989.40 3220.52 87.35 10.00  75.01 3004.80
   00:15:12.915.01-Feb-2020 3989.40 3220.52 87.35 10.00  75.21 3004.80
   00:15:13.115.01-Feb-2020 3989.40 3220.64 87.35 10.00  75.41 3004.80
   00:15:13.315.01-Feb-2020 3989.40 3220.74 87.35 10.00  75.61 3004.80
   00:15:13.515.01-Feb-2020 3989.40 3220.33 87.35 10.00  75.81 3004.80
   00:15:13.715.01-Feb-2020 3989.40 3220.65 87.34 10.00  76.01 3004.80
   00:15:13.915.01-Feb-2020 3989.40 3220.65 87.34 10.00  76.21 3004.80
   00:15:14.115.01-Feb-2020 3989.40 3220.77 87.34 10.00  76.41 3004.80
   00:15:14.315.01-Feb-2020 3989.40 3220.84 87.34 10.00  76.61 3004.80
   00:15:14.515.01-Feb-2020 3989.40 3220.89 87.34 10.00  76.81 3004.80
   00:15:14.715.01-Feb-2020 3989.40 3220.55 87.34 10.00  77.01 3004.80
   00:15:14.915.01-Feb-2020 3989.40 3220.55 87.34 10.00  77.21 3004.80
   00:15:15.115.01-Feb-2020 3989.40 3220.71 87.34 10.00  77.41 3004.80
   00:15:15.315.01-Feb-2020 3989.40 3220.89 87.34 10.00  77.61 3004.80
   00:15:15.515.01-Feb-2020 3989.40 3220.92 87.34 10.00  77.81 3004.80
   00:15:15.715.01-Feb-2020 3989.40 3220.60 87.34 10.00  78.01 3004.80
   00:15:15.915.01-Feb-2020 3989.40 3220.60 87.34 10.00  78.21 3004.80
   00:15:16.115.01-Feb-2020 3989.40 3220.70 87.34 10.00  78.41 3004.80
   00:15:16.315.01-Feb-2020 3989.40 3220.88 87.33 10.00  78.61 3004.80
   00:15:16.515.01-Feb-2020 3989.40 3220.91 87.33 10.00  78.81 3004.80
   00:15:16.715.01-Feb-2020 3989.40 3221.04 87.33 10.00  79.01 3004.80
   00:15:16.915.01-Feb-2020 3989.40 3221.04 87.33 10.00  79.21 3004.80
   00:15:17.115.01-Feb-2020 3989.40 3220.86 87.33 10.00  79.41 3004.80
   00:15:17.315.01-Feb-2020 3989.40 3220.86 87.33 10.00  79.61 3004.80
   00:15:17.515.01-Feb-2020 3989.40 3221.00 87.33 10.00  79.81 3004.80
   00:15:17.715.01-Feb-2020 3989.40 3221.07 87.33 10.00  80.01 3004.80
   00:15:17.915.01-Feb-2020 3989.40 3221.07 87.33 10.00  80.21 3004.80
   00:15:18.115.01-Feb-2020 3989.40 3221.15 87.33 10.00  80.41 3004.80
   00:15:18.315.01-Feb-2020 3989.40 3221.07 87.33 10.00  80.61 3004.80
   00:15:18.515.01-Feb-2020 3989.40 3221.11 87.33 10.00  80.81 3004.80
   00:15:18.715.01-Feb-2020 3989.40 3221.16 87.33 10.00  81.01 3004.80
   00:15:18.915.01-Feb-2020 3989.40 3221.16 87.33 10.00  81.21 3004.80
   00:15:19.115.01-Feb-2020 3989.40 3221.20 87.33 10.00  81.41 3004.80
   00:15:19.315.01-Feb-2020 3989.40 3221.14 87.32 10.00  81.61 3004.80
   00:15:19.515.01-Feb-2020 3989.40 3221.10 87.32 10.00  81.81 3004.80
   00:15:19.715.01-Feb-2020 3989.40 3221.15 87.32 10.00  82.01 3004.80
   00:15:19.915.01-Feb-2020 3989.40 3221.15 87.32 10.00  82.21 3004.80
   00:15:20.115.01-Feb-2020 3989.40 3221.21 87.32 10.00  82.41 3004.80
   00:15:20.315.01-Feb-2020 3989.40 3221.23 87.32 10.00  82.61 3004.80
   00:15:20.515.01-Feb-2020 3989.40 3221.12 87.32 10.00  82.81 3004.80
   00:15:20.715.01-Feb-2020 3989.40 3221.07 87.32 10.00  83.01 3004.80
   00:15:20.915.01-Feb-2020 3989.40 3221.07 87.32 10.00  83.21 3004.80
   00:15:21.115.01-Feb-2020 3989.40 3221.18 87.32 10.00  83.41 3004.80
   00:15:21.315.01-Feb-2020 3989.40 3221.28 87.32 10.00  83.61 3004.80
   00:15:21.515.01-Feb-2020 3989.40 3221.30 87.32 10.00  83.81 3004.80
   00:15:21.715.01-Feb-2020 3989.40 3221.30 87.31 10.00  84.01 3004.80
   00:15:21.915.01-Feb-2020 3989.40 3221.30 87.31 10.00  84.21 3004.80
   00:15:22.115.01-Feb-2020 3989.40 3221.31 87.31 10.00  84.41 3004.80
   00:15:22.315.01-Feb-2020 3989.40 3221.37 87.31 10.00  84.61 3004.80
   00:15:22.515.01-Feb-2020 3989.40 3221.43 87.31 10.00  84.81 3004.80
   00:15:22.715.01-Feb-2020 3989.40 3221.36 87.31 10.00  85.01 3004.80
   00:15:22.915.01-Feb-2020 3989.40 3221.36 87.31 10.00  85.21 3004.80
   00:15:23.115.01-Feb-2020 3989.40 3221.37 87.31 10.00  85.41 3004.80
   00:15:23.315.01-Feb-2020 3989.40 3221.33 87.31 10.00  85.61 3004.80
   00:15:23.515.01-Feb-2020 3989.40 3221.38 87.31 10.00  85.81 3004.80
   00:15:23.715.01-Feb-2020 3989.40 3221.54 87.31 10.00  86.01 3004.80
   00:15:23.915.01-Feb-2020 3989.40 3221.54 87.31 10.00  86.21 3004.80
   00:15:24.115.01-Feb-2020 3989.40 3221.36 87.31 10.00  86.41 3004.80
   00:15:24.316.01-Feb-2020 3989.40 3221.47 87.31 10.00  86.61 3004.80
   00:15:24.516.01-Feb-2020 3989.40 3221.52 87.30 10.00  86.81 3004.80
   00:15:24.716.01-Feb-2020 3989.40 3221.68 87.30 10.00  87.01 3004.80
   00:15:24.916.01-Feb-2020 3989.40 3221.68 87.30 10.00  87.21 3004.80
   00:15:25.116.01-Feb-2020 3989.40 3221.49 87.30 10.00  87.41 3004.80
   00:15:25.316.01-Feb-2020 3989.40 3221.56 87.30 10.00  87.61 3004.80
   00:15:25.516.01-Feb-2020 3989.40 3221.62 87.30 10.00  87.81 3004.80
   00:15:25.716.01-Feb-2020 3989.40 3221.65 87.30 10.00  88.01 3004.80
   00:15:25.916.01-Feb-2020 3989.40 3221.65 87.30 10.00  88.21 3004.80
   00:15:26.116.01-Feb-2020 3989.40 3221.34 87.30 10.00  88.41 3004.80
   00:15:26.316.01-Feb-2020 3989.40 3221.52 87.30 10.00  88.61 3004.80
   00:15:26.516.01-Feb-2020 3989.40 3221.56 87.30 10.00  88.81 3004.80
   00:15:26.716.01-Feb-2020 3989.40 3221.54 87.30 10.00  89.01 3004.80
   00:15:26.916.01-Feb-2020 3989.40 3221.54 87.30 10.00  89.21 3004.80
   00:15:27.116.01-Feb-2020 3989.40 3221.71 87.30 10.00  89.41 3004.80
   00:15:27.316.01-Feb-2020 3989.40 3221.47 87.29 10.00  89.61 3004.80
   00:15:27.516.01-Feb-2020 3989.40 3221.56 87.29 10.00  89.81 3004.80
   00:15:27.716.01-Feb-2020 3989.40 3221.61 87.29 10.00  90.01 3004.80
   00:15:27.916.01-Feb-2020 3989.40 3221.61 87.29 10.00  90.21 3004.80
