~Version Information
 VERS.                  2.0:   CWLS log ASCII Standard -VERSION 2.0
 WRAP.                   NO:   One line per depth step
~Well Information Block
#MNEM.UNIT     VALUE/NAME     DESCRIPTION
#---------     -----------    ---------------------------
 STRT.S             09:13:27 31-Jan-20: START TIME 09:13:27 31-Jan-20
 STOP.S             09:19:57 31-Jan-20: STOP TIME  09:19:57 31-Jan-20
 STEP.S                   0.00: STEP TIME
 NULL.                 -999.25: NULL VALUE
 DFWT.                        :  DIST FWL TEXT
 DFST.                        :  DIST FSL TEXT
 DMF .             Drill Floor:  DRILL MEAS FROM
 STIM.      09.30.00 26-Dec-19:  START TIME
 DATE.      08.00.00 20-Jan-20:  END TIME
 SPUD.               23-Nov-19:  SPUD DATE
 NREF.                    Grid:  NORTH REFERENCE
 HPTY.       Minimum Curvature:  HOLE POS TYPE
 DMOD.             Drill Model:  DRILL MOD DESC
 SVYD.                  Survey:  SURVEY DESC
 ILTD.               Lithology:  INTERP LTH DESC
 FTOP.          Formation Tops:  FORM TOPS DESC
 SON .        AZ-XX-0906192647:  JOB NUMBER
 WTYP.                Deviated:  WELL TYPE
 COMP.     BP Exploration (Caspian Sea) Ltd:  COMPANY
 BASE.              Azerbaijan:  LOGGING EQUIPMENT BASE LOCATION
 REGN.                 Eurasia:  REGION
 FLD .                     ACG:  FIELD NAME
 SRVC.              KCA Deutag:  CONTRACTOR
 MWDS.                    Baku:  MWD SHOP
 WELL.     A10 (Slot 20) - SCP:  WELL NAME
 JOBN.        AZ-XX-0906192647:  JOB TICKET NUMB
 RIG .                 Chirag1:  RIG NAME
 DCON.     Halliburton Sperry Drilling:  DIRECTNL CONTR
 UNIT.                     N/A:  LOGGING EQUIPMENT ID
 PDAT.          Mean Sea Level:  PERMANENT DATUM
 MDS .        Operator Entered:  MAG DATA SOURCE
 CTRY.              Azerbaijan:  COUNTRY NAME
 UWI .            /AZE00000090:  UNIQUE WELL IDENTIFIER
 API .            /AZE00000090:  API NUMBER
 CNTY.                        :  COUNTY
 PROV.                        :  PROVINCE
 STAT.                        :  STATE
 LOC .                        :  LOCATION
 LMF .             Drill Floor:  LOG MEASURED FROM
 TVDS.m                  36.60:  TVDSS CORRECTN
 LATI.deg                40.08:  LATITUDE
 LONG.deg                51.24:  LONGITUDE
 WHNS.m                  -7.94:  WELL HEAD N/S
 WHEW.m                   1.56:  WELL HEAD E/W
 UTMX.m              520429.26:  UTM X
 UTMY.m             4438973.87:  UTM Y
 DFWL.m                   0.00:  DISTANCE FWL
 DFSL.m                   0.00:  DISTANCE FSL
 SDEP.m                1455.00:  START DEPTH
 TDD .m                4047.51:  TOTAL DEPTH (DRILLER)
 VSDR.deg               112.75:  VERT SEC DIRECT
 GVFD.g                   1.00:  GRAVITY FIELD
 MFLD.nT              50261.00:  MAGNETIC FIELD
 MDIP.deg                59.52:  MAGNETIC DIP
 MDEC.deg                 6.42:  MAGNETIC DECL
 GRDC.deg                 0.17:  GRID CORRECTION
 AZTC.deg                 6.25:  AZM TOTAL CORR
 EPD .m                   0.00:  ELEVATION
 EGL .m                   0.00:  GROUND ELEVATION
 WDMS.m                 121.00:  WD ELEV
 APD .m                  36.60:  DEPTH ABOVE PD
 AGAP.m                  36.60:  AIR GAP
 VSEW.m                   1.56:  VERT SEC E/W
 VSNS.m                  -7.94:  VERT SEC N/S
 DEP .m                1140.01:  DEPTH
 EKB .m                  36.60:  KB ELEVATION
 EDF .m                  36.60:  DF ELEVATION
 TDL .m                 169.50:  TOTAL DEPTH (LOGGER)
 CSGD.m                3875.01:  CASING BOTTOM (DRILLER)
 CSGL.m                3875.01:  CASING BOTTOM (LOGGER)
 CSGS.in                  7.63:  CASING SIZE
 CSGW.lbpf               23.50:  CASING WEIGHT
 VSC .                       0:  VS TO CLOSURE
 MAGU.                 1849206:  MAGUTM CHECKSUM
~Parameter Information Block
#MNEM.UNIT       Value        Description
#---------     -----------    ---------------------------
 AV  .mps                 1.90:  Ann Velocity 
 AVMX.mps                 2.54:  Max Ann Veloc 
 AZIF.deg               137.03:  Azm, Final 
 BHAT.        Rotary Steerable:  BHA Type 
 BREV.rev             23610.00:  Rev Bit Total 
 BROT.°/30m               0.80:  Build Rotating 
 BS  .in                  6.50:  Bit Size 
 BTPL.psig              110.00:  Bit Press Loss 
 CABU.                     Yes:  Customer Abuse 
 COMM.                     ФЮѓ:  Run Comments 1 
 TCS .hr                 70.51:  Time Ciculation Ended 
 CV  .mps                 1.41:  Crit Velocity 
 CVMX.mps                 1.42:  Max Crit Veloc 
 DD1 .         Intigam Rahimov:  Direct Drillr 1 
 DD2 .          Rashad Gojayev:  Direct Drillr 2 
 DDSV.               Geo-Pilot:  DD Service 
 DEFF.%                 100.00:  % Det Eff 
 DLRX.°/30m               1.44:  Dogleg Rot Max 
 DLSO.°/30m               0.00:  Dogleg Oriented 
 DLSX.°/30m               0.00:  Dogleg Str Max 
 DRET.      03.05.00 01-Feb-20:  Drill End Time 
 DRST.      15.50.00 28-Jan-20:  Drill Start Tim 
 DTIM.hr                 24.70:  Time Drilling 
 EDEP.m                4047.51:  End Depth 
 ENG1.           Eldar Hajiyev:  Engineer 1 
 ENG2.          Rasim Hashimov:  Engineer 2 
 ENG3.          Rustam Safarov:  Engineer 3 
 ETIM.      22.00.00 01-Feb-20:  End Time 
 FLOI.gpm               370.00:  Flow In 
 FLON.gpm               300.00:  Flow In Min 
 FLOS.cptm                0.00:  Fluid Loss 
 FLOX.gpm               400.00:  Flow In Max 
 FTRO.       Formation Presure:  FTWD Run Obj 
 HFLO.                      No:  High Flow 
 HPRE.                      No:  High Pressure 
 HTEM.                      No:  High Temp 
 HYDO.m                   2.50:  Hydro Offset 
 IFIN.deg                39.54:  Inc, Final 
 IMAX.deg                41.14:  Inc Max 
 IMIN.deg                39.81:  Inc Min 
 IMND.m                4005.21:  Inc Min Depth 
 IMXD.m                3948.42:  Inc Max Depth 
 JARR.                      No:  Jarring 
 LETM.      03.05.00 01-Feb-20:  Log End Time 
 LOST.hr                     0:  Lost Rig Time 
 LSTM.      15.50.00 28-Jan-20:  Log Start Time 
 MDCL.ppm             37500.00:  Mud Chlorides 
 MDES.     Inversion Oil/Synthetic:  Mud Desc 
 DFD .sg                  1.32:  Mud Density 
 MDMN.sg                  1.32:  Dens Mud Min 
 MDMX.sg                  1.32:  Dens Mud Max 
 MOIL.                      55:  Run Mud Oil % 
 MOWR.                   70:30:  Run Mud OWR 
 MSND.                       0:  Run Mud Sand % 
 MSOL.                      17:  Run Mud Solids% 
 DFV .spqt               80.00:  Mud Viscosity 
 MWOD.in                  4.75:  MWD Tool OD 
 MWSI.                      No:  Serv Intrp, MWD 
 OTIM.hr                121.28:  Time Operating 
 PCON.           Look Like New:  Pad Condition 
 PMAX.psia             6171.00:  Press Op, Max 
 PV  .cP                 30.00:  Mud PV 
 RUN .                     300:  Run Number 
 ROPA.m/hr                5.45:  ROP Avg 
 ROPN.m/hr                3.00:  ROP Min 
 ROPX.m/hr               15.00:  ROP Max 
 RPMA.rpm               130.00:  RPM Surface Avg 
 RPMN.rpm                80.00:  RPM Surface Min 
 RPMX.rpm               140.00:  RPM Surface Max 
 RRUN.                     300:  Rig Run Number 
 RTIM.hr                 13.50:  Time Reaming 
 SAZI.deg               133.93:  Azm, Start 
 SDEP.m                3878.01:  Start Depth 
 SIDD.                      No:  Serv Intrp, DD 
 SINC.deg                40.28:  Inc, Start 
 SPPA.psig             4983.00:  SPP Avg 
 SPPN.psig             4370.00:  SPP Min 
 SPPX.psig             5300.00:  SPP Max 
 STIM.      18.33.36 27-Jan-20:  Start Time 
 SVCS.                 DD, MWD:  Services 
 SVER.                    9.20:  Sperry Version 
 TDAT.m                 169.50:  Tot Depth Attmp 
 TDDF.                      No:  Trip for DD 
 TDLG.m                 169.50:  Tot Depth Loggd 
 TFF .                      No:  Trip for Fail 
 TQAA.f-kp               13.25:  Torque Abs Avg 
 TQAN.f-kp               12.00:  Torque Abs Min 
 TQAX.f-kp               14.00:  Torque Abs Max 
 TRRT.°/30m               0.70:  Turn Rotating 
 MRT .                     ADR:  Maximum Recorded Temperature 
 TTMX.degC               92.16:  Max Tool Temp 
 VS01.       AZ90598764G12V7D4:  Virtual Str1 SN 
 VS02.         AZ90571342R12C4:  Virtual Str2 SN 
 VS03.      AZ90580010N2L2X1C4:  Virtual Str3 SN 
 VS04.        AZ90522266O7X1C4:  Virtual Str4 SN 
 VS05.           AZ90598768F11:  Virtual Str5 SN 
 VS06.     AZ90580006XZ1W1X1C4:  Virtual Str6 SN 
 WBMN.klb                 8.00:  WOB Min 
 WITN.            Peter Wilson:  Customer Rep 
 WOBA.klb                 9.88:  WOB Avg 
 WOBX.klb                10.00:  WOB Max 
 YP  .lhf2               27.00:  Yield Point 
~Curve Information Block
#MNEM.UNIT                 API CODE     Curve Description
#---------               -----------    ---------------------------
 TIME.HHMMSS            00 000 000 000:  GT Time & Date
 GTDEPTH.m              00 000 000 000:  GT Depth
 GTPQH.psia             00 000 000 000:  GT HR Quartz Pressure
 GTTQ.degC              00 000 000 000:  GT Quartz Temperature
 GTTN.NONE              00 000 000 000:  GT Test Number
 GTET.sec               00 000 000 000:  GT Elapsed Test Time
 GTTVD.m                00 000 000 000:  GT True Vertical Depth
#Other Information
#
#WARRANTY: Halliburton will use its best efforts to furnish customers with 
#accurate information and interpretations that are part of, and incident to, the services 
#provided.  However, Halliburton cannot and does not warrant the accuracy 
#or correctness of such information and interpretations.  Under no circumstances should any 
#such information or interpretation be relied upon as the sole basis for any drilling, 
#completion, production, or financial decision or any procedure involving any risk to the 
#safety of any drilling venture, drilling rig or its crew or any other third party.  The 
#Customer has full responsibility for all drilling, completion and production operation.  
#Halliburton makes no representations or warranties, either expressed or 
#implied, including, but not limited to, the implied warranties of merchantability or fitness 
#for a particular purpose, with respect to the services rendered.  In no event will 
#Halliburton be liable for failure to obtain any particular results or for 
#any damages, including, but not limited to, indirect, special or consequential damages, 
#resulting from the use of any information or interpretation provided by Halliburton.
#
~A           TIME           GTDEPTH  GTPQH  GTTQ  GTTN  GTET   GTTVD  
# ...
   09:19:12.975.31-Jan-2020 3923.01 2997.63 80.01 5.00 345.08 2954.62
   09:19:13.175.31-Jan-2020 3923.01 2997.63 80.01 5.00 345.28 2954.62
   09:19:13.375.31-Jan-2020 3923.01 2997.61 80.01 5.00 345.48 2954.62
   09:19:13.575.31-Jan-2020 3923.01 2997.59 80.01 5.00 345.68 2954.62
   09:19:13.775.31-Jan-2020 3923.01 2997.60 80.01 5.00 345.88 2954.62
   09:19:13.975.31-Jan-2020 3923.01 2997.61 80.01 5.00 346.08 2954.62
   09:19:14.175.31-Jan-2020 3923.01 2997.61 80.01 5.00 346.28 2954.62
   09:19:14.375.31-Jan-2020 3923.01 2997.59 80.01 5.00 346.48 2954.62
   09:19:14.575.31-Jan-2020 3923.01 2997.58 80.01 5.00 346.68 2954.62
   09:19:14.775.31-Jan-2020 3923.01 2997.68 80.01 5.00 346.88 2954.62
   09:19:14.975.31-Jan-2020 3923.01 2998.83 80.01 5.00 347.08 2954.62
   09:19:15.175.31-Jan-2020 3923.01 2998.83 80.01 5.00 347.28 2954.62
   09:19:15.375.31-Jan-2020 3923.01 4955.25 80.00 5.00 347.48 2954.62
   09:19:15.576.31-Jan-2020 3923.01 5989.21 80.00 5.00 347.68 2954.62
   09:19:15.776.31-Jan-2020 3923.01 5988.75 80.00 5.00 347.88 2954.62
   09:19:15.976.31-Jan-2020 3923.01 5988.33 80.00 5.00 348.08 2954.62
   09:19:16.176.31-Jan-2020 3923.01 5988.33 80.00 5.00 348.28 2954.62
   09:19:16.376.31-Jan-2020 3923.01 5988.45 80.00 5.00 348.48 2954.62
   09:19:16.576.31-Jan-2020 3923.01 5990.23 80.00 5.00 348.68 2954.62
   09:19:16.776.31-Jan-2020 3923.01 5991.94 80.00 5.00 348.88 2954.62
   09:19:16.976.31-Jan-2020 3923.01 5992.74 80.00 5.00 349.08 2954.62
   09:19:17.176.31-Jan-2020 3923.01 5992.74 80.00 5.00 349.28 2954.62
   09:19:17.376.31-Jan-2020 3923.01 5993.07 80.00 5.00 349.48 2954.62
   09:19:17.576.31-Jan-2020 3923.01 5992.62 80.00 5.00 349.68 2954.62
   09:19:17.776.31-Jan-2020 3923.01 5994.62 80.00 5.00 349.88 2954.62
   09:19:17.976.31-Jan-2020 3923.01 5996.67 80.00 5.00 350.08 2954.62
   09:19:18.176.31-Jan-2020 3923.01 5996.67 80.00 5.00 350.28 2954.62
   09:19:18.376.31-Jan-2020 3923.01 5993.50 80.00 5.00 350.48 2954.62
   09:19:18.576.31-Jan-2020 3923.01 5994.53 80.00 5.00 350.68 2954.62
   09:19:18.776.31-Jan-2020 3923.01 5994.87 80.00 5.00 350.88 2954.62
   09:19:18.976.31-Jan-2020 3923.01 5994.61 80.00 5.00 351.08 2954.62
   09:19:19.176.31-Jan-2020 3923.01 5994.61 80.00 5.00 351.28 2954.62
   09:19:19.376.31-Jan-2020 3923.01 5993.90 80.00 5.00 351.48 2954.62
   09:19:19.576.31-Jan-2020 3923.01 5995.86 80.00 5.00 351.68 2954.62
   09:19:19.777.31-Jan-2020 3923.01 5996.60 80.00 5.00 351.88 2954.62
   09:19:19.977.31-Jan-2020 3923.01 5996.06 80.00 5.00 352.08 2954.62
   09:19:20.177.31-Jan-2020 3923.01 5996.06 80.00 5.00 352.28 2954.62
   09:19:20.377.31-Jan-2020 3923.01 5995.47 80.00 5.00 352.48 2954.62
   09:19:20.577.31-Jan-2020 3923.01 5986.15 80.00 5.00 352.68 2954.62
   09:19:20.777.31-Jan-2020 3923.01 5992.19 80.00 5.00 352.88 2954.62
   09:19:20.977.31-Jan-2020 3923.01 5994.08 80.00 5.00 353.08 2954.62
   09:19:21.177.31-Jan-2020 3923.01 5994.08 80.00 5.00 353.28 2954.62
   09:19:21.377.31-Jan-2020 3923.01 5995.52 80.01 5.00 353.48 2954.62
   09:19:21.577.31-Jan-2020 3923.01 5995.11 80.01 5.00 353.68 2954.62
   09:19:21.777.31-Jan-2020 3923.01 5985.75 80.01 5.00 353.88 2954.62
   09:19:21.977.31-Jan-2020 3923.01 5994.00 80.01 5.00 354.08 2954.62
   09:19:22.177.31-Jan-2020 3923.01 5994.00 80.01 5.00 354.28 2954.62
   09:19:22.377.31-Jan-2020 3923.01 5996.07 80.01 5.00 354.48 2954.62
   09:19:22.577.31-Jan-2020 3923.01 5995.36 80.01 5.00 354.68 2954.62
   09:19:22.777.31-Jan-2020 3923.01 5995.01 80.01 5.00 354.88 2954.62
   09:19:22.977.31-Jan-2020 3923.01 5988.08 80.01 5.00 355.08 2954.62
   09:19:23.177.31-Jan-2020 3923.01 5988.08 80.01 5.00 355.28 2954.62
   09:19:23.377.31-Jan-2020 3923.01 5995.54 80.01 5.00 355.48 2954.62
   09:19:23.577.31-Jan-2020 3923.01 5998.01 80.01 5.00 355.68 2954.62
   09:19:23.777.31-Jan-2020 3923.01 5997.43 80.01 5.00 355.88 2954.62
   09:19:23.978.31-Jan-2020 3923.01 5996.33 80.01 5.00 356.08 2954.62
   09:19:24.178.31-Jan-2020 3923.01 5996.33 80.01 5.00 356.28 2954.62
   09:19:24.378.31-Jan-2020 3923.01 5994.83 80.01 5.00 356.48 2954.62
   09:19:24.578.31-Jan-2020 3923.01 5996.79 80.01 5.00 356.68 2954.62
   09:19:24.778.31-Jan-2020 3923.01 5997.48 80.01 5.00 356.88 2954.62
   09:19:24.978.31-Jan-2020 3923.01 5996.70 80.01 5.00 357.08 2954.62
   09:19:25.178.31-Jan-2020 3923.01 5996.70 80.01 5.00 357.28 2954.62
   09:19:25.378.31-Jan-2020 3923.01 5995.22 80.01 5.00 357.48 2954.62
   09:19:25.578.31-Jan-2020 3923.01 5994.49 80.01 5.00 357.68 2954.62
   09:19:25.778.31-Jan-2020 3923.01 5994.82 80.01 5.00 357.88 2954.62
   09:19:25.978.31-Jan-2020 3923.01 5997.42 80.01 5.00 358.08 2954.62
   09:19:26.178.31-Jan-2020 3923.01 5997.42 80.01 5.00 358.28 2954.62
   09:19:26.378.31-Jan-2020 3923.01 5997.00 80.01 5.00 358.48 2954.62
   09:19:26.578.31-Jan-2020 3923.01 5993.55 80.01 5.00 358.68 2954.62
   09:19:26.778.31-Jan-2020 3923.01 5989.67 80.01 5.00 358.88 2954.62
   09:19:26.978.31-Jan-2020 3923.01 5994.35 80.01 5.00 359.08 2954.62
   09:19:27.178.31-Jan-2020 3923.01 5994.35 80.01 5.00 359.28 2954.62
   09:19:27.378.31-Jan-2020 3923.01 5997.87 80.01 5.00 359.48 2954.62
   09:19:27.578.31-Jan-2020 3923.01 5997.54 80.01 5.00 359.68 2954.62
   09:19:27.778.31-Jan-2020 3923.01 5996.72 80.01 5.00 359.88 2954.62
   09:19:27.978.31-Jan-2020 3923.01 5996.12 80.01 5.00 360.08 2954.62
   09:19:28.178.31-Jan-2020 3923.01 5996.12 80.01 5.00 360.28 2954.62
   09:19:28.379.31-Jan-2020 3923.01 5995.89 80.01 5.00 360.48 2954.62
   09:19:28.579.31-Jan-2020 3923.01 5996.57 80.01 5.00 360.68 2954.62
   09:19:28.779.31-Jan-2020 3923.01 5996.56 80.01 5.00 360.88 2954.62
   09:19:28.979.31-Jan-2020 3923.01 5996.38 80.01 5.00 361.08 2954.62
   09:19:29.179.31-Jan-2020 3923.01 5996.38 80.01 5.00 361.28 2954.62
   09:19:29.379.31-Jan-2020 3923.01 5995.83 80.01 5.00 361.48 2954.62
   09:19:29.579.31-Jan-2020 3923.01 5997.32 80.01 5.00 361.68 2954.62
   09:19:29.779.31-Jan-2020 3923.01 5998.10 80.01 5.00 361.88 2954.62
   09:19:29.979.31-Jan-2020 3923.01 5997.76 80.01 5.00 362.08 2954.62
   09:19:30.179.31-Jan-2020 3923.01 5997.76 80.01 5.00 362.28 2954.62
   09:19:30.379.31-Jan-2020 3923.01 5993.55 80.01 5.00 362.48 2954.62
   09:19:30.579.31-Jan-2020 3923.01 5994.99 80.01 5.00 362.68 2954.62
   09:19:30.779.31-Jan-2020 3923.01 5995.46 80.01 5.00 362.89 2954.62
   09:19:30.979.31-Jan-2020 3923.01 5996.03 80.00 5.00 363.09 2954.62
   09:19:31.179.31-Jan-2020 3923.01 5996.03 80.00 5.00 363.29 2954.62
   09:19:31.379.31-Jan-2020 3923.01 5994.43 80.00 5.00 363.49 2954.62
   09:19:31.579.31-Jan-2020 3923.01 5996.26 80.00 5.00 363.69 2954.62
   09:19:31.779.31-Jan-2020 3923.01 5996.21 80.00 5.00 363.89 2954.62
   09:19:31.979.31-Jan-2020 3923.01 5996.16 80.00 5.00 364.09 2954.62
   09:19:32.179.31-Jan-2020 3923.01 5996.16 80.00 5.00 364.29 2954.62
   09:19:32.379.31-Jan-2020 3923.01 5986.84 80.00 5.00 364.49 2954.62
   09:19:32.580.31-Jan-2020 3923.01 5993.78 80.00 5.00 364.69 2954.62
   09:19:32.780.31-Jan-2020 3923.01 5993.68 80.00 5.00 364.89 2954.62
   09:19:32.980.31-Jan-2020 3923.01 5994.62 80.00 5.00 365.09 2954.62
   09:19:33.180.31-Jan-2020 3923.01 5994.62 80.00 5.00 365.29 2954.62
   09:19:33.380.31-Jan-2020 3923.01 5996.54 80.00 5.00 365.49 2954.62
   09:19:33.580.31-Jan-2020 3923.01 5987.03 80.00 5.00 365.69 2954.62
   09:19:33.780.31-Jan-2020 3923.01 5992.57 80.00 5.00 365.89 2954.62
   09:19:33.980.31-Jan-2020 3923.01 5994.10 80.00 5.00 366.09 2954.62
   09:19:34.180.31-Jan-2020 3923.01 5994.10 80.00 5.00 366.29 2954.62
   09:19:34.380.31-Jan-2020 3923.01 5996.02 80.00 5.00 366.49 2954.62
   09:19:34.580.31-Jan-2020 3923.01 5995.23 80.00 5.00 366.69 2954.62
   09:19:34.780.31-Jan-2020 3923.01 5995.45 80.00 5.00 366.89 2954.62
   09:19:34.980.31-Jan-2020 3923.01 5995.32 80.00 5.00 367.09 2954.62
   09:19:35.180.31-Jan-2020 3923.01 5995.32 80.00 5.00 367.29 2954.62
   09:19:35.380.31-Jan-2020 3923.01 5996.35 80.00 5.00 367.49 2954.62
   09:19:35.580.31-Jan-2020 3923.01 5996.18 80.00 5.00 367.69 2954.62
   09:19:35.780.31-Jan-2020 3923.01 5995.93 80.00 5.00 367.89 2954.62
