~Version Information
 VERS.                  2.0:   CWLS log ASCII Standard -VERSION 2.0
 WRAP.                   NO:   One line per depth step
~Well Information Block
#MNEM.UNIT     VALUE/NAME     DESCRIPTION
#---------     -----------    ---------------------------
 STRT.S             14:09:29 31-Jan-20: START TIME 14:09:29 31-Jan-20
 STOP.S             14:15:59 31-Jan-20: STOP TIME  14:15:59 31-Jan-20
 STEP.S                   0.00: STEP TIME
 NULL.                 -999.25: NULL VALUE
 DFWT.                        :  DIST FWL TEXT
 DFST.                        :  DIST FSL TEXT
 DMF .             Drill Floor:  DRILL MEAS FROM
 STIM.      09.30.00 26-Dec-19:  START TIME
 DATE.      08.00.00 20-Jan-20:  END TIME
 SPUD.               23-Nov-19:  SPUD DATE
 NREF.                    Grid:  NORTH REFERENCE
 HPTY.       Minimum Curvature:  HOLE POS TYPE
 DMOD.             Drill Model:  DRILL MOD DESC
 SVYD.                  Survey:  SURVEY DESC
 ILTD.               Lithology:  INTERP LTH DESC
 FTOP.          Formation Tops:  FORM TOPS DESC
 SON .        AZ-XX-0906192647:  JOB NUMBER
 WTYP.                Deviated:  WELL TYPE
 COMP.     BP Exploration (Caspian Sea) Ltd:  COMPANY
 BASE.              Azerbaijan:  LOGGING EQUIPMENT BASE LOCATION
 REGN.                 Eurasia:  REGION
 FLD .                     ACG:  FIELD NAME
 SRVC.              KCA Deutag:  CONTRACTOR
 MWDS.                    Baku:  MWD SHOP
 WELL.     A10 (Slot 20) - SCP:  WELL NAME
 JOBN.        AZ-XX-0906192647:  JOB TICKET NUMB
 RIG .                 Chirag1:  RIG NAME
 DCON.     Halliburton Sperry Drilling:  DIRECTNL CONTR
 UNIT.                     N/A:  LOGGING EQUIPMENT ID
 PDAT.          Mean Sea Level:  PERMANENT DATUM
 MDS .        Operator Entered:  MAG DATA SOURCE
 CTRY.              Azerbaijan:  COUNTRY NAME
 UWI .            /AZE00000090:  UNIQUE WELL IDENTIFIER
 API .            /AZE00000090:  API NUMBER
 CNTY.                        :  COUNTY
 PROV.                        :  PROVINCE
 STAT.                        :  STATE
 LOC .                        :  LOCATION
 LMF .             Drill Floor:  LOG MEASURED FROM
 TVDS.m                  36.60:  TVDSS CORRECTN
 LATI.deg                40.08:  LATITUDE
 LONG.deg                51.24:  LONGITUDE
 WHNS.m                  -7.94:  WELL HEAD N/S
 WHEW.m                   1.56:  WELL HEAD E/W
 UTMX.m              520429.26:  UTM X
 UTMY.m             4438973.87:  UTM Y
 DFWL.m                   0.00:  DISTANCE FWL
 DFSL.m                   0.00:  DISTANCE FSL
 SDEP.m                1455.00:  START DEPTH
 TDD .m                4047.51:  TOTAL DEPTH (DRILLER)
 VSDR.deg               112.75:  VERT SEC DIRECT
 GVFD.g                   1.00:  GRAVITY FIELD
 MFLD.nT              50261.00:  MAGNETIC FIELD
 MDIP.deg                59.52:  MAGNETIC DIP
 MDEC.deg                 6.42:  MAGNETIC DECL
 GRDC.deg                 0.17:  GRID CORRECTION
 AZTC.deg                 6.25:  AZM TOTAL CORR
 EPD .m                   0.00:  ELEVATION
 EGL .m                   0.00:  GROUND ELEVATION
 WDMS.m                 121.00:  WD ELEV
 APD .m                  36.60:  DEPTH ABOVE PD
 AGAP.m                  36.60:  AIR GAP
 VSEW.m                   1.56:  VERT SEC E/W
 VSNS.m                  -7.94:  VERT SEC N/S
 DEP .m                1140.01:  DEPTH
 EKB .m                  36.60:  KB ELEVATION
 EDF .m                  36.60:  DF ELEVATION
 TDL .m                 169.50:  TOTAL DEPTH (LOGGER)
 CSGD.m                3875.01:  CASING BOTTOM (DRILLER)
 CSGL.m                3875.01:  CASING BOTTOM (LOGGER)
 CSGS.in                  7.63:  CASING SIZE
 CSGW.lbpf               23.50:  CASING WEIGHT
 VSC .                       0:  VS TO CLOSURE
 MAGU.                 1849206:  MAGUTM CHECKSUM
~Parameter Information Block
#MNEM.UNIT       Value        Description
#---------     -----------    ---------------------------
 AV  .mps                 1.90:  Ann Velocity 
 AVMX.mps                 2.54:  Max Ann Veloc 
 AZIF.deg               137.03:  Azm, Final 
 BHAT.        Rotary Steerable:  BHA Type 
 BREV.rev             23610.00:  Rev Bit Total 
 BROT.°/30m               0.80:  Build Rotating 
 BS  .in                  6.50:  Bit Size 
 BTPL.psig              110.00:  Bit Press Loss 
 CABU.                     Yes:  Customer Abuse 
 COMM.                     ÇV:  Run Comments 1 
 TCS .hr                 70.51:  Time Ciculation Ended 
 CV  .mps                 1.41:  Crit Velocity 
 CVMX.mps                 1.42:  Max Crit Veloc 
 DD1 .         Intigam Rahimov:  Direct Drillr 1 
 DD2 .          Rashad Gojayev:  Direct Drillr 2 
 DDSV.               Geo-Pilot:  DD Service 
 DEFF.%                 100.00:  % Det Eff 
 DLRX.°/30m               1.44:  Dogleg Rot Max 
 DLSO.°/30m               0.00:  Dogleg Oriented 
 DLSX.°/30m               0.00:  Dogleg Str Max 
 DRET.      03.05.00 01-Feb-20:  Drill End Time 
 DRST.      15.50.00 28-Jan-20:  Drill Start Tim 
 DTIM.hr                 24.70:  Time Drilling 
 EDEP.m                4047.51:  End Depth 
 ENG1.           Eldar Hajiyev:  Engineer 1 
 ENG2.          Rasim Hashimov:  Engineer 2 
 ENG3.          Rustam Safarov:  Engineer 3 
 ETIM.      22.00.00 01-Feb-20:  End Time 
 FLOI.gpm               370.00:  Flow In 
 FLON.gpm               300.00:  Flow In Min 
 FLOS.cptm                0.00:  Fluid Loss 
 FLOX.gpm               400.00:  Flow In Max 
 FTRO.       Formation Presure:  FTWD Run Obj 
 HFLO.                      No:  High Flow 
 HPRE.                      No:  High Pressure 
 HTEM.                      No:  High Temp 
 HYDO.m                   2.50:  Hydro Offset 
 IFIN.deg                39.54:  Inc, Final 
 IMAX.deg                41.14:  Inc Max 
 IMIN.deg                39.81:  Inc Min 
 IMND.m                4005.21:  Inc Min Depth 
 IMXD.m                3948.42:  Inc Max Depth 
 JARR.                      No:  Jarring 
 LETM.      03.05.00 01-Feb-20:  Log End Time 
 LOST.hr                     0:  Lost Rig Time 
 LSTM.      15.50.00 28-Jan-20:  Log Start Time 
 MDCL.ppm             37500.00:  Mud Chlorides 
 MDES.     Inversion Oil/Synthetic:  Mud Desc 
 DFD .sg                  1.32:  Mud Density 
 MDMN.sg                  1.32:  Dens Mud Min 
 MDMX.sg                  1.32:  Dens Mud Max 
 MOIL.                      55:  Run Mud Oil % 
 MOWR.                   70:30:  Run Mud OWR 
 MSND.                       0:  Run Mud Sand % 
 MSOL.                      17:  Run Mud Solids% 
 DFV .spqt               80.00:  Mud Viscosity 
 MWOD.in                  4.75:  MWD Tool OD 
 MWSI.                      No:  Serv Intrp, MWD 
 OTIM.hr                121.28:  Time Operating 
 PCON.           Look Like New:  Pad Condition 
 PMAX.psia             6171.00:  Press Op, Max 
 PV  .cP                 30.00:  Mud PV 
 RUN .                     300:  Run Number 
 ROPA.m/hr                5.45:  ROP Avg 
 ROPN.m/hr                3.00:  ROP Min 
 ROPX.m/hr               15.00:  ROP Max 
 RPMA.rpm               130.00:  RPM Surface Avg 
 RPMN.rpm                80.00:  RPM Surface Min 
 RPMX.rpm               140.00:  RPM Surface Max 
 RRUN.                     300:  Rig Run Number 
 RTIM.hr                 13.50:  Time Reaming 
 SAZI.deg               133.93:  Azm, Start 
 SDEP.m                3878.01:  Start Depth 
 SIDD.                      No:  Serv Intrp, DD 
 SINC.deg                40.28:  Inc, Start 
 SPPA.psig             4983.00:  SPP Avg 
 SPPN.psig             4370.00:  SPP Min 
 SPPX.psig             5300.00:  SPP Max 
 STIM.      18.33.36 27-Jan-20:  Start Time 
 SVCS.                 DD, MWD:  Services 
 SVER.                    9.20:  Sperry Version 
 TDAT.m                 169.50:  Tot Depth Attmp 
 TDDF.                      No:  Trip for DD 
 TDLG.m                 169.50:  Tot Depth Loggd 
 TFF .                      No:  Trip for Fail 
 TQAA.f-kp               13.25:  Torque Abs Avg 
 TQAN.f-kp               12.00:  Torque Abs Min 
 TQAX.f-kp               14.00:  Torque Abs Max 
 TRRT.°/30m               0.70:  Turn Rotating 
 MRT .                     ADR:  Maximum Recorded Temperature 
 TTMX.degC               92.16:  Max Tool Temp 
 VS01.       AZ90598764G12V7D4:  Virtual Str1 SN 
 VS02.         AZ90571342R12C4:  Virtual Str2 SN 
 VS03.      AZ90580010N2L2X1C4:  Virtual Str3 SN 
 VS04.        AZ90522266O7X1C4:  Virtual Str4 SN 
 VS05.           AZ90598768F11:  Virtual Str5 SN 
 VS06.     AZ90580006XZ1W1X1C4:  Virtual Str6 SN 
 WBMN.klb                 8.00:  WOB Min 
 WITN.            Peter Wilson:  Customer Rep 
 WOBA.klb                 9.88:  WOB Avg 
 WOBX.klb                10.00:  WOB Max 
 YP  .lhf2               27.00:  Yield Point 
~Curve Information Block
#MNEM.UNIT                 API CODE     Curve Description
#---------               -----------    ---------------------------
 TIME.HHMMSS            00 000 000 000:  GT Time & Date
 GTDEPTH.m              00 000 000 000:  GT Depth
 GTPQH.psia             00 000 000 000:  GT HR Quartz Pressure
 GTTQ.degC              00 000 000 000:  GT Quartz Temperature
 GTTN.NONE              00 000 000 000:  GT Test Number
 GTET.sec               00 000 000 000:  GT Elapsed Test Time
 GTTVD.m                00 000 000 000:  GT True Vertical Depth
#Other Information
#
#WARRANTY: Halliburton will use its best efforts to furnish customers with 
#accurate information and interpretations that are part of, and incident to, the services 
#provided.  However, Halliburton cannot and does not warrant the accuracy 
#or correctness of such information and interpretations.  Under no circumstances should any 
#such information or interpretation be relied upon as the sole basis for any drilling, 
#completion, production, or financial decision or any procedure involving any risk to the 
#safety of any drilling venture, drilling rig or its crew or any other third party.  The 
#Customer has full responsibility for all drilling, completion and production operation.  
#Halliburton makes no representations or warranties, either expressed or 
#implied, including, but not limited to, the implied warranties of merchantability or fitness 
#for a particular purpose, with respect to the services rendered.  In no event will 
#Halliburton be liable for failure to obtain any particular results or for 
#any damages, including, but not limited to, indirect, special or consequential damages, 
#resulting from the use of any information or interpretation provided by Halliburton.
#
~A           TIME           GTDEPTH  GTPQH  GTTQ  GTTN  GTET   GTTVD  
# ...
   14:12:56.103.31-Jan-2020 3945.01 3014.13 84.05 7.00 207.05 2971.20
   14:12:56.303.31-Jan-2020 3945.01 3014.13 84.05 7.00 207.25 2971.20
   14:12:56.503.31-Jan-2020 3945.01 3014.06 84.04 7.00 207.45 2971.20
   14:12:56.703.31-Jan-2020 3945.01 3014.12 84.04 7.00 207.65 2971.20
   14:12:56.903.31-Jan-2020 3945.01 3014.04 84.04 7.00 207.85 2971.20
   14:12:57.103.31-Jan-2020 3945.01 3014.04 84.04 7.00 208.05 2971.20
   14:12:57.303.31-Jan-2020 3945.01 3014.04 84.04 7.00 208.25 2971.20
   14:12:57.504.31-Jan-2020 3945.01 3014.00 84.04 7.00 208.45 2971.20
   14:12:57.704.31-Jan-2020 3945.01 3014.05 84.04 7.00 208.65 2971.20
   14:12:57.904.31-Jan-2020 3945.01 3014.04 84.04 7.00 208.85 2971.20
   14:12:58.104.31-Jan-2020 3945.01 3014.04 84.04 7.00 209.05 2971.20
   14:12:58.304.31-Jan-2020 3945.01 3014.04 84.04 7.00 209.25 2971.20
   14:12:58.504.31-Jan-2020 3945.01 3013.98 84.04 7.00 209.45 2971.20
   14:12:58.704.31-Jan-2020 3945.01 3014.05 84.04 7.00 209.65 2971.20
   14:12:58.904.31-Jan-2020 3945.01 3014.02 84.04 7.00 209.85 2971.20
   14:12:59.104.31-Jan-2020 3945.01 3014.01 84.04 7.00 210.05 2971.20
   14:12:59.304.31-Jan-2020 3945.01 3014.01 84.04 7.00 210.25 2971.20
   14:12:59.504.31-Jan-2020 3945.01 3014.00 84.04 7.00 210.45 2971.20
   14:12:59.704.31-Jan-2020 3945.01 3013.92 84.04 7.00 210.65 2971.20
   14:12:59.904.31-Jan-2020 3945.01 3014.08 84.03 7.00 210.85 2971.20
   14:13:00.104.31-Jan-2020 3945.01 3014.06 84.03 7.00 211.05 2971.20
   14:13:00.304.31-Jan-2020 3945.01 3014.06 84.03 7.00 211.25 2971.20
   14:13:00.504.31-Jan-2020 3945.01 3014.02 84.03 7.00 211.45 2971.20
   14:13:00.704.31-Jan-2020 3945.01 3014.06 84.03 7.00 211.65 2971.20
   14:13:00.904.31-Jan-2020 3945.01 3014.02 84.03 7.00 211.85 2971.20
   14:13:01.104.31-Jan-2020 3945.01 3014.00 84.03 7.00 212.05 2971.20
   14:13:01.304.31-Jan-2020 3945.01 3014.00 84.03 7.00 212.25 2971.20
   14:13:01.504.31-Jan-2020 3945.01 3013.97 84.03 7.00 212.45 2971.20
   14:13:01.705.31-Jan-2020 3945.01 3014.04 84.03 7.00 212.65 2971.20
   14:13:01.905.31-Jan-2020 3945.01 3014.02 84.03 7.00 212.85 2971.20
   14:13:02.105.31-Jan-2020 3945.01 3013.99 84.03 7.00 213.05 2971.20
   14:13:02.305.31-Jan-2020 3945.01 3013.99 84.03 7.00 213.25 2971.20
   14:13:02.505.31-Jan-2020 3945.01 3013.98 84.03 7.00 213.45 2971.20
   14:13:02.705.31-Jan-2020 3945.01 3014.04 84.03 7.00 213.65 2971.20
   14:13:02.905.31-Jan-2020 3945.01 3013.88 84.03 7.00 213.85 2971.20
   14:13:03.105.31-Jan-2020 3945.01 3014.09 84.03 7.00 214.05 2971.20
   14:13:03.305.31-Jan-2020 3945.01 3014.09 84.03 7.00 214.25 2971.20
   14:13:03.505.31-Jan-2020 3945.01 3014.02 84.02 7.00 214.45 2971.20
   14:13:03.705.31-Jan-2020 3945.01 3014.07 84.02 7.00 214.65 2971.20
   14:13:03.905.31-Jan-2020 3945.01 3013.92 84.02 7.00 214.85 2971.20
   14:13:04.105.31-Jan-2020 3945.01 3014.11 84.02 7.00 215.05 2971.20
   14:13:04.305.31-Jan-2020 3945.01 3014.11 84.02 7.00 215.25 2971.20
   14:13:04.505.31-Jan-2020 3945.01 3014.04 84.02 7.00 215.45 2971.20
   14:13:04.705.31-Jan-2020 3945.01 3014.07 84.02 7.00 215.65 2971.20
   14:13:04.905.31-Jan-2020 3945.01 3014.04 84.02 7.00 215.85 2971.20
   14:13:05.105.31-Jan-2020 3945.01 3013.88 84.02 7.00 216.05 2971.20
   14:13:05.305.31-Jan-2020 3945.01 3013.88 84.02 7.00 216.25 2971.20
   14:13:05.505.31-Jan-2020 3945.01 3014.04 84.02 7.00 216.45 2971.20
   14:13:05.705.31-Jan-2020 3945.01 3014.07 84.02 7.00 216.65 2971.20
   14:13:05.905.31-Jan-2020 3945.01 3014.08 84.02 7.00 216.85 2971.20
   14:13:06.106.31-Jan-2020 3945.01 3014.02 84.02 7.00 217.05 2971.20
   14:13:06.306.31-Jan-2020 3945.01 3014.02 84.02 7.00 217.25 2971.20
   14:13:06.506.31-Jan-2020 3945.01 3013.88 84.02 7.00 217.45 2971.20
   14:13:06.706.31-Jan-2020 3945.01 3014.11 84.01 7.00 217.65 2971.20
   14:13:06.906.31-Jan-2020 3945.01 3014.12 84.01 7.00 217.85 2971.20
   14:13:07.106.31-Jan-2020 3945.01 3014.03 84.01 7.00 218.05 2971.20
   14:13:07.306.31-Jan-2020 3945.01 3014.03 84.01 7.00 218.25 2971.20
   14:13:07.506.31-Jan-2020 3945.01 3014.02 84.01 7.00 218.45 2971.20
   14:13:07.706.31-Jan-2020 3945.01 3014.09 84.01 7.00 218.65 2971.20
   14:13:07.906.31-Jan-2020 3945.01 3014.11 84.01 7.00 218.85 2971.20
   14:13:08.106.31-Jan-2020 3945.01 3014.05 84.01 7.00 219.05 2971.20
   14:13:08.306.31-Jan-2020 3945.01 3014.05 84.01 7.00 219.25 2971.20
   14:13:08.506.31-Jan-2020 3945.01 3014.01 84.01 7.00 219.45 2971.20
   14:13:08.706.31-Jan-2020 3945.01 3014.04 84.01 7.00 219.65 2971.20
   14:13:08.906.31-Jan-2020 3945.01 3014.05 84.01 7.00 219.85 2971.20
   14:13:09.106.31-Jan-2020 3945.01 3013.99 84.01 7.00 220.05 2971.20
   14:13:09.306.31-Jan-2020 3945.01 3013.99 84.01 7.00 220.25 2971.20
   14:13:09.506.31-Jan-2020 3945.01 3014.01 84.01 7.00 220.45 2971.20
   14:13:09.706.31-Jan-2020 3945.01 3014.02 84.01 7.00 220.65 2971.20
   14:13:09.906.31-Jan-2020 3945.01 3014.03 84.01 7.00 220.85 2971.20
   14:13:10.106.31-Jan-2020 3945.01 3013.98 84.01 7.00 221.05 2971.20
   14:13:10.307.31-Jan-2020 3945.01 3013.98 84.01 7.00 221.25 2971.20
   14:13:10.507.31-Jan-2020 3945.01 3014.00 84.00 7.00 221.45 2971.20
   14:13:10.707.31-Jan-2020 3945.01 3014.01 84.00 7.00 221.65 2971.20
   14:13:10.907.31-Jan-2020 3945.01 3014.04 84.00 7.00 221.85 2971.20
   14:13:11.107.31-Jan-2020 3945.01 3013.84 84.00 7.00 222.05 2971.20
   14:13:11.307.31-Jan-2020 3945.01 3013.84 84.00 7.00 222.25 2971.20
   14:13:11.507.31-Jan-2020 3945.01 3014.04 84.00 7.00 222.45 2971.20
   14:13:11.707.31-Jan-2020 3945.01 3014.04 84.00 7.00 222.65 2971.20
   14:13:11.907.31-Jan-2020 3945.01 3014.07 84.00 7.00 222.85 2971.20
   14:13:12.107.31-Jan-2020 3945.01 3014.00 84.00 7.00 223.05 2971.20
   14:13:12.307.31-Jan-2020 3945.01 3014.00 84.00 7.00 223.25 2971.20
   14:13:12.507.31-Jan-2020 3945.01 3014.02 84.00 7.00 223.45 2971.20
   14:13:12.707.31-Jan-2020 3945.01 3013.98 84.00 7.00 223.65 2971.20
   14:13:12.907.31-Jan-2020 3945.01 3014.04 84.00 7.00 223.85 2971.20
   14:13:13.107.31-Jan-2020 3945.01 3013.96 84.00 7.00 224.05 2971.20
   14:13:13.307.31-Jan-2020 3945.01 3013.96 84.00 7.00 224.25 2971.20
   14:13:13.507.31-Jan-2020 3945.01 3014.00 84.00 7.00 224.45 2971.20
   14:13:13.707.31-Jan-2020 3945.01 3013.97 83.99 7.00 224.65 2971.20
   14:13:13.907.31-Jan-2020 3945.01 3014.01 83.99 7.00 224.85 2971.20
   14:13:14.107.31-Jan-2020 3945.01 3014.00 83.99 7.00 225.05 2971.20
   14:13:14.307.31-Jan-2020 3945.01 3014.00 83.99 7.00 225.25 2971.20
   14:13:14.508.31-Jan-2020 3945.01 3014.00 83.99 7.00 225.45 2971.20
   14:13:14.708.31-Jan-2020 3945.01 3014.05 83.99 7.00 225.65 2971.20
   14:13:14.908.31-Jan-2020 3945.01 3014.05 83.99 7.00 225.85 2971.20
   14:13:15.108.31-Jan-2020 3945.01 3014.01 83.99 7.00 226.05 2971.20
   14:13:15.308.31-Jan-2020 3945.01 3014.01 83.99 7.00 226.25 2971.20
   14:13:15.508.31-Jan-2020 3945.01 3014.05 83.99 7.00 226.45 2971.20
   14:13:15.708.31-Jan-2020 3945.01 3014.08 83.99 7.00 226.65 2971.20
   14:13:15.908.31-Jan-2020 3945.01 3014.07 83.99 7.00 226.85 2971.20
   14:13:16.108.31-Jan-2020 3945.01 3014.03 83.99 7.00 227.05 2971.20
   14:13:16.308.31-Jan-2020 3945.01 3014.03 83.99 7.00 227.25 2971.20
   14:13:16.508.31-Jan-2020 3945.01 3014.05 83.99 7.00 227.45 2971.20
   14:13:16.708.31-Jan-2020 3945.01 3013.94 83.99 7.00 227.65 2971.20
   14:13:16.908.31-Jan-2020 3945.01 3014.06 83.99 7.00 227.85 2971.20
   14:13:17.108.31-Jan-2020 3945.01 3014.05 83.99 7.00 228.05 2971.20
   14:13:17.308.31-Jan-2020 3945.01 3014.05 83.99 7.00 228.25 2971.20
   14:13:17.508.31-Jan-2020 3945.01 3014.05 83.98 7.00 228.45 2971.20
   14:13:17.708.31-Jan-2020 3945.01 3014.02 83.98 7.00 228.65 2971.20
   14:13:17.908.31-Jan-2020 3945.01 3013.91 83.98 7.00 228.85 2971.20
   14:13:18.108.31-Jan-2020 3945.01 3014.10 83.98 7.00 229.05 2971.20
   14:13:18.308.31-Jan-2020 3945.01 3014.10 83.98 7.00 229.25 2971.20
   14:13:18.508.31-Jan-2020 3945.01 3014.06 83.98 7.00 229.45 2971.20
   14:13:18.708.31-Jan-2020 3945.01 3014.03 83.98 7.00 229.65 2971.20
   14:13:18.909.31-Jan-2020 3945.01 3013.90 83.98 7.00 229.85 2971.20
