~Version Information
 VERS.                  2.0:   CWLS log ASCII Standard -VERSION 2.0
 WRAP.                   NO:   One line per depth step
~Well Information Block
#MNEM.UNIT     VALUE/NAME     DESCRIPTION
#---------     -----------    ---------------------------
 STRT.S             14:09:29 31-Jan-20: START TIME 14:09:29 31-Jan-20
 STOP.S             14:15:59 31-Jan-20: STOP TIME  14:15:59 31-Jan-20
 STEP.S                   0.00: STEP TIME
 NULL.                 -999.25: NULL VALUE
 DFWT.                        :  DIST FWL TEXT
 DFST.                        :  DIST FSL TEXT
 DMF .             Drill Floor:  DRILL MEAS FROM
 STIM.      09.30.00 26-Dec-19:  START TIME
 DATE.      08.00.00 20-Jan-20:  END TIME
 SPUD.               23-Nov-19:  SPUD DATE
 NREF.                    Grid:  NORTH REFERENCE
 HPTY.       Minimum Curvature:  HOLE POS TYPE
 DMOD.             Drill Model:  DRILL MOD DESC
 SVYD.                  Survey:  SURVEY DESC
 ILTD.               Lithology:  INTERP LTH DESC
 FTOP.          Formation Tops:  FORM TOPS DESC
 SON .        AZ-XX-0906192647:  JOB NUMBER
 WTYP.                Deviated:  WELL TYPE
 COMP.     BP Exploration (Caspian Sea) Ltd:  COMPANY
 BASE.              Azerbaijan:  LOGGING EQUIPMENT BASE LOCATION
 REGN.                 Eurasia:  REGION
 FLD .                     ACG:  FIELD NAME
 SRVC.              KCA Deutag:  CONTRACTOR
 MWDS.                    Baku:  MWD SHOP
 WELL.     A10 (Slot 20) - SCP:  WELL NAME
 JOBN.        AZ-XX-0906192647:  JOB TICKET NUMB
 RIG .                 Chirag1:  RIG NAME
 DCON.     Halliburton Sperry Drilling:  DIRECTNL CONTR
 UNIT.                     N/A:  LOGGING EQUIPMENT ID
 PDAT.          Mean Sea Level:  PERMANENT DATUM
 MDS .        Operator Entered:  MAG DATA SOURCE
 CTRY.              Azerbaijan:  COUNTRY NAME
 UWI .            /AZE00000090:  UNIQUE WELL IDENTIFIER
 API .            /AZE00000090:  API NUMBER
 CNTY.                        :  COUNTY
 PROV.                        :  PROVINCE
 STAT.                        :  STATE
 LOC .                        :  LOCATION
 LMF .             Drill Floor:  LOG MEASURED FROM
 TVDS.m                  36.60:  TVDSS CORRECTN
 LATI.deg                40.08:  LATITUDE
 LONG.deg                51.24:  LONGITUDE
 WHNS.m                  -7.94:  WELL HEAD N/S
 WHEW.m                   1.56:  WELL HEAD E/W
 UTMX.m              520429.26:  UTM X
 UTMY.m             4438973.87:  UTM Y
 DFWL.m                   0.00:  DISTANCE FWL
 DFSL.m                   0.00:  DISTANCE FSL
 SDEP.m                1455.00:  START DEPTH
 TDD .m                4047.51:  TOTAL DEPTH (DRILLER)
 VSDR.deg               112.75:  VERT SEC DIRECT
 GVFD.g                   1.00:  GRAVITY FIELD
 MFLD.nT              50261.00:  MAGNETIC FIELD
 MDIP.deg                59.52:  MAGNETIC DIP
 MDEC.deg                 6.42:  MAGNETIC DECL
 GRDC.deg                 0.17:  GRID CORRECTION
 AZTC.deg                 6.25:  AZM TOTAL CORR
 EPD .m                   0.00:  ELEVATION
 EGL .m                   0.00:  GROUND ELEVATION
 WDMS.m                 121.00:  WD ELEV
 APD .m                  36.60:  DEPTH ABOVE PD
 AGAP.m                  36.60:  AIR GAP
 VSEW.m                   1.56:  VERT SEC E/W
 VSNS.m                  -7.94:  VERT SEC N/S
 DEP .m                1140.01:  DEPTH
 EKB .m                  36.60:  KB ELEVATION
 EDF .m                  36.60:  DF ELEVATION
 TDL .m                 169.50:  TOTAL DEPTH (LOGGER)
 CSGD.m                3875.01:  CASING BOTTOM (DRILLER)
 CSGL.m                3875.01:  CASING BOTTOM (LOGGER)
 CSGS.in                  7.63:  CASING SIZE
 CSGW.lbpf               23.50:  CASING WEIGHT
 VSC .                       0:  VS TO CLOSURE
 MAGU.                 1849206:  MAGUTM CHECKSUM
~Parameter Information Block
#MNEM.UNIT       Value        Description
#---------     -----------    ---------------------------
 AV  .mps                 1.90:  Ann Velocity 
 AVMX.mps                 2.54:  Max Ann Veloc 
 AZIF.deg               137.03:  Azm, Final 
 BHAT.        Rotary Steerable:  BHA Type 
 BREV.rev             23610.00:  Rev Bit Total 
 BROT.°/30m               0.80:  Build Rotating 
 BS  .in                  6.50:  Bit Size 
 BTPL.psig              110.00:  Bit Press Loss 
 CABU.                     Yes:  Customer Abuse 
 COMM.                     ÇV:  Run Comments 1 
 TCS .hr                 70.51:  Time Ciculation Ended 
 CV  .mps                 1.41:  Crit Velocity 
 CVMX.mps                 1.42:  Max Crit Veloc 
 DD1 .         Intigam Rahimov:  Direct Drillr 1 
 DD2 .          Rashad Gojayev:  Direct Drillr 2 
 DDSV.               Geo-Pilot:  DD Service 
 DEFF.%                 100.00:  % Det Eff 
 DLRX.°/30m               1.44:  Dogleg Rot Max 
 DLSO.°/30m               0.00:  Dogleg Oriented 
 DLSX.°/30m               0.00:  Dogleg Str Max 
 DRET.      03.05.00 01-Feb-20:  Drill End Time 
 DRST.      15.50.00 28-Jan-20:  Drill Start Tim 
 DTIM.hr                 24.70:  Time Drilling 
 EDEP.m                4047.51:  End Depth 
 ENG1.           Eldar Hajiyev:  Engineer 1 
 ENG2.          Rasim Hashimov:  Engineer 2 
 ENG3.          Rustam Safarov:  Engineer 3 
 ETIM.      22.00.00 01-Feb-20:  End Time 
 FLOI.gpm               370.00:  Flow In 
 FLON.gpm               300.00:  Flow In Min 
 FLOS.cptm                0.00:  Fluid Loss 
 FLOX.gpm               400.00:  Flow In Max 
 FTRO.       Formation Presure:  FTWD Run Obj 
 HFLO.                      No:  High Flow 
 HPRE.                      No:  High Pressure 
 HTEM.                      No:  High Temp 
 HYDO.m                   2.50:  Hydro Offset 
 IFIN.deg                39.54:  Inc, Final 
 IMAX.deg                41.14:  Inc Max 
 IMIN.deg                39.81:  Inc Min 
 IMND.m                4005.21:  Inc Min Depth 
 IMXD.m                3948.42:  Inc Max Depth 
 JARR.                      No:  Jarring 
 LETM.      03.05.00 01-Feb-20:  Log End Time 
 LOST.hr                     0:  Lost Rig Time 
 LSTM.      15.50.00 28-Jan-20:  Log Start Time 
 MDCL.ppm             37500.00:  Mud Chlorides 
 MDES.     Inversion Oil/Synthetic:  Mud Desc 
 DFD .sg                  1.32:  Mud Density 
 MDMN.sg                  1.32:  Dens Mud Min 
 MDMX.sg                  1.32:  Dens Mud Max 
 MOIL.                      55:  Run Mud Oil % 
 MOWR.                   70:30:  Run Mud OWR 
 MSND.                       0:  Run Mud Sand % 
 MSOL.                      17:  Run Mud Solids% 
 DFV .spqt               80.00:  Mud Viscosity 
 MWOD.in                  4.75:  MWD Tool OD 
 MWSI.                      No:  Serv Intrp, MWD 
 OTIM.hr                121.28:  Time Operating 
 PCON.           Look Like New:  Pad Condition 
 PMAX.psia             6171.00:  Press Op, Max 
 PV  .cP                 30.00:  Mud PV 
 RUN .                     300:  Run Number 
 ROPA.m/hr                5.45:  ROP Avg 
 ROPN.m/hr                3.00:  ROP Min 
 ROPX.m/hr               15.00:  ROP Max 
 RPMA.rpm               130.00:  RPM Surface Avg 
 RPMN.rpm                80.00:  RPM Surface Min 
 RPMX.rpm               140.00:  RPM Surface Max 
 RRUN.                     300:  Rig Run Number 
 RTIM.hr                 13.50:  Time Reaming 
 SAZI.deg               133.93:  Azm, Start 
 SDEP.m                3878.01:  Start Depth 
 SIDD.                      No:  Serv Intrp, DD 
 SINC.deg                40.28:  Inc, Start 
 SPPA.psig             4983.00:  SPP Avg 
 SPPN.psig             4370.00:  SPP Min 
 SPPX.psig             5300.00:  SPP Max 
 STIM.      18.33.36 27-Jan-20:  Start Time 
 SVCS.                 DD, MWD:  Services 
 SVER.                    9.20:  Sperry Version 
 TDAT.m                 169.50:  Tot Depth Attmp 
 TDDF.                      No:  Trip for DD 
 TDLG.m                 169.50:  Tot Depth Loggd 
 TFF .                      No:  Trip for Fail 
 TQAA.f-kp               13.25:  Torque Abs Avg 
 TQAN.f-kp               12.00:  Torque Abs Min 
 TQAX.f-kp               14.00:  Torque Abs Max 
 TRRT.°/30m               0.70:  Turn Rotating 
 MRT .                     ADR:  Maximum Recorded Temperature 
 TTMX.degC               92.16:  Max Tool Temp 
 VS01.       AZ90598764G12V7D4:  Virtual Str1 SN 
 VS02.         AZ90571342R12C4:  Virtual Str2 SN 
 VS03.      AZ90580010N2L2X1C4:  Virtual Str3 SN 
 VS04.        AZ90522266O7X1C4:  Virtual Str4 SN 
 VS05.           AZ90598768F11:  Virtual Str5 SN 
 VS06.     AZ90580006XZ1W1X1C4:  Virtual Str6 SN 
 WBMN.klb                 8.00:  WOB Min 
 WITN.            Peter Wilson:  Customer Rep 
 WOBA.klb                 9.88:  WOB Avg 
 WOBX.klb                10.00:  WOB Max 
 YP  .lhf2               27.00:  Yield Point 
~Curve Information Block
#MNEM.UNIT                 API CODE     Curve Description
#---------               -----------    ---------------------------
 TIME.HHMMSS            00 000 000 000:  GT Time & Date
 GTDEPTH.m              00 000 000 000:  GT Depth
 GTPQH.psia             00 000 000 000:  GT HR Quartz Pressure
 GTTQ.degC              00 000 000 000:  GT Quartz Temperature
 GTTN.NONE              00 000 000 000:  GT Test Number
 GTET.sec               00 000 000 000:  GT Elapsed Test Time
 GTTVD.m                00 000 000 000:  GT True Vertical Depth
#Other Information
#
#WARRANTY: Halliburton will use its best efforts to furnish customers with 
#accurate information and interpretations that are part of, and incident to, the services 
#provided.  However, Halliburton cannot and does not warrant the accuracy 
#or correctness of such information and interpretations.  Under no circumstances should any 
#such information or interpretation be relied upon as the sole basis for any drilling, 
#completion, production, or financial decision or any procedure involving any risk to the 
#safety of any drilling venture, drilling rig or its crew or any other third party.  The 
#Customer has full responsibility for all drilling, completion and production operation.  
#Halliburton makes no representations or warranties, either expressed or 
#implied, including, but not limited to, the implied warranties of merchantability or fitness 
#for a particular purpose, with respect to the services rendered.  In no event will 
#Halliburton be liable for failure to obtain any particular results or for 
#any damages, including, but not limited to, indirect, special or consequential damages, 
#resulting from the use of any information or interpretation provided by Halliburton.
#
~A           TIME           GTDEPTH  GTPQH  GTTQ  GTTN  GTET   GTTVD  
# ...
   14:15:14.136.31-Jan-2020 3945.01 3013.92 83.67 7.00 345.08 2971.20
   14:15:14.336.31-Jan-2020 3945.01 3013.92 83.67 7.00 345.28 2971.20
   14:15:14.536.31-Jan-2020 3945.01 3013.95 83.67 7.00 345.48 2971.20
   14:15:14.736.31-Jan-2020 3945.01 3013.94 83.67 7.00 345.68 2971.20
   14:15:14.936.31-Jan-2020 3945.01 3013.95 83.67 7.00 345.88 2971.20
   14:15:15.136.31-Jan-2020 3945.01 3013.88 83.67 7.00 346.08 2971.20
   14:15:15.336.31-Jan-2020 3945.01 3013.88 83.67 7.00 346.28 2971.20
   14:15:15.536.31-Jan-2020 3945.01 3013.87 83.67 7.00 346.48 2971.20
   14:15:15.736.31-Jan-2020 3945.01 3013.91 83.67 7.00 346.68 2971.20
   14:15:15.936.31-Jan-2020 3945.01 3013.96 83.67 7.00 346.88 2971.20
   14:15:16.136.31-Jan-2020 3945.01 3013.86 83.67 7.00 347.08 2971.20
   14:15:16.336.31-Jan-2020 3945.01 3013.86 83.67 7.00 347.28 2971.20
   14:15:16.536.31-Jan-2020 3945.01 3013.87 83.66 7.00 347.48 2971.20
   14:15:16.736.31-Jan-2020 3945.01 3013.90 83.66 7.00 347.68 2971.20
   14:15:16.936.31-Jan-2020 3945.01 3013.93 83.66 7.00 347.88 2971.20
   14:15:17.136.31-Jan-2020 3945.01 3015.54 83.66 7.00 348.08 2971.20
   14:15:17.336.31-Jan-2020 3945.01 3015.54 83.66 7.00 348.28 2971.20
   14:15:17.536.31-Jan-2020 3945.01 3873.74 83.66 7.00 348.48 2971.20
   14:15:17.736.31-Jan-2020 3945.01 6020.42 83.66 7.00 348.68 2971.20
   14:15:17.936.31-Jan-2020 3945.01 6024.09 83.66 7.00 348.88 2971.20
   14:15:18.136.31-Jan-2020 3945.01 6021.77 83.66 7.00 349.08 2971.20
   14:15:18.337.31-Jan-2020 3945.01 6021.77 83.66 7.00 349.28 2971.20
   14:15:18.537.31-Jan-2020 3945.01 6026.62 83.66 7.00 349.48 2971.20
   14:15:18.737.31-Jan-2020 3945.01 6025.02 83.66 7.00 349.68 2971.20
   14:15:18.937.31-Jan-2020 3945.01 6029.28 83.66 7.00 349.88 2971.20
   14:15:19.137.31-Jan-2020 3945.01 6027.19 83.66 7.00 350.08 2971.20
   14:15:19.337.31-Jan-2020 3945.01 6027.19 83.66 7.00 350.28 2971.20
   14:15:19.537.31-Jan-2020 3945.01 6030.21 83.66 7.00 350.48 2971.20
   14:15:19.737.31-Jan-2020 3945.01 6028.37 83.66 7.00 350.68 2971.20
   14:15:19.937.31-Jan-2020 3945.01 6032.36 83.66 7.00 350.88 2971.20
   14:15:20.137.31-Jan-2020 3945.01 6029.53 83.66 7.00 351.08 2971.20
   14:15:20.337.31-Jan-2020 3945.01 6029.53 83.66 7.00 351.28 2971.20
   14:15:20.537.31-Jan-2020 3945.01 6034.44 83.66 7.00 351.48 2971.20
   14:15:20.737.31-Jan-2020 3945.01 6028.34 83.66 7.00 351.68 2971.20
   14:15:20.937.31-Jan-2020 3945.01 6029.16 83.66 7.00 351.88 2971.20
   14:15:21.137.31-Jan-2020 3945.01 6030.35 83.66 7.00 352.08 2971.20
   14:15:21.337.31-Jan-2020 3945.01 6030.35 83.66 7.00 352.28 2971.20
   14:15:21.537.31-Jan-2020 3945.01 6034.70 83.66 7.00 352.48 2971.20
   14:15:21.737.31-Jan-2020 3945.01 6028.10 83.66 7.00 352.68 2971.20
   14:15:21.937.31-Jan-2020 3945.01 6029.54 83.66 7.00 352.88 2971.20
   14:15:22.137.31-Jan-2020 3945.01 6031.67 83.66 7.00 353.08 2971.20
   14:15:22.337.31-Jan-2020 3945.01 6031.67 83.66 7.00 353.28 2971.20
   14:15:22.537.31-Jan-2020 3945.01 6035.75 83.66 7.00 353.48 2971.20
   14:15:22.738.31-Jan-2020 3945.01 6032.91 83.66 7.00 353.68 2971.20
   14:15:22.938.31-Jan-2020 3945.01 6030.62 83.66 7.00 353.88 2971.20
   14:15:23.138.31-Jan-2020 3945.01 6027.57 83.66 7.00 354.08 2971.20
   14:15:23.338.31-Jan-2020 3945.01 6027.57 83.66 7.00 354.28 2971.20
   14:15:23.538.31-Jan-2020 3945.01 6032.12 83.66 7.00 354.48 2971.20
   14:15:23.738.31-Jan-2020 3945.01 6031.94 83.66 7.00 354.68 2971.20
   14:15:23.938.31-Jan-2020 3945.01 6034.15 83.66 7.00 354.88 2971.20
   14:15:24.138.31-Jan-2020 3945.01 6032.24 83.66 7.00 355.08 2971.20
   14:15:24.338.31-Jan-2020 3945.01 6032.24 83.66 7.00 355.28 2971.20
   14:15:24.538.31-Jan-2020 3945.01 6030.11 83.67 7.00 355.48 2971.20
   14:15:24.738.31-Jan-2020 3945.01 6030.13 83.67 7.00 355.68 2971.20
   14:15:24.938.31-Jan-2020 3945.01 6033.56 83.67 7.00 355.88 2971.20
   14:15:25.138.31-Jan-2020 3945.01 6032.31 83.67 7.00 356.08 2971.20
   14:15:25.338.31-Jan-2020 3945.01 6032.31 83.67 7.00 356.28 2971.20
   14:15:25.538.31-Jan-2020 3945.01 6029.48 83.67 7.00 356.48 2971.20
   14:15:25.738.31-Jan-2020 3945.01 6029.61 83.67 7.00 356.68 2971.20
   14:15:25.938.31-Jan-2020 3945.01 6034.25 83.67 7.00 356.88 2971.20
   14:15:26.138.31-Jan-2020 3945.01 6035.20 83.67 7.00 357.08 2971.20
   14:15:26.338.31-Jan-2020 3945.01 6035.20 83.67 7.00 357.28 2971.20
   14:15:26.538.31-Jan-2020 3945.01 6035.05 83.67 7.00 357.48 2971.20
   14:15:26.738.31-Jan-2020 3945.01 6033.01 83.67 7.00 357.68 2971.20
   14:15:26.939.31-Jan-2020 3945.01 6032.84 83.67 7.00 357.88 2971.20
   14:15:27.139.31-Jan-2020 3945.01 6032.37 83.67 7.00 358.08 2971.20
   14:15:27.339.31-Jan-2020 3945.01 6032.37 83.67 7.00 358.28 2971.20
   14:15:27.539.31-Jan-2020 3945.01 6033.73 83.67 7.00 358.48 2971.20
   14:15:27.739.31-Jan-2020 3945.01 6032.17 83.67 7.00 358.68 2971.20
   14:15:27.939.31-Jan-2020 3945.01 6031.53 83.67 7.00 358.88 2971.20
   14:15:28.139.31-Jan-2020 3945.01 6032.53 83.67 7.00 359.08 2971.20
   14:15:28.339.31-Jan-2020 3945.01 6032.53 83.67 7.00 359.28 2971.20
   14:15:28.539.31-Jan-2020 3945.01 6033.44 83.67 7.00 359.48 2971.20
   14:15:28.739.31-Jan-2020 3945.01 6032.66 83.67 7.00 359.68 2971.20
   14:15:28.939.31-Jan-2020 3945.01 6024.97 83.67 7.00 359.88 2971.20
   14:15:29.139.31-Jan-2020 3945.01 6030.47 83.67 7.00 360.08 2971.20
   14:15:29.339.31-Jan-2020 3945.01 6030.47 83.67 7.00 360.28 2971.20
   14:15:29.539.31-Jan-2020 3945.01 6032.98 83.67 7.00 360.48 2971.20
   14:15:29.739.31-Jan-2020 3945.01 6032.53 83.67 7.00 360.68 2971.20
   14:15:29.939.31-Jan-2020 3945.01 6033.16 83.67 7.00 360.88 2971.20
   14:15:30.139.31-Jan-2020 3945.01 6033.59 83.67 7.00 361.08 2971.20
   14:15:30.339.31-Jan-2020 3945.01 6033.59 83.67 7.00 361.28 2971.20
   14:15:30.539.31-Jan-2020 3945.01 6032.73 83.67 7.00 361.48 2971.20
   14:15:30.739.31-Jan-2020 3945.01 6032.42 83.67 7.00 361.68 2971.20
   14:15:30.939.31-Jan-2020 3945.01 6032.05 83.67 7.00 361.88 2971.20
   14:15:31.140.31-Jan-2020 3945.01 6032.58 83.67 7.00 362.08 2971.20
   14:15:31.340.31-Jan-2020 3945.01 6032.58 83.67 7.00 362.28 2971.20
   14:15:31.540.31-Jan-2020 3945.01 6032.21 83.66 7.00 362.48 2971.20
   14:15:31.740.31-Jan-2020 3945.01 6032.64 83.66 7.00 362.68 2971.20
   14:15:31.940.31-Jan-2020 3945.01 6034.18 83.66 7.00 362.89 2971.20
   14:15:32.140.31-Jan-2020 3945.01 6033.45 83.66 7.00 363.09 2971.20
   14:15:32.340.31-Jan-2020 3945.01 6033.45 83.66 7.00 363.29 2971.20
   14:15:32.540.31-Jan-2020 3945.01 6024.72 83.66 7.00 363.49 2971.20
   14:15:32.740.31-Jan-2020 3945.01 6030.38 83.66 7.00 363.69 2971.20
   14:15:32.940.31-Jan-2020 3945.01 6032.75 83.66 7.00 363.89 2971.20
   14:15:33.140.31-Jan-2020 3945.01 6032.59 83.66 7.00 364.09 2971.20
   14:15:33.340.31-Jan-2020 3945.01 6032.59 83.66 7.00 364.29 2971.20
   14:15:33.540.31-Jan-2020 3945.01 6025.65 83.66 7.00 364.49 2971.20
   14:15:33.740.31-Jan-2020 3945.01 6031.70 83.66 7.00 364.69 2971.20
   14:15:33.940.31-Jan-2020 3945.01 6033.92 83.66 7.00 364.89 2971.20
   14:15:34.140.31-Jan-2020 3945.01 6033.87 83.66 7.00 365.09 2971.20
   14:15:34.340.31-Jan-2020 3945.01 6033.87 83.66 7.00 365.29 2971.20
   14:15:34.540.31-Jan-2020 3945.01 6032.89 83.66 7.00 365.49 2971.20
   14:15:34.740.31-Jan-2020 3945.01 6025.82 83.66 7.00 365.69 2971.20
   14:15:34.940.31-Jan-2020 3945.01 6030.30 83.66 7.00 365.89 2971.20
   14:15:35.140.31-Jan-2020 3945.01 6029.42 83.66 7.00 366.09 2971.20
   14:15:35.340.31-Jan-2020 3945.01 6029.42 83.66 7.00 366.29 2971.20
   14:15:35.541.31-Jan-2020 3945.01 6033.81 83.66 7.00 366.49 2971.20
   14:15:35.741.31-Jan-2020 3945.01 6026.27 83.66 7.00 366.69 2971.20
   14:15:35.941.31-Jan-2020 3945.01 6030.91 83.66 7.00 366.89 2971.20
   14:15:36.141.31-Jan-2020 3945.01 6030.02 83.66 7.00 367.09 2971.20
   14:15:36.341.31-Jan-2020 3945.01 6030.02 83.66 7.00 367.29 2971.20
   14:15:36.541.31-Jan-2020 3945.01 6033.08 83.66 7.00 367.49 2971.20
   14:15:36.741.31-Jan-2020 3945.01 6032.64 83.66 7.00 367.69 2971.20
   14:15:36.941.31-Jan-2020 3945.01 6025.08 83.66 7.00 367.89 2971.20
