~Version Information
 VERS.                  2.0:   CWLS log ASCII Standard -VERSION 2.0
 WRAP.                   NO:   One line per depth step
~Well Information Block
#MNEM.UNIT     VALUE/NAME     DESCRIPTION
#---------     -----------    ---------------------------
 STRT.S             21:06:33 30-Jan-20: START TIME 21:06:33 30-Jan-20
 STOP.S             21:13:02 30-Jan-20: STOP TIME  21:13:02 30-Jan-20
 STEP.S                   0.00: STEP TIME
 NULL.                 -999.25: NULL VALUE
 DFWT.                        :  DIST FWL TEXT
 DFST.                        :  DIST FSL TEXT
 DMF .             Drill Floor:  DRILL MEAS FROM
 STIM.      09.30.00 26-Dec-19:  START TIME
 DATE.      08.00.00 20-Jan-20:  END TIME
 SPUD.               23-Nov-19:  SPUD DATE
 NREF.                    Grid:  NORTH REFERENCE
 HPTY.       Minimum Curvature:  HOLE POS TYPE
 DMOD.             Drill Model:  DRILL MOD DESC
 SVYD.                  Survey:  SURVEY DESC
 ILTD.               Lithology:  INTERP LTH DESC
 FTOP.          Formation Tops:  FORM TOPS DESC
 SON .        AZ-XX-0906192647:  JOB NUMBER
 WTYP.                Deviated:  WELL TYPE
 COMP.     BP Exploration (Caspian Sea) Ltd:  COMPANY
 BASE.              Azerbaijan:  LOGGING EQUIPMENT BASE LOCATION
 REGN.                 Eurasia:  REGION
 FLD .                     ACG:  FIELD NAME
 SRVC.              KCA Deutag:  CONTRACTOR
 MWDS.                    Baku:  MWD SHOP
 WELL.     A10 (Slot 20) - SCP:  WELL NAME
 JOBN.        AZ-XX-0906192647:  JOB TICKET NUMB
 RIG .                 Chirag1:  RIG NAME
 DCON.     Halliburton Sperry Drilling:  DIRECTNL CONTR
 UNIT.                     N/A:  LOGGING EQUIPMENT ID
 PDAT.          Mean Sea Level:  PERMANENT DATUM
 MDS .        Operator Entered:  MAG DATA SOURCE
 CTRY.              Azerbaijan:  COUNTRY NAME
 UWI .            /AZE00000090:  UNIQUE WELL IDENTIFIER
 API .            /AZE00000090:  API NUMBER
 CNTY.                        :  COUNTY
 PROV.                        :  PROVINCE
 STAT.                        :  STATE
 LOC .                        :  LOCATION
 LMF .             Drill Floor:  LOG MEASURED FROM
 TVDS.m                  36.60:  TVDSS CORRECTN
 LATI.deg                40.08:  LATITUDE
 LONG.deg                51.24:  LONGITUDE
 WHNS.m                  -7.94:  WELL HEAD N/S
 WHEW.m                   1.56:  WELL HEAD E/W
 UTMX.m              520429.26:  UTM X
 UTMY.m             4438973.87:  UTM Y
 DFWL.m                   0.00:  DISTANCE FWL
 DFSL.m                   0.00:  DISTANCE FSL
 SDEP.m                1455.00:  START DEPTH
 TDD .m                4047.51:  TOTAL DEPTH (DRILLER)
 VSDR.deg               112.75:  VERT SEC DIRECT
 GVFD.g                   1.00:  GRAVITY FIELD
 MFLD.nT              50261.00:  MAGNETIC FIELD
 MDIP.deg                59.52:  MAGNETIC DIP
 MDEC.deg                 6.42:  MAGNETIC DECL
 GRDC.deg                 0.17:  GRID CORRECTION
 AZTC.deg                 6.25:  AZM TOTAL CORR
 EPD .m                   0.00:  ELEVATION
 EGL .m                   0.00:  GROUND ELEVATION
 WDMS.m                 121.00:  WD ELEV
 APD .m                  36.60:  DEPTH ABOVE PD
 AGAP.m                  36.60:  AIR GAP
 VSEW.m                   1.56:  VERT SEC E/W
 VSNS.m                  -7.94:  VERT SEC N/S
 DEP .m                1140.01:  DEPTH
 EKB .m                  36.60:  KB ELEVATION
 EDF .m                  36.60:  DF ELEVATION
 TDL .m                 169.50:  TOTAL DEPTH (LOGGER)
 CSGD.m                3875.01:  CASING BOTTOM (DRILLER)
 CSGL.m                3875.01:  CASING BOTTOM (LOGGER)
 CSGS.in                  7.63:  CASING SIZE
 CSGW.lbpf               23.50:  CASING WEIGHT
 VSC .                       0:  VS TO CLOSURE
 MAGU.                 1849206:  MAGUTM CHECKSUM
~Parameter Information Block
#MNEM.UNIT       Value        Description
#---------     -----------    ---------------------------
 AV  .mps                 1.90:  Ann Velocity 
 AVMX.mps                 2.54:  Max Ann Veloc 
 AZIF.deg               137.03:  Azm, Final 
 BHAT.        Rotary Steerable:  BHA Type 
 BREV.rev             23610.00:  Rev Bit Total 
 BROT.°/30m               0.80:  Build Rotating 
 BS  .in                  6.50:  Bit Size 
 BTPL.psig              110.00:  Bit Press Loss 
 CABU.                     Yes:  Customer Abuse 
 TCS .hr                 70.51:  Time Ciculation Ended 
 CV  .mps                 1.41:  Crit Velocity 
 CVMX.mps                 1.42:  Max Crit Veloc 
 DD1 .         Intigam Rahimov:  Direct Drillr 1 
 DD2 .          Rashad Gojayev:  Direct Drillr 2 
 DDSV.               Geo-Pilot:  DD Service 
 DEFF.%                 100.00:  % Det Eff 
 DLRX.°/30m               1.44:  Dogleg Rot Max 
 DLSO.°/30m               0.00:  Dogleg Oriented 
 DLSX.°/30m               0.00:  Dogleg Str Max 
 DRET.      03.05.00 01-Feb-20:  Drill End Time 
 DRST.      15.50.00 28-Jan-20:  Drill Start Tim 
 DTIM.hr                 24.70:  Time Drilling 
 EDEP.m                4047.51:  End Depth 
 ENG1.           Eldar Hajiyev:  Engineer 1 
 ENG2.          Rasim Hashimov:  Engineer 2 
 ENG3.          Rustam Safarov:  Engineer 3 
 ETIM.      22.00.00 01-Feb-20:  End Time 
 FLOI.gpm               370.00:  Flow In 
 FLON.gpm               300.00:  Flow In Min 
 FLOS.cptm                0.00:  Fluid Loss 
 FLOX.gpm               400.00:  Flow In Max 
 FTRO.       Formation Presure:  FTWD Run Obj 
 HFLO.                      No:  High Flow 
 HPRE.                      No:  High Pressure 
 HTEM.                      No:  High Temp 
 HYDO.m                   2.50:  Hydro Offset 
 IFIN.deg                39.54:  Inc, Final 
 IMAX.deg                41.14:  Inc Max 
 IMIN.deg                39.81:  Inc Min 
 IMND.m                4005.21:  Inc Min Depth 
 IMXD.m                3948.42:  Inc Max Depth 
 JARR.                      No:  Jarring 
 LETM.      03.05.00 01-Feb-20:  Log End Time 
 LOST.hr                     0:  Lost Rig Time 
 LSTM.      15.50.00 28-Jan-20:  Log Start Time 
 MDCL.ppm             37500.00:  Mud Chlorides 
 MDES.     Inversion Oil/Synthetic:  Mud Desc 
 DFD .sg                  1.32:  Mud Density 
 MDMN.sg                  1.32:  Dens Mud Min 
 MDMX.sg                  1.32:  Dens Mud Max 
 MOIL.                      55:  Run Mud Oil % 
 MOWR.                   70:30:  Run Mud OWR 
 MSND.                       0:  Run Mud Sand % 
 MSOL.                      17:  Run Mud Solids% 
 DFV .spqt               80.00:  Mud Viscosity 
 MWOD.in                  4.75:  MWD Tool OD 
 MWSI.                      No:  Serv Intrp, MWD 
 OTIM.hr                121.28:  Time Operating 
 PCON.           Look Like New:  Pad Condition 
 PMAX.psia             6171.00:  Press Op, Max 
 PV  .cP                 30.00:  Mud PV 
 RUN .                     300:  Run Number 
 ROPA.m/hr                5.45:  ROP Avg 
 ROPN.m/hr                3.00:  ROP Min 
 ROPX.m/hr               15.00:  ROP Max 
 RPMA.rpm               130.00:  RPM Surface Avg 
 RPMN.rpm                80.00:  RPM Surface Min 
 RPMX.rpm               140.00:  RPM Surface Max 
 RRUN.                     300:  Rig Run Number 
 RTIM.hr                 13.50:  Time Reaming 
 SAZI.deg               133.93:  Azm, Start 
 SDEP.m                3878.01:  Start Depth 
 SIDD.                      No:  Serv Intrp, DD 
 SINC.deg                40.28:  Inc, Start 
 SPPA.psig             4983.00:  SPP Avg 
 SPPN.psig             4370.00:  SPP Min 
 SPPX.psig             5300.00:  SPP Max 
 STIM.      18.33.36 27-Jan-20:  Start Time 
 SVCS.                 DD, MWD:  Services 
 SVER.                    9.20:  Sperry Version 
 TDAT.m                 169.50:  Tot Depth Attmp 
 TDDF.                      No:  Trip for DD 
 TDLG.m                 169.50:  Tot Depth Loggd 
 TFF .                      No:  Trip for Fail 
 TQAA.f-kp               13.25:  Torque Abs Avg 
 TQAN.f-kp               12.00:  Torque Abs Min 
 TQAX.f-kp               14.00:  Torque Abs Max 
 TRRT.°/30m               0.70:  Turn Rotating 
 MRT .                     ADR:  Maximum Recorded Temperature 
 TTMX.degC               92.16:  Max Tool Temp 
 VS01.       AZ90598764G12V7D4:  Virtual Str1 SN 
 VS02.         AZ90571342R12C4:  Virtual Str2 SN 
 VS03.      AZ90580010N2L2X1C4:  Virtual Str3 SN 
 VS04.        AZ90522266O7X1C4:  Virtual Str4 SN 
 VS05.           AZ90598768F11:  Virtual Str5 SN 
 VS06.     AZ90580006XZ1W1X1C4:  Virtual Str6 SN 
 WBMN.klb                 8.00:  WOB Min 
 WITN.            Peter Wilson:  Customer Rep 
 WOBA.klb                 9.88:  WOB Avg 
 WOBX.klb                10.00:  WOB Max 
 YP  .lhf2               27.00:  Yield Point 
~Curve Information Block
#MNEM.UNIT                 API CODE     Curve Description
#---------               -----------    ---------------------------
 TIME.HHMMSS            00 000 000 000:  GT Time & Date
 GTDEPTH.m              00 000 000 000:  GT Depth
 GTPQH.psia             00 000 000 000:  GT HR Quartz Pressure
 GTTQ.degC              00 000 000 000:  GT Quartz Temperature
 GTTN.NONE              00 000 000 000:  GT Test Number
 GTET.sec               00 000 000 000:  GT Elapsed Test Time
 GTTVD.m                00 000 000 000:  GT True Vertical Depth
#Other Information
#
#WARRANTY: Halliburton will use its best efforts to furnish customers with 
#accurate information and interpretations that are part of, and incident to, the services 
#provided.  However, Halliburton cannot and does not warrant the accuracy 
#or correctness of such information and interpretations.  Under no circumstances should any 
#such information or interpretation be relied upon as the sole basis for any drilling, 
#completion, production, or financial decision or any procedure involving any risk to the 
#safety of any drilling venture, drilling rig or its crew or any other third party.  The 
#Customer has full responsibility for all drilling, completion and production operation.  
#Halliburton makes no representations or warranties, either expressed or 
#implied, including, but not limited to, the implied warranties of merchantability or fitness 
#for a particular purpose, with respect to the services rendered.  In no event will 
#Halliburton be liable for failure to obtain any particular results or for 
#any damages, including, but not limited to, indirect, special or consequential damages, 
#resulting from the use of any information or interpretation provided by Halliburton.
#
~A           TIME           GTDEPTH  GTPQH  GTTQ  GTTN  GTET   GTTVD  
# ...
   21:10:23.048.30-Jan-2020 3895.01 2981.24 72.57 2.00 230.04 2933.47
   21:10:23.248.30-Jan-2020 3895.01 2981.24 72.57 2.00 230.24 2933.47
   21:10:23.448.30-Jan-2020 3895.01 2981.07 72.57 2.00 230.44 2933.47
   21:10:23.648.30-Jan-2020 3895.01 2981.12 72.57 2.00 230.64 2933.47
   21:10:23.848.30-Jan-2020 3895.01 2981.20 72.57 2.00 230.84 2933.47
   21:10:24.048.30-Jan-2020 3895.01 2981.15 72.57 2.00 231.04 2933.47
   21:10:24.248.30-Jan-2020 3895.01 2981.15 72.57 2.00 231.24 2933.47
   21:10:24.448.30-Jan-2020 3895.01 2981.07 72.57 2.00 231.44 2933.47
   21:10:24.648.30-Jan-2020 3895.01 2980.92 72.57 2.00 231.64 2933.47
   21:10:24.848.30-Jan-2020 3895.01 2980.91 72.57 2.00 231.84 2933.47
   21:10:25.048.30-Jan-2020 3895.01 2981.27 72.57 2.00 232.04 2933.47
   21:10:25.248.30-Jan-2020 3895.01 2981.27 72.57 2.00 232.24 2933.47
   21:10:25.448.30-Jan-2020 3895.01 2981.20 72.57 2.00 232.44 2933.47
   21:10:25.648.30-Jan-2020 3895.01 2981.16 72.57 2.00 232.64 2933.47
   21:10:25.848.30-Jan-2020 3895.01 2981.23 72.57 2.00 232.84 2933.47
   21:10:26.048.30-Jan-2020 3895.01 2981.18 72.57 2.00 233.04 2933.47
   21:10:26.249.30-Jan-2020 3895.01 2981.18 72.57 2.00 233.24 2933.47
   21:10:26.449.30-Jan-2020 3895.01 2981.14 72.57 2.00 233.44 2933.47
   21:10:26.649.30-Jan-2020 3895.01 2981.07 72.57 2.00 233.64 2933.47
   21:10:26.849.30-Jan-2020 3895.01 2981.11 72.57 2.00 233.84 2933.47
   21:10:27.049.30-Jan-2020 3895.01 2981.13 72.57 2.00 234.04 2933.47
   21:10:27.249.30-Jan-2020 3895.01 2981.13 72.57 2.00 234.24 2933.47
   21:10:27.449.30-Jan-2020 3895.01 2981.14 72.56 2.00 234.44 2933.47
   21:10:27.649.30-Jan-2020 3895.01 2981.22 72.56 2.00 234.64 2933.47
   21:10:27.849.30-Jan-2020 3895.01 2981.20 72.56 2.00 234.84 2933.47
   21:10:28.049.30-Jan-2020 3895.01 2980.60 72.56 2.00 235.04 2933.47
   21:10:28.249.30-Jan-2020 3895.01 2980.60 72.56 2.00 235.24 2933.47
   21:10:28.449.30-Jan-2020 3895.01 2981.26 72.56 2.00 235.44 2933.47
   21:10:28.649.30-Jan-2020 3895.01 2981.18 72.56 2.00 235.64 2933.47
   21:10:28.849.30-Jan-2020 3895.01 2981.15 72.56 2.00 235.84 2933.47
   21:10:29.049.30-Jan-2020 3895.01 2980.67 72.56 2.00 236.04 2933.47
   21:10:29.249.30-Jan-2020 3895.01 2980.67 72.56 2.00 236.24 2933.47
   21:10:29.449.30-Jan-2020 3895.01 2981.25 72.56 2.00 236.44 2933.47
   21:10:29.649.30-Jan-2020 3895.01 2981.23 72.56 2.00 236.64 2933.47
   21:10:29.849.30-Jan-2020 3895.01 2981.14 72.56 2.00 236.84 2933.47
   21:10:30.049.30-Jan-2020 3895.01 2981.14 72.56 2.00 237.04 2933.47
   21:10:30.249.30-Jan-2020 3895.01 2981.14 72.56 2.00 237.24 2933.47
   21:10:30.449.30-Jan-2020 3895.01 2980.53 72.56 2.00 237.44 2933.47
   21:10:30.649.30-Jan-2020 3895.01 2981.25 72.56 2.00 237.64 2933.47
   21:10:30.849.30-Jan-2020 3895.01 2981.28 72.56 2.00 237.84 2933.47
   21:10:31.049.30-Jan-2020 3895.01 2981.26 72.56 2.00 238.04 2933.47
   21:10:31.249.30-Jan-2020 3895.01 2981.26 72.56 2.00 238.24 2933.47
   21:10:31.449.30-Jan-2020 3895.01 2980.85 72.56 2.00 238.44 2933.47
   21:10:31.650.30-Jan-2020 3895.01 2981.28 72.55 2.00 238.64 2933.47
   21:10:31.850.30-Jan-2020 3895.01 2981.30 72.55 2.00 238.84 2933.47
   21:10:32.050.30-Jan-2020 3895.01 2981.28 72.55 2.00 239.05 2933.47
   21:10:32.250.30-Jan-2020 3895.01 2981.28 72.55 2.00 239.25 2933.47
   21:10:32.450.30-Jan-2020 3895.01 2981.20 72.55 2.00 239.45 2933.47
   21:10:32.650.30-Jan-2020 3895.01 2953.74 72.55 2.00 239.65 2933.47
   21:10:32.850.30-Jan-2020 3895.01 2653.51 72.55 2.00 239.85 2933.47
   21:10:33.050.30-Jan-2020 3895.01 2424.92 72.55 2.00 240.05 2933.47
   21:10:33.250.30-Jan-2020 3895.01 2424.92 72.55 2.00 240.25 2933.47
   21:10:33.450.30-Jan-2020 3895.01 2252.74 72.55 2.00 240.45 2933.47
   21:10:33.650.30-Jan-2020 3895.01 2219.04 72.55 2.00 240.65 2933.47
   21:10:33.850.30-Jan-2020 3895.01 2201.54 72.55 2.00 240.85 2933.47
   21:10:34.050.30-Jan-2020 3895.01 2192.63 72.55 2.00 241.05 2933.47
   21:10:34.250.30-Jan-2020 3895.01 2192.63 72.55 2.00 241.25 2933.47
   21:10:34.450.30-Jan-2020 3895.01 2183.81 72.55 2.00 241.45 2933.47
   21:10:34.650.30-Jan-2020 3895.01 2179.89 72.55 2.00 241.65 2933.47
   21:10:34.850.30-Jan-2020 3895.01 2178.40 72.55 2.00 241.85 2933.47
   21:10:35.050.30-Jan-2020 3895.01 2178.02 72.55 2.00 242.05 2933.47
   21:10:35.250.30-Jan-2020 3895.01 2178.02 72.55 2.00 242.25 2933.47
   21:10:35.450.30-Jan-2020 3895.01 2174.77 72.55 2.00 242.45 2933.47
   21:10:35.650.30-Jan-2020 3895.01 2176.09 72.54 2.00 242.65 2933.47
   21:10:35.850.30-Jan-2020 3895.01 2178.04 72.54 2.00 242.85 2933.47
   21:10:36.050.30-Jan-2020 3895.01 2176.46 72.54 2.00 243.05 2933.47
   21:10:36.250.30-Jan-2020 3895.01 2176.46 72.54 2.00 243.25 2933.47
   21:10:36.450.30-Jan-2020 3895.01 2182.08 72.54 2.00 243.45 2933.47
   21:10:36.650.30-Jan-2020 3895.01 2179.42 72.54 2.00 243.65 2933.47
   21:10:36.851.30-Jan-2020 3895.01 2177.71 72.54 2.00 243.85 2933.47
   21:10:37.051.30-Jan-2020 3895.01 2178.58 72.54 2.00 244.05 2933.47
   21:10:37.251.30-Jan-2020 3895.01 2178.58 72.54 2.00 244.25 2933.47
   21:10:37.451.30-Jan-2020 3895.01 2179.29 72.54 2.00 244.45 2933.47
   21:10:37.651.30-Jan-2020 3895.01 2181.12 72.54 2.00 244.65 2933.47
   21:10:37.851.30-Jan-2020 3895.01 2181.80 72.54 2.00 244.85 2933.47
   21:10:38.051.30-Jan-2020 3895.01 2183.79 72.54 2.00 245.05 2933.47
   21:10:38.251.30-Jan-2020 3895.01 2183.79 72.54 2.00 245.25 2933.47
   21:10:38.451.30-Jan-2020 3895.01 2182.71 72.54 2.00 245.45 2933.47
   21:10:38.651.30-Jan-2020 3895.01 2183.58 72.54 2.00 245.65 2933.47
   21:10:38.851.30-Jan-2020 3895.01 2182.62 72.53 2.00 245.85 2933.47
   21:10:39.051.30-Jan-2020 3895.01 2181.10 72.53 2.00 246.05 2933.47
   21:10:39.251.30-Jan-2020 3895.01 2181.10 72.53 2.00 246.25 2933.47
   21:10:39.451.30-Jan-2020 3895.01 2184.38 72.53 2.00 246.45 2933.47
   21:10:39.651.30-Jan-2020 3895.01 2187.50 72.53 2.00 246.65 2933.47
   21:10:39.851.30-Jan-2020 3895.01 2189.62 72.53 2.00 246.85 2933.47
   21:10:40.051.30-Jan-2020 3895.01 2189.98 72.53 2.00 247.05 2933.47
   21:10:40.251.30-Jan-2020 3895.01 2189.98 72.53 2.00 247.25 2933.47
   21:10:40.451.30-Jan-2020 3895.01 2185.40 72.53 2.00 247.45 2933.47
   21:10:40.651.30-Jan-2020 3895.01 2189.20 72.53 2.00 247.65 2933.47
   21:10:40.851.30-Jan-2020 3895.01 2188.50 72.53 2.00 247.85 2933.47
   21:10:41.051.30-Jan-2020 3895.01 2187.95 72.53 2.00 248.05 2933.47
   21:10:41.251.30-Jan-2020 3895.01 2187.95 72.53 2.00 248.25 2933.47
   21:10:41.451.30-Jan-2020 3895.01 2189.08 72.53 2.00 248.45 2933.47
   21:10:41.651.30-Jan-2020 3895.01 2184.11 72.53 2.00 248.65 2933.47
   21:10:41.851.30-Jan-2020 3895.01 2191.68 72.53 2.00 248.85 2933.47
   21:10:42.051.30-Jan-2020 3895.01 2191.78 72.52 2.00 249.05 2933.47
   21:10:42.252.30-Jan-2020 3895.01 2191.78 72.52 2.00 249.25 2933.47
   21:10:42.452.30-Jan-2020 3895.01 2191.14 72.52 2.00 249.45 2933.47
   21:10:42.652.30-Jan-2020 3895.01 2184.94 72.52 2.00 249.65 2933.47
   21:10:42.852.30-Jan-2020 3895.01 2195.78 72.52 2.00 249.85 2933.47
   21:10:43.052.30-Jan-2020 3895.01 2390.43 72.52 2.00 250.05 2933.47
   21:10:43.252.30-Jan-2020 3895.01 2390.43 72.52 2.00 250.25 2933.47
   21:10:43.452.30-Jan-2020 3895.01 2802.82 72.52 2.00 250.45 2933.47
   21:10:43.652.30-Jan-2020 3895.01 2882.39 72.52 2.00 250.65 2933.47
   21:10:43.852.30-Jan-2020 3895.01 2923.64 72.52 2.00 250.85 2933.47
   21:10:44.052.30-Jan-2020 3895.01 2945.71 72.52 2.00 251.05 2933.47
   21:10:44.252.30-Jan-2020 3895.01 2945.71 72.52 2.00 251.25 2933.47
   21:10:44.452.30-Jan-2020 3895.01 2957.64 72.52 2.00 251.45 2933.47
   21:10:44.652.30-Jan-2020 3895.01 2968.39 72.52 2.00 251.65 2933.47
   21:10:44.852.30-Jan-2020 3895.01 2970.61 72.52 2.00 251.85 2933.47
   21:10:45.052.30-Jan-2020 3895.01 2972.14 72.52 2.00 252.05 2933.47
   21:10:45.252.30-Jan-2020 3895.01 2972.14 72.52 2.00 252.25 2933.47
   21:10:45.452.30-Jan-2020 3895.01 2974.18 72.52 2.00 252.45 2933.47
   21:10:45.652.30-Jan-2020 3895.01 2974.82 72.52 2.00 252.65 2933.47
   21:10:45.852.30-Jan-2020 3895.01 2975.19 72.51 2.00 252.85 2933.47
