~Version Information
 VERS.                  2.0:   CWLS log ASCII Standard -VERSION 2.0
 WRAP.                   NO:   One line per depth step
~Well Information Block
#MNEM.UNIT     VALUE/NAME     DESCRIPTION
#---------     -----------    ---------------------------
 STRT.S             06:25:21 31-Jan-20: START TIME 06:25:21 31-Jan-20
 STOP.S             06:31:52 31-Jan-20: STOP TIME  06:31:52 31-Jan-20
 STEP.S                   0.00: STEP TIME
 NULL.                 -999.25: NULL VALUE
 DFWT.                        :  DIST FWL TEXT
 DFST.                        :  DIST FSL TEXT
 DMF .             Drill Floor:  DRILL MEAS FROM
 STIM.      09.30.00 26-Dec-19:  START TIME
 DATE.      08.00.00 20-Jan-20:  END TIME
 SPUD.               23-Nov-19:  SPUD DATE
 NREF.                    Grid:  NORTH REFERENCE
 HPTY.       Minimum Curvature:  HOLE POS TYPE
 DMOD.             Drill Model:  DRILL MOD DESC
 SVYD.                  Survey:  SURVEY DESC
 ILTD.               Lithology:  INTERP LTH DESC
 FTOP.          Formation Tops:  FORM TOPS DESC
 SON .        AZ-XX-0906192647:  JOB NUMBER
 WTYP.                Deviated:  WELL TYPE
 COMP.     BP Exploration (Caspian Sea) Ltd:  COMPANY
 BASE.              Azerbaijan:  LOGGING EQUIPMENT BASE LOCATION
 REGN.                 Eurasia:  REGION
 FLD .                     ACG:  FIELD NAME
 SRVC.              KCA Deutag:  CONTRACTOR
 MWDS.                    Baku:  MWD SHOP
 WELL.     A10 (Slot 20) - SCP:  WELL NAME
 JOBN.        AZ-XX-0906192647:  JOB TICKET NUMB
 RIG .                 Chirag1:  RIG NAME
 DCON.     Halliburton Sperry Drilling:  DIRECTNL CONTR
 UNIT.                     N/A:  LOGGING EQUIPMENT ID
 PDAT.          Mean Sea Level:  PERMANENT DATUM
 MDS .        Operator Entered:  MAG DATA SOURCE
 CTRY.              Azerbaijan:  COUNTRY NAME
 UWI .            /AZE00000090:  UNIQUE WELL IDENTIFIER
 API .            /AZE00000090:  API NUMBER
 CNTY.                        :  COUNTY
 PROV.                        :  PROVINCE
 STAT.                        :  STATE
 LOC .                        :  LOCATION
 LMF .             Drill Floor:  LOG MEASURED FROM
 TVDS.m                  36.60:  TVDSS CORRECTN
 LATI.deg                40.08:  LATITUDE
 LONG.deg                51.24:  LONGITUDE
 WHNS.m                  -7.94:  WELL HEAD N/S
 WHEW.m                   1.56:  WELL HEAD E/W
 UTMX.m              520429.26:  UTM X
 UTMY.m             4438973.87:  UTM Y
 DFWL.m                   0.00:  DISTANCE FWL
 DFSL.m                   0.00:  DISTANCE FSL
 SDEP.m                1455.00:  START DEPTH
 TDD .m                4047.51:  TOTAL DEPTH (DRILLER)
 VSDR.deg               112.75:  VERT SEC DIRECT
 GVFD.g                   1.00:  GRAVITY FIELD
 MFLD.nT              50261.00:  MAGNETIC FIELD
 MDIP.deg                59.52:  MAGNETIC DIP
 MDEC.deg                 6.42:  MAGNETIC DECL
 GRDC.deg                 0.17:  GRID CORRECTION
 AZTC.deg                 6.25:  AZM TOTAL CORR
 EPD .m                   0.00:  ELEVATION
 EGL .m                   0.00:  GROUND ELEVATION
 WDMS.m                 121.00:  WD ELEV
 APD .m                  36.60:  DEPTH ABOVE PD
 AGAP.m                  36.60:  AIR GAP
 VSEW.m                   1.56:  VERT SEC E/W
 VSNS.m                  -7.94:  VERT SEC N/S
 DEP .m                1140.01:  DEPTH
 EKB .m                  36.60:  KB ELEVATION
 EDF .m                  36.60:  DF ELEVATION
 TDL .m                 169.50:  TOTAL DEPTH (LOGGER)
 CSGD.m                3875.01:  CASING BOTTOM (DRILLER)
 CSGL.m                3875.01:  CASING BOTTOM (LOGGER)
 CSGS.in                  7.63:  CASING SIZE
 CSGW.lbpf               23.50:  CASING WEIGHT
 VSC .                       0:  VS TO CLOSURE
 MAGU.                 1849206:  MAGUTM CHECKSUM
~Parameter Information Block
#MNEM.UNIT       Value        Description
#---------     -----------    ---------------------------
 AV  .mps                 1.90:  Ann Velocity 
 AVMX.mps                 2.54:  Max Ann Veloc 
 AZIF.deg               137.03:  Azm, Final 
 BHAT.        Rotary Steerable:  BHA Type 
 BREV.rev             23610.00:  Rev Bit Total 
 BROT.°/30m               0.80:  Build Rotating 
 BS  .in                  6.50:  Bit Size 
 BTPL.psig              110.00:  Bit Press Loss 
 CABU.                     Yes:  Customer Abuse 
 COMM.                     Ð„:  Run Comments 1 
 TCS .hr                 70.51:  Time Ciculation Ended 
 CV  .mps                 1.41:  Crit Velocity 
 CVMX.mps                 1.42:  Max Crit Veloc 
 DD1 .         Intigam Rahimov:  Direct Drillr 1 
 DD2 .          Rashad Gojayev:  Direct Drillr 2 
 DDSV.               Geo-Pilot:  DD Service 
 DEFF.%                 100.00:  % Det Eff 
 DLRX.°/30m               1.44:  Dogleg Rot Max 
 DLSO.°/30m               0.00:  Dogleg Oriented 
 DLSX.°/30m               0.00:  Dogleg Str Max 
 DRET.      03.05.00 01-Feb-20:  Drill End Time 
 DRST.      15.50.00 28-Jan-20:  Drill Start Tim 
 DTIM.hr                 24.70:  Time Drilling 
 EDEP.m                4047.51:  End Depth 
 ENG1.           Eldar Hajiyev:  Engineer 1 
 ENG2.          Rasim Hashimov:  Engineer 2 
 ENG3.          Rustam Safarov:  Engineer 3 
 ETIM.      22.00.00 01-Feb-20:  End Time 
 FLOI.gpm               370.00:  Flow In 
 FLON.gpm               300.00:  Flow In Min 
 FLOS.cptm                0.00:  Fluid Loss 
 FLOX.gpm               400.00:  Flow In Max 
 FTRO.       Formation Presure:  FTWD Run Obj 
 HFLO.                      No:  High Flow 
 HPRE.                      No:  High Pressure 
 HTEM.                      No:  High Temp 
 HYDO.m                   2.50:  Hydro Offset 
 IFIN.deg                39.54:  Inc, Final 
 IMAX.deg                41.14:  Inc Max 
 IMIN.deg                39.81:  Inc Min 
 IMND.m                4005.21:  Inc Min Depth 
 IMXD.m                3948.42:  Inc Max Depth 
 JARR.                      No:  Jarring 
 LETM.      03.05.00 01-Feb-20:  Log End Time 
 LOST.hr                     0:  Lost Rig Time 
 LSTM.      15.50.00 28-Jan-20:  Log Start Time 
 MDCL.ppm             37500.00:  Mud Chlorides 
 MDES.     Inversion Oil/Synthetic:  Mud Desc 
 DFD .sg                  1.32:  Mud Density 
 MDMN.sg                  1.32:  Dens Mud Min 
 MDMX.sg                  1.32:  Dens Mud Max 
 MOIL.                      55:  Run Mud Oil % 
 MOWR.                   70:30:  Run Mud OWR 
 MSND.                       0:  Run Mud Sand % 
 MSOL.                      17:  Run Mud Solids% 
 DFV .spqt               80.00:  Mud Viscosity 
 MWOD.in                  4.75:  MWD Tool OD 
 MWSI.                      No:  Serv Intrp, MWD 
 OTIM.hr                121.28:  Time Operating 
 PCON.           Look Like New:  Pad Condition 
 PMAX.psia             6171.00:  Press Op, Max 
 PV  .cP                 30.00:  Mud PV 
 RUN .                     300:  Run Number 
 ROPA.m/hr                5.45:  ROP Avg 
 ROPN.m/hr                3.00:  ROP Min 
 ROPX.m/hr               15.00:  ROP Max 
 RPMA.rpm               130.00:  RPM Surface Avg 
 RPMN.rpm                80.00:  RPM Surface Min 
 RPMX.rpm               140.00:  RPM Surface Max 
 RRUN.                     300:  Rig Run Number 
 RTIM.hr                 13.50:  Time Reaming 
 SAZI.deg               133.93:  Azm, Start 
 SDEP.m                3878.01:  Start Depth 
 SIDD.                      No:  Serv Intrp, DD 
 SINC.deg                40.28:  Inc, Start 
 SPPA.psig             4983.00:  SPP Avg 
 SPPN.psig             4370.00:  SPP Min 
 SPPX.psig             5300.00:  SPP Max 
 STIM.      18.33.36 27-Jan-20:  Start Time 
 SVCS.                 DD, MWD:  Services 
 SVER.                    9.20:  Sperry Version 
 TDAT.m                 169.50:  Tot Depth Attmp 
 TDDF.                      No:  Trip for DD 
 TDLG.m                 169.50:  Tot Depth Loggd 
 TFF .                      No:  Trip for Fail 
 TQAA.f-kp               13.25:  Torque Abs Avg 
 TQAN.f-kp               12.00:  Torque Abs Min 
 TQAX.f-kp               14.00:  Torque Abs Max 
 TRRT.°/30m               0.70:  Turn Rotating 
 MRT .                     ADR:  Maximum Recorded Temperature 
 TTMX.degC               92.16:  Max Tool Temp 
 VS01.       AZ90598764G12V7D4:  Virtual Str1 SN 
 VS02.         AZ90571342R12C4:  Virtual Str2 SN 
 VS03.      AZ90580010N2L2X1C4:  Virtual Str3 SN 
 VS04.        AZ90522266O7X1C4:  Virtual Str4 SN 
 VS05.           AZ90598768F11:  Virtual Str5 SN 
 VS06.     AZ90580006XZ1W1X1C4:  Virtual Str6 SN 
 WBMN.klb                 8.00:  WOB Min 
 WITN.            Peter Wilson:  Customer Rep 
 WOBA.klb                 9.88:  WOB Avg 
 WOBX.klb                10.00:  WOB Max 
 YP  .lhf2               27.00:  Yield Point 
~Curve Information Block
#MNEM.UNIT                 API CODE     Curve Description
#---------               -----------    ---------------------------
 TIME.HHMMSS            00 000 000 000:  GT Time & Date
 GTDEPTH.m              00 000 000 000:  GT Depth
 GTPQH.psia             00 000 000 000:  GT HR Quartz Pressure
 GTTQ.degC              00 000 000 000:  GT Quartz Temperature
 GTTN.NONE              00 000 000 000:  GT Test Number
 GTET.sec               00 000 000 000:  GT Elapsed Test Time
 GTTVD.m                00 000 000 000:  GT True Vertical Depth
#Other Information
#
#WARRANTY: Halliburton will use its best efforts to furnish customers with 
#accurate information and interpretations that are part of, and incident to, the services 
#provided.  However, Halliburton cannot and does not warrant the accuracy 
#or correctness of such information and interpretations.  Under no circumstances should any 
#such information or interpretation be relied upon as the sole basis for any drilling, 
#completion, production, or financial decision or any procedure involving any risk to the 
#safety of any drilling venture, drilling rig or its crew or any other third party.  The 
#Customer has full responsibility for all drilling, completion and production operation.  
#Halliburton makes no representations or warranties, either expressed or 
#implied, including, but not limited to, the implied warranties of merchantability or fitness 
#for a particular purpose, with respect to the services rendered.  In no event will 
#Halliburton be liable for failure to obtain any particular results or for 
#any damages, including, but not limited to, indirect, special or consequential damages, 
#resulting from the use of any information or interpretation provided by Halliburton.
#
~A           TIME           GTDEPTH  GTPQH  GTTQ  GTTN  GTET   GTTVD  
# ...
   06:31:29.802.31-Jan-2020 3914.01 5950.96 78.28 4.00 368.07 2947.83
   06:31:30.002.31-Jan-2020 3914.01 5950.96 78.28 4.00 368.27 2947.83
   06:31:30.202.31-Jan-2020 3914.01 5951.69 78.28 4.00 368.47 2947.83
   06:31:30.402.31-Jan-2020 3914.01 5953.31 78.27 4.00 368.67 2947.83
   06:31:30.602.31-Jan-2020 3914.01 5954.23 78.27 4.00 368.87 2947.83
   06:31:30.802.31-Jan-2020 3914.01 5953.50 78.27 4.00 369.07 2947.83
   06:31:31.002.31-Jan-2020 3914.01 5953.50 78.27 4.00 369.27 2947.83
   06:31:31.202.31-Jan-2020 3914.01 5951.75 78.27 4.00 369.47 2947.83
   06:31:31.403.31-Jan-2020 3914.01 5952.54 78.27 4.00 369.68 2947.83
   06:31:31.603.31-Jan-2020 3914.01 5953.41 78.27 4.00 369.88 2947.83
   06:31:31.803.31-Jan-2020 3914.01 5952.55 78.27 4.00 370.08 2947.83
   06:31:32.003.31-Jan-2020 3914.01 5952.55 78.27 4.00 370.28 2947.83
   06:31:32.203.31-Jan-2020 3914.01 5951.09 78.27 4.00 370.48 2947.83
   06:31:32.403.31-Jan-2020 3914.01 5952.30 78.27 4.00 370.68 2947.83
   06:31:32.603.31-Jan-2020 3914.01 5953.33 78.27 4.00 370.88 2947.83
   06:31:32.803.31-Jan-2020 3914.01 5952.05 78.27 4.00 371.08 2947.83
   06:31:33.003.31-Jan-2020 3914.01 5952.05 78.27 4.00 371.28 2947.83
   06:31:33.203.31-Jan-2020 3914.01 5943.38 78.27 4.00 371.48 2947.83
   06:31:33.403.31-Jan-2020 3914.01 5950.39 78.27 4.00 371.68 2947.83
   06:31:33.603.31-Jan-2020 3914.01 5951.08 78.27 4.00 371.88 2947.83
   06:31:33.803.31-Jan-2020 3914.01 5951.91 78.27 4.00 372.08 2947.83
   06:31:34.003.31-Jan-2020 3914.01 5951.91 78.27 4.00 372.28 2947.83
   06:31:34.203.31-Jan-2020 3914.01 5952.76 78.27 4.00 372.48 2947.83
   06:31:34.403.31-Jan-2020 3914.01 5952.84 78.27 4.00 372.68 2947.83
   06:31:34.603.31-Jan-2020 3914.01 5953.08 78.27 4.00 372.88 2947.83
   06:31:34.803.31-Jan-2020 3914.01 5953.30 78.27 4.00 373.08 2947.83
   06:31:35.003.31-Jan-2020 3914.01 5953.30 78.27 4.00 373.28 2947.83
   06:31:35.203.31-Jan-2020 3914.01 5952.74 78.26 4.00 373.48 2947.83
   06:31:35.403.31-Jan-2020 3914.01 5953.03 78.26 4.00 373.68 2947.83
   06:31:35.603.31-Jan-2020 3914.01 5952.85 78.26 4.00 373.88 2947.83
   06:31:35.803.31-Jan-2020 3914.01 5952.03 78.26 4.00 374.08 2947.83
   06:31:36.003.31-Jan-2020 3914.01 5952.03 78.26 4.00 374.28 2947.83
   06:31:36.203.31-Jan-2020 3914.01 5954.99 78.26 4.00 374.48 2947.83
   06:31:36.404.31-Jan-2020 3914.01 5954.39 78.26 4.00 374.68 2947.83
   06:31:36.604.31-Jan-2020 3914.01 5953.22 78.26 4.00 374.88 2947.83
   06:31:36.804.31-Jan-2020 3914.01 5944.26 78.26 4.00 375.08 2947.83
   06:31:37.004.31-Jan-2020 3914.01 5944.26 78.26 4.00 375.28 2947.83
   06:31:37.204.31-Jan-2020 3914.01 5951.74 78.26 4.00 375.48 2947.83
   06:31:37.404.31-Jan-2020 3914.01 5952.23 78.26 4.00 375.68 2947.83
   06:31:37.604.31-Jan-2020 3914.01 5952.28 78.26 4.00 375.88 2947.83
   06:31:37.804.31-Jan-2020 3914.01 5943.74 78.26 4.00 376.08 2947.83
   06:31:38.004.31-Jan-2020 3914.01 5943.74 78.26 4.00 376.28 2947.83
   06:31:38.204.31-Jan-2020 3914.01 5952.02 78.26 4.00 376.48 2947.83
   06:31:38.404.31-Jan-2020 3914.01 5952.52 78.26 4.00 376.68 2947.83
   06:31:38.604.31-Jan-2020 3914.01 5943.45 78.26 4.00 376.88 2947.83
   06:31:38.804.31-Jan-2020 3914.01 5950.92 78.26 4.00 377.08 2947.83
   06:31:39.004.31-Jan-2020 3914.01 5950.92 78.26 4.00 377.28 2947.83
   06:31:39.204.31-Jan-2020 3914.01 5951.50 78.26 4.00 377.48 2947.83
   06:31:39.404.31-Jan-2020 3914.01 5950.92 78.25 4.00 377.68 2947.83
   06:31:39.604.31-Jan-2020 3914.01 5952.38 78.25 4.00 377.88 2947.83
   06:31:39.804.31-Jan-2020 3914.01 5944.69 78.25 4.00 378.08 2947.83
   06:31:40.004.31-Jan-2020 3914.01 5944.69 78.25 4.00 378.28 2947.83
   06:31:40.204.31-Jan-2020 3914.01 5951.48 78.25 4.00 378.48 2947.83
   06:31:40.404.31-Jan-2020 3914.01 5951.65 78.25 4.00 378.68 2947.83
   06:31:40.604.31-Jan-2020 3914.01 5952.43 78.25 4.00 378.88 2947.83
   06:31:40.804.31-Jan-2020 3914.01 5944.42 78.25 4.00 379.08 2947.83
   06:31:41.004.31-Jan-2020 3914.01 5944.42 78.25 4.00 379.28 2947.83
   06:31:41.204.31-Jan-2020 3914.01 5951.02 78.25 4.00 379.48 2947.83
   06:31:41.405.31-Jan-2020 3914.01 5953.22 78.25 4.00 379.68 2947.83
   06:31:41.605.31-Jan-2020 3914.01 5954.87 78.25 4.00 379.88 2947.83
   06:31:41.805.31-Jan-2020 3914.01 5954.45 78.25 4.00 380.08 2947.83
   06:31:42.005.31-Jan-2020 3914.01 5954.45 78.25 4.00 380.28 2947.83
   06:31:42.205.31-Jan-2020 3914.01 5952.55 78.25 4.00 380.48 2947.83
   06:31:42.405.31-Jan-2020 3914.01 5951.99 78.25 4.00 380.68 2947.83
   06:31:42.605.31-Jan-2020 3914.01 5953.16 78.25 4.00 380.88 2947.83
   06:31:42.805.31-Jan-2020 3914.01 5953.87 78.25 4.00 381.08 2947.83
   06:31:43.005.31-Jan-2020 3914.01 5953.87 78.25 4.00 381.28 2947.83
   06:31:43.205.31-Jan-2020 3914.01 5951.63 78.25 4.00 381.48 2947.83
   06:31:43.405.31-Jan-2020 3914.01 5950.98 78.25 4.00 381.68 2947.83
   06:31:43.605.31-Jan-2020 3914.01 5952.29 78.25 4.00 381.88 2947.83
   06:31:43.805.31-Jan-2020 3914.01 5953.21 78.24 4.00 382.08 2947.83
   06:31:44.005.31-Jan-2020 3914.01 5953.21 78.24 4.00 382.28 2947.83
   06:31:44.205.31-Jan-2020 3914.01 5951.36 78.24 4.00 382.48 2947.83
   06:31:44.405.31-Jan-2020 3914.01 5943.11 78.24 4.00 382.68 2947.83
   06:31:44.605.31-Jan-2020 3914.01 5950.14 78.24 4.00 382.88 2947.83
   06:31:44.805.31-Jan-2020 3914.01 5950.94 78.24 4.00 383.08 2947.83
   06:31:45.005.31-Jan-2020 3914.01 5950.94 78.24 4.00 383.28 2947.83
   06:31:45.205.31-Jan-2020 3914.01 5952.30 78.24 4.00 383.48 2947.83
   06:31:45.405.31-Jan-2020 3914.01 5953.31 78.24 4.00 383.68 2947.83
   06:31:45.605.31-Jan-2020 3914.01 5952.85 78.24 4.00 383.88 2947.83
   06:31:45.805.31-Jan-2020 3914.01 5952.02 78.24 4.00 384.08 2947.83
   06:31:46.005.31-Jan-2020 3914.01 5952.02 78.24 4.00 384.28 2947.83
   06:31:46.206.31-Jan-2020 3914.01 5953.02 78.24 4.00 384.48 2947.83
   06:31:46.406.31-Jan-2020 3914.01 5952.63 78.24 4.00 384.68 2947.83
   06:31:46.606.31-Jan-2020 3914.01 5952.94 78.24 4.00 384.88 2947.83
   06:31:46.806.31-Jan-2020 3914.01 5953.37 78.24 4.00 385.08 2947.83
   06:31:47.006.31-Jan-2020 3914.01 5953.37 78.24 4.00 385.28 2947.83
   06:31:47.206.31-Jan-2020 3914.01 5952.55 78.24 4.00 385.48 2947.83
   06:31:47.406.31-Jan-2020 3914.01 5954.31 78.24 4.00 385.68 2947.83
   06:31:47.606.31-Jan-2020 3914.01 5953.87 78.24 4.00 385.88 2947.83
   06:31:47.806.31-Jan-2020 3914.01 5952.88 78.24 4.00 386.08 2947.83
   06:31:48.006.31-Jan-2020 3914.01 5952.88 78.24 4.00 386.28 2947.83
   06:31:48.206.31-Jan-2020 3914.01 5951.94 78.23 4.00 386.48 2947.83
   06:31:48.406.31-Jan-2020 3914.01 5951.99 78.23 4.00 386.68 2947.83
   06:31:48.606.31-Jan-2020 3914.01 5952.17 78.23 4.00 386.88 2947.83
   06:31:48.806.31-Jan-2020 3914.01 5952.60 78.23 4.00 387.08 2947.83
   06:31:49.006.31-Jan-2020 3914.01 5952.60 78.23 4.00 387.28 2947.83
   06:31:49.206.31-Jan-2020 3914.01 5951.83 78.23 4.00 387.48 2947.83
   06:31:49.406.31-Jan-2020 3914.01 5952.40 78.23 4.00 387.68 2947.83
   06:31:49.606.31-Jan-2020 3914.01 5952.94 78.23 4.00 387.88 2947.83
   06:31:49.806.31-Jan-2020 3914.01 5943.85 78.23 4.00 388.08 2947.83
   06:31:50.006.31-Jan-2020 3914.01 5943.85 78.23 4.00 388.28 2947.83
   06:31:50.206.31-Jan-2020 3914.01 5951.62 78.23 4.00 388.48 2947.83
   06:31:50.406.31-Jan-2020 3914.01 5952.14 78.23 4.00 388.68 2947.83
   06:31:50.606.31-Jan-2020 3914.01 5951.33 78.23 4.00 388.88 2947.83
   06:31:50.806.31-Jan-2020 3914.01 5952.53 78.23 4.00 389.08 2947.83
   06:31:51.006.31-Jan-2020 3914.01 5952.53 78.23 4.00 389.28 2947.83
   06:31:51.207.31-Jan-2020 3914.01 5951.38 78.23 4.00 389.48 2947.83
   06:31:51.407.31-Jan-2020 3914.01 5951.00 78.23 4.00 389.68 2947.83
   06:31:51.607.31-Jan-2020 3914.01 5951.10 78.23 4.00 389.88 2947.83
   06:31:51.807.31-Jan-2020 3914.01 5952.24 78.23 4.00 390.08 2947.83
   06:31:52.007.31-Jan-2020 3914.01 5952.24 78.23 4.00 390.28 2947.83
   06:31:52.207.31-Jan-2020 3914.01 5944.50 78.22 4.00 390.48 2947.83
   06:31:52.407.31-Jan-2020 3914.01 5950.04 78.22 4.00 390.68 2947.83
   06:31:52.607.31-Jan-2020 3914.01 5951.97 78.22 4.00 390.88 2947.83
