~Version Information
 VERS.                  2.0:   CWLS log ASCII Standard -VERSION 2.0
 WRAP.                   NO:   One line per depth step
~Well Information Block
#MNEM.UNIT     VALUE/NAME     DESCRIPTION
#---------     -----------    ---------------------------
 STRT.S             15:01:40 03-May-20: START TIME 15:01:40 03-May-20
 STOP.S             15:08:15 03-May-20: STOP TIME  15:08:15 03-May-20
 STEP.S                   0.00: STEP TIME
 NULL.                 -999.25: NULL VALUE
 DFWT.                        :  DIST FWL TEXT
 DFST.                        :  DIST FSL TEXT
 DMF .             Drill Floor:  DRILL MEAS FROM
 STIM.      03.00.00 25-Mar-20:  START TIME
 DATE.      00.00.00 19-May-20:  END TIME
 SPUD.               27-Aug-20:  SPUD DATE
 NREF.                    Grid:  NORTH REFERENCE
 HPTY.       Minimum Curvature:  HOLE POS TYPE
 DMOD.             Drill Model:  DRILL MOD DESC
 SVYD.                  Survey:  SURVEY DESC
 ILTD.               Lithology:  INTERP LTH DESC
 FTOP.          Formation Tops:  FORM TOPS DESC
 SON .        AZ-XX-0906252240:  JOB NUMBER
 RIG .             West Chirag:  RIG NAME
 PDAT.          Mean Sea Level:  PERMANENT DATUM
 FLD .                     ACG:  FIELD NAME
 CTRY.              Azerbaijan:  COUNTRY NAME
 WELL.                     J23:  WELL NAME
 SRVC.          Turan Drilling:  CONTRACTOR
 COMP.     BP Exploration (Caspian Sea) Ltd.:  COMPANY
 WTYP.                Deviated:  WELL TYPE
 MDS .        Operator Entered:  MAG DATA SOURCE
 UWI .                     N/A:  UNIQUE WELL IDENTIFIER
 API .                     N/A:  API NUMBER
 BASE.              Azerbaijan:  LOGGING EQUIPMENT BASE LOCATION
 REGN.                   EESSA:  REGION
 PROV.                    Baku:  PROVINCE
 STAT.                    Baku:  STATE NAME
 MWDS.                     N/A:  MWD SHOP
 JOBN.        AZ-XX-0906252240:  JOB TICKET NUMB
 DOE .                     N/A:  DOE NUMBER
 DCON.         Sperry Drilling:  DIRECTNL CONTR
 UNIT.                     N/A:  LOGGING EQUIPMENT ID
 CNTY.                        :  COUNTY
 LOC .                        :  LOCATION
 LMF .             Drill Floor:  LOG MEASURED FROM
 TVDS.m                  43.00:  TVDSS CORRECTN
 LATI.deg                40.13:  LATITUDE
 LONG.deg                51.22:  LONGITUDE
 WHNS.m                   9.43:  WELL HEAD N/S
 WHEW.m                  -8.91:  WELL HEAD E/W
 UTMX.m              519005.06:  UTM X
 UTMY.m             4443793.85:  UTM Y
 DFWL.m                   0.00:  DISTANCE FWL
 DFSL.m                   0.00:  DISTANCE FSL
 SDEP.m                 363.00:  START DEPTH
 TDD .m                5150.01:  TOTAL DEPTH (DRILLER)
 VSDR.deg               179.88:  VERT SEC DIRECT
 GVFD.g                   1.00:  GRAVITY FIELD
 MFLD.nT              50295.00:  MAGNETIC FIELD
 MDIP.deg                59.56:  MAGNETIC DIP
 MDEC.deg                 6.45:  MAGNETIC DECL
 GRDC.deg                 0.14:  GRID CORRECTION
 AZTC.deg                 6.31:  AZM TOTAL CORR
 EPD .m                   0.00:  ELEVATION
 EGL .m                   0.00:  GROUND ELEVATION
 WDMS.m                 169.80:  WD ELEV
 APD .m                  43.00:  DEPTH ABOVE PD
 DEP .m                 354.17:  DEPTH
 AGAP.m                  43.00:  AIR GAP
 VSEW.m                  -8.91:  VERT SEC E/W
 VSNS.m                   9.43:  VERT SEC N/S
 EKB .m                   0.00:  KB ELEVATION
 EDF .m                  43.00:  DF ELEVATION
 TDL .m                1351.00:  TOTAL DEPTH (LOGGER)
 VSC .                       0:  VS TO CLOSURE
 MAGU.                 1850802:  MAGUTM CHECKSUM
~Parameter Information Block
#MNEM.UNIT       Value        Description
#---------     -----------    ---------------------------
 AV  .mps                 1.00:  Ann Velocity 
 AVMX.mps                 2.40:  Max Ann Veloc 
 AZIF.deg               148.96:  Azm, Final 
 BHAT.        Rotary Steerable:  BHA Type 
 BROT.°/30m               0.04:  Build Rotating 
 BS  .in                 12.25:  Bit Size 
 BSZ .in                 12.25:  Bit Size 
 BTPL.psig              814.00:  Bit Press Loss 
 TCS .hr                106.00:  Time Ciculation Ended 
 CV  .mps                 2.47:  Crit Velocity 
 CVMX.mps                 2.64:  Max Crit Veloc 
 DD1 .          Rashad Habibov:  Direct Drillr 1 
 DD2 .         Rasim Ibrahimov:  Direct Drillr 2 
 DDSV.                 iCruise:  DD Service 
 DEFF.%                 100.00:  % Det Eff 
 DLRX.°/30m               0.70:  Dogleg Rot Max 
 DLSO.°/30m               3.00:  Dogleg Oriented 
 DLSX.°/30m               4.55:  Dogleg Str Max 
 DRET.      08.08.32 02-May-20:  Drill End Time 
 DRST.      08.08.32 28-Apr-20:  Drill Start Tim 
 DTIM.hr                 60.00:  Time Drilling 
 EDEP.m                4761.01:  End Depth 
 ENG1.           Eldar Hajiyev:  Engineer 1 
 ENG2.        Marcelo Sandoval:  Engineer 2 
 ETIM.      23.23.07 05-May-20:  End Time 
 FLOI.gpm              1200.00:  Flow In 
 FLON.gpm               900.00:  Flow In Min 
 FLOS.cptm                0.00:  Fluid Loss 
 FLOX.gpm              1200.00:  Flow In Max 
 HFLO.                      No:  High Flow 
 HPRE.                      No:  High Pressure 
 HTEM.                      No:  High Temp 
 HYDO.m                   1.80:  Hydro Offset 
 IFIN.deg                68.17:  Inc, Final 
 IMAX.deg                74.61:  Inc Max 
 IMIN.deg                68.15:  Inc Min 
 IMND.m                4317.87:  Inc Min Depth 
 IMXD.m                4714.01:  Inc Max Depth 
 LETM.      08.08.32 02-May-20:  Log End Time 
 LOST.hr                     2:  Lost Rig Time 
 LSTM.      08.08.32 28-Apr-20:  Log Start Time 
 MDCL.ppm             41000.00:  Mud Chlorides 
 MDES.     Inversion Oil/Synthetic:  Mud Desc 
 DFD .sg                  1.58:  Mud Density 
 MDMN.sg                  1.58:  Dens Mud Min 
 MDMX.sg                  1.58:  Dens Mud Max 
 MOIL.                      71:  Run Mud Oil % 
 MOWR.                   71:29:  Run Mud OWR 
 MSND.                     0.1:  Run Mud Sand % 
 MSOL.                      23:  Run Mud Solids% 
 DFV .spqt               82.00:  Mud Viscosity 
 MWOD.in                  8.00:  MWD Tool OD 
 MWSI.                     Yes:  Serv Intrp, MWD 
 OTIM.hr                125.00:  Time Operating 
 PMAX.psia             6129.00:  Press Op, Max 
 PV  .cP                 32.00:  Mud PV 
 RUN .                     800:  Run Number 
 ROPA.m/hr               30.00:  ROP Avg 
 ROPN.m/hr               10.00:  ROP Min 
 ROPX.m/hr               40.00:  ROP Max 
 RPMA.rpm               140.00:  RPM Surface Avg 
 RPMN.rpm                80.00:  RPM Surface Min 
 RPMX.rpm               140.00:  RPM Surface Max 
 RRUN.                    L503:  Rig Run Number 
 RTIM.hr                  2.00:  Time Reaming 
 SAZI.deg               184.23:  Azm, Start 
 SDEP.m                3410.01:  Start Depth 
 SIDD.                      No:  Serv Intrp, DD 
 SINC.deg                68.29:  Inc, Start 
 SPPA.psig             6000.00:  SPP Avg 
 SPPN.psig             4000.00:  SPP Min 
 SPPX.psig             6100.00:  SPP Max 
 STIM.      08.08.32 28-Apr-20:  Start Time 
 SVCS.                 DD, MWD:  Services 
 SVER.                    9.20:  Sperry Version 
 TDAT.m                1351.00:  Tot Depth Attmp 
 TDDF.                      No:  Trip for DD 
 TDLG.m                1351.00:  Tot Depth Loggd 
 TFF .                      No:  Trip for Fail 
 TQAA.f-kp               27.00:  Torque Abs Avg 
 TQAN.f-kp               20.00:  Torque Abs Min 
 TQAX.f-kp               30.00:  Torque Abs Max 
 TRRT.°/30m               0.60:  Turn Rotating 
 MRT .                    EWER:  Maximum Recorded Temperature 
 TTMX.degC               83.00:  Max Tool Temp 
 VS01.                90511138:  Virtual Str1 SN 
 VS02.                90524876:  Virtual Str2 SN 
 VS03.                90524872:  Virtual Str3 SN 
 VS04.                90502750:  Virtual Str4 SN 
 VS05.                12330984:  Virtual Str5 SN 
 WBMN.klb                 0.00:  WOB Min 
 WOBA.klb                15.00:  WOB Avg 
 WOBX.klb                20.00:  WOB Max 
 YP  .lhf2               31.00:  Yield Point 
~Curve Information Block
#MNEM.UNIT                 API CODE     Curve Description
#---------               -----------    ---------------------------
 TIME.HHMMSS            00 000 000 000:  GT Time & Date
 GTDEPTH.m              00 000 000 000:  GT Depth
 GTPQH.psia             00 000 000 000:  GT HR Quartz Pressure
 GTTQ.degC              00 000 000 000:  GT Quartz Temperature
 GTTN.NONE              00 000 000 000:  GT Test Number
 GTET.sec               00 000 000 000:  GT Elapsed Test Time
 GTTVD.m                00 000 000 000:  GT True Vertical Depth
#Other Information
#
#WARRANTY: Halliburton will use its best efforts to furnish customers with 
#accurate information and interpretations that are part of, and incident to, the services 
#provided.  However, Halliburton cannot and does not warrant the accuracy 
#or correctness of such information and interpretations.  Under no circumstances should any 
#such information or interpretation be relied upon as the sole basis for any drilling, 
#completion, production, or financial decision or any procedure involving any risk to the 
#safety of any drilling venture, drilling rig or its crew or any other third party.  The 
#Customer has full responsibility for all drilling, completion and production operation.  
#Halliburton makes no representations or warranties, either expressed or 
#implied, including, but not limited to, the implied warranties of merchantability or fitness 
#for a particular purpose, with respect to the services rendered.  In no event will 
#Halliburton be liable for failure to obtain any particular results or for 
#any damages, including, but not limited to, indirect, special or consequential damages, 
#resulting from the use of any information or interpretation provided by Halliburton.
#
~A           TIME           GTDEPTH  GTPQH  GTTQ  GTTN  GTET   GTTVD  
# ...
   15:06:39.329.03-May-2020 4553.48 4124.01 81.25 2.00 298.90 2472.52
   15:06:39.529.03-May-2020 4553.48 4124.01 81.25 2.00 299.10 2472.52
   15:06:39.729.03-May-2020 4553.48 4124.03 81.25 2.00 299.30 2472.52
   15:06:39.929.03-May-2020 4553.48 4123.94 81.25 2.00 299.50 2472.52
   15:06:40.129.03-May-2020 4553.48 4124.40 81.25 2.00 299.70 2472.52
   15:06:40.329.03-May-2020 4553.48 4124.27 81.24 2.00 299.90 2472.52
   15:06:40.529.03-May-2020 4553.48 4124.27 81.24 2.00 300.10 2472.52
   15:06:40.729.03-May-2020 4553.48 4124.38 81.24 2.00 300.30 2472.52
   15:06:40.929.03-May-2020 4553.48 4124.17 81.24 2.00 300.50 2472.52
   15:06:41.129.03-May-2020 4553.48 4124.10 81.24 2.00 300.70 2472.52
   15:06:41.328.03-May-2020 4553.48 4124.23 81.24 2.00 300.90 2472.52
   15:06:41.528.03-May-2020 4553.48 4124.23 81.24 2.00 301.10 2472.52
   15:06:41.728.03-May-2020 4553.48 4124.11 81.24 2.00 301.30 2472.52
   15:06:41.928.03-May-2020 4553.48 4124.10 81.24 2.00 301.50 2472.52
   15:06:42.128.03-May-2020 4553.48 4124.20 81.24 2.00 301.70 2472.52
   15:06:42.328.03-May-2020 4553.48 4124.22 81.24 2.00 301.90 2472.52
   15:06:42.528.03-May-2020 4553.48 4124.22 81.24 2.00 302.10 2472.52
   15:06:42.728.03-May-2020 4553.48 4124.64 81.23 2.00 302.30 2472.52
   15:06:42.928.03-May-2020 4553.48 4124.31 81.23 2.00 302.50 2472.52
   15:06:43.128.03-May-2020 4553.48 4124.11 81.23 2.00 302.70 2472.52
   15:06:43.328.03-May-2020 4553.48 4124.18 81.23 2.00 302.90 2472.52
   15:06:43.528.03-May-2020 4553.48 4124.18 81.23 2.00 303.10 2472.52
   15:06:43.728.03-May-2020 4553.48 4124.08 81.23 2.00 303.30 2472.52
   15:06:43.928.03-May-2020 4553.48 4124.22 81.23 2.00 303.50 2472.52
   15:06:44.128.03-May-2020 4553.48 4124.17 81.23 2.00 303.70 2472.52
   15:06:44.328.03-May-2020 4553.48 4124.20 81.23 2.00 303.90 2472.52
   15:06:44.527.03-May-2020 4553.48 4124.20 81.23 2.00 304.10 2472.52
   15:06:44.727.03-May-2020 4553.48 4124.12 81.22 2.00 304.30 2472.52
   15:06:44.927.03-May-2020 4553.48 4124.05 81.22 2.00 304.50 2472.52
   15:06:45.127.03-May-2020 4553.48 4124.09 81.22 2.00 304.70 2472.52
   15:06:45.327.03-May-2020 4553.48 4124.52 81.22 2.00 304.90 2472.52
   15:06:45.527.03-May-2020 4553.48 4124.52 81.22 2.00 305.10 2472.52
   15:06:45.727.03-May-2020 4553.48 4124.15 81.22 2.00 305.30 2472.52
   15:06:45.927.03-May-2020 4553.48 4124.28 81.22 2.00 305.50 2472.52
   15:06:46.127.03-May-2020 4553.48 4124.18 81.22 2.00 305.70 2472.52
   15:06:46.327.03-May-2020 4553.48 4124.26 81.22 2.00 305.90 2472.52
   15:06:46.527.03-May-2020 4553.48 4124.26 81.22 2.00 306.10 2472.52
   15:06:46.727.03-May-2020 4553.48 4124.06 81.21 2.00 306.30 2472.52
   15:06:46.927.03-May-2020 4553.48 4124.32 81.21 2.00 306.50 2472.52
   15:06:47.127.03-May-2020 4553.48 4123.89 81.21 2.00 306.70 2472.52
   15:06:47.327.03-May-2020 4553.48 4124.91 81.21 2.00 306.90 2472.52
   15:06:47.526.03-May-2020 4553.48 4124.91 81.21 2.00 307.10 2472.52
   15:06:47.726.03-May-2020 4553.48 4123.95 81.21 2.00 307.30 2472.52
   15:06:47.926.03-May-2020 4553.48 4124.61 81.21 2.00 307.50 2472.52
   15:06:48.126.03-May-2020 4553.48 4123.99 81.21 2.00 307.70 2472.52
   15:06:48.326.03-May-2020 4553.48 4124.17 81.21 2.00 307.90 2472.52
   15:06:48.526.03-May-2020 4553.48 4124.17 81.21 2.00 308.10 2472.52
   15:06:48.726.03-May-2020 4553.48 4124.42 81.21 2.00 308.30 2472.52
   15:06:48.926.03-May-2020 4553.48 4124.06 81.20 2.00 308.50 2472.52
   15:06:49.126.03-May-2020 4553.48 4124.25 81.20 2.00 308.70 2472.52
   15:06:49.326.03-May-2020 4553.48 4124.18 81.20 2.00 308.90 2472.52
   15:06:49.526.03-May-2020 4553.48 4124.18 81.20 2.00 309.10 2472.52
   15:06:49.726.03-May-2020 4553.48 4124.16 81.20 2.00 309.30 2472.52
   15:06:49.926.03-May-2020 4553.48 4124.18 81.20 2.00 309.50 2472.52
   15:06:50.126.03-May-2020 4553.48 4124.25 81.20 2.00 309.70 2472.52
   15:06:50.326.03-May-2020 4553.48 4124.18 81.20 2.00 309.90 2472.52
   15:06:50.526.03-May-2020 4553.48 4124.18 81.20 2.00 310.10 2472.52
   15:06:50.725.03-May-2020 4553.48 4124.63 81.20 2.00 310.30 2472.52
   15:06:50.925.03-May-2020 4553.48 4124.33 81.20 2.00 310.50 2472.52
   15:06:51.125.03-May-2020 4553.48 4124.16 81.19 2.00 310.70 2472.52
   15:06:51.325.03-May-2020 4553.48 4124.32 81.19 2.00 310.90 2472.52
   15:06:51.525.03-May-2020 4553.48 4124.32 81.19 2.00 311.10 2472.52
   15:06:51.725.03-May-2020 4553.48 4124.14 81.19 2.00 311.30 2472.52
   15:06:51.925.03-May-2020 4553.48 4124.22 81.19 2.00 311.50 2472.52
   15:06:52.125.03-May-2020 4553.48 4124.22 81.19 2.00 311.70 2472.52
   15:06:52.325.03-May-2020 4553.48 4124.14 81.19 2.00 311.90 2472.52
   15:06:52.525.03-May-2020 4553.48 4124.13 81.19 2.00 312.10 2472.52
   15:06:52.725.03-May-2020 4553.48 4124.09 81.19 2.00 312.30 2472.52
   15:06:52.925.03-May-2020 4553.48 4124.09 81.19 2.00 312.50 2472.52
   15:06:53.125.03-May-2020 4553.48 4124.07 81.19 2.00 312.70 2472.52
   15:06:53.325.03-May-2020 4553.48 4124.51 81.18 2.00 312.90 2472.52
   15:06:53.525.03-May-2020 4553.48 4124.51 81.18 2.00 313.10 2472.52
   15:06:53.724.03-May-2020 4553.48 4124.21 81.18 2.00 313.30 2472.52
   15:06:53.924.03-May-2020 4553.48 4124.33 81.18 2.00 313.50 2472.52
   15:06:54.124.03-May-2020 4553.48 4124.02 81.18 2.00 313.70 2472.52
   15:06:54.324.03-May-2020 4553.48 4124.35 81.18 2.00 313.90 2472.52
   15:06:54.524.03-May-2020 4553.48 4124.35 81.18 2.00 314.10 2472.52
   15:06:54.724.03-May-2020 4553.48 4124.09 81.18 2.00 314.30 2472.52
   15:06:54.924.03-May-2020 4553.48 4124.24 81.18 2.00 314.50 2472.52
   15:06:55.124.03-May-2020 4553.48 4124.29 81.18 2.00 314.70 2472.52
   15:06:55.324.03-May-2020 4553.48 4124.21 81.17 2.00 314.90 2472.52
   15:06:55.524.03-May-2020 4553.48 4124.21 81.17 2.00 315.10 2472.52
   15:06:55.724.03-May-2020 4553.48 4124.26 81.17 2.00 315.30 2472.52
   15:06:55.924.03-May-2020 4553.48 4124.11 81.17 2.00 315.50 2472.52
   15:06:56.124.03-May-2020 4553.48 4124.27 81.17 2.00 315.70 2472.52
   15:06:56.324.03-May-2020 4553.48 4124.23 81.17 2.00 315.90 2472.52
   15:06:56.524.03-May-2020 4553.48 4124.23 81.17 2.00 316.10 2472.52
   15:06:56.723.03-May-2020 4553.48 4124.17 81.17 2.00 316.30 2472.52
   15:06:56.923.03-May-2020 4553.48 4124.17 81.17 2.00 316.50 2472.52
   15:06:57.123.03-May-2020 4553.48 4124.29 81.17 2.00 316.70 2472.52
   15:06:57.323.03-May-2020 4553.48 4124.10 81.17 2.00 316.90 2472.52
   15:06:57.523.03-May-2020 4553.48 4124.10 81.17 2.00 317.10 2472.52
   15:06:57.723.03-May-2020 4553.48 4124.21 81.16 2.00 317.30 2472.52
   15:06:57.923.03-May-2020 4553.48 4124.23 81.16 2.00 317.50 2472.52
   15:06:58.123.03-May-2020 4553.48 4124.20 81.16 2.00 317.70 2472.52
   15:06:58.323.03-May-2020 4553.48 4124.05 81.16 2.00 317.90 2472.52
   15:06:58.523.03-May-2020 4553.48 4124.05 81.16 2.00 318.10 2472.52
   15:06:58.723.03-May-2020 4553.48 4124.05 81.16 2.00 318.30 2472.52
   15:06:58.923.03-May-2020 4553.48 4124.33 81.16 2.00 318.50 2472.52
   15:06:59.123.03-May-2020 4553.48 4124.11 81.16 2.00 318.70 2472.52
   15:06:59.323.03-May-2020 4553.48 4124.42 81.16 2.00 318.90 2472.52
   15:06:59.523.03-May-2020 4553.48 4124.42 81.16 2.00 319.10 2472.52
   15:06:59.723.03-May-2020 4553.48 4124.25 81.15 2.00 319.30 2472.52
   15:06:59.922.03-May-2020 4553.48 4124.22 81.15 2.00 319.50 2472.52
   15:07:00.122.03-May-2020 4553.48 4124.18 81.15 2.00 319.70 2472.52
   15:07:00.322.03-May-2020 4553.48 4124.15 81.15 2.00 319.90 2472.52
   15:07:00.522.03-May-2020 4553.48 4124.15 81.15 2.00 320.10 2472.52
   15:07:00.722.03-May-2020 4553.48 4124.11 81.15 2.00 320.30 2472.52
   15:07:00.922.03-May-2020 4553.48 4123.97 81.15 2.00 320.50 2472.52
   15:07:01.122.03-May-2020 4553.48 4124.86 81.15 2.00 320.70 2472.52
   15:07:01.322.03-May-2020 4553.48 4124.10 81.15 2.00 320.90 2472.52
   15:07:01.522.03-May-2020 4553.48 4124.10 81.15 2.00 321.10 2472.52
   15:07:01.722.03-May-2020 4553.48 4123.75 81.15 2.00 321.30 2472.52
   15:07:01.922.03-May-2020 4553.48 4124.23 81.14 2.00 321.50 2472.52
   15:07:02.122.03-May-2020 4553.48 4124.49 81.14 2.00 321.70 2472.52
