~Version Information
 VERS.                  2.0:   CWLS log ASCII Standard -VERSION 2.0
 WRAP.                   NO:   One line per depth step
~Well Information Block
#MNEM.UNIT     VALUE/NAME     DESCRIPTION
#---------     -----------    ---------------------------
 STRT.S             19:38:29 03-May-20: START TIME 19:38:29 03-May-20
 STOP.S             19:45:06 03-May-20: STOP TIME  19:45:06 03-May-20
 STEP.S                   0.00: STEP TIME
 NULL.                 -999.25: NULL VALUE
 DFWT.                        :  DIST FWL TEXT
 DFST.                        :  DIST FSL TEXT
 DMF .             Drill Floor:  DRILL MEAS FROM
 STIM.      03.00.00 25-Mar-20:  START TIME
 DATE.      00.00.00 19-May-20:  END TIME
 SPUD.               27-Aug-20:  SPUD DATE
 NREF.                    Grid:  NORTH REFERENCE
 HPTY.       Minimum Curvature:  HOLE POS TYPE
 DMOD.             Drill Model:  DRILL MOD DESC
 SVYD.                  Survey:  SURVEY DESC
 ILTD.               Lithology:  INTERP LTH DESC
 FTOP.          Formation Tops:  FORM TOPS DESC
 SON .        AZ-XX-0906252240:  JOB NUMBER
 RIG .             West Chirag:  RIG NAME
 PDAT.          Mean Sea Level:  PERMANENT DATUM
 FLD .                     ACG:  FIELD NAME
 CTRY.              Azerbaijan:  COUNTRY NAME
 WELL.                     J23:  WELL NAME
 SRVC.          Turan Drilling:  CONTRACTOR
 COMP.     BP Exploration (Caspian Sea) Ltd.:  COMPANY
 WTYP.                Deviated:  WELL TYPE
 MDS .        Operator Entered:  MAG DATA SOURCE
 UWI .                     N/A:  UNIQUE WELL IDENTIFIER
 API .                     N/A:  API NUMBER
 BASE.              Azerbaijan:  LOGGING EQUIPMENT BASE LOCATION
 REGN.                   EESSA:  REGION
 PROV.                    Baku:  PROVINCE
 STAT.                    Baku:  STATE NAME
 MWDS.                     N/A:  MWD SHOP
 JOBN.        AZ-XX-0906252240:  JOB TICKET NUMB
 DOE .                     N/A:  DOE NUMBER
 DCON.         Sperry Drilling:  DIRECTNL CONTR
 UNIT.                     N/A:  LOGGING EQUIPMENT ID
 CNTY.                        :  COUNTY
 LOC .                        :  LOCATION
 LMF .             Drill Floor:  LOG MEASURED FROM
 TVDS.m                  43.00:  TVDSS CORRECTN
 LATI.deg                40.13:  LATITUDE
 LONG.deg                51.22:  LONGITUDE
 WHNS.m                   9.43:  WELL HEAD N/S
 WHEW.m                  -8.91:  WELL HEAD E/W
 UTMX.m              519005.06:  UTM X
 UTMY.m             4443793.85:  UTM Y
 DFWL.m                   0.00:  DISTANCE FWL
 DFSL.m                   0.00:  DISTANCE FSL
 SDEP.m                 363.00:  START DEPTH
 TDD .m                5150.01:  TOTAL DEPTH (DRILLER)
 VSDR.deg               179.88:  VERT SEC DIRECT
 GVFD.g                   1.00:  GRAVITY FIELD
 MFLD.nT              50295.00:  MAGNETIC FIELD
 MDIP.deg                59.56:  MAGNETIC DIP
 MDEC.deg                 6.45:  MAGNETIC DECL
 GRDC.deg                 0.14:  GRID CORRECTION
 AZTC.deg                 6.31:  AZM TOTAL CORR
 EPD .m                   0.00:  ELEVATION
 EGL .m                   0.00:  GROUND ELEVATION
 WDMS.m                 169.80:  WD ELEV
 APD .m                  43.00:  DEPTH ABOVE PD
 DEP .m                 354.17:  DEPTH
 AGAP.m                  43.00:  AIR GAP
 VSEW.m                  -8.91:  VERT SEC E/W
 VSNS.m                   9.43:  VERT SEC N/S
 EKB .m                   0.00:  KB ELEVATION
 EDF .m                  43.00:  DF ELEVATION
 TDL .m                1351.00:  TOTAL DEPTH (LOGGER)
 VSC .                       0:  VS TO CLOSURE
 MAGU.                 1850802:  MAGUTM CHECKSUM
~Parameter Information Block
#MNEM.UNIT       Value        Description
#---------     -----------    ---------------------------
 AV  .mps                 1.00:  Ann Velocity 
 AVMX.mps                 2.40:  Max Ann Veloc 
 AZIF.deg               148.96:  Azm, Final 
 BHAT.        Rotary Steerable:  BHA Type 
 BROT.°/30m               0.04:  Build Rotating 
 BS  .in                 12.25:  Bit Size 
 BSZ .in                 12.25:  Bit Size 
 BTPL.psig              814.00:  Bit Press Loss 
 TCS .hr                106.00:  Time Ciculation Ended 
 CV  .mps                 2.47:  Crit Velocity 
 CVMX.mps                 2.64:  Max Crit Veloc 
 DD1 .          Rashad Habibov:  Direct Drillr 1 
 DD2 .         Rasim Ibrahimov:  Direct Drillr 2 
 DDSV.                 iCruise:  DD Service 
 DEFF.%                 100.00:  % Det Eff 
 DLRX.°/30m               0.70:  Dogleg Rot Max 
 DLSO.°/30m               3.00:  Dogleg Oriented 
 DLSX.°/30m               4.55:  Dogleg Str Max 
 DRET.      08.08.32 02-May-20:  Drill End Time 
 DRST.      08.08.32 28-Apr-20:  Drill Start Tim 
 DTIM.hr                 60.00:  Time Drilling 
 EDEP.m                4761.01:  End Depth 
 ENG1.           Eldar Hajiyev:  Engineer 1 
 ENG2.        Marcelo Sandoval:  Engineer 2 
 ETIM.      23.23.07 05-May-20:  End Time 
 FLOI.gpm              1200.00:  Flow In 
 FLON.gpm               900.00:  Flow In Min 
 FLOS.cptm                0.00:  Fluid Loss 
 FLOX.gpm              1200.00:  Flow In Max 
 HFLO.                      No:  High Flow 
 HPRE.                      No:  High Pressure 
 HTEM.                      No:  High Temp 
 HYDO.m                   1.80:  Hydro Offset 
 IFIN.deg                68.17:  Inc, Final 
 IMAX.deg                74.61:  Inc Max 
 IMIN.deg                68.15:  Inc Min 
 IMND.m                4317.87:  Inc Min Depth 
 IMXD.m                4714.01:  Inc Max Depth 
 LETM.      08.08.32 02-May-20:  Log End Time 
 LOST.hr                     2:  Lost Rig Time 
 LSTM.      08.08.32 28-Apr-20:  Log Start Time 
 MDCL.ppm             41000.00:  Mud Chlorides 
 MDES.     Inversion Oil/Synthetic:  Mud Desc 
 DFD .sg                  1.58:  Mud Density 
 MDMN.sg                  1.58:  Dens Mud Min 
 MDMX.sg                  1.58:  Dens Mud Max 
 MOIL.                      71:  Run Mud Oil % 
 MOWR.                   71:29:  Run Mud OWR 
 MSND.                     0.1:  Run Mud Sand % 
 MSOL.                      23:  Run Mud Solids% 
 DFV .spqt               82.00:  Mud Viscosity 
 MWOD.in                  8.00:  MWD Tool OD 
 MWSI.                     Yes:  Serv Intrp, MWD 
 OTIM.hr                125.00:  Time Operating 
 PMAX.psia             6129.00:  Press Op, Max 
 PV  .cP                 32.00:  Mud PV 
 RUN .                     800:  Run Number 
 ROPA.m/hr               30.00:  ROP Avg 
 ROPN.m/hr               10.00:  ROP Min 
 ROPX.m/hr               40.00:  ROP Max 
 RPMA.rpm               140.00:  RPM Surface Avg 
 RPMN.rpm                80.00:  RPM Surface Min 
 RPMX.rpm               140.00:  RPM Surface Max 
 RRUN.                    L503:  Rig Run Number 
 RTIM.hr                  2.00:  Time Reaming 
 SAZI.deg               184.23:  Azm, Start 
 SDEP.m                3410.01:  Start Depth 
 SIDD.                      No:  Serv Intrp, DD 
 SINC.deg                68.29:  Inc, Start 
 SPPA.psig             6000.00:  SPP Avg 
 SPPN.psig             4000.00:  SPP Min 
 SPPX.psig             6100.00:  SPP Max 
 STIM.      08.08.32 28-Apr-20:  Start Time 
 SVCS.                 DD, MWD:  Services 
 SVER.                    9.20:  Sperry Version 
 TDAT.m                1351.00:  Tot Depth Attmp 
 TDDF.                      No:  Trip for DD 
 TDLG.m                1351.00:  Tot Depth Loggd 
 TFF .                      No:  Trip for Fail 
 TQAA.f-kp               27.00:  Torque Abs Avg 
 TQAN.f-kp               20.00:  Torque Abs Min 
 TQAX.f-kp               30.00:  Torque Abs Max 
 TRRT.°/30m               0.60:  Turn Rotating 
 MRT .                    EWER:  Maximum Recorded Temperature 
 TTMX.degC               83.00:  Max Tool Temp 
 VS01.                90511138:  Virtual Str1 SN 
 VS02.                90524876:  Virtual Str2 SN 
 VS03.                90524872:  Virtual Str3 SN 
 VS04.                90502750:  Virtual Str4 SN 
 VS05.                12330984:  Virtual Str5 SN 
 WBMN.klb                 0.00:  WOB Min 
 WOBA.klb                15.00:  WOB Avg 
 WOBX.klb                20.00:  WOB Max 
 YP  .lhf2               31.00:  Yield Point 
~Curve Information Block
#MNEM.UNIT                 API CODE     Curve Description
#---------               -----------    ---------------------------
 TIME.HHMMSS            00 000 000 000:  GT Time & Date
 GTDEPTH.m              00 000 000 000:  GT Depth
 GTPQH.psia             00 000 000 000:  GT HR Quartz Pressure
 GTTQ.degC              00 000 000 000:  GT Quartz Temperature
 GTTN.NONE              00 000 000 000:  GT Test Number
 GTET.sec               00 000 000 000:  GT Elapsed Test Time
 GTTVD.m                00 000 000 000:  GT True Vertical Depth
#Other Information
#
#WARRANTY: Halliburton will use its best efforts to furnish customers with 
#accurate information and interpretations that are part of, and incident to, the services 
#provided.  However, Halliburton cannot and does not warrant the accuracy 
#or correctness of such information and interpretations.  Under no circumstances should any 
#such information or interpretation be relied upon as the sole basis for any drilling, 
#completion, production, or financial decision or any procedure involving any risk to the 
#safety of any drilling venture, drilling rig or its crew or any other third party.  The 
#Customer has full responsibility for all drilling, completion and production operation.  
#Halliburton makes no representations or warranties, either expressed or 
#implied, including, but not limited to, the implied warranties of merchantability or fitness 
#for a particular purpose, with respect to the services rendered.  In no event will 
#Halliburton be liable for failure to obtain any particular results or for 
#any damages, including, but not limited to, indirect, special or consequential damages, 
#resulting from the use of any information or interpretation provided by Halliburton.
#
~A           TIME           GTDEPTH  GTPQH  GTTQ  GTTN  GTET   GTTVD  
# ...
   19:38:52.488.03-May-2020 4608.48 5791.53 80.47 3.00  23.00 2489.14
   19:38:52.688.03-May-2020 4608.48 5797.62 80.47 3.00  23.20 2489.14
   19:38:52.888.03-May-2020 4608.48 5789.21 80.47 3.00  23.40 2489.14
   19:38:53.088.03-May-2020 4608.48 5790.55 80.47 3.00  23.60 2489.14
   19:38:53.288.03-May-2020 4608.48 5791.48 80.47 3.00  23.80 2489.14
   19:38:53.488.03-May-2020 4608.48 5796.66 80.46 3.00  24.00 2489.14
   19:38:53.688.03-May-2020 4608.48 5796.66 80.46 3.00  24.20 2489.14
   19:38:53.888.03-May-2020 4608.48 5791.08 80.46 3.00  24.40 2489.14
   19:38:54.088.03-May-2020 4608.48 5791.53 80.46 3.00  24.60 2489.14
   19:38:54.288.03-May-2020 4608.48 5790.79 80.46 3.00  24.80 2489.14
   19:38:54.488.03-May-2020 4608.48 5791.03 80.46 3.00  25.00 2489.14
   19:38:54.688.03-May-2020 4608.48 5791.03 80.46 3.00  25.20 2489.14
   19:38:54.888.03-May-2020 4608.48 5792.73 80.46 3.00  25.40 2489.14
   19:38:55.089.03-May-2020 4608.48 5791.40 80.46 3.00  25.60 2489.14
   19:38:55.289.03-May-2020 4608.48 5791.33 80.46 3.00  25.80 2489.14
   19:38:55.489.03-May-2020 4608.48 5791.86 80.46 3.00  26.00 2489.14
   19:38:55.689.03-May-2020 4608.48 5793.40 80.46 3.00  26.20 2489.14
   19:38:55.889.03-May-2020 4608.48 5792.96 80.45 3.00  26.40 2489.14
   19:38:56.089.03-May-2020 4608.48 5792.61 80.45 3.00  26.60 2489.14
   19:38:56.289.03-May-2020 4608.48 5798.01 80.45 3.00  26.80 2489.14
   19:38:56.489.03-May-2020 4608.48 5795.31 80.45 3.00  27.00 2489.14
   19:38:56.689.03-May-2020 4608.48 5795.31 80.45 3.00  27.20 2489.14
   19:38:56.889.03-May-2020 4608.48 5793.40 80.45 3.00  27.40 2489.14
   19:38:57.089.03-May-2020 4608.48 5793.26 80.45 3.00  27.60 2489.14
   19:38:57.289.03-May-2020 4608.48 5793.33 80.45 3.00  27.80 2489.14
   19:38:57.489.03-May-2020 4608.48 5793.21 80.45 3.00  28.00 2489.14
   19:38:57.689.03-May-2020 4608.48 5793.21 80.45 3.00  28.20 2489.14
   19:38:57.889.03-May-2020 4608.48 5793.19 80.45 3.00  28.40 2489.14
   19:38:58.089.03-May-2020 4608.48 5792.90 80.45 3.00  28.60 2489.14
   19:38:58.289.03-May-2020 4608.48 5793.19 80.44 3.00  28.80 2489.14
   19:38:58.489.03-May-2020 4608.48 5793.96 80.44 3.00  29.00 2489.14
   19:38:58.689.03-May-2020 4608.48 5793.96 80.44 3.00  29.20 2489.14
   19:38:58.889.03-May-2020 4608.48 5797.32 80.44 3.00  29.40 2489.14
   19:38:59.089.03-May-2020 4608.48 5798.43 80.44 3.00  29.60 2489.14
   19:38:59.289.03-May-2020 4608.48 5796.22 80.44 3.00  29.80 2489.14
   19:38:59.489.03-May-2020 4608.48 5800.91 80.44 3.00  30.00 2489.14
   19:38:59.689.03-May-2020 4608.48 5796.21 80.44 3.00  30.20 2489.14
   19:38:59.889.03-May-2020 4608.48 5795.98 80.44 3.00  30.40 2489.14
   19:39:00.089.03-May-2020 4608.48 5795.82 80.44 3.00  30.60 2489.14
   19:39:00.289.03-May-2020 4608.48 5795.19 80.44 3.00  30.80 2489.14
   19:39:00.489.03-May-2020 4608.48 5799.52 80.43 3.00  31.00 2489.14
   19:39:00.689.03-May-2020 4608.48 5799.52 80.43 3.00  31.20 2489.14
   19:39:00.889.03-May-2020 4608.48 5793.19 80.43 3.00  31.40 2489.14
   19:39:01.089.03-May-2020 4608.48 5797.08 80.43 3.00  31.60 2489.14
   19:39:01.289.03-May-2020 4608.48 5794.46 80.43 3.00  31.80 2489.14
   19:39:01.489.03-May-2020 4608.48 5793.59 80.43 3.00  32.00 2489.14
   19:39:01.689.03-May-2020 4608.48 5793.59 80.43 3.00  32.20 2489.14
   19:39:01.889.03-May-2020 4608.48 5799.06 80.43 3.00  32.40 2489.14
   19:39:02.089.03-May-2020 4608.48 5794.66 80.43 3.00  32.60 2489.14
   19:39:02.289.03-May-2020 4608.48 5794.04 80.43 3.00  32.80 2489.14
   19:39:02.489.03-May-2020 4608.48 5795.15 80.43 3.00  33.00 2489.14
   19:39:02.689.03-May-2020 4608.48 5795.15 80.43 3.00  33.20 2489.14
   19:39:02.889.03-May-2020 4608.48 5792.63 80.42 3.00  33.40 2489.14
   19:39:03.089.03-May-2020 4608.48 5793.27 80.42 3.00  33.60 2489.14
   19:39:03.289.03-May-2020 4608.48 5794.24 80.42 3.00  33.80 2489.14
   19:39:03.489.03-May-2020 4608.48 5794.83 80.42 3.00  34.00 2489.14
   19:39:03.689.03-May-2020 4608.48 5794.83 80.42 3.00  34.20 2489.14
   19:39:03.889.03-May-2020 4608.48 5794.02 80.42 3.00  34.40 2489.14
   19:39:04.089.03-May-2020 4608.48 5794.77 80.42 3.00  34.60 2489.14
   19:39:04.290.03-May-2020 4608.48 5794.21 80.42 3.00  34.80 2489.14
   19:39:04.490.03-May-2020 4608.48 5794.57 80.42 3.00  35.00 2489.14
   19:39:04.690.03-May-2020 4608.48 5794.57 80.42 3.00  35.20 2489.14
   19:39:04.890.03-May-2020 4608.48 5797.79 80.42 3.00  35.40 2489.14
   19:39:05.090.03-May-2020 4608.48 5795.22 80.42 3.00  35.60 2489.14
   19:39:05.290.03-May-2020 4608.48 5794.58 80.41 3.00  35.80 2489.14
   19:39:05.490.03-May-2020 4608.48 5795.35 80.41 3.00  36.00 2489.14
   19:39:05.690.03-May-2020 4608.48 5795.35 80.41 3.00  36.20 2489.14
   19:39:05.890.03-May-2020 4608.48 5794.32 80.41 3.00  36.40 2489.14
   19:39:06.090.03-May-2020 4608.48 5794.13 80.41 3.00  36.60 2489.14
   19:39:06.290.03-May-2020 4608.48 5793.90 80.41 3.00  36.80 2489.14
   19:39:06.490.03-May-2020 4608.48 5793.11 80.41 3.00  37.00 2489.14
   19:39:06.690.03-May-2020 4608.48 5793.11 80.41 3.00  37.20 2489.14
   19:39:06.890.03-May-2020 4608.48 5793.39 80.41 3.00  37.40 2489.14
   19:39:07.090.03-May-2020 4608.48 5793.76 80.41 3.00  37.60 2489.14
   19:39:07.290.03-May-2020 4608.48 5794.08 80.41 3.00  37.80 2489.14
   19:39:07.490.03-May-2020 4608.48 5800.30 80.41 3.00  38.00 2489.14
   19:39:07.690.03-May-2020 4608.48 5795.09 80.40 3.00  38.20 2489.14
   19:39:07.890.03-May-2020 4608.48 5776.01 80.40 3.00  38.40 2489.14
   19:39:08.090.03-May-2020 4608.48 5770.74 80.40 3.00  38.60 2489.14
   19:39:08.290.03-May-2020 4608.48 5752.18 80.40 3.00  38.80 2489.14
   19:39:08.490.03-May-2020 4608.48 5741.24 80.40 3.00  39.00 2489.14
   19:39:08.690.03-May-2020 4608.48 5741.24 80.40 3.00  39.20 2489.14
   19:39:08.890.03-May-2020 4608.48 5687.41 80.40 3.00  39.40 2489.14
   19:39:09.090.03-May-2020 4608.48 5775.07 80.40 3.00  39.60 2489.14
   19:39:09.290.03-May-2020 4608.48 5924.28 80.40 3.00  39.80 2489.14
   19:39:09.490.03-May-2020 4608.48 5936.88 80.40 3.00  40.00 2489.14
   19:39:09.690.03-May-2020 4608.48 5936.88 80.40 3.00  40.20 2489.14
   19:39:09.890.03-May-2020 4608.48 5910.81 80.39 3.00  40.40 2489.14
   19:39:10.090.03-May-2020 4608.48 5899.97 80.39 3.00  40.60 2489.14
   19:39:10.290.03-May-2020 4608.48 5901.46 80.39 3.00  40.80 2489.14
   19:39:10.490.03-May-2020 4608.48 5893.27 80.39 3.00  41.00 2489.14
   19:39:10.690.03-May-2020 4608.48 5893.27 80.39 3.00  41.20 2489.14
   19:39:10.890.03-May-2020 4608.48 5865.81 80.39 3.00  41.40 2489.14
   19:39:11.090.03-May-2020 4608.48 5858.61 80.39 3.00  41.60 2489.14
   19:39:11.290.03-May-2020 4608.48 5853.64 80.39 3.00  41.80 2489.14
   19:39:11.490.03-May-2020 4608.48 5858.93 80.39 3.00  42.00 2489.14
   19:39:11.690.03-May-2020 4608.48 5857.54 80.39 3.00  42.20 2489.14
   19:39:11.890.03-May-2020 4608.48 5856.25 80.39 3.00  42.40 2489.14
   19:39:12.090.03-May-2020 4608.48 5855.28 80.39 3.00  42.60 2489.14
   19:39:12.290.03-May-2020 4608.48 5855.29 80.39 3.00  42.80 2489.14
   19:39:12.490.03-May-2020 4608.48 5853.03 80.38 3.00  43.00 2489.14
   19:39:12.690.03-May-2020 4608.48 5853.03 80.38 3.00  43.20 2489.14
   19:39:12.890.03-May-2020 4608.48 5852.13 80.38 3.00  43.40 2489.14
   19:39:13.090.03-May-2020 4608.48 5852.04 80.38 3.00  43.60 2489.14
   19:39:13.290.03-May-2020 4608.48 5851.29 80.38 3.00  43.80 2489.14
   19:39:13.491.03-May-2020 4608.48 5851.16 80.38 3.00  44.00 2489.14
   19:39:13.691.03-May-2020 4608.48 5851.16 80.38 3.00  44.20 2489.14
   19:39:13.891.03-May-2020 4608.48 5850.42 80.38 3.00  44.40 2489.14
   19:39:14.091.03-May-2020 4608.48 5850.13 80.38 3.00  44.60 2489.14
   19:39:14.291.03-May-2020 4608.48 5857.65 80.38 3.00  44.80 2489.14
   19:39:14.491.03-May-2020 4608.48 5860.34 80.38 3.00  45.00 2489.14
   19:39:14.691.03-May-2020 4608.48 5860.34 80.38 3.00  45.20 2489.14
   19:39:14.891.03-May-2020 4608.48 5859.47 80.37 3.00  45.40 2489.14
   19:39:15.091.03-May-2020 4608.48 5860.29 80.37 3.00  45.60 2489.14
   19:39:15.291.03-May-2020 4608.48 5859.22 80.37 3.00  45.80 2489.14
