~Version Information
 VERS.                  2.0:   CWLS log ASCII Standard -VERSION 2.0
 WRAP.                   NO:   One line per depth step
~Well Information Block
#MNEM.UNIT     VALUE/NAME     DESCRIPTION
#---------     -----------    ---------------------------
 STRT.S             10:50:58 04-May-20: START TIME 10:50:58 04-May-20
 STOP.S             10:57:32 04-May-20: STOP TIME  10:57:32 04-May-20
 STEP.S                   0.00: STEP TIME
 NULL.                 -999.25: NULL VALUE
 DFWT.                        :  DIST FWL TEXT
 DFST.                        :  DIST FSL TEXT
 DMF .             Drill Floor:  DRILL MEAS FROM
 STIM.      03.00.00 25-Mar-20:  START TIME
 DATE.      00.00.00 19-May-20:  END TIME
 SPUD.               27-Aug-20:  SPUD DATE
 NREF.                    Grid:  NORTH REFERENCE
 HPTY.       Minimum Curvature:  HOLE POS TYPE
 DMOD.             Drill Model:  DRILL MOD DESC
 SVYD.                  Survey:  SURVEY DESC
 ILTD.               Lithology:  INTERP LTH DESC
 FTOP.          Formation Tops:  FORM TOPS DESC
 SON .        AZ-XX-0906252240:  JOB NUMBER
 RIG .             West Chirag:  RIG NAME
 PDAT.          Mean Sea Level:  PERMANENT DATUM
 FLD .                     ACG:  FIELD NAME
 CTRY.              Azerbaijan:  COUNTRY NAME
 WELL.                     J23:  WELL NAME
 SRVC.          Turan Drilling:  CONTRACTOR
 COMP.     BP Exploration (Caspian Sea) Ltd.:  COMPANY
 WTYP.                Deviated:  WELL TYPE
 MDS .        Operator Entered:  MAG DATA SOURCE
 UWI .                     N/A:  UNIQUE WELL IDENTIFIER
 API .                     N/A:  API NUMBER
 BASE.              Azerbaijan:  LOGGING EQUIPMENT BASE LOCATION
 REGN.                   EESSA:  REGION
 PROV.                    Baku:  PROVINCE
 STAT.                    Baku:  STATE NAME
 MWDS.                     N/A:  MWD SHOP
 JOBN.        AZ-XX-0906252240:  JOB TICKET NUMB
 DOE .                     N/A:  DOE NUMBER
 DCON.         Sperry Drilling:  DIRECTNL CONTR
 UNIT.                     N/A:  LOGGING EQUIPMENT ID
 CNTY.                        :  COUNTY
 LOC .                        :  LOCATION
 LMF .             Drill Floor:  LOG MEASURED FROM
 TVDS.m                  43.00:  TVDSS CORRECTN
 LATI.deg                40.13:  LATITUDE
 LONG.deg                51.22:  LONGITUDE
 WHNS.m                   9.43:  WELL HEAD N/S
 WHEW.m                  -8.91:  WELL HEAD E/W
 UTMX.m              519005.06:  UTM X
 UTMY.m             4443793.85:  UTM Y
 DFWL.m                   0.00:  DISTANCE FWL
 DFSL.m                   0.00:  DISTANCE FSL
 SDEP.m                 363.00:  START DEPTH
 TDD .m                5150.01:  TOTAL DEPTH (DRILLER)
 VSDR.deg               179.88:  VERT SEC DIRECT
 GVFD.g                   1.00:  GRAVITY FIELD
 MFLD.nT              50295.00:  MAGNETIC FIELD
 MDIP.deg                59.56:  MAGNETIC DIP
 MDEC.deg                 6.45:  MAGNETIC DECL
 GRDC.deg                 0.14:  GRID CORRECTION
 AZTC.deg                 6.31:  AZM TOTAL CORR
 EPD .m                   0.00:  ELEVATION
 EGL .m                   0.00:  GROUND ELEVATION
 WDMS.m                 169.80:  WD ELEV
 APD .m                  43.00:  DEPTH ABOVE PD
 DEP .m                 354.17:  DEPTH
 AGAP.m                  43.00:  AIR GAP
 VSEW.m                  -8.91:  VERT SEC E/W
 VSNS.m                   9.43:  VERT SEC N/S
 EKB .m                   0.00:  KB ELEVATION
 EDF .m                  43.00:  DF ELEVATION
 TDL .m                1351.00:  TOTAL DEPTH (LOGGER)
 VSC .                       0:  VS TO CLOSURE
 MAGU.                 1850802:  MAGUTM CHECKSUM
~Parameter Information Block
#MNEM.UNIT       Value        Description
#---------     -----------    ---------------------------
 AV  .mps                 1.00:  Ann Velocity 
 AVMX.mps                 2.40:  Max Ann Veloc 
 AZIF.deg               148.96:  Azm, Final 
 BHAT.        Rotary Steerable:  BHA Type 
 BROT.°/30m               0.04:  Build Rotating 
 BS  .in                 12.25:  Bit Size 
 BSZ .in                 12.25:  Bit Size 
 BTPL.psig              814.00:  Bit Press Loss 
 TCS .hr                106.00:  Time Ciculation Ended 
 CV  .mps                 2.47:  Crit Velocity 
 CVMX.mps                 2.64:  Max Crit Veloc 
 DD1 .          Rashad Habibov:  Direct Drillr 1 
 DD2 .         Rasim Ibrahimov:  Direct Drillr 2 
 DDSV.                 iCruise:  DD Service 
 DEFF.%                 100.00:  % Det Eff 
 DLRX.°/30m               0.70:  Dogleg Rot Max 
 DLSO.°/30m               3.00:  Dogleg Oriented 
 DLSX.°/30m               4.55:  Dogleg Str Max 
 DRET.      08.08.32 02-May-20:  Drill End Time 
 DRST.      08.08.32 28-Apr-20:  Drill Start Tim 
 DTIM.hr                 60.00:  Time Drilling 
 EDEP.m                4761.01:  End Depth 
 ENG1.           Eldar Hajiyev:  Engineer 1 
 ENG2.        Marcelo Sandoval:  Engineer 2 
 ETIM.      23.23.07 05-May-20:  End Time 
 FLOI.gpm              1200.00:  Flow In 
 FLON.gpm               900.00:  Flow In Min 
 FLOS.cptm                0.00:  Fluid Loss 
 FLOX.gpm              1200.00:  Flow In Max 
 HFLO.                      No:  High Flow 
 HPRE.                      No:  High Pressure 
 HTEM.                      No:  High Temp 
 HYDO.m                   1.80:  Hydro Offset 
 IFIN.deg                68.17:  Inc, Final 
 IMAX.deg                74.61:  Inc Max 
 IMIN.deg                68.15:  Inc Min 
 IMND.m                4317.87:  Inc Min Depth 
 IMXD.m                4714.01:  Inc Max Depth 
 LETM.      08.08.32 02-May-20:  Log End Time 
 LOST.hr                     2:  Lost Rig Time 
 LSTM.      08.08.32 28-Apr-20:  Log Start Time 
 MDCL.ppm             41000.00:  Mud Chlorides 
 MDES.     Inversion Oil/Synthetic:  Mud Desc 
 DFD .sg                  1.58:  Mud Density 
 MDMN.sg                  1.58:  Dens Mud Min 
 MDMX.sg                  1.58:  Dens Mud Max 
 MOIL.                      71:  Run Mud Oil % 
 MOWR.                   71:29:  Run Mud OWR 
 MSND.                     0.1:  Run Mud Sand % 
 MSOL.                      23:  Run Mud Solids% 
 DFV .spqt               82.00:  Mud Viscosity 
 MWOD.in                  8.00:  MWD Tool OD 
 MWSI.                     Yes:  Serv Intrp, MWD 
 OTIM.hr                125.00:  Time Operating 
 PMAX.psia             6129.00:  Press Op, Max 
 PV  .cP                 32.00:  Mud PV 
 RUN .                     800:  Run Number 
 ROPA.m/hr               30.00:  ROP Avg 
 ROPN.m/hr               10.00:  ROP Min 
 ROPX.m/hr               40.00:  ROP Max 
 RPMA.rpm               140.00:  RPM Surface Avg 
 RPMN.rpm                80.00:  RPM Surface Min 
 RPMX.rpm               140.00:  RPM Surface Max 
 RRUN.                    L503:  Rig Run Number 
 RTIM.hr                  2.00:  Time Reaming 
 SAZI.deg               184.23:  Azm, Start 
 SDEP.m                3410.01:  Start Depth 
 SIDD.                      No:  Serv Intrp, DD 
 SINC.deg                68.29:  Inc, Start 
 SPPA.psig             6000.00:  SPP Avg 
 SPPN.psig             4000.00:  SPP Min 
 SPPX.psig             6100.00:  SPP Max 
 STIM.      08.08.32 28-Apr-20:  Start Time 
 SVCS.                 DD, MWD:  Services 
 SVER.                    9.20:  Sperry Version 
 TDAT.m                1351.00:  Tot Depth Attmp 
 TDDF.                      No:  Trip for DD 
 TDLG.m                1351.00:  Tot Depth Loggd 
 TFF .                      No:  Trip for Fail 
 TQAA.f-kp               27.00:  Torque Abs Avg 
 TQAN.f-kp               20.00:  Torque Abs Min 
 TQAX.f-kp               30.00:  Torque Abs Max 
 TRRT.°/30m               0.60:  Turn Rotating 
 MRT .                    EWER:  Maximum Recorded Temperature 
 TTMX.degC               83.00:  Max Tool Temp 
 VS01.                90511138:  Virtual Str1 SN 
 VS02.                90524876:  Virtual Str2 SN 
 VS03.                90524872:  Virtual Str3 SN 
 VS04.                90502750:  Virtual Str4 SN 
 VS05.                12330984:  Virtual Str5 SN 
 WBMN.klb                 0.00:  WOB Min 
 WOBA.klb                15.00:  WOB Avg 
 WOBX.klb                20.00:  WOB Max 
 YP  .lhf2               31.00:  Yield Point 
~Curve Information Block
#MNEM.UNIT                 API CODE     Curve Description
#---------               -----------    ---------------------------
 TIME.HHMMSS            00 000 000 000:  GT Time & Date
 GTDEPTH.m              00 000 000 000:  GT Depth
 GTPQH.psia             00 000 000 000:  GT HR Quartz Pressure
 GTTQ.degC              00 000 000 000:  GT Quartz Temperature
 GTTN.NONE              00 000 000 000:  GT Test Number
 GTET.sec               00 000 000 000:  GT Elapsed Test Time
 GTTVD.m                00 000 000 000:  GT True Vertical Depth
#Other Information
#
#WARRANTY: Halliburton will use its best efforts to furnish customers with 
#accurate information and interpretations that are part of, and incident to, the services 
#provided.  However, Halliburton cannot and does not warrant the accuracy 
#or correctness of such information and interpretations.  Under no circumstances should any 
#such information or interpretation be relied upon as the sole basis for any drilling, 
#completion, production, or financial decision or any procedure involving any risk to the 
#safety of any drilling venture, drilling rig or its crew or any other third party.  The 
#Customer has full responsibility for all drilling, completion and production operation.  
#Halliburton makes no representations or warranties, either expressed or 
#implied, including, but not limited to, the implied warranties of merchantability or fitness 
#for a particular purpose, with respect to the services rendered.  In no event will 
#Halliburton be liable for failure to obtain any particular results or for 
#any damages, including, but not limited to, indirect, special or consequential damages, 
#resulting from the use of any information or interpretation provided by Halliburton.
#
~A           TIME           GTDEPTH  GTPQH  GTTQ  GTTN  GTET   GTTVD  
# ...
   10:53:39.272.04-May-2020 4718.46 2598.18 81.73 6.00 161.02 2519.85
   10:53:39.472.04-May-2020 4718.46 2598.18 81.73 6.00 161.22 2519.85
   10:53:39.672.04-May-2020 4718.46 2594.06 81.73 6.00 161.42 2519.85
   10:53:39.872.04-May-2020 4718.46 2593.18 81.72 6.00 161.63 2519.85
   10:53:40.072.04-May-2020 4718.46 2592.39 81.72 6.00 161.83 2519.85
   10:53:40.272.04-May-2020 4718.46 2592.16 81.72 6.00 162.03 2519.85
   10:53:40.472.04-May-2020 4718.46 2592.16 81.72 6.00 162.23 2519.85
   10:53:40.672.04-May-2020 4718.46 2591.05 81.72 6.00 162.43 2519.85
   10:53:40.872.04-May-2020 4718.46 2591.56 81.72 6.00 162.63 2519.85
   10:53:41.072.04-May-2020 4718.46 2594.21 81.72 6.00 162.83 2519.85
   10:53:41.272.04-May-2020 4718.46 2594.38 81.72 6.00 163.03 2519.85
   10:53:41.472.04-May-2020 4718.46 2594.38 81.72 6.00 163.23 2519.85
   10:53:41.672.04-May-2020 4718.46 2657.03 81.71 6.00 163.43 2519.85
   10:53:41.872.04-May-2020 4718.46 2944.15 81.71 6.00 163.63 2519.85
   10:53:42.073.04-May-2020 4718.46 3185.69 81.71 6.00 163.83 2519.85
   10:53:42.273.04-May-2020 4718.46 3376.94 81.71 6.00 164.03 2519.85
   10:53:42.473.04-May-2020 4718.46 3376.94 81.71 6.00 164.23 2519.85
   10:53:42.673.04-May-2020 4718.46 3646.87 81.71 6.00 164.43 2519.85
   10:53:42.873.04-May-2020 4718.46 3745.43 81.71 6.00 164.63 2519.85
   10:53:43.073.04-May-2020 4718.46 3825.36 81.71 6.00 164.83 2519.85
   10:53:43.273.04-May-2020 4718.46 3889.01 81.71 6.00 165.03 2519.85
   10:53:43.473.04-May-2020 4718.46 3889.01 81.71 6.00 165.23 2519.85
   10:53:43.673.04-May-2020 4718.46 3988.07 81.71 6.00 165.43 2519.85
   10:53:43.873.04-May-2020 4718.46 4025.34 81.71 6.00 165.63 2519.85
   10:53:44.073.04-May-2020 4718.46 4056.65 81.71 6.00 165.83 2519.85
   10:53:44.273.04-May-2020 4718.46 4083.09 81.71 6.00 166.03 2519.85
   10:53:44.473.04-May-2020 4718.46 4083.09 81.71 6.00 166.23 2519.85
   10:53:44.673.04-May-2020 4718.46 4123.63 81.71 6.00 166.43 2519.85
   10:53:44.873.04-May-2020 4718.46 4139.61 81.71 6.00 166.63 2519.85
   10:53:45.073.04-May-2020 4718.46 4153.35 81.71 6.00 166.83 2519.85
   10:53:45.273.04-May-2020 4718.46 4164.87 81.71 6.00 167.03 2519.85
   10:53:45.473.04-May-2020 4718.46 4164.87 81.71 6.00 167.23 2519.85
   10:53:45.673.04-May-2020 4718.46 4183.18 81.71 6.00 167.43 2519.85
   10:53:45.873.04-May-2020 4718.46 4190.60 81.71 6.00 167.63 2519.85
   10:53:46.073.04-May-2020 4718.46 4196.28 81.71 6.00 167.83 2519.85
   10:53:46.273.04-May-2020 4718.46 4199.38 81.71 6.00 168.03 2519.85
   10:53:46.473.04-May-2020 4718.46 4204.33 81.71 6.00 168.23 2519.85
   10:53:46.673.04-May-2020 4718.46 4209.60 81.71 6.00 168.43 2519.85
   10:53:46.873.04-May-2020 4718.46 4213.73 81.71 6.00 168.63 2519.85
   10:53:47.073.04-May-2020 4718.46 4217.39 81.71 6.00 168.83 2519.85
   10:53:47.273.04-May-2020 4718.46 4220.66 81.71 6.00 169.03 2519.85
   10:53:47.473.04-May-2020 4718.46 4220.66 81.71 6.00 169.23 2519.85
   10:53:47.673.04-May-2020 4718.46 4225.78 81.71 6.00 169.43 2519.85
   10:53:47.873.04-May-2020 4718.46 4227.98 81.72 6.00 169.63 2519.85
   10:53:48.073.04-May-2020 4718.46 4229.82 81.72 6.00 169.83 2519.85
   10:53:48.273.04-May-2020 4718.46 4231.41 81.72 6.00 170.03 2519.85
   10:53:48.473.04-May-2020 4718.46 4231.41 81.72 6.00 170.23 2519.85
   10:53:48.674.04-May-2020 4718.46 4232.23 81.72 6.00 170.43 2519.85
   10:53:48.874.04-May-2020 4718.46 4233.49 81.72 6.00 170.63 2519.85
   10:53:49.074.04-May-2020 4718.46 4234.93 81.72 6.00 170.83 2519.85
   10:53:49.274.04-May-2020 4718.46 4235.70 81.72 6.00 171.03 2519.85
   10:53:49.474.04-May-2020 4718.46 4237.19 81.72 6.00 171.23 2519.85
   10:53:49.674.04-May-2020 4718.46 4238.06 81.72 6.00 171.43 2519.85
   10:53:49.874.04-May-2020 4718.46 4239.15 81.72 6.00 171.63 2519.85
   10:53:50.074.04-May-2020 4718.46 4239.59 81.72 6.00 171.83 2519.85
   10:53:50.274.04-May-2020 4718.46 4240.59 81.72 6.00 172.03 2519.85
   10:53:50.474.04-May-2020 4718.46 4240.85 81.72 6.00 172.23 2519.85
   10:53:50.674.04-May-2020 4718.46 4241.61 81.72 6.00 172.43 2519.85
   10:53:50.874.04-May-2020 4718.46 4242.12 81.72 6.00 172.63 2519.85
   10:53:51.074.04-May-2020 4718.46 4242.26 81.72 6.00 172.83 2519.85
   10:53:51.274.04-May-2020 4718.46 4243.36 81.72 6.00 173.03 2519.85
   10:53:51.474.04-May-2020 4718.46 4243.36 81.72 6.00 173.23 2519.85
   10:53:51.674.04-May-2020 4718.46 4243.67 81.72 6.00 173.43 2519.85
   10:53:51.874.04-May-2020 4718.46 4244.35 81.72 6.00 173.63 2519.85
   10:53:52.074.04-May-2020 4718.46 4244.38 81.72 6.00 173.83 2519.85
   10:53:52.274.04-May-2020 4718.46 4244.76 81.72 6.00 174.03 2519.85
   10:53:52.474.04-May-2020 4718.46 4244.76 81.72 6.00 174.23 2519.85
   10:53:52.674.04-May-2020 4718.46 4245.23 81.72 6.00 174.43 2519.85
   10:53:52.874.04-May-2020 4718.46 4245.50 81.72 6.00 174.63 2519.85
   10:53:53.074.04-May-2020 4718.46 4245.70 81.72 6.00 174.83 2519.85
   10:53:53.274.04-May-2020 4718.46 4245.93 81.72 6.00 175.03 2519.85
   10:53:53.474.04-May-2020 4718.46 4245.93 81.72 6.00 175.23 2519.85
   10:53:53.674.04-May-2020 4718.46 4246.43 81.71 6.00 175.43 2519.85
   10:53:53.874.04-May-2020 4718.46 4247.31 81.71 6.00 175.63 2519.85
   10:53:54.074.04-May-2020 4718.46 4247.13 81.71 6.00 175.83 2519.85
   10:53:54.274.04-May-2020 4718.46 4247.25 81.71 6.00 176.03 2519.85
   10:53:54.474.04-May-2020 4718.46 4247.25 81.71 6.00 176.23 2519.85
   10:53:54.674.04-May-2020 4718.46 4247.68 81.71 6.00 176.43 2519.85
   10:53:54.874.04-May-2020 4718.46 4247.61 81.71 6.00 176.63 2519.85
   10:53:55.075.04-May-2020 4718.46 4247.69 81.71 6.00 176.83 2519.85
   10:53:55.275.04-May-2020 4718.46 4247.71 81.71 6.00 177.03 2519.85
   10:53:55.475.04-May-2020 4718.46 4247.71 81.71 6.00 177.23 2519.85
   10:53:55.675.04-May-2020 4718.46 4247.97 81.71 6.00 177.43 2519.85
   10:53:55.875.04-May-2020 4718.46 4247.95 81.71 6.00 177.63 2519.85
   10:53:56.075.04-May-2020 4718.46 4248.04 81.71 6.00 177.83 2519.85
   10:53:56.275.04-May-2020 4718.46 4248.05 81.71 6.00 178.03 2519.85
   10:53:56.475.04-May-2020 4718.46 4248.05 81.71 6.00 178.23 2519.85
   10:53:56.675.04-May-2020 4718.46 4248.22 81.71 6.00 178.43 2519.85
   10:53:56.875.04-May-2020 4718.46 4248.67 81.71 6.00 178.63 2519.85
   10:53:57.075.04-May-2020 4718.46 4248.59 81.71 6.00 178.83 2519.85
   10:53:57.275.04-May-2020 4718.46 4248.84 81.71 6.00 179.03 2519.85
   10:53:57.475.04-May-2020 4718.46 4248.84 81.71 6.00 179.23 2519.85
   10:53:57.675.04-May-2020 4718.46 4248.79 81.70 6.00 179.43 2519.85
   10:53:57.875.04-May-2020 4718.46 4249.72 81.70 6.00 179.63 2519.85
   10:53:58.075.04-May-2020 4718.46 4249.00 81.70 6.00 179.83 2519.85
   10:53:58.275.04-May-2020 4718.46 4248.90 81.70 6.00 180.03 2519.85
   10:53:58.475.04-May-2020 4718.46 4248.90 81.70 6.00 180.23 2519.85
   10:53:58.675.04-May-2020 4718.46 4249.86 81.70 6.00 180.43 2519.85
   10:53:58.875.04-May-2020 4718.46 4249.09 81.70 6.00 180.63 2519.85
   10:53:59.075.04-May-2020 4718.46 4248.80 81.70 6.00 180.83 2519.85
   10:53:59.275.04-May-2020 4718.46 4249.69 81.70 6.00 181.03 2519.85
   10:53:59.475.04-May-2020 4718.46 4249.69 81.70 6.00 181.23 2519.85
   10:53:59.675.04-May-2020 4718.46 4248.90 81.70 6.00 181.43 2519.85
   10:53:59.875.04-May-2020 4718.46 4249.10 81.70 6.00 181.63 2519.85
   10:54:00.075.04-May-2020 4718.46 4249.38 81.70 6.00 181.83 2519.85
   10:54:00.275.04-May-2020 4718.46 4249.30 81.70 6.00 182.03 2519.85
   10:54:00.475.04-May-2020 4718.46 4249.30 81.70 6.00 182.23 2519.85
   10:54:00.675.04-May-2020 4718.46 4249.17 81.69 6.00 182.43 2519.85
   10:54:00.875.04-May-2020 4718.46 4249.34 81.69 6.00 182.63 2519.85
   10:54:01.075.04-May-2020 4718.46 4249.61 81.69 6.00 182.83 2519.85
   10:54:01.275.04-May-2020 4718.46 4249.58 81.69 6.00 183.03 2519.85
   10:54:01.476.04-May-2020 4718.46 4249.58 81.69 6.00 183.23 2519.85
   10:54:01.676.04-May-2020 4718.46 4249.70 81.69 6.00 183.43 2519.85
   10:54:01.876.04-May-2020 4718.46 4249.90 81.69 6.00 183.63 2519.85
   10:54:02.076.04-May-2020 4718.46 4250.55 81.69 6.00 183.83 2519.85
