~Version Information
 VERS.                  2.0:   CWLS log ASCII Standard -VERSION 2.0
 WRAP.                   NO:   One line per depth step
~Well Information Block
#MNEM.UNIT     VALUE/NAME     DESCRIPTION
#---------     -----------    ---------------------------
 STRT.S             01:13:00 04-May-20: START TIME 01:13:00 04-May-20
 STOP.S             01:19:30 04-May-20: STOP TIME  01:19:30 04-May-20
 STEP.S                   0.00: STEP TIME
 NULL.                 -999.25: NULL VALUE
 DFWT.                        :  DIST FWL TEXT
 DFST.                        :  DIST FSL TEXT
 DMF .             Drill Floor:  DRILL MEAS FROM
 STIM.      03.00.00 25-Mar-20:  START TIME
 DATE.      00.00.00 19-May-20:  END TIME
 SPUD.               27-Aug-20:  SPUD DATE
 NREF.                    Grid:  NORTH REFERENCE
 HPTY.       Minimum Curvature:  HOLE POS TYPE
 DMOD.             Drill Model:  DRILL MOD DESC
 SVYD.                  Survey:  SURVEY DESC
 ILTD.               Lithology:  INTERP LTH DESC
 FTOP.          Formation Tops:  FORM TOPS DESC
 SON .        AZ-XX-0906252240:  JOB NUMBER
 RIG .             West Chirag:  RIG NAME
 PDAT.          Mean Sea Level:  PERMANENT DATUM
 FLD .                     ACG:  FIELD NAME
 CTRY.              Azerbaijan:  COUNTRY NAME
 WELL.                     J23:  WELL NAME
 SRVC.          Turan Drilling:  CONTRACTOR
 COMP.     BP Exploration (Caspian Sea) Ltd.:  COMPANY
 WTYP.                Deviated:  WELL TYPE
 MDS .        Operator Entered:  MAG DATA SOURCE
 UWI .                     N/A:  UNIQUE WELL IDENTIFIER
 API .                     N/A:  API NUMBER
 BASE.              Azerbaijan:  LOGGING EQUIPMENT BASE LOCATION
 REGN.                   EESSA:  REGION
 PROV.                    Baku:  PROVINCE
 STAT.                    Baku:  STATE NAME
 MWDS.                     N/A:  MWD SHOP
 JOBN.        AZ-XX-0906252240:  JOB TICKET NUMB
 DOE .                     N/A:  DOE NUMBER
 DCON.         Sperry Drilling:  DIRECTNL CONTR
 UNIT.                     N/A:  LOGGING EQUIPMENT ID
 CNTY.                        :  COUNTY
 LOC .                        :  LOCATION
 LMF .             Drill Floor:  LOG MEASURED FROM
 TVDS.m                  43.00:  TVDSS CORRECTN
 LATI.deg                40.13:  LATITUDE
 LONG.deg                51.22:  LONGITUDE
 WHNS.m                   9.43:  WELL HEAD N/S
 WHEW.m                  -8.91:  WELL HEAD E/W
 UTMX.m              519005.06:  UTM X
 UTMY.m             4443793.85:  UTM Y
 DFWL.m                   0.00:  DISTANCE FWL
 DFSL.m                   0.00:  DISTANCE FSL
 SDEP.m                 363.00:  START DEPTH
 TDD .m                5150.01:  TOTAL DEPTH (DRILLER)
 VSDR.deg               179.88:  VERT SEC DIRECT
 GVFD.g                   1.00:  GRAVITY FIELD
 MFLD.nT              50295.00:  MAGNETIC FIELD
 MDIP.deg                59.56:  MAGNETIC DIP
 MDEC.deg                 6.45:  MAGNETIC DECL
 GRDC.deg                 0.14:  GRID CORRECTION
 AZTC.deg                 6.31:  AZM TOTAL CORR
 EPD .m                   0.00:  ELEVATION
 EGL .m                   0.00:  GROUND ELEVATION
 WDMS.m                 169.80:  WD ELEV
 APD .m                  43.00:  DEPTH ABOVE PD
 DEP .m                 354.17:  DEPTH
 AGAP.m                  43.00:  AIR GAP
 VSEW.m                  -8.91:  VERT SEC E/W
 VSNS.m                   9.43:  VERT SEC N/S
 EKB .m                   0.00:  KB ELEVATION
 EDF .m                  43.00:  DF ELEVATION
 TDL .m                1351.00:  TOTAL DEPTH (LOGGER)
 VSC .                       0:  VS TO CLOSURE
 MAGU.                 1850802:  MAGUTM CHECKSUM
~Parameter Information Block
#MNEM.UNIT       Value        Description
#---------     -----------    ---------------------------
 AV  .mps                 1.00:  Ann Velocity 
 AVMX.mps                 2.40:  Max Ann Veloc 
 AZIF.deg               148.96:  Azm, Final 
 BHAT.        Rotary Steerable:  BHA Type 
 BROT.°/30m               0.04:  Build Rotating 
 BS  .in                 12.25:  Bit Size 
 BSZ .in                 12.25:  Bit Size 
 BTPL.psig              814.00:  Bit Press Loss 
 TCS .hr                106.00:  Time Ciculation Ended 
 CV  .mps                 2.47:  Crit Velocity 
 CVMX.mps                 2.64:  Max Crit Veloc 
 DD1 .          Rashad Habibov:  Direct Drillr 1 
 DD2 .         Rasim Ibrahimov:  Direct Drillr 2 
 DDSV.                 iCruise:  DD Service 
 DEFF.%                 100.00:  % Det Eff 
 DLRX.°/30m               0.70:  Dogleg Rot Max 
 DLSO.°/30m               3.00:  Dogleg Oriented 
 DLSX.°/30m               4.55:  Dogleg Str Max 
 DRET.      08.08.32 02-May-20:  Drill End Time 
 DRST.      08.08.32 28-Apr-20:  Drill Start Tim 
 DTIM.hr                 60.00:  Time Drilling 
 EDEP.m                4761.01:  End Depth 
 ENG1.           Eldar Hajiyev:  Engineer 1 
 ENG2.        Marcelo Sandoval:  Engineer 2 
 ETIM.      23.23.07 05-May-20:  End Time 
 FLOI.gpm              1200.00:  Flow In 
 FLON.gpm               900.00:  Flow In Min 
 FLOS.cptm                0.00:  Fluid Loss 
 FLOX.gpm              1200.00:  Flow In Max 
 HFLO.                      No:  High Flow 
 HPRE.                      No:  High Pressure 
 HTEM.                      No:  High Temp 
 HYDO.m                   1.80:  Hydro Offset 
 IFIN.deg                68.17:  Inc, Final 
 IMAX.deg                74.61:  Inc Max 
 IMIN.deg                68.15:  Inc Min 
 IMND.m                4317.87:  Inc Min Depth 
 IMXD.m                4714.01:  Inc Max Depth 
 LETM.      08.08.32 02-May-20:  Log End Time 
 LOST.hr                     2:  Lost Rig Time 
 LSTM.      08.08.32 28-Apr-20:  Log Start Time 
 MDCL.ppm             41000.00:  Mud Chlorides 
 MDES.     Inversion Oil/Synthetic:  Mud Desc 
 DFD .sg                  1.58:  Mud Density 
 MDMN.sg                  1.58:  Dens Mud Min 
 MDMX.sg                  1.58:  Dens Mud Max 
 MOIL.                      71:  Run Mud Oil % 
 MOWR.                   71:29:  Run Mud OWR 
 MSND.                     0.1:  Run Mud Sand % 
 MSOL.                      23:  Run Mud Solids% 
 DFV .spqt               82.00:  Mud Viscosity 
 MWOD.in                  8.00:  MWD Tool OD 
 MWSI.                     Yes:  Serv Intrp, MWD 
 OTIM.hr                125.00:  Time Operating 
 PMAX.psia             6129.00:  Press Op, Max 
 PV  .cP                 32.00:  Mud PV 
 RUN .                     800:  Run Number 
 ROPA.m/hr               30.00:  ROP Avg 
 ROPN.m/hr               10.00:  ROP Min 
 ROPX.m/hr               40.00:  ROP Max 
 RPMA.rpm               140.00:  RPM Surface Avg 
 RPMN.rpm                80.00:  RPM Surface Min 
 RPMX.rpm               140.00:  RPM Surface Max 
 RRUN.                    L503:  Rig Run Number 
 RTIM.hr                  2.00:  Time Reaming 
 SAZI.deg               184.23:  Azm, Start 
 SDEP.m                3410.01:  Start Depth 
 SIDD.                      No:  Serv Intrp, DD 
 SINC.deg                68.29:  Inc, Start 
 SPPA.psig             6000.00:  SPP Avg 
 SPPN.psig             4000.00:  SPP Min 
 SPPX.psig             6100.00:  SPP Max 
 STIM.      08.08.32 28-Apr-20:  Start Time 
 SVCS.                 DD, MWD:  Services 
 SVER.                    9.20:  Sperry Version 
 TDAT.m                1351.00:  Tot Depth Attmp 
 TDDF.                      No:  Trip for DD 
 TDLG.m                1351.00:  Tot Depth Loggd 
 TFF .                      No:  Trip for Fail 
 TQAA.f-kp               27.00:  Torque Abs Avg 
 TQAN.f-kp               20.00:  Torque Abs Min 
 TQAX.f-kp               30.00:  Torque Abs Max 
 TRRT.°/30m               0.60:  Turn Rotating 
 MRT .                    EWER:  Maximum Recorded Temperature 
 TTMX.degC               83.00:  Max Tool Temp 
 VS01.                90511138:  Virtual Str1 SN 
 VS02.                90524876:  Virtual Str2 SN 
 VS03.                90524872:  Virtual Str3 SN 
 VS04.                90502750:  Virtual Str4 SN 
 VS05.                12330984:  Virtual Str5 SN 
 WBMN.klb                 0.00:  WOB Min 
 WOBA.klb                15.00:  WOB Avg 
 WOBX.klb                20.00:  WOB Max 
 YP  .lhf2               31.00:  Yield Point 
~Curve Information Block
#MNEM.UNIT                 API CODE     Curve Description
#---------               -----------    ---------------------------
 TIME.HHMMSS            00 000 000 000:  GT Time & Date
 GTDEPTH.m              00 000 000 000:  GT Depth
 GTPQH.psia             00 000 000 000:  GT HR Quartz Pressure
 GTTQ.degC              00 000 000 000:  GT Quartz Temperature
 GTTN.NONE              00 000 000 000:  GT Test Number
 GTET.sec               00 000 000 000:  GT Elapsed Test Time
 GTTVD.m                00 000 000 000:  GT True Vertical Depth
#Other Information
#
#WARRANTY: Halliburton will use its best efforts to furnish customers with 
#accurate information and interpretations that are part of, and incident to, the services 
#provided.  However, Halliburton cannot and does not warrant the accuracy 
#or correctness of such information and interpretations.  Under no circumstances should any 
#such information or interpretation be relied upon as the sole basis for any drilling, 
#completion, production, or financial decision or any procedure involving any risk to the 
#safety of any drilling venture, drilling rig or its crew or any other third party.  The 
#Customer has full responsibility for all drilling, completion and production operation.  
#Halliburton makes no representations or warranties, either expressed or 
#implied, including, but not limited to, the implied warranties of merchantability or fitness 
#for a particular purpose, with respect to the services rendered.  In no event will 
#Halliburton be liable for failure to obtain any particular results or for 
#any damages, including, but not limited to, indirect, special or consequential damages, 
#resulting from the use of any information or interpretation provided by Halliburton.
#
~A           TIME           GTDEPTH  GTPQH  GTTQ  GTTN  GTET   GTTVD  
# ...
   01:15:41.544.04-May-2020 4660.50   30.25 76.05 5.00 161.01 2503.99
   01:15:41.744.04-May-2020 4660.50   30.25 76.05 5.00 161.21 2503.99
   01:15:41.944.04-May-2020 4660.50   29.85 76.04 5.00 161.41 2503.99
   01:15:42.144.04-May-2020 4660.50   29.66 76.04 5.00 161.61 2503.99
   01:15:42.344.04-May-2020 4660.50   29.48 76.04 5.00 161.81 2503.99
   01:15:42.544.04-May-2020 4660.50   29.31 76.04 5.00 162.01 2503.99
   01:15:42.744.04-May-2020 4660.50   29.31 76.04 5.00 162.21 2503.99
   01:15:42.944.04-May-2020 4660.50   29.13 76.04 5.00 162.41 2503.99
   01:15:43.144.04-May-2020 4660.50   29.49 76.03 5.00 162.61 2503.99
   01:15:43.344.04-May-2020 4660.50   29.86 76.03 5.00 162.81 2503.99
   01:15:43.544.04-May-2020 4660.50   30.17 76.03 5.00 163.01 2503.99
   01:15:43.744.04-May-2020 4660.50   30.17 76.03 5.00 163.21 2503.99
   01:15:43.944.04-May-2020 4660.50   30.73 76.03 5.00 163.41 2503.99
   01:15:44.144.04-May-2020 4660.50   30.99 76.03 5.00 163.61 2503.99
   01:15:44.344.04-May-2020 4660.50   31.24 76.03 5.00 163.81 2503.99
   01:15:44.544.04-May-2020 4660.50   31.49 76.03 5.00 164.01 2503.99
   01:15:44.744.04-May-2020 4660.50   31.73 76.02 5.00 164.21 2503.99
   01:15:44.944.04-May-2020 4660.50   31.96 76.02 5.00 164.41 2503.99
   01:15:45.144.04-May-2020 4660.50   32.15 76.02 5.00 164.61 2503.99
   01:15:45.344.04-May-2020 4660.50   32.42 76.02 5.00 164.81 2503.99
   01:15:45.544.04-May-2020 4660.50   32.64 76.02 5.00 165.01 2503.99
   01:15:45.744.04-May-2020 4660.50   32.64 76.02 5.00 165.21 2503.99
   01:15:45.944.04-May-2020 4660.50   33.11 76.02 5.00 165.41 2503.99
   01:15:46.144.04-May-2020 4660.50   33.33 76.02 5.00 165.61 2503.99
   01:15:46.344.04-May-2020 4660.50   33.51 76.02 5.00 165.81 2503.99
   01:15:46.544.04-May-2020 4660.50   33.74 76.02 5.00 166.02 2503.99
   01:15:46.744.04-May-2020 4660.50   33.74 76.02 5.00 166.22 2503.99
   01:15:46.944.04-May-2020 4660.50   34.19 76.02 5.00 166.42 2503.99
   01:15:47.144.04-May-2020 4660.50   34.34 76.02 5.00 166.62 2503.99
   01:15:47.344.04-May-2020 4660.50   34.57 76.02 5.00 166.82 2503.99
   01:15:47.544.04-May-2020 4660.50   34.80 76.01 5.00 167.02 2503.99
   01:15:47.744.04-May-2020 4660.50   34.80 76.01 5.00 167.22 2503.99
   01:15:47.944.04-May-2020 4660.50   35.18 76.01 5.00 167.42 2503.99
   01:15:48.144.04-May-2020 4660.50   35.35 76.01 5.00 167.62 2503.99
   01:15:48.344.04-May-2020 4660.50   35.59 76.01 5.00 167.82 2503.99
   01:15:48.545.04-May-2020 4660.50   35.79 76.01 5.00 168.02 2503.99
   01:15:48.745.04-May-2020 4660.50   35.79 76.01 5.00 168.22 2503.99
   01:15:48.945.04-May-2020 4660.50   36.17 76.01 5.00 168.42 2503.99
   01:15:49.145.04-May-2020 4660.50   36.36 76.01 5.00 168.62 2503.99
   01:15:49.345.04-May-2020 4660.50   36.54 76.01 5.00 168.82 2503.99
   01:15:49.545.04-May-2020 4660.50   36.73 76.01 5.00 169.02 2503.99
   01:15:49.745.04-May-2020 4660.50   36.73 76.01 5.00 169.22 2503.99
   01:15:49.945.04-May-2020 4660.50   37.08 76.01 5.00 169.42 2503.99
   01:15:50.145.04-May-2020 4660.50   37.26 76.01 5.00 169.62 2503.99
   01:15:50.345.04-May-2020 4660.50   37.43 76.01 5.00 169.82 2503.99
   01:15:50.545.04-May-2020 4660.50   37.61 76.01 5.00 170.02 2503.99
   01:15:50.745.04-May-2020 4660.50   37.61 76.01 5.00 170.22 2503.99
   01:15:50.945.04-May-2020 4660.50   37.92 76.01 5.00 170.42 2503.99
   01:15:51.145.04-May-2020 4660.50   38.14 76.01 5.00 170.62 2503.99
   01:15:51.345.04-May-2020 4660.50   38.32 76.01 5.00 170.82 2503.99
   01:15:51.545.04-May-2020 4660.50   38.51 76.01 5.00 171.02 2503.99
   01:15:51.745.04-May-2020 4660.50   38.51 76.01 5.00 171.22 2503.99
   01:15:51.945.04-May-2020 4660.50   38.85 76.01 5.00 171.42 2503.99
   01:15:52.145.04-May-2020 4660.50   39.01 76.01 5.00 171.62 2503.99
   01:15:52.345.04-May-2020 4660.50   39.17 76.01 5.00 171.82 2503.99
   01:15:52.545.04-May-2020 4660.50   39.33 76.01 5.00 172.02 2503.99
   01:15:52.745.04-May-2020 4660.50   39.33 76.01 5.00 172.22 2503.99
   01:15:52.945.04-May-2020 4660.50   39.65 76.01 5.00 172.42 2503.99
   01:15:53.145.04-May-2020 4660.50   39.79 76.01 5.00 172.62 2503.99
   01:15:53.345.04-May-2020 4660.50   39.92 76.00 5.00 172.82 2503.99
   01:15:53.545.04-May-2020 4660.50   40.13 76.00 5.00 173.02 2503.99
   01:15:53.745.04-May-2020 4660.50   40.13 76.00 5.00 173.22 2503.99
   01:15:53.945.04-May-2020 4660.50   40.42 76.00 5.00 173.42 2503.99
   01:15:54.145.04-May-2020 4660.50   40.61 76.00 5.00 173.62 2503.99
   01:15:54.345.04-May-2020 4660.50   40.74 76.00 5.00 173.82 2503.99
   01:15:54.545.04-May-2020 4660.50   40.88 76.00 5.00 174.02 2503.99
   01:15:54.745.04-May-2020 4660.50   40.88 76.00 5.00 174.22 2503.99
   01:15:54.945.04-May-2020 4660.50   41.24 76.00 5.00 174.42 2503.99
   01:15:55.145.04-May-2020 4660.50   41.36 76.00 5.00 174.62 2503.99
   01:15:55.345.04-May-2020 4660.50   41.49 76.00 5.00 174.82 2503.99
   01:15:55.545.04-May-2020 4660.50   41.68 76.00 5.00 175.02 2503.99
   01:15:55.745.04-May-2020 4660.50   41.68 76.00 5.00 175.22 2503.99
   01:15:55.945.04-May-2020 4660.50   41.78 76.00 5.00 175.42 2503.99
   01:15:56.145.04-May-2020 4660.50   42.13 76.00 5.00 175.62 2503.99
   01:15:56.345.04-May-2020 4660.50   42.27 76.00 5.00 175.82 2503.99
   01:15:56.545.04-May-2020 4660.50   42.42 76.00 5.00 176.02 2503.99
   01:15:56.745.04-May-2020 4660.50   42.55 76.00 5.00 176.22 2503.99
   01:15:56.945.04-May-2020 4660.50   42.68 76.00 5.00 176.42 2503.99
   01:15:57.145.04-May-2020 4660.50   42.81 76.00 5.00 176.62 2503.99
   01:15:57.345.04-May-2020 4660.50   42.94 76.00 5.00 176.82 2503.99
   01:15:57.545.04-May-2020 4660.50   43.06 76.00 5.00 177.02 2503.99
   01:15:57.745.04-May-2020 4660.50   43.06 76.00 5.00 177.22 2503.99
   01:15:57.945.04-May-2020 4660.50   43.31 76.00 5.00 177.42 2503.99
   01:15:58.145.04-May-2020 4660.50   43.43 76.00 5.00 177.62 2503.99
   01:15:58.345.04-May-2020 4660.50   43.54 76.00 5.00 177.82 2503.99
   01:15:58.545.04-May-2020 4660.50   43.61 76.00 5.00 178.02 2503.99
   01:15:58.745.04-May-2020 4660.50   43.61 76.00 5.00 178.22 2503.99
   01:15:58.945.04-May-2020 4660.50   43.91 76.00 5.00 178.42 2503.99
   01:15:59.145.04-May-2020 4660.50   44.04 76.00 5.00 178.62 2503.99
   01:15:59.345.04-May-2020 4660.50   44.16 76.00 5.00 178.82 2503.99
   01:15:59.545.04-May-2020 4660.50   44.28 76.00 5.00 179.02 2503.99
   01:15:59.746.04-May-2020 4660.50   44.28 76.00 5.00 179.22 2503.99
   01:15:59.946.04-May-2020 4660.50   44.51 76.00 5.00 179.42 2503.99
   01:16:00.146.04-May-2020 4660.50   44.64 76.00 5.00 179.62 2503.99
   01:16:00.346.04-May-2020 4660.50   44.74 76.00 5.00 179.82 2503.99
   01:16:00.546.04-May-2020 4660.50   44.86 76.00 5.00 180.02 2503.99
   01:16:00.746.04-May-2020 4660.50   44.86 76.00 5.00 180.22 2503.99
   01:16:00.946.04-May-2020 4660.50   45.01 76.00 5.00 180.42 2503.99
   01:16:01.146.04-May-2020 4660.50   45.16 76.00 5.00 180.62 2503.99
   01:16:01.346.04-May-2020 4660.50   45.27 76.00 5.00 180.82 2503.99
   01:16:01.546.04-May-2020 4660.50   45.37 76.00 5.00 181.02 2503.99
   01:16:01.746.04-May-2020 4660.50   45.37 76.00 5.00 181.22 2503.99
   01:16:01.946.04-May-2020 4660.50   45.65 76.00 5.00 181.42 2503.99
   01:16:02.146.04-May-2020 4660.50   45.74 76.00 5.00 181.62 2503.99
   01:16:02.346.04-May-2020 4660.50   45.85 76.00 5.00 181.82 2503.99
   01:16:02.546.04-May-2020 4660.50   46.00 76.00 5.00 182.02 2503.99
   01:16:02.746.04-May-2020 4660.50   46.00 76.00 5.00 182.22 2503.99
   01:16:02.946.04-May-2020 4660.50   46.19 76.00 5.00 182.42 2503.99
   01:16:03.146.04-May-2020 4660.50   46.36 76.00 5.00 182.62 2503.99
   01:16:03.346.04-May-2020 4660.50   46.44 76.00 5.00 182.82 2503.99
   01:16:03.546.04-May-2020 4660.50   46.57 76.00 5.00 183.02 2503.99
   01:16:03.746.04-May-2020 4660.50   46.72 75.99 5.00 183.22 2503.99
   01:16:03.946.04-May-2020 4660.50   46.86 75.99 5.00 183.42 2503.99
   01:16:04.146.04-May-2020 4660.50   46.97 75.99 5.00 183.62 2503.99
   01:16:04.346.04-May-2020 4660.50   47.09 75.99 5.00 183.82 2503.99
