~Version Information
 VERS.                  2.0:   CWLS log ASCII Standard -VERSION 2.0
 WRAP.                   NO:   One line per depth step
~Well Information Block
#MNEM.UNIT     VALUE/NAME     DESCRIPTION
#---------     -----------    ---------------------------
 STRT.S             10:50:58 04-May-20: START TIME 10:50:58 04-May-20
 STOP.S             10:57:32 04-May-20: STOP TIME  10:57:32 04-May-20
 STEP.S                   0.00: STEP TIME
 NULL.                 -999.25: NULL VALUE
 DFWT.                        :  DIST FWL TEXT
 DFST.                        :  DIST FSL TEXT
 DMF .             Drill Floor:  DRILL MEAS FROM
 STIM.      03.00.00 25-Mar-20:  START TIME
 DATE.      00.00.00 19-May-20:  END TIME
 SPUD.               27-Aug-20:  SPUD DATE
 NREF.                    Grid:  NORTH REFERENCE
 HPTY.       Minimum Curvature:  HOLE POS TYPE
 DMOD.             Drill Model:  DRILL MOD DESC
 SVYD.                  Survey:  SURVEY DESC
 ILTD.               Lithology:  INTERP LTH DESC
 FTOP.          Formation Tops:  FORM TOPS DESC
 SON .        AZ-XX-0906252240:  JOB NUMBER
 RIG .             West Chirag:  RIG NAME
 PDAT.          Mean Sea Level:  PERMANENT DATUM
 FLD .                     ACG:  FIELD NAME
 CTRY.              Azerbaijan:  COUNTRY NAME
 WELL.                     J23:  WELL NAME
 SRVC.          Turan Drilling:  CONTRACTOR
 COMP.     BP Exploration (Caspian Sea) Ltd.:  COMPANY
 WTYP.                Deviated:  WELL TYPE
 MDS .        Operator Entered:  MAG DATA SOURCE
 UWI .                     N/A:  UNIQUE WELL IDENTIFIER
 API .                     N/A:  API NUMBER
 BASE.              Azerbaijan:  LOGGING EQUIPMENT BASE LOCATION
 REGN.                   EESSA:  REGION
 PROV.                    Baku:  PROVINCE
 STAT.                    Baku:  STATE NAME
 MWDS.                     N/A:  MWD SHOP
 JOBN.        AZ-XX-0906252240:  JOB TICKET NUMB
 DOE .                     N/A:  DOE NUMBER
 DCON.         Sperry Drilling:  DIRECTNL CONTR
 UNIT.                     N/A:  LOGGING EQUIPMENT ID
 CNTY.                        :  COUNTY
 LOC .                        :  LOCATION
 LMF .             Drill Floor:  LOG MEASURED FROM
 TVDS.m                  43.00:  TVDSS CORRECTN
 LATI.deg                40.13:  LATITUDE
 LONG.deg                51.22:  LONGITUDE
 WHNS.m                   9.43:  WELL HEAD N/S
 WHEW.m                  -8.91:  WELL HEAD E/W
 UTMX.m              519005.06:  UTM X
 UTMY.m             4443793.85:  UTM Y
 DFWL.m                   0.00:  DISTANCE FWL
 DFSL.m                   0.00:  DISTANCE FSL
 SDEP.m                 363.00:  START DEPTH
 TDD .m                5150.01:  TOTAL DEPTH (DRILLER)
 VSDR.deg               179.88:  VERT SEC DIRECT
 GVFD.g                   1.00:  GRAVITY FIELD
 MFLD.nT              50295.00:  MAGNETIC FIELD
 MDIP.deg                59.56:  MAGNETIC DIP
 MDEC.deg                 6.45:  MAGNETIC DECL
 GRDC.deg                 0.14:  GRID CORRECTION
 AZTC.deg                 6.31:  AZM TOTAL CORR
 EPD .m                   0.00:  ELEVATION
 EGL .m                   0.00:  GROUND ELEVATION
 WDMS.m                 169.80:  WD ELEV
 APD .m                  43.00:  DEPTH ABOVE PD
 DEP .m                 354.17:  DEPTH
 AGAP.m                  43.00:  AIR GAP
 VSEW.m                  -8.91:  VERT SEC E/W
 VSNS.m                   9.43:  VERT SEC N/S
 EKB .m                   0.00:  KB ELEVATION
 EDF .m                  43.00:  DF ELEVATION
 TDL .m                1351.00:  TOTAL DEPTH (LOGGER)
 VSC .                       0:  VS TO CLOSURE
 MAGU.                 1850802:  MAGUTM CHECKSUM
~Parameter Information Block
#MNEM.UNIT       Value        Description
#---------     -----------    ---------------------------
 AV  .mps                 1.00:  Ann Velocity 
 AVMX.mps                 2.40:  Max Ann Veloc 
 AZIF.deg               148.96:  Azm, Final 
 BHAT.        Rotary Steerable:  BHA Type 
 BROT.°/30m               0.04:  Build Rotating 
 BS  .in                 12.25:  Bit Size 
 BSZ .in                 12.25:  Bit Size 
 BTPL.psig              814.00:  Bit Press Loss 
 TCS .hr                106.00:  Time Ciculation Ended 
 CV  .mps                 2.47:  Crit Velocity 
 CVMX.mps                 2.64:  Max Crit Veloc 
 DD1 .          Rashad Habibov:  Direct Drillr 1 
 DD2 .         Rasim Ibrahimov:  Direct Drillr 2 
 DDSV.                 iCruise:  DD Service 
 DEFF.%                 100.00:  % Det Eff 
 DLRX.°/30m               0.70:  Dogleg Rot Max 
 DLSO.°/30m               3.00:  Dogleg Oriented 
 DLSX.°/30m               4.55:  Dogleg Str Max 
 DRET.      08.08.32 02-May-20:  Drill End Time 
 DRST.      08.08.32 28-Apr-20:  Drill Start Tim 
 DTIM.hr                 60.00:  Time Drilling 
 EDEP.m                4761.01:  End Depth 
 ENG1.           Eldar Hajiyev:  Engineer 1 
 ENG2.        Marcelo Sandoval:  Engineer 2 
 ETIM.      23.23.07 05-May-20:  End Time 
 FLOI.gpm              1200.00:  Flow In 
 FLON.gpm               900.00:  Flow In Min 
 FLOS.cptm                0.00:  Fluid Loss 
 FLOX.gpm              1200.00:  Flow In Max 
 HFLO.                      No:  High Flow 
 HPRE.                      No:  High Pressure 
 HTEM.                      No:  High Temp 
 HYDO.m                   1.80:  Hydro Offset 
 IFIN.deg                68.17:  Inc, Final 
 IMAX.deg                74.61:  Inc Max 
 IMIN.deg                68.15:  Inc Min 
 IMND.m                4317.87:  Inc Min Depth 
 IMXD.m                4714.01:  Inc Max Depth 
 LETM.      08.08.32 02-May-20:  Log End Time 
 LOST.hr                     2:  Lost Rig Time 
 LSTM.      08.08.32 28-Apr-20:  Log Start Time 
 MDCL.ppm             41000.00:  Mud Chlorides 
 MDES.     Inversion Oil/Synthetic:  Mud Desc 
 DFD .sg                  1.58:  Mud Density 
 MDMN.sg                  1.58:  Dens Mud Min 
 MDMX.sg                  1.58:  Dens Mud Max 
 MOIL.                      71:  Run Mud Oil % 
 MOWR.                   71:29:  Run Mud OWR 
 MSND.                     0.1:  Run Mud Sand % 
 MSOL.                      23:  Run Mud Solids% 
 DFV .spqt               82.00:  Mud Viscosity 
 MWOD.in                  8.00:  MWD Tool OD 
 MWSI.                     Yes:  Serv Intrp, MWD 
 OTIM.hr                125.00:  Time Operating 
 PMAX.psia             6129.00:  Press Op, Max 
 PV  .cP                 32.00:  Mud PV 
 RUN .                     800:  Run Number 
 ROPA.m/hr               30.00:  ROP Avg 
 ROPN.m/hr               10.00:  ROP Min 
 ROPX.m/hr               40.00:  ROP Max 
 RPMA.rpm               140.00:  RPM Surface Avg 
 RPMN.rpm                80.00:  RPM Surface Min 
 RPMX.rpm               140.00:  RPM Surface Max 
 RRUN.                    L503:  Rig Run Number 
 RTIM.hr                  2.00:  Time Reaming 
 SAZI.deg               184.23:  Azm, Start 
 SDEP.m                3410.01:  Start Depth 
 SIDD.                      No:  Serv Intrp, DD 
 SINC.deg                68.29:  Inc, Start 
 SPPA.psig             6000.00:  SPP Avg 
 SPPN.psig             4000.00:  SPP Min 
 SPPX.psig             6100.00:  SPP Max 
 STIM.      08.08.32 28-Apr-20:  Start Time 
 SVCS.                 DD, MWD:  Services 
 SVER.                    9.20:  Sperry Version 
 TDAT.m                1351.00:  Tot Depth Attmp 
 TDDF.                      No:  Trip for DD 
 TDLG.m                1351.00:  Tot Depth Loggd 
 TFF .                      No:  Trip for Fail 
 TQAA.f-kp               27.00:  Torque Abs Avg 
 TQAN.f-kp               20.00:  Torque Abs Min 
 TQAX.f-kp               30.00:  Torque Abs Max 
 TRRT.°/30m               0.60:  Turn Rotating 
 MRT .                    EWER:  Maximum Recorded Temperature 
 TTMX.degC               83.00:  Max Tool Temp 
 VS01.                90511138:  Virtual Str1 SN 
 VS02.                90524876:  Virtual Str2 SN 
 VS03.                90524872:  Virtual Str3 SN 
 VS04.                90502750:  Virtual Str4 SN 
 VS05.                12330984:  Virtual Str5 SN 
 WBMN.klb                 0.00:  WOB Min 
 WOBA.klb                15.00:  WOB Avg 
 WOBX.klb                20.00:  WOB Max 
 YP  .lhf2               31.00:  Yield Point 
~Curve Information Block
#MNEM.UNIT                 API CODE     Curve Description
#---------               -----------    ---------------------------
 TIME.HHMMSS            00 000 000 000:  GT Time & Date
 GTDEPTH.m              00 000 000 000:  GT Depth
 GTPQH.psia             00 000 000 000:  GT HR Quartz Pressure
 GTTQ.degC              00 000 000 000:  GT Quartz Temperature
 GTTN.NONE              00 000 000 000:  GT Test Number
 GTET.sec               00 000 000 000:  GT Elapsed Test Time
 GTTVD.m                00 000 000 000:  GT True Vertical Depth
#Other Information
#
#WARRANTY: Halliburton will use its best efforts to furnish customers with 
#accurate information and interpretations that are part of, and incident to, the services 
#provided.  However, Halliburton cannot and does not warrant the accuracy 
#or correctness of such information and interpretations.  Under no circumstances should any 
#such information or interpretation be relied upon as the sole basis for any drilling, 
#completion, production, or financial decision or any procedure involving any risk to the 
#safety of any drilling venture, drilling rig or its crew or any other third party.  The 
#Customer has full responsibility for all drilling, completion and production operation.  
#Halliburton makes no representations or warranties, either expressed or 
#implied, including, but not limited to, the implied warranties of merchantability or fitness 
#for a particular purpose, with respect to the services rendered.  In no event will 
#Halliburton be liable for failure to obtain any particular results or for 
#any damages, including, but not limited to, indirect, special or consequential damages, 
#resulting from the use of any information or interpretation provided by Halliburton.
#
~A           TIME           GTDEPTH  GTPQH  GTTQ  GTTN  GTET   GTTVD  
# ...
   10:54:25.279.04-May-2020 4718.46 4251.14 81.60 6.00 207.03 2519.85
   10:54:25.479.04-May-2020 4718.46 4251.14 81.60 6.00 207.23 2519.85
   10:54:25.679.04-May-2020 4718.46 4251.26 81.60 6.00 207.43 2519.85
   10:54:25.879.04-May-2020 4718.46 4251.13 81.60 6.00 207.63 2519.85
   10:54:26.079.04-May-2020 4718.46 4251.07 81.60 6.00 207.83 2519.85
   10:54:26.279.04-May-2020 4718.46 4251.12 81.60 6.00 208.03 2519.85
   10:54:26.479.04-May-2020 4718.46 4251.22 81.60 6.00 208.23 2519.85
   10:54:26.679.04-May-2020 4718.46 4252.08 81.60 6.00 208.43 2519.85
   10:54:26.879.04-May-2020 4718.46 4251.61 81.59 6.00 208.63 2519.85
   10:54:27.079.04-May-2020 4718.46 4251.27 81.59 6.00 208.83 2519.85
   10:54:27.280.04-May-2020 4718.46 4251.55 81.59 6.00 209.03 2519.85
   10:54:27.480.04-May-2020 4718.46 4251.55 81.59 6.00 209.23 2519.85
   10:54:27.680.04-May-2020 4718.46 4251.30 81.59 6.00 209.43 2519.85
   10:54:27.880.04-May-2020 4718.46 4251.26 81.59 6.00 209.63 2519.85
   10:54:28.080.04-May-2020 4718.46 4251.14 81.59 6.00 209.83 2519.85
   10:54:28.280.04-May-2020 4718.46 4251.24 81.59 6.00 210.03 2519.85
   10:54:28.480.04-May-2020 4718.46 4251.24 81.59 6.00 210.23 2519.85
   10:54:28.680.04-May-2020 4718.46 4251.16 81.59 6.00 210.43 2519.85
   10:54:28.880.04-May-2020 4718.46 4251.05 81.59 6.00 210.63 2519.85
   10:54:29.080.04-May-2020 4718.46 4250.79 81.59 6.00 210.83 2519.85
   10:54:29.280.04-May-2020 4718.46 4251.71 81.59 6.00 211.03 2519.85
   10:54:29.480.04-May-2020 4718.46 4251.71 81.59 6.00 211.23 2519.85
   10:54:29.680.04-May-2020 4718.46 4251.85 81.58 6.00 211.43 2519.85
   10:54:29.880.04-May-2020 4718.46 4251.49 81.58 6.00 211.63 2519.85
   10:54:30.080.04-May-2020 4718.46 4251.25 81.58 6.00 211.83 2519.85
   10:54:30.280.04-May-2020 4718.46 4251.30 81.58 6.00 212.03 2519.85
   10:54:30.480.04-May-2020 4718.46 4251.30 81.58 6.00 212.23 2519.85
   10:54:30.680.04-May-2020 4718.46 4251.32 81.58 6.00 212.43 2519.85
   10:54:30.880.04-May-2020 4718.46 4251.04 81.58 6.00 212.63 2519.85
   10:54:31.080.04-May-2020 4718.46 4251.17 81.58 6.00 212.83 2519.85
   10:54:31.280.04-May-2020 4718.46 4251.07 81.58 6.00 213.03 2519.85
   10:54:31.480.04-May-2020 4718.46 4251.84 81.58 6.00 213.23 2519.85
   10:54:31.680.04-May-2020 4718.46 4251.01 81.58 6.00 213.43 2519.85
   10:54:31.880.04-May-2020 4718.46 4250.63 81.58 6.00 213.63 2519.85
   10:54:32.080.04-May-2020 4718.46 4251.52 81.57 6.00 213.83 2519.85
   10:54:32.280.04-May-2020 4718.46 4251.09 81.57 6.00 214.03 2519.85
   10:54:32.480.04-May-2020 4718.46 4251.09 81.57 6.00 214.23 2519.85
   10:54:32.680.04-May-2020 4718.46 4251.42 81.57 6.00 214.43 2519.85
   10:54:32.880.04-May-2020 4718.46 4251.10 81.57 6.00 214.63 2519.85
   10:54:33.080.04-May-2020 4718.46 4251.07 81.57 6.00 214.83 2519.85
   10:54:33.280.04-May-2020 4718.46 4251.03 81.57 6.00 215.03 2519.85
   10:54:33.480.04-May-2020 4718.46 4251.03 81.57 6.00 215.23 2519.85
   10:54:33.680.04-May-2020 4718.46 4251.19 81.57 6.00 215.43 2519.85
   10:54:33.881.04-May-2020 4718.46 4251.19 81.57 6.00 215.63 2519.85
   10:54:34.081.04-May-2020 4718.46 4251.09 81.57 6.00 215.83 2519.85
   10:54:34.281.04-May-2020 4718.46 4251.12 81.57 6.00 216.03 2519.85
   10:54:34.481.04-May-2020 4718.46 4251.25 81.57 6.00 216.23 2519.85
   10:54:34.681.04-May-2020 4718.46 4251.94 81.56 6.00 216.43 2519.85
   10:54:34.881.04-May-2020 4718.46 4251.56 81.56 6.00 216.63 2519.85
   10:54:35.081.04-May-2020 4718.46 4251.41 81.56 6.00 216.83 2519.85
   10:54:35.281.04-May-2020 4718.46 4251.60 81.56 6.00 217.03 2519.85
   10:54:35.481.04-May-2020 4718.46 4251.60 81.56 6.00 217.23 2519.85
   10:54:35.681.04-May-2020 4718.46 4251.36 81.56 6.00 217.43 2519.85
   10:54:35.881.04-May-2020 4718.46 4251.30 81.56 6.00 217.63 2519.85
   10:54:36.081.04-May-2020 4718.46 4251.26 81.56 6.00 217.83 2519.85
   10:54:36.281.04-May-2020 4718.46 4251.33 81.56 6.00 218.03 2519.85
   10:54:36.481.04-May-2020 4718.46 4251.33 81.56 6.00 218.23 2519.85
   10:54:36.681.04-May-2020 4718.46 4251.16 81.56 6.00 218.43 2519.85
   10:54:36.881.04-May-2020 4718.46 4251.06 81.56 6.00 218.63 2519.85
   10:54:37.081.04-May-2020 4718.46 4251.03 81.56 6.00 218.83 2519.85
   10:54:37.281.04-May-2020 4718.46 4251.53 81.55 6.00 219.03 2519.85
   10:54:37.481.04-May-2020 4718.46 4251.53 81.55 6.00 219.23 2519.85
   10:54:37.681.04-May-2020 4718.46 4251.47 81.55 6.00 219.43 2519.85
   10:54:37.881.04-May-2020 4718.46 4251.84 81.55 6.00 219.63 2519.85
   10:54:38.081.04-May-2020 4718.46 4251.66 81.55 6.00 219.83 2519.85
   10:54:38.281.04-May-2020 4718.46 4251.51 81.55 6.00 220.03 2519.85
   10:54:38.481.04-May-2020 4718.46 4251.51 81.55 6.00 220.23 2519.85
   10:54:38.681.04-May-2020 4718.46 4251.58 81.55 6.00 220.43 2519.85
   10:54:38.881.04-May-2020 4718.46 4251.69 81.55 6.00 220.63 2519.85
   10:54:39.081.04-May-2020 4718.46 4251.45 81.55 6.00 220.83 2519.85
   10:54:39.281.04-May-2020 4718.46 4250.98 81.55 6.00 221.03 2519.85
   10:54:39.481.04-May-2020 4718.46 4250.98 81.55 6.00 221.23 2519.85
   10:54:39.681.04-May-2020 4718.46 4250.95 81.55 6.00 221.43 2519.85
   10:54:39.881.04-May-2020 4718.46 4251.06 81.54 6.00 221.63 2519.85
   10:54:40.081.04-May-2020 4718.46 4251.33 81.54 6.00 221.83 2519.85
   10:54:40.282.04-May-2020 4718.46 4251.16 81.54 6.00 222.03 2519.85
   10:54:40.482.04-May-2020 4718.46 4251.16 81.54 6.00 222.23 2519.85
   10:54:40.682.04-May-2020 4718.46 4251.31 81.54 6.00 222.43 2519.85
   10:54:40.882.04-May-2020 4718.46 4251.27 81.54 6.00 222.63 2519.85
   10:54:41.082.04-May-2020 4718.46 4251.22 81.54 6.00 222.83 2519.85
   10:54:41.282.04-May-2020 4718.46 4251.32 81.54 6.00 223.03 2519.85
   10:54:41.482.04-May-2020 4718.46 4251.32 81.54 6.00 223.23 2519.85
   10:54:41.682.04-May-2020 4718.46 4251.18 81.54 6.00 223.43 2519.85
   10:54:41.882.04-May-2020 4718.46 4251.25 81.54 6.00 223.63 2519.85
   10:54:42.082.04-May-2020 4718.46 4251.18 81.54 6.00 223.83 2519.85
   10:54:42.282.04-May-2020 4718.46 4251.13 81.54 6.00 224.03 2519.85
   10:54:42.482.04-May-2020 4718.46 4251.13 81.54 6.00 224.23 2519.85
   10:54:42.682.04-May-2020 4718.46 4251.28 81.53 6.00 224.43 2519.85
   10:54:42.882.04-May-2020 4718.46 4252.21 81.53 6.00 224.63 2519.85
   10:54:43.082.04-May-2020 4718.46 4251.85 81.53 6.00 224.83 2519.85
   10:54:43.282.04-May-2020 4718.46 4251.53 81.53 6.00 225.03 2519.85
   10:54:43.482.04-May-2020 4718.46 4251.53 81.53 6.00 225.23 2519.85
   10:54:43.682.04-May-2020 4718.46 4251.35 81.53 6.00 225.43 2519.85
   10:54:43.882.04-May-2020 4718.46 4251.46 81.53 6.00 225.63 2519.85
   10:54:44.082.04-May-2020 4718.46 4251.43 81.53 6.00 225.83 2519.85
   10:54:44.282.04-May-2020 4718.46 4251.35 81.53 6.00 226.04 2519.85
   10:54:44.482.04-May-2020 4718.46 4251.35 81.53 6.00 226.24 2519.85
   10:54:44.682.04-May-2020 4718.46 4251.35 81.53 6.00 226.44 2519.85
   10:54:44.882.04-May-2020 4718.46 4251.27 81.53 6.00 226.64 2519.85
   10:54:45.082.04-May-2020 4718.46 4251.24 81.52 6.00 226.84 2519.85
   10:54:45.282.04-May-2020 4718.46 4251.03 81.52 6.00 227.04 2519.85
   10:54:45.482.04-May-2020 4718.46 4251.92 81.52 6.00 227.24 2519.85
   10:54:45.682.04-May-2020 4718.46 4251.52 81.52 6.00 227.44 2519.85
   10:54:45.882.04-May-2020 4718.46 4252.34 81.52 6.00 227.64 2519.85
   10:54:46.082.04-May-2020 4718.46 4252.00 81.52 6.00 227.84 2519.85
   10:54:46.282.04-May-2020 4718.46 4251.66 81.52 6.00 228.04 2519.85
   10:54:46.482.04-May-2020 4718.46 4251.66 81.52 6.00 228.24 2519.85
   10:54:46.683.04-May-2020 4718.46 4251.66 81.52 6.00 228.44 2519.85
   10:54:46.883.04-May-2020 4718.46 4251.73 81.52 6.00 228.64 2519.85
   10:54:47.083.04-May-2020 4718.46 4251.36 81.52 6.00 228.84 2519.85
   10:54:47.283.04-May-2020 4718.46 4251.42 81.52 6.00 229.04 2519.85
   10:54:47.483.04-May-2020 4718.46 4251.42 81.52 6.00 229.24 2519.85
   10:54:47.683.04-May-2020 4718.46 4252.09 81.51 6.00 229.44 2519.85
   10:54:47.883.04-May-2020 4718.46 4251.39 81.51 6.00 229.64 2519.85
   10:54:48.083.04-May-2020 4718.46 4250.87 81.51 6.00 229.84 2519.85
