~Version Information
 VERS.                  2.0:   CWLS log ASCII Standard -VERSION 2.0
 WRAP.                   NO:   One line per depth step
~Well Information Block
#MNEM.UNIT     VALUE/NAME     DESCRIPTION
#---------     -----------    ---------------------------
 STRT.S             15:01:40 03-May-20: START TIME 15:01:40 03-May-20
 STOP.S             15:08:15 03-May-20: STOP TIME  15:08:15 03-May-20
 STEP.S                   0.00: STEP TIME
 NULL.                 -999.25: NULL VALUE
 DFWT.                        :  DIST FWL TEXT
 DFST.                        :  DIST FSL TEXT
 DMF .             Drill Floor:  DRILL MEAS FROM
 STIM.      03.00.00 25-Mar-20:  START TIME
 DATE.      00.00.00 19-May-20:  END TIME
 SPUD.               27-Aug-20:  SPUD DATE
 NREF.                    Grid:  NORTH REFERENCE
 HPTY.       Minimum Curvature:  HOLE POS TYPE
 DMOD.             Drill Model:  DRILL MOD DESC
 SVYD.                  Survey:  SURVEY DESC
 ILTD.               Lithology:  INTERP LTH DESC
 FTOP.          Formation Tops:  FORM TOPS DESC
 SON .        AZ-XX-0906252240:  JOB NUMBER
 RIG .             West Chirag:  RIG NAME
 PDAT.          Mean Sea Level:  PERMANENT DATUM
 FLD .                     ACG:  FIELD NAME
 CTRY.              Azerbaijan:  COUNTRY NAME
 WELL.                     J23:  WELL NAME
 SRVC.          Turan Drilling:  CONTRACTOR
 COMP.     BP Exploration (Caspian Sea) Ltd.:  COMPANY
 WTYP.                Deviated:  WELL TYPE
 MDS .        Operator Entered:  MAG DATA SOURCE
 UWI .                     N/A:  UNIQUE WELL IDENTIFIER
 API .                     N/A:  API NUMBER
 BASE.              Azerbaijan:  LOGGING EQUIPMENT BASE LOCATION
 REGN.                   EESSA:  REGION
 PROV.                    Baku:  PROVINCE
 STAT.                    Baku:  STATE NAME
 MWDS.                     N/A:  MWD SHOP
 JOBN.        AZ-XX-0906252240:  JOB TICKET NUMB
 DOE .                     N/A:  DOE NUMBER
 DCON.         Sperry Drilling:  DIRECTNL CONTR
 UNIT.                     N/A:  LOGGING EQUIPMENT ID
 CNTY.                        :  COUNTY
 LOC .                        :  LOCATION
 LMF .             Drill Floor:  LOG MEASURED FROM
 TVDS.m                  43.00:  TVDSS CORRECTN
 LATI.deg                40.13:  LATITUDE
 LONG.deg                51.22:  LONGITUDE
 WHNS.m                   9.43:  WELL HEAD N/S
 WHEW.m                  -8.91:  WELL HEAD E/W
 UTMX.m              519005.06:  UTM X
 UTMY.m             4443793.85:  UTM Y
 DFWL.m                   0.00:  DISTANCE FWL
 DFSL.m                   0.00:  DISTANCE FSL
 SDEP.m                 363.00:  START DEPTH
 TDD .m                5150.01:  TOTAL DEPTH (DRILLER)
 VSDR.deg               179.88:  VERT SEC DIRECT
 GVFD.g                   1.00:  GRAVITY FIELD
 MFLD.nT              50295.00:  MAGNETIC FIELD
 MDIP.deg                59.56:  MAGNETIC DIP
 MDEC.deg                 6.45:  MAGNETIC DECL
 GRDC.deg                 0.14:  GRID CORRECTION
 AZTC.deg                 6.31:  AZM TOTAL CORR
 EPD .m                   0.00:  ELEVATION
 EGL .m                   0.00:  GROUND ELEVATION
 WDMS.m                 169.80:  WD ELEV
 APD .m                  43.00:  DEPTH ABOVE PD
 DEP .m                 354.17:  DEPTH
 AGAP.m                  43.00:  AIR GAP
 VSEW.m                  -8.91:  VERT SEC E/W
 VSNS.m                   9.43:  VERT SEC N/S
 EKB .m                   0.00:  KB ELEVATION
 EDF .m                  43.00:  DF ELEVATION
 TDL .m                1351.00:  TOTAL DEPTH (LOGGER)
 VSC .                       0:  VS TO CLOSURE
 MAGU.                 1850802:  MAGUTM CHECKSUM
~Parameter Information Block
#MNEM.UNIT       Value        Description
#---------     -----------    ---------------------------
 AV  .mps                 1.00:  Ann Velocity 
 AVMX.mps                 2.40:  Max Ann Veloc 
 AZIF.deg               148.96:  Azm, Final 
 BHAT.        Rotary Steerable:  BHA Type 
 BROT.°/30m               0.04:  Build Rotating 
 BS  .in                 12.25:  Bit Size 
 BSZ .in                 12.25:  Bit Size 
 BTPL.psig              814.00:  Bit Press Loss 
 TCS .hr                106.00:  Time Ciculation Ended 
 CV  .mps                 2.47:  Crit Velocity 
 CVMX.mps                 2.64:  Max Crit Veloc 
 DD1 .          Rashad Habibov:  Direct Drillr 1 
 DD2 .         Rasim Ibrahimov:  Direct Drillr 2 
 DDSV.                 iCruise:  DD Service 
 DEFF.%                 100.00:  % Det Eff 
 DLRX.°/30m               0.70:  Dogleg Rot Max 
 DLSO.°/30m               3.00:  Dogleg Oriented 
 DLSX.°/30m               4.55:  Dogleg Str Max 
 DRET.      08.08.32 02-May-20:  Drill End Time 
 DRST.      08.08.32 28-Apr-20:  Drill Start Tim 
 DTIM.hr                 60.00:  Time Drilling 
 EDEP.m                4761.01:  End Depth 
 ENG1.           Eldar Hajiyev:  Engineer 1 
 ENG2.        Marcelo Sandoval:  Engineer 2 
 ETIM.      23.23.07 05-May-20:  End Time 
 FLOI.gpm              1200.00:  Flow In 
 FLON.gpm               900.00:  Flow In Min 
 FLOS.cptm                0.00:  Fluid Loss 
 FLOX.gpm              1200.00:  Flow In Max 
 HFLO.                      No:  High Flow 
 HPRE.                      No:  High Pressure 
 HTEM.                      No:  High Temp 
 HYDO.m                   1.80:  Hydro Offset 
 IFIN.deg                68.17:  Inc, Final 
 IMAX.deg                74.61:  Inc Max 
 IMIN.deg                68.15:  Inc Min 
 IMND.m                4317.87:  Inc Min Depth 
 IMXD.m                4714.01:  Inc Max Depth 
 LETM.      08.08.32 02-May-20:  Log End Time 
 LOST.hr                     2:  Lost Rig Time 
 LSTM.      08.08.32 28-Apr-20:  Log Start Time 
 MDCL.ppm             41000.00:  Mud Chlorides 
 MDES.     Inversion Oil/Synthetic:  Mud Desc 
 DFD .sg                  1.58:  Mud Density 
 MDMN.sg                  1.58:  Dens Mud Min 
 MDMX.sg                  1.58:  Dens Mud Max 
 MOIL.                      71:  Run Mud Oil % 
 MOWR.                   71:29:  Run Mud OWR 
 MSND.                     0.1:  Run Mud Sand % 
 MSOL.                      23:  Run Mud Solids% 
 DFV .spqt               82.00:  Mud Viscosity 
 MWOD.in                  8.00:  MWD Tool OD 
 MWSI.                     Yes:  Serv Intrp, MWD 
 OTIM.hr                125.00:  Time Operating 
 PMAX.psia             6129.00:  Press Op, Max 
 PV  .cP                 32.00:  Mud PV 
 RUN .                     800:  Run Number 
 ROPA.m/hr               30.00:  ROP Avg 
 ROPN.m/hr               10.00:  ROP Min 
 ROPX.m/hr               40.00:  ROP Max 
 RPMA.rpm               140.00:  RPM Surface Avg 
 RPMN.rpm                80.00:  RPM Surface Min 
 RPMX.rpm               140.00:  RPM Surface Max 
 RRUN.                    L503:  Rig Run Number 
 RTIM.hr                  2.00:  Time Reaming 
 SAZI.deg               184.23:  Azm, Start 
 SDEP.m                3410.01:  Start Depth 
 SIDD.                      No:  Serv Intrp, DD 
 SINC.deg                68.29:  Inc, Start 
 SPPA.psig             6000.00:  SPP Avg 
 SPPN.psig             4000.00:  SPP Min 
 SPPX.psig             6100.00:  SPP Max 
 STIM.      08.08.32 28-Apr-20:  Start Time 
 SVCS.                 DD, MWD:  Services 
 SVER.                    9.20:  Sperry Version 
 TDAT.m                1351.00:  Tot Depth Attmp 
 TDDF.                      No:  Trip for DD 
 TDLG.m                1351.00:  Tot Depth Loggd 
 TFF .                      No:  Trip for Fail 
 TQAA.f-kp               27.00:  Torque Abs Avg 
 TQAN.f-kp               20.00:  Torque Abs Min 
 TQAX.f-kp               30.00:  Torque Abs Max 
 TRRT.°/30m               0.60:  Turn Rotating 
 MRT .                    EWER:  Maximum Recorded Temperature 
 TTMX.degC               83.00:  Max Tool Temp 
 VS01.                90511138:  Virtual Str1 SN 
 VS02.                90524876:  Virtual Str2 SN 
 VS03.                90524872:  Virtual Str3 SN 
 VS04.                90502750:  Virtual Str4 SN 
 VS05.                12330984:  Virtual Str5 SN 
 WBMN.klb                 0.00:  WOB Min 
 WOBA.klb                15.00:  WOB Avg 
 WOBX.klb                20.00:  WOB Max 
 YP  .lhf2               31.00:  Yield Point 
~Curve Information Block
#MNEM.UNIT                 API CODE     Curve Description
#---------               -----------    ---------------------------
 TIME.HHMMSS            00 000 000 000:  GT Time & Date
 GTDEPTH.m              00 000 000 000:  GT Depth
 GTPQH.psia             00 000 000 000:  GT HR Quartz Pressure
 GTTQ.degC              00 000 000 000:  GT Quartz Temperature
 GTTN.NONE              00 000 000 000:  GT Test Number
 GTET.sec               00 000 000 000:  GT Elapsed Test Time
 GTTVD.m                00 000 000 000:  GT True Vertical Depth
#Other Information
#
#WARRANTY: Halliburton will use its best efforts to furnish customers with 
#accurate information and interpretations that are part of, and incident to, the services 
#provided.  However, Halliburton cannot and does not warrant the accuracy 
#or correctness of such information and interpretations.  Under no circumstances should any 
#such information or interpretation be relied upon as the sole basis for any drilling, 
#completion, production, or financial decision or any procedure involving any risk to the 
#safety of any drilling venture, drilling rig or its crew or any other third party.  The 
#Customer has full responsibility for all drilling, completion and production operation.  
#Halliburton makes no representations or warranties, either expressed or 
#implied, including, but not limited to, the implied warranties of merchantability or fitness 
#for a particular purpose, with respect to the services rendered.  In no event will 
#Halliburton be liable for failure to obtain any particular results or for 
#any damages, including, but not limited to, indirect, special or consequential damages, 
#resulting from the use of any information or interpretation provided by Halliburton.
#
~A           TIME           GTDEPTH  GTPQH  GTTQ  GTTN  GTET   GTTVD  
# ...
   15:06:16.337.03-May-2020 4553.48 4123.59 81.35 2.00 275.91 2472.52
   15:06:16.537.03-May-2020 4553.48 4123.59 81.35 2.00 276.11 2472.52
   15:06:16.737.03-May-2020 4553.48 4124.24 81.35 2.00 276.31 2472.52
   15:06:16.936.03-May-2020 4553.48 4123.74 81.35 2.00 276.51 2472.52
   15:06:17.136.03-May-2020 4553.48 4123.65 81.35 2.00 276.71 2472.52
   15:06:17.336.03-May-2020 4553.48 4123.95 81.35 2.00 276.91 2472.52
   15:06:17.536.03-May-2020 4553.48 4123.95 81.35 2.00 277.11 2472.52
   15:06:17.736.03-May-2020 4553.48 4123.71 81.35 2.00 277.31 2472.52
   15:06:17.936.03-May-2020 4553.48 4123.76 81.35 2.00 277.51 2472.52
   15:06:18.136.03-May-2020 4553.48 4123.85 81.34 2.00 277.71 2472.52
   15:06:18.336.03-May-2020 4553.48 4123.74 81.34 2.00 277.91 2472.52
   15:06:18.536.03-May-2020 4553.48 4123.74 81.34 2.00 278.11 2472.52
   15:06:18.736.03-May-2020 4553.48 4123.84 81.34 2.00 278.31 2472.52
   15:06:18.936.03-May-2020 4553.48 4123.84 81.34 2.00 278.51 2472.52
   15:06:19.136.03-May-2020 4553.48 4123.81 81.34 2.00 278.71 2472.52
   15:06:19.336.03-May-2020 4553.48 4124.33 81.34 2.00 278.91 2472.52
   15:06:19.536.03-May-2020 4553.48 4124.33 81.34 2.00 279.11 2472.52
   15:06:19.736.03-May-2020 4553.48 4123.85 81.34 2.00 279.31 2472.52
   15:06:19.935.03-May-2020 4553.48 4123.94 81.34 2.00 279.51 2472.52
   15:06:20.135.03-May-2020 4553.48 4124.13 81.34 2.00 279.71 2472.52
   15:06:20.335.03-May-2020 4553.48 4123.80 81.34 2.00 279.91 2472.52
   15:06:20.535.03-May-2020 4553.48 4123.80 81.34 2.00 280.11 2472.52
   15:06:20.735.03-May-2020 4553.48 4123.86 81.33 2.00 280.31 2472.52
   15:06:20.935.03-May-2020 4553.48 4123.88 81.33 2.00 280.51 2472.52
   15:06:21.135.03-May-2020 4553.48 4123.82 81.33 2.00 280.71 2472.52
   15:06:21.335.03-May-2020 4553.48 4123.80 81.33 2.00 280.91 2472.52
   15:06:21.535.03-May-2020 4553.48 4123.80 81.33 2.00 281.11 2472.52
   15:06:21.735.03-May-2020 4553.48 4123.91 81.33 2.00 281.31 2472.52
   15:06:21.935.03-May-2020 4553.48 4124.32 81.33 2.00 281.51 2472.52
   15:06:22.135.03-May-2020 4553.48 4124.03 81.33 2.00 281.71 2472.52
   15:06:22.335.03-May-2020 4553.48 4123.93 81.33 2.00 281.91 2472.52
   15:06:22.535.03-May-2020 4553.48 4123.93 81.33 2.00 282.11 2472.52
   15:06:22.735.03-May-2020 4553.48 4123.93 81.33 2.00 282.31 2472.52
   15:06:22.934.03-May-2020 4553.48 4124.08 81.32 2.00 282.51 2472.52
   15:06:23.134.03-May-2020 4553.48 4124.23 81.32 2.00 282.71 2472.52
   15:06:23.334.03-May-2020 4553.48 4124.17 81.32 2.00 282.91 2472.52
   15:06:23.534.03-May-2020 4553.48 4124.17 81.32 2.00 283.11 2472.52
   15:06:23.734.03-May-2020 4553.48 4124.03 81.32 2.00 283.31 2472.52
   15:06:23.934.03-May-2020 4553.48 4124.18 81.32 2.00 283.51 2472.52
   15:06:24.134.03-May-2020 4553.48 4124.17 81.32 2.00 283.71 2472.52
   15:06:24.334.03-May-2020 4553.48 4123.82 81.32 2.00 283.91 2472.52
   15:06:24.534.03-May-2020 4553.48 4123.82 81.32 2.00 284.11 2472.52
   15:06:24.734.03-May-2020 4553.48 4124.37 81.32 2.00 284.31 2472.52
   15:06:24.934.03-May-2020 4553.48 4123.92 81.32 2.00 284.51 2472.52
   15:06:25.134.03-May-2020 4553.48 4124.33 81.31 2.00 284.71 2472.52
   15:06:25.334.03-May-2020 4553.48 4123.98 81.31 2.00 284.91 2472.52
   15:06:25.534.03-May-2020 4553.48 4123.98 81.31 2.00 285.11 2472.52
   15:06:25.734.03-May-2020 4553.48 4124.08 81.31 2.00 285.31 2472.52
   15:06:25.934.03-May-2020 4553.48 4124.08 81.31 2.00 285.51 2472.52
   15:06:26.133.03-May-2020 4553.48 4124.04 81.31 2.00 285.71 2472.52
   15:06:26.333.03-May-2020 4553.48 4124.04 81.31 2.00 285.91 2472.52
   15:06:26.533.03-May-2020 4553.48 4124.04 81.31 2.00 286.11 2472.52
   15:06:26.733.03-May-2020 4553.48 4124.04 81.31 2.00 286.31 2472.52
   15:06:26.933.03-May-2020 4553.48 4124.02 81.31 2.00 286.51 2472.52
   15:06:27.133.03-May-2020 4553.48 4124.56 81.31 2.00 286.71 2472.52
   15:06:27.333.03-May-2020 4553.48 4124.23 81.30 2.00 286.91 2472.52
   15:06:27.533.03-May-2020 4553.48 4124.23 81.30 2.00 287.11 2472.52
   15:06:27.733.03-May-2020 4553.48 4124.09 81.30 2.00 287.31 2472.52
   15:06:27.933.03-May-2020 4553.48 4124.33 81.30 2.00 287.51 2472.52
   15:06:28.133.03-May-2020 4553.48 4123.99 81.30 2.00 287.71 2472.52
   15:06:28.333.03-May-2020 4553.48 4124.13 81.30 2.00 287.91 2472.52
   15:06:28.533.03-May-2020 4553.48 4124.13 81.30 2.00 288.11 2472.52
   15:06:28.733.03-May-2020 4553.48 4124.11 81.30 2.00 288.31 2472.52
   15:06:28.933.03-May-2020 4553.48 4124.00 81.30 2.00 288.51 2472.52
   15:06:29.132.03-May-2020 4553.48 4124.05 81.30 2.00 288.71 2472.52
   15:06:29.332.03-May-2020 4553.48 4123.99 81.30 2.00 288.91 2472.52
   15:06:29.532.03-May-2020 4553.48 4123.99 81.30 2.00 289.11 2472.52
   15:06:29.732.03-May-2020 4553.48 4124.47 81.29 2.00 289.31 2472.52
   15:06:29.932.03-May-2020 4553.48 4124.10 81.29 2.00 289.51 2472.52
   15:06:30.132.03-May-2020 4553.48 4124.09 81.29 2.00 289.71 2472.52
   15:06:30.332.03-May-2020 4553.48 4124.30 81.29 2.00 289.91 2472.52
   15:06:30.532.03-May-2020 4553.48 4124.30 81.29 2.00 290.11 2472.52
   15:06:30.732.03-May-2020 4553.48 4124.21 81.29 2.00 290.31 2472.52
   15:06:30.932.03-May-2020 4553.48 4124.29 81.29 2.00 290.51 2472.52
   15:06:31.132.03-May-2020 4553.48 4124.21 81.29 2.00 290.71 2472.52
   15:06:31.332.03-May-2020 4553.48 4123.91 81.29 2.00 290.91 2472.52
   15:06:31.532.03-May-2020 4553.48 4123.91 81.29 2.00 291.11 2472.52
   15:06:31.732.03-May-2020 4553.48 4124.86 81.28 2.00 291.31 2472.52
   15:06:31.932.03-May-2020 4553.48 4123.99 81.28 2.00 291.51 2472.52
   15:06:32.131.03-May-2020 4553.48 4124.47 81.28 2.00 291.71 2472.52
   15:06:32.331.03-May-2020 4553.48 4123.57 81.28 2.00 291.90 2472.52
   15:06:32.531.03-May-2020 4553.48 4123.57 81.28 2.00 292.10 2472.52
   15:06:32.731.03-May-2020 4553.48 4123.95 81.28 2.00 292.30 2472.52
   15:06:32.931.03-May-2020 4553.48 4124.45 81.28 2.00 292.50 2472.52
   15:06:33.131.03-May-2020 4553.48 4124.01 81.28 2.00 292.70 2472.52
   15:06:33.331.03-May-2020 4553.48 4124.13 81.28 2.00 292.90 2472.52
   15:06:33.531.03-May-2020 4553.48 4124.13 81.28 2.00 293.10 2472.52
   15:06:33.731.03-May-2020 4553.48 4124.19 81.28 2.00 293.30 2472.52
   15:06:33.931.03-May-2020 4553.48 4124.07 81.27 2.00 293.50 2472.52
   15:06:34.131.03-May-2020 4553.48 4124.09 81.27 2.00 293.70 2472.52
   15:06:34.331.03-May-2020 4553.48 4124.16 81.27 2.00 293.90 2472.52
   15:06:34.531.03-May-2020 4553.48 4124.16 81.27 2.00 294.10 2472.52
   15:06:34.731.03-May-2020 4553.48 4124.15 81.27 2.00 294.30 2472.52
   15:06:34.931.03-May-2020 4553.48 4124.40 81.27 2.00 294.50 2472.52
   15:06:35.131.03-May-2020 4553.48 4124.55 81.27 2.00 294.70 2472.52
   15:06:35.330.03-May-2020 4553.48 4123.98 81.27 2.00 294.90 2472.52
   15:06:35.530.03-May-2020 4553.48 4123.98 81.27 2.00 295.10 2472.52
   15:06:35.730.03-May-2020 4553.48 4124.08 81.27 2.00 295.30 2472.52
   15:06:35.930.03-May-2020 4553.48 4124.23 81.27 2.00 295.50 2472.52
   15:06:36.130.03-May-2020 4553.48 4124.20 81.26 2.00 295.70 2472.52
   15:06:36.330.03-May-2020 4553.48 4124.22 81.26 2.00 295.90 2472.52
   15:06:36.530.03-May-2020 4553.48 4124.22 81.26 2.00 296.10 2472.52
   15:06:36.730.03-May-2020 4553.48 4124.10 81.26 2.00 296.30 2472.52
   15:06:36.930.03-May-2020 4553.48 4124.12 81.26 2.00 296.50 2472.52
   15:06:37.130.03-May-2020 4553.48 4124.02 81.26 2.00 296.70 2472.52
   15:06:37.330.03-May-2020 4553.48 4124.07 81.26 2.00 296.90 2472.52
   15:06:37.530.03-May-2020 4553.48 4124.07 81.26 2.00 297.10 2472.52
   15:06:37.730.03-May-2020 4553.48 4124.57 81.26 2.00 297.30 2472.52
   15:06:37.930.03-May-2020 4553.48 4123.84 81.26 2.00 297.50 2472.52
   15:06:38.130.03-May-2020 4553.48 4124.72 81.25 2.00 297.70 2472.52
   15:06:38.329.03-May-2020 4553.48 4123.88 81.25 2.00 297.90 2472.52
   15:06:38.529.03-May-2020 4553.48 4123.88 81.25 2.00 298.10 2472.52
   15:06:38.729.03-May-2020 4553.48 4124.60 81.25 2.00 298.30 2472.52
   15:06:38.929.03-May-2020 4553.48 4124.22 81.25 2.00 298.50 2472.52
   15:06:39.129.03-May-2020 4553.48 4124.15 81.25 2.00 298.70 2472.52
