~Version Information
 VERS.                  2.0:   CWLS log ASCII Standard -VERSION 2.0
 WRAP.                   NO:   One line per depth step
~Well Information Block
#MNEM.UNIT     VALUE/NAME     DESCRIPTION
#---------     -----------    ---------------------------
 STRT.S             15:01:40 03-May-20: START TIME 15:01:40 03-May-20
 STOP.S             15:08:15 03-May-20: STOP TIME  15:08:15 03-May-20
 STEP.S                   0.00: STEP TIME
 NULL.                 -999.25: NULL VALUE
 DFWT.                        :  DIST FWL TEXT
 DFST.                        :  DIST FSL TEXT
 DMF .             Drill Floor:  DRILL MEAS FROM
 STIM.      03.00.00 25-Mar-20:  START TIME
 DATE.      00.00.00 19-May-20:  END TIME
 SPUD.               27-Aug-20:  SPUD DATE
 NREF.                    Grid:  NORTH REFERENCE
 HPTY.       Minimum Curvature:  HOLE POS TYPE
 DMOD.             Drill Model:  DRILL MOD DESC
 SVYD.                  Survey:  SURVEY DESC
 ILTD.               Lithology:  INTERP LTH DESC
 FTOP.          Formation Tops:  FORM TOPS DESC
 SON .        AZ-XX-0906252240:  JOB NUMBER
 RIG .             West Chirag:  RIG NAME
 PDAT.          Mean Sea Level:  PERMANENT DATUM
 FLD .                     ACG:  FIELD NAME
 CTRY.              Azerbaijan:  COUNTRY NAME
 WELL.                     J23:  WELL NAME
 SRVC.          Turan Drilling:  CONTRACTOR
 COMP.     BP Exploration (Caspian Sea) Ltd.:  COMPANY
 WTYP.                Deviated:  WELL TYPE
 MDS .        Operator Entered:  MAG DATA SOURCE
 UWI .                     N/A:  UNIQUE WELL IDENTIFIER
 API .                     N/A:  API NUMBER
 BASE.              Azerbaijan:  LOGGING EQUIPMENT BASE LOCATION
 REGN.                   EESSA:  REGION
 PROV.                    Baku:  PROVINCE
 STAT.                    Baku:  STATE NAME
 MWDS.                     N/A:  MWD SHOP
 JOBN.        AZ-XX-0906252240:  JOB TICKET NUMB
 DOE .                     N/A:  DOE NUMBER
 DCON.         Sperry Drilling:  DIRECTNL CONTR
 UNIT.                     N/A:  LOGGING EQUIPMENT ID
 CNTY.                        :  COUNTY
 LOC .                        :  LOCATION
 LMF .             Drill Floor:  LOG MEASURED FROM
 TVDS.m                  43.00:  TVDSS CORRECTN
 LATI.deg                40.13:  LATITUDE
 LONG.deg                51.22:  LONGITUDE
 WHNS.m                   9.43:  WELL HEAD N/S
 WHEW.m                  -8.91:  WELL HEAD E/W
 UTMX.m              519005.06:  UTM X
 UTMY.m             4443793.85:  UTM Y
 DFWL.m                   0.00:  DISTANCE FWL
 DFSL.m                   0.00:  DISTANCE FSL
 SDEP.m                 363.00:  START DEPTH
 TDD .m                5150.01:  TOTAL DEPTH (DRILLER)
 VSDR.deg               179.88:  VERT SEC DIRECT
 GVFD.g                   1.00:  GRAVITY FIELD
 MFLD.nT              50295.00:  MAGNETIC FIELD
 MDIP.deg                59.56:  MAGNETIC DIP
 MDEC.deg                 6.45:  MAGNETIC DECL
 GRDC.deg                 0.14:  GRID CORRECTION
 AZTC.deg                 6.31:  AZM TOTAL CORR
 EPD .m                   0.00:  ELEVATION
 EGL .m                   0.00:  GROUND ELEVATION
 WDMS.m                 169.80:  WD ELEV
 APD .m                  43.00:  DEPTH ABOVE PD
 DEP .m                 354.17:  DEPTH
 AGAP.m                  43.00:  AIR GAP
 VSEW.m                  -8.91:  VERT SEC E/W
 VSNS.m                   9.43:  VERT SEC N/S
 EKB .m                   0.00:  KB ELEVATION
 EDF .m                  43.00:  DF ELEVATION
 TDL .m                1351.00:  TOTAL DEPTH (LOGGER)
 VSC .                       0:  VS TO CLOSURE
 MAGU.                 1850802:  MAGUTM CHECKSUM
~Parameter Information Block
#MNEM.UNIT       Value        Description
#---------     -----------    ---------------------------
 AV  .mps                 1.00:  Ann Velocity 
 AVMX.mps                 2.40:  Max Ann Veloc 
 AZIF.deg               148.96:  Azm, Final 
 BHAT.        Rotary Steerable:  BHA Type 
 BROT.°/30m               0.04:  Build Rotating 
 BS  .in                 12.25:  Bit Size 
 BSZ .in                 12.25:  Bit Size 
 BTPL.psig              814.00:  Bit Press Loss 
 TCS .hr                106.00:  Time Ciculation Ended 
 CV  .mps                 2.47:  Crit Velocity 
 CVMX.mps                 2.64:  Max Crit Veloc 
 DD1 .          Rashad Habibov:  Direct Drillr 1 
 DD2 .         Rasim Ibrahimov:  Direct Drillr 2 
 DDSV.                 iCruise:  DD Service 
 DEFF.%                 100.00:  % Det Eff 
 DLRX.°/30m               0.70:  Dogleg Rot Max 
 DLSO.°/30m               3.00:  Dogleg Oriented 
 DLSX.°/30m               4.55:  Dogleg Str Max 
 DRET.      08.08.32 02-May-20:  Drill End Time 
 DRST.      08.08.32 28-Apr-20:  Drill Start Tim 
 DTIM.hr                 60.00:  Time Drilling 
 EDEP.m                4761.01:  End Depth 
 ENG1.           Eldar Hajiyev:  Engineer 1 
 ENG2.        Marcelo Sandoval:  Engineer 2 
 ETIM.      23.23.07 05-May-20:  End Time 
 FLOI.gpm              1200.00:  Flow In 
 FLON.gpm               900.00:  Flow In Min 
 FLOS.cptm                0.00:  Fluid Loss 
 FLOX.gpm              1200.00:  Flow In Max 
 HFLO.                      No:  High Flow 
 HPRE.                      No:  High Pressure 
 HTEM.                      No:  High Temp 
 HYDO.m                   1.80:  Hydro Offset 
 IFIN.deg                68.17:  Inc, Final 
 IMAX.deg                74.61:  Inc Max 
 IMIN.deg                68.15:  Inc Min 
 IMND.m                4317.87:  Inc Min Depth 
 IMXD.m                4714.01:  Inc Max Depth 
 LETM.      08.08.32 02-May-20:  Log End Time 
 LOST.hr                     2:  Lost Rig Time 
 LSTM.      08.08.32 28-Apr-20:  Log Start Time 
 MDCL.ppm             41000.00:  Mud Chlorides 
 MDES.     Inversion Oil/Synthetic:  Mud Desc 
 DFD .sg                  1.58:  Mud Density 
 MDMN.sg                  1.58:  Dens Mud Min 
 MDMX.sg                  1.58:  Dens Mud Max 
 MOIL.                      71:  Run Mud Oil % 
 MOWR.                   71:29:  Run Mud OWR 
 MSND.                     0.1:  Run Mud Sand % 
 MSOL.                      23:  Run Mud Solids% 
 DFV .spqt               82.00:  Mud Viscosity 
 MWOD.in                  8.00:  MWD Tool OD 
 MWSI.                     Yes:  Serv Intrp, MWD 
 OTIM.hr                125.00:  Time Operating 
 PMAX.psia             6129.00:  Press Op, Max 
 PV  .cP                 32.00:  Mud PV 
 RUN .                     800:  Run Number 
 ROPA.m/hr               30.00:  ROP Avg 
 ROPN.m/hr               10.00:  ROP Min 
 ROPX.m/hr               40.00:  ROP Max 
 RPMA.rpm               140.00:  RPM Surface Avg 
 RPMN.rpm                80.00:  RPM Surface Min 
 RPMX.rpm               140.00:  RPM Surface Max 
 RRUN.                    L503:  Rig Run Number 
 RTIM.hr                  2.00:  Time Reaming 
 SAZI.deg               184.23:  Azm, Start 
 SDEP.m                3410.01:  Start Depth 
 SIDD.                      No:  Serv Intrp, DD 
 SINC.deg                68.29:  Inc, Start 
 SPPA.psig             6000.00:  SPP Avg 
 SPPN.psig             4000.00:  SPP Min 
 SPPX.psig             6100.00:  SPP Max 
 STIM.      08.08.32 28-Apr-20:  Start Time 
 SVCS.                 DD, MWD:  Services 
 SVER.                    9.20:  Sperry Version 
 TDAT.m                1351.00:  Tot Depth Attmp 
 TDDF.                      No:  Trip for DD 
 TDLG.m                1351.00:  Tot Depth Loggd 
 TFF .                      No:  Trip for Fail 
 TQAA.f-kp               27.00:  Torque Abs Avg 
 TQAN.f-kp               20.00:  Torque Abs Min 
 TQAX.f-kp               30.00:  Torque Abs Max 
 TRRT.°/30m               0.60:  Turn Rotating 
 MRT .                    EWER:  Maximum Recorded Temperature 
 TTMX.degC               83.00:  Max Tool Temp 
 VS01.                90511138:  Virtual Str1 SN 
 VS02.                90524876:  Virtual Str2 SN 
 VS03.                90524872:  Virtual Str3 SN 
 VS04.                90502750:  Virtual Str4 SN 
 VS05.                12330984:  Virtual Str5 SN 
 WBMN.klb                 0.00:  WOB Min 
 WOBA.klb                15.00:  WOB Avg 
 WOBX.klb                20.00:  WOB Max 
 YP  .lhf2               31.00:  Yield Point 
~Curve Information Block
#MNEM.UNIT                 API CODE     Curve Description
#---------               -----------    ---------------------------
 TIME.HHMMSS            00 000 000 000:  GT Time & Date
 GTDEPTH.m              00 000 000 000:  GT Depth
 GTPQH.psia             00 000 000 000:  GT HR Quartz Pressure
 GTTQ.degC              00 000 000 000:  GT Quartz Temperature
 GTTN.NONE              00 000 000 000:  GT Test Number
 GTET.sec               00 000 000 000:  GT Elapsed Test Time
 GTTVD.m                00 000 000 000:  GT True Vertical Depth
#Other Information
#
#WARRANTY: Halliburton will use its best efforts to furnish customers with 
#accurate information and interpretations that are part of, and incident to, the services 
#provided.  However, Halliburton cannot and does not warrant the accuracy 
#or correctness of such information and interpretations.  Under no circumstances should any 
#such information or interpretation be relied upon as the sole basis for any drilling, 
#completion, production, or financial decision or any procedure involving any risk to the 
#safety of any drilling venture, drilling rig or its crew or any other third party.  The 
#Customer has full responsibility for all drilling, completion and production operation.  
#Halliburton makes no representations or warranties, either expressed or 
#implied, including, but not limited to, the implied warranties of merchantability or fitness 
#for a particular purpose, with respect to the services rendered.  In no event will 
#Halliburton be liable for failure to obtain any particular results or for 
#any damages, including, but not limited to, indirect, special or consequential damages, 
#resulting from the use of any information or interpretation provided by Halliburton.
#
~A           TIME           GTDEPTH  GTPQH  GTTQ  GTTN  GTET   GTTVD  
# ...
   15:03:35.389.03-May-2020 4553.48 4124.12 82.03 2.00 114.96 2472.52
   15:03:35.589.03-May-2020 4553.48 4124.12 82.03 2.00 115.16 2472.52
   15:03:35.789.03-May-2020 4553.48 4123.73 82.03 2.00 115.36 2472.52
   15:03:35.989.03-May-2020 4553.48 4124.48 82.03 2.00 115.56 2472.52
   15:03:36.189.03-May-2020 4553.48 4124.26 82.03 2.00 115.76 2472.52
   15:03:36.389.03-May-2020 4553.48 4124.32 82.03 2.00 115.96 2472.52
   15:03:36.589.03-May-2020 4553.48 4124.32 82.03 2.00 116.16 2472.52
   15:03:36.789.03-May-2020 4553.48 4124.10 82.03 2.00 116.36 2472.52
   15:03:36.989.03-May-2020 4553.48 4124.48 82.03 2.00 116.56 2472.52
   15:03:37.188.03-May-2020 4553.48 4124.29 82.03 2.00 116.76 2472.52
   15:03:37.388.03-May-2020 4553.48 4123.88 82.03 2.00 116.96 2472.52
   15:03:37.588.03-May-2020 4553.48 4123.88 82.03 2.00 117.16 2472.52
   15:03:37.788.03-May-2020 4553.48 4124.53 82.02 2.00 117.36 2472.52
   15:03:37.988.03-May-2020 4553.48 4124.01 82.02 2.00 117.56 2472.52
   15:03:38.188.03-May-2020 4553.48 4124.34 82.02 2.00 117.76 2472.52
   15:03:38.388.03-May-2020 4553.48 4124.38 82.02 2.00 117.96 2472.52
   15:03:38.588.03-May-2020 4553.48 4124.38 82.02 2.00 118.16 2472.52
   15:03:38.788.03-May-2020 4553.48 4124.26 82.02 2.00 118.36 2472.52
   15:03:38.988.03-May-2020 4553.48 4124.36 82.02 2.00 118.56 2472.52
   15:03:39.188.03-May-2020 4553.48 4124.28 82.02 2.00 118.76 2472.52
   15:03:39.388.03-May-2020 4553.48 4124.26 82.02 2.00 118.96 2472.52
   15:03:39.588.03-May-2020 4553.48 4124.26 82.02 2.00 119.16 2472.52
   15:03:39.788.03-May-2020 4553.48 4124.35 82.02 2.00 119.36 2472.52
   15:03:39.988.03-May-2020 4553.48 4124.32 82.02 2.00 119.56 2472.52
   15:03:40.187.03-May-2020 4553.48 4124.32 82.02 2.00 119.76 2472.52
   15:03:40.387.03-May-2020 4553.48 4124.27 82.01 2.00 119.96 2472.52
   15:03:40.587.03-May-2020 4553.48 4124.27 82.01 2.00 120.16 2472.52
   15:03:40.787.03-May-2020 4553.48 4124.34 82.01 2.00 120.36 2472.52
   15:03:40.987.03-May-2020 4553.48 4124.36 82.01 2.00 120.56 2472.52
   15:03:41.187.03-May-2020 4553.48 4124.21 82.01 2.00 120.76 2472.52
   15:03:41.387.03-May-2020 4553.48 4124.32 82.01 2.00 120.96 2472.52
   15:03:41.587.03-May-2020 4553.48 4124.32 82.01 2.00 121.16 2472.52
   15:03:41.787.03-May-2020 4553.48 4124.33 82.01 2.00 121.36 2472.52
   15:03:41.987.03-May-2020 4553.48 4124.31 82.01 2.00 121.56 2472.52
   15:03:42.187.03-May-2020 4553.48 4124.23 82.01 2.00 121.76 2472.52
   15:03:42.387.03-May-2020 4553.48 4124.23 82.01 2.00 121.96 2472.52
   15:03:42.587.03-May-2020 4553.48 4124.23 82.01 2.00 122.16 2472.52
   15:03:42.787.03-May-2020 4553.48 4124.32 82.01 2.00 122.36 2472.52
   15:03:42.987.03-May-2020 4553.48 4124.12 82.00 2.00 122.56 2472.52
   15:03:43.186.03-May-2020 4553.48 4124.54 82.00 2.00 122.76 2472.52
   15:03:43.386.03-May-2020 4553.48 4124.28 82.00 2.00 122.96 2472.52
   15:03:43.586.03-May-2020 4553.48 4124.28 82.00 2.00 123.16 2472.52
   15:03:43.786.03-May-2020 4553.48 4124.25 82.00 2.00 123.36 2472.52
   15:03:43.986.03-May-2020 4553.48 4124.11 82.00 2.00 123.56 2472.52
   15:03:44.186.03-May-2020 4553.48 4124.33 82.00 2.00 123.76 2472.52
   15:03:44.386.03-May-2020 4553.48 4124.65 82.00 2.00 123.96 2472.52
   15:03:44.586.03-May-2020 4553.48 4124.65 82.00 2.00 124.16 2472.52
   15:03:44.786.03-May-2020 4553.48 4124.30 82.00 2.00 124.36 2472.52
   15:03:44.986.03-May-2020 4553.48 4124.22 82.00 2.00 124.56 2472.52
   15:03:45.186.03-May-2020 4553.48 4124.03 82.00 2.00 124.76 2472.52
   15:03:45.386.03-May-2020 4553.48 4124.23 82.00 2.00 124.96 2472.52
   15:03:45.586.03-May-2020 4553.48 4124.23 82.00 2.00 125.16 2472.52
   15:03:45.786.03-May-2020 4553.48 4124.31 81.99 2.00 125.36 2472.52
   15:03:45.986.03-May-2020 4553.48 4124.14 81.99 2.00 125.56 2472.52
   15:03:46.186.03-May-2020 4553.48 4124.59 81.99 2.00 125.76 2472.52
   15:03:46.385.03-May-2020 4553.48 4124.15 81.99 2.00 125.96 2472.52
   15:03:46.585.03-May-2020 4553.48 4124.15 81.99 2.00 126.16 2472.52
   15:03:46.785.03-May-2020 4553.48 4124.37 81.99 2.00 126.36 2472.52
   15:03:46.985.03-May-2020 4553.48 4124.28 81.99 2.00 126.56 2472.52
   15:03:47.185.03-May-2020 4553.48 4124.21 81.99 2.00 126.76 2472.52
   15:03:47.385.03-May-2020 4553.48 4124.28 81.99 2.00 126.96 2472.52
   15:03:47.585.03-May-2020 4553.48 4124.28 81.99 2.00 127.16 2472.52
   15:03:47.785.03-May-2020 4553.48 4124.34 81.99 2.00 127.36 2472.52
   15:03:47.985.03-May-2020 4553.48 4124.30 81.98 2.00 127.56 2472.52
   15:03:48.185.03-May-2020 4553.48 4124.25 81.98 2.00 127.76 2472.52
   15:03:48.385.03-May-2020 4553.48 4124.63 81.98 2.00 127.96 2472.52
   15:03:48.585.03-May-2020 4553.48 4124.63 81.98 2.00 128.16 2472.52
   15:03:48.785.03-May-2020 4553.48 4124.38 81.98 2.00 128.36 2472.52
   15:03:48.985.03-May-2020 4553.48 4124.32 81.98 2.00 128.56 2472.52
   15:03:49.185.03-May-2020 4553.48 4124.24 81.98 2.00 128.76 2472.52
   15:03:49.384.03-May-2020 4553.48 4124.35 81.98 2.00 128.96 2472.52
   15:03:49.584.03-May-2020 4553.48 4124.35 81.98 2.00 129.16 2472.52
   15:03:49.784.03-May-2020 4553.48 4124.30 81.98 2.00 129.36 2472.52
   15:03:49.984.03-May-2020 4553.48 4124.23 81.98 2.00 129.56 2472.52
   15:03:50.184.03-May-2020 4553.48 4124.24 81.98 2.00 129.76 2472.52
   15:03:50.384.03-May-2020 4553.48 4124.19 81.98 2.00 129.96 2472.52
   15:03:50.584.03-May-2020 4553.48 4124.19 81.98 2.00 130.16 2472.52
   15:03:50.784.03-May-2020 4553.48 4124.19 81.97 2.00 130.36 2472.52
   15:03:50.984.03-May-2020 4553.48 4124.70 81.97 2.00 130.56 2472.52
   15:03:51.184.03-May-2020 4553.48 4124.13 81.97 2.00 130.76 2472.52
   15:03:51.384.03-May-2020 4553.48 4124.38 81.97 2.00 130.96 2472.52
   15:03:51.584.03-May-2020 4553.48 4124.38 81.97 2.00 131.16 2472.52
   15:03:51.784.03-May-2020 4553.48 4124.31 81.97 2.00 131.36 2472.52
   15:03:51.984.03-May-2020 4553.48 4124.42 81.97 2.00 131.56 2472.52
   15:03:52.184.03-May-2020 4553.48 4124.14 81.97 2.00 131.76 2472.52
   15:03:52.383.03-May-2020 4553.48 4124.43 81.97 2.00 131.96 2472.52
   15:03:52.583.03-May-2020 4553.48 4124.43 81.97 2.00 132.16 2472.52
   15:03:52.783.03-May-2020 4553.48 4124.56 81.97 2.00 132.36 2472.52
   15:03:52.983.03-May-2020 4553.48 4124.08 81.96 2.00 132.56 2472.52
   15:03:53.183.03-May-2020 4553.48 4124.06 81.96 2.00 132.76 2472.52
   15:03:53.383.03-May-2020 4553.48 4124.15 81.96 2.00 132.96 2472.52
   15:03:53.583.03-May-2020 4553.48 4124.15 81.96 2.00 133.16 2472.52
   15:03:53.783.03-May-2020 4553.48 4124.11 81.96 2.00 133.36 2472.52
   15:03:53.983.03-May-2020 4553.48 4124.33 81.96 2.00 133.56 2472.52
   15:03:54.183.03-May-2020 4553.48 4124.44 81.96 2.00 133.76 2472.52
   15:03:54.383.03-May-2020 4553.48 4124.09 81.96 2.00 133.96 2472.52
   15:03:54.583.03-May-2020 4553.48 4124.09 81.96 2.00 134.16 2472.52
   15:03:54.783.03-May-2020 4553.48 4124.32 81.96 2.00 134.36 2472.52
   15:03:54.983.03-May-2020 4553.48 4124.24 81.96 2.00 134.56 2472.52
   15:03:55.183.03-May-2020 4553.48 4124.27 81.96 2.00 134.76 2472.52
   15:03:55.383.03-May-2020 4553.48 4124.30 81.96 2.00 134.96 2472.52
   15:03:55.582.03-May-2020 4553.48 4124.30 81.96 2.00 135.16 2472.52
   15:03:55.782.03-May-2020 4553.48 4124.32 81.95 2.00 135.36 2472.52
   15:03:55.982.03-May-2020 4553.48 4124.47 81.95 2.00 135.56 2472.52
   15:03:56.182.03-May-2020 4553.48 4124.35 81.95 2.00 135.76 2472.52
   15:03:56.382.03-May-2020 4553.48 4124.51 81.95 2.00 135.96 2472.52
   15:03:56.582.03-May-2020 4553.48 4124.51 81.95 2.00 136.16 2472.52
   15:03:56.782.03-May-2020 4553.48 4124.61 81.95 2.00 136.36 2472.52
   15:03:56.982.03-May-2020 4553.48 4124.15 81.95 2.00 136.56 2472.52
   15:03:57.182.03-May-2020 4553.48 4124.22 81.95 2.00 136.76 2472.52
   15:03:57.382.03-May-2020 4553.48 4124.33 81.95 2.00 136.96 2472.52
   15:03:57.582.03-May-2020 4553.48 4124.33 81.95 2.00 137.16 2472.52
   15:03:57.782.03-May-2020 4553.48 4124.27 81.95 2.00 137.36 2472.52
   15:03:57.982.03-May-2020 4553.48 4124.19 81.94 2.00 137.56 2472.52
   15:03:58.182.03-May-2020 4553.48 4124.21 81.94 2.00 137.76 2472.52
