~Version Information
 VERS.                  2.0:   CWLS log ASCII Standard -VERSION 2.0
 WRAP.                   NO:   One line per depth step
~Well Information Block
#MNEM.UNIT     VALUE/NAME     DESCRIPTION
#---------     -----------    ---------------------------
 STRT.S             10:50:58 04-May-20: START TIME 10:50:58 04-May-20
 STOP.S             10:57:32 04-May-20: STOP TIME  10:57:32 04-May-20
 STEP.S                   0.00: STEP TIME
 NULL.                 -999.25: NULL VALUE
 DFWT.                        :  DIST FWL TEXT
 DFST.                        :  DIST FSL TEXT
 DMF .             Drill Floor:  DRILL MEAS FROM
 STIM.      03.00.00 25-Mar-20:  START TIME
 DATE.      00.00.00 19-May-20:  END TIME
 SPUD.               27-Aug-20:  SPUD DATE
 NREF.                    Grid:  NORTH REFERENCE
 HPTY.       Minimum Curvature:  HOLE POS TYPE
 DMOD.             Drill Model:  DRILL MOD DESC
 SVYD.                  Survey:  SURVEY DESC
 ILTD.               Lithology:  INTERP LTH DESC
 FTOP.          Formation Tops:  FORM TOPS DESC
 SON .        AZ-XX-0906252240:  JOB NUMBER
 RIG .             West Chirag:  RIG NAME
 PDAT.          Mean Sea Level:  PERMANENT DATUM
 FLD .                     ACG:  FIELD NAME
 CTRY.              Azerbaijan:  COUNTRY NAME
 WELL.                     J23:  WELL NAME
 SRVC.          Turan Drilling:  CONTRACTOR
 COMP.     BP Exploration (Caspian Sea) Ltd.:  COMPANY
 WTYP.                Deviated:  WELL TYPE
 MDS .        Operator Entered:  MAG DATA SOURCE
 UWI .                     N/A:  UNIQUE WELL IDENTIFIER
 API .                     N/A:  API NUMBER
 BASE.              Azerbaijan:  LOGGING EQUIPMENT BASE LOCATION
 REGN.                   EESSA:  REGION
 PROV.                    Baku:  PROVINCE
 STAT.                    Baku:  STATE NAME
 MWDS.                     N/A:  MWD SHOP
 JOBN.        AZ-XX-0906252240:  JOB TICKET NUMB
 DOE .                     N/A:  DOE NUMBER
 DCON.         Sperry Drilling:  DIRECTNL CONTR
 UNIT.                     N/A:  LOGGING EQUIPMENT ID
 CNTY.                        :  COUNTY
 LOC .                        :  LOCATION
 LMF .             Drill Floor:  LOG MEASURED FROM
 TVDS.m                  43.00:  TVDSS CORRECTN
 LATI.deg                40.13:  LATITUDE
 LONG.deg                51.22:  LONGITUDE
 WHNS.m                   9.43:  WELL HEAD N/S
 WHEW.m                  -8.91:  WELL HEAD E/W
 UTMX.m              519005.06:  UTM X
 UTMY.m             4443793.85:  UTM Y
 DFWL.m                   0.00:  DISTANCE FWL
 DFSL.m                   0.00:  DISTANCE FSL
 SDEP.m                 363.00:  START DEPTH
 TDD .m                5150.01:  TOTAL DEPTH (DRILLER)
 VSDR.deg               179.88:  VERT SEC DIRECT
 GVFD.g                   1.00:  GRAVITY FIELD
 MFLD.nT              50295.00:  MAGNETIC FIELD
 MDIP.deg                59.56:  MAGNETIC DIP
 MDEC.deg                 6.45:  MAGNETIC DECL
 GRDC.deg                 0.14:  GRID CORRECTION
 AZTC.deg                 6.31:  AZM TOTAL CORR
 EPD .m                   0.00:  ELEVATION
 EGL .m                   0.00:  GROUND ELEVATION
 WDMS.m                 169.80:  WD ELEV
 APD .m                  43.00:  DEPTH ABOVE PD
 DEP .m                 354.17:  DEPTH
 AGAP.m                  43.00:  AIR GAP
 VSEW.m                  -8.91:  VERT SEC E/W
 VSNS.m                   9.43:  VERT SEC N/S
 EKB .m                   0.00:  KB ELEVATION
 EDF .m                  43.00:  DF ELEVATION
 TDL .m                1351.00:  TOTAL DEPTH (LOGGER)
 VSC .                       0:  VS TO CLOSURE
 MAGU.                 1850802:  MAGUTM CHECKSUM
~Parameter Information Block
#MNEM.UNIT       Value        Description
#---------     -----------    ---------------------------
 AV  .mps                 1.00:  Ann Velocity 
 AVMX.mps                 2.40:  Max Ann Veloc 
 AZIF.deg               148.96:  Azm, Final 
 BHAT.        Rotary Steerable:  BHA Type 
 BROT.°/30m               0.04:  Build Rotating 
 BS  .in                 12.25:  Bit Size 
 BSZ .in                 12.25:  Bit Size 
 BTPL.psig              814.00:  Bit Press Loss 
 TCS .hr                106.00:  Time Ciculation Ended 
 CV  .mps                 2.47:  Crit Velocity 
 CVMX.mps                 2.64:  Max Crit Veloc 
 DD1 .          Rashad Habibov:  Direct Drillr 1 
 DD2 .         Rasim Ibrahimov:  Direct Drillr 2 
 DDSV.                 iCruise:  DD Service 
 DEFF.%                 100.00:  % Det Eff 
 DLRX.°/30m               0.70:  Dogleg Rot Max 
 DLSO.°/30m               3.00:  Dogleg Oriented 
 DLSX.°/30m               4.55:  Dogleg Str Max 
 DRET.      08.08.32 02-May-20:  Drill End Time 
 DRST.      08.08.32 28-Apr-20:  Drill Start Tim 
 DTIM.hr                 60.00:  Time Drilling 
 EDEP.m                4761.01:  End Depth 
 ENG1.           Eldar Hajiyev:  Engineer 1 
 ENG2.        Marcelo Sandoval:  Engineer 2 
 ETIM.      23.23.07 05-May-20:  End Time 
 FLOI.gpm              1200.00:  Flow In 
 FLON.gpm               900.00:  Flow In Min 
 FLOS.cptm                0.00:  Fluid Loss 
 FLOX.gpm              1200.00:  Flow In Max 
 HFLO.                      No:  High Flow 
 HPRE.                      No:  High Pressure 
 HTEM.                      No:  High Temp 
 HYDO.m                   1.80:  Hydro Offset 
 IFIN.deg                68.17:  Inc, Final 
 IMAX.deg                74.61:  Inc Max 
 IMIN.deg                68.15:  Inc Min 
 IMND.m                4317.87:  Inc Min Depth 
 IMXD.m                4714.01:  Inc Max Depth 
 LETM.      08.08.32 02-May-20:  Log End Time 
 LOST.hr                     2:  Lost Rig Time 
 LSTM.      08.08.32 28-Apr-20:  Log Start Time 
 MDCL.ppm             41000.00:  Mud Chlorides 
 MDES.     Inversion Oil/Synthetic:  Mud Desc 
 DFD .sg                  1.58:  Mud Density 
 MDMN.sg                  1.58:  Dens Mud Min 
 MDMX.sg                  1.58:  Dens Mud Max 
 MOIL.                      71:  Run Mud Oil % 
 MOWR.                   71:29:  Run Mud OWR 
 MSND.                     0.1:  Run Mud Sand % 
 MSOL.                      23:  Run Mud Solids% 
 DFV .spqt               82.00:  Mud Viscosity 
 MWOD.in                  8.00:  MWD Tool OD 
 MWSI.                     Yes:  Serv Intrp, MWD 
 OTIM.hr                125.00:  Time Operating 
 PMAX.psia             6129.00:  Press Op, Max 
 PV  .cP                 32.00:  Mud PV 
 RUN .                     800:  Run Number 
 ROPA.m/hr               30.00:  ROP Avg 
 ROPN.m/hr               10.00:  ROP Min 
 ROPX.m/hr               40.00:  ROP Max 
 RPMA.rpm               140.00:  RPM Surface Avg 
 RPMN.rpm                80.00:  RPM Surface Min 
 RPMX.rpm               140.00:  RPM Surface Max 
 RRUN.                    L503:  Rig Run Number 
 RTIM.hr                  2.00:  Time Reaming 
 SAZI.deg               184.23:  Azm, Start 
 SDEP.m                3410.01:  Start Depth 
 SIDD.                      No:  Serv Intrp, DD 
 SINC.deg                68.29:  Inc, Start 
 SPPA.psig             6000.00:  SPP Avg 
 SPPN.psig             4000.00:  SPP Min 
 SPPX.psig             6100.00:  SPP Max 
 STIM.      08.08.32 28-Apr-20:  Start Time 
 SVCS.                 DD, MWD:  Services 
 SVER.                    9.20:  Sperry Version 
 TDAT.m                1351.00:  Tot Depth Attmp 
 TDDF.                      No:  Trip for DD 
 TDLG.m                1351.00:  Tot Depth Loggd 
 TFF .                      No:  Trip for Fail 
 TQAA.f-kp               27.00:  Torque Abs Avg 
 TQAN.f-kp               20.00:  Torque Abs Min 
 TQAX.f-kp               30.00:  Torque Abs Max 
 TRRT.°/30m               0.60:  Turn Rotating 
 MRT .                    EWER:  Maximum Recorded Temperature 
 TTMX.degC               83.00:  Max Tool Temp 
 VS01.                90511138:  Virtual Str1 SN 
 VS02.                90524876:  Virtual Str2 SN 
 VS03.                90524872:  Virtual Str3 SN 
 VS04.                90502750:  Virtual Str4 SN 
 VS05.                12330984:  Virtual Str5 SN 
 WBMN.klb                 0.00:  WOB Min 
 WOBA.klb                15.00:  WOB Avg 
 WOBX.klb                20.00:  WOB Max 
 YP  .lhf2               31.00:  Yield Point 
~Curve Information Block
#MNEM.UNIT                 API CODE     Curve Description
#---------               -----------    ---------------------------
 TIME.HHMMSS            00 000 000 000:  GT Time & Date
 GTDEPTH.m              00 000 000 000:  GT Depth
 GTPQH.psia             00 000 000 000:  GT HR Quartz Pressure
 GTTQ.degC              00 000 000 000:  GT Quartz Temperature
 GTTN.NONE              00 000 000 000:  GT Test Number
 GTET.sec               00 000 000 000:  GT Elapsed Test Time
 GTTVD.m                00 000 000 000:  GT True Vertical Depth
#Other Information
#
#WARRANTY: Halliburton will use its best efforts to furnish customers with 
#accurate information and interpretations that are part of, and incident to, the services 
#provided.  However, Halliburton cannot and does not warrant the accuracy 
#or correctness of such information and interpretations.  Under no circumstances should any 
#such information or interpretation be relied upon as the sole basis for any drilling, 
#completion, production, or financial decision or any procedure involving any risk to the 
#safety of any drilling venture, drilling rig or its crew or any other third party.  The 
#Customer has full responsibility for all drilling, completion and production operation.  
#Halliburton makes no representations or warranties, either expressed or 
#implied, including, but not limited to, the implied warranties of merchantability or fitness 
#for a particular purpose, with respect to the services rendered.  In no event will 
#Halliburton be liable for failure to obtain any particular results or for 
#any damages, including, but not limited to, indirect, special or consequential damages, 
#resulting from the use of any information or interpretation provided by Halliburton.
#
~A           TIME           GTDEPTH  GTPQH  GTTQ  GTTN  GTET   GTTVD  
# ...
   10:51:44.254.04-May-2020 4718.46 5922.74 82.21 6.00  46.01 2519.85
   10:51:44.454.04-May-2020 4718.46 5922.74 82.21 6.00  46.21 2519.85
   10:51:44.654.04-May-2020 4718.46 5921.00 82.20 6.00  46.41 2519.85
   10:51:44.854.04-May-2020 4718.46 4795.56 82.20 6.00  46.61 2519.85
   10:51:45.054.04-May-2020 4718.46 3414.92 82.20 6.00  46.81 2519.85
   10:51:45.254.04-May-2020 4718.46 3167.70 82.20 6.00  47.01 2519.85
   10:51:45.454.04-May-2020 4718.46 3167.70 82.20 6.00  47.21 2519.85
   10:51:45.654.04-May-2020 4718.46 2728.51 82.20 6.00  47.41 2519.85
   10:51:45.855.04-May-2020 4718.46 2537.34 82.20 6.00  47.61 2519.85
   10:51:46.055.04-May-2020 4718.46 2367.41 82.20 6.00  47.81 2519.85
   10:51:46.255.04-May-2020 4718.46 2239.09 82.19 6.00  48.01 2519.85
   10:51:46.455.04-May-2020 4718.46 2239.09 82.19 6.00  48.21 2519.85
   10:51:46.655.04-May-2020 4718.46 2115.43 82.19 6.00  48.41 2519.85
   10:51:46.855.04-May-2020 4718.46 2073.79 82.18 6.00  48.61 2519.85
   10:51:47.055.04-May-2020 4718.46 2046.58 82.18 6.00  48.81 2519.85
   10:51:47.255.04-May-2020 4718.46 2008.59 82.18 6.00  49.01 2519.85
   10:51:47.455.04-May-2020 4718.46 2008.59 82.18 6.00  49.21 2519.85
   10:51:47.655.04-May-2020 4718.46 2067.72 82.17 6.00  49.41 2519.85
   10:51:47.855.04-May-2020 4718.46 2117.96 82.17 6.00  49.61 2519.85
   10:51:48.055.04-May-2020 4718.46 2165.65 82.16 6.00  49.81 2519.85
   10:51:48.255.04-May-2020 4718.46 2187.78 82.16 6.00  50.01 2519.85
   10:51:48.455.04-May-2020 4718.46 2187.78 82.16 6.00  50.21 2519.85
   10:51:48.655.04-May-2020 4718.46 2243.00 82.15 6.00  50.41 2519.85
   10:51:48.855.04-May-2020 4718.46 2270.39 82.15 6.00  50.61 2519.85
   10:51:49.055.04-May-2020 4718.46 2279.31 82.15 6.00  50.81 2519.85
   10:51:49.255.04-May-2020 4718.46 2270.91 82.14 6.00  51.01 2519.85
   10:51:49.455.04-May-2020 4718.46 2270.91 82.14 6.00  51.21 2519.85
   10:51:49.655.04-May-2020 4718.46 2247.23 82.14 6.00  51.41 2519.85
   10:51:49.855.04-May-2020 4718.46 2234.05 82.13 6.00  51.61 2519.85
   10:51:50.055.04-May-2020 4718.46 2217.42 82.13 6.00  51.81 2519.85
   10:51:50.255.04-May-2020 4718.46 2207.44 82.13 6.00  52.01 2519.85
   10:51:50.455.04-May-2020 4718.46 2207.44 82.13 6.00  52.21 2519.85
   10:51:50.655.04-May-2020 4718.46 2191.65 82.12 6.00  52.41 2519.85
   10:51:50.855.04-May-2020 4718.46 2181.28 82.12 6.00  52.61 2519.85
   10:51:51.055.04-May-2020 4718.46 2169.17 82.11 6.00  52.81 2519.85
   10:51:51.255.04-May-2020 4718.46 2163.01 82.11 6.00  53.01 2519.85
   10:51:51.455.04-May-2020 4718.46 2163.01 82.11 6.00  53.21 2519.85
   10:51:51.655.04-May-2020 4718.46 2225.72 82.10 6.00  53.41 2519.85
   10:51:51.855.04-May-2020 4718.46 2288.77 82.10 6.00  53.61 2519.85
   10:51:52.055.04-May-2020 4718.46 2271.35 82.10 6.00  53.81 2519.85
   10:51:52.256.04-May-2020 4718.46 2250.32 82.10 6.00  54.01 2519.85
   10:51:52.456.04-May-2020 4718.46 2250.32 82.10 6.00  54.21 2519.85
   10:51:52.656.04-May-2020 4718.46 2209.30 82.09 6.00  54.41 2519.85
   10:51:52.856.04-May-2020 4718.46 2190.77 82.09 6.00  54.61 2519.85
   10:51:53.056.04-May-2020 4718.46 2179.86 82.09 6.00  54.81 2519.85
   10:51:53.256.04-May-2020 4718.46 2204.64 82.09 6.00  55.01 2519.85
   10:51:53.456.04-May-2020 4718.46 2204.64 82.09 6.00  55.21 2519.85
   10:51:53.656.04-May-2020 4718.46 2226.70 82.08 6.00  55.41 2519.85
   10:51:53.856.04-May-2020 4718.46 2243.63 82.08 6.00  55.61 2519.85
   10:51:54.056.04-May-2020 4718.46 2241.39 82.08 6.00  55.81 2519.85
   10:51:54.256.04-May-2020 4718.46 2230.26 82.08 6.00  56.01 2519.85
   10:51:54.456.04-May-2020 4718.46 2230.26 82.08 6.00  56.21 2519.85
   10:51:54.656.04-May-2020 4718.46 2218.27 82.07 6.00  56.41 2519.85
   10:51:54.856.04-May-2020 4718.46 2211.89 82.07 6.00  56.61 2519.85
   10:51:55.056.04-May-2020 4718.46 2209.28 82.07 6.00  56.81 2519.85
   10:51:55.256.04-May-2020 4718.46 2205.72 82.07 6.00  57.01 2519.85
   10:51:55.456.04-May-2020 4718.46 2205.72 82.07 6.00  57.21 2519.85
   10:51:55.656.04-May-2020 4718.46 2503.49 82.07 6.00  57.41 2519.85
   10:51:55.856.04-May-2020 4718.46 2803.00 82.07 6.00  57.61 2519.85
   10:51:56.056.04-May-2020 4718.46 3040.98 82.06 6.00  57.81 2519.85
   10:51:56.256.04-May-2020 4718.46 3233.48 82.06 6.00  58.01 2519.85
   10:51:56.456.04-May-2020 4718.46 3233.48 82.06 6.00  58.21 2519.85
   10:51:56.656.04-May-2020 4718.46 3521.96 82.06 6.00  58.41 2519.85
   10:51:56.856.04-May-2020 4718.46 3628.98 82.06 6.00  58.61 2519.85
   10:51:57.056.04-May-2020 4718.46 3716.86 82.06 6.00  58.81 2519.85
   10:51:57.256.04-May-2020 4718.46 3791.43 82.06 6.00  59.01 2519.85
   10:51:57.456.04-May-2020 4718.46 3791.43 82.06 6.00  59.21 2519.85
   10:51:57.656.04-May-2020 4718.46 3908.22 82.06 6.00  59.41 2519.85
   10:51:57.856.04-May-2020 4718.46 3953.49 82.06 6.00  59.61 2519.85
   10:51:58.056.04-May-2020 4718.46 3992.36 82.06 6.00  59.81 2519.85
   10:51:58.256.04-May-2020 4718.46 4025.23 82.06 6.00  60.01 2519.85
   10:51:58.456.04-May-2020 4718.46 4025.23 82.06 6.00  60.21 2519.85
   10:51:58.656.04-May-2020 4718.46 4076.81 82.06 6.00  60.41 2519.85
   10:51:58.857.04-May-2020 4718.46 4097.41 82.06 6.00  60.61 2519.85
   10:51:59.057.04-May-2020 4718.46 4115.34 82.06 6.00  60.81 2519.85
   10:51:59.257.04-May-2020 4718.46 4130.93 82.06 6.00  61.01 2519.85
   10:51:59.457.04-May-2020 4718.46 4130.93 82.06 6.00  61.21 2519.85
   10:51:59.657.04-May-2020 4718.46 4156.07 82.06 6.00  61.41 2519.85
   10:51:59.857.04-May-2020 4718.46 4161.78 82.06 6.00  61.61 2519.85
   10:52:00.057.04-May-2020 4718.46 4170.48 82.06 6.00  61.81 2519.85
   10:52:00.257.04-May-2020 4718.46 4179.15 82.07 6.00  62.01 2519.85
   10:52:00.457.04-May-2020 4718.46 4179.15 82.07 6.00  62.21 2519.85
   10:52:00.657.04-May-2020 4718.46 4194.21 82.07 6.00  62.41 2519.85
   10:52:00.857.04-May-2020 4718.46 4199.82 82.07 6.00  62.61 2519.85
   10:52:01.057.04-May-2020 4718.46 4205.14 82.07 6.00  62.81 2519.85
   10:52:01.257.04-May-2020 4718.46 4209.48 82.07 6.00  63.01 2519.85
   10:52:01.457.04-May-2020 4718.46 4209.48 82.07 6.00  63.21 2519.85
   10:52:01.657.04-May-2020 4718.46 4216.92 82.07 6.00  63.41 2519.85
   10:52:01.857.04-May-2020 4718.46 4219.95 82.07 6.00  63.61 2519.85
   10:52:02.057.04-May-2020 4718.46 4222.68 82.07 6.00  63.81 2519.85
   10:52:02.257.04-May-2020 4718.46 4222.44 82.07 6.00  64.01 2519.85
   10:52:02.457.04-May-2020 4718.46 4223.22 82.07 6.00  64.21 2519.85
   10:52:02.657.04-May-2020 4718.46 4225.66 82.07 6.00  64.41 2519.85
   10:52:02.857.04-May-2020 4718.46 4227.44 82.07 6.00  64.61 2519.85
   10:52:03.057.04-May-2020 4718.46 4229.29 82.08 6.00  64.81 2519.85
   10:52:03.257.04-May-2020 4718.46 4231.05 82.08 6.00  65.01 2519.85
   10:52:03.457.04-May-2020 4718.46 4231.05 82.08 6.00  65.21 2519.85
   10:52:03.657.04-May-2020 4718.46 4234.20 82.08 6.00  65.41 2519.85
   10:52:03.857.04-May-2020 4718.46 4235.55 82.08 6.00  65.61 2519.85
   10:52:04.057.04-May-2020 4718.46 4236.28 82.08 6.00  65.81 2519.85
   10:52:04.257.04-May-2020 4718.46 4237.49 82.08 6.00  66.01 2519.85
   10:52:04.457.04-May-2020 4718.46 4239.47 82.08 6.00  66.21 2519.85
   10:52:04.657.04-May-2020 4718.46 4237.55 82.08 6.00  66.41 2519.85
   10:52:04.857.04-May-2020 4718.46 4238.98 82.08 6.00  66.61 2519.85
   10:52:05.057.04-May-2020 4718.46 4239.84 82.08 6.00  66.81 2519.85
   10:52:05.258.04-May-2020 4718.46 4241.54 82.08 6.00  67.01 2519.85
   10:52:05.458.04-May-2020 4718.46 4241.53 82.08 6.00  67.21 2519.85
   10:52:05.658.04-May-2020 4718.46 4242.41 82.08 6.00  67.41 2519.85
   10:52:05.858.04-May-2020 4718.46 4243.15 82.08 6.00  67.61 2519.85
   10:52:06.058.04-May-2020 4718.46 4243.91 82.08 6.00  67.81 2519.85
   10:52:06.258.04-May-2020 4718.46 4244.49 82.08 6.00  68.01 2519.85
   10:52:06.458.04-May-2020 4718.46 4244.49 82.08 6.00  68.21 2519.85
   10:52:06.658.04-May-2020 4718.46 4245.24 82.08 6.00  68.41 2519.85
   10:52:06.858.04-May-2020 4718.46 4245.73 82.08 6.00  68.61 2519.85
   10:52:07.058.04-May-2020 4718.46 4246.02 82.08 6.00  68.81 2519.85
