~Version Information
 VERS.                  2.0:   CWLS log ASCII Standard -VERSION 2.0
 WRAP.                   NO:   One line per depth step
~Well Information Block
#MNEM.UNIT     VALUE/NAME     DESCRIPTION
#---------     -----------    ---------------------------
 STRT.S             13:13:41 03-May-20: START TIME 13:13:41 03-May-20
 STOP.S             13:20:16 03-May-20: STOP TIME  13:20:16 03-May-20
 STEP.S                   0.00: STEP TIME
 NULL.                 -999.25: NULL VALUE
 DFWT.                        :  DIST FWL TEXT
 DFST.                        :  DIST FSL TEXT
 DMF .             Drill Floor:  DRILL MEAS FROM
 STIM.      03.00.00 25-Mar-20:  START TIME
 DATE.      00.00.00 19-May-20:  END TIME
 SPUD.               27-Aug-20:  SPUD DATE
 NREF.                    Grid:  NORTH REFERENCE
 HPTY.       Minimum Curvature:  HOLE POS TYPE
 DMOD.             Drill Model:  DRILL MOD DESC
 SVYD.                  Survey:  SURVEY DESC
 ILTD.               Lithology:  INTERP LTH DESC
 FTOP.          Formation Tops:  FORM TOPS DESC
 SON .        AZ-XX-0906252240:  JOB NUMBER
 RIG .             West Chirag:  RIG NAME
 PDAT.          Mean Sea Level:  PERMANENT DATUM
 FLD .                     ACG:  FIELD NAME
 CTRY.              Azerbaijan:  COUNTRY NAME
 WELL.                     J23:  WELL NAME
 SRVC.          Turan Drilling:  CONTRACTOR
 COMP.     BP Exploration (Caspian Sea) Ltd.:  COMPANY
 WTYP.                Deviated:  WELL TYPE
 MDS .        Operator Entered:  MAG DATA SOURCE
 UWI .                     N/A:  UNIQUE WELL IDENTIFIER
 API .                     N/A:  API NUMBER
 BASE.              Azerbaijan:  LOGGING EQUIPMENT BASE LOCATION
 REGN.                   EESSA:  REGION
 PROV.                    Baku:  PROVINCE
 STAT.                    Baku:  STATE NAME
 MWDS.                     N/A:  MWD SHOP
 JOBN.        AZ-XX-0906252240:  JOB TICKET NUMB
 DOE .                     N/A:  DOE NUMBER
 DCON.         Sperry Drilling:  DIRECTNL CONTR
 UNIT.                     N/A:  LOGGING EQUIPMENT ID
 CNTY.                        :  COUNTY
 LOC .                        :  LOCATION
 LMF .             Drill Floor:  LOG MEASURED FROM
 TVDS.m                  43.00:  TVDSS CORRECTN
 LATI.deg                40.13:  LATITUDE
 LONG.deg                51.22:  LONGITUDE
 WHNS.m                   9.43:  WELL HEAD N/S
 WHEW.m                  -8.91:  WELL HEAD E/W
 UTMX.m              519005.06:  UTM X
 UTMY.m             4443793.85:  UTM Y
 DFWL.m                   0.00:  DISTANCE FWL
 DFSL.m                   0.00:  DISTANCE FSL
 SDEP.m                 363.00:  START DEPTH
 TDD .m                5150.01:  TOTAL DEPTH (DRILLER)
 VSDR.deg               179.88:  VERT SEC DIRECT
 GVFD.g                   1.00:  GRAVITY FIELD
 MFLD.nT              50295.00:  MAGNETIC FIELD
 MDIP.deg                59.56:  MAGNETIC DIP
 MDEC.deg                 6.45:  MAGNETIC DECL
 GRDC.deg                 0.14:  GRID CORRECTION
 AZTC.deg                 6.31:  AZM TOTAL CORR
 EPD .m                   0.00:  ELEVATION
 EGL .m                   0.00:  GROUND ELEVATION
 WDMS.m                 169.80:  WD ELEV
 APD .m                  43.00:  DEPTH ABOVE PD
 DEP .m                 354.17:  DEPTH
 AGAP.m                  43.00:  AIR GAP
 VSEW.m                  -8.91:  VERT SEC E/W
 VSNS.m                   9.43:  VERT SEC N/S
 EKB .m                   0.00:  KB ELEVATION
 EDF .m                  43.00:  DF ELEVATION
 TDL .m                1351.00:  TOTAL DEPTH (LOGGER)
 VSC .                       0:  VS TO CLOSURE
 MAGU.                 1850802:  MAGUTM CHECKSUM
~Parameter Information Block
#MNEM.UNIT       Value        Description
#---------     -----------    ---------------------------
 AV  .mps                 1.00:  Ann Velocity 
 AVMX.mps                 2.40:  Max Ann Veloc 
 AZIF.deg               148.96:  Azm, Final 
 BHAT.        Rotary Steerable:  BHA Type 
 BROT.°/30m               0.04:  Build Rotating 
 BS  .in                 12.25:  Bit Size 
 BSZ .in                 12.25:  Bit Size 
 BTPL.psig              814.00:  Bit Press Loss 
 TCS .hr                106.00:  Time Ciculation Ended 
 CV  .mps                 2.47:  Crit Velocity 
 CVMX.mps                 2.64:  Max Crit Veloc 
 DD1 .          Rashad Habibov:  Direct Drillr 1 
 DD2 .         Rasim Ibrahimov:  Direct Drillr 2 
 DDSV.                 iCruise:  DD Service 
 DEFF.%                 100.00:  % Det Eff 
 DLRX.°/30m               0.70:  Dogleg Rot Max 
 DLSO.°/30m               3.00:  Dogleg Oriented 
 DLSX.°/30m               4.55:  Dogleg Str Max 
 DRET.      08.08.32 02-May-20:  Drill End Time 
 DRST.      08.08.32 28-Apr-20:  Drill Start Tim 
 DTIM.hr                 60.00:  Time Drilling 
 EDEP.m                4761.01:  End Depth 
 ENG1.           Eldar Hajiyev:  Engineer 1 
 ENG2.        Marcelo Sandoval:  Engineer 2 
 ETIM.      23.23.07 05-May-20:  End Time 
 FLOI.gpm              1200.00:  Flow In 
 FLON.gpm               900.00:  Flow In Min 
 FLOS.cptm                0.00:  Fluid Loss 
 FLOX.gpm              1200.00:  Flow In Max 
 HFLO.                      No:  High Flow 
 HPRE.                      No:  High Pressure 
 HTEM.                      No:  High Temp 
 HYDO.m                   1.80:  Hydro Offset 
 IFIN.deg                68.17:  Inc, Final 
 IMAX.deg                74.61:  Inc Max 
 IMIN.deg                68.15:  Inc Min 
 IMND.m                4317.87:  Inc Min Depth 
 IMXD.m                4714.01:  Inc Max Depth 
 LETM.      08.08.32 02-May-20:  Log End Time 
 LOST.hr                     2:  Lost Rig Time 
 LSTM.      08.08.32 28-Apr-20:  Log Start Time 
 MDCL.ppm             41000.00:  Mud Chlorides 
 MDES.     Inversion Oil/Synthetic:  Mud Desc 
 DFD .sg                  1.58:  Mud Density 
 MDMN.sg                  1.58:  Dens Mud Min 
 MDMX.sg                  1.58:  Dens Mud Max 
 MOIL.                      71:  Run Mud Oil % 
 MOWR.                   71:29:  Run Mud OWR 
 MSND.                     0.1:  Run Mud Sand % 
 MSOL.                      23:  Run Mud Solids% 
 DFV .spqt               82.00:  Mud Viscosity 
 MWOD.in                  8.00:  MWD Tool OD 
 MWSI.                     Yes:  Serv Intrp, MWD 
 OTIM.hr                125.00:  Time Operating 
 PMAX.psia             6129.00:  Press Op, Max 
 PV  .cP                 32.00:  Mud PV 
 RUN .                     800:  Run Number 
 ROPA.m/hr               30.00:  ROP Avg 
 ROPN.m/hr               10.00:  ROP Min 
 ROPX.m/hr               40.00:  ROP Max 
 RPMA.rpm               140.00:  RPM Surface Avg 
 RPMN.rpm                80.00:  RPM Surface Min 
 RPMX.rpm               140.00:  RPM Surface Max 
 RRUN.                    L503:  Rig Run Number 
 RTIM.hr                  2.00:  Time Reaming 
 SAZI.deg               184.23:  Azm, Start 
 SDEP.m                3410.01:  Start Depth 
 SIDD.                      No:  Serv Intrp, DD 
 SINC.deg                68.29:  Inc, Start 
 SPPA.psig             6000.00:  SPP Avg 
 SPPN.psig             4000.00:  SPP Min 
 SPPX.psig             6100.00:  SPP Max 
 STIM.      08.08.32 28-Apr-20:  Start Time 
 SVCS.                 DD, MWD:  Services 
 SVER.                    9.20:  Sperry Version 
 TDAT.m                1351.00:  Tot Depth Attmp 
 TDDF.                      No:  Trip for DD 
 TDLG.m                1351.00:  Tot Depth Loggd 
 TFF .                      No:  Trip for Fail 
 TQAA.f-kp               27.00:  Torque Abs Avg 
 TQAN.f-kp               20.00:  Torque Abs Min 
 TQAX.f-kp               30.00:  Torque Abs Max 
 TRRT.°/30m               0.60:  Turn Rotating 
 MRT .                    EWER:  Maximum Recorded Temperature 
 TTMX.degC               83.00:  Max Tool Temp 
 VS01.                90511138:  Virtual Str1 SN 
 VS02.                90524876:  Virtual Str2 SN 
 VS03.                90524872:  Virtual Str3 SN 
 VS04.                90502750:  Virtual Str4 SN 
 VS05.                12330984:  Virtual Str5 SN 
 WBMN.klb                 0.00:  WOB Min 
 WOBA.klb                15.00:  WOB Avg 
 WOBX.klb                20.00:  WOB Max 
 YP  .lhf2               31.00:  Yield Point 
~Curve Information Block
#MNEM.UNIT                 API CODE     Curve Description
#---------               -----------    ---------------------------
 TIME.HHMMSS            00 000 000 000:  GT Time & Date
 GTDEPTH.m              00 000 000 000:  GT Depth
 GTPQH.psia             00 000 000 000:  GT HR Quartz Pressure
 GTTQ.degC              00 000 000 000:  GT Quartz Temperature
 GTTN.NONE              00 000 000 000:  GT Test Number
 GTET.sec               00 000 000 000:  GT Elapsed Test Time
 GTTVD.m                00 000 000 000:  GT True Vertical Depth
#Other Information
#
#WARRANTY: Halliburton will use its best efforts to furnish customers with 
#accurate information and interpretations that are part of, and incident to, the services 
#provided.  However, Halliburton cannot and does not warrant the accuracy 
#or correctness of such information and interpretations.  Under no circumstances should any 
#such information or interpretation be relied upon as the sole basis for any drilling, 
#completion, production, or financial decision or any procedure involving any risk to the 
#safety of any drilling venture, drilling rig or its crew or any other third party.  The 
#Customer has full responsibility for all drilling, completion and production operation.  
#Halliburton makes no representations or warranties, either expressed or 
#implied, including, but not limited to, the implied warranties of merchantability or fitness 
#for a particular purpose, with respect to the services rendered.  In no event will 
#Halliburton be liable for failure to obtain any particular results or for 
#any damages, including, but not limited to, indirect, special or consequential damages, 
#resulting from the use of any information or interpretation provided by Halliburton.
#
~A           TIME           GTDEPTH  GTPQH  GTTQ  GTTN  GTET   GTTVD  
# ...
   13:17:31.773.03-May-2020 4532.80 4122.81 80.16 1.00 230.36 2465.99
   13:17:31.973.03-May-2020 4532.80 4122.51 80.16 1.00 230.56 2465.99
   13:17:32.173.03-May-2020 4532.80 4122.42 80.16 1.00 230.76 2465.99
   13:17:32.374.03-May-2020 4532.80 4122.46 80.16 1.00 230.96 2465.99
   13:17:32.574.03-May-2020 4532.80 4122.55 80.15 1.00 231.16 2465.99
   13:17:32.774.03-May-2020 4532.80 4122.34 80.15 1.00 231.36 2465.99
   13:17:32.975.03-May-2020 4532.80 4122.34 80.15 1.00 231.56 2465.99
   13:17:33.175.03-May-2020 4532.80 4122.25 80.15 1.00 231.76 2465.99
   13:17:33.375.03-May-2020 4532.80 4122.29 80.15 1.00 231.96 2465.99
   13:17:33.576.03-May-2020 4532.80 4122.43 80.15 1.00 232.17 2465.99
   13:17:33.776.03-May-2020 4532.80 4122.63 80.15 1.00 232.37 2465.99
   13:17:33.976.03-May-2020 4532.80 4122.63 80.15 1.00 232.57 2465.99
   13:17:34.177.03-May-2020 4532.80 4122.86 80.15 1.00 232.77 2465.99
   13:17:34.377.03-May-2020 4532.80 4123.11 80.15 1.00 232.97 2465.99
   13:17:34.577.03-May-2020 4532.80 4122.84 80.15 1.00 233.17 2465.99
   13:17:34.777.03-May-2020 4532.80 4122.79 80.15 1.00 233.37 2465.99
   13:17:34.978.03-May-2020 4532.80 4122.79 80.15 1.00 233.57 2465.99
   13:17:35.178.03-May-2020 4532.80 4123.08 80.15 1.00 233.77 2465.99
   13:17:35.378.03-May-2020 4532.80 4122.54 80.15 1.00 233.97 2465.99
   13:17:35.579.03-May-2020 4532.80 4123.55 80.15 1.00 234.17 2465.99
   13:17:35.779.03-May-2020 4532.80 4123.18 80.15 1.00 234.37 2465.99
   13:17:35.979.03-May-2020 4532.80 4123.18 80.15 1.00 234.57 2465.99
   13:17:36.180.03-May-2020 4532.80 4122.15 80.15 1.00 234.77 2465.99
   13:17:36.380.03-May-2020 4532.80 4122.85 80.14 1.00 234.97 2465.99
   13:17:36.580.03-May-2020 4532.80 4122.77 80.14 1.00 235.17 2465.99
   13:17:36.781.03-May-2020 4532.80 4122.58 80.14 1.00 235.37 2465.99
   13:17:36.981.03-May-2020 4532.80 4122.58 80.14 1.00 235.57 2465.99
   13:17:37.181.03-May-2020 4532.80 4122.42 80.14 1.00 235.77 2465.99
   13:17:37.382.03-May-2020 4532.80 4122.54 80.14 1.00 235.97 2465.99
   13:17:37.582.03-May-2020 4532.80 4122.58 80.14 1.00 236.17 2465.99
   13:17:37.782.03-May-2020 4532.80 4122.37 80.14 1.00 236.37 2465.99
   13:17:37.982.03-May-2020 4532.80 4122.37 80.14 1.00 236.57 2465.99
   13:17:38.183.03-May-2020 4532.80 4122.41 80.14 1.00 236.77 2465.99
   13:17:38.383.03-May-2020 4532.80 4122.50 80.14 1.00 236.97 2465.99
   13:17:38.583.03-May-2020 4532.80 4122.46 80.14 1.00 237.17 2465.99
   13:17:38.784.03-May-2020 4532.80 4122.58 80.14 1.00 237.37 2465.99
   13:17:38.984.03-May-2020 4532.80 4122.58 80.14 1.00 237.57 2465.99
   13:17:39.184.03-May-2020 4532.80 4122.91 80.14 1.00 237.77 2465.99
   13:17:39.385.03-May-2020 4532.80 4122.84 80.14 1.00 237.97 2465.99
   13:17:39.585.03-May-2020 4532.80 4122.82 80.14 1.00 238.17 2465.99
   13:17:39.785.03-May-2020 4532.80 4122.48 80.14 1.00 238.37 2465.99
   13:17:39.986.03-May-2020 4532.80 4122.43 80.14 1.00 238.58 2465.99
   13:17:40.186.03-May-2020 4532.80 4122.53 80.14 1.00 238.78 2465.99
   13:17:40.386.03-May-2020 4532.80 4122.51 80.13 1.00 238.98 2465.99
   13:17:40.587.03-May-2020 4532.80 4122.41 80.13 1.00 239.18 2465.99
   13:17:40.787.03-May-2020 4532.80 4122.37 80.13 1.00 239.38 2465.99
   13:17:40.987.03-May-2020 4532.80 4122.37 80.13 1.00 239.58 2465.99
   13:17:41.188.03-May-2020 4532.80 4122.32 80.13 1.00 239.78 2465.99
   13:17:41.388.03-May-2020 4532.80 4122.41 80.13 1.00 239.98 2465.99
   13:17:41.588.03-May-2020 4532.80 4122.65 80.13 1.00 240.18 2465.99
   13:17:41.788.03-May-2020 4532.80 4122.75 80.13 1.00 240.38 2465.99
   13:17:41.989.03-May-2020 4532.80 4122.75 80.13 1.00 240.58 2465.99
   13:17:42.189.03-May-2020 4532.80 4122.90 80.13 1.00 240.78 2465.99
   13:17:42.389.03-May-2020 4532.80 4122.73 80.13 1.00 240.98 2465.99
   13:17:42.590.03-May-2020 4532.80 4122.63 80.13 1.00 241.18 2465.99
   13:17:42.790.03-May-2020 4532.80 4123.08 80.13 1.00 241.38 2465.99
   13:17:42.990.03-May-2020 4532.80 4123.08 80.13 1.00 241.58 2465.99
   13:17:43.191.03-May-2020 4532.80 4122.38 80.13 1.00 241.78 2465.99
   13:17:43.391.03-May-2020 4532.80 4123.28 80.13 1.00 241.98 2465.99
   13:17:43.591.03-May-2020 4532.80 4123.16 80.13 1.00 242.18 2465.99
   13:17:43.792.03-May-2020 4532.80 4122.63 80.13 1.00 242.38 2465.99
   13:17:43.992.03-May-2020 4532.80 4122.19 80.13 1.00 242.58 2465.99
   13:17:44.192.03-May-2020 4532.80 4122.79 80.13 1.00 242.78 2465.99
   13:17:44.393.03-May-2020 4532.80 4122.69 80.12 1.00 242.98 2465.99
   13:17:44.593.03-May-2020 4532.80 4122.62 80.12 1.00 243.18 2465.99
   13:17:44.793.03-May-2020 4532.80 4122.59 80.12 1.00 243.38 2465.99
   13:17:44.994.03-May-2020 4532.80 4122.59 80.12 1.00 243.58 2465.99
   13:17:45.194.03-May-2020 4532.80 4122.58 80.12 1.00 243.78 2465.99
   13:17:45.394.03-May-2020 4532.80 4122.58 80.12 1.00 243.98 2465.99
   13:17:45.594.03-May-2020 4532.80 4122.32 80.12 1.00 244.18 2465.99
   13:17:45.795.03-May-2020 4532.80 4122.42 80.12 1.00 244.38 2465.99
   13:17:45.995.03-May-2020 4532.80 4122.42 80.12 1.00 244.58 2465.99
   13:17:46.195.03-May-2020 4532.80 4122.48 80.12 1.00 244.78 2465.99
   13:17:46.396.03-May-2020 4532.80 4122.43 80.12 1.00 244.99 2465.99
   13:17:46.596.03-May-2020 4532.80 4122.66 80.12 1.00 245.19 2465.99
   13:17:46.796.03-May-2020 4532.80 4123.08 80.12 1.00 245.39 2465.99
   13:17:46.997.03-May-2020 4532.80 4123.08 80.12 1.00 245.59 2465.99
   13:17:47.197.03-May-2020 4532.80 4122.84 80.12 1.00 245.79 2465.99
   13:17:47.397.03-May-2020 4532.80 4122.83 80.12 1.00 245.99 2465.99
   13:17:47.598.03-May-2020 4532.80 4122.54 80.12 1.00 246.19 2465.99
   13:17:47.798.03-May-2020 4532.80 4122.48 80.12 1.00 246.39 2465.99
   13:17:47.998.03-May-2020 4532.80 4122.52 80.12 1.00 246.59 2465.99
   13:17:48.199.03-May-2020 4532.80 4122.61 80.11 1.00 246.79 2465.99
   13:17:48.399.03-May-2020 4532.80 4122.41 80.11 1.00 246.99 2465.99
   13:17:48.599.03-May-2020 4532.80 4122.41 80.11 1.00 247.19 2465.99
   13:17:48.800.03-May-2020 4532.80 4122.29 80.11 1.00 247.39 2465.99
   13:17:49.000.03-May-2020 4532.80 4122.29 80.11 1.00 247.59 2465.99
   13:17:49.200.03-May-2020 4532.80 4122.49 80.11 1.00 247.79 2465.99
   13:17:49.400.03-May-2020 4532.80 4122.71 80.11 1.00 247.99 2465.99
   13:17:49.601.03-May-2020 4532.80 4122.78 80.11 1.00 248.19 2465.99
   13:17:49.801.03-May-2020 4532.80 4122.80 80.11 1.00 248.39 2465.99
   13:17:50.001.03-May-2020 4532.80 4122.80 80.11 1.00 248.59 2465.99
   13:17:50.202.03-May-2020 4532.80 4122.71 80.11 1.00 248.79 2465.99
   13:17:50.402.03-May-2020 4532.80 4122.67 80.11 1.00 248.99 2465.99
   13:17:50.602.03-May-2020 4532.80 4123.05 80.11 1.00 249.19 2465.99
   13:17:50.803.03-May-2020 4532.80 4123.06 80.11 1.00 249.39 2465.99
   13:17:51.003.03-May-2020 4532.80 4123.06 80.11 1.00 249.59 2465.99
   13:17:51.203.03-May-2020 4532.80 4123.58 80.11 1.00 249.79 2465.99
   13:17:51.404.03-May-2020 4532.80 4123.34 80.11 1.00 249.99 2465.99
   13:17:51.604.03-May-2020 4532.80 4122.71 80.11 1.00 250.19 2465.99
   13:17:51.804.03-May-2020 4532.80 4122.22 80.11 1.00 250.39 2465.99
   13:17:52.005.03-May-2020 4532.80 4122.88 80.11 1.00 250.59 2465.99
   13:17:52.205.03-May-2020 4532.80 4122.74 80.10 1.00 250.79 2465.99
   13:17:52.405.03-May-2020 4532.80 4122.61 80.10 1.00 250.99 2465.99
   13:17:52.605.03-May-2020 4532.80 4122.62 80.10 1.00 251.19 2465.99
   13:17:52.806.03-May-2020 4532.80 4122.50 80.10 1.00 251.40 2465.99
   13:17:53.006.03-May-2020 4532.80 4122.50 80.10 1.00 251.60 2465.99
   13:17:53.206.03-May-2020 4532.80 4122.67 80.10 1.00 251.80 2465.99
   13:17:53.407.03-May-2020 4532.80 4122.38 80.10 1.00 252.00 2465.99
   13:17:53.607.03-May-2020 4532.80 4122.49 80.10 1.00 252.20 2465.99
   13:17:53.807.03-May-2020 4532.80 4122.54 80.10 1.00 252.40 2465.99
   13:17:54.008.03-May-2020 4532.80 4122.54 80.10 1.00 252.60 2465.99
   13:17:54.208.03-May-2020 4532.80 4122.53 80.10 1.00 252.80 2465.99
   13:17:54.408.03-May-2020 4532.80 4122.67 80.10 1.00 253.00 2465.99
   13:17:54.609.03-May-2020 4532.80 4123.01 80.10 1.00 253.20 2465.99
