~Version Information
 VERS.                  2.0:   CWLS log ASCII Standard -VERSION 2.0
 WRAP.                   NO:   One line per depth step
~Well Information Block
#MNEM.UNIT     VALUE/NAME     DESCRIPTION
#---------     -----------    ---------------------------
 STRT.S             00:33:44 04-May-20: START TIME 00:33:44 04-May-20
 STOP.S             00:40:14 04-May-20: STOP TIME  00:40:14 04-May-20
 STEP.S                   0.00: STEP TIME
 NULL.                 -999.25: NULL VALUE
 DFWT.                        :  DIST FWL TEXT
 DFST.                        :  DIST FSL TEXT
 DMF .             Drill Floor:  DRILL MEAS FROM
 STIM.      03.00.00 25-Mar-20:  START TIME
 DATE.      00.00.00 19-May-20:  END TIME
 SPUD.               27-Aug-20:  SPUD DATE
 NREF.                    Grid:  NORTH REFERENCE
 HPTY.       Minimum Curvature:  HOLE POS TYPE
 DMOD.             Drill Model:  DRILL MOD DESC
 SVYD.                  Survey:  SURVEY DESC
 ILTD.               Lithology:  INTERP LTH DESC
 FTOP.          Formation Tops:  FORM TOPS DESC
 SON .        AZ-XX-0906252240:  JOB NUMBER
 RIG .             West Chirag:  RIG NAME
 PDAT.          Mean Sea Level:  PERMANENT DATUM
 FLD .                     ACG:  FIELD NAME
 CTRY.              Azerbaijan:  COUNTRY NAME
 WELL.                     J23:  WELL NAME
 SRVC.          Turan Drilling:  CONTRACTOR
 COMP.     BP Exploration (Caspian Sea) Ltd.:  COMPANY
 WTYP.                Deviated:  WELL TYPE
 MDS .        Operator Entered:  MAG DATA SOURCE
 UWI .                     N/A:  UNIQUE WELL IDENTIFIER
 API .                     N/A:  API NUMBER
 BASE.              Azerbaijan:  LOGGING EQUIPMENT BASE LOCATION
 REGN.                   EESSA:  REGION
 PROV.                    Baku:  PROVINCE
 STAT.                    Baku:  STATE NAME
 MWDS.                     N/A:  MWD SHOP
 JOBN.        AZ-XX-0906252240:  JOB TICKET NUMB
 DOE .                     N/A:  DOE NUMBER
 DCON.         Sperry Drilling:  DIRECTNL CONTR
 UNIT.                     N/A:  LOGGING EQUIPMENT ID
 CNTY.                        :  COUNTY
 LOC .                        :  LOCATION
 LMF .             Drill Floor:  LOG MEASURED FROM
 TVDS.m                  43.00:  TVDSS CORRECTN
 LATI.deg                40.13:  LATITUDE
 LONG.deg                51.22:  LONGITUDE
 WHNS.m                   9.43:  WELL HEAD N/S
 WHEW.m                  -8.91:  WELL HEAD E/W
 UTMX.m              519005.06:  UTM X
 UTMY.m             4443793.85:  UTM Y
 DFWL.m                   0.00:  DISTANCE FWL
 DFSL.m                   0.00:  DISTANCE FSL
 SDEP.m                 363.00:  START DEPTH
 TDD .m                5150.01:  TOTAL DEPTH (DRILLER)
 VSDR.deg               179.88:  VERT SEC DIRECT
 GVFD.g                   1.00:  GRAVITY FIELD
 MFLD.nT              50295.00:  MAGNETIC FIELD
 MDIP.deg                59.56:  MAGNETIC DIP
 MDEC.deg                 6.45:  MAGNETIC DECL
 GRDC.deg                 0.14:  GRID CORRECTION
 AZTC.deg                 6.31:  AZM TOTAL CORR
 EPD .m                   0.00:  ELEVATION
 EGL .m                   0.00:  GROUND ELEVATION
 WDMS.m                 169.80:  WD ELEV
 APD .m                  43.00:  DEPTH ABOVE PD
 DEP .m                 354.17:  DEPTH
 AGAP.m                  43.00:  AIR GAP
 VSEW.m                  -8.91:  VERT SEC E/W
 VSNS.m                   9.43:  VERT SEC N/S
 EKB .m                   0.00:  KB ELEVATION
 EDF .m                  43.00:  DF ELEVATION
 TDL .m                1351.00:  TOTAL DEPTH (LOGGER)
 VSC .                       0:  VS TO CLOSURE
 MAGU.                 1850802:  MAGUTM CHECKSUM
~Parameter Information Block
#MNEM.UNIT       Value        Description
#---------     -----------    ---------------------------
 AV  .mps                 1.00:  Ann Velocity 
 AVMX.mps                 2.40:  Max Ann Veloc 
 AZIF.deg               148.96:  Azm, Final 
 BHAT.        Rotary Steerable:  BHA Type 
 BROT.°/30m               0.04:  Build Rotating 
 BS  .in                 12.25:  Bit Size 
 BSZ .in                 12.25:  Bit Size 
 BTPL.psig              814.00:  Bit Press Loss 
 TCS .hr                106.00:  Time Ciculation Ended 
 CV  .mps                 2.47:  Crit Velocity 
 CVMX.mps                 2.64:  Max Crit Veloc 
 DD1 .          Rashad Habibov:  Direct Drillr 1 
 DD2 .         Rasim Ibrahimov:  Direct Drillr 2 
 DDSV.                 iCruise:  DD Service 
 DEFF.%                 100.00:  % Det Eff 
 DLRX.°/30m               0.70:  Dogleg Rot Max 
 DLSO.°/30m               3.00:  Dogleg Oriented 
 DLSX.°/30m               4.55:  Dogleg Str Max 
 DRET.      08.08.32 02-May-20:  Drill End Time 
 DRST.      08.08.32 28-Apr-20:  Drill Start Tim 
 DTIM.hr                 60.00:  Time Drilling 
 EDEP.m                4761.01:  End Depth 
 ENG1.           Eldar Hajiyev:  Engineer 1 
 ENG2.        Marcelo Sandoval:  Engineer 2 
 ETIM.      23.23.07 05-May-20:  End Time 
 FLOI.gpm              1200.00:  Flow In 
 FLON.gpm               900.00:  Flow In Min 
 FLOS.cptm                0.00:  Fluid Loss 
 FLOX.gpm              1200.00:  Flow In Max 
 HFLO.                      No:  High Flow 
 HPRE.                      No:  High Pressure 
 HTEM.                      No:  High Temp 
 HYDO.m                   1.80:  Hydro Offset 
 IFIN.deg                68.17:  Inc, Final 
 IMAX.deg                74.61:  Inc Max 
 IMIN.deg                68.15:  Inc Min 
 IMND.m                4317.87:  Inc Min Depth 
 IMXD.m                4714.01:  Inc Max Depth 
 LETM.      08.08.32 02-May-20:  Log End Time 
 LOST.hr                     2:  Lost Rig Time 
 LSTM.      08.08.32 28-Apr-20:  Log Start Time 
 MDCL.ppm             41000.00:  Mud Chlorides 
 MDES.     Inversion Oil/Synthetic:  Mud Desc 
 DFD .sg                  1.58:  Mud Density 
 MDMN.sg                  1.58:  Dens Mud Min 
 MDMX.sg                  1.58:  Dens Mud Max 
 MOIL.                      71:  Run Mud Oil % 
 MOWR.                   71:29:  Run Mud OWR 
 MSND.                     0.1:  Run Mud Sand % 
 MSOL.                      23:  Run Mud Solids% 
 DFV .spqt               82.00:  Mud Viscosity 
 MWOD.in                  8.00:  MWD Tool OD 
 MWSI.                     Yes:  Serv Intrp, MWD 
 OTIM.hr                125.00:  Time Operating 
 PMAX.psia             6129.00:  Press Op, Max 
 PV  .cP                 32.00:  Mud PV 
 RUN .                     800:  Run Number 
 ROPA.m/hr               30.00:  ROP Avg 
 ROPN.m/hr               10.00:  ROP Min 
 ROPX.m/hr               40.00:  ROP Max 
 RPMA.rpm               140.00:  RPM Surface Avg 
 RPMN.rpm                80.00:  RPM Surface Min 
 RPMX.rpm               140.00:  RPM Surface Max 
 RRUN.                    L503:  Rig Run Number 
 RTIM.hr                  2.00:  Time Reaming 
 SAZI.deg               184.23:  Azm, Start 
 SDEP.m                3410.01:  Start Depth 
 SIDD.                      No:  Serv Intrp, DD 
 SINC.deg                68.29:  Inc, Start 
 SPPA.psig             6000.00:  SPP Avg 
 SPPN.psig             4000.00:  SPP Min 
 SPPX.psig             6100.00:  SPP Max 
 STIM.      08.08.32 28-Apr-20:  Start Time 
 SVCS.                 DD, MWD:  Services 
 SVER.                    9.20:  Sperry Version 
 TDAT.m                1351.00:  Tot Depth Attmp 
 TDDF.                      No:  Trip for DD 
 TDLG.m                1351.00:  Tot Depth Loggd 
 TFF .                      No:  Trip for Fail 
 TQAA.f-kp               27.00:  Torque Abs Avg 
 TQAN.f-kp               20.00:  Torque Abs Min 
 TQAX.f-kp               30.00:  Torque Abs Max 
 TRRT.°/30m               0.60:  Turn Rotating 
 MRT .                    EWER:  Maximum Recorded Temperature 
 TTMX.degC               83.00:  Max Tool Temp 
 VS01.                90511138:  Virtual Str1 SN 
 VS02.                90524876:  Virtual Str2 SN 
 VS03.                90524872:  Virtual Str3 SN 
 VS04.                90502750:  Virtual Str4 SN 
 VS05.                12330984:  Virtual Str5 SN 
 WBMN.klb                 0.00:  WOB Min 
 WOBA.klb                15.00:  WOB Avg 
 WOBX.klb                20.00:  WOB Max 
 YP  .lhf2               31.00:  Yield Point 
~Curve Information Block
#MNEM.UNIT                 API CODE     Curve Description
#---------               -----------    ---------------------------
 TIME.HHMMSS            00 000 000 000:  GT Time & Date
 GTDEPTH.m              00 000 000 000:  GT Depth
 GTPQH.psia             00 000 000 000:  GT HR Quartz Pressure
 GTTQ.degC              00 000 000 000:  GT Quartz Temperature
 GTTN.NONE              00 000 000 000:  GT Test Number
 GTET.sec               00 000 000 000:  GT Elapsed Test Time
 GTTVD.m                00 000 000 000:  GT True Vertical Depth
#Other Information
#
#WARRANTY: Halliburton will use its best efforts to furnish customers with 
#accurate information and interpretations that are part of, and incident to, the services 
#provided.  However, Halliburton cannot and does not warrant the accuracy 
#or correctness of such information and interpretations.  Under no circumstances should any 
#such information or interpretation be relied upon as the sole basis for any drilling, 
#completion, production, or financial decision or any procedure involving any risk to the 
#safety of any drilling venture, drilling rig or its crew or any other third party.  The 
#Customer has full responsibility for all drilling, completion and production operation.  
#Halliburton makes no representations or warranties, either expressed or 
#implied, including, but not limited to, the implied warranties of merchantability or fitness 
#for a particular purpose, with respect to the services rendered.  In no event will 
#Halliburton be liable for failure to obtain any particular results or for 
#any damages, including, but not limited to, indirect, special or consequential damages, 
#resulting from the use of any information or interpretation provided by Halliburton.
#
~A           TIME           GTDEPTH  GTPQH  GTTQ  GTTN  GTET   GTTVD  
# ...
   00:38:43.343.04-May-2020 4661.71   60.10 80.22 4.00 299.03 2504.33
   00:38:43.543.04-May-2020 4661.71   60.14 80.22 4.00 299.23 2504.33
   00:38:43.743.04-May-2020 4661.71   60.14 80.21 4.00 299.43 2504.33
   00:38:43.943.04-May-2020 4661.71   60.14 80.21 4.00 299.63 2504.33
   00:38:44.143.04-May-2020 4661.71   60.16 80.21 4.00 299.83 2504.33
   00:38:44.343.04-May-2020 4661.71   60.20 80.21 4.00 300.03 2504.33
   00:38:44.543.04-May-2020 4661.71   60.20 80.21 4.00 300.23 2504.33
   00:38:44.743.04-May-2020 4661.71   60.21 80.21 4.00 300.43 2504.33
   00:38:44.943.04-May-2020 4661.71   60.22 80.21 4.00 300.63 2504.33
   00:38:45.143.04-May-2020 4661.71   60.25 80.21 4.00 300.83 2504.33
   00:38:45.343.04-May-2020 4661.71   60.25 80.21 4.00 301.03 2504.33
   00:38:45.543.04-May-2020 4661.71   60.25 80.21 4.00 301.23 2504.33
   00:38:45.743.04-May-2020 4661.71   60.28 80.21 4.00 301.43 2504.33
   00:38:45.943.04-May-2020 4661.71   60.29 80.21 4.00 301.63 2504.33
   00:38:46.143.04-May-2020 4661.71   60.30 80.20 4.00 301.83 2504.33
   00:38:46.344.04-May-2020 4661.71   60.32 80.20 4.00 302.03 2504.33
   00:38:46.544.04-May-2020 4661.71   60.33 80.20 4.00 302.23 2504.33
   00:38:46.744.04-May-2020 4661.71   60.35 80.20 4.00 302.43 2504.33
   00:38:46.944.04-May-2020 4661.71   60.36 80.20 4.00 302.63 2504.33
   00:38:47.144.04-May-2020 4661.71   60.37 80.20 4.00 302.83 2504.33
   00:38:47.344.04-May-2020 4661.71   60.39 80.20 4.00 303.03 2504.33
   00:38:47.544.04-May-2020 4661.71   60.39 80.20 4.00 303.23 2504.33
   00:38:47.744.04-May-2020 4661.71   60.43 80.20 4.00 303.43 2504.33
   00:38:47.944.04-May-2020 4661.71   60.44 80.20 4.00 303.63 2504.33
   00:38:48.144.04-May-2020 4661.71   60.45 80.20 4.00 303.83 2504.33
   00:38:48.344.04-May-2020 4661.71   60.46 80.20 4.00 304.03 2504.33
   00:38:48.544.04-May-2020 4661.71   60.46 80.20 4.00 304.23 2504.33
   00:38:48.744.04-May-2020 4661.71   60.48 80.19 4.00 304.43 2504.33
   00:38:48.944.04-May-2020 4661.71   60.50 80.19 4.00 304.63 2504.33
   00:38:49.144.04-May-2020 4661.71   60.50 80.19 4.00 304.83 2504.33
   00:38:49.344.04-May-2020 4661.71   60.52 80.19 4.00 305.03 2504.33
   00:38:49.544.04-May-2020 4661.71   60.52 80.19 4.00 305.23 2504.33
   00:38:49.744.04-May-2020 4661.71   60.55 80.19 4.00 305.43 2504.33
   00:38:49.944.04-May-2020 4661.71   60.56 80.19 4.00 305.63 2504.33
   00:38:50.144.04-May-2020 4661.71   60.59 80.19 4.00 305.83 2504.33
   00:38:50.344.04-May-2020 4661.71   60.61 80.19 4.00 306.03 2504.33
   00:38:50.544.04-May-2020 4661.71   60.60 80.19 4.00 306.23 2504.33
   00:38:50.744.04-May-2020 4661.71   60.64 80.19 4.00 306.43 2504.33
   00:38:50.944.04-May-2020 4661.71   60.64 80.18 4.00 306.63 2504.33
   00:38:51.144.04-May-2020 4661.71   60.64 80.18 4.00 306.83 2504.33
   00:38:51.344.04-May-2020 4661.71   60.66 80.18 4.00 307.03 2504.33
   00:38:51.544.04-May-2020 4661.71   60.66 80.18 4.00 307.23 2504.33
   00:38:51.744.04-May-2020 4661.71   60.69 80.18 4.00 307.43 2504.33
   00:38:51.944.04-May-2020 4661.71   60.70 80.18 4.00 307.63 2504.33
   00:38:52.144.04-May-2020 4661.71   60.72 80.18 4.00 307.83 2504.33
   00:38:52.344.04-May-2020 4661.71   60.73 80.18 4.00 308.03 2504.33
   00:38:52.544.04-May-2020 4661.71   60.73 80.18 4.00 308.23 2504.33
   00:38:52.744.04-May-2020 4661.71   60.74 80.18 4.00 308.43 2504.33
   00:38:52.944.04-May-2020 4661.71   60.77 80.18 4.00 308.63 2504.33
   00:38:53.144.04-May-2020 4661.71   60.79 80.18 4.00 308.83 2504.33
   00:38:53.344.04-May-2020 4661.71   60.79 80.18 4.00 309.03 2504.33
   00:38:53.544.04-May-2020 4661.71   60.79 80.18 4.00 309.23 2504.33
   00:38:53.744.04-May-2020 4661.71   60.81 80.17 4.00 309.43 2504.33
   00:38:53.944.04-May-2020 4661.71   60.82 80.17 4.00 309.63 2504.33
   00:38:54.144.04-May-2020 4661.71   60.84 80.17 4.00 309.83 2504.33
   00:38:54.344.04-May-2020 4661.71   60.84 80.17 4.00 310.03 2504.33
   00:38:54.544.04-May-2020 4661.71   60.84 80.17 4.00 310.23 2504.33
   00:38:54.744.04-May-2020 4661.71   60.87 80.17 4.00 310.43 2504.33
   00:38:54.944.04-May-2020 4661.71   60.88 80.17 4.00 310.63 2504.33
   00:38:55.144.04-May-2020 4661.71   60.89 80.17 4.00 310.83 2504.33
   00:38:55.344.04-May-2020 4661.71   60.91 80.17 4.00 311.03 2504.33
   00:38:55.544.04-May-2020 4661.71   60.91 80.17 4.00 311.23 2504.33
   00:38:55.744.04-May-2020 4661.71   60.95 80.16 4.00 311.43 2504.33
   00:38:55.944.04-May-2020 4661.71   60.97 80.16 4.00 311.63 2504.33
   00:38:56.144.04-May-2020 4661.71   60.97 80.16 4.00 311.83 2504.33
   00:38:56.344.04-May-2020 4661.71   60.98 80.16 4.00 312.03 2504.33
   00:38:56.544.04-May-2020 4661.71   60.98 80.16 4.00 312.23 2504.33
   00:38:56.744.04-May-2020 4661.71   61.00 80.16 4.00 312.43 2504.33
   00:38:56.944.04-May-2020 4661.71   61.01 80.16 4.00 312.63 2504.33
   00:38:57.144.04-May-2020 4661.71   61.02 80.16 4.00 312.83 2504.33
   00:38:57.345.04-May-2020 4661.71   61.04 80.16 4.00 313.03 2504.33
   00:38:57.545.04-May-2020 4661.71   61.04 80.16 4.00 313.23 2504.33
   00:38:57.745.04-May-2020 4661.71   61.06 80.16 4.00 313.43 2504.33
   00:38:57.945.04-May-2020 4661.71   61.07 80.16 4.00 313.63 2504.33
   00:38:58.145.04-May-2020 4661.71   61.10 80.15 4.00 313.83 2504.33
   00:38:58.345.04-May-2020 4661.71   61.12 80.15 4.00 314.03 2504.33
   00:38:58.545.04-May-2020 4661.71   61.12 80.15 4.00 314.23 2504.33
   00:38:58.745.04-May-2020 4661.71   61.14 80.15 4.00 314.43 2504.33
   00:38:58.945.04-May-2020 4661.71   61.15 80.15 4.00 314.63 2504.33
   00:38:59.145.04-May-2020 4661.71   61.16 80.15 4.00 314.83 2504.33
   00:38:59.345.04-May-2020 4661.71   61.15 80.15 4.00 315.03 2504.33
   00:38:59.545.04-May-2020 4661.71   61.20 80.15 4.00 315.23 2504.33
   00:38:59.745.04-May-2020 4661.71   61.19 80.15 4.00 315.43 2504.33
   00:38:59.945.04-May-2020 4661.71   61.20 80.15 4.00 315.63 2504.33
   00:39:00.145.04-May-2020 4661.71   61.21 80.15 4.00 315.83 2504.33
   00:39:00.345.04-May-2020 4661.71   61.24 80.15 4.00 316.03 2504.33
   00:39:00.545.04-May-2020 4661.71   61.24 80.15 4.00 316.23 2504.33
   00:39:00.745.04-May-2020 4661.71   61.24 80.14 4.00 316.43 2504.33
   00:39:00.945.04-May-2020 4661.71   61.26 80.14 4.00 316.63 2504.33
   00:39:01.145.04-May-2020 4661.71   61.28 80.14 4.00 316.83 2504.33
   00:39:01.345.04-May-2020 4661.71   61.29 80.14 4.00 317.03 2504.33
   00:39:01.545.04-May-2020 4661.71   61.29 80.14 4.00 317.23 2504.33
   00:39:01.745.04-May-2020 4661.71   61.31 80.14 4.00 317.43 2504.33
   00:39:01.945.04-May-2020 4661.71   61.31 80.14 4.00 317.63 2504.33
   00:39:02.145.04-May-2020 4661.71   61.32 80.14 4.00 317.83 2504.33
   00:39:02.345.04-May-2020 4661.71   61.34 80.14 4.00 318.03 2504.33
   00:39:02.545.04-May-2020 4661.71   61.34 80.14 4.00 318.23 2504.33
   00:39:02.745.04-May-2020 4661.71   61.36 80.14 4.00 318.43 2504.33
   00:39:02.945.04-May-2020 4661.71   61.37 80.13 4.00 318.63 2504.33
   00:39:03.145.04-May-2020 4661.71   61.39 80.13 4.00 318.83 2504.33
   00:39:03.345.04-May-2020 4661.71   61.40 80.13 4.00 319.03 2504.33
   00:39:03.545.04-May-2020 4661.71   61.41 80.13 4.00 319.23 2504.33
   00:39:03.745.04-May-2020 4661.71   61.43 80.13 4.00 319.43 2504.33
   00:39:03.945.04-May-2020 4661.71   61.46 80.13 4.00 319.63 2504.33
   00:39:04.145.04-May-2020 4661.71   61.46 80.13 4.00 319.83 2504.33
   00:39:04.345.04-May-2020 4661.71   61.46 80.13 4.00 320.03 2504.33
   00:39:04.545.04-May-2020 4661.71   61.47 80.13 4.00 320.23 2504.33
   00:39:04.745.04-May-2020 4661.71   61.49 80.13 4.00 320.43 2504.33
   00:39:04.945.04-May-2020 4661.71   61.50 80.13 4.00 320.63 2504.33
   00:39:05.145.04-May-2020 4661.71   61.51 80.13 4.00 320.83 2504.33
   00:39:05.345.04-May-2020 4661.71   61.52 80.12 4.00 321.03 2504.33
   00:39:05.545.04-May-2020 4661.71   61.52 80.12 4.00 321.23 2504.33
   00:39:05.745.04-May-2020 4661.71   61.54 80.12 4.00 321.43 2504.33
   00:39:05.945.04-May-2020 4661.71   61.55 80.12 4.00 321.63 2504.33
   00:39:06.145.04-May-2020 4661.71   61.57 80.12 4.00 321.83 2504.33
