~Version Information
 VERS.                  2.0:   CWLS log ASCII Standard -VERSION 2.0
 WRAP.                   NO:   One line per depth step
~Well Information Block
#MNEM.UNIT     VALUE/NAME     DESCRIPTION
#---------     -----------    ---------------------------
 STRT.S             19:38:29 03-May-20: START TIME 19:38:29 03-May-20
 STOP.S             19:45:06 03-May-20: STOP TIME  19:45:06 03-May-20
 STEP.S                   0.00: STEP TIME
 NULL.                 -999.25: NULL VALUE
 DFWT.                        :  DIST FWL TEXT
 DFST.                        :  DIST FSL TEXT
 DMF .             Drill Floor:  DRILL MEAS FROM
 STIM.      03.00.00 25-Mar-20:  START TIME
 DATE.      00.00.00 19-May-20:  END TIME
 SPUD.               27-Aug-20:  SPUD DATE
 NREF.                    Grid:  NORTH REFERENCE
 HPTY.       Minimum Curvature:  HOLE POS TYPE
 DMOD.             Drill Model:  DRILL MOD DESC
 SVYD.                  Survey:  SURVEY DESC
 ILTD.               Lithology:  INTERP LTH DESC
 FTOP.          Formation Tops:  FORM TOPS DESC
 SON .        AZ-XX-0906252240:  JOB NUMBER
 RIG .             West Chirag:  RIG NAME
 PDAT.          Mean Sea Level:  PERMANENT DATUM
 FLD .                     ACG:  FIELD NAME
 CTRY.              Azerbaijan:  COUNTRY NAME
 WELL.                     J23:  WELL NAME
 SRVC.          Turan Drilling:  CONTRACTOR
 COMP.     BP Exploration (Caspian Sea) Ltd.:  COMPANY
 WTYP.                Deviated:  WELL TYPE
 MDS .        Operator Entered:  MAG DATA SOURCE
 UWI .                     N/A:  UNIQUE WELL IDENTIFIER
 API .                     N/A:  API NUMBER
 BASE.              Azerbaijan:  LOGGING EQUIPMENT BASE LOCATION
 REGN.                   EESSA:  REGION
 PROV.                    Baku:  PROVINCE
 STAT.                    Baku:  STATE NAME
 MWDS.                     N/A:  MWD SHOP
 JOBN.        AZ-XX-0906252240:  JOB TICKET NUMB
 DOE .                     N/A:  DOE NUMBER
 DCON.         Sperry Drilling:  DIRECTNL CONTR
 UNIT.                     N/A:  LOGGING EQUIPMENT ID
 CNTY.                        :  COUNTY
 LOC .                        :  LOCATION
 LMF .             Drill Floor:  LOG MEASURED FROM
 TVDS.m                  43.00:  TVDSS CORRECTN
 LATI.deg                40.13:  LATITUDE
 LONG.deg                51.22:  LONGITUDE
 WHNS.m                   9.43:  WELL HEAD N/S
 WHEW.m                  -8.91:  WELL HEAD E/W
 UTMX.m              519005.06:  UTM X
 UTMY.m             4443793.85:  UTM Y
 DFWL.m                   0.00:  DISTANCE FWL
 DFSL.m                   0.00:  DISTANCE FSL
 SDEP.m                 363.00:  START DEPTH
 TDD .m                5150.01:  TOTAL DEPTH (DRILLER)
 VSDR.deg               179.88:  VERT SEC DIRECT
 GVFD.g                   1.00:  GRAVITY FIELD
 MFLD.nT              50295.00:  MAGNETIC FIELD
 MDIP.deg                59.56:  MAGNETIC DIP
 MDEC.deg                 6.45:  MAGNETIC DECL
 GRDC.deg                 0.14:  GRID CORRECTION
 AZTC.deg                 6.31:  AZM TOTAL CORR
 EPD .m                   0.00:  ELEVATION
 EGL .m                   0.00:  GROUND ELEVATION
 WDMS.m                 169.80:  WD ELEV
 APD .m                  43.00:  DEPTH ABOVE PD
 DEP .m                 354.17:  DEPTH
 AGAP.m                  43.00:  AIR GAP
 VSEW.m                  -8.91:  VERT SEC E/W
 VSNS.m                   9.43:  VERT SEC N/S
 EKB .m                   0.00:  KB ELEVATION
 EDF .m                  43.00:  DF ELEVATION
 TDL .m                1351.00:  TOTAL DEPTH (LOGGER)
 VSC .                       0:  VS TO CLOSURE
 MAGU.                 1850802:  MAGUTM CHECKSUM
~Parameter Information Block
#MNEM.UNIT       Value        Description
#---------     -----------    ---------------------------
 AV  .mps                 1.00:  Ann Velocity 
 AVMX.mps                 2.40:  Max Ann Veloc 
 AZIF.deg               148.96:  Azm, Final 
 BHAT.        Rotary Steerable:  BHA Type 
 BROT.°/30m               0.04:  Build Rotating 
 BS  .in                 12.25:  Bit Size 
 BSZ .in                 12.25:  Bit Size 
 BTPL.psig              814.00:  Bit Press Loss 
 TCS .hr                106.00:  Time Ciculation Ended 
 CV  .mps                 2.47:  Crit Velocity 
 CVMX.mps                 2.64:  Max Crit Veloc 
 DD1 .          Rashad Habibov:  Direct Drillr 1 
 DD2 .         Rasim Ibrahimov:  Direct Drillr 2 
 DDSV.                 iCruise:  DD Service 
 DEFF.%                 100.00:  % Det Eff 
 DLRX.°/30m               0.70:  Dogleg Rot Max 
 DLSO.°/30m               3.00:  Dogleg Oriented 
 DLSX.°/30m               4.55:  Dogleg Str Max 
 DRET.      08.08.32 02-May-20:  Drill End Time 
 DRST.      08.08.32 28-Apr-20:  Drill Start Tim 
 DTIM.hr                 60.00:  Time Drilling 
 EDEP.m                4761.01:  End Depth 
 ENG1.           Eldar Hajiyev:  Engineer 1 
 ENG2.        Marcelo Sandoval:  Engineer 2 
 ETIM.      23.23.07 05-May-20:  End Time 
 FLOI.gpm              1200.00:  Flow In 
 FLON.gpm               900.00:  Flow In Min 
 FLOS.cptm                0.00:  Fluid Loss 
 FLOX.gpm              1200.00:  Flow In Max 
 HFLO.                      No:  High Flow 
 HPRE.                      No:  High Pressure 
 HTEM.                      No:  High Temp 
 HYDO.m                   1.80:  Hydro Offset 
 IFIN.deg                68.17:  Inc, Final 
 IMAX.deg                74.61:  Inc Max 
 IMIN.deg                68.15:  Inc Min 
 IMND.m                4317.87:  Inc Min Depth 
 IMXD.m                4714.01:  Inc Max Depth 
 LETM.      08.08.32 02-May-20:  Log End Time 
 LOST.hr                     2:  Lost Rig Time 
 LSTM.      08.08.32 28-Apr-20:  Log Start Time 
 MDCL.ppm             41000.00:  Mud Chlorides 
 MDES.     Inversion Oil/Synthetic:  Mud Desc 
 DFD .sg                  1.58:  Mud Density 
 MDMN.sg                  1.58:  Dens Mud Min 
 MDMX.sg                  1.58:  Dens Mud Max 
 MOIL.                      71:  Run Mud Oil % 
 MOWR.                   71:29:  Run Mud OWR 
 MSND.                     0.1:  Run Mud Sand % 
 MSOL.                      23:  Run Mud Solids% 
 DFV .spqt               82.00:  Mud Viscosity 
 MWOD.in                  8.00:  MWD Tool OD 
 MWSI.                     Yes:  Serv Intrp, MWD 
 OTIM.hr                125.00:  Time Operating 
 PMAX.psia             6129.00:  Press Op, Max 
 PV  .cP                 32.00:  Mud PV 
 RUN .                     800:  Run Number 
 ROPA.m/hr               30.00:  ROP Avg 
 ROPN.m/hr               10.00:  ROP Min 
 ROPX.m/hr               40.00:  ROP Max 
 RPMA.rpm               140.00:  RPM Surface Avg 
 RPMN.rpm                80.00:  RPM Surface Min 
 RPMX.rpm               140.00:  RPM Surface Max 
 RRUN.                    L503:  Rig Run Number 
 RTIM.hr                  2.00:  Time Reaming 
 SAZI.deg               184.23:  Azm, Start 
 SDEP.m                3410.01:  Start Depth 
 SIDD.                      No:  Serv Intrp, DD 
 SINC.deg                68.29:  Inc, Start 
 SPPA.psig             6000.00:  SPP Avg 
 SPPN.psig             4000.00:  SPP Min 
 SPPX.psig             6100.00:  SPP Max 
 STIM.      08.08.32 28-Apr-20:  Start Time 
 SVCS.                 DD, MWD:  Services 
 SVER.                    9.20:  Sperry Version 
 TDAT.m                1351.00:  Tot Depth Attmp 
 TDDF.                      No:  Trip for DD 
 TDLG.m                1351.00:  Tot Depth Loggd 
 TFF .                      No:  Trip for Fail 
 TQAA.f-kp               27.00:  Torque Abs Avg 
 TQAN.f-kp               20.00:  Torque Abs Min 
 TQAX.f-kp               30.00:  Torque Abs Max 
 TRRT.°/30m               0.60:  Turn Rotating 
 MRT .                    EWER:  Maximum Recorded Temperature 
 TTMX.degC               83.00:  Max Tool Temp 
 VS01.                90511138:  Virtual Str1 SN 
 VS02.                90524876:  Virtual Str2 SN 
 VS03.                90524872:  Virtual Str3 SN 
 VS04.                90502750:  Virtual Str4 SN 
 VS05.                12330984:  Virtual Str5 SN 
 WBMN.klb                 0.00:  WOB Min 
 WOBA.klb                15.00:  WOB Avg 
 WOBX.klb                20.00:  WOB Max 
 YP  .lhf2               31.00:  Yield Point 
~Curve Information Block
#MNEM.UNIT                 API CODE     Curve Description
#---------               -----------    ---------------------------
 TIME.HHMMSS            00 000 000 000:  GT Time & Date
 GTDEPTH.m              00 000 000 000:  GT Depth
 GTPQH.psia             00 000 000 000:  GT HR Quartz Pressure
 GTTQ.degC              00 000 000 000:  GT Quartz Temperature
 GTTN.NONE              00 000 000 000:  GT Test Number
 GTET.sec               00 000 000 000:  GT Elapsed Test Time
 GTTVD.m                00 000 000 000:  GT True Vertical Depth
#Other Information
#
#WARRANTY: Halliburton will use its best efforts to furnish customers with 
#accurate information and interpretations that are part of, and incident to, the services 
#provided.  However, Halliburton cannot and does not warrant the accuracy 
#or correctness of such information and interpretations.  Under no circumstances should any 
#such information or interpretation be relied upon as the sole basis for any drilling, 
#completion, production, or financial decision or any procedure involving any risk to the 
#safety of any drilling venture, drilling rig or its crew or any other third party.  The 
#Customer has full responsibility for all drilling, completion and production operation.  
#Halliburton makes no representations or warranties, either expressed or 
#implied, including, but not limited to, the implied warranties of merchantability or fitness 
#for a particular purpose, with respect to the services rendered.  In no event will 
#Halliburton be liable for failure to obtain any particular results or for 
#any damages, including, but not limited to, indirect, special or consequential damages, 
#resulting from the use of any information or interpretation provided by Halliburton.
#
~A           TIME           GTDEPTH  GTPQH  GTTQ  GTTN  GTET   GTTVD  
# ...
   19:41:10.503.03-May-2020 4608.48 4112.12 79.88 3.00 161.02 2489.14
   19:41:10.703.03-May-2020 4608.48 4112.57 79.88 3.00 161.22 2489.14
   19:41:10.903.03-May-2020 4608.48 4112.40 79.88 3.00 161.42 2489.14
   19:41:11.103.03-May-2020 4608.48 4112.21 79.88 3.00 161.62 2489.14
   19:41:11.303.03-May-2020 4608.48 4112.41 79.88 3.00 161.82 2489.14
   19:41:11.503.03-May-2020 4608.48 4112.57 79.88 3.00 162.02 2489.14
   19:41:11.703.03-May-2020 4608.48 4112.74 79.88 3.00 162.22 2489.14
   19:41:11.903.03-May-2020 4608.48 4112.47 79.88 3.00 162.42 2489.14
   19:41:12.103.03-May-2020 4608.48 4112.67 79.88 3.00 162.62 2489.14
   19:41:12.303.03-May-2020 4608.48 4112.68 79.88 3.00 162.82 2489.14
   19:41:12.503.03-May-2020 4608.48 4112.47 79.88 3.00 163.02 2489.14
   19:41:12.703.03-May-2020 4608.48 4112.47 79.88 3.00 163.22 2489.14
   19:41:12.903.03-May-2020 4608.48 4113.12 79.87 3.00 163.42 2489.14
   19:41:13.103.03-May-2020 4608.48 4113.18 79.87 3.00 163.62 2489.14
   19:41:13.303.03-May-2020 4608.48 4112.23 79.87 3.00 163.82 2489.14
   19:41:13.503.03-May-2020 4608.48 4113.39 79.87 3.00 164.02 2489.14
   19:41:13.703.03-May-2020 4608.48 4113.39 79.87 3.00 164.22 2489.14
   19:41:13.903.03-May-2020 4608.48 4139.09 79.87 3.00 164.42 2489.14
   19:41:14.103.03-May-2020 4608.48 4147.84 79.87 3.00 164.62 2489.14
   19:41:14.304.03-May-2020 4608.48 4148.36 79.87 3.00 164.82 2489.14
   19:41:14.504.03-May-2020 4608.48 4147.79 79.87 3.00 165.02 2489.14
   19:41:14.704.03-May-2020 4608.48 4147.79 79.87 3.00 165.22 2489.14
   19:41:14.904.03-May-2020 4608.48 4148.28 79.87 3.00 165.42 2489.14
   19:41:15.104.03-May-2020 4608.48 4148.18 79.87 3.00 165.62 2489.14
   19:41:15.304.03-May-2020 4608.48 4148.01 79.87 3.00 165.82 2489.14
   19:41:15.504.03-May-2020 4608.48 4148.50 79.86 3.00 166.02 2489.14
   19:41:15.704.03-May-2020 4608.48 4148.48 79.86 3.00 166.22 2489.14
   19:41:15.904.03-May-2020 4608.48 4148.34 79.86 3.00 166.42 2489.14
   19:41:16.104.03-May-2020 4608.48 4148.26 79.86 3.00 166.62 2489.14
   19:41:16.304.03-May-2020 4608.48 4148.32 79.86 3.00 166.82 2489.14
   19:41:16.504.03-May-2020 4608.48 4148.36 79.86 3.00 167.02 2489.14
   19:41:16.704.03-May-2020 4608.48 4148.42 79.86 3.00 167.22 2489.14
   19:41:16.904.03-May-2020 4608.48 4148.43 79.86 3.00 167.42 2489.14
   19:41:17.104.03-May-2020 4608.48 4148.34 79.86 3.00 167.62 2489.14
   19:41:17.304.03-May-2020 4608.48 4148.38 79.86 3.00 167.82 2489.14
   19:41:17.504.03-May-2020 4608.48 4148.34 79.86 3.00 168.02 2489.14
   19:41:17.704.03-May-2020 4608.48 4148.38 79.86 3.00 168.22 2489.14
   19:41:17.904.03-May-2020 4608.48 4148.39 79.86 3.00 168.42 2489.14
   19:41:18.104.03-May-2020 4608.48 4148.34 79.85 3.00 168.62 2489.14
   19:41:18.304.03-May-2020 4608.48 4148.51 79.85 3.00 168.82 2489.14
   19:41:18.504.03-May-2020 4608.48 4148.47 79.85 3.00 169.02 2489.14
   19:41:18.704.03-May-2020 4608.48 4148.47 79.85 3.00 169.22 2489.14
   19:41:18.904.03-May-2020 4608.48 4148.51 79.85 3.00 169.42 2489.14
   19:41:19.104.03-May-2020 4608.48 4148.35 79.85 3.00 169.62 2489.14
   19:41:19.304.03-May-2020 4608.48 4148.41 79.85 3.00 169.82 2489.14
   19:41:19.504.03-May-2020 4608.48 4148.42 79.85 3.00 170.02 2489.14
   19:41:19.704.03-May-2020 4608.48 4148.48 79.85 3.00 170.22 2489.14
   19:41:19.904.03-May-2020 4608.48 4148.46 79.85 3.00 170.42 2489.14
   19:41:20.104.03-May-2020 4608.48 4148.42 79.85 3.00 170.62 2489.14
   19:41:20.304.03-May-2020 4608.48 4148.40 79.85 3.00 170.82 2489.14
   19:41:20.504.03-May-2020 4608.48 4148.41 79.85 3.00 171.02 2489.14
   19:41:20.704.03-May-2020 4608.48 4148.41 79.85 3.00 171.22 2489.14
   19:41:20.904.03-May-2020 4608.48 4148.57 79.84 3.00 171.42 2489.14
   19:41:21.104.03-May-2020 4608.48 4148.77 79.84 3.00 171.62 2489.14
   19:41:21.304.03-May-2020 4608.48 4148.31 79.84 3.00 171.82 2489.14
   19:41:21.504.03-May-2020 4608.48 4148.61 79.84 3.00 172.02 2489.14
   19:41:21.704.03-May-2020 4608.48 4148.61 79.84 3.00 172.22 2489.14
   19:41:21.904.03-May-2020 4608.48 4148.73 79.84 3.00 172.42 2489.14
   19:41:22.104.03-May-2020 4608.48 4148.58 79.84 3.00 172.62 2489.14
   19:41:22.304.03-May-2020 4608.48 4148.69 79.84 3.00 172.82 2489.14
   19:41:22.504.03-May-2020 4608.48 4148.11 79.84 3.00 173.02 2489.14
   19:41:22.704.03-May-2020 4608.48 4148.11 79.84 3.00 173.22 2489.14
   19:41:22.904.03-May-2020 4608.48 4148.57 79.84 3.00 173.42 2489.14
   19:41:23.104.03-May-2020 4608.48 4148.55 79.84 3.00 173.62 2489.14
   19:41:23.304.03-May-2020 4608.48 4148.42 79.83 3.00 173.82 2489.14
   19:41:23.505.03-May-2020 4608.48 4148.30 79.83 3.00 174.02 2489.14
   19:41:23.705.03-May-2020 4608.48 4148.30 79.83 3.00 174.22 2489.14
   19:41:23.905.03-May-2020 4608.48 4148.66 79.83 3.00 174.42 2489.14
   19:41:24.105.03-May-2020 4608.48 4148.65 79.83 3.00 174.62 2489.14
   19:41:24.305.03-May-2020 4608.48 4148.54 79.83 3.00 174.82 2489.14
   19:41:24.505.03-May-2020 4608.48 4148.38 79.83 3.00 175.02 2489.14
   19:41:24.705.03-May-2020 4608.48 4148.38 79.83 3.00 175.22 2489.14
   19:41:24.905.03-May-2020 4608.48 4148.52 79.83 3.00 175.42 2489.14
   19:41:25.105.03-May-2020 4608.48 4148.58 79.83 3.00 175.62 2489.14
   19:41:25.305.03-May-2020 4608.48 4148.53 79.83 3.00 175.82 2489.14
   19:41:25.505.03-May-2020 4608.48 4148.48 79.83 3.00 176.02 2489.14
   19:41:25.705.03-May-2020 4608.48 4148.48 79.83 3.00 176.22 2489.14
   19:41:25.905.03-May-2020 4608.48 4148.49 79.82 3.00 176.42 2489.14
   19:41:26.105.03-May-2020 4608.48 4148.41 79.82 3.00 176.62 2489.14
   19:41:26.305.03-May-2020 4608.48 4148.93 79.82 3.00 176.82 2489.14
   19:41:26.505.03-May-2020 4608.48 4148.42 79.82 3.00 177.02 2489.14
   19:41:26.705.03-May-2020 4608.48 4148.42 79.82 3.00 177.22 2489.14
   19:41:26.905.03-May-2020 4608.48 4148.43 79.82 3.00 177.42 2489.14
   19:41:27.105.03-May-2020 4608.48 4148.61 79.82 3.00 177.62 2489.14
   19:41:27.305.03-May-2020 4608.48 4148.54 79.82 3.00 177.82 2489.14
   19:41:27.505.03-May-2020 4608.48 4148.56 79.82 3.00 178.02 2489.14
   19:41:27.705.03-May-2020 4608.48 4148.49 79.82 3.00 178.22 2489.14
   19:41:27.905.03-May-2020 4608.48 4148.43 79.82 3.00 178.42 2489.14
   19:41:28.105.03-May-2020 4608.48 4148.54 79.82 3.00 178.62 2489.14
   19:41:28.305.03-May-2020 4608.48 4148.50 79.81 3.00 178.82 2489.14
   19:41:28.505.03-May-2020 4608.48 4148.49 79.81 3.00 179.02 2489.14
   19:41:28.705.03-May-2020 4608.48 4148.49 79.81 3.00 179.22 2489.14
   19:41:28.905.03-May-2020 4608.48 4148.88 79.81 3.00 179.42 2489.14
   19:41:29.105.03-May-2020 4608.48 4148.38 79.81 3.00 179.62 2489.14
   19:41:29.305.03-May-2020 4608.48 4148.87 79.81 3.00 179.82 2489.14
   19:41:29.505.03-May-2020 4608.48 4148.02 79.81 3.00 180.02 2489.14
   19:41:29.705.03-May-2020 4608.48 4148.59 79.81 3.00 180.22 2489.14
   19:41:29.905.03-May-2020 4608.48 4148.44 79.81 3.00 180.42 2489.14
   19:41:30.105.03-May-2020 4608.48 4149.04 79.81 3.00 180.62 2489.14
   19:41:30.305.03-May-2020 4608.48 4148.45 79.81 3.00 180.82 2489.14
   19:41:30.505.03-May-2020 4608.48 4148.29 79.81 3.00 181.02 2489.14
   19:41:30.705.03-May-2020 4608.48 4148.29 79.81 3.00 181.22 2489.14
   19:41:30.905.03-May-2020 4608.48 4148.44 79.80 3.00 181.42 2489.14
   19:41:31.105.03-May-2020 4608.48 4148.68 79.80 3.00 181.62 2489.14
   19:41:31.305.03-May-2020 4608.48 4148.67 79.80 3.00 181.82 2489.14
   19:41:31.505.03-May-2020 4608.48 4148.51 79.80 3.00 182.02 2489.14
   19:41:31.705.03-May-2020 4608.48 4148.83 79.80 3.00 182.22 2489.14
   19:41:31.905.03-May-2020 4608.48 4148.05 79.80 3.00 182.42 2489.14
   19:41:32.105.03-May-2020 4608.48 4148.60 79.80 3.00 182.62 2489.14
   19:41:32.305.03-May-2020 4608.48 4148.61 79.80 3.00 182.82 2489.14
   19:41:32.505.03-May-2020 4608.48 4148.64 79.80 3.00 183.02 2489.14
   19:41:32.706.03-May-2020 4608.48 4148.64 79.80 3.00 183.22 2489.14
   19:41:32.906.03-May-2020 4608.48 4148.54 79.80 3.00 183.42 2489.14
   19:41:33.106.03-May-2020 4608.48 4148.51 79.80 3.00 183.62 2489.14
   19:41:33.306.03-May-2020 4608.48 4148.55 79.79 3.00 183.82 2489.14
