~Version Information
 VERS.                  2.0:   CWLS log ASCII Standard -VERSION 2.0
 WRAP.                   NO:   One line per depth step
~Well Information Block
#MNEM.UNIT     VALUE/NAME     DESCRIPTION
#---------     -----------    ---------------------------
 STRT.S             19:38:29 03-May-20: START TIME 19:38:29 03-May-20
 STOP.S             19:45:06 03-May-20: STOP TIME  19:45:06 03-May-20
 STEP.S                   0.00: STEP TIME
 NULL.                 -999.25: NULL VALUE
 DFWT.                        :  DIST FWL TEXT
 DFST.                        :  DIST FSL TEXT
 DMF .             Drill Floor:  DRILL MEAS FROM
 STIM.      03.00.00 25-Mar-20:  START TIME
 DATE.      00.00.00 19-May-20:  END TIME
 SPUD.               27-Aug-20:  SPUD DATE
 NREF.                    Grid:  NORTH REFERENCE
 HPTY.       Minimum Curvature:  HOLE POS TYPE
 DMOD.             Drill Model:  DRILL MOD DESC
 SVYD.                  Survey:  SURVEY DESC
 ILTD.               Lithology:  INTERP LTH DESC
 FTOP.          Formation Tops:  FORM TOPS DESC
 SON .        AZ-XX-0906252240:  JOB NUMBER
 RIG .             West Chirag:  RIG NAME
 PDAT.          Mean Sea Level:  PERMANENT DATUM
 FLD .                     ACG:  FIELD NAME
 CTRY.              Azerbaijan:  COUNTRY NAME
 WELL.                     J23:  WELL NAME
 SRVC.          Turan Drilling:  CONTRACTOR
 COMP.     BP Exploration (Caspian Sea) Ltd.:  COMPANY
 WTYP.                Deviated:  WELL TYPE
 MDS .        Operator Entered:  MAG DATA SOURCE
 UWI .                     N/A:  UNIQUE WELL IDENTIFIER
 API .                     N/A:  API NUMBER
 BASE.              Azerbaijan:  LOGGING EQUIPMENT BASE LOCATION
 REGN.                   EESSA:  REGION
 PROV.                    Baku:  PROVINCE
 STAT.                    Baku:  STATE NAME
 MWDS.                     N/A:  MWD SHOP
 JOBN.        AZ-XX-0906252240:  JOB TICKET NUMB
 DOE .                     N/A:  DOE NUMBER
 DCON.         Sperry Drilling:  DIRECTNL CONTR
 UNIT.                     N/A:  LOGGING EQUIPMENT ID
 CNTY.                        :  COUNTY
 LOC .                        :  LOCATION
 LMF .             Drill Floor:  LOG MEASURED FROM
 TVDS.m                  43.00:  TVDSS CORRECTN
 LATI.deg                40.13:  LATITUDE
 LONG.deg                51.22:  LONGITUDE
 WHNS.m                   9.43:  WELL HEAD N/S
 WHEW.m                  -8.91:  WELL HEAD E/W
 UTMX.m              519005.06:  UTM X
 UTMY.m             4443793.85:  UTM Y
 DFWL.m                   0.00:  DISTANCE FWL
 DFSL.m                   0.00:  DISTANCE FSL
 SDEP.m                 363.00:  START DEPTH
 TDD .m                5150.01:  TOTAL DEPTH (DRILLER)
 VSDR.deg               179.88:  VERT SEC DIRECT
 GVFD.g                   1.00:  GRAVITY FIELD
 MFLD.nT              50295.00:  MAGNETIC FIELD
 MDIP.deg                59.56:  MAGNETIC DIP
 MDEC.deg                 6.45:  MAGNETIC DECL
 GRDC.deg                 0.14:  GRID CORRECTION
 AZTC.deg                 6.31:  AZM TOTAL CORR
 EPD .m                   0.00:  ELEVATION
 EGL .m                   0.00:  GROUND ELEVATION
 WDMS.m                 169.80:  WD ELEV
 APD .m                  43.00:  DEPTH ABOVE PD
 DEP .m                 354.17:  DEPTH
 AGAP.m                  43.00:  AIR GAP
 VSEW.m                  -8.91:  VERT SEC E/W
 VSNS.m                   9.43:  VERT SEC N/S
 EKB .m                   0.00:  KB ELEVATION
 EDF .m                  43.00:  DF ELEVATION
 TDL .m                1351.00:  TOTAL DEPTH (LOGGER)
 VSC .                       0:  VS TO CLOSURE
 MAGU.                 1850802:  MAGUTM CHECKSUM
~Parameter Information Block
#MNEM.UNIT       Value        Description
#---------     -----------    ---------------------------
 AV  .mps                 1.00:  Ann Velocity 
 AVMX.mps                 2.40:  Max Ann Veloc 
 AZIF.deg               148.96:  Azm, Final 
 BHAT.        Rotary Steerable:  BHA Type 
 BROT.°/30m               0.04:  Build Rotating 
 BS  .in                 12.25:  Bit Size 
 BSZ .in                 12.25:  Bit Size 
 BTPL.psig              814.00:  Bit Press Loss 
 TCS .hr                106.00:  Time Ciculation Ended 
 CV  .mps                 2.47:  Crit Velocity 
 CVMX.mps                 2.64:  Max Crit Veloc 
 DD1 .          Rashad Habibov:  Direct Drillr 1 
 DD2 .         Rasim Ibrahimov:  Direct Drillr 2 
 DDSV.                 iCruise:  DD Service 
 DEFF.%                 100.00:  % Det Eff 
 DLRX.°/30m               0.70:  Dogleg Rot Max 
 DLSO.°/30m               3.00:  Dogleg Oriented 
 DLSX.°/30m               4.55:  Dogleg Str Max 
 DRET.      08.08.32 02-May-20:  Drill End Time 
 DRST.      08.08.32 28-Apr-20:  Drill Start Tim 
 DTIM.hr                 60.00:  Time Drilling 
 EDEP.m                4761.01:  End Depth 
 ENG1.           Eldar Hajiyev:  Engineer 1 
 ENG2.        Marcelo Sandoval:  Engineer 2 
 ETIM.      23.23.07 05-May-20:  End Time 
 FLOI.gpm              1200.00:  Flow In 
 FLON.gpm               900.00:  Flow In Min 
 FLOS.cptm                0.00:  Fluid Loss 
 FLOX.gpm              1200.00:  Flow In Max 
 HFLO.                      No:  High Flow 
 HPRE.                      No:  High Pressure 
 HTEM.                      No:  High Temp 
 HYDO.m                   1.80:  Hydro Offset 
 IFIN.deg                68.17:  Inc, Final 
 IMAX.deg                74.61:  Inc Max 
 IMIN.deg                68.15:  Inc Min 
 IMND.m                4317.87:  Inc Min Depth 
 IMXD.m                4714.01:  Inc Max Depth 
 LETM.      08.08.32 02-May-20:  Log End Time 
 LOST.hr                     2:  Lost Rig Time 
 LSTM.      08.08.32 28-Apr-20:  Log Start Time 
 MDCL.ppm             41000.00:  Mud Chlorides 
 MDES.     Inversion Oil/Synthetic:  Mud Desc 
 DFD .sg                  1.58:  Mud Density 
 MDMN.sg                  1.58:  Dens Mud Min 
 MDMX.sg                  1.58:  Dens Mud Max 
 MOIL.                      71:  Run Mud Oil % 
 MOWR.                   71:29:  Run Mud OWR 
 MSND.                     0.1:  Run Mud Sand % 
 MSOL.                      23:  Run Mud Solids% 
 DFV .spqt               82.00:  Mud Viscosity 
 MWOD.in                  8.00:  MWD Tool OD 
 MWSI.                     Yes:  Serv Intrp, MWD 
 OTIM.hr                125.00:  Time Operating 
 PMAX.psia             6129.00:  Press Op, Max 
 PV  .cP                 32.00:  Mud PV 
 RUN .                     800:  Run Number 
 ROPA.m/hr               30.00:  ROP Avg 
 ROPN.m/hr               10.00:  ROP Min 
 ROPX.m/hr               40.00:  ROP Max 
 RPMA.rpm               140.00:  RPM Surface Avg 
 RPMN.rpm                80.00:  RPM Surface Min 
 RPMX.rpm               140.00:  RPM Surface Max 
 RRUN.                    L503:  Rig Run Number 
 RTIM.hr                  2.00:  Time Reaming 
 SAZI.deg               184.23:  Azm, Start 
 SDEP.m                3410.01:  Start Depth 
 SIDD.                      No:  Serv Intrp, DD 
 SINC.deg                68.29:  Inc, Start 
 SPPA.psig             6000.00:  SPP Avg 
 SPPN.psig             4000.00:  SPP Min 
 SPPX.psig             6100.00:  SPP Max 
 STIM.      08.08.32 28-Apr-20:  Start Time 
 SVCS.                 DD, MWD:  Services 
 SVER.                    9.20:  Sperry Version 
 TDAT.m                1351.00:  Tot Depth Attmp 
 TDDF.                      No:  Trip for DD 
 TDLG.m                1351.00:  Tot Depth Loggd 
 TFF .                      No:  Trip for Fail 
 TQAA.f-kp               27.00:  Torque Abs Avg 
 TQAN.f-kp               20.00:  Torque Abs Min 
 TQAX.f-kp               30.00:  Torque Abs Max 
 TRRT.°/30m               0.60:  Turn Rotating 
 MRT .                    EWER:  Maximum Recorded Temperature 
 TTMX.degC               83.00:  Max Tool Temp 
 VS01.                90511138:  Virtual Str1 SN 
 VS02.                90524876:  Virtual Str2 SN 
 VS03.                90524872:  Virtual Str3 SN 
 VS04.                90502750:  Virtual Str4 SN 
 VS05.                12330984:  Virtual Str5 SN 
 WBMN.klb                 0.00:  WOB Min 
 WOBA.klb                15.00:  WOB Avg 
 WOBX.klb                20.00:  WOB Max 
 YP  .lhf2               31.00:  Yield Point 
~Curve Information Block
#MNEM.UNIT                 API CODE     Curve Description
#---------               -----------    ---------------------------
 TIME.HHMMSS            00 000 000 000:  GT Time & Date
 GTDEPTH.m              00 000 000 000:  GT Depth
 GTPQH.psia             00 000 000 000:  GT HR Quartz Pressure
 GTTQ.degC              00 000 000 000:  GT Quartz Temperature
 GTTN.NONE              00 000 000 000:  GT Test Number
 GTET.sec               00 000 000 000:  GT Elapsed Test Time
 GTTVD.m                00 000 000 000:  GT True Vertical Depth
#Other Information
#
#WARRANTY: Halliburton will use its best efforts to furnish customers with 
#accurate information and interpretations that are part of, and incident to, the services 
#provided.  However, Halliburton cannot and does not warrant the accuracy 
#or correctness of such information and interpretations.  Under no circumstances should any 
#such information or interpretation be relied upon as the sole basis for any drilling, 
#completion, production, or financial decision or any procedure involving any risk to the 
#safety of any drilling venture, drilling rig or its crew or any other third party.  The 
#Customer has full responsibility for all drilling, completion and production operation.  
#Halliburton makes no representations or warranties, either expressed or 
#implied, including, but not limited to, the implied warranties of merchantability or fitness 
#for a particular purpose, with respect to the services rendered.  In no event will 
#Halliburton be liable for failure to obtain any particular results or for 
#any damages, including, but not limited to, indirect, special or consequential damages, 
#resulting from the use of any information or interpretation provided by Halliburton.
#
~A           TIME           GTDEPTH  GTPQH  GTTQ  GTTN  GTET   GTTVD  
# ...
   19:40:01.496.03-May-2020 4608.48 4148.54 80.15 3.00  92.01 2489.14
   19:40:01.696.03-May-2020 4608.48 4148.54 80.15 3.00  92.21 2489.14
   19:40:01.896.03-May-2020 4608.48 4148.62 80.15 3.00  92.41 2489.14
   19:40:02.096.03-May-2020 4608.48 4148.48 80.15 3.00  92.61 2489.14
   19:40:02.296.03-May-2020 4608.48 4148.53 80.15 3.00  92.81 2489.14
   19:40:02.496.03-May-2020 4608.48 4148.51 80.15 3.00  93.01 2489.14
   19:40:02.696.03-May-2020 4608.48 4148.51 80.15 3.00  93.21 2489.14
   19:40:02.896.03-May-2020 4608.48 4148.57 80.14 3.00  93.41 2489.14
   19:40:03.096.03-May-2020 4608.48 4148.56 80.14 3.00  93.61 2489.14
   19:40:03.296.03-May-2020 4608.48 4148.52 80.14 3.00  93.81 2489.14
   19:40:03.496.03-May-2020 4608.48 4148.53 80.14 3.00  94.01 2489.14
   19:40:03.696.03-May-2020 4608.48 4148.53 80.14 3.00  94.21 2489.14
   19:40:03.896.03-May-2020 4608.48 4148.90 80.14 3.00  94.41 2489.14
   19:40:04.096.03-May-2020 4608.48 4148.57 80.14 3.00  94.61 2489.14
   19:40:04.296.03-May-2020 4608.48 4148.43 80.14 3.00  94.81 2489.14
   19:40:04.496.03-May-2020 4608.48 4148.44 80.14 3.00  95.01 2489.14
   19:40:04.696.03-May-2020 4608.48 4148.44 80.14 3.00  95.21 2489.14
   19:40:04.896.03-May-2020 4608.48 4148.57 80.14 3.00  95.41 2489.14
   19:40:05.096.03-May-2020 4608.48 4148.63 80.14 3.00  95.61 2489.14
   19:40:05.296.03-May-2020 4608.48 4148.58 80.14 3.00  95.81 2489.14
   19:40:05.496.03-May-2020 4608.48 4148.47 80.13 3.00  96.01 2489.14
   19:40:05.696.03-May-2020 4608.48 4148.47 80.13 3.00  96.21 2489.14
   19:40:05.896.03-May-2020 4608.48 4148.54 80.13 3.00  96.41 2489.14
   19:40:06.096.03-May-2020 4608.48 4148.57 80.13 3.00  96.61 2489.14
   19:40:06.296.03-May-2020 4608.48 4148.50 80.13 3.00  96.81 2489.14
   19:40:06.496.03-May-2020 4608.48 4148.79 80.13 3.00  97.01 2489.14
   19:40:06.696.03-May-2020 4608.48 4148.79 80.13 3.00  97.21 2489.14
   19:40:06.896.03-May-2020 4608.48 4148.84 80.13 3.00  97.41 2489.14
   19:40:07.096.03-May-2020 4608.48 4148.16 80.13 3.00  97.61 2489.14
   19:40:07.296.03-May-2020 4608.48 4148.56 80.13 3.00  97.81 2489.14
   19:40:07.496.03-May-2020 4608.48 4148.46 80.13 3.00  98.01 2489.14
   19:40:07.696.03-May-2020 4608.48 4149.15 80.13 3.00  98.21 2489.14
   19:40:07.896.03-May-2020 4608.48 4148.57 80.13 3.00  98.41 2489.14
   19:40:08.096.03-May-2020 4608.48 4148.40 80.13 3.00  98.61 2489.14
   19:40:08.296.03-May-2020 4608.48 4148.71 80.12 3.00  98.81 2489.14
   19:40:08.496.03-May-2020 4608.48 4148.21 80.12 3.00  99.01 2489.14
   19:40:08.696.03-May-2020 4608.48 4148.21 80.12 3.00  99.21 2489.14
   19:40:08.896.03-May-2020 4608.48 4148.77 80.12 3.00  99.41 2489.14
   19:40:09.096.03-May-2020 4608.48 4148.67 80.12 3.00  99.61 2489.14
   19:40:09.297.03-May-2020 4608.48 4148.79 80.12 3.00  99.81 2489.14
   19:40:09.497.03-May-2020 4608.48 4148.19 80.12 3.00 100.01 2489.14
   19:40:09.697.03-May-2020 4608.48 4148.19 80.12 3.00 100.21 2489.14
   19:40:09.897.03-May-2020 4608.48 4148.65 80.12 3.00 100.41 2489.14
   19:40:10.097.03-May-2020 4608.48 4148.64 80.12 3.00 100.61 2489.14
   19:40:10.297.03-May-2020 4608.48 4148.61 80.12 3.00 100.81 2489.14
   19:40:10.497.03-May-2020 4608.48 4148.64 80.12 3.00 101.01 2489.14
   19:40:10.697.03-May-2020 4608.48 4148.64 80.12 3.00 101.21 2489.14
   19:40:10.897.03-May-2020 4608.48 4148.56 80.11 3.00 101.41 2489.14
   19:40:11.097.03-May-2020 4608.48 4148.58 80.11 3.00 101.61 2489.14
   19:40:11.297.03-May-2020 4608.48 4148.60 80.11 3.00 101.81 2489.14
   19:40:11.497.03-May-2020 4608.48 4148.60 80.11 3.00 102.01 2489.14
   19:40:11.697.03-May-2020 4608.48 4148.55 80.11 3.00 102.21 2489.14
   19:40:11.897.03-May-2020 4608.48 4148.56 80.11 3.00 102.41 2489.14
   19:40:12.097.03-May-2020 4608.48 4148.33 80.11 3.00 102.61 2489.14
   19:40:12.297.03-May-2020 4608.48 4148.91 80.11 3.00 102.81 2489.14
   19:40:12.497.03-May-2020 4608.48 4148.68 80.11 3.00 103.01 2489.14
   19:40:12.697.03-May-2020 4608.48 4148.68 80.11 3.00 103.21 2489.14
   19:40:12.897.03-May-2020 4608.48 4148.50 80.11 3.00 103.41 2489.14
   19:40:13.097.03-May-2020 4608.48 4148.52 80.11 3.00 103.61 2489.14
   19:40:13.297.03-May-2020 4608.48 4148.61 80.11 3.00 103.81 2489.14
   19:40:13.497.03-May-2020 4608.48 4148.65 80.11 3.00 104.01 2489.14
   19:40:13.697.03-May-2020 4608.48 4148.65 80.11 3.00 104.21 2489.14
   19:40:13.897.03-May-2020 4608.48 4148.55 80.10 3.00 104.41 2489.14
   19:40:14.097.03-May-2020 4608.48 4148.53 80.10 3.00 104.61 2489.14
   19:40:14.297.03-May-2020 4608.48 4148.55 80.10 3.00 104.81 2489.14
   19:40:14.497.03-May-2020 4608.48 4148.64 80.10 3.00 105.01 2489.14
   19:40:14.697.03-May-2020 4608.48 4148.64 80.10 3.00 105.21 2489.14
   19:40:14.897.03-May-2020 4608.48 4149.00 80.10 3.00 105.41 2489.14
   19:40:15.097.03-May-2020 4608.48 4148.67 80.10 3.00 105.61 2489.14
   19:40:15.297.03-May-2020 4608.48 4148.80 80.10 3.00 105.81 2489.14
   19:40:15.497.03-May-2020 4608.48 4148.52 80.10 3.00 106.01 2489.14
   19:40:15.697.03-May-2020 4608.48 4148.43 80.10 3.00 106.21 2489.14
   19:40:15.897.03-May-2020 4608.48 4148.22 80.10 3.00 106.41 2489.14
   19:40:16.097.03-May-2020 4608.48 4149.03 80.10 3.00 106.61 2489.14
   19:40:16.297.03-May-2020 4608.48 4148.82 80.09 3.00 106.81 2489.14
   19:40:16.497.03-May-2020 4608.48 4148.57 80.09 3.00 107.01 2489.14
   19:40:16.697.03-May-2020 4608.48 4148.57 80.09 3.00 107.21 2489.14
   19:40:16.897.03-May-2020 4608.48 4148.56 80.09 3.00 107.41 2489.14
   19:40:17.097.03-May-2020 4608.48 4148.57 80.09 3.00 107.61 2489.14
   19:40:17.297.03-May-2020 4608.48 4148.76 80.09 3.00 107.81 2489.14
   19:40:17.497.03-May-2020 4608.48 4148.66 80.09 3.00 108.01 2489.14
   19:40:17.697.03-May-2020 4608.48 4148.66 80.09 3.00 108.21 2489.14
   19:40:17.897.03-May-2020 4608.48 4148.49 80.09 3.00 108.41 2489.14
   19:40:18.097.03-May-2020 4608.48 4148.49 80.09 3.00 108.61 2489.14
   19:40:18.297.03-May-2020 4608.48 4148.56 80.09 3.00 108.81 2489.14
   19:40:18.498.03-May-2020 4608.48 4148.66 80.09 3.00 109.01 2489.14
   19:40:18.698.03-May-2020 4608.48 4148.66 80.09 3.00 109.21 2489.14
   19:40:18.898.03-May-2020 4608.48 4148.65 80.08 3.00 109.41 2489.14
   19:40:19.098.03-May-2020 4608.48 4148.59 80.08 3.00 109.61 2489.14
   19:40:19.298.03-May-2020 4608.48 4148.57 80.08 3.00 109.81 2489.14
   19:40:19.498.03-May-2020 4608.48 4148.63 80.08 3.00 110.01 2489.14
   19:40:19.698.03-May-2020 4608.48 4148.65 80.08 3.00 110.21 2489.14
   19:40:19.898.03-May-2020 4608.48 4148.62 80.08 3.00 110.41 2489.14
   19:40:20.098.03-May-2020 4608.48 4148.59 80.08 3.00 110.61 2489.14
   19:40:20.298.03-May-2020 4608.48 4148.92 80.08 3.00 110.81 2489.14
   19:40:20.498.03-May-2020 4608.48 4148.26 80.08 3.00 111.01 2489.14
   19:40:20.698.03-May-2020 4608.48 4148.26 80.08 3.00 111.21 2489.14
   19:40:20.898.03-May-2020 4608.48 4148.76 80.08 3.00 111.41 2489.14
   19:40:21.098.03-May-2020 4608.48 4148.68 80.08 3.00 111.61 2489.14
   19:40:21.298.03-May-2020 4608.48 4148.51 80.08 3.00 111.81 2489.14
   19:40:21.498.03-May-2020 4608.48 4148.58 80.07 3.00 112.01 2489.14
   19:40:21.698.03-May-2020 4608.48 4148.58 80.07 3.00 112.21 2489.14
   19:40:21.898.03-May-2020 4608.48 4148.67 80.07 3.00 112.41 2489.14
   19:40:22.098.03-May-2020 4608.48 4148.65 80.07 3.00 112.61 2489.14
   19:40:22.298.03-May-2020 4608.48 4148.58 80.07 3.00 112.81 2489.14
   19:40:22.498.03-May-2020 4608.48 4148.58 80.07 3.00 113.01 2489.14
   19:40:22.698.03-May-2020 4608.48 4148.58 80.07 3.00 113.21 2489.14
   19:40:22.898.03-May-2020 4608.48 4148.88 80.07 3.00 113.41 2489.14
   19:40:23.098.03-May-2020 4608.48 4148.26 80.07 3.00 113.61 2489.14
   19:40:23.298.03-May-2020 4608.48 4148.69 80.07 3.00 113.81 2489.14
   19:40:23.498.03-May-2020 4608.48 4148.35 80.07 3.00 114.01 2489.14
   19:40:23.698.03-May-2020 4608.48 4148.35 80.07 3.00 114.21 2489.14
   19:40:23.898.03-May-2020 4608.48 4148.68 80.07 3.00 114.41 2489.14
   19:40:24.098.03-May-2020 4608.48 4148.86 80.07 3.00 114.61 2489.14
   19:40:24.298.03-May-2020 4608.48 4148.10 80.06 3.00 114.81 2489.14
