~Version Information
 VERS.                  2.0:   CWLS log ASCII Standard -VERSION 2.0
 WRAP.                   NO:   One line per depth step
~Well Information Block
#MNEM.UNIT     VALUE/NAME     DESCRIPTION
#---------     -----------    ---------------------------
 STRT.S             13:13:41 03-May-20: START TIME 13:13:41 03-May-20
 STOP.S             13:20:16 03-May-20: STOP TIME  13:20:16 03-May-20
 STEP.S                   0.00: STEP TIME
 NULL.                 -999.25: NULL VALUE
 DFWT.                        :  DIST FWL TEXT
 DFST.                        :  DIST FSL TEXT
 DMF .             Drill Floor:  DRILL MEAS FROM
 STIM.      03.00.00 25-Mar-20:  START TIME
 DATE.      00.00.00 19-May-20:  END TIME
 SPUD.               27-Aug-20:  SPUD DATE
 NREF.                    Grid:  NORTH REFERENCE
 HPTY.       Minimum Curvature:  HOLE POS TYPE
 DMOD.             Drill Model:  DRILL MOD DESC
 SVYD.                  Survey:  SURVEY DESC
 ILTD.               Lithology:  INTERP LTH DESC
 FTOP.          Formation Tops:  FORM TOPS DESC
 SON .        AZ-XX-0906252240:  JOB NUMBER
 RIG .             West Chirag:  RIG NAME
 PDAT.          Mean Sea Level:  PERMANENT DATUM
 FLD .                     ACG:  FIELD NAME
 CTRY.              Azerbaijan:  COUNTRY NAME
 WELL.                     J23:  WELL NAME
 SRVC.          Turan Drilling:  CONTRACTOR
 COMP.     BP Exploration (Caspian Sea) Ltd.:  COMPANY
 WTYP.                Deviated:  WELL TYPE
 MDS .        Operator Entered:  MAG DATA SOURCE
 UWI .                     N/A:  UNIQUE WELL IDENTIFIER
 API .                     N/A:  API NUMBER
 BASE.              Azerbaijan:  LOGGING EQUIPMENT BASE LOCATION
 REGN.                   EESSA:  REGION
 PROV.                    Baku:  PROVINCE
 STAT.                    Baku:  STATE NAME
 MWDS.                     N/A:  MWD SHOP
 JOBN.        AZ-XX-0906252240:  JOB TICKET NUMB
 DOE .                     N/A:  DOE NUMBER
 DCON.         Sperry Drilling:  DIRECTNL CONTR
 UNIT.                     N/A:  LOGGING EQUIPMENT ID
 CNTY.                        :  COUNTY
 LOC .                        :  LOCATION
 LMF .             Drill Floor:  LOG MEASURED FROM
 TVDS.m                  43.00:  TVDSS CORRECTN
 LATI.deg                40.13:  LATITUDE
 LONG.deg                51.22:  LONGITUDE
 WHNS.m                   9.43:  WELL HEAD N/S
 WHEW.m                  -8.91:  WELL HEAD E/W
 UTMX.m              519005.06:  UTM X
 UTMY.m             4443793.85:  UTM Y
 DFWL.m                   0.00:  DISTANCE FWL
 DFSL.m                   0.00:  DISTANCE FSL
 SDEP.m                 363.00:  START DEPTH
 TDD .m                5150.01:  TOTAL DEPTH (DRILLER)
 VSDR.deg               179.88:  VERT SEC DIRECT
 GVFD.g                   1.00:  GRAVITY FIELD
 MFLD.nT              50295.00:  MAGNETIC FIELD
 MDIP.deg                59.56:  MAGNETIC DIP
 MDEC.deg                 6.45:  MAGNETIC DECL
 GRDC.deg                 0.14:  GRID CORRECTION
 AZTC.deg                 6.31:  AZM TOTAL CORR
 EPD .m                   0.00:  ELEVATION
 EGL .m                   0.00:  GROUND ELEVATION
 WDMS.m                 169.80:  WD ELEV
 APD .m                  43.00:  DEPTH ABOVE PD
 DEP .m                 354.17:  DEPTH
 AGAP.m                  43.00:  AIR GAP
 VSEW.m                  -8.91:  VERT SEC E/W
 VSNS.m                   9.43:  VERT SEC N/S
 EKB .m                   0.00:  KB ELEVATION
 EDF .m                  43.00:  DF ELEVATION
 TDL .m                1351.00:  TOTAL DEPTH (LOGGER)
 VSC .                       0:  VS TO CLOSURE
 MAGU.                 1850802:  MAGUTM CHECKSUM
~Parameter Information Block
#MNEM.UNIT       Value        Description
#---------     -----------    ---------------------------
 AV  .mps                 1.00:  Ann Velocity 
 AVMX.mps                 2.40:  Max Ann Veloc 
 AZIF.deg               148.96:  Azm, Final 
 BHAT.        Rotary Steerable:  BHA Type 
 BROT.°/30m               0.04:  Build Rotating 
 BS  .in                 12.25:  Bit Size 
 BSZ .in                 12.25:  Bit Size 
 BTPL.psig              814.00:  Bit Press Loss 
 TCS .hr                106.00:  Time Ciculation Ended 
 CV  .mps                 2.47:  Crit Velocity 
 CVMX.mps                 2.64:  Max Crit Veloc 
 DD1 .          Rashad Habibov:  Direct Drillr 1 
 DD2 .         Rasim Ibrahimov:  Direct Drillr 2 
 DDSV.                 iCruise:  DD Service 
 DEFF.%                 100.00:  % Det Eff 
 DLRX.°/30m               0.70:  Dogleg Rot Max 
 DLSO.°/30m               3.00:  Dogleg Oriented 
 DLSX.°/30m               4.55:  Dogleg Str Max 
 DRET.      08.08.32 02-May-20:  Drill End Time 
 DRST.      08.08.32 28-Apr-20:  Drill Start Tim 
 DTIM.hr                 60.00:  Time Drilling 
 EDEP.m                4761.01:  End Depth 
 ENG1.           Eldar Hajiyev:  Engineer 1 
 ENG2.        Marcelo Sandoval:  Engineer 2 
 ETIM.      23.23.07 05-May-20:  End Time 
 FLOI.gpm              1200.00:  Flow In 
 FLON.gpm               900.00:  Flow In Min 
 FLOS.cptm                0.00:  Fluid Loss 
 FLOX.gpm              1200.00:  Flow In Max 
 HFLO.                      No:  High Flow 
 HPRE.                      No:  High Pressure 
 HTEM.                      No:  High Temp 
 HYDO.m                   1.80:  Hydro Offset 
 IFIN.deg                68.17:  Inc, Final 
 IMAX.deg                74.61:  Inc Max 
 IMIN.deg                68.15:  Inc Min 
 IMND.m                4317.87:  Inc Min Depth 
 IMXD.m                4714.01:  Inc Max Depth 
 LETM.      08.08.32 02-May-20:  Log End Time 
 LOST.hr                     2:  Lost Rig Time 
 LSTM.      08.08.32 28-Apr-20:  Log Start Time 
 MDCL.ppm             41000.00:  Mud Chlorides 
 MDES.     Inversion Oil/Synthetic:  Mud Desc 
 DFD .sg                  1.58:  Mud Density 
 MDMN.sg                  1.58:  Dens Mud Min 
 MDMX.sg                  1.58:  Dens Mud Max 
 MOIL.                      71:  Run Mud Oil % 
 MOWR.                   71:29:  Run Mud OWR 
 MSND.                     0.1:  Run Mud Sand % 
 MSOL.                      23:  Run Mud Solids% 
 DFV .spqt               82.00:  Mud Viscosity 
 MWOD.in                  8.00:  MWD Tool OD 
 MWSI.                     Yes:  Serv Intrp, MWD 
 OTIM.hr                125.00:  Time Operating 
 PMAX.psia             6129.00:  Press Op, Max 
 PV  .cP                 32.00:  Mud PV 
 RUN .                     800:  Run Number 
 ROPA.m/hr               30.00:  ROP Avg 
 ROPN.m/hr               10.00:  ROP Min 
 ROPX.m/hr               40.00:  ROP Max 
 RPMA.rpm               140.00:  RPM Surface Avg 
 RPMN.rpm                80.00:  RPM Surface Min 
 RPMX.rpm               140.00:  RPM Surface Max 
 RRUN.                    L503:  Rig Run Number 
 RTIM.hr                  2.00:  Time Reaming 
 SAZI.deg               184.23:  Azm, Start 
 SDEP.m                3410.01:  Start Depth 
 SIDD.                      No:  Serv Intrp, DD 
 SINC.deg                68.29:  Inc, Start 
 SPPA.psig             6000.00:  SPP Avg 
 SPPN.psig             4000.00:  SPP Min 
 SPPX.psig             6100.00:  SPP Max 
 STIM.      08.08.32 28-Apr-20:  Start Time 
 SVCS.                 DD, MWD:  Services 
 SVER.                    9.20:  Sperry Version 
 TDAT.m                1351.00:  Tot Depth Attmp 
 TDDF.                      No:  Trip for DD 
 TDLG.m                1351.00:  Tot Depth Loggd 
 TFF .                      No:  Trip for Fail 
 TQAA.f-kp               27.00:  Torque Abs Avg 
 TQAN.f-kp               20.00:  Torque Abs Min 
 TQAX.f-kp               30.00:  Torque Abs Max 
 TRRT.°/30m               0.60:  Turn Rotating 
 MRT .                    EWER:  Maximum Recorded Temperature 
 TTMX.degC               83.00:  Max Tool Temp 
 VS01.                90511138:  Virtual Str1 SN 
 VS02.                90524876:  Virtual Str2 SN 
 VS03.                90524872:  Virtual Str3 SN 
 VS04.                90502750:  Virtual Str4 SN 
 VS05.                12330984:  Virtual Str5 SN 
 WBMN.klb                 0.00:  WOB Min 
 WOBA.klb                15.00:  WOB Avg 
 WOBX.klb                20.00:  WOB Max 
 YP  .lhf2               31.00:  Yield Point 
~Curve Information Block
#MNEM.UNIT                 API CODE     Curve Description
#---------               -----------    ---------------------------
 TIME.HHMMSS            00 000 000 000:  GT Time & Date
 GTDEPTH.m              00 000 000 000:  GT Depth
 GTPQH.psia             00 000 000 000:  GT HR Quartz Pressure
 GTTQ.degC              00 000 000 000:  GT Quartz Temperature
 GTTN.NONE              00 000 000 000:  GT Test Number
 GTET.sec               00 000 000 000:  GT Elapsed Test Time
 GTTVD.m                00 000 000 000:  GT True Vertical Depth
#Other Information
#
#WARRANTY: Halliburton will use its best efforts to furnish customers with 
#accurate information and interpretations that are part of, and incident to, the services 
#provided.  However, Halliburton cannot and does not warrant the accuracy 
#or correctness of such information and interpretations.  Under no circumstances should any 
#such information or interpretation be relied upon as the sole basis for any drilling, 
#completion, production, or financial decision or any procedure involving any risk to the 
#safety of any drilling venture, drilling rig or its crew or any other third party.  The 
#Customer has full responsibility for all drilling, completion and production operation.  
#Halliburton makes no representations or warranties, either expressed or 
#implied, including, but not limited to, the implied warranties of merchantability or fitness 
#for a particular purpose, with respect to the services rendered.  In no event will 
#Halliburton be liable for failure to obtain any particular results or for 
#any damages, including, but not limited to, indirect, special or consequential damages, 
#resulting from the use of any information or interpretation provided by Halliburton.
#
~A           TIME           GTDEPTH  GTPQH  GTTQ  GTTN  GTET   GTTVD  
# ...
   13:14:04.447.03-May-2020 4532.80 5713.84 80.73 1.00  23.04 2465.99
   13:14:04.647.03-May-2020 4532.80 5713.84 80.73 1.00  23.24 2465.99
   13:14:04.847.03-May-2020 4532.80 5718.16 80.73 1.00  23.44 2465.99
   13:14:05.048.03-May-2020 4532.80 5714.02 80.73 1.00  23.64 2465.99
   13:14:05.248.03-May-2020 4532.80 5714.42 80.73 1.00  23.84 2465.99
   13:14:05.448.03-May-2020 4532.80 5715.25 80.73 1.00  24.04 2465.99
   13:14:05.649.03-May-2020 4532.80 5715.25 80.73 1.00  24.24 2465.99
   13:14:05.849.03-May-2020 4532.80 5716.54 80.73 1.00  24.44 2465.99
   13:14:06.049.03-May-2020 4532.80 5715.35 80.73 1.00  24.64 2465.99
   13:14:06.250.03-May-2020 4532.80 5714.80 80.73 1.00  24.84 2465.99
   13:14:06.450.03-May-2020 4532.80 5714.75 80.73 1.00  25.04 2465.99
   13:14:06.650.03-May-2020 4532.80 5714.75 80.73 1.00  25.24 2465.99
   13:14:06.851.03-May-2020 4532.80 5714.96 80.72 1.00  25.44 2465.99
   13:14:07.051.03-May-2020 4532.80 5715.20 80.72 1.00  25.64 2465.99
   13:14:07.251.03-May-2020 4532.80 5714.82 80.72 1.00  25.84 2465.99
   13:14:07.451.03-May-2020 4532.80 5715.81 80.72 1.00  26.04 2465.99
   13:14:07.652.03-May-2020 4532.80 5716.37 80.72 1.00  26.24 2465.99
   13:14:07.852.03-May-2020 4532.80 5715.62 80.72 1.00  26.44 2465.99
   13:14:08.052.03-May-2020 4532.80 5715.92 80.72 1.00  26.64 2465.99
   13:14:08.253.03-May-2020 4532.80 5716.23 80.72 1.00  26.84 2465.99
   13:14:08.453.03-May-2020 4532.80 5720.98 80.72 1.00  27.04 2465.99
   13:14:08.653.03-May-2020 4532.80 5720.98 80.72 1.00  27.24 2465.99
   13:14:08.854.03-May-2020 4532.80 5716.64 80.72 1.00  27.44 2465.99
   13:14:09.054.03-May-2020 4532.80 5716.94 80.72 1.00  27.64 2465.99
   13:14:09.254.03-May-2020 4532.80 5716.45 80.72 1.00  27.84 2465.99
   13:14:09.455.03-May-2020 4532.80 5718.00 80.72 1.00  28.04 2465.99
   13:14:09.655.03-May-2020 4532.80 5718.00 80.72 1.00  28.24 2465.99
   13:14:09.855.03-May-2020 4532.80 5716.94 80.71 1.00  28.44 2465.99
   13:14:10.056.03-May-2020 4532.80 5716.90 80.71 1.00  28.65 2465.99
   13:14:10.256.03-May-2020 4532.80 5716.93 80.71 1.00  28.85 2465.99
   13:14:10.456.03-May-2020 4532.80 5718.23 80.71 1.00  29.05 2465.99
   13:14:10.657.03-May-2020 4532.80 5718.23 80.71 1.00  29.25 2465.99
   13:14:10.857.03-May-2020 4532.80 5718.68 80.71 1.00  29.45 2465.99
   13:14:11.057.03-May-2020 4532.80 5719.14 80.71 1.00  29.65 2465.99
   13:14:11.257.03-May-2020 4532.80 5724.30 80.71 1.00  29.85 2465.99
   13:14:11.458.03-May-2020 4532.80 5722.92 80.71 1.00  30.05 2465.99
   13:14:11.658.03-May-2020 4532.80 5722.91 80.71 1.00  30.25 2465.99
   13:14:11.858.03-May-2020 4532.80 5721.77 80.71 1.00  30.45 2465.99
   13:14:12.059.03-May-2020 4532.80 5719.14 80.71 1.00  30.65 2465.99
   13:14:12.259.03-May-2020 4532.80 5723.32 80.71 1.00  30.85 2465.99
   13:14:12.459.03-May-2020 4532.80 5718.73 80.71 1.00  31.05 2465.99
   13:14:12.660.03-May-2020 4532.80 5718.73 80.71 1.00  31.25 2465.99
   13:14:12.860.03-May-2020 4532.80 5716.08 80.71 1.00  31.45 2465.99
   13:14:13.060.03-May-2020 4532.80 5716.36 80.70 1.00  31.65 2465.99
   13:14:13.261.03-May-2020 4532.80 5721.68 80.70 1.00  31.85 2465.99
   13:14:13.461.03-May-2020 4532.80 5716.75 80.70 1.00  32.05 2465.99
   13:14:13.661.03-May-2020 4532.80 5716.75 80.70 1.00  32.25 2465.99
   13:14:13.862.03-May-2020 4532.80 5716.76 80.70 1.00  32.45 2465.99
   13:14:14.062.03-May-2020 4532.80 5717.52 80.70 1.00  32.65 2465.99
   13:14:14.262.03-May-2020 4532.80 5718.21 80.70 1.00  32.85 2465.99
   13:14:14.462.03-May-2020 4532.80 5723.41 80.70 1.00  33.05 2465.99
   13:14:14.663.03-May-2020 4532.80 5723.41 80.70 1.00  33.25 2465.99
   13:14:14.863.03-May-2020 4532.80 5717.10 80.70 1.00  33.45 2465.99
   13:14:15.063.03-May-2020 4532.80 5717.69 80.70 1.00  33.65 2465.99
   13:14:15.264.03-May-2020 4532.80 5718.31 80.70 1.00  33.85 2465.99
   13:14:15.464.03-May-2020 4532.80 5715.91 80.70 1.00  34.05 2465.99
   13:14:15.664.03-May-2020 4532.80 5715.91 80.70 1.00  34.25 2465.99
   13:14:15.865.03-May-2020 4532.80 5716.29 80.70 1.00  34.45 2465.99
   13:14:16.065.03-May-2020 4532.80 5717.22 80.70 1.00  34.65 2465.99
   13:14:16.265.03-May-2020 4532.80 5718.63 80.69 1.00  34.85 2465.99
   13:14:16.466.03-May-2020 4532.80 5716.99 80.69 1.00  35.06 2465.99
   13:14:16.666.03-May-2020 4532.80 5716.99 80.69 1.00  35.26 2465.99
   13:14:16.866.03-May-2020 4532.80 5717.02 80.69 1.00  35.46 2465.99
   13:14:17.067.03-May-2020 4532.80 5718.40 80.69 1.00  35.66 2465.99
   13:14:17.267.03-May-2020 4532.80 5723.76 80.69 1.00  35.86 2465.99
   13:14:17.467.03-May-2020 4532.80 5718.55 80.69 1.00  36.06 2465.99
   13:14:17.668.03-May-2020 4532.80 5718.55 80.69 1.00  36.26 2465.99
   13:14:17.868.03-May-2020 4532.80 5717.19 80.69 1.00  36.46 2465.99
   13:14:18.068.03-May-2020 4532.80 5718.09 80.69 1.00  36.66 2465.99
   13:14:18.268.03-May-2020 4532.80 5715.97 80.69 1.00  36.86 2465.99
   13:14:18.469.03-May-2020 4532.80 5715.91 80.69 1.00  37.06 2465.99
   13:14:18.669.03-May-2020 4532.80 5715.91 80.69 1.00  37.26 2465.99
   13:14:18.869.03-May-2020 4532.80 5715.92 80.69 1.00  37.46 2465.99
   13:14:19.070.03-May-2020 4532.80 5716.32 80.69 1.00  37.66 2465.99
   13:14:19.270.03-May-2020 4532.80 5716.21 80.69 1.00  37.86 2465.99
   13:14:19.470.03-May-2020 4532.80 5716.19 80.68 1.00  38.06 2465.99
   13:14:19.671.03-May-2020 4532.80 5716.57 80.68 1.00  38.26 2465.99
   13:14:19.871.03-May-2020 4532.80 5721.31 80.68 1.00  38.46 2465.99
   13:14:20.071.03-May-2020 4532.80 5689.29 80.68 1.00  38.66 2465.99
   13:14:20.272.03-May-2020 4532.80 5778.45 80.68 1.00  38.86 2465.99
   13:14:20.472.03-May-2020 4532.80 5850.24 80.68 1.00  39.06 2465.99
   13:14:20.672.03-May-2020 4532.80 5850.24 80.68 1.00  39.26 2465.99
   13:14:20.873.03-May-2020 4532.80 5883.08 80.68 1.00  39.46 2465.99
   13:14:21.073.03-May-2020 4532.80 5831.24 80.68 1.00  39.66 2465.99
   13:14:21.273.03-May-2020 4532.80 5806.30 80.68 1.00  39.86 2465.99
   13:14:21.474.03-May-2020 4532.80 5794.37 80.68 1.00  40.06 2465.99
   13:14:21.674.03-May-2020 4532.80 5794.37 80.68 1.00  40.26 2465.99
   13:14:21.874.03-May-2020 4532.80 5791.01 80.68 1.00  40.46 2465.99
   13:14:22.074.03-May-2020 4532.80 5783.21 80.68 1.00  40.66 2465.99
   13:14:22.275.03-May-2020 4532.80 5776.64 80.68 1.00  40.86 2465.99
   13:14:22.475.03-May-2020 4532.80 5772.65 80.68 1.00  41.06 2465.99
   13:14:22.675.03-May-2020 4532.80 5772.65 80.68 1.00  41.26 2465.99
   13:14:22.876.03-May-2020 4532.80 5781.58 80.67 1.00  41.47 2465.99
   13:14:23.076.03-May-2020 4532.80 5776.90 80.67 1.00  41.67 2465.99
   13:14:23.276.03-May-2020 4532.80 5782.63 80.67 1.00  41.87 2465.99
   13:14:23.477.03-May-2020 4532.80 5780.74 80.67 1.00  42.07 2465.99
   13:14:23.677.03-May-2020 4532.80 5779.47 80.67 1.00  42.27 2465.99
   13:14:23.877.03-May-2020 4532.80 5777.39 80.67 1.00  42.47 2465.99
   13:14:24.078.03-May-2020 4532.80 5784.16 80.67 1.00  42.67 2465.99
   13:14:24.278.03-May-2020 4532.80 5780.70 80.67 1.00  42.87 2465.99
   13:14:24.478.03-May-2020 4532.80 5780.52 80.67 1.00  43.07 2465.99
   13:14:24.679.03-May-2020 4532.80 5780.52 80.67 1.00  43.27 2465.99
   13:14:24.879.03-May-2020 4532.80 5779.72 80.67 1.00  43.47 2465.99
   13:14:25.079.03-May-2020 4532.80 5778.61 80.67 1.00  43.67 2465.99
   13:14:25.280.03-May-2020 4532.80 5778.58 80.67 1.00  43.87 2465.99
   13:14:25.480.03-May-2020 4532.80 5778.70 80.67 1.00  44.07 2465.99
   13:14:25.680.03-May-2020 4532.80 5778.70 80.67 1.00  44.27 2465.99
   13:14:25.880.03-May-2020 4532.80 5778.07 80.67 1.00  44.47 2465.99
   13:14:26.081.03-May-2020 4532.80 5777.55 80.67 1.00  44.67 2465.99
   13:14:26.281.03-May-2020 4532.80 5777.07 80.67 1.00  44.87 2465.99
   13:14:26.481.03-May-2020 4532.80 5776.29 80.66 1.00  45.07 2465.99
   13:14:26.682.03-May-2020 4532.80 5776.29 80.66 1.00  45.27 2465.99
   13:14:26.882.03-May-2020 4532.80 5785.61 80.66 1.00  45.47 2465.99
   13:14:27.082.03-May-2020 4532.80 5783.13 80.66 1.00  45.67 2465.99
   13:14:27.283.03-May-2020 4532.80 5781.65 80.66 1.00  45.87 2465.99
