~Version Information
 VERS.                  2.0:   CWLS log ASCII Standard -VERSION 2.0
 WRAP.                   NO:   One line per depth step
~Well Information Block
#MNEM.UNIT     VALUE/NAME     DESCRIPTION
#---------     -----------    ---------------------------
 STRT.S             15:01:40 03-May-20: START TIME 15:01:40 03-May-20
 STOP.S             15:08:15 03-May-20: STOP TIME  15:08:15 03-May-20
 STEP.S                   0.00: STEP TIME
 NULL.                 -999.25: NULL VALUE
 DFWT.                        :  DIST FWL TEXT
 DFST.                        :  DIST FSL TEXT
 DMF .             Drill Floor:  DRILL MEAS FROM
 STIM.      03.00.00 25-Mar-20:  START TIME
 DATE.      00.00.00 19-May-20:  END TIME
 SPUD.               27-Aug-20:  SPUD DATE
 NREF.                    Grid:  NORTH REFERENCE
 HPTY.       Minimum Curvature:  HOLE POS TYPE
 DMOD.             Drill Model:  DRILL MOD DESC
 SVYD.                  Survey:  SURVEY DESC
 ILTD.               Lithology:  INTERP LTH DESC
 FTOP.          Formation Tops:  FORM TOPS DESC
 SON .        AZ-XX-0906252240:  JOB NUMBER
 RIG .             West Chirag:  RIG NAME
 PDAT.          Mean Sea Level:  PERMANENT DATUM
 FLD .                     ACG:  FIELD NAME
 CTRY.              Azerbaijan:  COUNTRY NAME
 WELL.                     J23:  WELL NAME
 SRVC.          Turan Drilling:  CONTRACTOR
 COMP.     BP Exploration (Caspian Sea) Ltd.:  COMPANY
 WTYP.                Deviated:  WELL TYPE
 MDS .        Operator Entered:  MAG DATA SOURCE
 UWI .                     N/A:  UNIQUE WELL IDENTIFIER
 API .                     N/A:  API NUMBER
 BASE.              Azerbaijan:  LOGGING EQUIPMENT BASE LOCATION
 REGN.                   EESSA:  REGION
 PROV.                    Baku:  PROVINCE
 STAT.                    Baku:  STATE NAME
 MWDS.                     N/A:  MWD SHOP
 JOBN.        AZ-XX-0906252240:  JOB TICKET NUMB
 DOE .                     N/A:  DOE NUMBER
 DCON.         Sperry Drilling:  DIRECTNL CONTR
 UNIT.                     N/A:  LOGGING EQUIPMENT ID
 CNTY.                        :  COUNTY
 LOC .                        :  LOCATION
 LMF .             Drill Floor:  LOG MEASURED FROM
 TVDS.m                  43.00:  TVDSS CORRECTN
 LATI.deg                40.13:  LATITUDE
 LONG.deg                51.22:  LONGITUDE
 WHNS.m                   9.43:  WELL HEAD N/S
 WHEW.m                  -8.91:  WELL HEAD E/W
 UTMX.m              519005.06:  UTM X
 UTMY.m             4443793.85:  UTM Y
 DFWL.m                   0.00:  DISTANCE FWL
 DFSL.m                   0.00:  DISTANCE FSL
 SDEP.m                 363.00:  START DEPTH
 TDD .m                5150.01:  TOTAL DEPTH (DRILLER)
 VSDR.deg               179.88:  VERT SEC DIRECT
 GVFD.g                   1.00:  GRAVITY FIELD
 MFLD.nT              50295.00:  MAGNETIC FIELD
 MDIP.deg                59.56:  MAGNETIC DIP
 MDEC.deg                 6.45:  MAGNETIC DECL
 GRDC.deg                 0.14:  GRID CORRECTION
 AZTC.deg                 6.31:  AZM TOTAL CORR
 EPD .m                   0.00:  ELEVATION
 EGL .m                   0.00:  GROUND ELEVATION
 WDMS.m                 169.80:  WD ELEV
 APD .m                  43.00:  DEPTH ABOVE PD
 DEP .m                 354.17:  DEPTH
 AGAP.m                  43.00:  AIR GAP
 VSEW.m                  -8.91:  VERT SEC E/W
 VSNS.m                   9.43:  VERT SEC N/S
 EKB .m                   0.00:  KB ELEVATION
 EDF .m                  43.00:  DF ELEVATION
 TDL .m                1351.00:  TOTAL DEPTH (LOGGER)
 VSC .                       0:  VS TO CLOSURE
 MAGU.                 1850802:  MAGUTM CHECKSUM
~Parameter Information Block
#MNEM.UNIT       Value        Description
#---------     -----------    ---------------------------
 AV  .mps                 1.00:  Ann Velocity 
 AVMX.mps                 2.40:  Max Ann Veloc 
 AZIF.deg               148.96:  Azm, Final 
 BHAT.        Rotary Steerable:  BHA Type 
 BROT.°/30m               0.04:  Build Rotating 
 BS  .in                 12.25:  Bit Size 
 BSZ .in                 12.25:  Bit Size 
 BTPL.psig              814.00:  Bit Press Loss 
 TCS .hr                106.00:  Time Ciculation Ended 
 CV  .mps                 2.47:  Crit Velocity 
 CVMX.mps                 2.64:  Max Crit Veloc 
 DD1 .          Rashad Habibov:  Direct Drillr 1 
 DD2 .         Rasim Ibrahimov:  Direct Drillr 2 
 DDSV.                 iCruise:  DD Service 
 DEFF.%                 100.00:  % Det Eff 
 DLRX.°/30m               0.70:  Dogleg Rot Max 
 DLSO.°/30m               3.00:  Dogleg Oriented 
 DLSX.°/30m               4.55:  Dogleg Str Max 
 DRET.      08.08.32 02-May-20:  Drill End Time 
 DRST.      08.08.32 28-Apr-20:  Drill Start Tim 
 DTIM.hr                 60.00:  Time Drilling 
 EDEP.m                4761.01:  End Depth 
 ENG1.           Eldar Hajiyev:  Engineer 1 
 ENG2.        Marcelo Sandoval:  Engineer 2 
 ETIM.      23.23.07 05-May-20:  End Time 
 FLOI.gpm              1200.00:  Flow In 
 FLON.gpm               900.00:  Flow In Min 
 FLOS.cptm                0.00:  Fluid Loss 
 FLOX.gpm              1200.00:  Flow In Max 
 HFLO.                      No:  High Flow 
 HPRE.                      No:  High Pressure 
 HTEM.                      No:  High Temp 
 HYDO.m                   1.80:  Hydro Offset 
 IFIN.deg                68.17:  Inc, Final 
 IMAX.deg                74.61:  Inc Max 
 IMIN.deg                68.15:  Inc Min 
 IMND.m                4317.87:  Inc Min Depth 
 IMXD.m                4714.01:  Inc Max Depth 
 LETM.      08.08.32 02-May-20:  Log End Time 
 LOST.hr                     2:  Lost Rig Time 
 LSTM.      08.08.32 28-Apr-20:  Log Start Time 
 MDCL.ppm             41000.00:  Mud Chlorides 
 MDES.     Inversion Oil/Synthetic:  Mud Desc 
 DFD .sg                  1.58:  Mud Density 
 MDMN.sg                  1.58:  Dens Mud Min 
 MDMX.sg                  1.58:  Dens Mud Max 
 MOIL.                      71:  Run Mud Oil % 
 MOWR.                   71:29:  Run Mud OWR 
 MSND.                     0.1:  Run Mud Sand % 
 MSOL.                      23:  Run Mud Solids% 
 DFV .spqt               82.00:  Mud Viscosity 
 MWOD.in                  8.00:  MWD Tool OD 
 MWSI.                     Yes:  Serv Intrp, MWD 
 OTIM.hr                125.00:  Time Operating 
 PMAX.psia             6129.00:  Press Op, Max 
 PV  .cP                 32.00:  Mud PV 
 RUN .                     800:  Run Number 
 ROPA.m/hr               30.00:  ROP Avg 
 ROPN.m/hr               10.00:  ROP Min 
 ROPX.m/hr               40.00:  ROP Max 
 RPMA.rpm               140.00:  RPM Surface Avg 
 RPMN.rpm                80.00:  RPM Surface Min 
 RPMX.rpm               140.00:  RPM Surface Max 
 RRUN.                    L503:  Rig Run Number 
 RTIM.hr                  2.00:  Time Reaming 
 SAZI.deg               184.23:  Azm, Start 
 SDEP.m                3410.01:  Start Depth 
 SIDD.                      No:  Serv Intrp, DD 
 SINC.deg                68.29:  Inc, Start 
 SPPA.psig             6000.00:  SPP Avg 
 SPPN.psig             4000.00:  SPP Min 
 SPPX.psig             6100.00:  SPP Max 
 STIM.      08.08.32 28-Apr-20:  Start Time 
 SVCS.                 DD, MWD:  Services 
 SVER.                    9.20:  Sperry Version 
 TDAT.m                1351.00:  Tot Depth Attmp 
 TDDF.                      No:  Trip for DD 
 TDLG.m                1351.00:  Tot Depth Loggd 
 TFF .                      No:  Trip for Fail 
 TQAA.f-kp               27.00:  Torque Abs Avg 
 TQAN.f-kp               20.00:  Torque Abs Min 
 TQAX.f-kp               30.00:  Torque Abs Max 
 TRRT.°/30m               0.60:  Turn Rotating 
 MRT .                    EWER:  Maximum Recorded Temperature 
 TTMX.degC               83.00:  Max Tool Temp 
 VS01.                90511138:  Virtual Str1 SN 
 VS02.                90524876:  Virtual Str2 SN 
 VS03.                90524872:  Virtual Str3 SN 
 VS04.                90502750:  Virtual Str4 SN 
 VS05.                12330984:  Virtual Str5 SN 
 WBMN.klb                 0.00:  WOB Min 
 WOBA.klb                15.00:  WOB Avg 
 WOBX.klb                20.00:  WOB Max 
 YP  .lhf2               31.00:  Yield Point 
~Curve Information Block
#MNEM.UNIT                 API CODE     Curve Description
#---------               -----------    ---------------------------
 TIME.HHMMSS            00 000 000 000:  GT Time & Date
 GTDEPTH.m              00 000 000 000:  GT Depth
 GTPQH.psia             00 000 000 000:  GT HR Quartz Pressure
 GTTQ.degC              00 000 000 000:  GT Quartz Temperature
 GTTN.NONE              00 000 000 000:  GT Test Number
 GTET.sec               00 000 000 000:  GT Elapsed Test Time
 GTTVD.m                00 000 000 000:  GT True Vertical Depth
#Other Information
#
#WARRANTY: Halliburton will use its best efforts to furnish customers with 
#accurate information and interpretations that are part of, and incident to, the services 
#provided.  However, Halliburton cannot and does not warrant the accuracy 
#or correctness of such information and interpretations.  Under no circumstances should any 
#such information or interpretation be relied upon as the sole basis for any drilling, 
#completion, production, or financial decision or any procedure involving any risk to the 
#safety of any drilling venture, drilling rig or its crew or any other third party.  The 
#Customer has full responsibility for all drilling, completion and production operation.  
#Halliburton makes no representations or warranties, either expressed or 
#implied, including, but not limited to, the implied warranties of merchantability or fitness 
#for a particular purpose, with respect to the services rendered.  In no event will 
#Halliburton be liable for failure to obtain any particular results or for 
#any damages, including, but not limited to, indirect, special or consequential damages, 
#resulting from the use of any information or interpretation provided by Halliburton.
#
~A           TIME           GTDEPTH  GTPQH  GTTQ  GTTN  GTET   GTTVD  
# ...
   15:03:12.397.03-May-2020 4553.48 4123.62 82.12 2.00  91.97 2472.52
   15:03:12.596.03-May-2020 4553.48 4123.62 82.12 2.00  92.17 2472.52
   15:03:12.796.03-May-2020 4553.48 4124.28 82.12 2.00  92.37 2472.52
   15:03:12.996.03-May-2020 4553.48 4123.70 82.12 2.00  92.57 2472.52
   15:03:13.196.03-May-2020 4553.48 4124.29 82.12 2.00  92.77 2472.52
   15:03:13.396.03-May-2020 4553.48 4124.01 82.12 2.00  92.97 2472.52
   15:03:13.596.03-May-2020 4553.48 4124.01 82.12 2.00  93.17 2472.52
   15:03:13.796.03-May-2020 4553.48 4123.94 82.12 2.00  93.37 2472.52
   15:03:13.996.03-May-2020 4553.48 4124.06 82.12 2.00  93.57 2472.52
   15:03:14.196.03-May-2020 4553.48 4123.89 82.12 2.00  93.77 2472.52
   15:03:14.396.03-May-2020 4553.48 4124.37 82.11 2.00  93.97 2472.52
   15:03:14.596.03-May-2020 4553.48 4124.37 82.11 2.00  94.17 2472.52
   15:03:14.796.03-May-2020 4553.48 4124.32 82.11 2.00  94.37 2472.52
   15:03:14.996.03-May-2020 4553.48 4124.42 82.11 2.00  94.57 2472.52
   15:03:15.196.03-May-2020 4553.48 4124.11 82.11 2.00  94.77 2472.52
   15:03:15.396.03-May-2020 4553.48 4124.42 82.11 2.00  94.97 2472.52
   15:03:15.595.03-May-2020 4553.48 4124.42 82.11 2.00  95.17 2472.52
   15:03:15.795.03-May-2020 4553.48 4124.16 82.11 2.00  95.37 2472.52
   15:03:15.995.03-May-2020 4553.48 4124.31 82.11 2.00  95.57 2472.52
   15:03:16.195.03-May-2020 4553.48 4124.33 82.11 2.00  95.77 2472.52
   15:03:16.395.03-May-2020 4553.48 4124.40 82.11 2.00  95.97 2472.52
   15:03:16.595.03-May-2020 4553.48 4124.40 82.11 2.00  96.17 2472.52
   15:03:16.795.03-May-2020 4553.48 4124.62 82.11 2.00  96.37 2472.52
   15:03:16.995.03-May-2020 4553.48 4123.67 82.11 2.00  96.57 2472.52
   15:03:17.195.03-May-2020 4553.48 4124.30 82.10 2.00  96.77 2472.52
   15:03:17.395.03-May-2020 4553.48 4124.17 82.10 2.00  96.97 2472.52
   15:03:17.595.03-May-2020 4553.48 4124.17 82.10 2.00  97.17 2472.52
   15:03:17.795.03-May-2020 4553.48 4124.16 82.10 2.00  97.37 2472.52
   15:03:17.995.03-May-2020 4553.48 4124.27 82.10 2.00  97.57 2472.52
   15:03:18.195.03-May-2020 4553.48 4124.34 82.10 2.00  97.77 2472.52
   15:03:18.395.03-May-2020 4553.48 4124.30 82.10 2.00  97.97 2472.52
   15:03:18.594.03-May-2020 4553.48 4124.30 82.10 2.00  98.17 2472.52
   15:03:18.794.03-May-2020 4553.48 4124.23 82.10 2.00  98.37 2472.52
   15:03:18.994.03-May-2020 4553.48 4124.17 82.10 2.00  98.57 2472.52
   15:03:19.194.03-May-2020 4553.48 4124.21 82.10 2.00  98.77 2472.52
   15:03:19.394.03-May-2020 4553.48 4124.45 82.10 2.00  98.97 2472.52
   15:03:19.594.03-May-2020 4553.48 4124.45 82.10 2.00  99.17 2472.52
   15:03:19.794.03-May-2020 4553.48 4124.37 82.09 2.00  99.37 2472.52
   15:03:19.994.03-May-2020 4553.48 4123.68 82.09 2.00  99.57 2472.52
   15:03:20.194.03-May-2020 4553.48 4124.41 82.09 2.00  99.77 2472.52
   15:03:20.394.03-May-2020 4553.48 4124.10 82.09 2.00  99.97 2472.52
   15:03:20.594.03-May-2020 4553.48 4124.25 82.09 2.00 100.17 2472.52
   15:03:20.794.03-May-2020 4553.48 4124.16 82.09 2.00 100.37 2472.52
   15:03:20.994.03-May-2020 4553.48 4124.21 82.09 2.00 100.57 2472.52
   15:03:21.194.03-May-2020 4553.48 4124.35 82.09 2.00 100.77 2472.52
   15:03:21.394.03-May-2020 4553.48 4124.43 82.09 2.00 100.97 2472.52
   15:03:21.594.03-May-2020 4553.48 4124.43 82.09 2.00 101.17 2472.52
   15:03:21.793.03-May-2020 4553.48 4124.18 82.09 2.00 101.37 2472.52
   15:03:21.993.03-May-2020 4553.48 4124.24 82.09 2.00 101.57 2472.52
   15:03:22.193.03-May-2020 4553.48 4123.94 82.09 2.00 101.77 2472.52
   15:03:22.393.03-May-2020 4553.48 4124.37 82.08 2.00 101.97 2472.52
   15:03:22.593.03-May-2020 4553.48 4124.37 82.08 2.00 102.17 2472.52
   15:03:22.793.03-May-2020 4553.48 4124.55 82.08 2.00 102.37 2472.52
   15:03:22.993.03-May-2020 4553.48 4124.16 82.08 2.00 102.57 2472.52
   15:03:23.193.03-May-2020 4553.48 4124.34 82.08 2.00 102.77 2472.52
   15:03:23.393.03-May-2020 4553.48 4124.33 82.08 2.00 102.97 2472.52
   15:03:23.593.03-May-2020 4553.48 4124.33 82.08 2.00 103.17 2472.52
   15:03:23.793.03-May-2020 4553.48 4124.29 82.08 2.00 103.37 2472.52
   15:03:23.993.03-May-2020 4553.48 4124.34 82.08 2.00 103.57 2472.52
   15:03:24.193.03-May-2020 4553.48 4124.37 82.08 2.00 103.77 2472.52
   15:03:24.393.03-May-2020 4553.48 4124.33 82.08 2.00 103.97 2472.52
   15:03:24.593.03-May-2020 4553.48 4124.33 82.08 2.00 104.17 2472.52
   15:03:24.792.03-May-2020 4553.48 4124.38 82.08 2.00 104.37 2472.52
   15:03:24.992.03-May-2020 4553.48 4124.29 82.07 2.00 104.57 2472.52
   15:03:25.192.03-May-2020 4553.48 4124.25 82.07 2.00 104.77 2472.52
   15:03:25.392.03-May-2020 4553.48 4124.29 82.07 2.00 104.97 2472.52
   15:03:25.592.03-May-2020 4553.48 4124.29 82.07 2.00 105.17 2472.52
   15:03:25.792.03-May-2020 4553.48 4124.17 82.07 2.00 105.37 2472.52
   15:03:25.992.03-May-2020 4553.48 4124.37 82.07 2.00 105.57 2472.52
   15:03:26.192.03-May-2020 4553.48 4124.33 82.07 2.00 105.77 2472.52
   15:03:26.392.03-May-2020 4553.48 4124.27 82.07 2.00 105.97 2472.52
   15:03:26.592.03-May-2020 4553.48 4124.27 82.07 2.00 106.17 2472.52
   15:03:26.792.03-May-2020 4553.48 4124.17 82.07 2.00 106.37 2472.52
   15:03:26.992.03-May-2020 4553.48 4124.25 82.07 2.00 106.57 2472.52
   15:03:27.192.03-May-2020 4553.48 4124.26 82.07 2.00 106.77 2472.52
   15:03:27.392.03-May-2020 4553.48 4124.26 82.07 2.00 106.97 2472.52
   15:03:27.592.03-May-2020 4553.48 4124.26 82.07 2.00 107.17 2472.52
   15:03:27.791.03-May-2020 4553.48 4123.91 82.06 2.00 107.37 2472.52
   15:03:27.991.03-May-2020 4553.48 4124.35 82.06 2.00 107.56 2472.52
   15:03:28.191.03-May-2020 4553.48 4124.14 82.06 2.00 107.76 2472.52
   15:03:28.391.03-May-2020 4553.48 4124.06 82.06 2.00 107.96 2472.52
   15:03:28.591.03-May-2020 4553.48 4124.06 82.06 2.00 108.16 2472.52
   15:03:28.791.03-May-2020 4553.48 4123.97 82.06 2.00 108.36 2472.52
   15:03:28.991.03-May-2020 4553.48 4124.33 82.06 2.00 108.56 2472.52
   15:03:29.191.03-May-2020 4553.48 4124.10 82.06 2.00 108.76 2472.52
   15:03:29.391.03-May-2020 4553.48 4124.16 82.06 2.00 108.96 2472.52
   15:03:29.591.03-May-2020 4553.48 4124.16 82.06 2.00 109.16 2472.52
   15:03:29.791.03-May-2020 4553.48 4124.04 82.06 2.00 109.36 2472.52
   15:03:29.991.03-May-2020 4553.48 4124.24 82.06 2.00 109.56 2472.52
   15:03:30.191.03-May-2020 4553.48 4124.28 82.05 2.00 109.76 2472.52
   15:03:30.391.03-May-2020 4553.48 4124.39 82.05 2.00 109.96 2472.52
   15:03:30.591.03-May-2020 4553.48 4124.39 82.05 2.00 110.16 2472.52
   15:03:30.791.03-May-2020 4553.48 4124.32 82.05 2.00 110.36 2472.52
   15:03:30.990.03-May-2020 4553.48 4124.30 82.05 2.00 110.56 2472.52
   15:03:31.190.03-May-2020 4553.48 4124.41 82.05 2.00 110.76 2472.52
   15:03:31.390.03-May-2020 4553.48 4124.26 82.05 2.00 110.96 2472.52
   15:03:31.590.03-May-2020 4553.48 4124.26 82.05 2.00 111.16 2472.52
   15:03:31.790.03-May-2020 4553.48 4124.38 82.05 2.00 111.36 2472.52
   15:03:31.990.03-May-2020 4553.48 4124.30 82.05 2.00 111.56 2472.52
   15:03:32.190.03-May-2020 4553.48 4124.36 82.05 2.00 111.76 2472.52
   15:03:32.390.03-May-2020 4553.48 4124.30 82.05 2.00 111.96 2472.52
   15:03:32.590.03-May-2020 4553.48 4124.30 82.05 2.00 112.16 2472.52
   15:03:32.790.03-May-2020 4553.48 4123.99 82.04 2.00 112.36 2472.52
   15:03:32.990.03-May-2020 4553.48 4124.45 82.04 2.00 112.56 2472.52
   15:03:33.190.03-May-2020 4553.48 4124.16 82.04 2.00 112.76 2472.52
   15:03:33.390.03-May-2020 4553.48 4124.47 82.04 2.00 112.96 2472.52
   15:03:33.590.03-May-2020 4553.48 4124.47 82.04 2.00 113.16 2472.52
   15:03:33.790.03-May-2020 4553.48 4124.31 82.04 2.00 113.36 2472.52
   15:03:33.989.03-May-2020 4553.48 4124.34 82.04 2.00 113.56 2472.52
   15:03:34.189.03-May-2020 4553.48 4124.25 82.04 2.00 113.76 2472.52
   15:03:34.389.03-May-2020 4553.48 4124.25 82.04 2.00 113.96 2472.52
   15:03:34.589.03-May-2020 4553.48 4124.25 82.04 2.00 114.16 2472.52
   15:03:34.789.03-May-2020 4553.48 4124.19 82.04 2.00 114.36 2472.52
   15:03:34.989.03-May-2020 4553.48 4124.26 82.04 2.00 114.56 2472.52
   15:03:35.189.03-May-2020 4553.48 4124.51 82.04 2.00 114.76 2472.52
