~Version Information
 VERS.                  2.0:   CWLS log ASCII Standard -VERSION 2.0
 WRAP.                   NO:   One line per depth step
~Well Information Block
#MNEM.UNIT     VALUE/NAME     DESCRIPTION
#---------     -----------    ---------------------------
 STRT.S             13:13:41 03-May-20: START TIME 13:13:41 03-May-20
 STOP.S             13:20:16 03-May-20: STOP TIME  13:20:16 03-May-20
 STEP.S                   0.00: STEP TIME
 NULL.                 -999.25: NULL VALUE
 DFWT.                        :  DIST FWL TEXT
 DFST.                        :  DIST FSL TEXT
 DMF .             Drill Floor:  DRILL MEAS FROM
 STIM.      03.00.00 25-Mar-20:  START TIME
 DATE.      00.00.00 19-May-20:  END TIME
 SPUD.               27-Aug-20:  SPUD DATE
 NREF.                    Grid:  NORTH REFERENCE
 HPTY.       Minimum Curvature:  HOLE POS TYPE
 DMOD.             Drill Model:  DRILL MOD DESC
 SVYD.                  Survey:  SURVEY DESC
 ILTD.               Lithology:  INTERP LTH DESC
 FTOP.          Formation Tops:  FORM TOPS DESC
 SON .        AZ-XX-0906252240:  JOB NUMBER
 RIG .             West Chirag:  RIG NAME
 PDAT.          Mean Sea Level:  PERMANENT DATUM
 FLD .                     ACG:  FIELD NAME
 CTRY.              Azerbaijan:  COUNTRY NAME
 WELL.                     J23:  WELL NAME
 SRVC.          Turan Drilling:  CONTRACTOR
 COMP.     BP Exploration (Caspian Sea) Ltd.:  COMPANY
 WTYP.                Deviated:  WELL TYPE
 MDS .        Operator Entered:  MAG DATA SOURCE
 UWI .                     N/A:  UNIQUE WELL IDENTIFIER
 API .                     N/A:  API NUMBER
 BASE.              Azerbaijan:  LOGGING EQUIPMENT BASE LOCATION
 REGN.                   EESSA:  REGION
 PROV.                    Baku:  PROVINCE
 STAT.                    Baku:  STATE NAME
 MWDS.                     N/A:  MWD SHOP
 JOBN.        AZ-XX-0906252240:  JOB TICKET NUMB
 DOE .                     N/A:  DOE NUMBER
 DCON.         Sperry Drilling:  DIRECTNL CONTR
 UNIT.                     N/A:  LOGGING EQUIPMENT ID
 CNTY.                        :  COUNTY
 LOC .                        :  LOCATION
 LMF .             Drill Floor:  LOG MEASURED FROM
 TVDS.m                  43.00:  TVDSS CORRECTN
 LATI.deg                40.13:  LATITUDE
 LONG.deg                51.22:  LONGITUDE
 WHNS.m                   9.43:  WELL HEAD N/S
 WHEW.m                  -8.91:  WELL HEAD E/W
 UTMX.m              519005.06:  UTM X
 UTMY.m             4443793.85:  UTM Y
 DFWL.m                   0.00:  DISTANCE FWL
 DFSL.m                   0.00:  DISTANCE FSL
 SDEP.m                 363.00:  START DEPTH
 TDD .m                5150.01:  TOTAL DEPTH (DRILLER)
 VSDR.deg               179.88:  VERT SEC DIRECT
 GVFD.g                   1.00:  GRAVITY FIELD
 MFLD.nT              50295.00:  MAGNETIC FIELD
 MDIP.deg                59.56:  MAGNETIC DIP
 MDEC.deg                 6.45:  MAGNETIC DECL
 GRDC.deg                 0.14:  GRID CORRECTION
 AZTC.deg                 6.31:  AZM TOTAL CORR
 EPD .m                   0.00:  ELEVATION
 EGL .m                   0.00:  GROUND ELEVATION
 WDMS.m                 169.80:  WD ELEV
 APD .m                  43.00:  DEPTH ABOVE PD
 DEP .m                 354.17:  DEPTH
 AGAP.m                  43.00:  AIR GAP
 VSEW.m                  -8.91:  VERT SEC E/W
 VSNS.m                   9.43:  VERT SEC N/S
 EKB .m                   0.00:  KB ELEVATION
 EDF .m                  43.00:  DF ELEVATION
 TDL .m                1351.00:  TOTAL DEPTH (LOGGER)
 VSC .                       0:  VS TO CLOSURE
 MAGU.                 1850802:  MAGUTM CHECKSUM
~Parameter Information Block
#MNEM.UNIT       Value        Description
#---------     -----------    ---------------------------
 AV  .mps                 1.00:  Ann Velocity 
 AVMX.mps                 2.40:  Max Ann Veloc 
 AZIF.deg               148.96:  Azm, Final 
 BHAT.        Rotary Steerable:  BHA Type 
 BROT.°/30m               0.04:  Build Rotating 
 BS  .in                 12.25:  Bit Size 
 BSZ .in                 12.25:  Bit Size 
 BTPL.psig              814.00:  Bit Press Loss 
 TCS .hr                106.00:  Time Ciculation Ended 
 CV  .mps                 2.47:  Crit Velocity 
 CVMX.mps                 2.64:  Max Crit Veloc 
 DD1 .          Rashad Habibov:  Direct Drillr 1 
 DD2 .         Rasim Ibrahimov:  Direct Drillr 2 
 DDSV.                 iCruise:  DD Service 
 DEFF.%                 100.00:  % Det Eff 
 DLRX.°/30m               0.70:  Dogleg Rot Max 
 DLSO.°/30m               3.00:  Dogleg Oriented 
 DLSX.°/30m               4.55:  Dogleg Str Max 
 DRET.      08.08.32 02-May-20:  Drill End Time 
 DRST.      08.08.32 28-Apr-20:  Drill Start Tim 
 DTIM.hr                 60.00:  Time Drilling 
 EDEP.m                4761.01:  End Depth 
 ENG1.           Eldar Hajiyev:  Engineer 1 
 ENG2.        Marcelo Sandoval:  Engineer 2 
 ETIM.      23.23.07 05-May-20:  End Time 
 FLOI.gpm              1200.00:  Flow In 
 FLON.gpm               900.00:  Flow In Min 
 FLOS.cptm                0.00:  Fluid Loss 
 FLOX.gpm              1200.00:  Flow In Max 
 HFLO.                      No:  High Flow 
 HPRE.                      No:  High Pressure 
 HTEM.                      No:  High Temp 
 HYDO.m                   1.80:  Hydro Offset 
 IFIN.deg                68.17:  Inc, Final 
 IMAX.deg                74.61:  Inc Max 
 IMIN.deg                68.15:  Inc Min 
 IMND.m                4317.87:  Inc Min Depth 
 IMXD.m                4714.01:  Inc Max Depth 
 LETM.      08.08.32 02-May-20:  Log End Time 
 LOST.hr                     2:  Lost Rig Time 
 LSTM.      08.08.32 28-Apr-20:  Log Start Time 
 MDCL.ppm             41000.00:  Mud Chlorides 
 MDES.     Inversion Oil/Synthetic:  Mud Desc 
 DFD .sg                  1.58:  Mud Density 
 MDMN.sg                  1.58:  Dens Mud Min 
 MDMX.sg                  1.58:  Dens Mud Max 
 MOIL.                      71:  Run Mud Oil % 
 MOWR.                   71:29:  Run Mud OWR 
 MSND.                     0.1:  Run Mud Sand % 
 MSOL.                      23:  Run Mud Solids% 
 DFV .spqt               82.00:  Mud Viscosity 
 MWOD.in                  8.00:  MWD Tool OD 
 MWSI.                     Yes:  Serv Intrp, MWD 
 OTIM.hr                125.00:  Time Operating 
 PMAX.psia             6129.00:  Press Op, Max 
 PV  .cP                 32.00:  Mud PV 
 RUN .                     800:  Run Number 
 ROPA.m/hr               30.00:  ROP Avg 
 ROPN.m/hr               10.00:  ROP Min 
 ROPX.m/hr               40.00:  ROP Max 
 RPMA.rpm               140.00:  RPM Surface Avg 
 RPMN.rpm                80.00:  RPM Surface Min 
 RPMX.rpm               140.00:  RPM Surface Max 
 RRUN.                    L503:  Rig Run Number 
 RTIM.hr                  2.00:  Time Reaming 
 SAZI.deg               184.23:  Azm, Start 
 SDEP.m                3410.01:  Start Depth 
 SIDD.                      No:  Serv Intrp, DD 
 SINC.deg                68.29:  Inc, Start 
 SPPA.psig             6000.00:  SPP Avg 
 SPPN.psig             4000.00:  SPP Min 
 SPPX.psig             6100.00:  SPP Max 
 STIM.      08.08.32 28-Apr-20:  Start Time 
 SVCS.                 DD, MWD:  Services 
 SVER.                    9.20:  Sperry Version 
 TDAT.m                1351.00:  Tot Depth Attmp 
 TDDF.                      No:  Trip for DD 
 TDLG.m                1351.00:  Tot Depth Loggd 
 TFF .                      No:  Trip for Fail 
 TQAA.f-kp               27.00:  Torque Abs Avg 
 TQAN.f-kp               20.00:  Torque Abs Min 
 TQAX.f-kp               30.00:  Torque Abs Max 
 TRRT.°/30m               0.60:  Turn Rotating 
 MRT .                    EWER:  Maximum Recorded Temperature 
 TTMX.degC               83.00:  Max Tool Temp 
 VS01.                90511138:  Virtual Str1 SN 
 VS02.                90524876:  Virtual Str2 SN 
 VS03.                90524872:  Virtual Str3 SN 
 VS04.                90502750:  Virtual Str4 SN 
 VS05.                12330984:  Virtual Str5 SN 
 WBMN.klb                 0.00:  WOB Min 
 WOBA.klb                15.00:  WOB Avg 
 WOBX.klb                20.00:  WOB Max 
 YP  .lhf2               31.00:  Yield Point 
~Curve Information Block
#MNEM.UNIT                 API CODE     Curve Description
#---------               -----------    ---------------------------
 TIME.HHMMSS            00 000 000 000:  GT Time & Date
 GTDEPTH.m              00 000 000 000:  GT Depth
 GTPQH.psia             00 000 000 000:  GT HR Quartz Pressure
 GTTQ.degC              00 000 000 000:  GT Quartz Temperature
 GTTN.NONE              00 000 000 000:  GT Test Number
 GTET.sec               00 000 000 000:  GT Elapsed Test Time
 GTTVD.m                00 000 000 000:  GT True Vertical Depth
#Other Information
#
#WARRANTY: Halliburton will use its best efforts to furnish customers with 
#accurate information and interpretations that are part of, and incident to, the services 
#provided.  However, Halliburton cannot and does not warrant the accuracy 
#or correctness of such information and interpretations.  Under no circumstances should any 
#such information or interpretation be relied upon as the sole basis for any drilling, 
#completion, production, or financial decision or any procedure involving any risk to the 
#safety of any drilling venture, drilling rig or its crew or any other third party.  The 
#Customer has full responsibility for all drilling, completion and production operation.  
#Halliburton makes no representations or warranties, either expressed or 
#implied, including, but not limited to, the implied warranties of merchantability or fitness 
#for a particular purpose, with respect to the services rendered.  In no event will 
#Halliburton be liable for failure to obtain any particular results or for 
#any damages, including, but not limited to, indirect, special or consequential damages, 
#resulting from the use of any information or interpretation provided by Halliburton.
#
~A           TIME           GTDEPTH  GTPQH  GTTQ  GTTN  GTET   GTTVD  
# ...
   13:17:08.737.03-May-2020 4532.80 4122.18 80.21 1.00 207.33 2465.99
   13:17:08.937.03-May-2020 4532.80 4122.18 80.21 1.00 207.53 2465.99
   13:17:09.137.03-May-2020 4532.80 4121.91 80.21 1.00 207.73 2465.99
   13:17:09.337.03-May-2020 4532.80 4121.99 80.21 1.00 207.93 2465.99
   13:17:09.538.03-May-2020 4532.80 4121.87 80.21 1.00 208.13 2465.99
   13:17:09.738.03-May-2020 4532.80 4121.92 80.21 1.00 208.33 2465.99
   13:17:09.938.03-May-2020 4532.80 4121.92 80.21 1.00 208.53 2465.99
   13:17:10.139.03-May-2020 4532.80 4122.45 80.21 1.00 208.73 2465.99
   13:17:10.339.03-May-2020 4532.80 4123.30 80.21 1.00 208.93 2465.99
   13:17:10.539.03-May-2020 4532.80 4123.12 80.21 1.00 209.13 2465.99
   13:17:10.740.03-May-2020 4532.80 4123.10 80.21 1.00 209.33 2465.99
   13:17:10.940.03-May-2020 4532.80 4123.10 80.21 1.00 209.53 2465.99
   13:17:11.140.03-May-2020 4532.80 4123.03 80.21 1.00 209.73 2465.99
   13:17:11.341.03-May-2020 4532.80 4124.35 80.21 1.00 209.93 2465.99
   13:17:11.541.03-May-2020 4532.80 4124.30 80.21 1.00 210.13 2465.99
   13:17:11.741.03-May-2020 4532.80 4123.32 80.21 1.00 210.33 2465.99
   13:17:11.942.03-May-2020 4532.80 4123.89 80.21 1.00 210.53 2465.99
   13:17:12.142.03-May-2020 4532.80 4123.97 80.21 1.00 210.73 2465.99
   13:17:12.342.03-May-2020 4532.80 4123.26 80.21 1.00 210.93 2465.99
   13:17:12.542.03-May-2020 4532.80 4123.16 80.21 1.00 211.13 2465.99
   13:17:12.743.03-May-2020 4532.80 4123.73 80.20 1.00 211.33 2465.99
   13:17:12.943.03-May-2020 4532.80 4123.73 80.20 1.00 211.53 2465.99
   13:17:13.143.03-May-2020 4532.80 4122.83 80.20 1.00 211.73 2465.99
   13:17:13.344.03-May-2020 4532.80 4122.80 80.20 1.00 211.93 2465.99
   13:17:13.544.03-May-2020 4532.80 4122.60 80.20 1.00 212.13 2465.99
   13:17:13.744.03-May-2020 4532.80 4122.47 80.20 1.00 212.33 2465.99
   13:17:13.945.03-May-2020 4532.80 4122.47 80.20 1.00 212.53 2465.99
   13:17:14.145.03-May-2020 4532.80 4122.39 80.20 1.00 212.73 2465.99
   13:17:14.345.03-May-2020 4532.80 4122.33 80.20 1.00 212.93 2465.99
   13:17:14.546.03-May-2020 4532.80 4122.34 80.20 1.00 213.14 2465.99
   13:17:14.746.03-May-2020 4532.80 4122.23 80.20 1.00 213.34 2465.99
   13:17:14.946.03-May-2020 4532.80 4122.23 80.20 1.00 213.54 2465.99
   13:17:15.147.03-May-2020 4532.80 4122.24 80.20 1.00 213.74 2465.99
   13:17:15.347.03-May-2020 4532.80 4122.65 80.20 1.00 213.94 2465.99
   13:17:15.547.03-May-2020 4532.80 4123.37 80.20 1.00 214.14 2465.99
   13:17:15.748.03-May-2020 4532.80 4123.21 80.20 1.00 214.34 2465.99
   13:17:15.948.03-May-2020 4532.80 4123.21 80.20 1.00 214.54 2465.99
   13:17:16.148.03-May-2020 4532.80 4122.58 80.20 1.00 214.74 2465.99
   13:17:16.348.03-May-2020 4532.80 4122.53 80.20 1.00 214.94 2465.99
   13:17:16.549.03-May-2020 4532.80 4122.44 80.20 1.00 215.14 2465.99
   13:17:16.749.03-May-2020 4532.80 4122.30 80.19 1.00 215.34 2465.99
   13:17:16.949.03-May-2020 4532.80 4122.30 80.19 1.00 215.54 2465.99
   13:17:17.150.03-May-2020 4532.80 4122.12 80.19 1.00 215.74 2465.99
   13:17:17.350.03-May-2020 4532.80 4122.14 80.19 1.00 215.94 2465.99
   13:17:17.550.03-May-2020 4532.80 4122.13 80.19 1.00 216.14 2465.99
   13:17:17.751.03-May-2020 4532.80 4122.13 80.19 1.00 216.34 2465.99
   13:17:17.951.03-May-2020 4532.80 4122.13 80.19 1.00 216.54 2465.99
   13:17:18.151.03-May-2020 4532.80 4123.00 80.19 1.00 216.74 2465.99
   13:17:18.352.03-May-2020 4532.80 4122.88 80.19 1.00 216.94 2465.99
   13:17:18.552.03-May-2020 4532.80 4122.85 80.19 1.00 217.14 2465.99
   13:17:18.752.03-May-2020 4532.80 4123.58 80.19 1.00 217.34 2465.99
   13:17:18.953.03-May-2020 4532.80 4123.58 80.19 1.00 217.54 2465.99
   13:17:19.153.03-May-2020 4532.80 4123.06 80.19 1.00 217.74 2465.99
   13:17:19.353.03-May-2020 4532.80 4124.23 80.19 1.00 217.94 2465.99
   13:17:19.554.03-May-2020 4532.80 4123.89 80.19 1.00 218.14 2465.99
   13:17:19.754.03-May-2020 4532.80 4123.60 80.19 1.00 218.34 2465.99
   13:17:19.954.03-May-2020 4532.80 4123.65 80.19 1.00 218.54 2465.99
   13:17:20.154.03-May-2020 4532.80 4123.15 80.19 1.00 218.74 2465.99
   13:17:20.355.03-May-2020 4532.80 4122.60 80.19 1.00 218.94 2465.99
   13:17:20.555.03-May-2020 4532.80 4123.70 80.18 1.00 219.14 2465.99
   13:17:20.755.03-May-2020 4532.80 4123.31 80.18 1.00 219.34 2465.99
   13:17:20.956.03-May-2020 4532.80 4123.31 80.18 1.00 219.55 2465.99
   13:17:21.156.03-May-2020 4532.80 4122.55 80.18 1.00 219.75 2465.99
   13:17:21.356.03-May-2020 4532.80 4122.60 80.18 1.00 219.95 2465.99
   13:17:21.557.03-May-2020 4532.80 4122.51 80.18 1.00 220.15 2465.99
   13:17:21.757.03-May-2020 4532.80 4122.42 80.18 1.00 220.35 2465.99
   13:17:21.957.03-May-2020 4532.80 4122.42 80.18 1.00 220.55 2465.99
   13:17:22.158.03-May-2020 4532.80 4122.29 80.18 1.00 220.75 2465.99
   13:17:22.358.03-May-2020 4532.80 4122.32 80.18 1.00 220.95 2465.99
   13:17:22.558.03-May-2020 4532.80 4122.35 80.18 1.00 221.15 2465.99
   13:17:22.759.03-May-2020 4532.80 4122.36 80.18 1.00 221.35 2465.99
   13:17:22.959.03-May-2020 4532.80 4122.36 80.18 1.00 221.55 2465.99
   13:17:23.159.03-May-2020 4532.80 4122.57 80.18 1.00 221.75 2465.99
   13:17:23.360.03-May-2020 4532.80 4122.77 80.18 1.00 221.95 2465.99
   13:17:23.560.03-May-2020 4532.80 4122.95 80.18 1.00 222.15 2465.99
   13:17:23.760.03-May-2020 4532.80 4122.76 80.18 1.00 222.35 2465.99
   13:17:23.960.03-May-2020 4532.80 4122.72 80.18 1.00 222.55 2465.99
   13:17:24.161.03-May-2020 4532.80 4122.43 80.18 1.00 222.75 2465.99
   13:17:24.361.03-May-2020 4532.80 4122.44 80.18 1.00 222.95 2465.99
   13:17:24.561.03-May-2020 4532.80 4122.36 80.17 1.00 223.15 2465.99
   13:17:24.762.03-May-2020 4532.80 4122.44 80.17 1.00 223.35 2465.99
   13:17:24.962.03-May-2020 4532.80 4122.44 80.17 1.00 223.55 2465.99
   13:17:25.162.03-May-2020 4532.80 4122.22 80.17 1.00 223.75 2465.99
   13:17:25.363.03-May-2020 4532.80 4122.15 80.17 1.00 223.95 2465.99
   13:17:25.563.03-May-2020 4532.80 4122.18 80.17 1.00 224.15 2465.99
   13:17:25.763.03-May-2020 4532.80 4122.41 80.17 1.00 224.35 2465.99
   13:17:25.964.03-May-2020 4532.80 4122.41 80.17 1.00 224.55 2465.99
   13:17:26.164.03-May-2020 4532.80 4122.84 80.17 1.00 224.75 2465.99
   13:17:26.364.03-May-2020 4532.80 4122.89 80.17 1.00 224.95 2465.99
   13:17:26.565.03-May-2020 4532.80 4123.18 80.17 1.00 225.15 2465.99
   13:17:26.765.03-May-2020 4532.80 4122.86 80.17 1.00 225.35 2465.99
   13:17:26.965.03-May-2020 4532.80 4122.86 80.17 1.00 225.55 2465.99
   13:17:27.165.03-May-2020 4532.80 4123.24 80.17 1.00 225.75 2465.99
   13:17:27.366.03-May-2020 4532.80 4123.15 80.17 1.00 225.96 2465.99
   13:17:27.566.03-May-2020 4532.80 4122.61 80.17 1.00 226.16 2465.99
   13:17:27.766.03-May-2020 4532.80 4123.49 80.17 1.00 226.36 2465.99
   13:17:27.967.03-May-2020 4532.80 4123.22 80.17 1.00 226.56 2465.99
   13:17:28.167.03-May-2020 4532.80 4122.74 80.17 1.00 226.76 2465.99
   13:17:28.367.03-May-2020 4532.80 4122.11 80.17 1.00 226.96 2465.99
   13:17:28.568.03-May-2020 4532.80 4123.00 80.16 1.00 227.16 2465.99
   13:17:28.768.03-May-2020 4532.80 4122.88 80.16 1.00 227.36 2465.99
   13:17:28.968.03-May-2020 4532.80 4122.88 80.16 1.00 227.56 2465.99
   13:17:29.169.03-May-2020 4532.80 4122.57 80.16 1.00 227.76 2465.99
   13:17:29.369.03-May-2020 4532.80 4122.43 80.16 1.00 227.96 2465.99
   13:17:29.569.03-May-2020 4532.80 4122.54 80.16 1.00 228.16 2465.99
   13:17:29.770.03-May-2020 4532.80 4122.56 80.16 1.00 228.36 2465.99
   13:17:29.970.03-May-2020 4532.80 4122.56 80.16 1.00 228.56 2465.99
   13:17:30.170.03-May-2020 4532.80 4122.40 80.16 1.00 228.76 2465.99
   13:17:30.371.03-May-2020 4532.80 4122.42 80.16 1.00 228.96 2465.99
   13:17:30.571.03-May-2020 4532.80 4122.42 80.16 1.00 229.16 2465.99
   13:17:30.771.03-May-2020 4532.80 4122.42 80.16 1.00 229.36 2465.99
   13:17:30.971.03-May-2020 4532.80 4122.42 80.16 1.00 229.56 2465.99
   13:17:31.172.03-May-2020 4532.80 4123.00 80.16 1.00 229.76 2465.99
   13:17:31.372.03-May-2020 4532.80 4122.93 80.16 1.00 229.96 2465.99
   13:17:31.572.03-May-2020 4532.80 4122.82 80.16 1.00 230.16 2465.99
