~Version Information
 VERS.                  2.0:   CWLS log ASCII Standard -VERSION 2.0
 WRAP.                   NO:   One line per depth step
~Well Information Block
#MNEM.UNIT     VALUE/NAME     DESCRIPTION
#---------     -----------    ---------------------------
 STRT.S             01:13:00 04-May-20: START TIME 01:13:00 04-May-20
 STOP.S             01:19:30 04-May-20: STOP TIME  01:19:30 04-May-20
 STEP.S                   0.00: STEP TIME
 NULL.                 -999.25: NULL VALUE
 DFWT.                        :  DIST FWL TEXT
 DFST.                        :  DIST FSL TEXT
 DMF .             Drill Floor:  DRILL MEAS FROM
 STIM.      03.00.00 25-Mar-20:  START TIME
 DATE.      00.00.00 19-May-20:  END TIME
 SPUD.               27-Aug-20:  SPUD DATE
 NREF.                    Grid:  NORTH REFERENCE
 HPTY.       Minimum Curvature:  HOLE POS TYPE
 DMOD.             Drill Model:  DRILL MOD DESC
 SVYD.                  Survey:  SURVEY DESC
 ILTD.               Lithology:  INTERP LTH DESC
 FTOP.          Formation Tops:  FORM TOPS DESC
 SON .        AZ-XX-0906252240:  JOB NUMBER
 RIG .             West Chirag:  RIG NAME
 PDAT.          Mean Sea Level:  PERMANENT DATUM
 FLD .                     ACG:  FIELD NAME
 CTRY.              Azerbaijan:  COUNTRY NAME
 WELL.                     J23:  WELL NAME
 SRVC.          Turan Drilling:  CONTRACTOR
 COMP.     BP Exploration (Caspian Sea) Ltd.:  COMPANY
 WTYP.                Deviated:  WELL TYPE
 MDS .        Operator Entered:  MAG DATA SOURCE
 UWI .                     N/A:  UNIQUE WELL IDENTIFIER
 API .                     N/A:  API NUMBER
 BASE.              Azerbaijan:  LOGGING EQUIPMENT BASE LOCATION
 REGN.                   EESSA:  REGION
 PROV.                    Baku:  PROVINCE
 STAT.                    Baku:  STATE NAME
 MWDS.                     N/A:  MWD SHOP
 JOBN.        AZ-XX-0906252240:  JOB TICKET NUMB
 DOE .                     N/A:  DOE NUMBER
 DCON.         Sperry Drilling:  DIRECTNL CONTR
 UNIT.                     N/A:  LOGGING EQUIPMENT ID
 CNTY.                        :  COUNTY
 LOC .                        :  LOCATION
 LMF .             Drill Floor:  LOG MEASURED FROM
 TVDS.m                  43.00:  TVDSS CORRECTN
 LATI.deg                40.13:  LATITUDE
 LONG.deg                51.22:  LONGITUDE
 WHNS.m                   9.43:  WELL HEAD N/S
 WHEW.m                  -8.91:  WELL HEAD E/W
 UTMX.m              519005.06:  UTM X
 UTMY.m             4443793.85:  UTM Y
 DFWL.m                   0.00:  DISTANCE FWL
 DFSL.m                   0.00:  DISTANCE FSL
 SDEP.m                 363.00:  START DEPTH
 TDD .m                5150.01:  TOTAL DEPTH (DRILLER)
 VSDR.deg               179.88:  VERT SEC DIRECT
 GVFD.g                   1.00:  GRAVITY FIELD
 MFLD.nT              50295.00:  MAGNETIC FIELD
 MDIP.deg                59.56:  MAGNETIC DIP
 MDEC.deg                 6.45:  MAGNETIC DECL
 GRDC.deg                 0.14:  GRID CORRECTION
 AZTC.deg                 6.31:  AZM TOTAL CORR
 EPD .m                   0.00:  ELEVATION
 EGL .m                   0.00:  GROUND ELEVATION
 WDMS.m                 169.80:  WD ELEV
 APD .m                  43.00:  DEPTH ABOVE PD
 DEP .m                 354.17:  DEPTH
 AGAP.m                  43.00:  AIR GAP
 VSEW.m                  -8.91:  VERT SEC E/W
 VSNS.m                   9.43:  VERT SEC N/S
 EKB .m                   0.00:  KB ELEVATION
 EDF .m                  43.00:  DF ELEVATION
 TDL .m                1351.00:  TOTAL DEPTH (LOGGER)
 VSC .                       0:  VS TO CLOSURE
 MAGU.                 1850802:  MAGUTM CHECKSUM
~Parameter Information Block
#MNEM.UNIT       Value        Description
#---------     -----------    ---------------------------
 AV  .mps                 1.00:  Ann Velocity 
 AVMX.mps                 2.40:  Max Ann Veloc 
 AZIF.deg               148.96:  Azm, Final 
 BHAT.        Rotary Steerable:  BHA Type 
 BROT.°/30m               0.04:  Build Rotating 
 BS  .in                 12.25:  Bit Size 
 BSZ .in                 12.25:  Bit Size 
 BTPL.psig              814.00:  Bit Press Loss 
 TCS .hr                106.00:  Time Ciculation Ended 
 CV  .mps                 2.47:  Crit Velocity 
 CVMX.mps                 2.64:  Max Crit Veloc 
 DD1 .          Rashad Habibov:  Direct Drillr 1 
 DD2 .         Rasim Ibrahimov:  Direct Drillr 2 
 DDSV.                 iCruise:  DD Service 
 DEFF.%                 100.00:  % Det Eff 
 DLRX.°/30m               0.70:  Dogleg Rot Max 
 DLSO.°/30m               3.00:  Dogleg Oriented 
 DLSX.°/30m               4.55:  Dogleg Str Max 
 DRET.      08.08.32 02-May-20:  Drill End Time 
 DRST.      08.08.32 28-Apr-20:  Drill Start Tim 
 DTIM.hr                 60.00:  Time Drilling 
 EDEP.m                4761.01:  End Depth 
 ENG1.           Eldar Hajiyev:  Engineer 1 
 ENG2.        Marcelo Sandoval:  Engineer 2 
 ETIM.      23.23.07 05-May-20:  End Time 
 FLOI.gpm              1200.00:  Flow In 
 FLON.gpm               900.00:  Flow In Min 
 FLOS.cptm                0.00:  Fluid Loss 
 FLOX.gpm              1200.00:  Flow In Max 
 HFLO.                      No:  High Flow 
 HPRE.                      No:  High Pressure 
 HTEM.                      No:  High Temp 
 HYDO.m                   1.80:  Hydro Offset 
 IFIN.deg                68.17:  Inc, Final 
 IMAX.deg                74.61:  Inc Max 
 IMIN.deg                68.15:  Inc Min 
 IMND.m                4317.87:  Inc Min Depth 
 IMXD.m                4714.01:  Inc Max Depth 
 LETM.      08.08.32 02-May-20:  Log End Time 
 LOST.hr                     2:  Lost Rig Time 
 LSTM.      08.08.32 28-Apr-20:  Log Start Time 
 MDCL.ppm             41000.00:  Mud Chlorides 
 MDES.     Inversion Oil/Synthetic:  Mud Desc 
 DFD .sg                  1.58:  Mud Density 
 MDMN.sg                  1.58:  Dens Mud Min 
 MDMX.sg                  1.58:  Dens Mud Max 
 MOIL.                      71:  Run Mud Oil % 
 MOWR.                   71:29:  Run Mud OWR 
 MSND.                     0.1:  Run Mud Sand % 
 MSOL.                      23:  Run Mud Solids% 
 DFV .spqt               82.00:  Mud Viscosity 
 MWOD.in                  8.00:  MWD Tool OD 
 MWSI.                     Yes:  Serv Intrp, MWD 
 OTIM.hr                125.00:  Time Operating 
 PMAX.psia             6129.00:  Press Op, Max 
 PV  .cP                 32.00:  Mud PV 
 RUN .                     800:  Run Number 
 ROPA.m/hr               30.00:  ROP Avg 
 ROPN.m/hr               10.00:  ROP Min 
 ROPX.m/hr               40.00:  ROP Max 
 RPMA.rpm               140.00:  RPM Surface Avg 
 RPMN.rpm                80.00:  RPM Surface Min 
 RPMX.rpm               140.00:  RPM Surface Max 
 RRUN.                    L503:  Rig Run Number 
 RTIM.hr                  2.00:  Time Reaming 
 SAZI.deg               184.23:  Azm, Start 
 SDEP.m                3410.01:  Start Depth 
 SIDD.                      No:  Serv Intrp, DD 
 SINC.deg                68.29:  Inc, Start 
 SPPA.psig             6000.00:  SPP Avg 
 SPPN.psig             4000.00:  SPP Min 
 SPPX.psig             6100.00:  SPP Max 
 STIM.      08.08.32 28-Apr-20:  Start Time 
 SVCS.                 DD, MWD:  Services 
 SVER.                    9.20:  Sperry Version 
 TDAT.m                1351.00:  Tot Depth Attmp 
 TDDF.                      No:  Trip for DD 
 TDLG.m                1351.00:  Tot Depth Loggd 
 TFF .                      No:  Trip for Fail 
 TQAA.f-kp               27.00:  Torque Abs Avg 
 TQAN.f-kp               20.00:  Torque Abs Min 
 TQAX.f-kp               30.00:  Torque Abs Max 
 TRRT.°/30m               0.60:  Turn Rotating 
 MRT .                    EWER:  Maximum Recorded Temperature 
 TTMX.degC               83.00:  Max Tool Temp 
 VS01.                90511138:  Virtual Str1 SN 
 VS02.                90524876:  Virtual Str2 SN 
 VS03.                90524872:  Virtual Str3 SN 
 VS04.                90502750:  Virtual Str4 SN 
 VS05.                12330984:  Virtual Str5 SN 
 WBMN.klb                 0.00:  WOB Min 
 WOBA.klb                15.00:  WOB Avg 
 WOBX.klb                20.00:  WOB Max 
 YP  .lhf2               31.00:  Yield Point 
~Curve Information Block
#MNEM.UNIT                 API CODE     Curve Description
#---------               -----------    ---------------------------
 TIME.HHMMSS            00 000 000 000:  GT Time & Date
 GTDEPTH.m              00 000 000 000:  GT Depth
 GTPQH.psia             00 000 000 000:  GT HR Quartz Pressure
 GTTQ.degC              00 000 000 000:  GT Quartz Temperature
 GTTN.NONE              00 000 000 000:  GT Test Number
 GTET.sec               00 000 000 000:  GT Elapsed Test Time
 GTTVD.m                00 000 000 000:  GT True Vertical Depth
#Other Information
#
#WARRANTY: Halliburton will use its best efforts to furnish customers with 
#accurate information and interpretations that are part of, and incident to, the services 
#provided.  However, Halliburton cannot and does not warrant the accuracy 
#or correctness of such information and interpretations.  Under no circumstances should any 
#such information or interpretation be relied upon as the sole basis for any drilling, 
#completion, production, or financial decision or any procedure involving any risk to the 
#safety of any drilling venture, drilling rig or its crew or any other third party.  The 
#Customer has full responsibility for all drilling, completion and production operation.  
#Halliburton makes no representations or warranties, either expressed or 
#implied, including, but not limited to, the implied warranties of merchantability or fitness 
#for a particular purpose, with respect to the services rendered.  In no event will 
#Halliburton be liable for failure to obtain any particular results or for 
#any damages, including, but not limited to, indirect, special or consequential damages, 
#resulting from the use of any information or interpretation provided by Halliburton.
#
~A           TIME           GTDEPTH  GTPQH  GTTQ  GTTN  GTET   GTTVD  
# ...
   01:16:50.550.04-May-2020 4660.50   62.56 75.93 5.00 230.02 2503.99
   01:16:50.750.04-May-2020 4660.50   62.59 75.93 5.00 230.22 2503.99
   01:16:50.950.04-May-2020 4660.50   62.64 75.93 5.00 230.42 2503.99
   01:16:51.150.04-May-2020 4660.50   62.67 75.92 5.00 230.62 2503.99
   01:16:51.350.04-May-2020 4660.50   62.73 75.92 5.00 230.82 2503.99
   01:16:51.550.04-May-2020 4660.50   62.78 75.92 5.00 231.02 2503.99
   01:16:51.750.04-May-2020 4660.50   62.82 75.92 5.00 231.22 2503.99
   01:16:51.950.04-May-2020 4660.50   62.85 75.92 5.00 231.42 2503.99
   01:16:52.150.04-May-2020 4660.50   62.91 75.92 5.00 231.62 2503.99
   01:16:52.350.04-May-2020 4660.50   62.96 75.92 5.00 231.82 2503.99
   01:16:52.550.04-May-2020 4660.50   62.99 75.92 5.00 232.02 2503.99
   01:16:52.750.04-May-2020 4660.50   62.99 75.92 5.00 232.22 2503.99
   01:16:52.950.04-May-2020 4660.50   63.08 75.92 5.00 232.42 2503.99
   01:16:53.150.04-May-2020 4660.50   63.12 75.92 5.00 232.62 2503.99
   01:16:53.350.04-May-2020 4660.50   63.17 75.92 5.00 232.82 2503.99
   01:16:53.550.04-May-2020 4660.50   63.21 75.92 5.00 233.02 2503.99
   01:16:53.750.04-May-2020 4660.50   63.21 75.92 5.00 233.22 2503.99
   01:16:53.950.04-May-2020 4660.50   63.29 75.92 5.00 233.42 2503.99
   01:16:54.150.04-May-2020 4660.50   63.34 75.92 5.00 233.62 2503.99
   01:16:54.350.04-May-2020 4660.50   63.38 75.92 5.00 233.82 2503.99
   01:16:54.550.04-May-2020 4660.50   63.43 75.92 5.00 234.02 2503.99
   01:16:54.750.04-May-2020 4660.50   63.43 75.92 5.00 234.22 2503.99
   01:16:54.951.04-May-2020 4660.50   63.54 75.92 5.00 234.42 2503.99
   01:16:55.151.04-May-2020 4660.50   63.58 75.92 5.00 234.62 2503.99
   01:16:55.351.04-May-2020 4660.50   63.61 75.92 5.00 234.82 2503.99
   01:16:55.551.04-May-2020 4660.50   63.65 75.92 5.00 235.02 2503.99
   01:16:55.751.04-May-2020 4660.50   63.65 75.92 5.00 235.22 2503.99
   01:16:55.951.04-May-2020 4660.50   63.73 75.92 5.00 235.42 2503.99
   01:16:56.151.04-May-2020 4660.50   63.78 75.92 5.00 235.62 2503.99
   01:16:56.351.04-May-2020 4660.50   63.81 75.92 5.00 235.82 2503.99
   01:16:56.551.04-May-2020 4660.50   63.86 75.92 5.00 236.02 2503.99
   01:16:56.751.04-May-2020 4660.50   63.86 75.92 5.00 236.22 2503.99
   01:16:56.951.04-May-2020 4660.50   63.94 75.91 5.00 236.42 2503.99
   01:16:57.151.04-May-2020 4660.50   63.99 75.91 5.00 236.62 2503.99
   01:16:57.351.04-May-2020 4660.50   64.06 75.91 5.00 236.82 2503.99
   01:16:57.551.04-May-2020 4660.50   64.09 75.91 5.00 237.02 2503.99
   01:16:57.751.04-May-2020 4660.50   64.09 75.91 5.00 237.22 2503.99
   01:16:57.951.04-May-2020 4660.50   64.19 75.91 5.00 237.42 2503.99
   01:16:58.151.04-May-2020 4660.50   64.21 75.91 5.00 237.62 2503.99
   01:16:58.351.04-May-2020 4660.50   64.26 75.91 5.00 237.82 2503.99
   01:16:58.551.04-May-2020 4660.50   64.30 75.91 5.00 238.02 2503.99
   01:16:58.751.04-May-2020 4660.50   64.35 75.91 5.00 238.22 2503.99
   01:16:58.951.04-May-2020 4660.50   64.39 75.91 5.00 238.42 2503.99
   01:16:59.151.04-May-2020 4660.50   64.43 75.91 5.00 238.62 2503.99
   01:16:59.351.04-May-2020 4660.50   64.48 75.91 5.00 238.82 2503.99
   01:16:59.551.04-May-2020 4660.50   64.53 75.91 5.00 239.02 2503.99
   01:16:59.751.04-May-2020 4660.50   64.57 75.91 5.00 239.22 2503.99
   01:16:59.951.04-May-2020 4660.50   64.61 75.91 5.00 239.42 2503.99
   01:17:00.151.04-May-2020 4660.50   64.67 75.91 5.00 239.62 2503.99
   01:17:00.351.04-May-2020 4660.50   64.69 75.91 5.00 239.82 2503.99
   01:17:00.551.04-May-2020 4660.50   64.74 75.91 5.00 240.02 2503.99
   01:17:00.751.04-May-2020 4660.50   64.74 75.91 5.00 240.22 2503.99
   01:17:00.951.04-May-2020 4660.50   64.81 75.91 5.00 240.42 2503.99
   01:17:01.151.04-May-2020 4660.50   64.86 75.91 5.00 240.62 2503.99
   01:17:01.351.04-May-2020 4660.50   64.90 75.91 5.00 240.82 2503.99
   01:17:01.551.04-May-2020 4660.50   64.94 75.91 5.00 241.02 2503.99
   01:17:01.751.04-May-2020 4660.50   64.94 75.91 5.00 241.22 2503.99
   01:17:01.951.04-May-2020 4660.50   65.02 75.91 5.00 241.42 2503.99
   01:17:02.151.04-May-2020 4660.50   65.06 75.91 5.00 241.62 2503.99
   01:17:02.351.04-May-2020 4660.50   65.10 75.90 5.00 241.82 2503.99
   01:17:02.551.04-May-2020 4660.50   65.14 75.90 5.00 242.02 2503.99
   01:17:02.751.04-May-2020 4660.50   65.14 75.90 5.00 242.22 2503.99
   01:17:02.951.04-May-2020 4660.50   65.26 75.90 5.00 242.42 2503.99
   01:17:03.151.04-May-2020 4660.50   65.29 75.90 5.00 242.62 2503.99
   01:17:03.351.04-May-2020 4660.50   65.33 75.90 5.00 242.82 2503.99
   01:17:03.551.04-May-2020 4660.50   65.36 75.90 5.00 243.02 2503.99
   01:17:03.751.04-May-2020 4660.50   65.40 75.90 5.00 243.22 2503.99
   01:17:03.951.04-May-2020 4660.50   65.43 75.90 5.00 243.42 2503.99
   01:17:04.151.04-May-2020 4660.50   65.48 75.90 5.00 243.62 2503.99
   01:17:04.351.04-May-2020 4660.50   65.51 75.90 5.00 243.82 2503.99
   01:17:04.551.04-May-2020 4660.50   65.55 75.90 5.00 244.02 2503.99
   01:17:04.751.04-May-2020 4660.50   65.59 75.90 5.00 244.22 2503.99
   01:17:04.951.04-May-2020 4660.50   65.62 75.90 5.00 244.42 2503.99
   01:17:05.151.04-May-2020 4660.50   65.69 75.90 5.00 244.62 2503.99
   01:17:05.351.04-May-2020 4660.50   65.73 75.90 5.00 244.82 2503.99
   01:17:05.551.04-May-2020 4660.50   65.76 75.90 5.00 245.02 2503.99
   01:17:05.751.04-May-2020 4660.50   65.76 75.90 5.00 245.22 2503.99
   01:17:05.952.04-May-2020 4660.50   65.85 75.90 5.00 245.42 2503.99
   01:17:06.152.04-May-2020 4660.50   65.88 75.90 5.00 245.62 2503.99
   01:17:06.352.04-May-2020 4660.50   65.91 75.90 5.00 245.82 2503.99
   01:17:06.552.04-May-2020 4660.50   65.97 75.90 5.00 246.02 2503.99
   01:17:06.752.04-May-2020 4660.50   65.97 75.90 5.00 246.22 2503.99
   01:17:06.952.04-May-2020 4660.50   66.04 75.90 5.00 246.42 2503.99
   01:17:07.152.04-May-2020 4660.50   66.07 75.90 5.00 246.62 2503.99
   01:17:07.352.04-May-2020 4660.50   66.13 75.90 5.00 246.82 2503.99
   01:17:07.552.04-May-2020 4660.50   66.16 75.90 5.00 247.02 2503.99
   01:17:07.752.04-May-2020 4660.50   66.16 75.90 5.00 247.22 2503.99
   01:17:07.952.04-May-2020 4660.50   66.25 75.89 5.00 247.42 2503.99
   01:17:08.152.04-May-2020 4660.50   66.28 75.89 5.00 247.62 2503.99
   01:17:08.352.04-May-2020 4660.50   66.31 75.89 5.00 247.82 2503.99
   01:17:08.552.04-May-2020 4660.50   66.35 75.89 5.00 248.02 2503.99
   01:17:08.752.04-May-2020 4660.50   66.35 75.89 5.00 248.22 2503.99
   01:17:08.952.04-May-2020 4660.50   66.42 75.89 5.00 248.42 2503.99
   01:17:09.152.04-May-2020 4660.50   66.45 75.89 5.00 248.62 2503.99
   01:17:09.352.04-May-2020 4660.50   66.49 75.89 5.00 248.82 2503.99
   01:17:09.552.04-May-2020 4660.50   66.52 75.89 5.00 249.02 2503.99
   01:17:09.752.04-May-2020 4660.50   66.52 75.89 5.00 249.22 2503.99
   01:17:09.952.04-May-2020 4660.50   66.60 75.89 5.00 249.42 2503.99
   01:17:10.152.04-May-2020 4660.50   66.64 75.89 5.00 249.62 2503.99
   01:17:10.352.04-May-2020 4660.50   66.68 75.89 5.00 249.82 2503.99
   01:17:10.552.04-May-2020 4660.50   66.72 75.89 5.00 250.02 2503.99
   01:17:10.752.04-May-2020 4660.50   66.79 75.89 5.00 250.22 2503.99
   01:17:10.952.04-May-2020 4660.50   66.82 75.89 5.00 250.42 2503.99
   01:17:11.152.04-May-2020 4660.50   66.84 75.89 5.00 250.62 2503.99
   01:17:11.352.04-May-2020 4660.50   66.88 75.89 5.00 250.82 2503.99
   01:17:11.552.04-May-2020 4660.50   66.91 75.89 5.00 251.02 2503.99
   01:17:11.752.04-May-2020 4660.50   66.93 75.89 5.00 251.22 2503.99
   01:17:11.952.04-May-2020 4660.50   66.97 75.89 5.00 251.42 2503.99
   01:17:12.152.04-May-2020 4660.50   67.01 75.89 5.00 251.62 2503.99
   01:17:12.352.04-May-2020 4660.50   67.03 75.89 5.00 251.82 2503.99
   01:17:12.552.04-May-2020 4660.50   67.07 75.89 5.00 252.02 2503.99
   01:17:12.752.04-May-2020 4660.50   67.07 75.89 5.00 252.22 2503.99
   01:17:12.952.04-May-2020 4660.50   67.15 75.88 5.00 252.42 2503.99
   01:17:13.152.04-May-2020 4660.50   67.22 75.88 5.00 252.62 2503.99
   01:17:13.352.04-May-2020 4660.50   67.24 75.88 5.00 252.82 2503.99
