~Version Information
 VERS.                  2.0:   CWLS log ASCII Standard -VERSION 2.0
 WRAP.                   NO:   One line per depth step
~Well Information Block
#MNEM.UNIT     VALUE/NAME     DESCRIPTION
#---------     -----------    ---------------------------
 STRT.S             13:13:41 03-May-20: START TIME 13:13:41 03-May-20
 STOP.S             13:20:16 03-May-20: STOP TIME  13:20:16 03-May-20
 STEP.S                   0.00: STEP TIME
 NULL.                 -999.25: NULL VALUE
 DFWT.                        :  DIST FWL TEXT
 DFST.                        :  DIST FSL TEXT
 DMF .             Drill Floor:  DRILL MEAS FROM
 STIM.      03.00.00 25-Mar-20:  START TIME
 DATE.      00.00.00 19-May-20:  END TIME
 SPUD.               27-Aug-20:  SPUD DATE
 NREF.                    Grid:  NORTH REFERENCE
 HPTY.       Minimum Curvature:  HOLE POS TYPE
 DMOD.             Drill Model:  DRILL MOD DESC
 SVYD.                  Survey:  SURVEY DESC
 ILTD.               Lithology:  INTERP LTH DESC
 FTOP.          Formation Tops:  FORM TOPS DESC
 SON .        AZ-XX-0906252240:  JOB NUMBER
 RIG .             West Chirag:  RIG NAME
 PDAT.          Mean Sea Level:  PERMANENT DATUM
 FLD .                     ACG:  FIELD NAME
 CTRY.              Azerbaijan:  COUNTRY NAME
 WELL.                     J23:  WELL NAME
 SRVC.          Turan Drilling:  CONTRACTOR
 COMP.     BP Exploration (Caspian Sea) Ltd.:  COMPANY
 WTYP.                Deviated:  WELL TYPE
 MDS .        Operator Entered:  MAG DATA SOURCE
 UWI .                     N/A:  UNIQUE WELL IDENTIFIER
 API .                     N/A:  API NUMBER
 BASE.              Azerbaijan:  LOGGING EQUIPMENT BASE LOCATION
 REGN.                   EESSA:  REGION
 PROV.                    Baku:  PROVINCE
 STAT.                    Baku:  STATE NAME
 MWDS.                     N/A:  MWD SHOP
 JOBN.        AZ-XX-0906252240:  JOB TICKET NUMB
 DOE .                     N/A:  DOE NUMBER
 DCON.         Sperry Drilling:  DIRECTNL CONTR
 UNIT.                     N/A:  LOGGING EQUIPMENT ID
 CNTY.                        :  COUNTY
 LOC .                        :  LOCATION
 LMF .             Drill Floor:  LOG MEASURED FROM
 TVDS.m                  43.00:  TVDSS CORRECTN
 LATI.deg                40.13:  LATITUDE
 LONG.deg                51.22:  LONGITUDE
 WHNS.m                   9.43:  WELL HEAD N/S
 WHEW.m                  -8.91:  WELL HEAD E/W
 UTMX.m              519005.06:  UTM X
 UTMY.m             4443793.85:  UTM Y
 DFWL.m                   0.00:  DISTANCE FWL
 DFSL.m                   0.00:  DISTANCE FSL
 SDEP.m                 363.00:  START DEPTH
 TDD .m                5150.01:  TOTAL DEPTH (DRILLER)
 VSDR.deg               179.88:  VERT SEC DIRECT
 GVFD.g                   1.00:  GRAVITY FIELD
 MFLD.nT              50295.00:  MAGNETIC FIELD
 MDIP.deg                59.56:  MAGNETIC DIP
 MDEC.deg                 6.45:  MAGNETIC DECL
 GRDC.deg                 0.14:  GRID CORRECTION
 AZTC.deg                 6.31:  AZM TOTAL CORR
 EPD .m                   0.00:  ELEVATION
 EGL .m                   0.00:  GROUND ELEVATION
 WDMS.m                 169.80:  WD ELEV
 APD .m                  43.00:  DEPTH ABOVE PD
 DEP .m                 354.17:  DEPTH
 AGAP.m                  43.00:  AIR GAP
 VSEW.m                  -8.91:  VERT SEC E/W
 VSNS.m                   9.43:  VERT SEC N/S
 EKB .m                   0.00:  KB ELEVATION
 EDF .m                  43.00:  DF ELEVATION
 TDL .m                1351.00:  TOTAL DEPTH (LOGGER)
 VSC .                       0:  VS TO CLOSURE
 MAGU.                 1850802:  MAGUTM CHECKSUM
~Parameter Information Block
#MNEM.UNIT       Value        Description
#---------     -----------    ---------------------------
 AV  .mps                 1.00:  Ann Velocity 
 AVMX.mps                 2.40:  Max Ann Veloc 
 AZIF.deg               148.96:  Azm, Final 
 BHAT.        Rotary Steerable:  BHA Type 
 BROT.°/30m               0.04:  Build Rotating 
 BS  .in                 12.25:  Bit Size 
 BSZ .in                 12.25:  Bit Size 
 BTPL.psig              814.00:  Bit Press Loss 
 TCS .hr                106.00:  Time Ciculation Ended 
 CV  .mps                 2.47:  Crit Velocity 
 CVMX.mps                 2.64:  Max Crit Veloc 
 DD1 .          Rashad Habibov:  Direct Drillr 1 
 DD2 .         Rasim Ibrahimov:  Direct Drillr 2 
 DDSV.                 iCruise:  DD Service 
 DEFF.%                 100.00:  % Det Eff 
 DLRX.°/30m               0.70:  Dogleg Rot Max 
 DLSO.°/30m               3.00:  Dogleg Oriented 
 DLSX.°/30m               4.55:  Dogleg Str Max 
 DRET.      08.08.32 02-May-20:  Drill End Time 
 DRST.      08.08.32 28-Apr-20:  Drill Start Tim 
 DTIM.hr                 60.00:  Time Drilling 
 EDEP.m                4761.01:  End Depth 
 ENG1.           Eldar Hajiyev:  Engineer 1 
 ENG2.        Marcelo Sandoval:  Engineer 2 
 ETIM.      23.23.07 05-May-20:  End Time 
 FLOI.gpm              1200.00:  Flow In 
 FLON.gpm               900.00:  Flow In Min 
 FLOS.cptm                0.00:  Fluid Loss 
 FLOX.gpm              1200.00:  Flow In Max 
 HFLO.                      No:  High Flow 
 HPRE.                      No:  High Pressure 
 HTEM.                      No:  High Temp 
 HYDO.m                   1.80:  Hydro Offset 
 IFIN.deg                68.17:  Inc, Final 
 IMAX.deg                74.61:  Inc Max 
 IMIN.deg                68.15:  Inc Min 
 IMND.m                4317.87:  Inc Min Depth 
 IMXD.m                4714.01:  Inc Max Depth 
 LETM.      08.08.32 02-May-20:  Log End Time 
 LOST.hr                     2:  Lost Rig Time 
 LSTM.      08.08.32 28-Apr-20:  Log Start Time 
 MDCL.ppm             41000.00:  Mud Chlorides 
 MDES.     Inversion Oil/Synthetic:  Mud Desc 
 DFD .sg                  1.58:  Mud Density 
 MDMN.sg                  1.58:  Dens Mud Min 
 MDMX.sg                  1.58:  Dens Mud Max 
 MOIL.                      71:  Run Mud Oil % 
 MOWR.                   71:29:  Run Mud OWR 
 MSND.                     0.1:  Run Mud Sand % 
 MSOL.                      23:  Run Mud Solids% 
 DFV .spqt               82.00:  Mud Viscosity 
 MWOD.in                  8.00:  MWD Tool OD 
 MWSI.                     Yes:  Serv Intrp, MWD 
 OTIM.hr                125.00:  Time Operating 
 PMAX.psia             6129.00:  Press Op, Max 
 PV  .cP                 32.00:  Mud PV 
 RUN .                     800:  Run Number 
 ROPA.m/hr               30.00:  ROP Avg 
 ROPN.m/hr               10.00:  ROP Min 
 ROPX.m/hr               40.00:  ROP Max 
 RPMA.rpm               140.00:  RPM Surface Avg 
 RPMN.rpm                80.00:  RPM Surface Min 
 RPMX.rpm               140.00:  RPM Surface Max 
 RRUN.                    L503:  Rig Run Number 
 RTIM.hr                  2.00:  Time Reaming 
 SAZI.deg               184.23:  Azm, Start 
 SDEP.m                3410.01:  Start Depth 
 SIDD.                      No:  Serv Intrp, DD 
 SINC.deg                68.29:  Inc, Start 
 SPPA.psig             6000.00:  SPP Avg 
 SPPN.psig             4000.00:  SPP Min 
 SPPX.psig             6100.00:  SPP Max 
 STIM.      08.08.32 28-Apr-20:  Start Time 
 SVCS.                 DD, MWD:  Services 
 SVER.                    9.20:  Sperry Version 
 TDAT.m                1351.00:  Tot Depth Attmp 
 TDDF.                      No:  Trip for DD 
 TDLG.m                1351.00:  Tot Depth Loggd 
 TFF .                      No:  Trip for Fail 
 TQAA.f-kp               27.00:  Torque Abs Avg 
 TQAN.f-kp               20.00:  Torque Abs Min 
 TQAX.f-kp               30.00:  Torque Abs Max 
 TRRT.°/30m               0.60:  Turn Rotating 
 MRT .                    EWER:  Maximum Recorded Temperature 
 TTMX.degC               83.00:  Max Tool Temp 
 VS01.                90511138:  Virtual Str1 SN 
 VS02.                90524876:  Virtual Str2 SN 
 VS03.                90524872:  Virtual Str3 SN 
 VS04.                90502750:  Virtual Str4 SN 
 VS05.                12330984:  Virtual Str5 SN 
 WBMN.klb                 0.00:  WOB Min 
 WOBA.klb                15.00:  WOB Avg 
 WOBX.klb                20.00:  WOB Max 
 YP  .lhf2               31.00:  Yield Point 
~Curve Information Block
#MNEM.UNIT                 API CODE     Curve Description
#---------               -----------    ---------------------------
 TIME.HHMMSS            00 000 000 000:  GT Time & Date
 GTDEPTH.m              00 000 000 000:  GT Depth
 GTPQH.psia             00 000 000 000:  GT HR Quartz Pressure
 GTTQ.degC              00 000 000 000:  GT Quartz Temperature
 GTTN.NONE              00 000 000 000:  GT Test Number
 GTET.sec               00 000 000 000:  GT Elapsed Test Time
 GTTVD.m                00 000 000 000:  GT True Vertical Depth
#Other Information
#
#WARRANTY: Halliburton will use its best efforts to furnish customers with 
#accurate information and interpretations that are part of, and incident to, the services 
#provided.  However, Halliburton cannot and does not warrant the accuracy 
#or correctness of such information and interpretations.  Under no circumstances should any 
#such information or interpretation be relied upon as the sole basis for any drilling, 
#completion, production, or financial decision or any procedure involving any risk to the 
#safety of any drilling venture, drilling rig or its crew or any other third party.  The 
#Customer has full responsibility for all drilling, completion and production operation.  
#Halliburton makes no representations or warranties, either expressed or 
#implied, including, but not limited to, the implied warranties of merchantability or fitness 
#for a particular purpose, with respect to the services rendered.  In no event will 
#Halliburton be liable for failure to obtain any particular results or for 
#any damages, including, but not limited to, indirect, special or consequential damages, 
#resulting from the use of any information or interpretation provided by Halliburton.
#
~A           TIME           GTDEPTH  GTPQH  GTTQ  GTTN  GTET   GTTVD  
# ...
   13:19:03.918.03-May-2020 4532.80 4123.32 79.92 1.00 322.51 2465.99
   13:19:04.118.03-May-2020 4532.80 4123.05 79.92 1.00 322.71 2465.99
   13:19:04.318.03-May-2020 4532.80 4122.97 79.92 1.00 322.91 2465.99
   13:19:04.519.03-May-2020 4532.80 4122.66 79.92 1.00 323.11 2465.99
   13:19:04.719.03-May-2020 4532.80 4122.50 79.92 1.00 323.31 2465.99
   13:19:04.919.03-May-2020 4532.80 4122.49 79.92 1.00 323.51 2465.99
   13:19:05.120.03-May-2020 4532.80 4122.49 79.92 1.00 323.71 2465.99
   13:19:05.320.03-May-2020 4532.80 4122.42 79.92 1.00 323.91 2465.99
   13:19:05.520.03-May-2020 4532.80 4122.26 79.92 1.00 324.11 2465.99
   13:19:05.720.03-May-2020 4532.80 4122.38 79.92 1.00 324.31 2465.99
   13:19:05.921.03-May-2020 4532.80 4122.33 79.92 1.00 324.51 2465.99
   13:19:06.121.03-May-2020 4532.80 4122.33 79.92 1.00 324.71 2465.99
   13:19:06.321.03-May-2020 4532.80 4122.28 79.92 1.00 324.91 2465.99
   13:19:06.522.03-May-2020 4532.80 4122.69 79.92 1.00 325.11 2465.99
   13:19:06.722.03-May-2020 4532.80 4123.02 79.91 1.00 325.31 2465.99
   13:19:06.922.03-May-2020 4532.80 4123.18 79.91 1.00 325.51 2465.99
   13:19:07.123.03-May-2020 4532.80 4123.18 79.91 1.00 325.71 2465.99
   13:19:07.323.03-May-2020 4532.80 4123.02 79.91 1.00 325.91 2465.99
   13:19:07.523.03-May-2020 4532.80 4122.66 79.91 1.00 326.11 2465.99
   13:19:07.724.03-May-2020 4532.80 4122.58 79.91 1.00 326.31 2465.99
   13:19:07.924.03-May-2020 4532.80 4122.52 79.91 1.00 326.51 2465.99
   13:19:08.124.03-May-2020 4532.80 4122.37 79.91 1.00 326.71 2465.99
   13:19:08.325.03-May-2020 4532.80 4122.25 79.91 1.00 326.91 2465.99
   13:19:08.525.03-May-2020 4532.80 4122.21 79.91 1.00 327.11 2465.99
   13:19:08.725.03-May-2020 4532.80 4122.17 79.91 1.00 327.31 2465.99
   13:19:08.925.03-May-2020 4532.80 4122.21 79.91 1.00 327.51 2465.99
   13:19:09.126.03-May-2020 4532.80 4122.21 79.91 1.00 327.72 2465.99
   13:19:09.326.03-May-2020 4532.80 4123.11 79.91 1.00 327.92 2465.99
   13:19:09.526.03-May-2020 4532.80 4123.29 79.91 1.00 328.12 2465.99
   13:19:09.727.03-May-2020 4532.80 4123.09 79.91 1.00 328.32 2465.99
   13:19:09.927.03-May-2020 4532.80 4124.20 79.91 1.00 328.52 2465.99
   13:19:10.127.03-May-2020 4532.80 4124.20 79.91 1.00 328.72 2465.99
   13:19:10.328.03-May-2020 4532.80 4123.32 79.91 1.00 328.92 2465.99
   13:19:10.528.03-May-2020 4532.80 4124.11 79.90 1.00 329.12 2465.99
   13:19:10.728.03-May-2020 4532.80 4123.76 79.90 1.00 329.32 2465.99
   13:19:10.929.03-May-2020 4532.80 4123.36 79.90 1.00 329.52 2465.99
   13:19:11.129.03-May-2020 4532.80 4123.36 79.90 1.00 329.72 2465.99
   13:19:11.329.03-May-2020 4532.80 4123.58 79.90 1.00 329.92 2465.99
   13:19:11.530.03-May-2020 4532.80 4123.39 79.90 1.00 330.12 2465.99
   13:19:11.730.03-May-2020 4532.80 4122.88 79.90 1.00 330.32 2465.99
   13:19:11.930.03-May-2020 4532.80 4123.65 79.90 1.00 330.52 2465.99
   13:19:12.131.03-May-2020 4532.80 4123.48 79.90 1.00 330.72 2465.99
   13:19:12.331.03-May-2020 4532.80 4123.23 79.90 1.00 330.92 2465.99
   13:19:12.531.03-May-2020 4532.80 4123.03 79.90 1.00 331.12 2465.99
   13:19:12.731.03-May-2020 4532.80 4122.75 79.90 1.00 331.32 2465.99
   13:19:12.932.03-May-2020 4532.80 4122.69 79.90 1.00 331.52 2465.99
   13:19:13.132.03-May-2020 4532.80 4122.69 79.90 1.00 331.72 2465.99
   13:19:13.332.03-May-2020 4532.80 4122.53 79.90 1.00 331.92 2465.99
   13:19:13.533.03-May-2020 4532.80 4122.49 79.90 1.00 332.12 2465.99
   13:19:13.733.03-May-2020 4532.80 4122.52 79.90 1.00 332.32 2465.99
   13:19:13.933.03-May-2020 4532.80 4122.53 79.90 1.00 332.52 2465.99
   13:19:14.134.03-May-2020 4532.80 4122.53 79.90 1.00 332.72 2465.99
   13:19:14.334.03-May-2020 4532.80 4122.89 79.89 1.00 332.92 2465.99
   13:19:14.534.03-May-2020 4532.80 4123.32 79.89 1.00 333.12 2465.99
   13:19:14.735.03-May-2020 4532.80 4123.21 79.89 1.00 333.32 2465.99
   13:19:14.935.03-May-2020 4532.80 4122.96 79.89 1.00 333.52 2465.99
   13:19:15.135.03-May-2020 4532.80 4122.96 79.89 1.00 333.72 2465.99
   13:19:15.336.03-May-2020 4532.80 4122.80 79.89 1.00 333.93 2465.99
   13:19:15.536.03-May-2020 4532.80 4122.66 79.89 1.00 334.13 2465.99
   13:19:15.736.03-May-2020 4532.80 4122.60 79.89 1.00 334.33 2465.99
   13:19:15.937.03-May-2020 4532.80 4122.59 79.89 1.00 334.53 2465.99
   13:19:16.137.03-May-2020 4532.80 4122.59 79.89 1.00 334.73 2465.99
   13:19:16.337.03-May-2020 4532.80 4122.42 79.89 1.00 334.93 2465.99
   13:19:16.537.03-May-2020 4532.80 4122.33 79.89 1.00 335.13 2465.99
   13:19:16.738.03-May-2020 4532.80 4122.34 79.89 1.00 335.33 2465.99
   13:19:16.938.03-May-2020 4532.80 4122.65 79.89 1.00 335.53 2465.99
   13:19:17.138.03-May-2020 4532.80 4122.65 79.89 1.00 335.73 2465.99
   13:19:17.339.03-May-2020 4532.80 4122.97 79.89 1.00 335.93 2465.99
   13:19:17.539.03-May-2020 4532.80 4122.71 79.89 1.00 336.13 2465.99
   13:19:17.739.03-May-2020 4532.80 4123.43 79.89 1.00 336.33 2465.99
   13:19:17.940.03-May-2020 4532.80 4123.01 79.89 1.00 336.53 2465.99
   13:19:18.140.03-May-2020 4532.80 4123.01 79.89 1.00 336.73 2465.99
   13:19:18.340.03-May-2020 4532.80 4123.48 79.88 1.00 336.93 2465.99
   13:19:18.541.03-May-2020 4532.80 4123.23 79.88 1.00 337.13 2465.99
   13:19:18.741.03-May-2020 4532.80 4123.00 79.88 1.00 337.33 2465.99
   13:19:18.941.03-May-2020 4532.80 4123.45 79.88 1.00 337.53 2465.99
   13:19:19.142.03-May-2020 4532.80 4123.45 79.88 1.00 337.73 2465.99
   13:19:19.342.03-May-2020 4532.80 4123.04 79.88 1.00 337.93 2465.99
   13:19:19.542.03-May-2020 4532.80 4122.46 79.88 1.00 338.13 2465.99
   13:19:19.742.03-May-2020 4532.80 4123.07 79.88 1.00 338.33 2465.99
   13:19:19.943.03-May-2020 4532.80 4123.04 79.88 1.00 338.53 2465.99
   13:19:20.143.03-May-2020 4532.80 4122.91 79.88 1.00 338.73 2465.99
   13:19:20.343.03-May-2020 4532.80 4122.77 79.88 1.00 338.93 2465.99
   13:19:20.544.03-May-2020 4532.80 4122.58 79.88 1.00 339.13 2465.99
   13:19:20.744.03-May-2020 4532.80 4122.60 79.88 1.00 339.33 2465.99
   13:19:20.944.03-May-2020 4532.80 4122.72 79.88 1.00 339.53 2465.99
   13:19:21.145.03-May-2020 4532.80 4122.72 79.88 1.00 339.73 2465.99
   13:19:21.345.03-May-2020 4532.80 4122.45 79.88 1.00 339.93 2465.99
   13:19:21.545.03-May-2020 4532.80 4122.56 79.88 1.00 340.13 2465.99
   13:19:21.746.03-May-2020 4532.80 4122.53 79.88 1.00 340.34 2465.99
   13:19:21.946.03-May-2020 4532.80 4122.52 79.88 1.00 340.54 2465.99
   13:19:22.146.03-May-2020 4532.80 4122.52 79.88 1.00 340.74 2465.99
   13:19:22.347.03-May-2020 4532.80 4123.17 79.87 1.00 340.94 2465.99
   13:19:22.547.03-May-2020 4532.80 4122.91 79.87 1.00 341.14 2465.99
   13:19:22.747.03-May-2020 4532.80 4122.83 79.87 1.00 341.34 2465.99
   13:19:22.948.03-May-2020 4532.80 4123.04 79.87 1.00 341.54 2465.99
   13:19:23.148.03-May-2020 4532.80 4123.04 79.87 1.00 341.74 2465.99
   13:19:23.348.03-May-2020 4532.80 4122.57 79.87 1.00 341.94 2465.99
   13:19:23.548.03-May-2020 4532.80 4122.60 79.87 1.00 342.14 2465.99
   13:19:23.749.03-May-2020 4532.80 4122.61 79.87 1.00 342.34 2465.99
   13:19:23.949.03-May-2020 4532.80 4122.49 79.87 1.00 342.54 2465.99
   13:19:24.149.03-May-2020 4532.80 4122.44 79.87 1.00 342.74 2465.99
   13:19:24.350.03-May-2020 4532.80 4122.30 79.87 1.00 342.94 2465.99
   13:19:24.550.03-May-2020 4532.80 4122.35 79.87 1.00 343.14 2465.99
   13:19:24.750.03-May-2020 4532.80 4122.63 79.87 1.00 343.34 2465.99
   13:19:24.951.03-May-2020 4532.80 4122.72 79.87 1.00 343.54 2465.99
   13:19:25.151.03-May-2020 4532.80 4122.72 79.87 1.00 343.74 2465.99
   13:19:25.351.03-May-2020 4532.80 4122.55 79.87 1.00 343.94 2465.99
   13:19:25.552.03-May-2020 4532.80 4123.22 79.87 1.00 344.14 2465.99
   13:19:25.752.03-May-2020 4532.80 4122.93 79.87 1.00 344.34 2465.99
   13:19:25.952.03-May-2020 4532.80 4122.85 79.86 1.00 344.54 2465.99
   13:19:26.153.03-May-2020 4532.80 4122.85 79.86 1.00 344.74 2465.99
   13:19:26.353.03-May-2020 4532.80 4123.18 79.86 1.00 344.94 2465.99
   13:19:26.553.03-May-2020 4532.80 4122.80 79.86 1.00 345.14 2465.99
   13:19:26.754.03-May-2020 4532.80 4123.54 79.86 1.00 345.34 2465.99
