~Version Information
 VERS.                  2.0:   CWLS log ASCII Standard -VERSION 2.0
 WRAP.                   NO:   One line per depth step
~Well Information Block
#MNEM.UNIT     VALUE/NAME     DESCRIPTION
#---------     -----------    ---------------------------
 STRT.S             00:33:44 04-May-20: START TIME 00:33:44 04-May-20
 STOP.S             00:40:14 04-May-20: STOP TIME  00:40:14 04-May-20
 STEP.S                   0.00: STEP TIME
 NULL.                 -999.25: NULL VALUE
 DFWT.                        :  DIST FWL TEXT
 DFST.                        :  DIST FSL TEXT
 DMF .             Drill Floor:  DRILL MEAS FROM
 STIM.      03.00.00 25-Mar-20:  START TIME
 DATE.      00.00.00 19-May-20:  END TIME
 SPUD.               27-Aug-20:  SPUD DATE
 NREF.                    Grid:  NORTH REFERENCE
 HPTY.       Minimum Curvature:  HOLE POS TYPE
 DMOD.             Drill Model:  DRILL MOD DESC
 SVYD.                  Survey:  SURVEY DESC
 ILTD.               Lithology:  INTERP LTH DESC
 FTOP.          Formation Tops:  FORM TOPS DESC
 SON .        AZ-XX-0906252240:  JOB NUMBER
 RIG .             West Chirag:  RIG NAME
 PDAT.          Mean Sea Level:  PERMANENT DATUM
 FLD .                     ACG:  FIELD NAME
 CTRY.              Azerbaijan:  COUNTRY NAME
 WELL.                     J23:  WELL NAME
 SRVC.          Turan Drilling:  CONTRACTOR
 COMP.     BP Exploration (Caspian Sea) Ltd.:  COMPANY
 WTYP.                Deviated:  WELL TYPE
 MDS .        Operator Entered:  MAG DATA SOURCE
 UWI .                     N/A:  UNIQUE WELL IDENTIFIER
 API .                     N/A:  API NUMBER
 BASE.              Azerbaijan:  LOGGING EQUIPMENT BASE LOCATION
 REGN.                   EESSA:  REGION
 PROV.                    Baku:  PROVINCE
 STAT.                    Baku:  STATE NAME
 MWDS.                     N/A:  MWD SHOP
 JOBN.        AZ-XX-0906252240:  JOB TICKET NUMB
 DOE .                     N/A:  DOE NUMBER
 DCON.         Sperry Drilling:  DIRECTNL CONTR
 UNIT.                     N/A:  LOGGING EQUIPMENT ID
 CNTY.                        :  COUNTY
 LOC .                        :  LOCATION
 LMF .             Drill Floor:  LOG MEASURED FROM
 TVDS.m                  43.00:  TVDSS CORRECTN
 LATI.deg                40.13:  LATITUDE
 LONG.deg                51.22:  LONGITUDE
 WHNS.m                   9.43:  WELL HEAD N/S
 WHEW.m                  -8.91:  WELL HEAD E/W
 UTMX.m              519005.06:  UTM X
 UTMY.m             4443793.85:  UTM Y
 DFWL.m                   0.00:  DISTANCE FWL
 DFSL.m                   0.00:  DISTANCE FSL
 SDEP.m                 363.00:  START DEPTH
 TDD .m                5150.01:  TOTAL DEPTH (DRILLER)
 VSDR.deg               179.88:  VERT SEC DIRECT
 GVFD.g                   1.00:  GRAVITY FIELD
 MFLD.nT              50295.00:  MAGNETIC FIELD
 MDIP.deg                59.56:  MAGNETIC DIP
 MDEC.deg                 6.45:  MAGNETIC DECL
 GRDC.deg                 0.14:  GRID CORRECTION
 AZTC.deg                 6.31:  AZM TOTAL CORR
 EPD .m                   0.00:  ELEVATION
 EGL .m                   0.00:  GROUND ELEVATION
 WDMS.m                 169.80:  WD ELEV
 APD .m                  43.00:  DEPTH ABOVE PD
 DEP .m                 354.17:  DEPTH
 AGAP.m                  43.00:  AIR GAP
 VSEW.m                  -8.91:  VERT SEC E/W
 VSNS.m                   9.43:  VERT SEC N/S
 EKB .m                   0.00:  KB ELEVATION
 EDF .m                  43.00:  DF ELEVATION
 TDL .m                1351.00:  TOTAL DEPTH (LOGGER)
 VSC .                       0:  VS TO CLOSURE
 MAGU.                 1850802:  MAGUTM CHECKSUM
~Parameter Information Block
#MNEM.UNIT       Value        Description
#---------     -----------    ---------------------------
 AV  .mps                 1.00:  Ann Velocity 
 AVMX.mps                 2.40:  Max Ann Veloc 
 AZIF.deg               148.96:  Azm, Final 
 BHAT.        Rotary Steerable:  BHA Type 
 BROT.°/30m               0.04:  Build Rotating 
 BS  .in                 12.25:  Bit Size 
 BSZ .in                 12.25:  Bit Size 
 BTPL.psig              814.00:  Bit Press Loss 
 TCS .hr                106.00:  Time Ciculation Ended 
 CV  .mps                 2.47:  Crit Velocity 
 CVMX.mps                 2.64:  Max Crit Veloc 
 DD1 .          Rashad Habibov:  Direct Drillr 1 
 DD2 .         Rasim Ibrahimov:  Direct Drillr 2 
 DDSV.                 iCruise:  DD Service 
 DEFF.%                 100.00:  % Det Eff 
 DLRX.°/30m               0.70:  Dogleg Rot Max 
 DLSO.°/30m               3.00:  Dogleg Oriented 
 DLSX.°/30m               4.55:  Dogleg Str Max 
 DRET.      08.08.32 02-May-20:  Drill End Time 
 DRST.      08.08.32 28-Apr-20:  Drill Start Tim 
 DTIM.hr                 60.00:  Time Drilling 
 EDEP.m                4761.01:  End Depth 
 ENG1.           Eldar Hajiyev:  Engineer 1 
 ENG2.        Marcelo Sandoval:  Engineer 2 
 ETIM.      23.23.07 05-May-20:  End Time 
 FLOI.gpm              1200.00:  Flow In 
 FLON.gpm               900.00:  Flow In Min 
 FLOS.cptm                0.00:  Fluid Loss 
 FLOX.gpm              1200.00:  Flow In Max 
 HFLO.                      No:  High Flow 
 HPRE.                      No:  High Pressure 
 HTEM.                      No:  High Temp 
 HYDO.m                   1.80:  Hydro Offset 
 IFIN.deg                68.17:  Inc, Final 
 IMAX.deg                74.61:  Inc Max 
 IMIN.deg                68.15:  Inc Min 
 IMND.m                4317.87:  Inc Min Depth 
 IMXD.m                4714.01:  Inc Max Depth 
 LETM.      08.08.32 02-May-20:  Log End Time 
 LOST.hr                     2:  Lost Rig Time 
 LSTM.      08.08.32 28-Apr-20:  Log Start Time 
 MDCL.ppm             41000.00:  Mud Chlorides 
 MDES.     Inversion Oil/Synthetic:  Mud Desc 
 DFD .sg                  1.58:  Mud Density 
 MDMN.sg                  1.58:  Dens Mud Min 
 MDMX.sg                  1.58:  Dens Mud Max 
 MOIL.                      71:  Run Mud Oil % 
 MOWR.                   71:29:  Run Mud OWR 
 MSND.                     0.1:  Run Mud Sand % 
 MSOL.                      23:  Run Mud Solids% 
 DFV .spqt               82.00:  Mud Viscosity 
 MWOD.in                  8.00:  MWD Tool OD 
 MWSI.                     Yes:  Serv Intrp, MWD 
 OTIM.hr                125.00:  Time Operating 
 PMAX.psia             6129.00:  Press Op, Max 
 PV  .cP                 32.00:  Mud PV 
 RUN .                     800:  Run Number 
 ROPA.m/hr               30.00:  ROP Avg 
 ROPN.m/hr               10.00:  ROP Min 
 ROPX.m/hr               40.00:  ROP Max 
 RPMA.rpm               140.00:  RPM Surface Avg 
 RPMN.rpm                80.00:  RPM Surface Min 
 RPMX.rpm               140.00:  RPM Surface Max 
 RRUN.                    L503:  Rig Run Number 
 RTIM.hr                  2.00:  Time Reaming 
 SAZI.deg               184.23:  Azm, Start 
 SDEP.m                3410.01:  Start Depth 
 SIDD.                      No:  Serv Intrp, DD 
 SINC.deg                68.29:  Inc, Start 
 SPPA.psig             6000.00:  SPP Avg 
 SPPN.psig             4000.00:  SPP Min 
 SPPX.psig             6100.00:  SPP Max 
 STIM.      08.08.32 28-Apr-20:  Start Time 
 SVCS.                 DD, MWD:  Services 
 SVER.                    9.20:  Sperry Version 
 TDAT.m                1351.00:  Tot Depth Attmp 
 TDDF.                      No:  Trip for DD 
 TDLG.m                1351.00:  Tot Depth Loggd 
 TFF .                      No:  Trip for Fail 
 TQAA.f-kp               27.00:  Torque Abs Avg 
 TQAN.f-kp               20.00:  Torque Abs Min 
 TQAX.f-kp               30.00:  Torque Abs Max 
 TRRT.°/30m               0.60:  Turn Rotating 
 MRT .                    EWER:  Maximum Recorded Temperature 
 TTMX.degC               83.00:  Max Tool Temp 
 VS01.                90511138:  Virtual Str1 SN 
 VS02.                90524876:  Virtual Str2 SN 
 VS03.                90524872:  Virtual Str3 SN 
 VS04.                90502750:  Virtual Str4 SN 
 VS05.                12330984:  Virtual Str5 SN 
 WBMN.klb                 0.00:  WOB Min 
 WOBA.klb                15.00:  WOB Avg 
 WOBX.klb                20.00:  WOB Max 
 YP  .lhf2               31.00:  Yield Point 
~Curve Information Block
#MNEM.UNIT                 API CODE     Curve Description
#---------               -----------    ---------------------------
 TIME.HHMMSS            00 000 000 000:  GT Time & Date
 GTDEPTH.m              00 000 000 000:  GT Depth
 GTPQH.psia             00 000 000 000:  GT HR Quartz Pressure
 GTTQ.degC              00 000 000 000:  GT Quartz Temperature
 GTTN.NONE              00 000 000 000:  GT Test Number
 GTET.sec               00 000 000 000:  GT Elapsed Test Time
 GTTVD.m                00 000 000 000:  GT True Vertical Depth
#Other Information
#
#WARRANTY: Halliburton will use its best efforts to furnish customers with 
#accurate information and interpretations that are part of, and incident to, the services 
#provided.  However, Halliburton cannot and does not warrant the accuracy 
#or correctness of such information and interpretations.  Under no circumstances should any 
#such information or interpretation be relied upon as the sole basis for any drilling, 
#completion, production, or financial decision or any procedure involving any risk to the 
#safety of any drilling venture, drilling rig or its crew or any other third party.  The 
#Customer has full responsibility for all drilling, completion and production operation.  
#Halliburton makes no representations or warranties, either expressed or 
#implied, including, but not limited to, the implied warranties of merchantability or fitness 
#for a particular purpose, with respect to the services rendered.  In no event will 
#Halliburton be liable for failure to obtain any particular results or for 
#any damages, including, but not limited to, indirect, special or consequential damages, 
#resulting from the use of any information or interpretation provided by Halliburton.
#
~A           TIME           GTDEPTH  GTPQH  GTTQ  GTTN  GTET   GTTVD  
# ...
   00:35:16.325.04-May-2020 4661.71  191.16 80.97 4.00  92.01 2504.33
   00:35:16.525.04-May-2020 4661.71  191.16 80.97 4.00  92.21 2504.33
   00:35:16.725.04-May-2020 4661.71  191.36 80.97 4.00  92.41 2504.33
   00:35:16.925.04-May-2020 4661.71  191.49 80.97 4.00  92.61 2504.33
   00:35:17.125.04-May-2020 4661.71  191.63 80.97 4.00  92.81 2504.33
   00:35:17.325.04-May-2020 4661.71  191.75 80.97 4.00  93.01 2504.33
   00:35:17.525.04-May-2020 4661.71  191.75 80.97 4.00  93.21 2504.33
   00:35:17.725.04-May-2020 4661.71  191.94 80.97 4.00  93.41 2504.33
   00:35:17.925.04-May-2020 4661.71  192.03 80.97 4.00  93.61 2504.33
   00:35:18.125.04-May-2020 4661.71  192.18 80.97 4.00  93.81 2504.33
   00:35:18.325.04-May-2020 4661.71  192.29 80.97 4.00  94.01 2504.33
   00:35:18.525.04-May-2020 4661.71  192.39 80.97 4.00  94.21 2504.33
   00:35:18.725.04-May-2020 4661.71  192.52 80.97 4.00  94.41 2504.33
   00:35:18.925.04-May-2020 4661.71  192.67 80.96 4.00  94.61 2504.33
   00:35:19.125.04-May-2020 4661.71  192.75 80.96 4.00  94.81 2504.33
   00:35:19.325.04-May-2020 4661.71  192.89 80.96 4.00  95.01 2504.33
   00:35:19.525.04-May-2020 4661.71  193.04 80.96 4.00  95.21 2504.33
   00:35:19.725.04-May-2020 4661.71  193.16 80.96 4.00  95.41 2504.33
   00:35:19.925.04-May-2020 4661.71  193.26 80.96 4.00  95.61 2504.33
   00:35:20.125.04-May-2020 4661.71  193.38 80.96 4.00  95.81 2504.33
   00:35:20.325.04-May-2020 4661.71  193.46 80.96 4.00  96.01 2504.33
   00:35:20.525.04-May-2020 4661.71  193.46 80.96 4.00  96.21 2504.33
   00:35:20.725.04-May-2020 4661.71  193.65 80.96 4.00  96.41 2504.33
   00:35:20.925.04-May-2020 4661.71  193.74 80.96 4.00  96.61 2504.33
   00:35:21.125.04-May-2020 4661.71  193.82 80.96 4.00  96.81 2504.33
   00:35:21.325.04-May-2020 4661.71  193.91 80.96 4.00  97.01 2504.33
   00:35:21.525.04-May-2020 4661.71  193.99 80.96 4.00  97.21 2504.33
   00:35:21.725.04-May-2020 4661.71  194.07 80.96 4.00  97.41 2504.33
   00:35:21.925.04-May-2020 4661.71  194.09 80.96 4.00  97.61 2504.33
   00:35:22.125.04-May-2020 4661.71  194.20 80.96 4.00  97.81 2504.33
   00:35:22.325.04-May-2020 4661.71  194.33 80.96 4.00  98.01 2504.33
   00:35:22.525.04-May-2020 4661.71  194.33 80.96 4.00  98.21 2504.33
   00:35:22.725.04-May-2020 4661.71  194.51 80.95 4.00  98.41 2504.33
   00:35:22.925.04-May-2020 4661.71  194.60 80.95 4.00  98.61 2504.33
   00:35:23.125.04-May-2020 4661.71  194.69 80.95 4.00  98.81 2504.33
   00:35:23.325.04-May-2020 4661.71  194.77 80.95 4.00  99.01 2504.33
   00:35:23.525.04-May-2020 4661.71  194.84 80.95 4.00  99.21 2504.33
   00:35:23.725.04-May-2020 4661.71  194.93 80.95 4.00  99.41 2504.33
   00:35:23.925.04-May-2020 4661.71  195.00 80.95 4.00  99.61 2504.33
   00:35:24.125.04-May-2020 4661.71  195.07 80.95 4.00  99.81 2504.33
   00:35:24.325.04-May-2020 4661.71  195.09 80.95 4.00 100.01 2504.33
   00:35:24.525.04-May-2020 4661.71  195.16 80.95 4.00 100.21 2504.33
   00:35:24.725.04-May-2020 4661.71  195.25 80.95 4.00 100.41 2504.33
   00:35:24.925.04-May-2020 4661.71  195.33 80.95 4.00 100.61 2504.33
   00:35:25.125.04-May-2020 4661.71  195.43 80.95 4.00 100.81 2504.33
   00:35:25.325.04-May-2020 4661.71  195.54 80.95 4.00 101.01 2504.33
   00:35:25.525.04-May-2020 4661.71  195.54 80.95 4.00 101.21 2504.33
   00:35:25.725.04-May-2020 4661.71  195.71 80.95 4.00 101.41 2504.33
   00:35:25.925.04-May-2020 4661.71  195.76 80.95 4.00 101.61 2504.33
   00:35:26.125.04-May-2020 4661.71  195.83 80.95 4.00 101.81 2504.33
   00:35:26.325.04-May-2020 4661.71  195.93 80.95 4.00 102.01 2504.33
   00:35:26.525.04-May-2020 4661.71  196.00 80.94 4.00 102.21 2504.33
   00:35:26.725.04-May-2020 4661.71  196.07 80.94 4.00 102.41 2504.33
   00:35:26.925.04-May-2020 4661.71  196.11 80.94 4.00 102.61 2504.33
   00:35:27.125.04-May-2020 4661.71  196.23 80.94 4.00 102.81 2504.33
   00:35:27.326.04-May-2020 4661.71  196.30 80.94 4.00 103.01 2504.33
   00:35:27.526.04-May-2020 4661.71  196.30 80.94 4.00 103.21 2504.33
   00:35:27.726.04-May-2020 4661.71  196.48 80.94 4.00 103.41 2504.33
   00:35:27.926.04-May-2020 4661.71  196.57 80.94 4.00 103.61 2504.33
   00:35:28.126.04-May-2020 4661.71  196.65 80.94 4.00 103.81 2504.33
   00:35:28.326.04-May-2020 4661.71  196.72 80.94 4.00 104.01 2504.33
   00:35:28.526.04-May-2020 4661.71  196.72 80.94 4.00 104.21 2504.33
   00:35:28.726.04-May-2020 4661.71  196.86 80.94 4.00 104.41 2504.33
   00:35:28.926.04-May-2020 4661.71  196.92 80.94 4.00 104.61 2504.33
   00:35:29.126.04-May-2020 4661.71  196.98 80.94 4.00 104.81 2504.33
   00:35:29.326.04-May-2020 4661.71  197.05 80.94 4.00 105.01 2504.33
   00:35:29.526.04-May-2020 4661.71  197.05 80.94 4.00 105.21 2504.33
   00:35:29.726.04-May-2020 4661.71  197.17 80.94 4.00 105.41 2504.33
   00:35:29.926.04-May-2020 4661.71  197.23 80.94 4.00 105.61 2504.33
   00:35:30.126.04-May-2020 4661.71  197.27 80.93 4.00 105.81 2504.33
   00:35:30.326.04-May-2020 4661.71  197.29 80.93 4.00 106.01 2504.33
   00:35:30.526.04-May-2020 4661.71  197.38 80.93 4.00 106.21 2504.33
   00:35:30.726.04-May-2020 4661.71  197.45 80.93 4.00 106.41 2504.33
   00:35:30.926.04-May-2020 4661.71  197.52 80.93 4.00 106.61 2504.33
   00:35:31.126.04-May-2020 4661.71  197.59 80.93 4.00 106.81 2504.33
   00:35:31.326.04-May-2020 4661.71  197.64 80.93 4.00 107.01 2504.33
   00:35:31.526.04-May-2020 4661.71  197.70 80.93 4.00 107.21 2504.33
   00:35:31.726.04-May-2020 4661.71  197.76 80.93 4.00 107.41 2504.33
   00:35:31.926.04-May-2020 4661.71  197.82 80.93 4.00 107.61 2504.33
   00:35:32.126.04-May-2020 4661.71  197.87 80.93 4.00 107.81 2504.33
   00:35:32.326.04-May-2020 4661.71  197.93 80.93 4.00 108.01 2504.33
   00:35:32.526.04-May-2020 4661.71  197.93 80.93 4.00 108.21 2504.33
   00:35:32.726.04-May-2020 4661.71  197.81 80.93 4.00 108.41 2504.33
   00:35:32.926.04-May-2020 4661.71  197.53 80.93 4.00 108.61 2504.33
   00:35:33.126.04-May-2020 4661.71  197.54 80.93 4.00 108.81 2504.33
   00:35:33.326.04-May-2020 4661.71  197.60 80.93 4.00 109.01 2504.33
   00:35:33.526.04-May-2020 4661.71  197.69 80.93 4.00 109.21 2504.33
   00:35:33.726.04-May-2020 4661.71  197.76 80.92 4.00 109.41 2504.33
   00:35:33.926.04-May-2020 4661.71  197.80 80.92 4.00 109.61 2504.33
   00:35:34.126.04-May-2020 4661.71  197.87 80.92 4.00 109.81 2504.33
   00:35:34.326.04-May-2020 4661.71  197.94 80.92 4.00 110.01 2504.33
   00:35:34.526.04-May-2020 4661.71  198.01 80.92 4.00 110.21 2504.33
   00:35:34.726.04-May-2020 4661.71  198.07 80.92 4.00 110.41 2504.33
   00:35:34.926.04-May-2020 4661.71  198.10 80.92 4.00 110.61 2504.33
   00:35:35.126.04-May-2020 4661.71  198.16 80.92 4.00 110.81 2504.33
   00:35:35.326.04-May-2020 4661.71  198.25 80.92 4.00 111.01 2504.33
   00:35:35.526.04-May-2020 4661.71  198.25 80.92 4.00 111.21 2504.33
   00:35:35.726.04-May-2020 4661.71  198.34 80.92 4.00 111.41 2504.33
   00:35:35.926.04-May-2020 4661.71  198.40 80.92 4.00 111.61 2504.33
   00:35:36.126.04-May-2020 4661.71  198.49 80.92 4.00 111.81 2504.33
   00:35:36.326.04-May-2020 4661.71  198.55 80.92 4.00 112.01 2504.33
   00:35:36.526.04-May-2020 4661.71  198.55 80.92 4.00 112.21 2504.33
   00:35:36.726.04-May-2020 4661.71  198.66 80.92 4.00 112.41 2504.33
   00:35:36.926.04-May-2020 4661.71  198.71 80.92 4.00 112.61 2504.33
   00:35:37.126.04-May-2020 4661.71  198.76 80.91 4.00 112.81 2504.33
   00:35:37.326.04-May-2020 4661.71  198.81 80.91 4.00 113.01 2504.33
   00:35:37.526.04-May-2020 4661.71  198.81 80.91 4.00 113.21 2504.33
   00:35:37.726.04-May-2020 4661.71  198.89 80.91 4.00 113.41 2504.33
   00:35:37.926.04-May-2020 4661.71  198.94 80.91 4.00 113.61 2504.33
   00:35:38.126.04-May-2020 4661.71  198.98 80.91 4.00 113.81 2504.33
   00:35:38.327.04-May-2020 4661.71  199.01 80.91 4.00 114.01 2504.33
   00:35:38.527.04-May-2020 4661.71  199.05 80.91 4.00 114.21 2504.33
   00:35:38.727.04-May-2020 4661.71  199.10 80.91 4.00 114.41 2504.33
   00:35:38.927.04-May-2020 4661.71  199.17 80.91 4.00 114.61 2504.33
   00:35:39.127.04-May-2020 4661.71  199.23 80.91 4.00 114.81 2504.33
