~Version Information
 VERS.                  2.0:   CWLS log ASCII Standard -VERSION 2.0
 WRAP.                   NO:   One line per depth step
~Well Information Block
#MNEM.UNIT     VALUE/NAME     DESCRIPTION
#---------     -----------    ---------------------------
 STRT.S             19:38:29 03-May-20: START TIME 19:38:29 03-May-20
 STOP.S             19:45:06 03-May-20: STOP TIME  19:45:06 03-May-20
 STEP.S                   0.00: STEP TIME
 NULL.                 -999.25: NULL VALUE
 DFWT.                        :  DIST FWL TEXT
 DFST.                        :  DIST FSL TEXT
 DMF .             Drill Floor:  DRILL MEAS FROM
 STIM.      03.00.00 25-Mar-20:  START TIME
 DATE.      00.00.00 19-May-20:  END TIME
 SPUD.               27-Aug-20:  SPUD DATE
 NREF.                    Grid:  NORTH REFERENCE
 HPTY.       Minimum Curvature:  HOLE POS TYPE
 DMOD.             Drill Model:  DRILL MOD DESC
 SVYD.                  Survey:  SURVEY DESC
 ILTD.               Lithology:  INTERP LTH DESC
 FTOP.          Formation Tops:  FORM TOPS DESC
 SON .        AZ-XX-0906252240:  JOB NUMBER
 RIG .             West Chirag:  RIG NAME
 PDAT.          Mean Sea Level:  PERMANENT DATUM
 FLD .                     ACG:  FIELD NAME
 CTRY.              Azerbaijan:  COUNTRY NAME
 WELL.                     J23:  WELL NAME
 SRVC.          Turan Drilling:  CONTRACTOR
 COMP.     BP Exploration (Caspian Sea) Ltd.:  COMPANY
 WTYP.                Deviated:  WELL TYPE
 MDS .        Operator Entered:  MAG DATA SOURCE
 UWI .                     N/A:  UNIQUE WELL IDENTIFIER
 API .                     N/A:  API NUMBER
 BASE.              Azerbaijan:  LOGGING EQUIPMENT BASE LOCATION
 REGN.                   EESSA:  REGION
 PROV.                    Baku:  PROVINCE
 STAT.                    Baku:  STATE NAME
 MWDS.                     N/A:  MWD SHOP
 JOBN.        AZ-XX-0906252240:  JOB TICKET NUMB
 DOE .                     N/A:  DOE NUMBER
 DCON.         Sperry Drilling:  DIRECTNL CONTR
 UNIT.                     N/A:  LOGGING EQUIPMENT ID
 CNTY.                        :  COUNTY
 LOC .                        :  LOCATION
 LMF .             Drill Floor:  LOG MEASURED FROM
 TVDS.m                  43.00:  TVDSS CORRECTN
 LATI.deg                40.13:  LATITUDE
 LONG.deg                51.22:  LONGITUDE
 WHNS.m                   9.43:  WELL HEAD N/S
 WHEW.m                  -8.91:  WELL HEAD E/W
 UTMX.m              519005.06:  UTM X
 UTMY.m             4443793.85:  UTM Y
 DFWL.m                   0.00:  DISTANCE FWL
 DFSL.m                   0.00:  DISTANCE FSL
 SDEP.m                 363.00:  START DEPTH
 TDD .m                5150.01:  TOTAL DEPTH (DRILLER)
 VSDR.deg               179.88:  VERT SEC DIRECT
 GVFD.g                   1.00:  GRAVITY FIELD
 MFLD.nT              50295.00:  MAGNETIC FIELD
 MDIP.deg                59.56:  MAGNETIC DIP
 MDEC.deg                 6.45:  MAGNETIC DECL
 GRDC.deg                 0.14:  GRID CORRECTION
 AZTC.deg                 6.31:  AZM TOTAL CORR
 EPD .m                   0.00:  ELEVATION
 EGL .m                   0.00:  GROUND ELEVATION
 WDMS.m                 169.80:  WD ELEV
 APD .m                  43.00:  DEPTH ABOVE PD
 DEP .m                 354.17:  DEPTH
 AGAP.m                  43.00:  AIR GAP
 VSEW.m                  -8.91:  VERT SEC E/W
 VSNS.m                   9.43:  VERT SEC N/S
 EKB .m                   0.00:  KB ELEVATION
 EDF .m                  43.00:  DF ELEVATION
 TDL .m                1351.00:  TOTAL DEPTH (LOGGER)
 VSC .                       0:  VS TO CLOSURE
 MAGU.                 1850802:  MAGUTM CHECKSUM
~Parameter Information Block
#MNEM.UNIT       Value        Description
#---------     -----------    ---------------------------
 AV  .mps                 1.00:  Ann Velocity 
 AVMX.mps                 2.40:  Max Ann Veloc 
 AZIF.deg               148.96:  Azm, Final 
 BHAT.        Rotary Steerable:  BHA Type 
 BROT.°/30m               0.04:  Build Rotating 
 BS  .in                 12.25:  Bit Size 
 BSZ .in                 12.25:  Bit Size 
 BTPL.psig              814.00:  Bit Press Loss 
 TCS .hr                106.00:  Time Ciculation Ended 
 CV  .mps                 2.47:  Crit Velocity 
 CVMX.mps                 2.64:  Max Crit Veloc 
 DD1 .          Rashad Habibov:  Direct Drillr 1 
 DD2 .         Rasim Ibrahimov:  Direct Drillr 2 
 DDSV.                 iCruise:  DD Service 
 DEFF.%                 100.00:  % Det Eff 
 DLRX.°/30m               0.70:  Dogleg Rot Max 
 DLSO.°/30m               3.00:  Dogleg Oriented 
 DLSX.°/30m               4.55:  Dogleg Str Max 
 DRET.      08.08.32 02-May-20:  Drill End Time 
 DRST.      08.08.32 28-Apr-20:  Drill Start Tim 
 DTIM.hr                 60.00:  Time Drilling 
 EDEP.m                4761.01:  End Depth 
 ENG1.           Eldar Hajiyev:  Engineer 1 
 ENG2.        Marcelo Sandoval:  Engineer 2 
 ETIM.      23.23.07 05-May-20:  End Time 
 FLOI.gpm              1200.00:  Flow In 
 FLON.gpm               900.00:  Flow In Min 
 FLOS.cptm                0.00:  Fluid Loss 
 FLOX.gpm              1200.00:  Flow In Max 
 HFLO.                      No:  High Flow 
 HPRE.                      No:  High Pressure 
 HTEM.                      No:  High Temp 
 HYDO.m                   1.80:  Hydro Offset 
 IFIN.deg                68.17:  Inc, Final 
 IMAX.deg                74.61:  Inc Max 
 IMIN.deg                68.15:  Inc Min 
 IMND.m                4317.87:  Inc Min Depth 
 IMXD.m                4714.01:  Inc Max Depth 
 LETM.      08.08.32 02-May-20:  Log End Time 
 LOST.hr                     2:  Lost Rig Time 
 LSTM.      08.08.32 28-Apr-20:  Log Start Time 
 MDCL.ppm             41000.00:  Mud Chlorides 
 MDES.     Inversion Oil/Synthetic:  Mud Desc 
 DFD .sg                  1.58:  Mud Density 
 MDMN.sg                  1.58:  Dens Mud Min 
 MDMX.sg                  1.58:  Dens Mud Max 
 MOIL.                      71:  Run Mud Oil % 
 MOWR.                   71:29:  Run Mud OWR 
 MSND.                     0.1:  Run Mud Sand % 
 MSOL.                      23:  Run Mud Solids% 
 DFV .spqt               82.00:  Mud Viscosity 
 MWOD.in                  8.00:  MWD Tool OD 
 MWSI.                     Yes:  Serv Intrp, MWD 
 OTIM.hr                125.00:  Time Operating 
 PMAX.psia             6129.00:  Press Op, Max 
 PV  .cP                 32.00:  Mud PV 
 RUN .                     800:  Run Number 
 ROPA.m/hr               30.00:  ROP Avg 
 ROPN.m/hr               10.00:  ROP Min 
 ROPX.m/hr               40.00:  ROP Max 
 RPMA.rpm               140.00:  RPM Surface Avg 
 RPMN.rpm                80.00:  RPM Surface Min 
 RPMX.rpm               140.00:  RPM Surface Max 
 RRUN.                    L503:  Rig Run Number 
 RTIM.hr                  2.00:  Time Reaming 
 SAZI.deg               184.23:  Azm, Start 
 SDEP.m                3410.01:  Start Depth 
 SIDD.                      No:  Serv Intrp, DD 
 SINC.deg                68.29:  Inc, Start 
 SPPA.psig             6000.00:  SPP Avg 
 SPPN.psig             4000.00:  SPP Min 
 SPPX.psig             6100.00:  SPP Max 
 STIM.      08.08.32 28-Apr-20:  Start Time 
 SVCS.                 DD, MWD:  Services 
 SVER.                    9.20:  Sperry Version 
 TDAT.m                1351.00:  Tot Depth Attmp 
 TDDF.                      No:  Trip for DD 
 TDLG.m                1351.00:  Tot Depth Loggd 
 TFF .                      No:  Trip for Fail 
 TQAA.f-kp               27.00:  Torque Abs Avg 
 TQAN.f-kp               20.00:  Torque Abs Min 
 TQAX.f-kp               30.00:  Torque Abs Max 
 TRRT.°/30m               0.60:  Turn Rotating 
 MRT .                    EWER:  Maximum Recorded Temperature 
 TTMX.degC               83.00:  Max Tool Temp 
 VS01.                90511138:  Virtual Str1 SN 
 VS02.                90524876:  Virtual Str2 SN 
 VS03.                90524872:  Virtual Str3 SN 
 VS04.                90502750:  Virtual Str4 SN 
 VS05.                12330984:  Virtual Str5 SN 
 WBMN.klb                 0.00:  WOB Min 
 WOBA.klb                15.00:  WOB Avg 
 WOBX.klb                20.00:  WOB Max 
 YP  .lhf2               31.00:  Yield Point 
~Curve Information Block
#MNEM.UNIT                 API CODE     Curve Description
#---------               -----------    ---------------------------
 TIME.HHMMSS            00 000 000 000:  GT Time & Date
 GTDEPTH.m              00 000 000 000:  GT Depth
 GTPQH.psia             00 000 000 000:  GT HR Quartz Pressure
 GTTQ.degC              00 000 000 000:  GT Quartz Temperature
 GTTN.NONE              00 000 000 000:  GT Test Number
 GTET.sec               00 000 000 000:  GT Elapsed Test Time
 GTTVD.m                00 000 000 000:  GT True Vertical Depth
#Other Information
#
#WARRANTY: Halliburton will use its best efforts to furnish customers with 
#accurate information and interpretations that are part of, and incident to, the services 
#provided.  However, Halliburton cannot and does not warrant the accuracy 
#or correctness of such information and interpretations.  Under no circumstances should any 
#such information or interpretation be relied upon as the sole basis for any drilling, 
#completion, production, or financial decision or any procedure involving any risk to the 
#safety of any drilling venture, drilling rig or its crew or any other third party.  The 
#Customer has full responsibility for all drilling, completion and production operation.  
#Halliburton makes no representations or warranties, either expressed or 
#implied, including, but not limited to, the implied warranties of merchantability or fitness 
#for a particular purpose, with respect to the services rendered.  In no event will 
#Halliburton be liable for failure to obtain any particular results or for 
#any damages, including, but not limited to, indirect, special or consequential damages, 
#resulting from the use of any information or interpretation provided by Halliburton.
#
~A           TIME           GTDEPTH  GTPQH  GTTQ  GTTN  GTET   GTTVD  
# ...
   19:39:15.491.03-May-2020 4608.48 5857.93 80.37 3.00  46.00 2489.14
   19:39:15.691.03-May-2020 4608.48 5855.71 80.37 3.00  46.20 2489.14
   19:39:15.891.03-May-2020 4608.48 5854.88 80.37 3.00  46.41 2489.14
   19:39:16.091.03-May-2020 4608.48 5854.16 80.37 3.00  46.61 2489.14
   19:39:16.291.03-May-2020 4608.48 5852.75 80.37 3.00  46.81 2489.14
   19:39:16.491.03-May-2020 4608.48 5852.43 80.37 3.00  47.01 2489.14
   19:39:16.691.03-May-2020 4608.48 5852.43 80.37 3.00  47.21 2489.14
   19:39:16.891.03-May-2020 4608.48 5853.34 80.37 3.00  47.41 2489.14
   19:39:17.091.03-May-2020 4608.48 5848.70 80.37 3.00  47.61 2489.14
   19:39:17.291.03-May-2020 4608.48 5877.90 80.37 3.00  47.81 2489.14
   19:39:17.491.03-May-2020 4608.48 5812.26 80.36 3.00  48.01 2489.14
   19:39:17.691.03-May-2020 4608.48 5807.92 80.36 3.00  48.21 2489.14
   19:39:17.891.03-May-2020 4608.48 5807.56 80.36 3.00  48.41 2489.14
   19:39:18.091.03-May-2020 4608.48 5809.29 80.36 3.00  48.61 2489.14
   19:39:18.291.03-May-2020 4608.48 5810.51 80.36 3.00  48.81 2489.14
   19:39:18.491.03-May-2020 4608.48 5806.98 80.36 3.00  49.01 2489.14
   19:39:18.691.03-May-2020 4608.48 5806.98 80.36 3.00  49.21 2489.14
   19:39:18.891.03-May-2020 4608.48 5809.52 80.36 3.00  49.41 2489.14
   19:39:19.091.03-May-2020 4608.48 5810.03 80.36 3.00  49.61 2489.14
   19:39:19.291.03-May-2020 4608.48 5807.19 80.36 3.00  49.81 2489.14
   19:39:19.491.03-May-2020 4608.48 5807.92 80.36 3.00  50.01 2489.14
   19:39:19.691.03-May-2020 4608.48 5809.23 80.35 3.00  50.21 2489.14
   19:39:19.891.03-May-2020 4608.48 5809.19 80.35 3.00  50.41 2489.14
   19:39:20.091.03-May-2020 4608.48 5813.43 80.35 3.00  50.61 2489.14
   19:39:20.291.03-May-2020 4608.48 5804.44 80.35 3.00  50.81 2489.14
   19:39:20.491.03-May-2020 4608.48 5715.48 80.35 3.00  51.01 2489.14
   19:39:20.691.03-May-2020 4608.48 5715.48 80.35 3.00  51.21 2489.14
   19:39:20.891.03-May-2020 4608.48 5375.47 80.35 3.00  51.41 2489.14
   19:39:21.091.03-May-2020 4608.48 5046.07 80.35 3.00  51.61 2489.14
   19:39:21.291.03-May-2020 4608.48 4653.87 80.35 3.00  51.81 2489.14
   19:39:21.491.03-May-2020 4608.48 4239.66 80.35 3.00  52.01 2489.14
   19:39:21.691.03-May-2020 4608.48 4045.17 80.35 3.00  52.21 2489.14
   19:39:21.891.03-May-2020 4608.48 4083.45 80.34 3.00  52.41 2489.14
   19:39:22.091.03-May-2020 4608.48 4089.36 80.34 3.00  52.61 2489.14
   19:39:22.291.03-May-2020 4608.48 4093.02 80.34 3.00  52.81 2489.14
   19:39:22.491.03-May-2020 4608.48 4093.94 80.34 3.00  53.01 2489.14
   19:39:22.691.03-May-2020 4608.48 4093.94 80.34 3.00  53.21 2489.14
   19:39:22.892.03-May-2020 4608.48 4096.28 80.34 3.00  53.41 2489.14
   19:39:23.092.03-May-2020 4608.48 4096.25 80.33 3.00  53.61 2489.14
   19:39:23.292.03-May-2020 4608.48 4096.03 80.33 3.00  53.81 2489.14
   19:39:23.492.03-May-2020 4608.48 4098.94 80.33 3.00  54.01 2489.14
   19:39:23.692.03-May-2020 4608.48 4098.94 80.33 3.00  54.21 2489.14
   19:39:23.892.03-May-2020 4608.48 4098.97 80.33 3.00  54.41 2489.14
   19:39:24.092.03-May-2020 4608.48 4098.75 80.32 3.00  54.61 2489.14
   19:39:24.292.03-May-2020 4608.48 4098.13 80.32 3.00  54.81 2489.14
   19:39:24.492.03-May-2020 4608.48 4098.26 80.32 3.00  55.01 2489.14
   19:39:24.692.03-May-2020 4608.48 4098.26 80.32 3.00  55.21 2489.14
   19:39:24.892.03-May-2020 4608.48 4098.34 80.31 3.00  55.41 2489.14
   19:39:25.092.03-May-2020 4608.48 4098.14 80.31 3.00  55.61 2489.14
   19:39:25.292.03-May-2020 4608.48 4098.33 80.31 3.00  55.81 2489.14
   19:39:25.492.03-May-2020 4608.48 4096.87 80.31 3.00  56.01 2489.14
   19:39:25.692.03-May-2020 4608.48 4096.87 80.31 3.00  56.21 2489.14
   19:39:25.892.03-May-2020 4608.48 4099.11 80.30 3.00  56.41 2489.14
   19:39:26.092.03-May-2020 4608.48 4098.47 80.30 3.00  56.61 2489.14
   19:39:26.292.03-May-2020 4608.48 4098.37 80.30 3.00  56.81 2489.14
   19:39:26.492.03-May-2020 4608.48 4098.82 80.30 3.00  57.01 2489.14
   19:39:26.692.03-May-2020 4608.48 4098.82 80.30 3.00  57.21 2489.14
   19:39:26.892.03-May-2020 4608.48 4099.73 80.29 3.00  57.41 2489.14
   19:39:27.092.03-May-2020 4608.48 4097.78 80.29 3.00  57.61 2489.14
   19:39:27.292.03-May-2020 4608.48 4099.01 80.29 3.00  57.81 2489.14
   19:39:27.492.03-May-2020 4608.48 4100.08 80.29 3.00  58.01 2489.14
   19:39:27.692.03-May-2020 4608.48 4122.51 80.29 3.00  58.21 2489.14
   19:39:27.892.03-May-2020 4608.48 4147.69 80.29 3.00  58.41 2489.14
   19:39:28.092.03-May-2020 4608.48 4147.74 80.28 3.00  58.61 2489.14
   19:39:28.292.03-May-2020 4608.48 4147.79 80.28 3.00  58.81 2489.14
   19:39:28.492.03-May-2020 4608.48 4147.89 80.28 3.00  59.01 2489.14
   19:39:28.692.03-May-2020 4608.48 4147.89 80.28 3.00  59.21 2489.14
   19:39:28.892.03-May-2020 4608.48 4148.21 80.28 3.00  59.41 2489.14
   19:39:29.092.03-May-2020 4608.48 4147.86 80.28 3.00  59.61 2489.14
   19:39:29.292.03-May-2020 4608.48 4148.07 80.28 3.00  59.81 2489.14
   19:39:29.492.03-May-2020 4608.48 4148.20 80.27 3.00  60.01 2489.14
   19:39:29.692.03-May-2020 4608.48 4148.20 80.27 3.00  60.21 2489.14
   19:39:29.892.03-May-2020 4608.48 4148.10 80.27 3.00  60.41 2489.14
   19:39:30.092.03-May-2020 4608.48 4148.05 80.27 3.00  60.61 2489.14
   19:39:30.292.03-May-2020 4608.48 4148.14 80.27 3.00  60.81 2489.14
   19:39:30.492.03-May-2020 4608.48 4148.16 80.27 3.00  61.01 2489.14
   19:39:30.692.03-May-2020 4608.48 4148.16 80.27 3.00  61.21 2489.14
   19:39:30.892.03-May-2020 4608.48 4148.16 80.27 3.00  61.41 2489.14
   19:39:31.092.03-May-2020 4608.48 4148.18 80.26 3.00  61.61 2489.14
   19:39:31.292.03-May-2020 4608.48 4148.17 80.26 3.00  61.81 2489.14
   19:39:31.492.03-May-2020 4608.48 4148.38 80.26 3.00  62.01 2489.14
   19:39:31.692.03-May-2020 4608.48 4148.23 80.26 3.00  62.21 2489.14
   19:39:31.892.03-May-2020 4608.48 4148.07 80.26 3.00  62.41 2489.14
   19:39:32.093.03-May-2020 4608.48 4148.02 80.26 3.00  62.61 2489.14
   19:39:32.293.03-May-2020 4608.48 4148.20 80.26 3.00  62.81 2489.14
   19:39:32.493.03-May-2020 4608.48 4148.19 80.26 3.00  63.01 2489.14
   19:39:32.693.03-May-2020 4608.48 4148.19 80.26 3.00  63.21 2489.14
   19:39:32.893.03-May-2020 4608.48 4148.18 80.26 3.00  63.41 2489.14
   19:39:33.093.03-May-2020 4608.48 4148.14 80.25 3.00  63.61 2489.14
   19:39:33.293.03-May-2020 4608.48 4148.13 80.25 3.00  63.81 2489.14
   19:39:33.493.03-May-2020 4608.48 4148.23 80.25 3.00  64.01 2489.14
   19:39:33.693.03-May-2020 4608.48 4148.23 80.25 3.00  64.21 2489.14
   19:39:33.893.03-May-2020 4608.48 4148.18 80.25 3.00  64.41 2489.14
   19:39:34.093.03-May-2020 4608.48 4148.50 80.25 3.00  64.61 2489.14
   19:39:34.293.03-May-2020 4608.48 4148.22 80.25 3.00  64.81 2489.14
   19:39:34.493.03-May-2020 4608.48 4148.39 80.25 3.00  65.01 2489.14
   19:39:34.693.03-May-2020 4608.48 4148.39 80.25 3.00  65.21 2489.14
   19:39:34.893.03-May-2020 4608.48 4148.16 80.25 3.00  65.41 2489.14
   19:39:35.093.03-May-2020 4608.48 4147.82 80.25 3.00  65.61 2489.14
   19:39:35.293.03-May-2020 4608.48 4148.73 80.24 3.00  65.81 2489.14
   19:39:35.493.03-May-2020 4608.48 4148.39 80.24 3.00  66.01 2489.14
   19:39:35.693.03-May-2020 4608.48 4148.39 80.24 3.00  66.21 2489.14
   19:39:35.893.03-May-2020 4608.48 4148.17 80.24 3.00  66.41 2489.14
   19:39:36.093.03-May-2020 4608.48 4148.01 80.24 3.00  66.61 2489.14
   19:39:36.293.03-May-2020 4608.48 4148.27 80.24 3.00  66.81 2489.14
   19:39:36.493.03-May-2020 4608.48 4148.39 80.24 3.00  67.01 2489.14
   19:39:36.693.03-May-2020 4608.48 4148.39 80.24 3.00  67.21 2489.14
   19:39:36.893.03-May-2020 4608.48 4148.15 80.24 3.00  67.41 2489.14
   19:39:37.093.03-May-2020 4608.48 4148.22 80.24 3.00  67.61 2489.14
   19:39:37.293.03-May-2020 4608.48 4148.25 80.24 3.00  67.81 2489.14
   19:39:37.493.03-May-2020 4608.48 4148.33 80.24 3.00  68.01 2489.14
   19:39:37.693.03-May-2020 4608.48 4148.33 80.24 3.00  68.21 2489.14
   19:39:37.893.03-May-2020 4608.48 4148.25 80.23 3.00  68.41 2489.14
   19:39:38.093.03-May-2020 4608.48 4148.25 80.23 3.00  68.61 2489.14
   19:39:38.293.03-May-2020 4608.48 4148.23 80.23 3.00  68.81 2489.14
