~Version Information
 VERS.                  2.0:   CWLS log ASCII Standard -VERSION 2.0
 WRAP.                   NO:   One line per depth step
~Well Information Block
#MNEM.UNIT     VALUE/NAME     DESCRIPTION
#---------     -----------    ---------------------------
 STRT.S             19:38:29 03-May-20: START TIME 19:38:29 03-May-20
 STOP.S             19:45:06 03-May-20: STOP TIME  19:45:06 03-May-20
 STEP.S                   0.00: STEP TIME
 NULL.                 -999.25: NULL VALUE
 DFWT.                        :  DIST FWL TEXT
 DFST.                        :  DIST FSL TEXT
 DMF .             Drill Floor:  DRILL MEAS FROM
 STIM.      03.00.00 25-Mar-20:  START TIME
 DATE.      00.00.00 19-May-20:  END TIME
 SPUD.               27-Aug-20:  SPUD DATE
 NREF.                    Grid:  NORTH REFERENCE
 HPTY.       Minimum Curvature:  HOLE POS TYPE
 DMOD.             Drill Model:  DRILL MOD DESC
 SVYD.                  Survey:  SURVEY DESC
 ILTD.               Lithology:  INTERP LTH DESC
 FTOP.          Formation Tops:  FORM TOPS DESC
 SON .        AZ-XX-0906252240:  JOB NUMBER
 RIG .             West Chirag:  RIG NAME
 PDAT.          Mean Sea Level:  PERMANENT DATUM
 FLD .                     ACG:  FIELD NAME
 CTRY.              Azerbaijan:  COUNTRY NAME
 WELL.                     J23:  WELL NAME
 SRVC.          Turan Drilling:  CONTRACTOR
 COMP.     BP Exploration (Caspian Sea) Ltd.:  COMPANY
 WTYP.                Deviated:  WELL TYPE
 MDS .        Operator Entered:  MAG DATA SOURCE
 UWI .                     N/A:  UNIQUE WELL IDENTIFIER
 API .                     N/A:  API NUMBER
 BASE.              Azerbaijan:  LOGGING EQUIPMENT BASE LOCATION
 REGN.                   EESSA:  REGION
 PROV.                    Baku:  PROVINCE
 STAT.                    Baku:  STATE NAME
 MWDS.                     N/A:  MWD SHOP
 JOBN.        AZ-XX-0906252240:  JOB TICKET NUMB
 DOE .                     N/A:  DOE NUMBER
 DCON.         Sperry Drilling:  DIRECTNL CONTR
 UNIT.                     N/A:  LOGGING EQUIPMENT ID
 CNTY.                        :  COUNTY
 LOC .                        :  LOCATION
 LMF .             Drill Floor:  LOG MEASURED FROM
 TVDS.m                  43.00:  TVDSS CORRECTN
 LATI.deg                40.13:  LATITUDE
 LONG.deg                51.22:  LONGITUDE
 WHNS.m                   9.43:  WELL HEAD N/S
 WHEW.m                  -8.91:  WELL HEAD E/W
 UTMX.m              519005.06:  UTM X
 UTMY.m             4443793.85:  UTM Y
 DFWL.m                   0.00:  DISTANCE FWL
 DFSL.m                   0.00:  DISTANCE FSL
 SDEP.m                 363.00:  START DEPTH
 TDD .m                5150.01:  TOTAL DEPTH (DRILLER)
 VSDR.deg               179.88:  VERT SEC DIRECT
 GVFD.g                   1.00:  GRAVITY FIELD
 MFLD.nT              50295.00:  MAGNETIC FIELD
 MDIP.deg                59.56:  MAGNETIC DIP
 MDEC.deg                 6.45:  MAGNETIC DECL
 GRDC.deg                 0.14:  GRID CORRECTION
 AZTC.deg                 6.31:  AZM TOTAL CORR
 EPD .m                   0.00:  ELEVATION
 EGL .m                   0.00:  GROUND ELEVATION
 WDMS.m                 169.80:  WD ELEV
 APD .m                  43.00:  DEPTH ABOVE PD
 DEP .m                 354.17:  DEPTH
 AGAP.m                  43.00:  AIR GAP
 VSEW.m                  -8.91:  VERT SEC E/W
 VSNS.m                   9.43:  VERT SEC N/S
 EKB .m                   0.00:  KB ELEVATION
 EDF .m                  43.00:  DF ELEVATION
 TDL .m                1351.00:  TOTAL DEPTH (LOGGER)
 VSC .                       0:  VS TO CLOSURE
 MAGU.                 1850802:  MAGUTM CHECKSUM
~Parameter Information Block
#MNEM.UNIT       Value        Description
#---------     -----------    ---------------------------
 AV  .mps                 1.00:  Ann Velocity 
 AVMX.mps                 2.40:  Max Ann Veloc 
 AZIF.deg               148.96:  Azm, Final 
 BHAT.        Rotary Steerable:  BHA Type 
 BROT.°/30m               0.04:  Build Rotating 
 BS  .in                 12.25:  Bit Size 
 BSZ .in                 12.25:  Bit Size 
 BTPL.psig              814.00:  Bit Press Loss 
 TCS .hr                106.00:  Time Ciculation Ended 
 CV  .mps                 2.47:  Crit Velocity 
 CVMX.mps                 2.64:  Max Crit Veloc 
 DD1 .          Rashad Habibov:  Direct Drillr 1 
 DD2 .         Rasim Ibrahimov:  Direct Drillr 2 
 DDSV.                 iCruise:  DD Service 
 DEFF.%                 100.00:  % Det Eff 
 DLRX.°/30m               0.70:  Dogleg Rot Max 
 DLSO.°/30m               3.00:  Dogleg Oriented 
 DLSX.°/30m               4.55:  Dogleg Str Max 
 DRET.      08.08.32 02-May-20:  Drill End Time 
 DRST.      08.08.32 28-Apr-20:  Drill Start Tim 
 DTIM.hr                 60.00:  Time Drilling 
 EDEP.m                4761.01:  End Depth 
 ENG1.           Eldar Hajiyev:  Engineer 1 
 ENG2.        Marcelo Sandoval:  Engineer 2 
 ETIM.      23.23.07 05-May-20:  End Time 
 FLOI.gpm              1200.00:  Flow In 
 FLON.gpm               900.00:  Flow In Min 
 FLOS.cptm                0.00:  Fluid Loss 
 FLOX.gpm              1200.00:  Flow In Max 
 HFLO.                      No:  High Flow 
 HPRE.                      No:  High Pressure 
 HTEM.                      No:  High Temp 
 HYDO.m                   1.80:  Hydro Offset 
 IFIN.deg                68.17:  Inc, Final 
 IMAX.deg                74.61:  Inc Max 
 IMIN.deg                68.15:  Inc Min 
 IMND.m                4317.87:  Inc Min Depth 
 IMXD.m                4714.01:  Inc Max Depth 
 LETM.      08.08.32 02-May-20:  Log End Time 
 LOST.hr                     2:  Lost Rig Time 
 LSTM.      08.08.32 28-Apr-20:  Log Start Time 
 MDCL.ppm             41000.00:  Mud Chlorides 
 MDES.     Inversion Oil/Synthetic:  Mud Desc 
 DFD .sg                  1.58:  Mud Density 
 MDMN.sg                  1.58:  Dens Mud Min 
 MDMX.sg                  1.58:  Dens Mud Max 
 MOIL.                      71:  Run Mud Oil % 
 MOWR.                   71:29:  Run Mud OWR 
 MSND.                     0.1:  Run Mud Sand % 
 MSOL.                      23:  Run Mud Solids% 
 DFV .spqt               82.00:  Mud Viscosity 
 MWOD.in                  8.00:  MWD Tool OD 
 MWSI.                     Yes:  Serv Intrp, MWD 
 OTIM.hr                125.00:  Time Operating 
 PMAX.psia             6129.00:  Press Op, Max 
 PV  .cP                 32.00:  Mud PV 
 RUN .                     800:  Run Number 
 ROPA.m/hr               30.00:  ROP Avg 
 ROPN.m/hr               10.00:  ROP Min 
 ROPX.m/hr               40.00:  ROP Max 
 RPMA.rpm               140.00:  RPM Surface Avg 
 RPMN.rpm                80.00:  RPM Surface Min 
 RPMX.rpm               140.00:  RPM Surface Max 
 RRUN.                    L503:  Rig Run Number 
 RTIM.hr                  2.00:  Time Reaming 
 SAZI.deg               184.23:  Azm, Start 
 SDEP.m                3410.01:  Start Depth 
 SIDD.                      No:  Serv Intrp, DD 
 SINC.deg                68.29:  Inc, Start 
 SPPA.psig             6000.00:  SPP Avg 
 SPPN.psig             4000.00:  SPP Min 
 SPPX.psig             6100.00:  SPP Max 
 STIM.      08.08.32 28-Apr-20:  Start Time 
 SVCS.                 DD, MWD:  Services 
 SVER.                    9.20:  Sperry Version 
 TDAT.m                1351.00:  Tot Depth Attmp 
 TDDF.                      No:  Trip for DD 
 TDLG.m                1351.00:  Tot Depth Loggd 
 TFF .                      No:  Trip for Fail 
 TQAA.f-kp               27.00:  Torque Abs Avg 
 TQAN.f-kp               20.00:  Torque Abs Min 
 TQAX.f-kp               30.00:  Torque Abs Max 
 TRRT.°/30m               0.60:  Turn Rotating 
 MRT .                    EWER:  Maximum Recorded Temperature 
 TTMX.degC               83.00:  Max Tool Temp 
 VS01.                90511138:  Virtual Str1 SN 
 VS02.                90524876:  Virtual Str2 SN 
 VS03.                90524872:  Virtual Str3 SN 
 VS04.                90502750:  Virtual Str4 SN 
 VS05.                12330984:  Virtual Str5 SN 
 WBMN.klb                 0.00:  WOB Min 
 WOBA.klb                15.00:  WOB Avg 
 WOBX.klb                20.00:  WOB Max 
 YP  .lhf2               31.00:  Yield Point 
~Curve Information Block
#MNEM.UNIT                 API CODE     Curve Description
#---------               -----------    ---------------------------
 TIME.HHMMSS            00 000 000 000:  GT Time & Date
 GTDEPTH.m              00 000 000 000:  GT Depth
 GTPQH.psia             00 000 000 000:  GT HR Quartz Pressure
 GTTQ.degC              00 000 000 000:  GT Quartz Temperature
 GTTN.NONE              00 000 000 000:  GT Test Number
 GTET.sec               00 000 000 000:  GT Elapsed Test Time
 GTTVD.m                00 000 000 000:  GT True Vertical Depth
#Other Information
#
#WARRANTY: Halliburton will use its best efforts to furnish customers with 
#accurate information and interpretations that are part of, and incident to, the services 
#provided.  However, Halliburton cannot and does not warrant the accuracy 
#or correctness of such information and interpretations.  Under no circumstances should any 
#such information or interpretation be relied upon as the sole basis for any drilling, 
#completion, production, or financial decision or any procedure involving any risk to the 
#safety of any drilling venture, drilling rig or its crew or any other third party.  The 
#Customer has full responsibility for all drilling, completion and production operation.  
#Halliburton makes no representations or warranties, either expressed or 
#implied, including, but not limited to, the implied warranties of merchantability or fitness 
#for a particular purpose, with respect to the services rendered.  In no event will 
#Halliburton be liable for failure to obtain any particular results or for 
#any damages, including, but not limited to, indirect, special or consequential damages, 
#resulting from the use of any information or interpretation provided by Halliburton.
#
~A           TIME           GTDEPTH  GTPQH  GTTQ  GTTN  GTET   GTTVD  
# ...
   19:41:56.508.03-May-2020 4608.48 4148.88 79.70 3.00 207.02 2489.14
   19:41:56.708.03-May-2020 4608.48 4148.44 79.70 3.00 207.22 2489.14
   19:41:56.908.03-May-2020 4608.48 4148.60 79.70 3.00 207.42 2489.14
   19:41:57.108.03-May-2020 4608.48 4148.67 79.70 3.00 207.62 2489.14
   19:41:57.308.03-May-2020 4608.48 4148.48 79.70 3.00 207.82 2489.14
   19:41:57.508.03-May-2020 4608.48 4148.52 79.70 3.00 208.02 2489.14
   19:41:57.708.03-May-2020 4608.48 4148.64 79.70 3.00 208.22 2489.14
   19:41:57.908.03-May-2020 4608.48 4148.61 79.70 3.00 208.42 2489.14
   19:41:58.108.03-May-2020 4608.48 4148.66 79.70 3.00 208.62 2489.14
   19:41:58.308.03-May-2020 4608.48 4148.54 79.69 3.00 208.82 2489.14
   19:41:58.508.03-May-2020 4608.48 4148.55 79.69 3.00 209.02 2489.14
   19:41:58.708.03-May-2020 4608.48 4148.55 79.69 3.00 209.22 2489.14
   19:41:58.908.03-May-2020 4608.48 4148.53 79.69 3.00 209.42 2489.14
   19:41:59.108.03-May-2020 4608.48 4148.57 79.69 3.00 209.62 2489.14
   19:41:59.308.03-May-2020 4608.48 4148.99 79.69 3.00 209.82 2489.14
   19:41:59.508.03-May-2020 4608.48 4148.19 79.69 3.00 210.02 2489.14
   19:41:59.708.03-May-2020 4608.48 4148.46 79.69 3.00 210.22 2489.14
   19:41:59.908.03-May-2020 4608.48 4148.58 79.69 3.00 210.42 2489.14
   19:42:00.108.03-May-2020 4608.48 4148.72 79.69 3.00 210.62 2489.14
   19:42:00.308.03-May-2020 4608.48 4148.62 79.69 3.00 210.82 2489.14
   19:42:00.508.03-May-2020 4608.48 4148.55 79.69 3.00 211.02 2489.14
   19:42:00.709.03-May-2020 4608.48 4148.55 79.69 3.00 211.22 2489.14
   19:42:00.909.03-May-2020 4608.48 4148.53 79.68 3.00 211.42 2489.14
   19:42:01.109.03-May-2020 4608.48 4148.58 79.68 3.00 211.62 2489.14
   19:42:01.309.03-May-2020 4608.48 4148.56 79.68 3.00 211.82 2489.14
   19:42:01.509.03-May-2020 4608.48 4148.58 79.68 3.00 212.02 2489.14
   19:42:01.709.03-May-2020 4608.48 4148.58 79.68 3.00 212.22 2489.14
   19:42:01.909.03-May-2020 4608.48 4148.89 79.68 3.00 212.42 2489.14
   19:42:02.109.03-May-2020 4608.48 4148.17 79.68 3.00 212.62 2489.14
   19:42:02.309.03-May-2020 4608.48 4148.52 79.68 3.00 212.82 2489.14
   19:42:02.509.03-May-2020 4608.48 4148.34 79.68 3.00 213.02 2489.14
   19:42:02.709.03-May-2020 4608.48 4148.34 79.68 3.00 213.22 2489.14
   19:42:02.909.03-May-2020 4608.48 4148.70 79.68 3.00 213.42 2489.14
   19:42:03.109.03-May-2020 4608.48 4149.03 79.67 3.00 213.62 2489.14
   19:42:03.309.03-May-2020 4608.48 4148.07 79.67 3.00 213.82 2489.14
   19:42:03.509.03-May-2020 4608.48 4148.44 79.67 3.00 214.02 2489.14
   19:42:03.709.03-May-2020 4608.48 4148.44 79.67 3.00 214.22 2489.14
   19:42:03.909.03-May-2020 4608.48 4148.49 79.67 3.00 214.42 2489.14
   19:42:04.109.03-May-2020 4608.48 4148.95 79.67 3.00 214.62 2489.14
   19:42:04.309.03-May-2020 4608.48 4148.59 79.67 3.00 214.82 2489.14
   19:42:04.509.03-May-2020 4608.48 4148.46 79.67 3.00 215.02 2489.14
   19:42:04.709.03-May-2020 4608.48 4148.46 79.67 3.00 215.22 2489.14
   19:42:04.909.03-May-2020 4608.48 4148.46 79.67 3.00 215.42 2489.14
   19:42:05.109.03-May-2020 4608.48 4148.72 79.67 3.00 215.62 2489.14
   19:42:05.309.03-May-2020 4608.48 4148.76 79.67 3.00 215.82 2489.14
   19:42:05.509.03-May-2020 4608.48 4148.63 79.66 3.00 216.02 2489.14
   19:42:05.709.03-May-2020 4608.48 4148.63 79.66 3.00 216.22 2489.14
   19:42:05.909.03-May-2020 4608.48 4148.48 79.66 3.00 216.42 2489.14
   19:42:06.109.03-May-2020 4608.48 4148.61 79.66 3.00 216.62 2489.14
   19:42:06.309.03-May-2020 4608.48 4148.61 79.66 3.00 216.82 2489.14
   19:42:06.509.03-May-2020 4608.48 4148.62 79.66 3.00 217.02 2489.14
   19:42:06.709.03-May-2020 4608.48 4148.62 79.66 3.00 217.22 2489.14
   19:42:06.909.03-May-2020 4608.48 4148.55 79.66 3.00 217.42 2489.14
   19:42:07.109.03-May-2020 4608.48 4148.53 79.66 3.00 217.62 2489.14
   19:42:07.309.03-May-2020 4608.48 4148.57 79.66 3.00 217.82 2489.14
   19:42:07.509.03-May-2020 4608.48 4148.56 79.66 3.00 218.02 2489.14
   19:42:07.709.03-May-2020 4608.48 4148.98 79.66 3.00 218.22 2489.14
   19:42:07.909.03-May-2020 4608.48 4148.39 79.66 3.00 218.42 2489.14
   19:42:08.109.03-May-2020 4608.48 4148.42 79.65 3.00 218.62 2489.14
   19:42:08.309.03-May-2020 4608.48 4148.53 79.65 3.00 218.82 2489.14
   19:42:08.509.03-May-2020 4608.48 4148.66 79.65 3.00 219.02 2489.14
   19:42:08.709.03-May-2020 4608.48 4148.66 79.65 3.00 219.22 2489.14
   19:42:08.909.03-May-2020 4608.48 4148.62 79.65 3.00 219.42 2489.14
   19:42:09.109.03-May-2020 4608.48 4148.51 79.65 3.00 219.62 2489.14
   19:42:09.309.03-May-2020 4608.48 4148.51 79.65 3.00 219.82 2489.14
   19:42:09.509.03-May-2020 4608.48 4148.54 79.65 3.00 220.02 2489.14
   19:42:09.709.03-May-2020 4608.48 4148.54 79.65 3.00 220.22 2489.14
   19:42:09.910.03-May-2020 4608.48 4148.55 79.65 3.00 220.42 2489.14
   19:42:10.110.03-May-2020 4608.48 4148.55 79.65 3.00 220.62 2489.14
   19:42:10.310.03-May-2020 4608.48 4148.85 79.65 3.00 220.82 2489.14
   19:42:10.510.03-May-2020 4608.48 4148.42 79.64 3.00 221.02 2489.14
   19:42:10.710.03-May-2020 4608.48 4148.42 79.64 3.00 221.22 2489.14
   19:42:10.910.03-May-2020 4608.48 4148.15 79.64 3.00 221.42 2489.14
   19:42:11.110.03-May-2020 4608.48 4148.62 79.64 3.00 221.62 2489.14
   19:42:11.310.03-May-2020 4608.48 4148.61 79.64 3.00 221.82 2489.14
   19:42:11.510.03-May-2020 4608.48 4149.11 79.64 3.00 222.02 2489.14
   19:42:11.710.03-May-2020 4608.48 4148.33 79.64 3.00 222.22 2489.14
   19:42:11.910.03-May-2020 4608.48 4148.43 79.64 3.00 222.42 2489.14
   19:42:12.110.03-May-2020 4608.48 4148.59 79.64 3.00 222.62 2489.14
   19:42:12.310.03-May-2020 4608.48 4148.59 79.64 3.00 222.82 2489.14
   19:42:12.510.03-May-2020 4608.48 4148.72 79.64 3.00 223.02 2489.14
   19:42:12.710.03-May-2020 4608.48 4148.72 79.64 3.00 223.22 2489.14
   19:42:12.910.03-May-2020 4608.48 4148.55 79.63 3.00 223.42 2489.14
   19:42:13.110.03-May-2020 4608.48 4148.82 79.63 3.00 223.62 2489.14
   19:42:13.310.03-May-2020 4608.48 4148.17 79.63 3.00 223.82 2489.14
   19:42:13.510.03-May-2020 4608.48 4148.63 79.63 3.00 224.02 2489.14
   19:42:13.710.03-May-2020 4608.48 4148.63 79.63 3.00 224.22 2489.14
   19:42:13.910.03-May-2020 4608.48 4148.72 79.63 3.00 224.42 2489.14
   19:42:14.110.03-May-2020 4608.48 4148.57 79.63 3.00 224.62 2489.14
   19:42:14.310.03-May-2020 4608.48 4148.61 79.63 3.00 224.82 2489.14
   19:42:14.510.03-May-2020 4608.48 4148.54 79.63 3.00 225.02 2489.14
   19:42:14.710.03-May-2020 4608.48 4148.54 79.63 3.00 225.22 2489.14
   19:42:14.910.03-May-2020 4608.48 4148.62 79.63 3.00 225.42 2489.14
   19:42:15.110.03-May-2020 4608.48 4148.62 79.63 3.00 225.62 2489.14
   19:42:15.310.03-May-2020 4608.48 4148.61 79.62 3.00 225.82 2489.14
   19:42:15.510.03-May-2020 4608.48 4148.53 79.62 3.00 226.02 2489.14
   19:42:15.710.03-May-2020 4608.48 4148.56 79.62 3.00 226.22 2489.14
   19:42:15.910.03-May-2020 4608.48 4148.39 79.62 3.00 226.42 2489.14
   19:42:16.110.03-May-2020 4608.48 4148.87 79.62 3.00 226.62 2489.14
   19:42:16.310.03-May-2020 4608.48 4148.66 79.62 3.00 226.82 2489.14
   19:42:16.510.03-May-2020 4608.48 4148.51 79.62 3.00 227.02 2489.14
   19:42:16.710.03-May-2020 4608.48 4148.51 79.62 3.00 227.22 2489.14
   19:42:16.910.03-May-2020 4608.48 4148.58 79.62 3.00 227.42 2489.14
   19:42:17.110.03-May-2020 4608.48 4148.60 79.62 3.00 227.62 2489.14
   19:42:17.310.03-May-2020 4608.48 4148.62 79.62 3.00 227.82 2489.14
   19:42:17.510.03-May-2020 4608.48 4148.58 79.62 3.00 228.02 2489.14
   19:42:17.710.03-May-2020 4608.48 4148.58 79.62 3.00 228.22 2489.14
   19:42:17.910.03-May-2020 4608.48 4148.53 79.61 3.00 228.42 2489.14
   19:42:18.110.03-May-2020 4608.48 4148.56 79.61 3.00 228.62 2489.14
   19:42:18.310.03-May-2020 4608.48 4148.62 79.61 3.00 228.82 2489.14
   19:42:18.510.03-May-2020 4608.48 4148.30 79.61 3.00 229.02 2489.14
   19:42:18.710.03-May-2020 4608.48 4148.30 79.61 3.00 229.22 2489.14
   19:42:18.910.03-May-2020 4608.48 4148.67 79.61 3.00 229.42 2489.14
   19:42:19.111.03-May-2020 4608.48 4148.78 79.61 3.00 229.62 2489.14
   19:42:19.311.03-May-2020 4608.48 4148.40 79.61 3.00 229.82 2489.14
