~Version Information
 VERS.                  2.0:   CWLS log ASCII Standard -VERSION 2.0
 WRAP.                   NO:   One line per depth step
~Well Information Block
#MNEM.UNIT     VALUE/NAME     DESCRIPTION
#---------     -----------    ---------------------------
 STRT.S             15:01:40 03-May-20: START TIME 15:01:40 03-May-20
 STOP.S             15:08:15 03-May-20: STOP TIME  15:08:15 03-May-20
 STEP.S                   0.00: STEP TIME
 NULL.                 -999.25: NULL VALUE
 DFWT.                        :  DIST FWL TEXT
 DFST.                        :  DIST FSL TEXT
 DMF .             Drill Floor:  DRILL MEAS FROM
 STIM.      03.00.00 25-Mar-20:  START TIME
 DATE.      00.00.00 19-May-20:  END TIME
 SPUD.               27-Aug-20:  SPUD DATE
 NREF.                    Grid:  NORTH REFERENCE
 HPTY.       Minimum Curvature:  HOLE POS TYPE
 DMOD.             Drill Model:  DRILL MOD DESC
 SVYD.                  Survey:  SURVEY DESC
 ILTD.               Lithology:  INTERP LTH DESC
 FTOP.          Formation Tops:  FORM TOPS DESC
 SON .        AZ-XX-0906252240:  JOB NUMBER
 RIG .             West Chirag:  RIG NAME
 PDAT.          Mean Sea Level:  PERMANENT DATUM
 FLD .                     ACG:  FIELD NAME
 CTRY.              Azerbaijan:  COUNTRY NAME
 WELL.                     J23:  WELL NAME
 SRVC.          Turan Drilling:  CONTRACTOR
 COMP.     BP Exploration (Caspian Sea) Ltd.:  COMPANY
 WTYP.                Deviated:  WELL TYPE
 MDS .        Operator Entered:  MAG DATA SOURCE
 UWI .                     N/A:  UNIQUE WELL IDENTIFIER
 API .                     N/A:  API NUMBER
 BASE.              Azerbaijan:  LOGGING EQUIPMENT BASE LOCATION
 REGN.                   EESSA:  REGION
 PROV.                    Baku:  PROVINCE
 STAT.                    Baku:  STATE NAME
 MWDS.                     N/A:  MWD SHOP
 JOBN.        AZ-XX-0906252240:  JOB TICKET NUMB
 DOE .                     N/A:  DOE NUMBER
 DCON.         Sperry Drilling:  DIRECTNL CONTR
 UNIT.                     N/A:  LOGGING EQUIPMENT ID
 CNTY.                        :  COUNTY
 LOC .                        :  LOCATION
 LMF .             Drill Floor:  LOG MEASURED FROM
 TVDS.m                  43.00:  TVDSS CORRECTN
 LATI.deg                40.13:  LATITUDE
 LONG.deg                51.22:  LONGITUDE
 WHNS.m                   9.43:  WELL HEAD N/S
 WHEW.m                  -8.91:  WELL HEAD E/W
 UTMX.m              519005.06:  UTM X
 UTMY.m             4443793.85:  UTM Y
 DFWL.m                   0.00:  DISTANCE FWL
 DFSL.m                   0.00:  DISTANCE FSL
 SDEP.m                 363.00:  START DEPTH
 TDD .m                5150.01:  TOTAL DEPTH (DRILLER)
 VSDR.deg               179.88:  VERT SEC DIRECT
 GVFD.g                   1.00:  GRAVITY FIELD
 MFLD.nT              50295.00:  MAGNETIC FIELD
 MDIP.deg                59.56:  MAGNETIC DIP
 MDEC.deg                 6.45:  MAGNETIC DECL
 GRDC.deg                 0.14:  GRID CORRECTION
 AZTC.deg                 6.31:  AZM TOTAL CORR
 EPD .m                   0.00:  ELEVATION
 EGL .m                   0.00:  GROUND ELEVATION
 WDMS.m                 169.80:  WD ELEV
 APD .m                  43.00:  DEPTH ABOVE PD
 DEP .m                 354.17:  DEPTH
 AGAP.m                  43.00:  AIR GAP
 VSEW.m                  -8.91:  VERT SEC E/W
 VSNS.m                   9.43:  VERT SEC N/S
 EKB .m                   0.00:  KB ELEVATION
 EDF .m                  43.00:  DF ELEVATION
 TDL .m                1351.00:  TOTAL DEPTH (LOGGER)
 VSC .                       0:  VS TO CLOSURE
 MAGU.                 1850802:  MAGUTM CHECKSUM
~Parameter Information Block
#MNEM.UNIT       Value        Description
#---------     -----------    ---------------------------
 AV  .mps                 1.00:  Ann Velocity 
 AVMX.mps                 2.40:  Max Ann Veloc 
 AZIF.deg               148.96:  Azm, Final 
 BHAT.        Rotary Steerable:  BHA Type 
 BROT.°/30m               0.04:  Build Rotating 
 BS  .in                 12.25:  Bit Size 
 BSZ .in                 12.25:  Bit Size 
 BTPL.psig              814.00:  Bit Press Loss 
 TCS .hr                106.00:  Time Ciculation Ended 
 CV  .mps                 2.47:  Crit Velocity 
 CVMX.mps                 2.64:  Max Crit Veloc 
 DD1 .          Rashad Habibov:  Direct Drillr 1 
 DD2 .         Rasim Ibrahimov:  Direct Drillr 2 
 DDSV.                 iCruise:  DD Service 
 DEFF.%                 100.00:  % Det Eff 
 DLRX.°/30m               0.70:  Dogleg Rot Max 
 DLSO.°/30m               3.00:  Dogleg Oriented 
 DLSX.°/30m               4.55:  Dogleg Str Max 
 DRET.      08.08.32 02-May-20:  Drill End Time 
 DRST.      08.08.32 28-Apr-20:  Drill Start Tim 
 DTIM.hr                 60.00:  Time Drilling 
 EDEP.m                4761.01:  End Depth 
 ENG1.           Eldar Hajiyev:  Engineer 1 
 ENG2.        Marcelo Sandoval:  Engineer 2 
 ETIM.      23.23.07 05-May-20:  End Time 
 FLOI.gpm              1200.00:  Flow In 
 FLON.gpm               900.00:  Flow In Min 
 FLOS.cptm                0.00:  Fluid Loss 
 FLOX.gpm              1200.00:  Flow In Max 
 HFLO.                      No:  High Flow 
 HPRE.                      No:  High Pressure 
 HTEM.                      No:  High Temp 
 HYDO.m                   1.80:  Hydro Offset 
 IFIN.deg                68.17:  Inc, Final 
 IMAX.deg                74.61:  Inc Max 
 IMIN.deg                68.15:  Inc Min 
 IMND.m                4317.87:  Inc Min Depth 
 IMXD.m                4714.01:  Inc Max Depth 
 LETM.      08.08.32 02-May-20:  Log End Time 
 LOST.hr                     2:  Lost Rig Time 
 LSTM.      08.08.32 28-Apr-20:  Log Start Time 
 MDCL.ppm             41000.00:  Mud Chlorides 
 MDES.     Inversion Oil/Synthetic:  Mud Desc 
 DFD .sg                  1.58:  Mud Density 
 MDMN.sg                  1.58:  Dens Mud Min 
 MDMX.sg                  1.58:  Dens Mud Max 
 MOIL.                      71:  Run Mud Oil % 
 MOWR.                   71:29:  Run Mud OWR 
 MSND.                     0.1:  Run Mud Sand % 
 MSOL.                      23:  Run Mud Solids% 
 DFV .spqt               82.00:  Mud Viscosity 
 MWOD.in                  8.00:  MWD Tool OD 
 MWSI.                     Yes:  Serv Intrp, MWD 
 OTIM.hr                125.00:  Time Operating 
 PMAX.psia             6129.00:  Press Op, Max 
 PV  .cP                 32.00:  Mud PV 
 RUN .                     800:  Run Number 
 ROPA.m/hr               30.00:  ROP Avg 
 ROPN.m/hr               10.00:  ROP Min 
 ROPX.m/hr               40.00:  ROP Max 
 RPMA.rpm               140.00:  RPM Surface Avg 
 RPMN.rpm                80.00:  RPM Surface Min 
 RPMX.rpm               140.00:  RPM Surface Max 
 RRUN.                    L503:  Rig Run Number 
 RTIM.hr                  2.00:  Time Reaming 
 SAZI.deg               184.23:  Azm, Start 
 SDEP.m                3410.01:  Start Depth 
 SIDD.                      No:  Serv Intrp, DD 
 SINC.deg                68.29:  Inc, Start 
 SPPA.psig             6000.00:  SPP Avg 
 SPPN.psig             4000.00:  SPP Min 
 SPPX.psig             6100.00:  SPP Max 
 STIM.      08.08.32 28-Apr-20:  Start Time 
 SVCS.                 DD, MWD:  Services 
 SVER.                    9.20:  Sperry Version 
 TDAT.m                1351.00:  Tot Depth Attmp 
 TDDF.                      No:  Trip for DD 
 TDLG.m                1351.00:  Tot Depth Loggd 
 TFF .                      No:  Trip for Fail 
 TQAA.f-kp               27.00:  Torque Abs Avg 
 TQAN.f-kp               20.00:  Torque Abs Min 
 TQAX.f-kp               30.00:  Torque Abs Max 
 TRRT.°/30m               0.60:  Turn Rotating 
 MRT .                    EWER:  Maximum Recorded Temperature 
 TTMX.degC               83.00:  Max Tool Temp 
 VS01.                90511138:  Virtual Str1 SN 
 VS02.                90524876:  Virtual Str2 SN 
 VS03.                90524872:  Virtual Str3 SN 
 VS04.                90502750:  Virtual Str4 SN 
 VS05.                12330984:  Virtual Str5 SN 
 WBMN.klb                 0.00:  WOB Min 
 WOBA.klb                15.00:  WOB Avg 
 WOBX.klb                20.00:  WOB Max 
 YP  .lhf2               31.00:  Yield Point 
~Curve Information Block
#MNEM.UNIT                 API CODE     Curve Description
#---------               -----------    ---------------------------
 TIME.HHMMSS            00 000 000 000:  GT Time & Date
 GTDEPTH.m              00 000 000 000:  GT Depth
 GTPQH.psia             00 000 000 000:  GT HR Quartz Pressure
 GTTQ.degC              00 000 000 000:  GT Quartz Temperature
 GTTN.NONE              00 000 000 000:  GT Test Number
 GTET.sec               00 000 000 000:  GT Elapsed Test Time
 GTTVD.m                00 000 000 000:  GT True Vertical Depth
#Other Information
#
#WARRANTY: Halliburton will use its best efforts to furnish customers with 
#accurate information and interpretations that are part of, and incident to, the services 
#provided.  However, Halliburton cannot and does not warrant the accuracy 
#or correctness of such information and interpretations.  Under no circumstances should any 
#such information or interpretation be relied upon as the sole basis for any drilling, 
#completion, production, or financial decision or any procedure involving any risk to the 
#safety of any drilling venture, drilling rig or its crew or any other third party.  The 
#Customer has full responsibility for all drilling, completion and production operation.  
#Halliburton makes no representations or warranties, either expressed or 
#implied, including, but not limited to, the implied warranties of merchantability or fitness 
#for a particular purpose, with respect to the services rendered.  In no event will 
#Halliburton be liable for failure to obtain any particular results or for 
#any damages, including, but not limited to, indirect, special or consequential damages, 
#resulting from the use of any information or interpretation provided by Halliburton.
#
~A           TIME           GTDEPTH  GTPQH  GTTQ  GTTN  GTET   GTTVD  
# ...
   15:07:25.314.03-May-2020 4553.48 4124.67 81.03 2.00 344.89 2472.52
   15:07:25.514.03-May-2020 4553.48 4124.67 81.03 2.00 345.09 2472.52
   15:07:25.714.03-May-2020 4553.48 4124.61 81.03 2.00 345.29 2472.52
   15:07:25.914.03-May-2020 4553.48 4124.20 81.03 2.00 345.49 2472.52
   15:07:26.114.03-May-2020 4553.48 4124.43 81.03 2.00 345.69 2472.52
   15:07:26.314.03-May-2020 4553.48 4124.15 81.03 2.00 345.89 2472.52
   15:07:26.514.03-May-2020 4553.48 4124.15 81.03 2.00 346.09 2472.52
   15:07:26.714.03-May-2020 4553.48 4124.02 81.03 2.00 346.29 2472.52
   15:07:26.914.03-May-2020 4553.48 4124.25 81.03 2.00 346.49 2472.52
   15:07:27.114.03-May-2020 4553.48 4124.55 81.03 2.00 346.69 2472.52
   15:07:27.314.03-May-2020 4553.48 4124.07 81.02 2.00 346.89 2472.52
   15:07:27.513.03-May-2020 4553.48 4124.07 81.02 2.00 347.09 2472.52
   15:07:27.713.03-May-2020 4553.48 4124.17 81.02 2.00 347.29 2472.52
   15:07:27.913.03-May-2020 4553.48 4124.48 81.02 2.00 347.49 2472.52
   15:07:28.113.03-May-2020 4553.48 4124.14 81.02 2.00 347.69 2472.52
   15:07:28.313.03-May-2020 4553.48 4124.31 81.02 2.00 347.89 2472.52
   15:07:28.513.03-May-2020 4553.48 4124.31 81.02 2.00 348.09 2472.52
   15:07:28.713.03-May-2020 4553.48 4124.19 81.02 2.00 348.29 2472.52
   15:07:28.913.03-May-2020 4553.48 4124.24 81.02 2.00 348.49 2472.52
   15:07:29.113.03-May-2020 4553.48 4124.25 81.02 2.00 348.69 2472.52
   15:07:29.313.03-May-2020 4553.48 4124.30 81.02 2.00 348.89 2472.52
   15:07:29.513.03-May-2020 4553.48 4124.30 81.02 2.00 349.09 2472.52
   15:07:29.713.03-May-2020 4553.48 4124.26 81.01 2.00 349.29 2472.52
   15:07:29.913.03-May-2020 4553.48 4124.72 81.01 2.00 349.49 2472.52
   15:07:30.113.03-May-2020 4553.48 4124.40 81.01 2.00 349.69 2472.52
   15:07:30.313.03-May-2020 4553.48 4124.15 81.01 2.00 349.89 2472.52
   15:07:30.512.03-May-2020 4553.48 4124.15 81.01 2.00 350.09 2472.52
   15:07:30.712.03-May-2020 4553.48 4124.33 81.01 2.00 350.29 2472.52
   15:07:30.912.03-May-2020 4553.48 4124.24 81.01 2.00 350.49 2472.52
   15:07:31.112.03-May-2020 4553.48 4124.32 81.01 2.00 350.69 2472.52
   15:07:31.312.03-May-2020 4553.48 4124.27 81.01 2.00 350.89 2472.52
   15:07:31.512.03-May-2020 4553.48 4124.27 81.01 2.00 351.09 2472.52
   15:07:31.712.03-May-2020 4553.48 4124.18 81.00 2.00 351.29 2472.52
   15:07:31.912.03-May-2020 4553.48 4124.15 81.00 2.00 351.49 2472.52
   15:07:32.112.03-May-2020 4553.48 4124.15 81.00 2.00 351.69 2472.52
   15:07:32.312.03-May-2020 4553.48 4124.12 81.00 2.00 351.89 2472.52
   15:07:32.512.03-May-2020 4553.48 4124.12 81.00 2.00 352.09 2472.52
   15:07:32.712.03-May-2020 4553.48 4124.40 81.00 2.00 352.29 2472.52
   15:07:32.912.03-May-2020 4553.48 4124.31 81.00 2.00 352.49 2472.52
   15:07:33.112.03-May-2020 4553.48 4124.20 81.00 2.00 352.69 2472.52
   15:07:33.312.03-May-2020 4553.48 4124.10 81.00 2.00 352.89 2472.52
   15:07:33.512.03-May-2020 4553.48 4124.10 81.00 2.00 353.09 2472.52
   15:07:33.711.03-May-2020 4553.48 4124.47 80.99 2.00 353.28 2472.52
   15:07:33.911.03-May-2020 4553.48 4124.03 80.99 2.00 353.48 2472.52
   15:07:34.111.03-May-2020 4553.48 4124.32 80.99 2.00 353.68 2472.52
   15:07:34.311.03-May-2020 4553.48 4124.46 80.99 2.00 353.88 2472.52
   15:07:34.511.03-May-2020 4553.48 4124.46 80.99 2.00 354.08 2472.52
   15:07:34.711.03-May-2020 4553.48 4124.29 80.99 2.00 354.28 2472.52
   15:07:34.911.03-May-2020 4553.48 4124.36 80.99 2.00 354.48 2472.52
   15:07:35.111.03-May-2020 4553.48 4124.09 80.99 2.00 354.68 2472.52
   15:07:35.311.03-May-2020 4553.48 4124.35 80.99 2.00 354.88 2472.52
   15:07:35.511.03-May-2020 4553.48 4124.35 80.99 2.00 355.08 2472.52
   15:07:35.711.03-May-2020 4553.48 4124.28 80.98 2.00 355.28 2472.52
   15:07:35.911.03-May-2020 4553.48 4124.23 80.98 2.00 355.48 2472.52
   15:07:36.111.03-May-2020 4553.48 4124.25 80.98 2.00 355.68 2472.52
   15:07:36.311.03-May-2020 4553.48 4124.41 80.98 2.00 355.88 2472.52
   15:07:36.511.03-May-2020 4553.48 4124.41 80.98 2.00 356.08 2472.52
   15:07:36.710.03-May-2020 4553.48 4124.22 80.98 2.00 356.28 2472.52
   15:07:36.910.03-May-2020 4553.48 4124.25 80.98 2.00 356.48 2472.52
   15:07:37.110.03-May-2020 4553.48 4124.27 80.98 2.00 356.68 2472.52
   15:07:37.310.03-May-2020 4553.48 4124.27 80.98 2.00 356.88 2472.52
   15:07:37.510.03-May-2020 4553.48 4124.27 80.98 2.00 357.08 2472.52
   15:07:37.710.03-May-2020 4553.48 4125.13 80.98 2.00 357.28 2472.52
   15:07:37.910.03-May-2020 4553.48 4124.06 80.97 2.00 357.48 2472.52
   15:07:38.110.03-May-2020 4553.48 4124.36 80.97 2.00 357.68 2472.52
   15:07:38.310.03-May-2020 4553.48 4124.13 80.97 2.00 357.88 2472.52
   15:07:38.510.03-May-2020 4553.48 4124.13 80.97 2.00 358.08 2472.52
   15:07:38.710.03-May-2020 4553.48 4124.19 80.97 2.00 358.28 2472.52
   15:07:38.910.03-May-2020 4553.48 4124.29 80.97 2.00 358.48 2472.52
   15:07:39.110.03-May-2020 4553.48 4124.27 80.97 2.00 358.68 2472.52
   15:07:39.310.03-May-2020 4553.48 4124.23 80.97 2.00 358.88 2472.52
   15:07:39.510.03-May-2020 4553.48 4124.23 80.97 2.00 359.08 2472.52
   15:07:39.709.03-May-2020 4553.48 4124.14 80.97 2.00 359.28 2472.52
   15:07:39.909.03-May-2020 4553.48 4124.16 80.96 2.00 359.48 2472.52
   15:07:40.109.03-May-2020 4553.48 4124.10 80.96 2.00 359.68 2472.52
   15:07:40.309.03-May-2020 4553.48 4124.81 80.96 2.00 359.88 2472.52
   15:07:40.509.03-May-2020 4553.48 4124.81 80.96 2.00 360.08 2472.52
   15:07:40.709.03-May-2020 4553.48 4124.75 80.96 2.00 360.28 2472.52
   15:07:40.909.03-May-2020 4553.48 4124.08 80.96 2.00 360.48 2472.52
   15:07:41.109.03-May-2020 4553.48 4124.43 80.96 2.00 360.68 2472.52
   15:07:41.309.03-May-2020 4553.48 4124.43 80.96 2.00 360.88 2472.52
   15:07:41.509.03-May-2020 4553.48 4124.43 80.96 2.00 361.08 2472.52
   15:07:41.709.03-May-2020 4553.48 4124.15 80.96 2.00 361.28 2472.52
   15:07:41.909.03-May-2020 4553.48 4124.20 80.96 2.00 361.48 2472.52
   15:07:42.109.03-May-2020 4553.48 4130.21 80.95 2.00 361.68 2472.52
   15:07:42.309.03-May-2020 4553.48 4150.89 80.95 2.00 361.88 2472.52
   15:07:42.509.03-May-2020 4553.48 4150.89 80.95 2.00 362.08 2472.52
   15:07:42.709.03-May-2020 4553.48 4321.12 80.95 2.00 362.28 2472.52
   15:07:42.908.03-May-2020 4553.48 4420.68 80.95 2.00 362.48 2472.52
   15:07:43.108.03-May-2020 4553.48 4449.33 80.95 2.00 362.68 2472.52
   15:07:43.308.03-May-2020 4553.48 4169.07 80.95 2.00 362.88 2472.52
   15:07:43.508.03-May-2020 4553.48 4169.07 80.95 2.00 363.08 2472.52
   15:07:43.708.03-May-2020 4553.48 3993.45 80.95 2.00 363.28 2472.52
   15:07:43.908.03-May-2020 4553.48 4051.24 80.95 2.00 363.48 2472.52
   15:07:44.108.03-May-2020 4553.48 4111.29 80.95 2.00 363.68 2472.52
   15:07:44.308.03-May-2020 4553.48 4157.59 80.94 2.00 363.88 2472.52
   15:07:44.508.03-May-2020 4553.48 4157.59 80.94 2.00 364.08 2472.52
   15:07:44.708.03-May-2020 4553.48 5722.15 80.94 2.00 364.28 2472.52
   15:07:44.908.03-May-2020 4553.48 5722.62 80.94 2.00 364.48 2472.52
   15:07:45.108.03-May-2020 4553.48 5722.05 80.94 2.00 364.68 2472.52
   15:07:45.308.03-May-2020 4553.48 5722.08 80.94 2.00 364.88 2472.52
   15:07:45.508.03-May-2020 4553.48 5722.08 80.94 2.00 365.08 2472.52
   15:07:45.708.03-May-2020 4553.48 5725.60 80.94 2.00 365.28 2472.52
   15:07:45.907.03-May-2020 4553.48 5723.42 80.94 2.00 365.48 2472.52
   15:07:46.107.03-May-2020 4553.48 5723.85 80.94 2.00 365.68 2472.52
   15:07:46.307.03-May-2020 4553.48 5725.11 80.94 2.00 365.88 2472.52
   15:07:46.507.03-May-2020 4553.48 5725.11 80.94 2.00 366.08 2472.52
   15:07:46.707.03-May-2020 4553.48 5725.44 80.94 2.00 366.28 2472.52
   15:07:46.907.03-May-2020 4553.48 5725.73 80.94 2.00 366.48 2472.52
   15:07:47.107.03-May-2020 4553.48 5725.64 80.94 2.00 366.68 2472.52
   15:07:47.307.03-May-2020 4553.48 5725.05 80.94 2.00 366.88 2472.52
   15:07:47.507.03-May-2020 4553.48 5725.05 80.94 2.00 367.08 2472.52
   15:07:47.707.03-May-2020 4553.48 5724.06 80.94 2.00 367.28 2472.52
   15:07:47.907.03-May-2020 4553.48 5724.42 80.94 2.00 367.48 2472.52
   15:07:48.107.03-May-2020 4553.48 5728.95 80.94 2.00 367.68 2472.52
