~Version Information
 VERS.                  2.0:   CWLS log ASCII Standard -VERSION 2.0
 WRAP.                   NO:   One line per depth step
~Well Information Block
#MNEM.UNIT     VALUE/NAME     DESCRIPTION
#---------     -----------    ---------------------------
 STRT.S             15:01:40 03-May-20: START TIME 15:01:40 03-May-20
 STOP.S             15:08:15 03-May-20: STOP TIME  15:08:15 03-May-20
 STEP.S                   0.00: STEP TIME
 NULL.                 -999.25: NULL VALUE
 DFWT.                        :  DIST FWL TEXT
 DFST.                        :  DIST FSL TEXT
 DMF .             Drill Floor:  DRILL MEAS FROM
 STIM.      03.00.00 25-Mar-20:  START TIME
 DATE.      00.00.00 19-May-20:  END TIME
 SPUD.               27-Aug-20:  SPUD DATE
 NREF.                    Grid:  NORTH REFERENCE
 HPTY.       Minimum Curvature:  HOLE POS TYPE
 DMOD.             Drill Model:  DRILL MOD DESC
 SVYD.                  Survey:  SURVEY DESC
 ILTD.               Lithology:  INTERP LTH DESC
 FTOP.          Formation Tops:  FORM TOPS DESC
 SON .        AZ-XX-0906252240:  JOB NUMBER
 RIG .             West Chirag:  RIG NAME
 PDAT.          Mean Sea Level:  PERMANENT DATUM
 FLD .                     ACG:  FIELD NAME
 CTRY.              Azerbaijan:  COUNTRY NAME
 WELL.                     J23:  WELL NAME
 SRVC.          Turan Drilling:  CONTRACTOR
 COMP.     BP Exploration (Caspian Sea) Ltd.:  COMPANY
 WTYP.                Deviated:  WELL TYPE
 MDS .        Operator Entered:  MAG DATA SOURCE
 UWI .                     N/A:  UNIQUE WELL IDENTIFIER
 API .                     N/A:  API NUMBER
 BASE.              Azerbaijan:  LOGGING EQUIPMENT BASE LOCATION
 REGN.                   EESSA:  REGION
 PROV.                    Baku:  PROVINCE
 STAT.                    Baku:  STATE NAME
 MWDS.                     N/A:  MWD SHOP
 JOBN.        AZ-XX-0906252240:  JOB TICKET NUMB
 DOE .                     N/A:  DOE NUMBER
 DCON.         Sperry Drilling:  DIRECTNL CONTR
 UNIT.                     N/A:  LOGGING EQUIPMENT ID
 CNTY.                        :  COUNTY
 LOC .                        :  LOCATION
 LMF .             Drill Floor:  LOG MEASURED FROM
 TVDS.m                  43.00:  TVDSS CORRECTN
 LATI.deg                40.13:  LATITUDE
 LONG.deg                51.22:  LONGITUDE
 WHNS.m                   9.43:  WELL HEAD N/S
 WHEW.m                  -8.91:  WELL HEAD E/W
 UTMX.m              519005.06:  UTM X
 UTMY.m             4443793.85:  UTM Y
 DFWL.m                   0.00:  DISTANCE FWL
 DFSL.m                   0.00:  DISTANCE FSL
 SDEP.m                 363.00:  START DEPTH
 TDD .m                5150.01:  TOTAL DEPTH (DRILLER)
 VSDR.deg               179.88:  VERT SEC DIRECT
 GVFD.g                   1.00:  GRAVITY FIELD
 MFLD.nT              50295.00:  MAGNETIC FIELD
 MDIP.deg                59.56:  MAGNETIC DIP
 MDEC.deg                 6.45:  MAGNETIC DECL
 GRDC.deg                 0.14:  GRID CORRECTION
 AZTC.deg                 6.31:  AZM TOTAL CORR
 EPD .m                   0.00:  ELEVATION
 EGL .m                   0.00:  GROUND ELEVATION
 WDMS.m                 169.80:  WD ELEV
 APD .m                  43.00:  DEPTH ABOVE PD
 DEP .m                 354.17:  DEPTH
 AGAP.m                  43.00:  AIR GAP
 VSEW.m                  -8.91:  VERT SEC E/W
 VSNS.m                   9.43:  VERT SEC N/S
 EKB .m                   0.00:  KB ELEVATION
 EDF .m                  43.00:  DF ELEVATION
 TDL .m                1351.00:  TOTAL DEPTH (LOGGER)
 VSC .                       0:  VS TO CLOSURE
 MAGU.                 1850802:  MAGUTM CHECKSUM
~Parameter Information Block
#MNEM.UNIT       Value        Description
#---------     -----------    ---------------------------
 AV  .mps                 1.00:  Ann Velocity 
 AVMX.mps                 2.40:  Max Ann Veloc 
 AZIF.deg               148.96:  Azm, Final 
 BHAT.        Rotary Steerable:  BHA Type 
 BROT.°/30m               0.04:  Build Rotating 
 BS  .in                 12.25:  Bit Size 
 BSZ .in                 12.25:  Bit Size 
 BTPL.psig              814.00:  Bit Press Loss 
 TCS .hr                106.00:  Time Ciculation Ended 
 CV  .mps                 2.47:  Crit Velocity 
 CVMX.mps                 2.64:  Max Crit Veloc 
 DD1 .          Rashad Habibov:  Direct Drillr 1 
 DD2 .         Rasim Ibrahimov:  Direct Drillr 2 
 DDSV.                 iCruise:  DD Service 
 DEFF.%                 100.00:  % Det Eff 
 DLRX.°/30m               0.70:  Dogleg Rot Max 
 DLSO.°/30m               3.00:  Dogleg Oriented 
 DLSX.°/30m               4.55:  Dogleg Str Max 
 DRET.      08.08.32 02-May-20:  Drill End Time 
 DRST.      08.08.32 28-Apr-20:  Drill Start Tim 
 DTIM.hr                 60.00:  Time Drilling 
 EDEP.m                4761.01:  End Depth 
 ENG1.           Eldar Hajiyev:  Engineer 1 
 ENG2.        Marcelo Sandoval:  Engineer 2 
 ETIM.      23.23.07 05-May-20:  End Time 
 FLOI.gpm              1200.00:  Flow In 
 FLON.gpm               900.00:  Flow In Min 
 FLOS.cptm                0.00:  Fluid Loss 
 FLOX.gpm              1200.00:  Flow In Max 
 HFLO.                      No:  High Flow 
 HPRE.                      No:  High Pressure 
 HTEM.                      No:  High Temp 
 HYDO.m                   1.80:  Hydro Offset 
 IFIN.deg                68.17:  Inc, Final 
 IMAX.deg                74.61:  Inc Max 
 IMIN.deg                68.15:  Inc Min 
 IMND.m                4317.87:  Inc Min Depth 
 IMXD.m                4714.01:  Inc Max Depth 
 LETM.      08.08.32 02-May-20:  Log End Time 
 LOST.hr                     2:  Lost Rig Time 
 LSTM.      08.08.32 28-Apr-20:  Log Start Time 
 MDCL.ppm             41000.00:  Mud Chlorides 
 MDES.     Inversion Oil/Synthetic:  Mud Desc 
 DFD .sg                  1.58:  Mud Density 
 MDMN.sg                  1.58:  Dens Mud Min 
 MDMX.sg                  1.58:  Dens Mud Max 
 MOIL.                      71:  Run Mud Oil % 
 MOWR.                   71:29:  Run Mud OWR 
 MSND.                     0.1:  Run Mud Sand % 
 MSOL.                      23:  Run Mud Solids% 
 DFV .spqt               82.00:  Mud Viscosity 
 MWOD.in                  8.00:  MWD Tool OD 
 MWSI.                     Yes:  Serv Intrp, MWD 
 OTIM.hr                125.00:  Time Operating 
 PMAX.psia             6129.00:  Press Op, Max 
 PV  .cP                 32.00:  Mud PV 
 RUN .                     800:  Run Number 
 ROPA.m/hr               30.00:  ROP Avg 
 ROPN.m/hr               10.00:  ROP Min 
 ROPX.m/hr               40.00:  ROP Max 
 RPMA.rpm               140.00:  RPM Surface Avg 
 RPMN.rpm                80.00:  RPM Surface Min 
 RPMX.rpm               140.00:  RPM Surface Max 
 RRUN.                    L503:  Rig Run Number 
 RTIM.hr                  2.00:  Time Reaming 
 SAZI.deg               184.23:  Azm, Start 
 SDEP.m                3410.01:  Start Depth 
 SIDD.                      No:  Serv Intrp, DD 
 SINC.deg                68.29:  Inc, Start 
 SPPA.psig             6000.00:  SPP Avg 
 SPPN.psig             4000.00:  SPP Min 
 SPPX.psig             6100.00:  SPP Max 
 STIM.      08.08.32 28-Apr-20:  Start Time 
 SVCS.                 DD, MWD:  Services 
 SVER.                    9.20:  Sperry Version 
 TDAT.m                1351.00:  Tot Depth Attmp 
 TDDF.                      No:  Trip for DD 
 TDLG.m                1351.00:  Tot Depth Loggd 
 TFF .                      No:  Trip for Fail 
 TQAA.f-kp               27.00:  Torque Abs Avg 
 TQAN.f-kp               20.00:  Torque Abs Min 
 TQAX.f-kp               30.00:  Torque Abs Max 
 TRRT.°/30m               0.60:  Turn Rotating 
 MRT .                    EWER:  Maximum Recorded Temperature 
 TTMX.degC               83.00:  Max Tool Temp 
 VS01.                90511138:  Virtual Str1 SN 
 VS02.                90524876:  Virtual Str2 SN 
 VS03.                90524872:  Virtual Str3 SN 
 VS04.                90502750:  Virtual Str4 SN 
 VS05.                12330984:  Virtual Str5 SN 
 WBMN.klb                 0.00:  WOB Min 
 WOBA.klb                15.00:  WOB Avg 
 WOBX.klb                20.00:  WOB Max 
 YP  .lhf2               31.00:  Yield Point 
~Curve Information Block
#MNEM.UNIT                 API CODE     Curve Description
#---------               -----------    ---------------------------
 TIME.HHMMSS            00 000 000 000:  GT Time & Date
 GTDEPTH.m              00 000 000 000:  GT Depth
 GTPQH.psia             00 000 000 000:  GT HR Quartz Pressure
 GTTQ.degC              00 000 000 000:  GT Quartz Temperature
 GTTN.NONE              00 000 000 000:  GT Test Number
 GTET.sec               00 000 000 000:  GT Elapsed Test Time
 GTTVD.m                00 000 000 000:  GT True Vertical Depth
#Other Information
#
#WARRANTY: Halliburton will use its best efforts to furnish customers with 
#accurate information and interpretations that are part of, and incident to, the services 
#provided.  However, Halliburton cannot and does not warrant the accuracy 
#or correctness of such information and interpretations.  Under no circumstances should any 
#such information or interpretation be relied upon as the sole basis for any drilling, 
#completion, production, or financial decision or any procedure involving any risk to the 
#safety of any drilling venture, drilling rig or its crew or any other third party.  The 
#Customer has full responsibility for all drilling, completion and production operation.  
#Halliburton makes no representations or warranties, either expressed or 
#implied, including, but not limited to, the implied warranties of merchantability or fitness 
#for a particular purpose, with respect to the services rendered.  In no event will 
#Halliburton be liable for failure to obtain any particular results or for 
#any damages, including, but not limited to, indirect, special or consequential damages, 
#resulting from the use of any information or interpretation provided by Halliburton.
#
~A           TIME           GTDEPTH  GTPQH  GTTQ  GTTN  GTET   GTTVD  
# ...
   15:07:48.307.03-May-2020 4553.48 5728.37 80.94 2.00 367.88 2472.52
   15:07:48.507.03-May-2020 4553.48 5728.37 80.94 2.00 368.08 2472.52
   15:07:48.707.03-May-2020 4553.48 5726.61 80.94 2.00 368.28 2472.52
   15:07:48.906.03-May-2020 4553.48 5726.33 80.94 2.00 368.48 2472.52
   15:07:49.106.03-May-2020 4553.48 5729.25 80.94 2.00 368.68 2472.52
   15:07:49.306.03-May-2020 4553.48 5727.01 80.94 2.00 368.88 2472.52
   15:07:49.506.03-May-2020 4553.48 5727.01 80.94 2.00 369.08 2472.52
   15:07:49.706.03-May-2020 4553.48 5725.82 80.94 2.00 369.28 2472.52
   15:07:49.906.03-May-2020 4553.48 5733.46 80.94 2.00 369.48 2472.52
   15:07:50.106.03-May-2020 4553.48 5724.68 80.94 2.00 369.68 2472.52
   15:07:50.306.03-May-2020 4553.48 5724.17 80.94 2.00 369.88 2472.52
   15:07:50.506.03-May-2020 4553.48 5724.17 80.94 2.00 370.08 2472.52
   15:07:50.706.03-May-2020 4553.48 5722.30 80.94 2.00 370.28 2472.52
   15:07:50.906.03-May-2020 4553.48 5725.39 80.94 2.00 370.48 2472.52
   15:07:51.106.03-May-2020 4553.48 5725.06 80.94 2.00 370.68 2472.52
   15:07:51.306.03-May-2020 4553.48 5725.18 80.94 2.00 370.88 2472.52
   15:07:51.506.03-May-2020 4553.48 5725.99 80.94 2.00 371.08 2472.52
   15:07:51.706.03-May-2020 4553.48 5724.94 80.94 2.00 371.28 2472.52
   15:07:51.906.03-May-2020 4553.48 5726.32 80.94 2.00 371.48 2472.52
   15:07:52.105.03-May-2020 4553.48 5725.91 80.94 2.00 371.68 2472.52
   15:07:52.305.03-May-2020 4553.48 5724.85 80.94 2.00 371.88 2472.52
   15:07:52.505.03-May-2020 4553.48 5724.85 80.94 2.00 372.08 2472.52
   15:07:52.705.03-May-2020 4553.48 5726.00 80.94 2.00 372.28 2472.52
   15:07:52.905.03-May-2020 4553.48 5726.34 80.94 2.00 372.48 2472.52
   15:07:53.105.03-May-2020 4553.48 5726.15 80.94 2.00 372.68 2472.52
   15:07:53.305.03-May-2020 4553.48 5734.67 80.94 2.00 372.88 2472.52
   15:07:53.505.03-May-2020 4553.48 5734.67 80.94 2.00 373.08 2472.52
   15:07:53.705.03-May-2020 4553.48 5726.95 80.94 2.00 373.28 2472.52
   15:07:53.905.03-May-2020 4553.48 5727.05 80.94 2.00 373.48 2472.52
   15:07:54.105.03-May-2020 4553.48 5726.74 80.94 2.00 373.68 2472.52
   15:07:54.305.03-May-2020 4553.48 5727.78 80.94 2.00 373.88 2472.52
   15:07:54.505.03-May-2020 4553.48 5727.78 80.94 2.00 374.08 2472.52
   15:07:54.705.03-May-2020 4553.48 5728.09 80.93 2.00 374.28 2472.52
   15:07:54.905.03-May-2020 4553.48 5728.15 80.93 2.00 374.48 2472.52
   15:07:55.104.03-May-2020 4553.48 5727.33 80.93 2.00 374.68 2472.52
   15:07:55.304.03-May-2020 4553.48 5726.93 80.93 2.00 374.88 2472.52
   15:07:55.504.03-May-2020 4553.48 5726.93 80.93 2.00 375.08 2472.52
   15:07:55.704.03-May-2020 4553.48 5725.64 80.93 2.00 375.28 2472.52
   15:07:55.904.03-May-2020 4553.48 5726.30 80.93 2.00 375.48 2472.52
   15:07:56.104.03-May-2020 4553.48 5733.31 80.93 2.00 375.68 2472.52
   15:07:56.304.03-May-2020 4553.48 5726.73 80.93 2.00 375.88 2472.52
   15:07:56.504.03-May-2020 4553.48 5726.73 80.93 2.00 376.08 2472.52
   15:07:56.704.03-May-2020 4553.48 5724.00 80.93 2.00 376.28 2472.52
   15:07:56.904.03-May-2020 4553.48 5727.68 80.93 2.00 376.48 2472.52
   15:07:57.104.03-May-2020 4553.48 5733.40 80.92 2.00 376.68 2472.52
   15:07:57.304.03-May-2020 4553.48 5724.45 80.92 2.00 376.88 2472.52
   15:07:57.504.03-May-2020 4553.48 5724.45 80.92 2.00 377.08 2472.52
   15:07:57.704.03-May-2020 4553.48 5726.62 80.92 2.00 377.28 2472.52
   15:07:57.904.03-May-2020 4553.48 5726.61 80.92 2.00 377.48 2472.52
   15:07:58.104.03-May-2020 4553.48 5726.52 80.92 2.00 377.68 2472.52
   15:07:58.303.03-May-2020 4553.48 5728.08 80.92 2.00 377.88 2472.52
   15:07:58.503.03-May-2020 4553.48 5728.08 80.92 2.00 378.08 2472.52
   15:07:58.703.03-May-2020 4553.48 5725.30 80.92 2.00 378.28 2472.52
   15:07:58.903.03-May-2020 4553.48 5731.19 80.92 2.00 378.48 2472.52
   15:07:59.103.03-May-2020 4553.48 5725.10 80.92 2.00 378.68 2472.52
   15:07:59.303.03-May-2020 4553.48 5724.89 80.91 2.00 378.88 2472.52
   15:07:59.503.03-May-2020 4553.48 5724.89 80.91 2.00 379.08 2472.52
   15:07:59.703.03-May-2020 4553.48 5726.62 80.91 2.00 379.28 2472.52
   15:07:59.903.03-May-2020 4553.48 5725.25 80.91 2.00 379.48 2472.52
   15:08:00.103.03-May-2020 4553.48 5725.56 80.91 2.00 379.68 2472.52
   15:08:00.303.03-May-2020 4553.48 5725.36 80.91 2.00 379.88 2472.52
   15:08:00.503.03-May-2020 4553.48 5725.36 80.91 2.00 380.08 2472.52
   15:08:00.703.03-May-2020 4553.48 5725.11 80.91 2.00 380.28 2472.52
   15:08:00.903.03-May-2020 4553.48 5726.04 80.91 2.00 380.48 2472.52
   15:08:01.103.03-May-2020 4553.48 5727.17 80.91 2.00 380.68 2472.52
   15:08:01.302.03-May-2020 4553.48 5727.04 80.90 2.00 380.88 2472.52
   15:08:01.502.03-May-2020 4553.48 5727.04 80.90 2.00 381.08 2472.52
   15:08:01.702.03-May-2020 4553.48 5733.63 80.90 2.00 381.28 2472.52
   15:08:01.902.03-May-2020 4553.48 5726.61 80.90 2.00 381.48 2472.52
   15:08:02.102.03-May-2020 4553.48 5728.92 80.90 2.00 381.68 2472.52
   15:08:02.302.03-May-2020 4553.48 5727.10 80.90 2.00 381.88 2472.52
   15:08:02.502.03-May-2020 4553.48 5727.10 80.90 2.00 382.08 2472.52
   15:08:02.702.03-May-2020 4553.48 5726.68 80.90 2.00 382.28 2472.52
   15:08:02.902.03-May-2020 4553.48 5727.27 80.90 2.00 382.48 2472.52
   15:08:03.102.03-May-2020 4553.48 5726.84 80.89 2.00 382.68 2472.52
   15:08:03.302.03-May-2020 4553.48 5725.71 80.89 2.00 382.88 2472.52
   15:08:03.502.03-May-2020 4553.48 5725.71 80.89 2.00 383.08 2472.52
   15:08:03.702.03-May-2020 4553.48 5725.40 80.89 2.00 383.28 2472.52
   15:08:03.902.03-May-2020 4553.48 5725.76 80.89 2.00 383.48 2472.52
   15:08:04.102.03-May-2020 4553.48 5726.24 80.89 2.00 383.68 2472.52
   15:08:04.301.03-May-2020 4553.48 5730.72 80.89 2.00 383.88 2472.52
   15:08:04.501.03-May-2020 4553.48 5730.72 80.89 2.00 384.07 2472.52
   15:08:04.701.03-May-2020 4553.48 5726.63 80.89 2.00 384.27 2472.52
   15:08:04.901.03-May-2020 4553.48 5732.25 80.89 2.00 384.47 2472.52
   15:08:05.101.03-May-2020 4553.48 5725.62 80.88 2.00 384.67 2472.52
   15:08:05.301.03-May-2020 4553.48 5726.83 80.88 2.00 384.87 2472.52
   15:08:05.501.03-May-2020 4553.48 5726.83 80.88 2.00 385.07 2472.52
   15:08:05.701.03-May-2020 4553.48 5729.56 80.88 2.00 385.27 2472.52
   15:08:05.901.03-May-2020 4553.48 5725.45 80.88 2.00 385.47 2472.52
   15:08:06.101.03-May-2020 4553.48 5725.33 80.88 2.00 385.67 2472.52
   15:08:06.301.03-May-2020 4553.48 5725.80 80.88 2.00 385.87 2472.52
   15:08:06.501.03-May-2020 4553.48 5730.79 80.88 2.00 386.07 2472.52
   15:08:06.701.03-May-2020 4553.48 5722.10 80.88 2.00 386.27 2472.52
   15:08:06.901.03-May-2020 4553.48 5725.14 80.87 2.00 386.47 2472.52
   15:08:07.101.03-May-2020 4553.48 5725.55 80.87 2.00 386.67 2472.52
   15:08:07.301.03-May-2020 4553.48 5732.23 80.87 2.00 386.87 2472.52
   15:08:07.500.03-May-2020 4553.48 5724.09 80.87 2.00 387.07 2472.52
   15:08:07.700.03-May-2020 4553.48 5726.25 80.87 2.00 387.27 2472.52
   15:08:07.900.03-May-2020 4553.48 5726.22 80.87 2.00 387.47 2472.52
   15:08:08.100.03-May-2020 4553.48 5726.38 80.87 2.00 387.67 2472.52
   15:08:08.300.03-May-2020 4553.48 5726.79 80.87 2.00 387.87 2472.52
   15:08:08.500.03-May-2020 4553.48 5726.79 80.87 2.00 388.07 2472.52
   15:08:08.700.03-May-2020 4553.48 5726.03 80.86 2.00 388.27 2472.52
   15:08:08.900.03-May-2020 4553.48 5725.96 80.86 2.00 388.47 2472.52
   15:08:09.100.03-May-2020 4553.48 5726.05 80.86 2.00 388.67 2472.52
   15:08:09.300.03-May-2020 4553.48 5727.68 80.86 2.00 388.87 2472.52
   15:08:09.500.03-May-2020 4553.48 5727.68 80.86 2.00 389.07 2472.52
   15:08:09.700.03-May-2020 4553.48 5727.47 80.86 2.00 389.27 2472.52
   15:08:09.900.03-May-2020 4553.48 5727.57 80.86 2.00 389.47 2472.52
   15:08:10.100.03-May-2020 4553.48 5735.71 80.86 2.00 389.67 2472.52
   15:08:10.300.03-May-2020 4553.48 5726.68 80.86 2.00 389.87 2472.52
   15:08:10.499.03-May-2020 4553.48 5726.68 80.86 2.00 390.07 2472.52
   15:08:10.699.03-May-2020 4553.48 5728.18 80.85 2.00 390.27 2472.52
   15:08:10.899.03-May-2020 4553.48 5727.65 80.85 2.00 390.47 2472.52
   15:08:11.099.03-May-2020 4553.48 5728.27 80.85 2.00 390.67 2472.52
