~Version Information
 VERS.                  2.0:   CWLS log ASCII Standard -VERSION 2.0
 WRAP.                   NO:   One line per depth step
~Well Information Block
#MNEM.UNIT     VALUE/NAME     DESCRIPTION
#---------     -----------    ---------------------------
 STRT.S             00:33:44 04-May-20: START TIME 00:33:44 04-May-20
 STOP.S             00:40:14 04-May-20: STOP TIME  00:40:14 04-May-20
 STEP.S                   0.00: STEP TIME
 NULL.                 -999.25: NULL VALUE
 DFWT.                        :  DIST FWL TEXT
 DFST.                        :  DIST FSL TEXT
 DMF .             Drill Floor:  DRILL MEAS FROM
 STIM.      03.00.00 25-Mar-20:  START TIME
 DATE.      00.00.00 19-May-20:  END TIME
 SPUD.               27-Aug-20:  SPUD DATE
 NREF.                    Grid:  NORTH REFERENCE
 HPTY.       Minimum Curvature:  HOLE POS TYPE
 DMOD.             Drill Model:  DRILL MOD DESC
 SVYD.                  Survey:  SURVEY DESC
 ILTD.               Lithology:  INTERP LTH DESC
 FTOP.          Formation Tops:  FORM TOPS DESC
 SON .        AZ-XX-0906252240:  JOB NUMBER
 RIG .             West Chirag:  RIG NAME
 PDAT.          Mean Sea Level:  PERMANENT DATUM
 FLD .                     ACG:  FIELD NAME
 CTRY.              Azerbaijan:  COUNTRY NAME
 WELL.                     J23:  WELL NAME
 SRVC.          Turan Drilling:  CONTRACTOR
 COMP.     BP Exploration (Caspian Sea) Ltd.:  COMPANY
 WTYP.                Deviated:  WELL TYPE
 MDS .        Operator Entered:  MAG DATA SOURCE
 UWI .                     N/A:  UNIQUE WELL IDENTIFIER
 API .                     N/A:  API NUMBER
 BASE.              Azerbaijan:  LOGGING EQUIPMENT BASE LOCATION
 REGN.                   EESSA:  REGION
 PROV.                    Baku:  PROVINCE
 STAT.                    Baku:  STATE NAME
 MWDS.                     N/A:  MWD SHOP
 JOBN.        AZ-XX-0906252240:  JOB TICKET NUMB
 DOE .                     N/A:  DOE NUMBER
 DCON.         Sperry Drilling:  DIRECTNL CONTR
 UNIT.                     N/A:  LOGGING EQUIPMENT ID
 CNTY.                        :  COUNTY
 LOC .                        :  LOCATION
 LMF .             Drill Floor:  LOG MEASURED FROM
 TVDS.m                  43.00:  TVDSS CORRECTN
 LATI.deg                40.13:  LATITUDE
 LONG.deg                51.22:  LONGITUDE
 WHNS.m                   9.43:  WELL HEAD N/S
 WHEW.m                  -8.91:  WELL HEAD E/W
 UTMX.m              519005.06:  UTM X
 UTMY.m             4443793.85:  UTM Y
 DFWL.m                   0.00:  DISTANCE FWL
 DFSL.m                   0.00:  DISTANCE FSL
 SDEP.m                 363.00:  START DEPTH
 TDD .m                5150.01:  TOTAL DEPTH (DRILLER)
 VSDR.deg               179.88:  VERT SEC DIRECT
 GVFD.g                   1.00:  GRAVITY FIELD
 MFLD.nT              50295.00:  MAGNETIC FIELD
 MDIP.deg                59.56:  MAGNETIC DIP
 MDEC.deg                 6.45:  MAGNETIC DECL
 GRDC.deg                 0.14:  GRID CORRECTION
 AZTC.deg                 6.31:  AZM TOTAL CORR
 EPD .m                   0.00:  ELEVATION
 EGL .m                   0.00:  GROUND ELEVATION
 WDMS.m                 169.80:  WD ELEV
 APD .m                  43.00:  DEPTH ABOVE PD
 DEP .m                 354.17:  DEPTH
 AGAP.m                  43.00:  AIR GAP
 VSEW.m                  -8.91:  VERT SEC E/W
 VSNS.m                   9.43:  VERT SEC N/S
 EKB .m                   0.00:  KB ELEVATION
 EDF .m                  43.00:  DF ELEVATION
 TDL .m                1351.00:  TOTAL DEPTH (LOGGER)
 VSC .                       0:  VS TO CLOSURE
 MAGU.                 1850802:  MAGUTM CHECKSUM
~Parameter Information Block
#MNEM.UNIT       Value        Description
#---------     -----------    ---------------------------
 AV  .mps                 1.00:  Ann Velocity 
 AVMX.mps                 2.40:  Max Ann Veloc 
 AZIF.deg               148.96:  Azm, Final 
 BHAT.        Rotary Steerable:  BHA Type 
 BROT.°/30m               0.04:  Build Rotating 
 BS  .in                 12.25:  Bit Size 
 BSZ .in                 12.25:  Bit Size 
 BTPL.psig              814.00:  Bit Press Loss 
 TCS .hr                106.00:  Time Ciculation Ended 
 CV  .mps                 2.47:  Crit Velocity 
 CVMX.mps                 2.64:  Max Crit Veloc 
 DD1 .          Rashad Habibov:  Direct Drillr 1 
 DD2 .         Rasim Ibrahimov:  Direct Drillr 2 
 DDSV.                 iCruise:  DD Service 
 DEFF.%                 100.00:  % Det Eff 
 DLRX.°/30m               0.70:  Dogleg Rot Max 
 DLSO.°/30m               3.00:  Dogleg Oriented 
 DLSX.°/30m               4.55:  Dogleg Str Max 
 DRET.      08.08.32 02-May-20:  Drill End Time 
 DRST.      08.08.32 28-Apr-20:  Drill Start Tim 
 DTIM.hr                 60.00:  Time Drilling 
 EDEP.m                4761.01:  End Depth 
 ENG1.           Eldar Hajiyev:  Engineer 1 
 ENG2.        Marcelo Sandoval:  Engineer 2 
 ETIM.      23.23.07 05-May-20:  End Time 
 FLOI.gpm              1200.00:  Flow In 
 FLON.gpm               900.00:  Flow In Min 
 FLOS.cptm                0.00:  Fluid Loss 
 FLOX.gpm              1200.00:  Flow In Max 
 HFLO.                      No:  High Flow 
 HPRE.                      No:  High Pressure 
 HTEM.                      No:  High Temp 
 HYDO.m                   1.80:  Hydro Offset 
 IFIN.deg                68.17:  Inc, Final 
 IMAX.deg                74.61:  Inc Max 
 IMIN.deg                68.15:  Inc Min 
 IMND.m                4317.87:  Inc Min Depth 
 IMXD.m                4714.01:  Inc Max Depth 
 LETM.      08.08.32 02-May-20:  Log End Time 
 LOST.hr                     2:  Lost Rig Time 
 LSTM.      08.08.32 28-Apr-20:  Log Start Time 
 MDCL.ppm             41000.00:  Mud Chlorides 
 MDES.     Inversion Oil/Synthetic:  Mud Desc 
 DFD .sg                  1.58:  Mud Density 
 MDMN.sg                  1.58:  Dens Mud Min 
 MDMX.sg                  1.58:  Dens Mud Max 
 MOIL.                      71:  Run Mud Oil % 
 MOWR.                   71:29:  Run Mud OWR 
 MSND.                     0.1:  Run Mud Sand % 
 MSOL.                      23:  Run Mud Solids% 
 DFV .spqt               82.00:  Mud Viscosity 
 MWOD.in                  8.00:  MWD Tool OD 
 MWSI.                     Yes:  Serv Intrp, MWD 
 OTIM.hr                125.00:  Time Operating 
 PMAX.psia             6129.00:  Press Op, Max 
 PV  .cP                 32.00:  Mud PV 
 RUN .                     800:  Run Number 
 ROPA.m/hr               30.00:  ROP Avg 
 ROPN.m/hr               10.00:  ROP Min 
 ROPX.m/hr               40.00:  ROP Max 
 RPMA.rpm               140.00:  RPM Surface Avg 
 RPMN.rpm                80.00:  RPM Surface Min 
 RPMX.rpm               140.00:  RPM Surface Max 
 RRUN.                    L503:  Rig Run Number 
 RTIM.hr                  2.00:  Time Reaming 
 SAZI.deg               184.23:  Azm, Start 
 SDEP.m                3410.01:  Start Depth 
 SIDD.                      No:  Serv Intrp, DD 
 SINC.deg                68.29:  Inc, Start 
 SPPA.psig             6000.00:  SPP Avg 
 SPPN.psig             4000.00:  SPP Min 
 SPPX.psig             6100.00:  SPP Max 
 STIM.      08.08.32 28-Apr-20:  Start Time 
 SVCS.                 DD, MWD:  Services 
 SVER.                    9.20:  Sperry Version 
 TDAT.m                1351.00:  Tot Depth Attmp 
 TDDF.                      No:  Trip for DD 
 TDLG.m                1351.00:  Tot Depth Loggd 
 TFF .                      No:  Trip for Fail 
 TQAA.f-kp               27.00:  Torque Abs Avg 
 TQAN.f-kp               20.00:  Torque Abs Min 
 TQAX.f-kp               30.00:  Torque Abs Max 
 TRRT.°/30m               0.60:  Turn Rotating 
 MRT .                    EWER:  Maximum Recorded Temperature 
 TTMX.degC               83.00:  Max Tool Temp 
 VS01.                90511138:  Virtual Str1 SN 
 VS02.                90524876:  Virtual Str2 SN 
 VS03.                90524872:  Virtual Str3 SN 
 VS04.                90502750:  Virtual Str4 SN 
 VS05.                12330984:  Virtual Str5 SN 
 WBMN.klb                 0.00:  WOB Min 
 WOBA.klb                15.00:  WOB Avg 
 WOBX.klb                20.00:  WOB Max 
 YP  .lhf2               31.00:  Yield Point 
~Curve Information Block
#MNEM.UNIT                 API CODE     Curve Description
#---------               -----------    ---------------------------
 TIME.HHMMSS            00 000 000 000:  GT Time & Date
 GTDEPTH.m              00 000 000 000:  GT Depth
 GTPQH.psia             00 000 000 000:  GT HR Quartz Pressure
 GTTQ.degC              00 000 000 000:  GT Quartz Temperature
 GTTN.NONE              00 000 000 000:  GT Test Number
 GTET.sec               00 000 000 000:  GT Elapsed Test Time
 GTTVD.m                00 000 000 000:  GT True Vertical Depth
#Other Information
#
#WARRANTY: Halliburton will use its best efforts to furnish customers with 
#accurate information and interpretations that are part of, and incident to, the services 
#provided.  However, Halliburton cannot and does not warrant the accuracy 
#or correctness of such information and interpretations.  Under no circumstances should any 
#such information or interpretation be relied upon as the sole basis for any drilling, 
#completion, production, or financial decision or any procedure involving any risk to the 
#safety of any drilling venture, drilling rig or its crew or any other third party.  The 
#Customer has full responsibility for all drilling, completion and production operation.  
#Halliburton makes no representations or warranties, either expressed or 
#implied, including, but not limited to, the implied warranties of merchantability or fitness 
#for a particular purpose, with respect to the services rendered.  In no event will 
#Halliburton be liable for failure to obtain any particular results or for 
#any damages, including, but not limited to, indirect, special or consequential damages, 
#resulting from the use of any information or interpretation provided by Halliburton.
#
~A           TIME           GTDEPTH  GTPQH  GTTQ  GTTN  GTET   GTTVD  
# ...
   00:34:07.318.04-May-2020 4661.71 5813.54 81.36 4.00  23.00 2504.33
   00:34:07.518.04-May-2020 4661.71 5813.54 81.36 4.00  23.20 2504.33
   00:34:07.718.04-May-2020 4661.71 5811.71 81.36 4.00  23.40 2504.33
   00:34:07.918.04-May-2020 4661.71 5812.06 81.36 4.00  23.60 2504.33
   00:34:08.118.04-May-2020 4661.71 5810.41 81.36 4.00  23.80 2504.33
   00:34:08.318.04-May-2020 4661.71 5811.69 81.36 4.00  24.00 2504.33
   00:34:08.518.04-May-2020 4661.71 5811.69 81.36 4.00  24.20 2504.33
   00:34:08.718.04-May-2020 4661.71 5810.47 81.36 4.00  24.40 2504.33
   00:34:08.918.04-May-2020 4661.71 5810.78 81.35 4.00  24.60 2504.33
   00:34:09.118.04-May-2020 4661.71 5812.01 81.35 4.00  24.80 2504.33
   00:34:09.318.04-May-2020 4661.71 5818.00 81.35 4.00  25.00 2504.33
   00:34:09.518.04-May-2020 4661.71 5818.00 81.35 4.00  25.20 2504.33
   00:34:09.718.04-May-2020 4661.71 5810.90 81.35 4.00  25.40 2504.33
   00:34:09.919.04-May-2020 4661.71 5812.33 81.35 4.00  25.60 2504.33
   00:34:10.119.04-May-2020 4661.71 5813.33 81.35 4.00  25.80 2504.33
   00:34:10.319.04-May-2020 4661.71 5820.43 81.35 4.00  26.00 2504.33
   00:34:10.519.04-May-2020 4661.71 5820.43 81.35 4.00  26.20 2504.33
   00:34:10.719.04-May-2020 4661.71 5813.02 81.35 4.00  26.40 2504.33
   00:34:10.919.04-May-2020 4661.71 5813.00 81.35 4.00  26.60 2504.33
   00:34:11.119.04-May-2020 4661.71 5812.07 81.35 4.00  26.80 2504.33
   00:34:11.319.04-May-2020 4661.71 5812.72 81.34 4.00  27.00 2504.33
   00:34:11.519.04-May-2020 4661.71 5812.72 81.34 4.00  27.20 2504.33
   00:34:11.719.04-May-2020 4661.71 5812.88 81.34 4.00  27.40 2504.33
   00:34:11.919.04-May-2020 4661.71 5811.87 81.34 4.00  27.60 2504.33
   00:34:12.119.04-May-2020 4661.71 5812.52 81.34 4.00  27.80 2504.33
   00:34:12.319.04-May-2020 4661.71 5813.33 81.34 4.00  28.00 2504.33
   00:34:12.519.04-May-2020 4661.71 5813.33 81.34 4.00  28.20 2504.33
   00:34:12.719.04-May-2020 4661.71 5814.04 81.34 4.00  28.40 2504.33
   00:34:12.919.04-May-2020 4661.71 5813.75 81.34 4.00  28.60 2504.33
   00:34:13.119.04-May-2020 4661.71 5821.01 81.34 4.00  28.80 2504.33
   00:34:13.319.04-May-2020 4661.71 5814.75 81.34 4.00  29.00 2504.33
   00:34:13.519.04-May-2020 4661.71 5814.75 81.34 4.00  29.20 2504.33
   00:34:13.719.04-May-2020 4661.71 5815.94 81.33 4.00  29.40 2504.33
   00:34:13.919.04-May-2020 4661.71 5815.61 81.33 4.00  29.60 2504.33
   00:34:14.119.04-May-2020 4661.71 5816.23 81.33 4.00  29.80 2504.33
   00:34:14.319.04-May-2020 4661.71 5815.43 81.33 4.00  30.00 2504.33
   00:34:14.519.04-May-2020 4661.71 5815.43 81.33 4.00  30.20 2504.33
   00:34:14.719.04-May-2020 4661.71 5814.38 81.33 4.00  30.40 2504.33
   00:34:14.919.04-May-2020 4661.71 5814.85 81.33 4.00  30.60 2504.33
   00:34:15.119.04-May-2020 4661.71 5814.65 81.33 4.00  30.80 2504.33
   00:34:15.319.04-May-2020 4661.71 5815.18 81.33 4.00  31.00 2504.33
   00:34:15.519.04-May-2020 4661.71 5815.18 81.33 4.00  31.20 2504.33
   00:34:15.719.04-May-2020 4661.71 5814.90 81.33 4.00  31.40 2504.33
   00:34:15.919.04-May-2020 4661.71 5819.49 81.33 4.00  31.60 2504.33
   00:34:16.119.04-May-2020 4661.71 5814.68 81.33 4.00  31.80 2504.33
   00:34:16.319.04-May-2020 4661.71 5822.30 81.32 4.00  32.00 2504.33
   00:34:16.519.04-May-2020 4661.71 5822.30 81.32 4.00  32.20 2504.33
   00:34:16.719.04-May-2020 4661.71 5815.71 81.32 4.00  32.40 2504.33
   00:34:16.919.04-May-2020 4661.71 5814.27 81.32 4.00  32.60 2504.33
   00:34:17.119.04-May-2020 4661.71 5814.09 81.32 4.00  32.80 2504.33
   00:34:17.319.04-May-2020 4661.71 5820.25 81.32 4.00  33.00 2504.33
   00:34:17.519.04-May-2020 4661.71 5820.25 81.32 4.00  33.20 2504.33
   00:34:17.719.04-May-2020 4661.71 5812.35 81.32 4.00  33.40 2504.33
   00:34:17.919.04-May-2020 4661.71 5813.72 81.32 4.00  33.60 2504.33
   00:34:18.119.04-May-2020 4661.71 5817.92 81.32 4.00  33.80 2504.33
   00:34:18.319.04-May-2020 4661.71 5815.27 81.32 4.00  34.00 2504.33
   00:34:18.519.04-May-2020 4661.71 5815.27 81.32 4.00  34.20 2504.33
   00:34:18.719.04-May-2020 4661.71 5813.29 81.31 4.00  34.40 2504.33
   00:34:18.919.04-May-2020 4661.71 5820.37 81.31 4.00  34.60 2504.33
   00:34:19.119.04-May-2020 4661.71 5814.34 81.31 4.00  34.80 2504.33
   00:34:19.319.04-May-2020 4661.71 5814.41 81.31 4.00  35.00 2504.33
   00:34:19.519.04-May-2020 4661.71 5814.41 81.31 4.00  35.20 2504.33
   00:34:19.719.04-May-2020 4661.71 5813.12 81.31 4.00  35.40 2504.33
   00:34:19.919.04-May-2020 4661.71 5814.67 81.31 4.00  35.60 2504.33
   00:34:20.119.04-May-2020 4661.71 5813.63 81.31 4.00  35.80 2504.33
   00:34:20.319.04-May-2020 4661.71 5814.63 81.31 4.00  36.00 2504.33
   00:34:20.519.04-May-2020 4661.71 5814.63 81.31 4.00  36.20 2504.33
   00:34:20.719.04-May-2020 4661.71 5812.05 81.31 4.00  36.40 2504.33
   00:34:20.920.04-May-2020 4661.71 5800.38 81.31 4.00  36.60 2504.33
   00:34:21.120.04-May-2020 4661.71 5775.15 81.30 4.00  36.80 2504.33
   00:34:21.320.04-May-2020 4661.71 5755.61 81.30 4.00  37.00 2504.33
   00:34:21.520.04-May-2020 4661.71 5755.61 81.30 4.00  37.20 2504.33
   00:34:21.720.04-May-2020 4661.71 5718.08 81.30 4.00  37.40 2504.33
   00:34:21.920.04-May-2020 4661.71 5720.15 81.30 4.00  37.60 2504.33
   00:34:22.120.04-May-2020 4661.71 5887.46 81.30 4.00  37.80 2504.33
   00:34:22.320.04-May-2020 4661.71 5945.42 81.30 4.00  38.00 2504.33
   00:34:22.520.04-May-2020 4661.71 5945.42 81.30 4.00  38.20 2504.33
   00:34:22.720.04-May-2020 4661.71 5936.36 81.30 4.00  38.40 2504.33
   00:34:22.920.04-May-2020 4661.71 5911.87 81.30 4.00  38.60 2504.33
   00:34:23.120.04-May-2020 4661.71 5899.23 81.30 4.00  38.80 2504.33
   00:34:23.320.04-May-2020 4661.71 5890.58 81.30 4.00  39.00 2504.33
   00:34:23.520.04-May-2020 4661.71 5890.58 81.30 4.00  39.20 2504.33
   00:34:23.720.04-May-2020 4661.71 5880.58 81.29 4.00  39.40 2504.33
   00:34:23.920.04-May-2020 4661.71 5875.48 81.29 4.00  39.60 2504.33
   00:34:24.120.04-May-2020 4661.71 5872.91 81.29 4.00  39.80 2504.33
   00:34:24.320.04-May-2020 4661.71 5871.33 81.29 4.00  40.00 2504.33
   00:34:24.520.04-May-2020 4661.71 5871.33 81.29 4.00  40.20 2504.33
   00:34:24.720.04-May-2020 4661.71 5877.29 81.29 4.00  40.40 2504.33
   00:34:24.920.04-May-2020 4661.71 5878.35 81.29 4.00  40.60 2504.33
   00:34:25.120.04-May-2020 4661.71 5877.18 81.29 4.00  40.80 2504.33
   00:34:25.320.04-May-2020 4661.71 5876.75 81.29 4.00  41.00 2504.33
   00:34:25.520.04-May-2020 4661.71 5876.75 81.29 4.00  41.20 2504.33
   00:34:25.720.04-May-2020 4661.71 5879.43 81.29 4.00  41.40 2504.33
   00:34:25.920.04-May-2020 4661.71 5879.21 81.29 4.00  41.60 2504.33
   00:34:26.120.04-May-2020 4661.71 5878.32 81.28 4.00  41.80 2504.33
   00:34:26.320.04-May-2020 4661.71 5883.85 81.28 4.00  42.00 2504.33
   00:34:26.520.04-May-2020 4661.71 5883.85 81.28 4.00  42.20 2504.33
   00:34:26.720.04-May-2020 4661.71 5878.00 81.28 4.00  42.40 2504.33
   00:34:26.920.04-May-2020 4661.71 5878.18 81.28 4.00  42.60 2504.33
   00:34:27.120.04-May-2020 4661.71 5879.85 81.28 4.00  42.80 2504.33
   00:34:27.320.04-May-2020 4661.71 5880.77 81.28 4.00  43.00 2504.33
   00:34:27.520.04-May-2020 4661.71 5880.77 81.28 4.00  43.20 2504.33
   00:34:27.720.04-May-2020 4661.71 5884.08 81.28 4.00  43.40 2504.33
   00:34:27.920.04-May-2020 4661.71 5877.56 81.28 4.00  43.60 2504.33
   00:34:28.120.04-May-2020 4661.71 5880.29 81.28 4.00  43.80 2504.33
   00:34:28.320.04-May-2020 4661.71 5878.65 81.28 4.00  44.00 2504.33
   00:34:28.520.04-May-2020 4661.71 5878.65 81.28 4.00  44.20 2504.33
   00:34:28.720.04-May-2020 4661.71 5876.00 81.27 4.00  44.40 2504.33
   00:34:28.920.04-May-2020 4661.71 5878.88 81.27 4.00  44.60 2504.33
   00:34:29.120.04-May-2020 4661.71 5882.51 81.27 4.00  44.80 2504.33
   00:34:29.320.04-May-2020 4661.71 5907.35 81.27 4.00  45.00 2504.33
   00:34:29.520.04-May-2020 4661.71 5907.35 81.27 4.00  45.20 2504.33
   00:34:29.720.04-May-2020 4661.71 5838.58 81.27 4.00  45.40 2504.33
   00:34:29.920.04-May-2020 4661.71 5838.65 81.27 4.00  45.60 2504.33
   00:34:30.120.04-May-2020 4661.71 5838.76 81.27 4.00  45.80 2504.33
