~Version Information
 VERS.                  2.0:   CWLS log ASCII Standard -VERSION 2.0
 WRAP.                   NO:   One line per depth step
~Well Information Block
#MNEM.UNIT     VALUE/NAME     DESCRIPTION
#---------     -----------    ---------------------------
 STRT.S             19:38:29 03-May-20: START TIME 19:38:29 03-May-20
 STOP.S             19:45:06 03-May-20: STOP TIME  19:45:06 03-May-20
 STEP.S                   0.00: STEP TIME
 NULL.                 -999.25: NULL VALUE
 DFWT.                        :  DIST FWL TEXT
 DFST.                        :  DIST FSL TEXT
 DMF .             Drill Floor:  DRILL MEAS FROM
 STIM.      03.00.00 25-Mar-20:  START TIME
 DATE.      00.00.00 19-May-20:  END TIME
 SPUD.               27-Aug-20:  SPUD DATE
 NREF.                    Grid:  NORTH REFERENCE
 HPTY.       Minimum Curvature:  HOLE POS TYPE
 DMOD.             Drill Model:  DRILL MOD DESC
 SVYD.                  Survey:  SURVEY DESC
 ILTD.               Lithology:  INTERP LTH DESC
 FTOP.          Formation Tops:  FORM TOPS DESC
 SON .        AZ-XX-0906252240:  JOB NUMBER
 RIG .             West Chirag:  RIG NAME
 PDAT.          Mean Sea Level:  PERMANENT DATUM
 FLD .                     ACG:  FIELD NAME
 CTRY.              Azerbaijan:  COUNTRY NAME
 WELL.                     J23:  WELL NAME
 SRVC.          Turan Drilling:  CONTRACTOR
 COMP.     BP Exploration (Caspian Sea) Ltd.:  COMPANY
 WTYP.                Deviated:  WELL TYPE
 MDS .        Operator Entered:  MAG DATA SOURCE
 UWI .                     N/A:  UNIQUE WELL IDENTIFIER
 API .                     N/A:  API NUMBER
 BASE.              Azerbaijan:  LOGGING EQUIPMENT BASE LOCATION
 REGN.                   EESSA:  REGION
 PROV.                    Baku:  PROVINCE
 STAT.                    Baku:  STATE NAME
 MWDS.                     N/A:  MWD SHOP
 JOBN.        AZ-XX-0906252240:  JOB TICKET NUMB
 DOE .                     N/A:  DOE NUMBER
 DCON.         Sperry Drilling:  DIRECTNL CONTR
 UNIT.                     N/A:  LOGGING EQUIPMENT ID
 CNTY.                        :  COUNTY
 LOC .                        :  LOCATION
 LMF .             Drill Floor:  LOG MEASURED FROM
 TVDS.m                  43.00:  TVDSS CORRECTN
 LATI.deg                40.13:  LATITUDE
 LONG.deg                51.22:  LONGITUDE
 WHNS.m                   9.43:  WELL HEAD N/S
 WHEW.m                  -8.91:  WELL HEAD E/W
 UTMX.m              519005.06:  UTM X
 UTMY.m             4443793.85:  UTM Y
 DFWL.m                   0.00:  DISTANCE FWL
 DFSL.m                   0.00:  DISTANCE FSL
 SDEP.m                 363.00:  START DEPTH
 TDD .m                5150.01:  TOTAL DEPTH (DRILLER)
 VSDR.deg               179.88:  VERT SEC DIRECT
 GVFD.g                   1.00:  GRAVITY FIELD
 MFLD.nT              50295.00:  MAGNETIC FIELD
 MDIP.deg                59.56:  MAGNETIC DIP
 MDEC.deg                 6.45:  MAGNETIC DECL
 GRDC.deg                 0.14:  GRID CORRECTION
 AZTC.deg                 6.31:  AZM TOTAL CORR
 EPD .m                   0.00:  ELEVATION
 EGL .m                   0.00:  GROUND ELEVATION
 WDMS.m                 169.80:  WD ELEV
 APD .m                  43.00:  DEPTH ABOVE PD
 DEP .m                 354.17:  DEPTH
 AGAP.m                  43.00:  AIR GAP
 VSEW.m                  -8.91:  VERT SEC E/W
 VSNS.m                   9.43:  VERT SEC N/S
 EKB .m                   0.00:  KB ELEVATION
 EDF .m                  43.00:  DF ELEVATION
 TDL .m                1351.00:  TOTAL DEPTH (LOGGER)
 VSC .                       0:  VS TO CLOSURE
 MAGU.                 1850802:  MAGUTM CHECKSUM
~Parameter Information Block
#MNEM.UNIT       Value        Description
#---------     -----------    ---------------------------
 AV  .mps                 1.00:  Ann Velocity 
 AVMX.mps                 2.40:  Max Ann Veloc 
 AZIF.deg               148.96:  Azm, Final 
 BHAT.        Rotary Steerable:  BHA Type 
 BROT.°/30m               0.04:  Build Rotating 
 BS  .in                 12.25:  Bit Size 
 BSZ .in                 12.25:  Bit Size 
 BTPL.psig              814.00:  Bit Press Loss 
 TCS .hr                106.00:  Time Ciculation Ended 
 CV  .mps                 2.47:  Crit Velocity 
 CVMX.mps                 2.64:  Max Crit Veloc 
 DD1 .          Rashad Habibov:  Direct Drillr 1 
 DD2 .         Rasim Ibrahimov:  Direct Drillr 2 
 DDSV.                 iCruise:  DD Service 
 DEFF.%                 100.00:  % Det Eff 
 DLRX.°/30m               0.70:  Dogleg Rot Max 
 DLSO.°/30m               3.00:  Dogleg Oriented 
 DLSX.°/30m               4.55:  Dogleg Str Max 
 DRET.      08.08.32 02-May-20:  Drill End Time 
 DRST.      08.08.32 28-Apr-20:  Drill Start Tim 
 DTIM.hr                 60.00:  Time Drilling 
 EDEP.m                4761.01:  End Depth 
 ENG1.           Eldar Hajiyev:  Engineer 1 
 ENG2.        Marcelo Sandoval:  Engineer 2 
 ETIM.      23.23.07 05-May-20:  End Time 
 FLOI.gpm              1200.00:  Flow In 
 FLON.gpm               900.00:  Flow In Min 
 FLOS.cptm                0.00:  Fluid Loss 
 FLOX.gpm              1200.00:  Flow In Max 
 HFLO.                      No:  High Flow 
 HPRE.                      No:  High Pressure 
 HTEM.                      No:  High Temp 
 HYDO.m                   1.80:  Hydro Offset 
 IFIN.deg                68.17:  Inc, Final 
 IMAX.deg                74.61:  Inc Max 
 IMIN.deg                68.15:  Inc Min 
 IMND.m                4317.87:  Inc Min Depth 
 IMXD.m                4714.01:  Inc Max Depth 
 LETM.      08.08.32 02-May-20:  Log End Time 
 LOST.hr                     2:  Lost Rig Time 
 LSTM.      08.08.32 28-Apr-20:  Log Start Time 
 MDCL.ppm             41000.00:  Mud Chlorides 
 MDES.     Inversion Oil/Synthetic:  Mud Desc 
 DFD .sg                  1.58:  Mud Density 
 MDMN.sg                  1.58:  Dens Mud Min 
 MDMX.sg                  1.58:  Dens Mud Max 
 MOIL.                      71:  Run Mud Oil % 
 MOWR.                   71:29:  Run Mud OWR 
 MSND.                     0.1:  Run Mud Sand % 
 MSOL.                      23:  Run Mud Solids% 
 DFV .spqt               82.00:  Mud Viscosity 
 MWOD.in                  8.00:  MWD Tool OD 
 MWSI.                     Yes:  Serv Intrp, MWD 
 OTIM.hr                125.00:  Time Operating 
 PMAX.psia             6129.00:  Press Op, Max 
 PV  .cP                 32.00:  Mud PV 
 RUN .                     800:  Run Number 
 ROPA.m/hr               30.00:  ROP Avg 
 ROPN.m/hr               10.00:  ROP Min 
 ROPX.m/hr               40.00:  ROP Max 
 RPMA.rpm               140.00:  RPM Surface Avg 
 RPMN.rpm                80.00:  RPM Surface Min 
 RPMX.rpm               140.00:  RPM Surface Max 
 RRUN.                    L503:  Rig Run Number 
 RTIM.hr                  2.00:  Time Reaming 
 SAZI.deg               184.23:  Azm, Start 
 SDEP.m                3410.01:  Start Depth 
 SIDD.                      No:  Serv Intrp, DD 
 SINC.deg                68.29:  Inc, Start 
 SPPA.psig             6000.00:  SPP Avg 
 SPPN.psig             4000.00:  SPP Min 
 SPPX.psig             6100.00:  SPP Max 
 STIM.      08.08.32 28-Apr-20:  Start Time 
 SVCS.                 DD, MWD:  Services 
 SVER.                    9.20:  Sperry Version 
 TDAT.m                1351.00:  Tot Depth Attmp 
 TDDF.                      No:  Trip for DD 
 TDLG.m                1351.00:  Tot Depth Loggd 
 TFF .                      No:  Trip for Fail 
 TQAA.f-kp               27.00:  Torque Abs Avg 
 TQAN.f-kp               20.00:  Torque Abs Min 
 TQAX.f-kp               30.00:  Torque Abs Max 
 TRRT.°/30m               0.60:  Turn Rotating 
 MRT .                    EWER:  Maximum Recorded Temperature 
 TTMX.degC               83.00:  Max Tool Temp 
 VS01.                90511138:  Virtual Str1 SN 
 VS02.                90524876:  Virtual Str2 SN 
 VS03.                90524872:  Virtual Str3 SN 
 VS04.                90502750:  Virtual Str4 SN 
 VS05.                12330984:  Virtual Str5 SN 
 WBMN.klb                 0.00:  WOB Min 
 WOBA.klb                15.00:  WOB Avg 
 WOBX.klb                20.00:  WOB Max 
 YP  .lhf2               31.00:  Yield Point 
~Curve Information Block
#MNEM.UNIT                 API CODE     Curve Description
#---------               -----------    ---------------------------
 TIME.HHMMSS            00 000 000 000:  GT Time & Date
 GTDEPTH.m              00 000 000 000:  GT Depth
 GTPQH.psia             00 000 000 000:  GT HR Quartz Pressure
 GTTQ.degC              00 000 000 000:  GT Quartz Temperature
 GTTN.NONE              00 000 000 000:  GT Test Number
 GTET.sec               00 000 000 000:  GT Elapsed Test Time
 GTTVD.m                00 000 000 000:  GT True Vertical Depth
#Other Information
#
#WARRANTY: Halliburton will use its best efforts to furnish customers with 
#accurate information and interpretations that are part of, and incident to, the services 
#provided.  However, Halliburton cannot and does not warrant the accuracy 
#or correctness of such information and interpretations.  Under no circumstances should any 
#such information or interpretation be relied upon as the sole basis for any drilling, 
#completion, production, or financial decision or any procedure involving any risk to the 
#safety of any drilling venture, drilling rig or its crew or any other third party.  The 
#Customer has full responsibility for all drilling, completion and production operation.  
#Halliburton makes no representations or warranties, either expressed or 
#implied, including, but not limited to, the implied warranties of merchantability or fitness 
#for a particular purpose, with respect to the services rendered.  In no event will 
#Halliburton be liable for failure to obtain any particular results or for 
#any damages, including, but not limited to, indirect, special or consequential damages, 
#resulting from the use of any information or interpretation provided by Halliburton.
#
~A           TIME           GTDEPTH  GTPQH  GTTQ  GTTN  GTET   GTTVD  
# ...
   19:42:42.513.03-May-2020 4608.48 4148.61 79.51 3.00 253.03 2489.14
   19:42:42.713.03-May-2020 4608.48 4148.61 79.51 3.00 253.23 2489.14
   19:42:42.913.03-May-2020 4608.48 4148.60 79.51 3.00 253.43 2489.14
   19:42:43.113.03-May-2020 4608.48 4148.56 79.51 3.00 253.63 2489.14
   19:42:43.313.03-May-2020 4608.48 4148.94 79.51 3.00 253.83 2489.14
   19:42:43.513.03-May-2020 4608.48 4148.22 79.51 3.00 254.03 2489.14
   19:42:43.713.03-May-2020 4608.48 4148.22 79.51 3.00 254.23 2489.14
   19:42:43.913.03-May-2020 4608.48 4148.31 79.51 3.00 254.43 2489.14
   19:42:44.113.03-May-2020 4608.48 4149.00 79.51 3.00 254.63 2489.14
   19:42:44.313.03-May-2020 4608.48 4148.76 79.51 3.00 254.83 2489.14
   19:42:44.513.03-May-2020 4608.48 4149.00 79.50 3.00 255.03 2489.14
   19:42:44.713.03-May-2020 4608.48 4149.00 79.50 3.00 255.23 2489.14
   19:42:44.913.03-May-2020 4608.48 4148.11 79.50 3.00 255.43 2489.14
   19:42:45.113.03-May-2020 4608.48 4148.65 79.50 3.00 255.63 2489.14
   19:42:45.313.03-May-2020 4608.48 4148.66 79.50 3.00 255.83 2489.14
   19:42:45.513.03-May-2020 4608.48 4148.85 79.50 3.00 256.03 2489.14
   19:42:45.713.03-May-2020 4608.48 4148.85 79.50 3.00 256.23 2489.14
   19:42:45.913.03-May-2020 4608.48 4148.51 79.50 3.00 256.43 2489.14
   19:42:46.113.03-May-2020 4608.48 4148.62 79.50 3.00 256.63 2489.14
   19:42:46.313.03-May-2020 4608.48 4148.42 79.50 3.00 256.83 2489.14
   19:42:46.513.03-May-2020 4608.48 4148.85 79.50 3.00 257.03 2489.14
   19:42:46.713.03-May-2020 4608.48 4148.85 79.50 3.00 257.23 2489.14
   19:42:46.914.03-May-2020 4608.48 4148.69 79.49 3.00 257.43 2489.14
   19:42:47.114.03-May-2020 4608.48 4148.60 79.49 3.00 257.63 2489.14
   19:42:47.314.03-May-2020 4608.48 4148.53 79.49 3.00 257.83 2489.14
   19:42:47.514.03-May-2020 4608.48 4148.64 79.49 3.00 258.03 2489.14
   19:42:47.714.03-May-2020 4608.48 4148.67 79.49 3.00 258.23 2489.14
   19:42:47.914.03-May-2020 4608.48 4148.68 79.49 3.00 258.43 2489.14
   19:42:48.114.03-May-2020 4608.48 4148.63 79.49 3.00 258.63 2489.14
   19:42:48.314.03-May-2020 4608.48 4148.58 79.49 3.00 258.83 2489.14
   19:42:48.514.03-May-2020 4608.48 4148.53 79.49 3.00 259.03 2489.14
   19:42:48.714.03-May-2020 4608.48 4148.53 79.49 3.00 259.23 2489.14
   19:42:48.914.03-May-2020 4608.48 4148.61 79.49 3.00 259.43 2489.14
   19:42:49.114.03-May-2020 4608.48 4148.96 79.49 3.00 259.63 2489.14
   19:42:49.314.03-May-2020 4608.48 4145.50 79.48 3.00 259.83 2489.14
   19:42:49.514.03-May-2020 4608.48 4114.71 79.48 3.00 260.03 2489.14
   19:42:49.714.03-May-2020 4608.48 4114.71 79.48 3.00 260.23 2489.14
   19:42:49.914.03-May-2020 4608.48 4114.25 79.48 3.00 260.43 2489.14
   19:42:50.114.03-May-2020 4608.48 4113.94 79.48 3.00 260.63 2489.14
   19:42:50.314.03-May-2020 4608.48 4113.92 79.48 3.00 260.83 2489.14
   19:42:50.514.03-May-2020 4608.48 4113.83 79.48 3.00 261.03 2489.14
   19:42:50.714.03-May-2020 4608.48 4113.83 79.48 3.00 261.23 2489.14
   19:42:50.914.03-May-2020 4608.48 4114.01 79.48 3.00 261.43 2489.14
   19:42:51.114.03-May-2020 4608.48 4114.10 79.48 3.00 261.63 2489.14
   19:42:51.314.03-May-2020 4608.48 4113.91 79.48 3.00 261.83 2489.14
   19:42:51.514.03-May-2020 4608.48 4114.30 79.48 3.00 262.03 2489.14
   19:42:51.714.03-May-2020 4608.48 4113.91 79.47 3.00 262.23 2489.14
   19:42:51.914.03-May-2020 4608.48 4114.06 79.47 3.00 262.43 2489.14
   19:42:52.114.03-May-2020 4608.48 4115.03 79.47 3.00 262.63 2489.14
   19:42:52.314.03-May-2020 4608.48 4113.28 79.47 3.00 262.83 2489.14
   19:42:52.514.03-May-2020 4608.48 4114.50 79.47 3.00 263.03 2489.14
   19:42:52.714.03-May-2020 4608.48 4114.50 79.47 3.00 263.23 2489.14
   19:42:52.914.03-May-2020 4608.48 4114.39 79.47 3.00 263.43 2489.14
   19:42:53.114.03-May-2020 4608.48 4113.91 79.47 3.00 263.63 2489.14
   19:42:53.314.03-May-2020 4608.48 4114.58 79.47 3.00 263.83 2489.14
   19:42:53.514.03-May-2020 4608.48 4114.29 79.47 3.00 264.03 2489.14
   19:42:53.714.03-May-2020 4608.48 4114.29 79.47 3.00 264.23 2489.14
   19:42:53.914.03-May-2020 4608.48 4114.92 79.46 3.00 264.43 2489.14
   19:42:54.114.03-May-2020 4608.48 4114.92 79.46 3.00 264.63 2489.14
   19:42:54.314.03-May-2020 4608.48 4114.57 79.46 3.00 264.83 2489.14
   19:42:54.514.03-May-2020 4608.48 4114.99 79.46 3.00 265.03 2489.14
   19:42:54.714.03-May-2020 4608.48 4114.99 79.46 3.00 265.23 2489.14
   19:42:54.914.03-May-2020 4608.48 4115.22 79.46 3.00 265.43 2489.14
   19:42:55.114.03-May-2020 4608.48 4115.21 79.46 3.00 265.63 2489.14
   19:42:55.314.03-May-2020 4608.48 4115.03 79.46 3.00 265.83 2489.14
   19:42:55.514.03-May-2020 4608.48 4114.57 79.46 3.00 266.03 2489.14
   19:42:55.714.03-May-2020 4608.48 4114.94 79.46 3.00 266.23 2489.14
   19:42:55.914.03-May-2020 4608.48 4114.82 79.46 3.00 266.43 2489.14
   19:42:56.114.03-May-2020 4608.48 4114.60 79.46 3.00 266.63 2489.14
   19:42:56.315.03-May-2020 4608.48 4114.71 79.45 3.00 266.83 2489.14
   19:42:56.515.03-May-2020 4608.48 4114.85 79.45 3.00 267.03 2489.14
   19:42:56.715.03-May-2020 4608.48 4114.85 79.45 3.00 267.23 2489.14
   19:42:56.915.03-May-2020 4608.48 4114.89 79.45 3.00 267.43 2489.14
   19:42:57.115.03-May-2020 4608.48 4115.02 79.45 3.00 267.63 2489.14
   19:42:57.315.03-May-2020 4608.48 4114.87 79.45 3.00 267.83 2489.14
   19:42:57.515.03-May-2020 4608.48 4114.50 79.45 3.00 268.03 2489.14
   19:42:57.715.03-May-2020 4608.48 4114.50 79.45 3.00 268.23 2489.14
   19:42:57.915.03-May-2020 4608.48 4134.17 79.45 3.00 268.43 2489.14
   19:42:58.115.03-May-2020 4608.48 4147.66 79.45 3.00 268.63 2489.14
   19:42:58.315.03-May-2020 4608.48 4147.98 79.45 3.00 268.83 2489.14
   19:42:58.515.03-May-2020 4608.48 4148.06 79.45 3.00 269.03 2489.14
   19:42:58.715.03-May-2020 4608.48 4148.06 79.45 3.00 269.23 2489.14
   19:42:58.915.03-May-2020 4608.48 4148.07 79.44 3.00 269.43 2489.14
   19:42:59.115.03-May-2020 4608.48 4148.08 79.44 3.00 269.63 2489.14
   19:42:59.315.03-May-2020 4608.48 4148.17 79.44 3.00 269.83 2489.14
   19:42:59.515.03-May-2020 4608.48 4148.20 79.44 3.00 270.03 2489.14
   19:42:59.715.03-May-2020 4608.48 4148.23 79.44 3.00 270.23 2489.14
   19:42:59.915.03-May-2020 4608.48 4148.02 79.44 3.00 270.43 2489.14
   19:43:00.115.03-May-2020 4608.48 4148.42 79.44 3.00 270.63 2489.14
   19:43:00.315.03-May-2020 4608.48 4148.40 79.44 3.00 270.83 2489.14
   19:43:00.515.03-May-2020 4608.48 4148.43 79.44 3.00 271.03 2489.14
   19:43:00.715.03-May-2020 4608.48 4148.28 79.44 3.00 271.23 2489.14
   19:43:00.915.03-May-2020 4608.48 4148.68 79.44 3.00 271.43 2489.14
   19:43:01.115.03-May-2020 4608.48 4147.95 79.43 3.00 271.63 2489.14
   19:43:01.315.03-May-2020 4608.48 4148.60 79.43 3.00 271.83 2489.14
   19:43:01.515.03-May-2020 4608.48 4148.49 79.43 3.00 272.03 2489.14
   19:43:01.715.03-May-2020 4608.48 4148.49 79.43 3.00 272.23 2489.14
   19:43:01.915.03-May-2020 4608.48 4148.64 79.43 3.00 272.43 2489.14
   19:43:02.115.03-May-2020 4608.48 4148.63 79.43 3.00 272.63 2489.14
   19:43:02.315.03-May-2020 4608.48 4148.55 79.43 3.00 272.83 2489.14
   19:43:02.515.03-May-2020 4608.48 4148.48 79.43 3.00 273.03 2489.14
   19:43:02.715.03-May-2020 4608.48 4148.10 79.43 3.00 273.23 2489.14
   19:43:02.915.03-May-2020 4608.48 4148.60 79.43 3.00 273.43 2489.14
   19:43:03.115.03-May-2020 4608.48 4148.70 79.43 3.00 273.63 2489.14
   19:43:03.315.03-May-2020 4608.48 4148.67 79.43 3.00 273.83 2489.14
   19:43:03.515.03-May-2020 4608.48 4148.52 79.42 3.00 274.03 2489.14
   19:43:03.715.03-May-2020 4608.48 4148.52 79.42 3.00 274.23 2489.14
   19:43:03.915.03-May-2020 4608.48 4148.50 79.42 3.00 274.43 2489.14
   19:43:04.115.03-May-2020 4608.48 4148.51 79.42 3.00 274.63 2489.14
   19:43:04.315.03-May-2020 4608.48 4148.59 79.42 3.00 274.83 2489.14
   19:43:04.515.03-May-2020 4608.48 4148.51 79.42 3.00 275.03 2489.14
   19:43:04.715.03-May-2020 4608.48 4148.51 79.42 3.00 275.23 2489.14
   19:43:04.915.03-May-2020 4608.48 4148.44 79.42 3.00 275.43 2489.14
   19:43:05.115.03-May-2020 4608.48 4148.47 79.42 3.00 275.63 2489.14
   19:43:05.315.03-May-2020 4608.48 4148.50 79.42 3.00 275.83 2489.14
