~Version Information
 VERS.                  2.0:   CWLS log ASCII Standard -VERSION 2.0
 WRAP.                   NO:   One line per depth step
~Well Information Block
#MNEM.UNIT     VALUE/NAME     DESCRIPTION
#---------     -----------    ---------------------------
 STRT.S             01:13:00 04-May-20: START TIME 01:13:00 04-May-20
 STOP.S             01:19:30 04-May-20: STOP TIME  01:19:30 04-May-20
 STEP.S                   0.00: STEP TIME
 NULL.                 -999.25: NULL VALUE
 DFWT.                        :  DIST FWL TEXT
 DFST.                        :  DIST FSL TEXT
 DMF .             Drill Floor:  DRILL MEAS FROM
 STIM.      03.00.00 25-Mar-20:  START TIME
 DATE.      00.00.00 19-May-20:  END TIME
 SPUD.               27-Aug-20:  SPUD DATE
 NREF.                    Grid:  NORTH REFERENCE
 HPTY.       Minimum Curvature:  HOLE POS TYPE
 DMOD.             Drill Model:  DRILL MOD DESC
 SVYD.                  Survey:  SURVEY DESC
 ILTD.               Lithology:  INTERP LTH DESC
 FTOP.          Formation Tops:  FORM TOPS DESC
 SON .        AZ-XX-0906252240:  JOB NUMBER
 RIG .             West Chirag:  RIG NAME
 PDAT.          Mean Sea Level:  PERMANENT DATUM
 FLD .                     ACG:  FIELD NAME
 CTRY.              Azerbaijan:  COUNTRY NAME
 WELL.                     J23:  WELL NAME
 SRVC.          Turan Drilling:  CONTRACTOR
 COMP.     BP Exploration (Caspian Sea) Ltd.:  COMPANY
 WTYP.                Deviated:  WELL TYPE
 MDS .        Operator Entered:  MAG DATA SOURCE
 UWI .                     N/A:  UNIQUE WELL IDENTIFIER
 API .                     N/A:  API NUMBER
 BASE.              Azerbaijan:  LOGGING EQUIPMENT BASE LOCATION
 REGN.                   EESSA:  REGION
 PROV.                    Baku:  PROVINCE
 STAT.                    Baku:  STATE NAME
 MWDS.                     N/A:  MWD SHOP
 JOBN.        AZ-XX-0906252240:  JOB TICKET NUMB
 DOE .                     N/A:  DOE NUMBER
 DCON.         Sperry Drilling:  DIRECTNL CONTR
 UNIT.                     N/A:  LOGGING EQUIPMENT ID
 CNTY.                        :  COUNTY
 LOC .                        :  LOCATION
 LMF .             Drill Floor:  LOG MEASURED FROM
 TVDS.m                  43.00:  TVDSS CORRECTN
 LATI.deg                40.13:  LATITUDE
 LONG.deg                51.22:  LONGITUDE
 WHNS.m                   9.43:  WELL HEAD N/S
 WHEW.m                  -8.91:  WELL HEAD E/W
 UTMX.m              519005.06:  UTM X
 UTMY.m             4443793.85:  UTM Y
 DFWL.m                   0.00:  DISTANCE FWL
 DFSL.m                   0.00:  DISTANCE FSL
 SDEP.m                 363.00:  START DEPTH
 TDD .m                5150.01:  TOTAL DEPTH (DRILLER)
 VSDR.deg               179.88:  VERT SEC DIRECT
 GVFD.g                   1.00:  GRAVITY FIELD
 MFLD.nT              50295.00:  MAGNETIC FIELD
 MDIP.deg                59.56:  MAGNETIC DIP
 MDEC.deg                 6.45:  MAGNETIC DECL
 GRDC.deg                 0.14:  GRID CORRECTION
 AZTC.deg                 6.31:  AZM TOTAL CORR
 EPD .m                   0.00:  ELEVATION
 EGL .m                   0.00:  GROUND ELEVATION
 WDMS.m                 169.80:  WD ELEV
 APD .m                  43.00:  DEPTH ABOVE PD
 DEP .m                 354.17:  DEPTH
 AGAP.m                  43.00:  AIR GAP
 VSEW.m                  -8.91:  VERT SEC E/W
 VSNS.m                   9.43:  VERT SEC N/S
 EKB .m                   0.00:  KB ELEVATION
 EDF .m                  43.00:  DF ELEVATION
 TDL .m                1351.00:  TOTAL DEPTH (LOGGER)
 VSC .                       0:  VS TO CLOSURE
 MAGU.                 1850802:  MAGUTM CHECKSUM
~Parameter Information Block
#MNEM.UNIT       Value        Description
#---------     -----------    ---------------------------
 AV  .mps                 1.00:  Ann Velocity 
 AVMX.mps                 2.40:  Max Ann Veloc 
 AZIF.deg               148.96:  Azm, Final 
 BHAT.        Rotary Steerable:  BHA Type 
 BROT.°/30m               0.04:  Build Rotating 
 BS  .in                 12.25:  Bit Size 
 BSZ .in                 12.25:  Bit Size 
 BTPL.psig              814.00:  Bit Press Loss 
 TCS .hr                106.00:  Time Ciculation Ended 
 CV  .mps                 2.47:  Crit Velocity 
 CVMX.mps                 2.64:  Max Crit Veloc 
 DD1 .          Rashad Habibov:  Direct Drillr 1 
 DD2 .         Rasim Ibrahimov:  Direct Drillr 2 
 DDSV.                 iCruise:  DD Service 
 DEFF.%                 100.00:  % Det Eff 
 DLRX.°/30m               0.70:  Dogleg Rot Max 
 DLSO.°/30m               3.00:  Dogleg Oriented 
 DLSX.°/30m               4.55:  Dogleg Str Max 
 DRET.      08.08.32 02-May-20:  Drill End Time 
 DRST.      08.08.32 28-Apr-20:  Drill Start Tim 
 DTIM.hr                 60.00:  Time Drilling 
 EDEP.m                4761.01:  End Depth 
 ENG1.           Eldar Hajiyev:  Engineer 1 
 ENG2.        Marcelo Sandoval:  Engineer 2 
 ETIM.      23.23.07 05-May-20:  End Time 
 FLOI.gpm              1200.00:  Flow In 
 FLON.gpm               900.00:  Flow In Min 
 FLOS.cptm                0.00:  Fluid Loss 
 FLOX.gpm              1200.00:  Flow In Max 
 HFLO.                      No:  High Flow 
 HPRE.                      No:  High Pressure 
 HTEM.                      No:  High Temp 
 HYDO.m                   1.80:  Hydro Offset 
 IFIN.deg                68.17:  Inc, Final 
 IMAX.deg                74.61:  Inc Max 
 IMIN.deg                68.15:  Inc Min 
 IMND.m                4317.87:  Inc Min Depth 
 IMXD.m                4714.01:  Inc Max Depth 
 LETM.      08.08.32 02-May-20:  Log End Time 
 LOST.hr                     2:  Lost Rig Time 
 LSTM.      08.08.32 28-Apr-20:  Log Start Time 
 MDCL.ppm             41000.00:  Mud Chlorides 
 MDES.     Inversion Oil/Synthetic:  Mud Desc 
 DFD .sg                  1.58:  Mud Density 
 MDMN.sg                  1.58:  Dens Mud Min 
 MDMX.sg                  1.58:  Dens Mud Max 
 MOIL.                      71:  Run Mud Oil % 
 MOWR.                   71:29:  Run Mud OWR 
 MSND.                     0.1:  Run Mud Sand % 
 MSOL.                      23:  Run Mud Solids% 
 DFV .spqt               82.00:  Mud Viscosity 
 MWOD.in                  8.00:  MWD Tool OD 
 MWSI.                     Yes:  Serv Intrp, MWD 
 OTIM.hr                125.00:  Time Operating 
 PMAX.psia             6129.00:  Press Op, Max 
 PV  .cP                 32.00:  Mud PV 
 RUN .                     800:  Run Number 
 ROPA.m/hr               30.00:  ROP Avg 
 ROPN.m/hr               10.00:  ROP Min 
 ROPX.m/hr               40.00:  ROP Max 
 RPMA.rpm               140.00:  RPM Surface Avg 
 RPMN.rpm                80.00:  RPM Surface Min 
 RPMX.rpm               140.00:  RPM Surface Max 
 RRUN.                    L503:  Rig Run Number 
 RTIM.hr                  2.00:  Time Reaming 
 SAZI.deg               184.23:  Azm, Start 
 SDEP.m                3410.01:  Start Depth 
 SIDD.                      No:  Serv Intrp, DD 
 SINC.deg                68.29:  Inc, Start 
 SPPA.psig             6000.00:  SPP Avg 
 SPPN.psig             4000.00:  SPP Min 
 SPPX.psig             6100.00:  SPP Max 
 STIM.      08.08.32 28-Apr-20:  Start Time 
 SVCS.                 DD, MWD:  Services 
 SVER.                    9.20:  Sperry Version 
 TDAT.m                1351.00:  Tot Depth Attmp 
 TDDF.                      No:  Trip for DD 
 TDLG.m                1351.00:  Tot Depth Loggd 
 TFF .                      No:  Trip for Fail 
 TQAA.f-kp               27.00:  Torque Abs Avg 
 TQAN.f-kp               20.00:  Torque Abs Min 
 TQAX.f-kp               30.00:  Torque Abs Max 
 TRRT.°/30m               0.60:  Turn Rotating 
 MRT .                    EWER:  Maximum Recorded Temperature 
 TTMX.degC               83.00:  Max Tool Temp 
 VS01.                90511138:  Virtual Str1 SN 
 VS02.                90524876:  Virtual Str2 SN 
 VS03.                90524872:  Virtual Str3 SN 
 VS04.                90502750:  Virtual Str4 SN 
 VS05.                12330984:  Virtual Str5 SN 
 WBMN.klb                 0.00:  WOB Min 
 WOBA.klb                15.00:  WOB Avg 
 WOBX.klb                20.00:  WOB Max 
 YP  .lhf2               31.00:  Yield Point 
~Curve Information Block
#MNEM.UNIT                 API CODE     Curve Description
#---------               -----------    ---------------------------
 TIME.HHMMSS            00 000 000 000:  GT Time & Date
 GTDEPTH.m              00 000 000 000:  GT Depth
 GTPQH.psia             00 000 000 000:  GT HR Quartz Pressure
 GTTQ.degC              00 000 000 000:  GT Quartz Temperature
 GTTN.NONE              00 000 000 000:  GT Test Number
 GTET.sec               00 000 000 000:  GT Elapsed Test Time
 GTTVD.m                00 000 000 000:  GT True Vertical Depth
#Other Information
#
#WARRANTY: Halliburton will use its best efforts to furnish customers with 
#accurate information and interpretations that are part of, and incident to, the services 
#provided.  However, Halliburton cannot and does not warrant the accuracy 
#or correctness of such information and interpretations.  Under no circumstances should any 
#such information or interpretation be relied upon as the sole basis for any drilling, 
#completion, production, or financial decision or any procedure involving any risk to the 
#safety of any drilling venture, drilling rig or its crew or any other third party.  The 
#Customer has full responsibility for all drilling, completion and production operation.  
#Halliburton makes no representations or warranties, either expressed or 
#implied, including, but not limited to, the implied warranties of merchantability or fitness 
#for a particular purpose, with respect to the services rendered.  In no event will 
#Halliburton be liable for failure to obtain any particular results or for 
#any damages, including, but not limited to, indirect, special or consequential damages, 
#resulting from the use of any information or interpretation provided by Halliburton.
#
~A           TIME           GTDEPTH  GTPQH  GTTQ  GTTN  GTET   GTTVD  
# ...
   01:18:45.561.04-May-2020 4660.50   51.53 75.70 5.00 345.03 2503.99
   01:18:45.761.04-May-2020 4660.50   51.55 75.70 5.00 345.23 2503.99
   01:18:45.961.04-May-2020 4660.50   51.56 75.70 5.00 345.43 2503.99
   01:18:46.161.04-May-2020 4660.50   51.58 75.70 5.00 345.63 2503.99
   01:18:46.361.04-May-2020 4660.50   51.60 75.70 5.00 345.83 2503.99
   01:18:46.561.04-May-2020 4660.50   51.61 75.70 5.00 346.03 2503.99
   01:18:46.761.04-May-2020 4660.50   51.61 75.70 5.00 346.23 2503.99
   01:18:46.961.04-May-2020 4660.50   51.70 75.70 5.00 346.43 2503.99
   01:18:47.161.04-May-2020 4660.50   51.69 75.70 5.00 346.63 2503.99
   01:18:47.361.04-May-2020 4660.50   51.70 75.70 5.00 346.83 2503.99
   01:18:47.561.04-May-2020 4660.50   51.71 75.69 5.00 347.03 2503.99
   01:18:47.761.04-May-2020 4660.50   51.71 75.69 5.00 347.23 2503.99
   01:18:47.961.04-May-2020 4660.50   51.73 75.69 5.00 347.43 2503.99
   01:18:48.161.04-May-2020 4660.50   51.74 75.69 5.00 347.63 2503.99
   01:18:48.361.04-May-2020 4660.50   51.75 75.69 5.00 347.83 2503.99
   01:18:48.561.04-May-2020 4660.50   51.77 75.69 5.00 348.03 2503.99
   01:18:48.761.04-May-2020 4660.50   51.77 75.69 5.00 348.23 2503.99
   01:18:48.961.04-May-2020 4660.50   51.80 75.69 5.00 348.43 2503.99
   01:18:49.161.04-May-2020 4660.50   51.81 75.69 5.00 348.63 2503.99
   01:18:49.361.04-May-2020 4660.50   51.86 75.69 5.00 348.83 2503.99
   01:18:49.561.04-May-2020 4660.50   51.87 75.69 5.00 349.03 2503.99
   01:18:49.761.04-May-2020 4660.50   51.87 75.69 5.00 349.23 2503.99
   01:18:49.961.04-May-2020 4660.50   51.91 75.69 5.00 349.43 2503.99
   01:18:50.161.04-May-2020 4660.50   51.91 75.69 5.00 349.63 2503.99
   01:18:50.361.04-May-2020 4660.50   51.92 75.69 5.00 349.83 2503.99
   01:18:50.561.04-May-2020 4660.50   51.96 75.69 5.00 350.03 2503.99
   01:18:50.761.04-May-2020 4660.50   51.98 75.69 5.00 350.23 2503.99
   01:18:50.961.04-May-2020 4660.50   51.99 75.69 5.00 350.43 2503.99
   01:18:51.161.04-May-2020 4660.50   52.01 75.69 5.00 350.63 2503.99
   01:18:51.361.04-May-2020 4660.50   52.07 75.69 5.00 350.83 2503.99
   01:18:51.561.04-May-2020 4660.50   52.09 75.69 5.00 351.03 2503.99
   01:18:51.761.04-May-2020 4660.50   52.09 75.69 5.00 351.23 2503.99
   01:18:51.961.04-May-2020 4660.50   52.12 75.69 5.00 351.43 2503.99
   01:18:52.161.04-May-2020 4660.50   52.12 75.69 5.00 351.63 2503.99
   01:18:52.361.04-May-2020 4660.50   52.20 75.68 5.00 351.83 2503.99
   01:18:52.561.04-May-2020 4660.50   52.21 75.68 5.00 352.03 2503.99
   01:18:52.761.04-May-2020 4660.50   52.21 75.68 5.00 352.23 2503.99
   01:18:52.961.04-May-2020 4660.50   52.23 75.68 5.00 352.43 2503.99
   01:18:53.161.04-May-2020 4660.50   52.26 75.68 5.00 352.63 2503.99
   01:18:53.361.04-May-2020 4660.50   52.27 75.68 5.00 352.83 2503.99
   01:18:53.561.04-May-2020 4660.50   52.29 75.68 5.00 353.03 2503.99
   01:18:53.761.04-May-2020 4660.50   52.29 75.68 5.00 353.23 2503.99
   01:18:53.961.04-May-2020 4660.50   52.33 75.68 5.00 353.43 2503.99
   01:18:54.161.04-May-2020 4660.50   52.35 75.68 5.00 353.63 2503.99
   01:18:54.361.04-May-2020 4660.50   52.37 75.68 5.00 353.83 2503.99
   01:18:54.561.04-May-2020 4660.50   52.39 75.68 5.00 354.03 2503.99
   01:18:54.761.04-May-2020 4660.50   52.39 75.68 5.00 354.23 2503.99
   01:18:54.961.04-May-2020 4660.50   52.43 75.68 5.00 354.43 2503.99
   01:18:55.161.04-May-2020 4660.50   52.50 75.68 5.00 354.63 2503.99
   01:18:55.361.04-May-2020 4660.50   52.49 75.68 5.00 354.83 2503.99
   01:18:55.561.04-May-2020 4660.50   52.51 75.68 5.00 355.03 2503.99
   01:18:55.761.04-May-2020 4660.50   52.51 75.68 5.00 355.23 2503.99
   01:18:55.961.04-May-2020 4660.50   52.53 75.68 5.00 355.43 2503.99
   01:18:56.161.04-May-2020 4660.50   52.55 75.68 5.00 355.63 2503.99
   01:18:56.361.04-May-2020 4660.50   52.56 75.68 5.00 355.83 2503.99
   01:18:56.562.04-May-2020 4660.50   52.57 75.68 5.00 356.03 2503.99
   01:18:56.762.04-May-2020 4660.50   52.57 75.68 5.00 356.23 2503.99
   01:18:56.962.04-May-2020 4660.50   52.61 75.68 5.00 356.43 2503.99
   01:18:57.162.04-May-2020 4660.50   52.63 75.67 5.00 356.63 2503.99
   01:18:57.362.04-May-2020 4660.50   52.64 75.67 5.00 356.83 2503.99
   01:18:57.562.04-May-2020 4660.50   52.71 75.67 5.00 357.03 2503.99
   01:18:57.762.04-May-2020 4660.50   52.71 75.67 5.00 357.23 2503.99
   01:18:57.962.04-May-2020 4660.50   52.73 75.67 5.00 357.43 2503.99
   01:18:58.162.04-May-2020 4660.50   52.76 75.67 5.00 357.63 2503.99
   01:18:58.362.04-May-2020 4660.50   52.76 75.67 5.00 357.83 2503.99
   01:18:58.562.04-May-2020 4660.50   52.77 75.67 5.00 358.03 2503.99
   01:18:58.762.04-May-2020 4660.50   52.80 75.67 5.00 358.23 2503.99
   01:18:58.962.04-May-2020 4660.50   52.81 75.67 5.00 358.43 2503.99
   01:18:59.162.04-May-2020 4660.50   52.82 75.67 5.00 358.63 2503.99
   01:18:59.362.04-May-2020 4660.50   52.83 75.67 5.00 358.83 2503.99
   01:18:59.562.04-May-2020 4660.50   52.71 75.67 5.00 359.03 2503.99
   01:18:59.762.04-May-2020 4660.50   52.87 75.67 5.00 359.23 2503.99
   01:18:59.962.04-May-2020 4660.50   52.87 75.67 5.00 359.43 2503.99
   01:19:00.162.04-May-2020 4660.50   52.87 75.67 5.00 359.63 2503.99
   01:19:00.362.04-May-2020 4660.50   52.91 75.67 5.00 359.83 2503.99
   01:19:00.562.04-May-2020 4660.50   52.98 75.67 5.00 360.03 2503.99
   01:19:00.762.04-May-2020 4660.50   52.99 75.67 5.00 360.23 2503.99
   01:19:00.962.04-May-2020 4660.50   52.99 75.67 5.00 360.43 2503.99
   01:19:01.162.04-May-2020 4660.50   53.00 75.67 5.00 360.63 2503.99
   01:19:01.362.04-May-2020 4660.50   53.02 75.67 5.00 360.83 2503.99
   01:19:01.562.04-May-2020 4660.50   53.03 75.67 5.00 361.03 2503.99
   01:19:01.762.04-May-2020 4660.50   53.03 75.67 5.00 361.23 2503.99
   01:19:01.962.04-May-2020 4660.50   53.08 75.66 5.00 361.43 2503.99
   01:19:02.162.04-May-2020 4660.50   53.10 75.66 5.00 361.63 2503.99
   01:19:02.362.04-May-2020 4660.50   53.12 75.66 5.00 361.83 2503.99
   01:19:02.562.04-May-2020 4660.50   53.14 75.66 5.00 362.03 2503.99
   01:19:02.762.04-May-2020 4660.50   53.14 75.66 5.00 362.23 2503.99
   01:19:02.962.04-May-2020 4660.50   59.50 75.66 5.00 362.43 2503.99
   01:19:03.162.04-May-2020 4660.50   78.13 75.66 5.00 362.63 2503.99
   01:19:03.362.04-May-2020 4660.50  113.59 75.66 5.00 362.83 2503.99
   01:19:03.562.04-May-2020 4660.50  206.55 75.66 5.00 363.03 2503.99
   01:19:03.762.04-May-2020 4660.50  248.91 75.66 5.00 363.23 2503.99
   01:19:03.962.04-May-2020 4660.50 4078.11 75.66 5.00 363.43 2503.99
   01:19:04.162.04-May-2020 4660.50 5570.53 75.66 5.00 363.63 2503.99
   01:19:04.362.04-May-2020 4660.50 5286.12 75.66 5.00 363.83 2503.99
   01:19:04.562.04-May-2020 4660.50 5257.26 75.66 5.00 364.03 2503.99
   01:19:04.762.04-May-2020 4660.50 5337.93 75.66 5.00 364.23 2503.99
   01:19:04.962.04-May-2020 4660.50 5329.57 75.67 5.00 364.43 2503.99
   01:19:05.162.04-May-2020 4660.50 5316.52 75.67 5.00 364.63 2503.99
   01:19:05.362.04-May-2020 4660.50 5308.54 75.67 5.00 364.83 2503.99
   01:19:05.562.04-May-2020 4660.50 5306.66 75.67 5.00 365.03 2503.99
   01:19:05.762.04-May-2020 4660.50 5306.66 75.67 5.00 365.23 2503.99
   01:19:05.962.04-May-2020 4660.50 5277.73 75.68 5.00 365.43 2503.99
   01:19:06.162.04-May-2020 4660.50 5269.18 75.68 5.00 365.63 2503.99
   01:19:06.362.04-May-2020 4660.50 5264.02 75.69 5.00 365.83 2503.99
   01:19:06.562.04-May-2020 4660.50 5263.21 75.69 5.00 366.03 2503.99
   01:19:06.762.04-May-2020 4660.50 5263.21 75.69 5.00 366.23 2503.99
   01:19:06.962.04-May-2020 4660.50 5243.89 75.70 5.00 366.43 2503.99
   01:19:07.162.04-May-2020 4660.50 5609.97 75.70 5.00 366.63 2503.99
   01:19:07.362.04-May-2020 4660.50 5804.28 75.71 5.00 366.83 2503.99
   01:19:07.563.04-May-2020 4660.50 5810.79 75.71 5.00 367.03 2503.99
   01:19:07.763.04-May-2020 4660.50 5810.79 75.71 5.00 367.23 2503.99
   01:19:07.963.04-May-2020 4660.50 5801.73 75.71 5.00 367.43 2503.99
   01:19:08.163.04-May-2020 4660.50 5802.96 75.72 5.00 367.63 2503.99
   01:19:08.363.04-May-2020 4660.50 5803.25 75.72 5.00 367.83 2503.99
