~Version Information
 VERS.                  2.0:   CWLS log ASCII Standard -VERSION 2.0
 WRAP.                   NO:   One line per depth step
~Well Information Block
#MNEM.UNIT     VALUE/NAME     DESCRIPTION
#---------     -----------    ---------------------------
 STRT.S             00:33:44 04-May-20: START TIME 00:33:44 04-May-20
 STOP.S             00:40:14 04-May-20: STOP TIME  00:40:14 04-May-20
 STEP.S                   0.00: STEP TIME
 NULL.                 -999.25: NULL VALUE
 DFWT.                        :  DIST FWL TEXT
 DFST.                        :  DIST FSL TEXT
 DMF .             Drill Floor:  DRILL MEAS FROM
 STIM.      03.00.00 25-Mar-20:  START TIME
 DATE.      00.00.00 19-May-20:  END TIME
 SPUD.               27-Aug-20:  SPUD DATE
 NREF.                    Grid:  NORTH REFERENCE
 HPTY.       Minimum Curvature:  HOLE POS TYPE
 DMOD.             Drill Model:  DRILL MOD DESC
 SVYD.                  Survey:  SURVEY DESC
 ILTD.               Lithology:  INTERP LTH DESC
 FTOP.          Formation Tops:  FORM TOPS DESC
 SON .        AZ-XX-0906252240:  JOB NUMBER
 RIG .             West Chirag:  RIG NAME
 PDAT.          Mean Sea Level:  PERMANENT DATUM
 FLD .                     ACG:  FIELD NAME
 CTRY.              Azerbaijan:  COUNTRY NAME
 WELL.                     J23:  WELL NAME
 SRVC.          Turan Drilling:  CONTRACTOR
 COMP.     BP Exploration (Caspian Sea) Ltd.:  COMPANY
 WTYP.                Deviated:  WELL TYPE
 MDS .        Operator Entered:  MAG DATA SOURCE
 UWI .                     N/A:  UNIQUE WELL IDENTIFIER
 API .                     N/A:  API NUMBER
 BASE.              Azerbaijan:  LOGGING EQUIPMENT BASE LOCATION
 REGN.                   EESSA:  REGION
 PROV.                    Baku:  PROVINCE
 STAT.                    Baku:  STATE NAME
 MWDS.                     N/A:  MWD SHOP
 JOBN.        AZ-XX-0906252240:  JOB TICKET NUMB
 DOE .                     N/A:  DOE NUMBER
 DCON.         Sperry Drilling:  DIRECTNL CONTR
 UNIT.                     N/A:  LOGGING EQUIPMENT ID
 CNTY.                        :  COUNTY
 LOC .                        :  LOCATION
 LMF .             Drill Floor:  LOG MEASURED FROM
 TVDS.m                  43.00:  TVDSS CORRECTN
 LATI.deg                40.13:  LATITUDE
 LONG.deg                51.22:  LONGITUDE
 WHNS.m                   9.43:  WELL HEAD N/S
 WHEW.m                  -8.91:  WELL HEAD E/W
 UTMX.m              519005.06:  UTM X
 UTMY.m             4443793.85:  UTM Y
 DFWL.m                   0.00:  DISTANCE FWL
 DFSL.m                   0.00:  DISTANCE FSL
 SDEP.m                 363.00:  START DEPTH
 TDD .m                5150.01:  TOTAL DEPTH (DRILLER)
 VSDR.deg               179.88:  VERT SEC DIRECT
 GVFD.g                   1.00:  GRAVITY FIELD
 MFLD.nT              50295.00:  MAGNETIC FIELD
 MDIP.deg                59.56:  MAGNETIC DIP
 MDEC.deg                 6.45:  MAGNETIC DECL
 GRDC.deg                 0.14:  GRID CORRECTION
 AZTC.deg                 6.31:  AZM TOTAL CORR
 EPD .m                   0.00:  ELEVATION
 EGL .m                   0.00:  GROUND ELEVATION
 WDMS.m                 169.80:  WD ELEV
 APD .m                  43.00:  DEPTH ABOVE PD
 DEP .m                 354.17:  DEPTH
 AGAP.m                  43.00:  AIR GAP
 VSEW.m                  -8.91:  VERT SEC E/W
 VSNS.m                   9.43:  VERT SEC N/S
 EKB .m                   0.00:  KB ELEVATION
 EDF .m                  43.00:  DF ELEVATION
 TDL .m                1351.00:  TOTAL DEPTH (LOGGER)
 VSC .                       0:  VS TO CLOSURE
 MAGU.                 1850802:  MAGUTM CHECKSUM
~Parameter Information Block
#MNEM.UNIT       Value        Description
#---------     -----------    ---------------------------
 AV  .mps                 1.00:  Ann Velocity 
 AVMX.mps                 2.40:  Max Ann Veloc 
 AZIF.deg               148.96:  Azm, Final 
 BHAT.        Rotary Steerable:  BHA Type 
 BROT.°/30m               0.04:  Build Rotating 
 BS  .in                 12.25:  Bit Size 
 BSZ .in                 12.25:  Bit Size 
 BTPL.psig              814.00:  Bit Press Loss 
 TCS .hr                106.00:  Time Ciculation Ended 
 CV  .mps                 2.47:  Crit Velocity 
 CVMX.mps                 2.64:  Max Crit Veloc 
 DD1 .          Rashad Habibov:  Direct Drillr 1 
 DD2 .         Rasim Ibrahimov:  Direct Drillr 2 
 DDSV.                 iCruise:  DD Service 
 DEFF.%                 100.00:  % Det Eff 
 DLRX.°/30m               0.70:  Dogleg Rot Max 
 DLSO.°/30m               3.00:  Dogleg Oriented 
 DLSX.°/30m               4.55:  Dogleg Str Max 
 DRET.      08.08.32 02-May-20:  Drill End Time 
 DRST.      08.08.32 28-Apr-20:  Drill Start Tim 
 DTIM.hr                 60.00:  Time Drilling 
 EDEP.m                4761.01:  End Depth 
 ENG1.           Eldar Hajiyev:  Engineer 1 
 ENG2.        Marcelo Sandoval:  Engineer 2 
 ETIM.      23.23.07 05-May-20:  End Time 
 FLOI.gpm              1200.00:  Flow In 
 FLON.gpm               900.00:  Flow In Min 
 FLOS.cptm                0.00:  Fluid Loss 
 FLOX.gpm              1200.00:  Flow In Max 
 HFLO.                      No:  High Flow 
 HPRE.                      No:  High Pressure 
 HTEM.                      No:  High Temp 
 HYDO.m                   1.80:  Hydro Offset 
 IFIN.deg                68.17:  Inc, Final 
 IMAX.deg                74.61:  Inc Max 
 IMIN.deg                68.15:  Inc Min 
 IMND.m                4317.87:  Inc Min Depth 
 IMXD.m                4714.01:  Inc Max Depth 
 LETM.      08.08.32 02-May-20:  Log End Time 
 LOST.hr                     2:  Lost Rig Time 
 LSTM.      08.08.32 28-Apr-20:  Log Start Time 
 MDCL.ppm             41000.00:  Mud Chlorides 
 MDES.     Inversion Oil/Synthetic:  Mud Desc 
 DFD .sg                  1.58:  Mud Density 
 MDMN.sg                  1.58:  Dens Mud Min 
 MDMX.sg                  1.58:  Dens Mud Max 
 MOIL.                      71:  Run Mud Oil % 
 MOWR.                   71:29:  Run Mud OWR 
 MSND.                     0.1:  Run Mud Sand % 
 MSOL.                      23:  Run Mud Solids% 
 DFV .spqt               82.00:  Mud Viscosity 
 MWOD.in                  8.00:  MWD Tool OD 
 MWSI.                     Yes:  Serv Intrp, MWD 
 OTIM.hr                125.00:  Time Operating 
 PMAX.psia             6129.00:  Press Op, Max 
 PV  .cP                 32.00:  Mud PV 
 RUN .                     800:  Run Number 
 ROPA.m/hr               30.00:  ROP Avg 
 ROPN.m/hr               10.00:  ROP Min 
 ROPX.m/hr               40.00:  ROP Max 
 RPMA.rpm               140.00:  RPM Surface Avg 
 RPMN.rpm                80.00:  RPM Surface Min 
 RPMX.rpm               140.00:  RPM Surface Max 
 RRUN.                    L503:  Rig Run Number 
 RTIM.hr                  2.00:  Time Reaming 
 SAZI.deg               184.23:  Azm, Start 
 SDEP.m                3410.01:  Start Depth 
 SIDD.                      No:  Serv Intrp, DD 
 SINC.deg                68.29:  Inc, Start 
 SPPA.psig             6000.00:  SPP Avg 
 SPPN.psig             4000.00:  SPP Min 
 SPPX.psig             6100.00:  SPP Max 
 STIM.      08.08.32 28-Apr-20:  Start Time 
 SVCS.                 DD, MWD:  Services 
 SVER.                    9.20:  Sperry Version 
 TDAT.m                1351.00:  Tot Depth Attmp 
 TDDF.                      No:  Trip for DD 
 TDLG.m                1351.00:  Tot Depth Loggd 
 TFF .                      No:  Trip for Fail 
 TQAA.f-kp               27.00:  Torque Abs Avg 
 TQAN.f-kp               20.00:  Torque Abs Min 
 TQAX.f-kp               30.00:  Torque Abs Max 
 TRRT.°/30m               0.60:  Turn Rotating 
 MRT .                    EWER:  Maximum Recorded Temperature 
 TTMX.degC               83.00:  Max Tool Temp 
 VS01.                90511138:  Virtual Str1 SN 
 VS02.                90524876:  Virtual Str2 SN 
 VS03.                90524872:  Virtual Str3 SN 
 VS04.                90502750:  Virtual Str4 SN 
 VS05.                12330984:  Virtual Str5 SN 
 WBMN.klb                 0.00:  WOB Min 
 WOBA.klb                15.00:  WOB Avg 
 WOBX.klb                20.00:  WOB Max 
 YP  .lhf2               31.00:  Yield Point 
~Curve Information Block
#MNEM.UNIT                 API CODE     Curve Description
#---------               -----------    ---------------------------
 TIME.HHMMSS            00 000 000 000:  GT Time & Date
 GTDEPTH.m              00 000 000 000:  GT Depth
 GTPQH.psia             00 000 000 000:  GT HR Quartz Pressure
 GTTQ.degC              00 000 000 000:  GT Quartz Temperature
 GTTN.NONE              00 000 000 000:  GT Test Number
 GTET.sec               00 000 000 000:  GT Elapsed Test Time
 GTTVD.m                00 000 000 000:  GT True Vertical Depth
#Other Information
#
#WARRANTY: Halliburton will use its best efforts to furnish customers with 
#accurate information and interpretations that are part of, and incident to, the services 
#provided.  However, Halliburton cannot and does not warrant the accuracy 
#or correctness of such information and interpretations.  Under no circumstances should any 
#such information or interpretation be relied upon as the sole basis for any drilling, 
#completion, production, or financial decision or any procedure involving any risk to the 
#safety of any drilling venture, drilling rig or its crew or any other third party.  The 
#Customer has full responsibility for all drilling, completion and production operation.  
#Halliburton makes no representations or warranties, either expressed or 
#implied, including, but not limited to, the implied warranties of merchantability or fitness 
#for a particular purpose, with respect to the services rendered.  In no event will 
#Halliburton be liable for failure to obtain any particular results or for 
#any damages, including, but not limited to, indirect, special or consequential damages, 
#resulting from the use of any information or interpretation provided by Halliburton.
#
~A           TIME           GTDEPTH  GTPQH  GTTQ  GTTN  GTET   GTTVD  
# ...
   00:36:02.329.04-May-2020 4661.71  203.37 80.84 4.00 138.01 2504.33
   00:36:02.529.04-May-2020 4661.71  203.37 80.84 4.00 138.21 2504.33
   00:36:02.729.04-May-2020 4661.71  203.42 80.83 4.00 138.41 2504.33
   00:36:02.929.04-May-2020 4661.71  203.44 80.83 4.00 138.61 2504.33
   00:36:03.129.04-May-2020 4661.71  203.46 80.83 4.00 138.81 2504.33
   00:36:03.329.04-May-2020 4661.71  203.47 80.83 4.00 139.01 2504.33
   00:36:03.529.04-May-2020 4661.71  203.48 80.83 4.00 139.21 2504.33
   00:36:03.729.04-May-2020 4661.71  203.50 80.83 4.00 139.41 2504.33
   00:36:03.929.04-May-2020 4661.71  203.55 80.83 4.00 139.61 2504.33
   00:36:04.129.04-May-2020 4661.71  203.58 80.83 4.00 139.81 2504.33
   00:36:04.329.04-May-2020 4661.71  203.60 80.83 4.00 140.01 2504.33
   00:36:04.529.04-May-2020 4661.71  203.60 80.83 4.00 140.21 2504.33
   00:36:04.729.04-May-2020 4661.71  203.66 80.83 4.00 140.41 2504.33
   00:36:04.929.04-May-2020 4661.71  203.67 80.83 4.00 140.61 2504.33
   00:36:05.129.04-May-2020 4661.71  203.70 80.83 4.00 140.81 2504.33
   00:36:05.329.04-May-2020 4661.71  203.70 80.83 4.00 141.01 2504.33
   00:36:05.529.04-May-2020 4661.71  203.70 80.83 4.00 141.21 2504.33
   00:36:05.729.04-May-2020 4661.71  203.75 80.82 4.00 141.41 2504.33
   00:36:05.929.04-May-2020 4661.71  203.74 80.82 4.00 141.61 2504.33
   00:36:06.129.04-May-2020 4661.71  203.76 80.82 4.00 141.81 2504.33
   00:36:06.329.04-May-2020 4661.71  203.79 80.82 4.00 142.01 2504.33
   00:36:06.529.04-May-2020 4661.71  203.82 80.82 4.00 142.21 2504.33
   00:36:06.729.04-May-2020 4661.71  203.87 80.82 4.00 142.41 2504.33
   00:36:06.929.04-May-2020 4661.71  203.90 80.82 4.00 142.61 2504.33
   00:36:07.129.04-May-2020 4661.71  203.94 80.82 4.00 142.81 2504.33
   00:36:07.329.04-May-2020 4661.71  203.95 80.82 4.00 143.01 2504.33
   00:36:07.529.04-May-2020 4661.71  203.95 80.82 4.00 143.21 2504.33
   00:36:07.729.04-May-2020 4661.71  204.01 80.82 4.00 143.41 2504.33
   00:36:07.929.04-May-2020 4661.71  204.05 80.82 4.00 143.61 2504.33
   00:36:08.129.04-May-2020 4661.71  204.06 80.82 4.00 143.81 2504.33
   00:36:08.329.04-May-2020 4661.71  204.08 80.82 4.00 144.01 2504.33
   00:36:08.529.04-May-2020 4661.71  204.12 80.81 4.00 144.21 2504.33
   00:36:08.729.04-May-2020 4661.71  204.16 80.81 4.00 144.41 2504.33
   00:36:08.929.04-May-2020 4661.71  204.20 80.81 4.00 144.61 2504.33
   00:36:09.129.04-May-2020 4661.71  204.20 80.81 4.00 144.81 2504.33
   00:36:09.329.04-May-2020 4661.71  204.22 80.81 4.00 145.01 2504.33
   00:36:09.529.04-May-2020 4661.71  204.25 80.81 4.00 145.21 2504.33
   00:36:09.729.04-May-2020 4661.71  204.29 80.81 4.00 145.41 2504.33
   00:36:09.929.04-May-2020 4661.71  204.32 80.81 4.00 145.61 2504.33
   00:36:10.129.04-May-2020 4661.71  204.34 80.81 4.00 145.81 2504.33
   00:36:10.329.04-May-2020 4661.71  204.37 80.81 4.00 146.01 2504.33
   00:36:10.529.04-May-2020 4661.71  204.39 80.81 4.00 146.21 2504.33
   00:36:10.729.04-May-2020 4661.71  204.41 80.81 4.00 146.41 2504.33
   00:36:10.929.04-May-2020 4661.71  204.43 80.81 4.00 146.61 2504.33
   00:36:11.129.04-May-2020 4661.71  204.44 80.81 4.00 146.81 2504.33
   00:36:11.329.04-May-2020 4661.71  204.47 80.81 4.00 147.01 2504.33
   00:36:11.530.04-May-2020 4661.71  204.48 80.80 4.00 147.21 2504.33
   00:36:11.730.04-May-2020 4661.71  204.49 80.80 4.00 147.41 2504.33
   00:36:11.930.04-May-2020 4661.71  204.49 80.80 4.00 147.61 2504.33
   00:36:12.130.04-May-2020 4661.71  204.51 80.80 4.00 147.81 2504.33
   00:36:12.330.04-May-2020 4661.71  204.53 80.80 4.00 148.01 2504.33
   00:36:12.530.04-May-2020 4661.71  204.57 80.80 4.00 148.21 2504.33
   00:36:12.730.04-May-2020 4661.71  204.59 80.80 4.00 148.41 2504.33
   00:36:12.930.04-May-2020 4661.71  204.62 80.80 4.00 148.61 2504.33
   00:36:13.130.04-May-2020 4661.71  204.63 80.80 4.00 148.81 2504.33
   00:36:13.330.04-May-2020 4661.71  204.65 80.80 4.00 149.01 2504.33
   00:36:13.530.04-May-2020 4661.71  204.65 80.80 4.00 149.21 2504.33
   00:36:13.730.04-May-2020 4661.71  204.69 80.80 4.00 149.41 2504.33
   00:36:13.930.04-May-2020 4661.71  204.70 80.80 4.00 149.61 2504.33
   00:36:14.130.04-May-2020 4661.71  204.71 80.80 4.00 149.81 2504.33
   00:36:14.330.04-May-2020 4661.71  204.71 80.79 4.00 150.01 2504.33
   00:36:14.530.04-May-2020 4661.71  204.71 80.79 4.00 150.21 2504.33
   00:36:14.730.04-May-2020 4661.71  204.74 80.79 4.00 150.41 2504.33
   00:36:14.930.04-May-2020 4661.71  204.76 80.79 4.00 150.61 2504.33
   00:36:15.130.04-May-2020 4661.71  204.80 80.79 4.00 150.81 2504.33
   00:36:15.330.04-May-2020 4661.71  204.84 80.79 4.00 151.01 2504.33
   00:36:15.530.04-May-2020 4661.71  204.84 80.79 4.00 151.21 2504.33
   00:36:15.730.04-May-2020 4661.71  202.93 80.79 4.00 151.41 2504.33
   00:36:15.930.04-May-2020 4661.71  191.54 80.79 4.00 151.61 2504.33
   00:36:16.130.04-May-2020 4661.71  179.89 80.79 4.00 151.81 2504.33
   00:36:16.330.04-May-2020 4661.71  169.72 80.79 4.00 152.01 2504.33
   00:36:16.530.04-May-2020 4661.71  160.96 80.79 4.00 152.21 2504.33
   00:36:16.730.04-May-2020 4661.71  153.34 80.79 4.00 152.41 2504.33
   00:36:16.930.04-May-2020 4661.71  146.70 80.79 4.00 152.61 2504.33
   00:36:17.130.04-May-2020 4661.71  140.73 80.79 4.00 152.81 2504.33
   00:36:17.330.04-May-2020 4661.71  135.40 80.78 4.00 153.01 2504.33
   00:36:17.530.04-May-2020 4661.71  135.40 80.78 4.00 153.21 2504.33
   00:36:17.730.04-May-2020 4661.71  126.35 80.78 4.00 153.41 2504.33
   00:36:17.930.04-May-2020 4661.71  122.51 80.78 4.00 153.61 2504.33
   00:36:18.130.04-May-2020 4661.71  118.95 80.78 4.00 153.81 2504.33
   00:36:18.330.04-May-2020 4661.71  115.59 80.78 4.00 154.01 2504.33
   00:36:18.530.04-May-2020 4661.71  112.51 80.78 4.00 154.21 2504.33
   00:36:18.730.04-May-2020 4661.71  109.67 80.78 4.00 154.41 2504.33
   00:36:18.930.04-May-2020 4661.71  107.08 80.78 4.00 154.61 2504.33
   00:36:19.130.04-May-2020 4661.71  104.68 80.78 4.00 154.81 2504.33
   00:36:19.330.04-May-2020 4661.71  102.40 80.78 4.00 155.01 2504.33
   00:36:19.530.04-May-2020 4661.71  100.29 80.78 4.00 155.21 2504.33
   00:36:19.730.04-May-2020 4661.71   98.29 80.78 4.00 155.41 2504.33
   00:36:19.930.04-May-2020 4661.71   96.40 80.77 4.00 155.61 2504.33
   00:36:20.130.04-May-2020 4661.71   94.59 80.77 4.00 155.81 2504.33
   00:36:20.330.04-May-2020 4661.71   92.85 80.77 4.00 156.01 2504.33
   00:36:20.530.04-May-2020 4661.71   92.85 80.77 4.00 156.21 2504.33
   00:36:20.730.04-May-2020 4661.71   89.68 80.77 4.00 156.41 2504.33
   00:36:20.930.04-May-2020 4661.71   88.25 80.77 4.00 156.61 2504.33
   00:36:21.130.04-May-2020 4661.71   86.88 80.77 4.00 156.81 2504.33
   00:36:21.330.04-May-2020 4661.71   85.55 80.77 4.00 157.01 2504.33
   00:36:21.530.04-May-2020 4661.71   85.55 80.77 4.00 157.21 2504.33
   00:36:21.730.04-May-2020 4661.71   83.05 80.77 4.00 157.41 2504.33
   00:36:21.930.04-May-2020 4661.71   81.89 80.77 4.00 157.61 2504.33
   00:36:22.130.04-May-2020 4661.71   80.79 80.77 4.00 157.81 2504.33
   00:36:22.330.04-May-2020 4661.71   79.74 80.77 4.00 158.01 2504.33
   00:36:22.531.04-May-2020 4661.71   79.74 80.77 4.00 158.21 2504.33
   00:36:22.731.04-May-2020 4661.71   77.79 80.76 4.00 158.41 2504.33
   00:36:22.931.04-May-2020 4661.71   76.85 80.76 4.00 158.61 2504.33
   00:36:23.131.04-May-2020 4661.71   75.92 80.76 4.00 158.81 2504.33
   00:36:23.331.04-May-2020 4661.71   75.05 80.76 4.00 159.01 2504.33
   00:36:23.531.04-May-2020 4661.71   74.21 80.76 4.00 159.21 2504.33
   00:36:23.731.04-May-2020 4661.71   73.42 80.76 4.00 159.41 2504.33
   00:36:23.931.04-May-2020 4661.71   72.65 80.76 4.00 159.61 2504.33
   00:36:24.131.04-May-2020 4661.71   71.91 80.76 4.00 159.81 2504.33
   00:36:24.331.04-May-2020 4661.71   71.21 80.76 4.00 160.01 2504.33
   00:36:24.531.04-May-2020 4661.71   71.21 80.76 4.00 160.21 2504.33
   00:36:24.731.04-May-2020 4661.71   69.82 80.76 4.00 160.41 2504.33
   00:36:24.931.04-May-2020 4661.71   69.18 80.76 4.00 160.61 2504.33
   00:36:25.131.04-May-2020 4661.71   68.54 80.75 4.00 160.81 2504.33
