~Version Information
 VERS.                  2.0:   CWLS log ASCII Standard -VERSION 2.0
 WRAP.                   NO:   One line per depth step
~Well Information Block
#MNEM.UNIT     VALUE/NAME     DESCRIPTION
#---------     -----------    ---------------------------
 STRT.S             13:13:41 03-May-20: START TIME 13:13:41 03-May-20
 STOP.S             13:20:16 03-May-20: STOP TIME  13:20:16 03-May-20
 STEP.S                   0.00: STEP TIME
 NULL.                 -999.25: NULL VALUE
 DFWT.                        :  DIST FWL TEXT
 DFST.                        :  DIST FSL TEXT
 DMF .             Drill Floor:  DRILL MEAS FROM
 STIM.      03.00.00 25-Mar-20:  START TIME
 DATE.      00.00.00 19-May-20:  END TIME
 SPUD.               27-Aug-20:  SPUD DATE
 NREF.                    Grid:  NORTH REFERENCE
 HPTY.       Minimum Curvature:  HOLE POS TYPE
 DMOD.             Drill Model:  DRILL MOD DESC
 SVYD.                  Survey:  SURVEY DESC
 ILTD.               Lithology:  INTERP LTH DESC
 FTOP.          Formation Tops:  FORM TOPS DESC
 SON .        AZ-XX-0906252240:  JOB NUMBER
 RIG .             West Chirag:  RIG NAME
 PDAT.          Mean Sea Level:  PERMANENT DATUM
 FLD .                     ACG:  FIELD NAME
 CTRY.              Azerbaijan:  COUNTRY NAME
 WELL.                     J23:  WELL NAME
 SRVC.          Turan Drilling:  CONTRACTOR
 COMP.     BP Exploration (Caspian Sea) Ltd.:  COMPANY
 WTYP.                Deviated:  WELL TYPE
 MDS .        Operator Entered:  MAG DATA SOURCE
 UWI .                     N/A:  UNIQUE WELL IDENTIFIER
 API .                     N/A:  API NUMBER
 BASE.              Azerbaijan:  LOGGING EQUIPMENT BASE LOCATION
 REGN.                   EESSA:  REGION
 PROV.                    Baku:  PROVINCE
 STAT.                    Baku:  STATE NAME
 MWDS.                     N/A:  MWD SHOP
 JOBN.        AZ-XX-0906252240:  JOB TICKET NUMB
 DOE .                     N/A:  DOE NUMBER
 DCON.         Sperry Drilling:  DIRECTNL CONTR
 UNIT.                     N/A:  LOGGING EQUIPMENT ID
 CNTY.                        :  COUNTY
 LOC .                        :  LOCATION
 LMF .             Drill Floor:  LOG MEASURED FROM
 TVDS.m                  43.00:  TVDSS CORRECTN
 LATI.deg                40.13:  LATITUDE
 LONG.deg                51.22:  LONGITUDE
 WHNS.m                   9.43:  WELL HEAD N/S
 WHEW.m                  -8.91:  WELL HEAD E/W
 UTMX.m              519005.06:  UTM X
 UTMY.m             4443793.85:  UTM Y
 DFWL.m                   0.00:  DISTANCE FWL
 DFSL.m                   0.00:  DISTANCE FSL
 SDEP.m                 363.00:  START DEPTH
 TDD .m                5150.01:  TOTAL DEPTH (DRILLER)
 VSDR.deg               179.88:  VERT SEC DIRECT
 GVFD.g                   1.00:  GRAVITY FIELD
 MFLD.nT              50295.00:  MAGNETIC FIELD
 MDIP.deg                59.56:  MAGNETIC DIP
 MDEC.deg                 6.45:  MAGNETIC DECL
 GRDC.deg                 0.14:  GRID CORRECTION
 AZTC.deg                 6.31:  AZM TOTAL CORR
 EPD .m                   0.00:  ELEVATION
 EGL .m                   0.00:  GROUND ELEVATION
 WDMS.m                 169.80:  WD ELEV
 APD .m                  43.00:  DEPTH ABOVE PD
 DEP .m                 354.17:  DEPTH
 AGAP.m                  43.00:  AIR GAP
 VSEW.m                  -8.91:  VERT SEC E/W
 VSNS.m                   9.43:  VERT SEC N/S
 EKB .m                   0.00:  KB ELEVATION
 EDF .m                  43.00:  DF ELEVATION
 TDL .m                1351.00:  TOTAL DEPTH (LOGGER)
 VSC .                       0:  VS TO CLOSURE
 MAGU.                 1850802:  MAGUTM CHECKSUM
~Parameter Information Block
#MNEM.UNIT       Value        Description
#---------     -----------    ---------------------------
 AV  .mps                 1.00:  Ann Velocity 
 AVMX.mps                 2.40:  Max Ann Veloc 
 AZIF.deg               148.96:  Azm, Final 
 BHAT.        Rotary Steerable:  BHA Type 
 BROT.°/30m               0.04:  Build Rotating 
 BS  .in                 12.25:  Bit Size 
 BSZ .in                 12.25:  Bit Size 
 BTPL.psig              814.00:  Bit Press Loss 
 TCS .hr                106.00:  Time Ciculation Ended 
 CV  .mps                 2.47:  Crit Velocity 
 CVMX.mps                 2.64:  Max Crit Veloc 
 DD1 .          Rashad Habibov:  Direct Drillr 1 
 DD2 .         Rasim Ibrahimov:  Direct Drillr 2 
 DDSV.                 iCruise:  DD Service 
 DEFF.%                 100.00:  % Det Eff 
 DLRX.°/30m               0.70:  Dogleg Rot Max 
 DLSO.°/30m               3.00:  Dogleg Oriented 
 DLSX.°/30m               4.55:  Dogleg Str Max 
 DRET.      08.08.32 02-May-20:  Drill End Time 
 DRST.      08.08.32 28-Apr-20:  Drill Start Tim 
 DTIM.hr                 60.00:  Time Drilling 
 EDEP.m                4761.01:  End Depth 
 ENG1.           Eldar Hajiyev:  Engineer 1 
 ENG2.        Marcelo Sandoval:  Engineer 2 
 ETIM.      23.23.07 05-May-20:  End Time 
 FLOI.gpm              1200.00:  Flow In 
 FLON.gpm               900.00:  Flow In Min 
 FLOS.cptm                0.00:  Fluid Loss 
 FLOX.gpm              1200.00:  Flow In Max 
 HFLO.                      No:  High Flow 
 HPRE.                      No:  High Pressure 
 HTEM.                      No:  High Temp 
 HYDO.m                   1.80:  Hydro Offset 
 IFIN.deg                68.17:  Inc, Final 
 IMAX.deg                74.61:  Inc Max 
 IMIN.deg                68.15:  Inc Min 
 IMND.m                4317.87:  Inc Min Depth 
 IMXD.m                4714.01:  Inc Max Depth 
 LETM.      08.08.32 02-May-20:  Log End Time 
 LOST.hr                     2:  Lost Rig Time 
 LSTM.      08.08.32 28-Apr-20:  Log Start Time 
 MDCL.ppm             41000.00:  Mud Chlorides 
 MDES.     Inversion Oil/Synthetic:  Mud Desc 
 DFD .sg                  1.58:  Mud Density 
 MDMN.sg                  1.58:  Dens Mud Min 
 MDMX.sg                  1.58:  Dens Mud Max 
 MOIL.                      71:  Run Mud Oil % 
 MOWR.                   71:29:  Run Mud OWR 
 MSND.                     0.1:  Run Mud Sand % 
 MSOL.                      23:  Run Mud Solids% 
 DFV .spqt               82.00:  Mud Viscosity 
 MWOD.in                  8.00:  MWD Tool OD 
 MWSI.                     Yes:  Serv Intrp, MWD 
 OTIM.hr                125.00:  Time Operating 
 PMAX.psia             6129.00:  Press Op, Max 
 PV  .cP                 32.00:  Mud PV 
 RUN .                     800:  Run Number 
 ROPA.m/hr               30.00:  ROP Avg 
 ROPN.m/hr               10.00:  ROP Min 
 ROPX.m/hr               40.00:  ROP Max 
 RPMA.rpm               140.00:  RPM Surface Avg 
 RPMN.rpm                80.00:  RPM Surface Min 
 RPMX.rpm               140.00:  RPM Surface Max 
 RRUN.                    L503:  Rig Run Number 
 RTIM.hr                  2.00:  Time Reaming 
 SAZI.deg               184.23:  Azm, Start 
 SDEP.m                3410.01:  Start Depth 
 SIDD.                      No:  Serv Intrp, DD 
 SINC.deg                68.29:  Inc, Start 
 SPPA.psig             6000.00:  SPP Avg 
 SPPN.psig             4000.00:  SPP Min 
 SPPX.psig             6100.00:  SPP Max 
 STIM.      08.08.32 28-Apr-20:  Start Time 
 SVCS.                 DD, MWD:  Services 
 SVER.                    9.20:  Sperry Version 
 TDAT.m                1351.00:  Tot Depth Attmp 
 TDDF.                      No:  Trip for DD 
 TDLG.m                1351.00:  Tot Depth Loggd 
 TFF .                      No:  Trip for Fail 
 TQAA.f-kp               27.00:  Torque Abs Avg 
 TQAN.f-kp               20.00:  Torque Abs Min 
 TQAX.f-kp               30.00:  Torque Abs Max 
 TRRT.°/30m               0.60:  Turn Rotating 
 MRT .                    EWER:  Maximum Recorded Temperature 
 TTMX.degC               83.00:  Max Tool Temp 
 VS01.                90511138:  Virtual Str1 SN 
 VS02.                90524876:  Virtual Str2 SN 
 VS03.                90524872:  Virtual Str3 SN 
 VS04.                90502750:  Virtual Str4 SN 
 VS05.                12330984:  Virtual Str5 SN 
 WBMN.klb                 0.00:  WOB Min 
 WOBA.klb                15.00:  WOB Avg 
 WOBX.klb                20.00:  WOB Max 
 YP  .lhf2               31.00:  Yield Point 
~Curve Information Block
#MNEM.UNIT                 API CODE     Curve Description
#---------               -----------    ---------------------------
 TIME.HHMMSS            00 000 000 000:  GT Time & Date
 GTDEPTH.m              00 000 000 000:  GT Depth
 GTPQH.psia             00 000 000 000:  GT HR Quartz Pressure
 GTTQ.degC              00 000 000 000:  GT Quartz Temperature
 GTTN.NONE              00 000 000 000:  GT Test Number
 GTET.sec               00 000 000 000:  GT Elapsed Test Time
 GTTVD.m                00 000 000 000:  GT True Vertical Depth
#Other Information
#
#WARRANTY: Halliburton will use its best efforts to furnish customers with 
#accurate information and interpretations that are part of, and incident to, the services 
#provided.  However, Halliburton cannot and does not warrant the accuracy 
#or correctness of such information and interpretations.  Under no circumstances should any 
#such information or interpretation be relied upon as the sole basis for any drilling, 
#completion, production, or financial decision or any procedure involving any risk to the 
#safety of any drilling venture, drilling rig or its crew or any other third party.  The 
#Customer has full responsibility for all drilling, completion and production operation.  
#Halliburton makes no representations or warranties, either expressed or 
#implied, including, but not limited to, the implied warranties of merchantability or fitness 
#for a particular purpose, with respect to the services rendered.  In no event will 
#Halliburton be liable for failure to obtain any particular results or for 
#any damages, including, but not limited to, indirect, special or consequential damages, 
#resulting from the use of any information or interpretation provided by Halliburton.
#
~A           TIME           GTDEPTH  GTPQH  GTTQ  GTTN  GTET   GTTVD  
# ...
   13:17:54.809.03-May-2020 4532.80 4122.99 80.10 1.00 253.40 2465.99
   13:17:55.009.03-May-2020 4532.80 4122.99 80.10 1.00 253.60 2465.99
   13:17:55.210.03-May-2020 4532.80 4122.85 80.10 1.00 253.80 2465.99
   13:17:55.410.03-May-2020 4532.80 4122.54 80.10 1.00 254.00 2465.99
   13:17:55.610.03-May-2020 4532.80 4122.56 80.10 1.00 254.20 2465.99
   13:17:55.811.03-May-2020 4532.80 4122.61 80.10 1.00 254.40 2465.99
   13:17:56.011.03-May-2020 4532.80 4122.61 80.10 1.00 254.60 2465.99
   13:17:56.211.03-May-2020 4532.80 4122.46 80.09 1.00 254.80 2465.99
   13:17:56.411.03-May-2020 4532.80 4122.47 80.09 1.00 255.00 2465.99
   13:17:56.612.03-May-2020 4532.80 4122.40 80.09 1.00 255.20 2465.99
   13:17:56.812.03-May-2020 4532.80 4122.40 80.09 1.00 255.40 2465.99
   13:17:57.012.03-May-2020 4532.80 4122.40 80.09 1.00 255.60 2465.99
   13:17:57.213.03-May-2020 4532.80 4122.78 80.09 1.00 255.80 2465.99
   13:17:57.413.03-May-2020 4532.80 4122.83 80.09 1.00 256.00 2465.99
   13:17:57.613.03-May-2020 4532.80 4122.79 80.09 1.00 256.20 2465.99
   13:17:57.814.03-May-2020 4532.80 4122.91 80.09 1.00 256.40 2465.99
   13:17:58.014.03-May-2020 4532.80 4122.91 80.09 1.00 256.60 2465.99
   13:17:58.214.03-May-2020 4532.80 4122.67 80.09 1.00 256.80 2465.99
   13:17:58.415.03-May-2020 4532.80 4123.07 80.09 1.00 257.00 2465.99
   13:17:58.615.03-May-2020 4532.80 4122.98 80.09 1.00 257.20 2465.99
   13:17:58.815.03-May-2020 4532.80 4122.52 80.09 1.00 257.40 2465.99
   13:17:59.016.03-May-2020 4532.80 4122.52 80.09 1.00 257.61 2465.99
   13:17:59.216.03-May-2020 4532.80 4123.31 80.09 1.00 257.81 2465.99
   13:17:59.416.03-May-2020 4532.80 4122.75 80.09 1.00 258.01 2465.99
   13:17:59.617.03-May-2020 4532.80 4122.30 80.09 1.00 258.21 2465.99
   13:17:59.817.03-May-2020 4532.80 4122.86 80.09 1.00 258.41 2465.99
   13:18:00.017.03-May-2020 4532.80 4122.72 80.08 1.00 258.61 2465.99
   13:18:00.217.03-May-2020 4532.80 4122.60 80.08 1.00 258.81 2465.99
   13:18:00.418.03-May-2020 4532.80 3941.96 80.08 1.00 259.01 2465.99
   13:18:00.618.03-May-2020 4532.80 3749.89 80.08 1.00 259.21 2465.99
   13:18:00.818.03-May-2020 4532.80 3656.39 80.08 1.00 259.41 2465.99
   13:18:01.019.03-May-2020 4532.80 3656.39 80.08 1.00 259.61 2465.99
   13:18:01.219.03-May-2020 4532.80 3572.15 80.08 1.00 259.81 2465.99
   13:18:01.419.03-May-2020 4532.80 3552.07 80.08 1.00 260.01 2465.99
   13:18:01.620.03-May-2020 4532.80 3539.91 80.08 1.00 260.21 2465.99
   13:18:01.820.03-May-2020 4532.80 3531.13 80.08 1.00 260.41 2465.99
   13:18:02.020.03-May-2020 4532.80 3531.13 80.08 1.00 260.61 2465.99
   13:18:02.221.03-May-2020 4532.80 3522.86 80.08 1.00 260.81 2465.99
   13:18:02.421.03-May-2020 4532.80 3516.80 80.08 1.00 261.01 2465.99
   13:18:02.621.03-May-2020 4532.80 3517.14 80.08 1.00 261.21 2465.99
   13:18:02.822.03-May-2020 4532.80 3517.01 80.08 1.00 261.41 2465.99
   13:18:03.022.03-May-2020 4532.80 3517.01 80.08 1.00 261.61 2465.99
   13:18:03.222.03-May-2020 4532.80 3511.14 80.07 1.00 261.81 2465.99
   13:18:03.422.03-May-2020 4532.80 3509.06 80.07 1.00 262.01 2465.99
   13:18:03.623.03-May-2020 4532.80 3507.84 80.07 1.00 262.21 2465.99
   13:18:03.823.03-May-2020 4532.80 3508.33 80.07 1.00 262.41 2465.99
   13:18:04.023.03-May-2020 4532.80 3506.63 80.07 1.00 262.61 2465.99
   13:18:04.224.03-May-2020 4532.80 3506.68 80.07 1.00 262.81 2465.99
   13:18:04.424.03-May-2020 4532.80 3504.15 80.07 1.00 263.01 2465.99
   13:18:04.624.03-May-2020 4532.80 3502.23 80.07 1.00 263.21 2465.99
   13:18:04.825.03-May-2020 4532.80 3502.05 80.07 1.00 263.41 2465.99
   13:18:05.025.03-May-2020 4532.80 3502.05 80.07 1.00 263.61 2465.99
   13:18:05.225.03-May-2020 4532.80 3501.63 80.06 1.00 263.81 2465.99
   13:18:05.426.03-May-2020 4532.80 3500.15 80.06 1.00 264.02 2465.99
   13:18:05.626.03-May-2020 4532.80 3501.05 80.06 1.00 264.22 2465.99
   13:18:05.826.03-May-2020 4532.80 3504.26 80.06 1.00 264.42 2465.99
   13:18:06.027.03-May-2020 4532.80 3504.26 80.06 1.00 264.62 2465.99
   13:18:06.227.03-May-2020 4532.80 3501.95 80.06 1.00 264.82 2465.99
   13:18:06.427.03-May-2020 4532.80 3503.95 80.06 1.00 265.02 2465.99
   13:18:06.628.03-May-2020 4532.80 3502.28 80.06 1.00 265.22 2465.99
   13:18:06.828.03-May-2020 4532.80 3499.05 80.06 1.00 265.42 2465.99
   13:18:07.028.03-May-2020 4532.80 3499.05 80.06 1.00 265.62 2465.99
   13:18:07.228.03-May-2020 4532.80 3503.17 80.05 1.00 265.82 2465.99
   13:18:07.429.03-May-2020 4532.80 3505.01 80.05 1.00 266.02 2465.99
   13:18:07.629.03-May-2020 4532.80 3512.72 80.05 1.00 266.22 2465.99
   13:18:07.829.03-May-2020 4532.80 3516.68 80.05 1.00 266.42 2465.99
   13:18:08.030.03-May-2020 4532.80 3517.48 80.05 1.00 266.62 2465.99
   13:18:08.230.03-May-2020 4532.80 3515.25 80.05 1.00 266.82 2465.99
   13:18:08.430.03-May-2020 4532.80 3513.59 80.05 1.00 267.02 2465.99
   13:18:08.631.03-May-2020 4532.80 3511.85 80.05 1.00 267.22 2465.99
   13:18:08.831.03-May-2020 4532.80 3570.44 80.05 1.00 267.42 2465.99
   13:18:09.031.03-May-2020 4532.80 3570.44 80.05 1.00 267.62 2465.99
   13:18:09.232.03-May-2020 4532.80 3935.59 80.05 1.00 267.82 2465.99
   13:18:09.432.03-May-2020 4532.80 4004.14 80.05 1.00 268.02 2465.99
   13:18:09.632.03-May-2020 4532.80 4041.22 80.05 1.00 268.22 2465.99
   13:18:09.833.03-May-2020 4532.80 4062.26 80.05 1.00 268.42 2465.99
   13:18:10.033.03-May-2020 4532.80 4062.26 80.05 1.00 268.62 2465.99
   13:18:10.233.03-May-2020 4532.80 4080.01 80.04 1.00 268.82 2465.99
   13:18:10.434.03-May-2020 4532.80 4085.92 80.04 1.00 269.02 2465.99
   13:18:10.634.03-May-2020 4532.80 4091.15 80.04 1.00 269.22 2465.99
   13:18:10.834.03-May-2020 4532.80 4094.61 80.04 1.00 269.42 2465.99
   13:18:11.034.03-May-2020 4532.80 4094.61 80.04 1.00 269.62 2465.99
   13:18:11.235.03-May-2020 4532.80 4099.33 80.04 1.00 269.82 2465.99
   13:18:11.435.03-May-2020 4532.80 4100.94 80.04 1.00 270.02 2465.99
   13:18:11.635.03-May-2020 4532.80 4102.26 80.04 1.00 270.22 2465.99
   13:18:11.836.03-May-2020 4532.80 4103.51 80.04 1.00 270.43 2465.99
   13:18:12.036.03-May-2020 4532.80 4104.53 80.04 1.00 270.63 2465.99
   13:18:12.236.03-May-2020 4532.80 4105.33 80.04 1.00 270.83 2465.99
   13:18:12.437.03-May-2020 4532.80 4106.20 80.04 1.00 271.03 2465.99
   13:18:12.637.03-May-2020 4532.80 4106.81 80.04 1.00 271.23 2465.99
   13:18:12.837.03-May-2020 4532.80 4104.37 80.04 1.00 271.43 2465.99
   13:18:13.038.03-May-2020 4532.80 4104.37 80.04 1.00 271.63 2465.99
   13:18:13.238.03-May-2020 4532.80 4107.53 80.04 1.00 271.83 2465.99
   13:18:13.438.03-May-2020 4532.80 4105.67 80.04 1.00 272.03 2465.99
   13:18:13.639.03-May-2020 4532.80 4108.81 80.04 1.00 272.23 2465.99
   13:18:13.839.03-May-2020 4532.80 4110.13 80.04 1.00 272.43 2465.99
   13:18:14.039.03-May-2020 4532.80 4110.13 80.04 1.00 272.63 2465.99
   13:18:14.240.03-May-2020 4532.80 4111.94 80.04 1.00 272.83 2465.99
   13:18:14.440.03-May-2020 4532.80 4108.41 80.04 1.00 273.03 2465.99
   13:18:14.640.03-May-2020 4532.80 4111.25 80.04 1.00 273.23 2465.99
   13:18:14.840.03-May-2020 4532.80 4112.38 80.04 1.00 273.43 2465.99
   13:18:15.041.03-May-2020 4532.80 4112.38 80.04 1.00 273.63 2465.99
   13:18:15.241.03-May-2020 4532.80 4112.42 80.04 1.00 273.83 2465.99
   13:18:15.441.03-May-2020 4532.80 4113.41 80.04 1.00 274.03 2465.99
   13:18:15.642.03-May-2020 4532.80 4113.93 80.04 1.00 274.23 2465.99
   13:18:15.842.03-May-2020 4532.80 4114.66 80.04 1.00 274.43 2465.99
   13:18:16.042.03-May-2020 4532.80 4114.66 80.04 1.00 274.63 2465.99
   13:18:16.243.03-May-2020 4532.80 4115.21 80.04 1.00 274.83 2465.99
   13:18:16.443.03-May-2020 4532.80 4115.41 80.04 1.00 275.03 2465.99
   13:18:16.643.03-May-2020 4532.80 4115.57 80.04 1.00 275.23 2465.99
   13:18:16.844.03-May-2020 4532.80 4115.54 80.04 1.00 275.43 2465.99
   13:18:17.044.03-May-2020 4532.80 4115.54 80.04 1.00 275.63 2465.99
   13:18:17.244.03-May-2020 4532.80 4115.91 80.04 1.00 275.83 2465.99
   13:18:17.445.03-May-2020 4532.80 4116.21 80.04 1.00 276.03 2465.99
   13:18:17.645.03-May-2020 4532.80 4116.25 80.04 1.00 276.23 2465.99
