~Version Information
 VERS.                  2.0:   CWLS log ASCII Standard -VERSION 2.0
 WRAP.                   NO:   One line per depth step
~Well Information Block
#MNEM.UNIT     VALUE/NAME     DESCRIPTION
#---------     -----------    ---------------------------
 STRT.S             15:01:40 03-May-20: START TIME 15:01:40 03-May-20
 STOP.S             15:08:15 03-May-20: STOP TIME  15:08:15 03-May-20
 STEP.S                   0.00: STEP TIME
 NULL.                 -999.25: NULL VALUE
 DFWT.                        :  DIST FWL TEXT
 DFST.                        :  DIST FSL TEXT
 DMF .             Drill Floor:  DRILL MEAS FROM
 STIM.      03.00.00 25-Mar-20:  START TIME
 DATE.      00.00.00 19-May-20:  END TIME
 SPUD.               27-Aug-20:  SPUD DATE
 NREF.                    Grid:  NORTH REFERENCE
 HPTY.       Minimum Curvature:  HOLE POS TYPE
 DMOD.             Drill Model:  DRILL MOD DESC
 SVYD.                  Survey:  SURVEY DESC
 ILTD.               Lithology:  INTERP LTH DESC
 FTOP.          Formation Tops:  FORM TOPS DESC
 SON .        AZ-XX-0906252240:  JOB NUMBER
 RIG .             West Chirag:  RIG NAME
 PDAT.          Mean Sea Level:  PERMANENT DATUM
 FLD .                     ACG:  FIELD NAME
 CTRY.              Azerbaijan:  COUNTRY NAME
 WELL.                     J23:  WELL NAME
 SRVC.          Turan Drilling:  CONTRACTOR
 COMP.     BP Exploration (Caspian Sea) Ltd.:  COMPANY
 WTYP.                Deviated:  WELL TYPE
 MDS .        Operator Entered:  MAG DATA SOURCE
 UWI .                     N/A:  UNIQUE WELL IDENTIFIER
 API .                     N/A:  API NUMBER
 BASE.              Azerbaijan:  LOGGING EQUIPMENT BASE LOCATION
 REGN.                   EESSA:  REGION
 PROV.                    Baku:  PROVINCE
 STAT.                    Baku:  STATE NAME
 MWDS.                     N/A:  MWD SHOP
 JOBN.        AZ-XX-0906252240:  JOB TICKET NUMB
 DOE .                     N/A:  DOE NUMBER
 DCON.         Sperry Drilling:  DIRECTNL CONTR
 UNIT.                     N/A:  LOGGING EQUIPMENT ID
 CNTY.                        :  COUNTY
 LOC .                        :  LOCATION
 LMF .             Drill Floor:  LOG MEASURED FROM
 TVDS.m                  43.00:  TVDSS CORRECTN
 LATI.deg                40.13:  LATITUDE
 LONG.deg                51.22:  LONGITUDE
 WHNS.m                   9.43:  WELL HEAD N/S
 WHEW.m                  -8.91:  WELL HEAD E/W
 UTMX.m              519005.06:  UTM X
 UTMY.m             4443793.85:  UTM Y
 DFWL.m                   0.00:  DISTANCE FWL
 DFSL.m                   0.00:  DISTANCE FSL
 SDEP.m                 363.00:  START DEPTH
 TDD .m                5150.01:  TOTAL DEPTH (DRILLER)
 VSDR.deg               179.88:  VERT SEC DIRECT
 GVFD.g                   1.00:  GRAVITY FIELD
 MFLD.nT              50295.00:  MAGNETIC FIELD
 MDIP.deg                59.56:  MAGNETIC DIP
 MDEC.deg                 6.45:  MAGNETIC DECL
 GRDC.deg                 0.14:  GRID CORRECTION
 AZTC.deg                 6.31:  AZM TOTAL CORR
 EPD .m                   0.00:  ELEVATION
 EGL .m                   0.00:  GROUND ELEVATION
 WDMS.m                 169.80:  WD ELEV
 APD .m                  43.00:  DEPTH ABOVE PD
 DEP .m                 354.17:  DEPTH
 AGAP.m                  43.00:  AIR GAP
 VSEW.m                  -8.91:  VERT SEC E/W
 VSNS.m                   9.43:  VERT SEC N/S
 EKB .m                   0.00:  KB ELEVATION
 EDF .m                  43.00:  DF ELEVATION
 TDL .m                1351.00:  TOTAL DEPTH (LOGGER)
 VSC .                       0:  VS TO CLOSURE
 MAGU.                 1850802:  MAGUTM CHECKSUM
~Parameter Information Block
#MNEM.UNIT       Value        Description
#---------     -----------    ---------------------------
 AV  .mps                 1.00:  Ann Velocity 
 AVMX.mps                 2.40:  Max Ann Veloc 
 AZIF.deg               148.96:  Azm, Final 
 BHAT.        Rotary Steerable:  BHA Type 
 BROT.°/30m               0.04:  Build Rotating 
 BS  .in                 12.25:  Bit Size 
 BSZ .in                 12.25:  Bit Size 
 BTPL.psig              814.00:  Bit Press Loss 
 TCS .hr                106.00:  Time Ciculation Ended 
 CV  .mps                 2.47:  Crit Velocity 
 CVMX.mps                 2.64:  Max Crit Veloc 
 DD1 .          Rashad Habibov:  Direct Drillr 1 
 DD2 .         Rasim Ibrahimov:  Direct Drillr 2 
 DDSV.                 iCruise:  DD Service 
 DEFF.%                 100.00:  % Det Eff 
 DLRX.°/30m               0.70:  Dogleg Rot Max 
 DLSO.°/30m               3.00:  Dogleg Oriented 
 DLSX.°/30m               4.55:  Dogleg Str Max 
 DRET.      08.08.32 02-May-20:  Drill End Time 
 DRST.      08.08.32 28-Apr-20:  Drill Start Tim 
 DTIM.hr                 60.00:  Time Drilling 
 EDEP.m                4761.01:  End Depth 
 ENG1.           Eldar Hajiyev:  Engineer 1 
 ENG2.        Marcelo Sandoval:  Engineer 2 
 ETIM.      23.23.07 05-May-20:  End Time 
 FLOI.gpm              1200.00:  Flow In 
 FLON.gpm               900.00:  Flow In Min 
 FLOS.cptm                0.00:  Fluid Loss 
 FLOX.gpm              1200.00:  Flow In Max 
 HFLO.                      No:  High Flow 
 HPRE.                      No:  High Pressure 
 HTEM.                      No:  High Temp 
 HYDO.m                   1.80:  Hydro Offset 
 IFIN.deg                68.17:  Inc, Final 
 IMAX.deg                74.61:  Inc Max 
 IMIN.deg                68.15:  Inc Min 
 IMND.m                4317.87:  Inc Min Depth 
 IMXD.m                4714.01:  Inc Max Depth 
 LETM.      08.08.32 02-May-20:  Log End Time 
 LOST.hr                     2:  Lost Rig Time 
 LSTM.      08.08.32 28-Apr-20:  Log Start Time 
 MDCL.ppm             41000.00:  Mud Chlorides 
 MDES.     Inversion Oil/Synthetic:  Mud Desc 
 DFD .sg                  1.58:  Mud Density 
 MDMN.sg                  1.58:  Dens Mud Min 
 MDMX.sg                  1.58:  Dens Mud Max 
 MOIL.                      71:  Run Mud Oil % 
 MOWR.                   71:29:  Run Mud OWR 
 MSND.                     0.1:  Run Mud Sand % 
 MSOL.                      23:  Run Mud Solids% 
 DFV .spqt               82.00:  Mud Viscosity 
 MWOD.in                  8.00:  MWD Tool OD 
 MWSI.                     Yes:  Serv Intrp, MWD 
 OTIM.hr                125.00:  Time Operating 
 PMAX.psia             6129.00:  Press Op, Max 
 PV  .cP                 32.00:  Mud PV 
 RUN .                     800:  Run Number 
 ROPA.m/hr               30.00:  ROP Avg 
 ROPN.m/hr               10.00:  ROP Min 
 ROPX.m/hr               40.00:  ROP Max 
 RPMA.rpm               140.00:  RPM Surface Avg 
 RPMN.rpm                80.00:  RPM Surface Min 
 RPMX.rpm               140.00:  RPM Surface Max 
 RRUN.                    L503:  Rig Run Number 
 RTIM.hr                  2.00:  Time Reaming 
 SAZI.deg               184.23:  Azm, Start 
 SDEP.m                3410.01:  Start Depth 
 SIDD.                      No:  Serv Intrp, DD 
 SINC.deg                68.29:  Inc, Start 
 SPPA.psig             6000.00:  SPP Avg 
 SPPN.psig             4000.00:  SPP Min 
 SPPX.psig             6100.00:  SPP Max 
 STIM.      08.08.32 28-Apr-20:  Start Time 
 SVCS.                 DD, MWD:  Services 
 SVER.                    9.20:  Sperry Version 
 TDAT.m                1351.00:  Tot Depth Attmp 
 TDDF.                      No:  Trip for DD 
 TDLG.m                1351.00:  Tot Depth Loggd 
 TFF .                      No:  Trip for Fail 
 TQAA.f-kp               27.00:  Torque Abs Avg 
 TQAN.f-kp               20.00:  Torque Abs Min 
 TQAX.f-kp               30.00:  Torque Abs Max 
 TRRT.°/30m               0.60:  Turn Rotating 
 MRT .                    EWER:  Maximum Recorded Temperature 
 TTMX.degC               83.00:  Max Tool Temp 
 VS01.                90511138:  Virtual Str1 SN 
 VS02.                90524876:  Virtual Str2 SN 
 VS03.                90524872:  Virtual Str3 SN 
 VS04.                90502750:  Virtual Str4 SN 
 VS05.                12330984:  Virtual Str5 SN 
 WBMN.klb                 0.00:  WOB Min 
 WOBA.klb                15.00:  WOB Avg 
 WOBX.klb                20.00:  WOB Max 
 YP  .lhf2               31.00:  Yield Point 
~Curve Information Block
#MNEM.UNIT                 API CODE     Curve Description
#---------               -----------    ---------------------------
 TIME.HHMMSS            00 000 000 000:  GT Time & Date
 GTDEPTH.m              00 000 000 000:  GT Depth
 GTPQH.psia             00 000 000 000:  GT HR Quartz Pressure
 GTTQ.degC              00 000 000 000:  GT Quartz Temperature
 GTTN.NONE              00 000 000 000:  GT Test Number
 GTET.sec               00 000 000 000:  GT Elapsed Test Time
 GTTVD.m                00 000 000 000:  GT True Vertical Depth
#Other Information
#
#WARRANTY: Halliburton will use its best efforts to furnish customers with 
#accurate information and interpretations that are part of, and incident to, the services 
#provided.  However, Halliburton cannot and does not warrant the accuracy 
#or correctness of such information and interpretations.  Under no circumstances should any 
#such information or interpretation be relied upon as the sole basis for any drilling, 
#completion, production, or financial decision or any procedure involving any risk to the 
#safety of any drilling venture, drilling rig or its crew or any other third party.  The 
#Customer has full responsibility for all drilling, completion and production operation.  
#Halliburton makes no representations or warranties, either expressed or 
#implied, including, but not limited to, the implied warranties of merchantability or fitness 
#for a particular purpose, with respect to the services rendered.  In no event will 
#Halliburton be liable for failure to obtain any particular results or for 
#any damages, including, but not limited to, indirect, special or consequential damages, 
#resulting from the use of any information or interpretation provided by Halliburton.
#
~A           TIME           GTDEPTH  GTPQH  GTTQ  GTTN  GTET   GTTVD  
# ...
   15:02:26.411.03-May-2020 4553.48 5751.92 82.34 2.00  45.99 2472.52
   15:02:26.611.03-May-2020 4553.48 5751.92 82.34 2.00  46.18 2472.52
   15:02:26.811.03-May-2020 4553.48 5752.39 82.34 2.00  46.38 2472.52
   15:02:27.011.03-May-2020 4553.48 5752.80 82.34 2.00  46.58 2472.52
   15:02:27.211.03-May-2020 4553.48 5752.99 82.34 2.00  46.78 2472.52
   15:02:27.411.03-May-2020 4553.48 5753.70 82.34 2.00  46.98 2472.52
   15:02:27.611.03-May-2020 4553.48 5753.70 82.34 2.00  47.18 2472.52
   15:02:27.811.03-May-2020 4553.48 5753.44 82.34 2.00  47.38 2472.52
   15:02:28.011.03-May-2020 4553.48 5753.52 82.34 2.00  47.58 2472.52
   15:02:28.211.03-May-2020 4553.48 5754.60 82.34 2.00  47.78 2472.52
   15:02:28.411.03-May-2020 4553.48 5748.19 82.33 2.00  47.98 2472.52
   15:02:28.611.03-May-2020 4553.48 5748.19 82.33 2.00  48.18 2472.52
   15:02:28.811.03-May-2020 4553.48 5746.29 82.33 2.00  48.38 2472.52
   15:02:29.011.03-May-2020 4553.48 5747.38 82.33 2.00  48.58 2472.52
   15:02:29.211.03-May-2020 4553.48 5747.21 82.33 2.00  48.78 2472.52
   15:02:29.410.03-May-2020 4553.48 5745.52 82.33 2.00  48.98 2472.52
   15:02:29.610.03-May-2020 4553.48 5745.52 82.33 2.00  49.18 2472.52
   15:02:29.810.03-May-2020 4553.48 5537.97 82.33 2.00  49.38 2472.52
   15:02:30.010.03-May-2020 4553.48 5364.69 82.33 2.00  49.58 2472.52
   15:02:30.210.03-May-2020 4553.48 5059.37 82.33 2.00  49.78 2472.52
   15:02:30.410.03-May-2020 4553.48 4679.46 82.33 2.00  49.98 2472.52
   15:02:30.610.03-May-2020 4553.48 4679.46 82.33 2.00  50.18 2472.52
   15:02:30.810.03-May-2020 4553.48 3929.44 82.32 2.00  50.38 2472.52
   15:02:31.010.03-May-2020 4553.48 3797.08 82.32 2.00  50.58 2472.52
   15:02:31.210.03-May-2020 4553.48 3733.07 82.32 2.00  50.78 2472.52
   15:02:31.410.03-May-2020 4553.48 3700.36 82.32 2.00  50.98 2472.52
   15:02:31.610.03-May-2020 4553.48 3700.36 82.32 2.00  51.18 2472.52
   15:02:31.810.03-May-2020 4553.48 3658.39 82.32 2.00  51.38 2472.52
   15:02:32.010.03-May-2020 4553.48 3641.04 82.31 2.00  51.58 2472.52
   15:02:32.210.03-May-2020 4553.48 3623.68 82.31 2.00  51.78 2472.52
   15:02:32.410.03-May-2020 4553.48 3607.26 82.31 2.00  51.98 2472.52
   15:02:32.609.03-May-2020 4553.48 3607.26 82.31 2.00  52.18 2472.52
   15:02:32.809.03-May-2020 4553.48 3592.86 82.30 2.00  52.38 2472.52
   15:02:33.009.03-May-2020 4553.48 3577.74 82.30 2.00  52.58 2472.52
   15:02:33.209.03-May-2020 4553.48 3565.48 82.30 2.00  52.78 2472.52
   15:02:33.409.03-May-2020 4553.48 3559.22 82.30 2.00  52.98 2472.52
   15:02:33.609.03-May-2020 4553.48 3559.22 82.30 2.00  53.18 2472.52
   15:02:33.809.03-May-2020 4553.48 3548.21 82.29 2.00  53.38 2472.52
   15:02:34.009.03-May-2020 4553.48 3542.72 82.29 2.00  53.58 2472.52
   15:02:34.209.03-May-2020 4553.48 3535.92 82.29 2.00  53.78 2472.52
   15:02:34.409.03-May-2020 4553.48 3529.34 82.28 2.00  53.98 2472.52
   15:02:34.609.03-May-2020 4553.48 3529.34 82.28 2.00  54.18 2472.52
   15:02:34.809.03-May-2020 4553.48 3517.59 82.28 2.00  54.38 2472.52
   15:02:35.009.03-May-2020 4553.48 3512.05 82.28 2.00  54.58 2472.52
   15:02:35.209.03-May-2020 4553.48 3507.41 82.27 2.00  54.78 2472.52
   15:02:35.409.03-May-2020 4553.48 3502.70 82.27 2.00  54.98 2472.52
   15:02:35.608.03-May-2020 4553.48 3502.70 82.27 2.00  55.18 2472.52
   15:02:35.808.03-May-2020 4553.48 3496.28 82.27 2.00  55.38 2472.52
   15:02:36.008.03-May-2020 4553.48 3489.98 82.27 2.00  55.58 2472.52
   15:02:36.208.03-May-2020 4553.48 3488.37 82.26 2.00  55.78 2472.52
   15:02:36.408.03-May-2020 4553.48 3491.40 82.26 2.00  55.98 2472.52
   15:02:36.608.03-May-2020 4553.48 3491.40 82.26 2.00  56.18 2472.52
   15:02:36.808.03-May-2020 4553.48 3936.00 82.26 2.00  56.38 2472.52
   15:02:37.008.03-May-2020 4553.48 4029.98 82.26 2.00  56.58 2472.52
   15:02:37.208.03-May-2020 4553.48 4074.43 82.25 2.00  56.78 2472.52
   15:02:37.408.03-May-2020 4553.48 4096.81 82.25 2.00  56.98 2472.52
   15:02:37.608.03-May-2020 4553.48 4096.81 82.25 2.00  57.18 2472.52
   15:02:37.808.03-May-2020 4553.48 4113.37 82.25 2.00  57.38 2472.52
   15:02:38.008.03-May-2020 4553.48 4116.56 82.25 2.00  57.58 2472.52
   15:02:38.208.03-May-2020 4553.48 4118.33 82.25 2.00  57.78 2472.52
   15:02:38.408.03-May-2020 4553.48 4119.51 82.24 2.00  57.98 2472.52
   15:02:38.608.03-May-2020 4553.48 4119.51 82.24 2.00  58.18 2472.52
   15:02:38.807.03-May-2020 4553.48 4121.03 82.24 2.00  58.38 2472.52
   15:02:39.007.03-May-2020 4553.48 4118.49 82.24 2.00  58.58 2472.52
   15:02:39.207.03-May-2020 4553.48 4119.63 82.24 2.00  58.78 2472.52
   15:02:39.407.03-May-2020 4553.48 4121.13 82.24 2.00  58.98 2472.52
   15:02:39.607.03-May-2020 4553.48 4121.13 82.24 2.00  59.18 2472.52
   15:02:39.807.03-May-2020 4553.48 4121.73 82.24 2.00  59.38 2472.52
   15:02:40.007.03-May-2020 4553.48 4122.11 82.24 2.00  59.58 2472.52
   15:02:40.207.03-May-2020 4553.48 4122.41 82.24 2.00  59.78 2472.52
   15:02:40.407.03-May-2020 4553.48 4122.65 82.23 2.00  59.98 2472.52
   15:02:40.607.03-May-2020 4553.48 4122.65 82.23 2.00  60.18 2472.52
   15:02:40.807.03-May-2020 4553.48 4122.73 82.23 2.00  60.38 2472.52
   15:02:41.007.03-May-2020 4553.48 4122.57 82.23 2.00  60.58 2472.52
   15:02:41.207.03-May-2020 4553.48 4122.97 82.23 2.00  60.78 2472.52
   15:02:41.407.03-May-2020 4553.48 4123.10 82.23 2.00  60.98 2472.52
   15:02:41.607.03-May-2020 4553.48 4123.10 82.23 2.00  61.18 2472.52
   15:02:41.806.03-May-2020 4553.48 4123.27 82.23 2.00  61.38 2472.52
   15:02:42.006.03-May-2020 4553.48 4123.15 82.23 2.00  61.58 2472.52
   15:02:42.206.03-May-2020 4553.48 4123.59 82.23 2.00  61.78 2472.52
   15:02:42.406.03-May-2020 4553.48 4122.73 82.23 2.00  61.98 2472.52
   15:02:42.606.03-May-2020 4553.48 4123.18 82.23 2.00  62.18 2472.52
   15:02:42.806.03-May-2020 4553.48 4123.02 82.23 2.00  62.38 2472.52
   15:02:43.006.03-May-2020 4553.48 4123.47 82.23 2.00  62.58 2472.52
   15:02:43.206.03-May-2020 4553.48 4123.45 82.22 2.00  62.78 2472.52
   15:02:43.406.03-May-2020 4553.48 4123.32 82.22 2.00  62.98 2472.52
   15:02:43.606.03-May-2020 4553.48 4123.32 82.22 2.00  63.18 2472.52
   15:02:43.806.03-May-2020 4553.48 4123.50 82.22 2.00  63.38 2472.52
   15:02:44.006.03-May-2020 4553.48 4123.60 82.22 2.00  63.58 2472.52
   15:02:44.206.03-May-2020 4553.48 4123.63 82.22 2.00  63.78 2472.52
   15:02:44.406.03-May-2020 4553.48 4123.69 82.22 2.00  63.98 2472.52
   15:02:44.606.03-May-2020 4553.48 4123.69 82.22 2.00  64.18 2472.52
   15:02:44.805.03-May-2020 4553.48 4123.67 82.22 2.00  64.38 2472.52
   15:02:45.005.03-May-2020 4553.48 4123.73 82.22 2.00  64.58 2472.52
   15:02:45.205.03-May-2020 4553.48 4123.19 82.22 2.00  64.78 2472.52
   15:02:45.405.03-May-2020 4553.48 4123.22 82.22 2.00  64.98 2472.52
   15:02:45.605.03-May-2020 4553.48 4123.22 82.22 2.00  65.18 2472.52
   15:02:45.805.03-May-2020 4553.48 4123.69 82.22 2.00  65.38 2472.52
   15:02:46.005.03-May-2020 4553.48 4123.64 82.22 2.00  65.58 2472.52
   15:02:46.205.03-May-2020 4553.48 4123.66 82.21 2.00  65.78 2472.52
   15:02:46.405.03-May-2020 4553.48 4123.63 82.21 2.00  65.98 2472.52
   15:02:46.605.03-May-2020 4553.48 4123.63 82.21 2.00  66.18 2472.52
   15:02:46.805.03-May-2020 4553.48 4123.82 82.21 2.00  66.38 2472.52
   15:02:47.005.03-May-2020 4553.48 4123.87 82.21 2.00  66.58 2472.52
   15:02:47.205.03-May-2020 4553.48 4123.91 82.21 2.00  66.78 2472.52
   15:02:47.405.03-May-2020 4553.48 4123.81 82.21 2.00  66.98 2472.52
   15:02:47.605.03-May-2020 4553.48 4123.81 82.21 2.00  67.18 2472.52
   15:02:47.805.03-May-2020 4553.48 4123.38 82.21 2.00  67.38 2472.52
   15:02:48.004.03-May-2020 4553.48 4123.58 82.21 2.00  67.58 2472.52
   15:02:48.204.03-May-2020 4553.48 4123.82 82.21 2.00  67.78 2472.52
   15:02:48.404.03-May-2020 4553.48 4123.23 82.21 2.00  67.98 2472.52
   15:02:48.604.03-May-2020 4553.48 4123.23 82.21 2.00  68.18 2472.52
   15:02:48.804.03-May-2020 4553.48 4123.92 82.21 2.00  68.38 2472.52
   15:02:49.004.03-May-2020 4553.48 4123.07 82.21 2.00  68.58 2472.52
   15:02:49.204.03-May-2020 4553.48 4123.87 82.21 2.00  68.78 2472.52
