~Version Information
 VERS.                  2.0:   CWLS log ASCII Standard -VERSION 2.0
 WRAP.                   NO:   One line per depth step
~Well Information Block
#MNEM.UNIT     VALUE/NAME     DESCRIPTION
#---------     -----------    ---------------------------
 STRT.S             01:13:00 04-May-20: START TIME 01:13:00 04-May-20
 STOP.S             01:19:30 04-May-20: STOP TIME  01:19:30 04-May-20
 STEP.S                   0.00: STEP TIME
 NULL.                 -999.25: NULL VALUE
 DFWT.                        :  DIST FWL TEXT
 DFST.                        :  DIST FSL TEXT
 DMF .             Drill Floor:  DRILL MEAS FROM
 STIM.      03.00.00 25-Mar-20:  START TIME
 DATE.      00.00.00 19-May-20:  END TIME
 SPUD.               27-Aug-20:  SPUD DATE
 NREF.                    Grid:  NORTH REFERENCE
 HPTY.       Minimum Curvature:  HOLE POS TYPE
 DMOD.             Drill Model:  DRILL MOD DESC
 SVYD.                  Survey:  SURVEY DESC
 ILTD.               Lithology:  INTERP LTH DESC
 FTOP.          Formation Tops:  FORM TOPS DESC
 SON .        AZ-XX-0906252240:  JOB NUMBER
 RIG .             West Chirag:  RIG NAME
 PDAT.          Mean Sea Level:  PERMANENT DATUM
 FLD .                     ACG:  FIELD NAME
 CTRY.              Azerbaijan:  COUNTRY NAME
 WELL.                     J23:  WELL NAME
 SRVC.          Turan Drilling:  CONTRACTOR
 COMP.     BP Exploration (Caspian Sea) Ltd.:  COMPANY
 WTYP.                Deviated:  WELL TYPE
 MDS .        Operator Entered:  MAG DATA SOURCE
 UWI .                     N/A:  UNIQUE WELL IDENTIFIER
 API .                     N/A:  API NUMBER
 BASE.              Azerbaijan:  LOGGING EQUIPMENT BASE LOCATION
 REGN.                   EESSA:  REGION
 PROV.                    Baku:  PROVINCE
 STAT.                    Baku:  STATE NAME
 MWDS.                     N/A:  MWD SHOP
 JOBN.        AZ-XX-0906252240:  JOB TICKET NUMB
 DOE .                     N/A:  DOE NUMBER
 DCON.         Sperry Drilling:  DIRECTNL CONTR
 UNIT.                     N/A:  LOGGING EQUIPMENT ID
 CNTY.                        :  COUNTY
 LOC .                        :  LOCATION
 LMF .             Drill Floor:  LOG MEASURED FROM
 TVDS.m                  43.00:  TVDSS CORRECTN
 LATI.deg                40.13:  LATITUDE
 LONG.deg                51.22:  LONGITUDE
 WHNS.m                   9.43:  WELL HEAD N/S
 WHEW.m                  -8.91:  WELL HEAD E/W
 UTMX.m              519005.06:  UTM X
 UTMY.m             4443793.85:  UTM Y
 DFWL.m                   0.00:  DISTANCE FWL
 DFSL.m                   0.00:  DISTANCE FSL
 SDEP.m                 363.00:  START DEPTH
 TDD .m                5150.01:  TOTAL DEPTH (DRILLER)
 VSDR.deg               179.88:  VERT SEC DIRECT
 GVFD.g                   1.00:  GRAVITY FIELD
 MFLD.nT              50295.00:  MAGNETIC FIELD
 MDIP.deg                59.56:  MAGNETIC DIP
 MDEC.deg                 6.45:  MAGNETIC DECL
 GRDC.deg                 0.14:  GRID CORRECTION
 AZTC.deg                 6.31:  AZM TOTAL CORR
 EPD .m                   0.00:  ELEVATION
 EGL .m                   0.00:  GROUND ELEVATION
 WDMS.m                 169.80:  WD ELEV
 APD .m                  43.00:  DEPTH ABOVE PD
 DEP .m                 354.17:  DEPTH
 AGAP.m                  43.00:  AIR GAP
 VSEW.m                  -8.91:  VERT SEC E/W
 VSNS.m                   9.43:  VERT SEC N/S
 EKB .m                   0.00:  KB ELEVATION
 EDF .m                  43.00:  DF ELEVATION
 TDL .m                1351.00:  TOTAL DEPTH (LOGGER)
 VSC .                       0:  VS TO CLOSURE
 MAGU.                 1850802:  MAGUTM CHECKSUM
~Parameter Information Block
#MNEM.UNIT       Value        Description
#---------     -----------    ---------------------------
 AV  .mps                 1.00:  Ann Velocity 
 AVMX.mps                 2.40:  Max Ann Veloc 
 AZIF.deg               148.96:  Azm, Final 
 BHAT.        Rotary Steerable:  BHA Type 
 BROT.°/30m               0.04:  Build Rotating 
 BS  .in                 12.25:  Bit Size 
 BSZ .in                 12.25:  Bit Size 
 BTPL.psig              814.00:  Bit Press Loss 
 TCS .hr                106.00:  Time Ciculation Ended 
 CV  .mps                 2.47:  Crit Velocity 
 CVMX.mps                 2.64:  Max Crit Veloc 
 DD1 .          Rashad Habibov:  Direct Drillr 1 
 DD2 .         Rasim Ibrahimov:  Direct Drillr 2 
 DDSV.                 iCruise:  DD Service 
 DEFF.%                 100.00:  % Det Eff 
 DLRX.°/30m               0.70:  Dogleg Rot Max 
 DLSO.°/30m               3.00:  Dogleg Oriented 
 DLSX.°/30m               4.55:  Dogleg Str Max 
 DRET.      08.08.32 02-May-20:  Drill End Time 
 DRST.      08.08.32 28-Apr-20:  Drill Start Tim 
 DTIM.hr                 60.00:  Time Drilling 
 EDEP.m                4761.01:  End Depth 
 ENG1.           Eldar Hajiyev:  Engineer 1 
 ENG2.        Marcelo Sandoval:  Engineer 2 
 ETIM.      23.23.07 05-May-20:  End Time 
 FLOI.gpm              1200.00:  Flow In 
 FLON.gpm               900.00:  Flow In Min 
 FLOS.cptm                0.00:  Fluid Loss 
 FLOX.gpm              1200.00:  Flow In Max 
 HFLO.                      No:  High Flow 
 HPRE.                      No:  High Pressure 
 HTEM.                      No:  High Temp 
 HYDO.m                   1.80:  Hydro Offset 
 IFIN.deg                68.17:  Inc, Final 
 IMAX.deg                74.61:  Inc Max 
 IMIN.deg                68.15:  Inc Min 
 IMND.m                4317.87:  Inc Min Depth 
 IMXD.m                4714.01:  Inc Max Depth 
 LETM.      08.08.32 02-May-20:  Log End Time 
 LOST.hr                     2:  Lost Rig Time 
 LSTM.      08.08.32 28-Apr-20:  Log Start Time 
 MDCL.ppm             41000.00:  Mud Chlorides 
 MDES.     Inversion Oil/Synthetic:  Mud Desc 
 DFD .sg                  1.58:  Mud Density 
 MDMN.sg                  1.58:  Dens Mud Min 
 MDMX.sg                  1.58:  Dens Mud Max 
 MOIL.                      71:  Run Mud Oil % 
 MOWR.                   71:29:  Run Mud OWR 
 MSND.                     0.1:  Run Mud Sand % 
 MSOL.                      23:  Run Mud Solids% 
 DFV .spqt               82.00:  Mud Viscosity 
 MWOD.in                  8.00:  MWD Tool OD 
 MWSI.                     Yes:  Serv Intrp, MWD 
 OTIM.hr                125.00:  Time Operating 
 PMAX.psia             6129.00:  Press Op, Max 
 PV  .cP                 32.00:  Mud PV 
 RUN .                     800:  Run Number 
 ROPA.m/hr               30.00:  ROP Avg 
 ROPN.m/hr               10.00:  ROP Min 
 ROPX.m/hr               40.00:  ROP Max 
 RPMA.rpm               140.00:  RPM Surface Avg 
 RPMN.rpm                80.00:  RPM Surface Min 
 RPMX.rpm               140.00:  RPM Surface Max 
 RRUN.                    L503:  Rig Run Number 
 RTIM.hr                  2.00:  Time Reaming 
 SAZI.deg               184.23:  Azm, Start 
 SDEP.m                3410.01:  Start Depth 
 SIDD.                      No:  Serv Intrp, DD 
 SINC.deg                68.29:  Inc, Start 
 SPPA.psig             6000.00:  SPP Avg 
 SPPN.psig             4000.00:  SPP Min 
 SPPX.psig             6100.00:  SPP Max 
 STIM.      08.08.32 28-Apr-20:  Start Time 
 SVCS.                 DD, MWD:  Services 
 SVER.                    9.20:  Sperry Version 
 TDAT.m                1351.00:  Tot Depth Attmp 
 TDDF.                      No:  Trip for DD 
 TDLG.m                1351.00:  Tot Depth Loggd 
 TFF .                      No:  Trip for Fail 
 TQAA.f-kp               27.00:  Torque Abs Avg 
 TQAN.f-kp               20.00:  Torque Abs Min 
 TQAX.f-kp               30.00:  Torque Abs Max 
 TRRT.°/30m               0.60:  Turn Rotating 
 MRT .                    EWER:  Maximum Recorded Temperature 
 TTMX.degC               83.00:  Max Tool Temp 
 VS01.                90511138:  Virtual Str1 SN 
 VS02.                90524876:  Virtual Str2 SN 
 VS03.                90524872:  Virtual Str3 SN 
 VS04.                90502750:  Virtual Str4 SN 
 VS05.                12330984:  Virtual Str5 SN 
 WBMN.klb                 0.00:  WOB Min 
 WOBA.klb                15.00:  WOB Avg 
 WOBX.klb                20.00:  WOB Max 
 YP  .lhf2               31.00:  Yield Point 
~Curve Information Block
#MNEM.UNIT                 API CODE     Curve Description
#---------               -----------    ---------------------------
 TIME.HHMMSS            00 000 000 000:  GT Time & Date
 GTDEPTH.m              00 000 000 000:  GT Depth
 GTPQH.psia             00 000 000 000:  GT HR Quartz Pressure
 GTTQ.degC              00 000 000 000:  GT Quartz Temperature
 GTTN.NONE              00 000 000 000:  GT Test Number
 GTET.sec               00 000 000 000:  GT Elapsed Test Time
 GTTVD.m                00 000 000 000:  GT True Vertical Depth
#Other Information
#
#WARRANTY: Halliburton will use its best efforts to furnish customers with 
#accurate information and interpretations that are part of, and incident to, the services 
#provided.  However, Halliburton cannot and does not warrant the accuracy 
#or correctness of such information and interpretations.  Under no circumstances should any 
#such information or interpretation be relied upon as the sole basis for any drilling, 
#completion, production, or financial decision or any procedure involving any risk to the 
#safety of any drilling venture, drilling rig or its crew or any other third party.  The 
#Customer has full responsibility for all drilling, completion and production operation.  
#Halliburton makes no representations or warranties, either expressed or 
#implied, including, but not limited to, the implied warranties of merchantability or fitness 
#for a particular purpose, with respect to the services rendered.  In no event will 
#Halliburton be liable for failure to obtain any particular results or for 
#any damages, including, but not limited to, indirect, special or consequential damages, 
#resulting from the use of any information or interpretation provided by Halliburton.
#
~A           TIME           GTDEPTH  GTPQH  GTTQ  GTTN  GTET   GTTVD  
# ...
   01:14:55.540.04-May-2020 4660.50 3927.15 76.25 5.00 115.01 2503.99
   01:14:55.740.04-May-2020 4660.50 3927.15 76.25 5.00 115.21 2503.99
   01:14:55.940.04-May-2020 4660.50 3930.43 76.25 5.00 115.41 2503.99
   01:14:56.140.04-May-2020 4660.50 3932.12 76.25 5.00 115.61 2503.99
   01:14:56.340.04-May-2020 4660.50 3934.29 76.25 5.00 115.81 2503.99
   01:14:56.540.04-May-2020 4660.50 3934.65 76.25 5.00 116.01 2503.99
   01:14:56.740.04-May-2020 4660.50 3934.65 76.25 5.00 116.21 2503.99
   01:14:56.940.04-May-2020 4660.50 3936.25 76.25 5.00 116.41 2503.99
   01:14:57.140.04-May-2020 4660.50 3940.06 76.25 5.00 116.61 2503.99
   01:14:57.340.04-May-2020 4660.50 3941.40 76.25 5.00 116.81 2503.99
   01:14:57.540.04-May-2020 4660.50 3943.31 76.25 5.00 117.01 2503.99
   01:14:57.740.04-May-2020 4660.50 3943.31 76.25 5.00 117.21 2503.99
   01:14:57.940.04-May-2020 4660.50 3946.16 76.25 5.00 117.41 2503.99
   01:14:58.140.04-May-2020 4660.50 3948.03 76.25 5.00 117.61 2503.99
   01:14:58.340.04-May-2020 4660.50 3950.18 76.25 5.00 117.81 2503.99
   01:14:58.540.04-May-2020 4660.50 3951.17 76.25 5.00 118.01 2503.99
   01:14:58.740.04-May-2020 4660.50 3951.17 76.25 5.00 118.21 2503.99
   01:14:58.940.04-May-2020 4660.50 3954.25 76.25 5.00 118.41 2503.99
   01:14:59.140.04-May-2020 4660.50 3956.35 76.25 5.00 118.61 2503.99
   01:14:59.340.04-May-2020 4660.50 3957.21 76.25 5.00 118.81 2503.99
   01:14:59.540.04-May-2020 4660.50 3958.64 76.25 5.00 119.01 2503.99
   01:14:59.740.04-May-2020 4660.50 3958.64 76.25 5.00 119.21 2503.99
   01:14:59.940.04-May-2020 4660.50 3962.19 76.24 5.00 119.41 2503.99
   01:15:00.140.04-May-2020 4660.50 3963.60 76.24 5.00 119.61 2503.99
   01:15:00.340.04-May-2020 4660.50 3965.20 76.24 5.00 119.81 2503.99
   01:15:00.540.04-May-2020 4660.50 3966.88 76.24 5.00 120.01 2503.99
   01:15:00.740.04-May-2020 4660.50 3966.88 76.24 5.00 120.21 2503.99
   01:15:00.940.04-May-2020 4660.50 3970.19 76.24 5.00 120.41 2503.99
   01:15:01.140.04-May-2020 4660.50 3971.74 76.24 5.00 120.61 2503.99
   01:15:01.340.04-May-2020 4660.50 3973.46 76.24 5.00 120.81 2503.99
   01:15:01.540.04-May-2020 4660.50 3975.01 76.24 5.00 121.01 2503.99
   01:15:01.740.04-May-2020 4660.50 3975.01 76.24 5.00 121.21 2503.99
   01:15:01.940.04-May-2020 4660.50 3978.66 76.24 5.00 121.41 2503.99
   01:15:02.140.04-May-2020 4660.50 3979.46 76.24 5.00 121.61 2503.99
   01:15:02.340.04-May-2020 4660.50 3981.14 76.24 5.00 121.81 2503.99
   01:15:02.540.04-May-2020 4660.50 3982.64 76.24 5.00 122.01 2503.99
   01:15:02.740.04-May-2020 4660.50 3982.64 76.24 5.00 122.21 2503.99
   01:15:02.940.04-May-2020 4660.50 3985.74 76.24 5.00 122.41 2503.99
   01:15:03.140.04-May-2020 4660.50 3987.33 76.24 5.00 122.61 2503.99
   01:15:03.340.04-May-2020 4660.50 3988.93 76.24 5.00 122.81 2503.99
   01:15:03.540.04-May-2020 4660.50 3990.48 76.24 5.00 123.01 2503.99
   01:15:03.740.04-May-2020 4660.50 3990.48 76.24 5.00 123.21 2503.99
   01:15:03.940.04-May-2020 4660.50 3993.49 76.24 5.00 123.41 2503.99
   01:15:04.140.04-May-2020 4660.50 3994.95 76.24 5.00 123.61 2503.99
   01:15:04.341.04-May-2020 4660.50 3996.48 76.23 5.00 123.81 2503.99
   01:15:04.541.04-May-2020 4660.50 3998.29 76.23 5.00 124.01 2503.99
   01:15:04.741.04-May-2020 4660.50 3998.98 76.23 5.00 124.21 2503.99
   01:15:04.941.04-May-2020 4660.50 4000.39 76.23 5.00 124.41 2503.99
   01:15:05.141.04-May-2020 4660.50 4002.69 76.23 5.00 124.61 2503.99
   01:15:05.341.04-May-2020 4660.50 4003.76 76.23 5.00 124.81 2503.99
   01:15:05.541.04-May-2020 4660.50 4005.30 76.23 5.00 125.01 2503.99
   01:15:05.741.04-May-2020 4660.50 4005.30 76.23 5.00 125.21 2503.99
   01:15:05.941.04-May-2020 4660.50 4009.01 76.23 5.00 125.41 2503.99
   01:15:06.141.04-May-2020 4660.50 4010.16 76.23 5.00 125.61 2503.99
   01:15:06.341.04-May-2020 4660.50 4011.70 76.23 5.00 125.81 2503.99
   01:15:06.541.04-May-2020 4660.50 4013.35 76.23 5.00 126.01 2503.99
   01:15:06.741.04-May-2020 4660.50 4013.35 76.23 5.00 126.21 2503.99
   01:15:06.941.04-May-2020 4660.50 4016.19 76.23 5.00 126.41 2503.99
   01:15:07.141.04-May-2020 4660.50 4017.57 76.23 5.00 126.61 2503.99
   01:15:07.341.04-May-2020 4660.50 4019.19 76.23 5.00 126.81 2503.99
   01:15:07.541.04-May-2020 4660.50 4021.26 76.23 5.00 127.01 2503.99
   01:15:07.741.04-May-2020 4660.50 4021.26 76.23 5.00 127.21 2503.99
   01:15:07.941.04-May-2020 4660.50 4023.07 76.23 5.00 127.41 2503.99
   01:15:08.141.04-May-2020 4660.50 4024.67 76.23 5.00 127.61 2503.99
   01:15:08.341.04-May-2020 4660.50 4026.39 76.23 5.00 127.81 2503.99
   01:15:08.541.04-May-2020 4660.50 4027.69 76.23 5.00 128.01 2503.99
   01:15:08.741.04-May-2020 4660.50 4027.69 76.23 5.00 128.21 2503.99
   01:15:08.941.04-May-2020 4660.50 4030.84 76.22 5.00 128.41 2503.99
   01:15:09.141.04-May-2020 4660.50 4032.30 76.22 5.00 128.61 2503.99
   01:15:09.341.04-May-2020 4660.50 4033.71 76.22 5.00 128.81 2503.99
   01:15:09.541.04-May-2020 4660.50 4035.17 76.22 5.00 129.01 2503.99
   01:15:09.741.04-May-2020 4660.50 4035.17 76.22 5.00 129.21 2503.99
   01:15:09.941.04-May-2020 4660.50 4038.39 76.22 5.00 129.41 2503.99
   01:15:10.141.04-May-2020 4660.50 4039.81 76.22 5.00 129.61 2503.99
   01:15:10.341.04-May-2020 4660.50 4041.18 76.22 5.00 129.81 2503.99
   01:15:10.541.04-May-2020 4660.50 4042.69 76.22 5.00 130.01 2503.99
   01:15:10.741.04-May-2020 4660.50 4042.69 76.22 5.00 130.21 2503.99
   01:15:10.941.04-May-2020 4660.50 4044.98 76.22 5.00 130.41 2503.99
   01:15:11.141.04-May-2020 4660.50 4046.29 76.22 5.00 130.61 2503.99
   01:15:11.341.04-May-2020 4660.50 4048.00 76.22 5.00 130.81 2503.99
   01:15:11.541.04-May-2020 4660.50 4049.22 76.22 5.00 131.01 2503.99
   01:15:11.741.04-May-2020 4660.50 4049.22 76.22 5.00 131.21 2503.99
   01:15:11.941.04-May-2020 4660.50 4052.03 76.22 5.00 131.41 2503.99
   01:15:12.141.04-May-2020 4660.50 4053.44 76.22 5.00 131.61 2503.99
   01:15:12.341.04-May-2020 4660.50 4054.74 76.22 5.00 131.81 2503.99
   01:15:12.541.04-May-2020 4660.50 4056.12 76.22 5.00 132.01 2503.99
   01:15:12.741.04-May-2020 4660.50 4056.12 76.22 5.00 132.21 2503.99
   01:15:12.941.04-May-2020 4660.50 4059.45 76.22 5.00 132.41 2503.99
   01:15:13.141.04-May-2020 4660.50 4059.65 76.22 5.00 132.61 2503.99
   01:15:13.341.04-May-2020 4660.50 4061.03 76.21 5.00 132.81 2503.99
   01:15:13.541.04-May-2020 4660.50 4062.89 76.21 5.00 133.01 2503.99
   01:15:13.741.04-May-2020 4660.50 4062.89 76.21 5.00 133.21 2503.99
   01:15:13.941.04-May-2020 4660.50 4065.38 76.21 5.00 133.41 2503.99
   01:15:14.141.04-May-2020 4660.50 4066.63 76.21 5.00 133.61 2503.99
   01:15:14.341.04-May-2020 4660.50 4068.24 76.21 5.00 133.81 2503.99
   01:15:14.541.04-May-2020 4660.50 4069.86 76.21 5.00 134.01 2503.99
   01:15:14.741.04-May-2020 4660.50 4069.86 76.21 5.00 134.21 2503.99
   01:15:14.941.04-May-2020 4660.50 4071.94 76.21 5.00 134.41 2503.99
   01:15:15.141.04-May-2020 4660.50 4073.25 76.21 5.00 134.61 2503.99
   01:15:15.341.04-May-2020 4660.50 4075.08 76.21 5.00 134.81 2503.99
   01:15:15.542.04-May-2020 4660.50 4075.66 76.21 5.00 135.01 2503.99
   01:15:15.742.04-May-2020 4660.50 4075.66 76.21 5.00 135.21 2503.99
   01:15:15.942.04-May-2020 4660.50 4078.80 76.21 5.00 135.41 2503.99
   01:15:16.142.04-May-2020 4660.50 4080.11 76.21 5.00 135.61 2503.99
   01:15:16.342.04-May-2020 4660.50 4081.33 76.21 5.00 135.81 2503.99
   01:15:16.542.04-May-2020 4660.50 4083.14 76.21 5.00 136.01 2503.99
   01:15:16.742.04-May-2020 4660.50 4083.14 76.21 5.00 136.21 2503.99
   01:15:16.942.04-May-2020 4660.50 4085.47 76.21 5.00 136.41 2503.99
   01:15:17.142.04-May-2020 4660.50 4088.81 76.21 5.00 136.61 2503.99
   01:15:17.342.04-May-2020 4660.50 4090.78 76.21 5.00 136.81 2503.99
   01:15:17.542.04-May-2020 4660.50 4092.75 76.21 5.00 137.01 2503.99
   01:15:17.742.04-May-2020 4660.50 4092.75 76.21 5.00 137.21 2503.99
   01:15:17.942.04-May-2020 4660.50 4096.27 76.20 5.00 137.41 2503.99
   01:15:18.142.04-May-2020 4660.50 4098.18 76.20 5.00 137.61 2503.99
   01:15:18.342.04-May-2020 4660.50 4100.15 76.20 5.00 137.81 2503.99
