~Version Information
 VERS.                  2.0:   CWLS log ASCII Standard -VERSION 2.0
 WRAP.                   NO:   One line per depth step
~Well Information Block
#MNEM.UNIT     VALUE/NAME     DESCRIPTION
#---------     -----------    ---------------------------
 STRT.S             15:01:40 03-May-20: START TIME 15:01:40 03-May-20
 STOP.S             15:08:15 03-May-20: STOP TIME  15:08:15 03-May-20
 STEP.S                   0.00: STEP TIME
 NULL.                 -999.25: NULL VALUE
 DFWT.                        :  DIST FWL TEXT
 DFST.                        :  DIST FSL TEXT
 DMF .             Drill Floor:  DRILL MEAS FROM
 STIM.      03.00.00 25-Mar-20:  START TIME
 DATE.      00.00.00 19-May-20:  END TIME
 SPUD.               27-Aug-20:  SPUD DATE
 NREF.                    Grid:  NORTH REFERENCE
 HPTY.       Minimum Curvature:  HOLE POS TYPE
 DMOD.             Drill Model:  DRILL MOD DESC
 SVYD.                  Survey:  SURVEY DESC
 ILTD.               Lithology:  INTERP LTH DESC
 FTOP.          Formation Tops:  FORM TOPS DESC
 SON .        AZ-XX-0906252240:  JOB NUMBER
 RIG .             West Chirag:  RIG NAME
 PDAT.          Mean Sea Level:  PERMANENT DATUM
 FLD .                     ACG:  FIELD NAME
 CTRY.              Azerbaijan:  COUNTRY NAME
 WELL.                     J23:  WELL NAME
 SRVC.          Turan Drilling:  CONTRACTOR
 COMP.     BP Exploration (Caspian Sea) Ltd.:  COMPANY
 WTYP.                Deviated:  WELL TYPE
 MDS .        Operator Entered:  MAG DATA SOURCE
 UWI .                     N/A:  UNIQUE WELL IDENTIFIER
 API .                     N/A:  API NUMBER
 BASE.              Azerbaijan:  LOGGING EQUIPMENT BASE LOCATION
 REGN.                   EESSA:  REGION
 PROV.                    Baku:  PROVINCE
 STAT.                    Baku:  STATE NAME
 MWDS.                     N/A:  MWD SHOP
 JOBN.        AZ-XX-0906252240:  JOB TICKET NUMB
 DOE .                     N/A:  DOE NUMBER
 DCON.         Sperry Drilling:  DIRECTNL CONTR
 UNIT.                     N/A:  LOGGING EQUIPMENT ID
 CNTY.                        :  COUNTY
 LOC .                        :  LOCATION
 LMF .             Drill Floor:  LOG MEASURED FROM
 TVDS.m                  43.00:  TVDSS CORRECTN
 LATI.deg                40.13:  LATITUDE
 LONG.deg                51.22:  LONGITUDE
 WHNS.m                   9.43:  WELL HEAD N/S
 WHEW.m                  -8.91:  WELL HEAD E/W
 UTMX.m              519005.06:  UTM X
 UTMY.m             4443793.85:  UTM Y
 DFWL.m                   0.00:  DISTANCE FWL
 DFSL.m                   0.00:  DISTANCE FSL
 SDEP.m                 363.00:  START DEPTH
 TDD .m                5150.01:  TOTAL DEPTH (DRILLER)
 VSDR.deg               179.88:  VERT SEC DIRECT
 GVFD.g                   1.00:  GRAVITY FIELD
 MFLD.nT              50295.00:  MAGNETIC FIELD
 MDIP.deg                59.56:  MAGNETIC DIP
 MDEC.deg                 6.45:  MAGNETIC DECL
 GRDC.deg                 0.14:  GRID CORRECTION
 AZTC.deg                 6.31:  AZM TOTAL CORR
 EPD .m                   0.00:  ELEVATION
 EGL .m                   0.00:  GROUND ELEVATION
 WDMS.m                 169.80:  WD ELEV
 APD .m                  43.00:  DEPTH ABOVE PD
 DEP .m                 354.17:  DEPTH
 AGAP.m                  43.00:  AIR GAP
 VSEW.m                  -8.91:  VERT SEC E/W
 VSNS.m                   9.43:  VERT SEC N/S
 EKB .m                   0.00:  KB ELEVATION
 EDF .m                  43.00:  DF ELEVATION
 TDL .m                1351.00:  TOTAL DEPTH (LOGGER)
 VSC .                       0:  VS TO CLOSURE
 MAGU.                 1850802:  MAGUTM CHECKSUM
~Parameter Information Block
#MNEM.UNIT       Value        Description
#---------     -----------    ---------------------------
 AV  .mps                 1.00:  Ann Velocity 
 AVMX.mps                 2.40:  Max Ann Veloc 
 AZIF.deg               148.96:  Azm, Final 
 BHAT.        Rotary Steerable:  BHA Type 
 BROT.°/30m               0.04:  Build Rotating 
 BS  .in                 12.25:  Bit Size 
 BSZ .in                 12.25:  Bit Size 
 BTPL.psig              814.00:  Bit Press Loss 
 TCS .hr                106.00:  Time Ciculation Ended 
 CV  .mps                 2.47:  Crit Velocity 
 CVMX.mps                 2.64:  Max Crit Veloc 
 DD1 .          Rashad Habibov:  Direct Drillr 1 
 DD2 .         Rasim Ibrahimov:  Direct Drillr 2 
 DDSV.                 iCruise:  DD Service 
 DEFF.%                 100.00:  % Det Eff 
 DLRX.°/30m               0.70:  Dogleg Rot Max 
 DLSO.°/30m               3.00:  Dogleg Oriented 
 DLSX.°/30m               4.55:  Dogleg Str Max 
 DRET.      08.08.32 02-May-20:  Drill End Time 
 DRST.      08.08.32 28-Apr-20:  Drill Start Tim 
 DTIM.hr                 60.00:  Time Drilling 
 EDEP.m                4761.01:  End Depth 
 ENG1.           Eldar Hajiyev:  Engineer 1 
 ENG2.        Marcelo Sandoval:  Engineer 2 
 ETIM.      23.23.07 05-May-20:  End Time 
 FLOI.gpm              1200.00:  Flow In 
 FLON.gpm               900.00:  Flow In Min 
 FLOS.cptm                0.00:  Fluid Loss 
 FLOX.gpm              1200.00:  Flow In Max 
 HFLO.                      No:  High Flow 
 HPRE.                      No:  High Pressure 
 HTEM.                      No:  High Temp 
 HYDO.m                   1.80:  Hydro Offset 
 IFIN.deg                68.17:  Inc, Final 
 IMAX.deg                74.61:  Inc Max 
 IMIN.deg                68.15:  Inc Min 
 IMND.m                4317.87:  Inc Min Depth 
 IMXD.m                4714.01:  Inc Max Depth 
 LETM.      08.08.32 02-May-20:  Log End Time 
 LOST.hr                     2:  Lost Rig Time 
 LSTM.      08.08.32 28-Apr-20:  Log Start Time 
 MDCL.ppm             41000.00:  Mud Chlorides 
 MDES.     Inversion Oil/Synthetic:  Mud Desc 
 DFD .sg                  1.58:  Mud Density 
 MDMN.sg                  1.58:  Dens Mud Min 
 MDMX.sg                  1.58:  Dens Mud Max 
 MOIL.                      71:  Run Mud Oil % 
 MOWR.                   71:29:  Run Mud OWR 
 MSND.                     0.1:  Run Mud Sand % 
 MSOL.                      23:  Run Mud Solids% 
 DFV .spqt               82.00:  Mud Viscosity 
 MWOD.in                  8.00:  MWD Tool OD 
 MWSI.                     Yes:  Serv Intrp, MWD 
 OTIM.hr                125.00:  Time Operating 
 PMAX.psia             6129.00:  Press Op, Max 
 PV  .cP                 32.00:  Mud PV 
 RUN .                     800:  Run Number 
 ROPA.m/hr               30.00:  ROP Avg 
 ROPN.m/hr               10.00:  ROP Min 
 ROPX.m/hr               40.00:  ROP Max 
 RPMA.rpm               140.00:  RPM Surface Avg 
 RPMN.rpm                80.00:  RPM Surface Min 
 RPMX.rpm               140.00:  RPM Surface Max 
 RRUN.                    L503:  Rig Run Number 
 RTIM.hr                  2.00:  Time Reaming 
 SAZI.deg               184.23:  Azm, Start 
 SDEP.m                3410.01:  Start Depth 
 SIDD.                      No:  Serv Intrp, DD 
 SINC.deg                68.29:  Inc, Start 
 SPPA.psig             6000.00:  SPP Avg 
 SPPN.psig             4000.00:  SPP Min 
 SPPX.psig             6100.00:  SPP Max 
 STIM.      08.08.32 28-Apr-20:  Start Time 
 SVCS.                 DD, MWD:  Services 
 SVER.                    9.20:  Sperry Version 
 TDAT.m                1351.00:  Tot Depth Attmp 
 TDDF.                      No:  Trip for DD 
 TDLG.m                1351.00:  Tot Depth Loggd 
 TFF .                      No:  Trip for Fail 
 TQAA.f-kp               27.00:  Torque Abs Avg 
 TQAN.f-kp               20.00:  Torque Abs Min 
 TQAX.f-kp               30.00:  Torque Abs Max 
 TRRT.°/30m               0.60:  Turn Rotating 
 MRT .                    EWER:  Maximum Recorded Temperature 
 TTMX.degC               83.00:  Max Tool Temp 
 VS01.                90511138:  Virtual Str1 SN 
 VS02.                90524876:  Virtual Str2 SN 
 VS03.                90524872:  Virtual Str3 SN 
 VS04.                90502750:  Virtual Str4 SN 
 VS05.                12330984:  Virtual Str5 SN 
 WBMN.klb                 0.00:  WOB Min 
 WOBA.klb                15.00:  WOB Avg 
 WOBX.klb                20.00:  WOB Max 
 YP  .lhf2               31.00:  Yield Point 
~Curve Information Block
#MNEM.UNIT                 API CODE     Curve Description
#---------               -----------    ---------------------------
 TIME.HHMMSS            00 000 000 000:  GT Time & Date
 GTDEPTH.m              00 000 000 000:  GT Depth
 GTPQH.psia             00 000 000 000:  GT HR Quartz Pressure
 GTTQ.degC              00 000 000 000:  GT Quartz Temperature
 GTTN.NONE              00 000 000 000:  GT Test Number
 GTET.sec               00 000 000 000:  GT Elapsed Test Time
 GTTVD.m                00 000 000 000:  GT True Vertical Depth
#Other Information
#
#WARRANTY: Halliburton will use its best efforts to furnish customers with 
#accurate information and interpretations that are part of, and incident to, the services 
#provided.  However, Halliburton cannot and does not warrant the accuracy 
#or correctness of such information and interpretations.  Under no circumstances should any 
#such information or interpretation be relied upon as the sole basis for any drilling, 
#completion, production, or financial decision or any procedure involving any risk to the 
#safety of any drilling venture, drilling rig or its crew or any other third party.  The 
#Customer has full responsibility for all drilling, completion and production operation.  
#Halliburton makes no representations or warranties, either expressed or 
#implied, including, but not limited to, the implied warranties of merchantability or fitness 
#for a particular purpose, with respect to the services rendered.  In no event will 
#Halliburton be liable for failure to obtain any particular results or for 
#any damages, including, but not limited to, indirect, special or consequential damages, 
#resulting from the use of any information or interpretation provided by Halliburton.
#
~A           TIME           GTDEPTH  GTPQH  GTTQ  GTTN  GTET   GTTVD  
# ...
   15:02:49.404.03-May-2020 4553.48 4123.65 82.20 2.00  68.98 2472.52
   15:02:49.604.03-May-2020 4553.48 4123.65 82.20 2.00  69.18 2472.52
   15:02:49.804.03-May-2020 4553.48 4123.03 82.20 2.00  69.38 2472.52
   15:02:50.004.03-May-2020 4553.48 4123.80 82.20 2.00  69.58 2472.52
   15:02:50.204.03-May-2020 4553.48 4123.82 82.20 2.00  69.78 2472.52
   15:02:50.404.03-May-2020 4553.48 4124.25 82.20 2.00  69.98 2472.52
   15:02:50.604.03-May-2020 4553.48 4124.25 82.20 2.00  70.18 2472.52
   15:02:50.804.03-May-2020 4553.48 4123.41 82.20 2.00  70.38 2472.52
   15:02:51.003.03-May-2020 4553.48 4124.12 82.20 2.00  70.58 2472.52
   15:02:51.203.03-May-2020 4553.48 4123.92 82.20 2.00  70.78 2472.52
   15:02:51.403.03-May-2020 4553.48 4124.22 82.20 2.00  70.98 2472.52
   15:02:51.603.03-May-2020 4553.48 4124.22 82.20 2.00  71.18 2472.52
   15:02:51.803.03-May-2020 4553.48 4123.97 82.20 2.00  71.38 2472.52
   15:02:52.003.03-May-2020 4553.48 4123.97 82.20 2.00  71.58 2472.52
   15:02:52.203.03-May-2020 4553.48 4124.03 82.20 2.00  71.78 2472.52
   15:02:52.403.03-May-2020 4553.48 4124.08 82.19 2.00  71.98 2472.52
   15:02:52.603.03-May-2020 4553.48 4124.08 82.19 2.00  72.18 2472.52
   15:02:52.803.03-May-2020 4553.48 4124.04 82.19 2.00  72.38 2472.52
   15:02:53.003.03-May-2020 4553.48 4124.04 82.19 2.00  72.58 2472.52
   15:02:53.203.03-May-2020 4553.48 4124.14 82.19 2.00  72.78 2472.52
   15:02:53.403.03-May-2020 4553.48 4123.82 82.19 2.00  72.98 2472.52
   15:02:53.603.03-May-2020 4553.48 4123.82 82.19 2.00  73.18 2472.52
   15:02:53.803.03-May-2020 4553.48 4123.77 82.19 2.00  73.38 2472.52
   15:02:54.002.03-May-2020 4553.48 4124.11 82.19 2.00  73.58 2472.52
   15:02:54.202.03-May-2020 4553.48 4124.07 82.19 2.00  73.78 2472.52
   15:02:54.402.03-May-2020 4553.48 4124.03 82.19 2.00  73.98 2472.52
   15:02:54.602.03-May-2020 4553.48 4124.03 82.19 2.00  74.18 2472.52
   15:02:54.802.03-May-2020 4553.48 4124.08 82.19 2.00  74.38 2472.52
   15:02:55.002.03-May-2020 4553.48 4124.06 82.19 2.00  74.58 2472.52
   15:02:55.202.03-May-2020 4553.48 4123.97 82.18 2.00  74.78 2472.52
   15:02:55.402.03-May-2020 4553.48 4124.11 82.18 2.00  74.98 2472.52
   15:02:55.602.03-May-2020 4553.48 4124.11 82.18 2.00  75.18 2472.52
   15:02:55.802.03-May-2020 4553.48 4124.17 82.18 2.00  75.38 2472.52
   15:02:56.002.03-May-2020 4553.48 4123.74 82.18 2.00  75.58 2472.52
   15:02:56.202.03-May-2020 4553.48 4124.28 82.18 2.00  75.78 2472.52
   15:02:56.402.03-May-2020 4553.48 4123.81 82.18 2.00  75.98 2472.52
   15:02:56.602.03-May-2020 4553.48 4123.81 82.18 2.00  76.18 2472.52
   15:02:56.802.03-May-2020 4553.48 4123.52 82.18 2.00  76.38 2472.52
   15:02:57.002.03-May-2020 4553.48 4124.15 82.18 2.00  76.58 2472.52
   15:02:57.201.03-May-2020 4553.48 4123.77 82.18 2.00  76.78 2472.52
   15:02:57.401.03-May-2020 4553.48 4124.23 82.18 2.00  76.97 2472.52
   15:02:57.601.03-May-2020 4553.48 4124.23 82.18 2.00  77.17 2472.52
   15:02:57.801.03-May-2020 4553.48 4124.12 82.18 2.00  77.37 2472.52
   15:02:58.001.03-May-2020 4553.48 4123.69 82.18 2.00  77.57 2472.52
   15:02:58.201.03-May-2020 4553.48 4123.97 82.17 2.00  77.77 2472.52
   15:02:58.401.03-May-2020 4553.48 4123.60 82.17 2.00  77.97 2472.52
   15:02:58.601.03-May-2020 4553.48 4123.60 82.17 2.00  78.17 2472.52
   15:02:58.801.03-May-2020 4553.48 4124.10 82.17 2.00  78.37 2472.52
   15:02:59.001.03-May-2020 4553.48 4124.08 82.17 2.00  78.57 2472.52
   15:02:59.201.03-May-2020 4553.48 4124.33 82.17 2.00  78.77 2472.52
   15:02:59.401.03-May-2020 4553.48 4124.19 82.17 2.00  78.97 2472.52
   15:02:59.601.03-May-2020 4553.48 4124.19 82.17 2.00  79.17 2472.52
   15:02:59.801.03-May-2020 4553.48 4124.18 82.17 2.00  79.37 2472.52
   15:03:00.001.03-May-2020 4553.48 4124.27 82.17 2.00  79.57 2472.52
   15:03:00.200.03-May-2020 4553.48 4124.24 82.17 2.00  79.77 2472.52
   15:03:00.400.03-May-2020 4553.48 4124.17 82.17 2.00  79.97 2472.52
   15:03:00.600.03-May-2020 4553.48 4124.17 82.17 2.00  80.17 2472.52
   15:03:00.800.03-May-2020 4553.48 4124.19 82.17 2.00  80.37 2472.52
   15:03:01.000.03-May-2020 4553.48 4124.21 82.16 2.00  80.57 2472.52
   15:03:01.200.03-May-2020 4553.48 4124.03 82.16 2.00  80.77 2472.52
   15:03:01.400.03-May-2020 4553.48 4124.03 82.16 2.00  80.97 2472.52
   15:03:01.600.03-May-2020 4553.48 4124.03 82.16 2.00  81.17 2472.52
   15:03:01.800.03-May-2020 4553.48 4124.22 82.16 2.00  81.37 2472.52
   15:03:02.000.03-May-2020 4553.48 4124.15 82.16 2.00  81.57 2472.52
   15:03:02.200.03-May-2020 4553.48 4124.21 82.16 2.00  81.77 2472.52
   15:03:02.400.03-May-2020 4553.48 4124.25 82.16 2.00  81.97 2472.52
   15:03:02.600.03-May-2020 4553.48 4124.25 82.16 2.00  82.17 2472.52
   15:03:02.800.03-May-2020 4553.48 4124.26 82.16 2.00  82.37 2472.52
   15:03:03.000.03-May-2020 4553.48 4124.17 82.16 2.00  82.57 2472.52
   15:03:03.200.03-May-2020 4553.48 4124.20 82.16 2.00  82.77 2472.52
   15:03:03.399.03-May-2020 4553.48 4124.09 82.16 2.00  82.97 2472.52
   15:03:03.599.03-May-2020 4553.48 4124.09 82.16 2.00  83.17 2472.52
   15:03:03.799.03-May-2020 4553.48 4123.88 82.15 2.00  83.37 2472.52
   15:03:03.999.03-May-2020 4553.48 4124.22 82.15 2.00  83.57 2472.52
   15:03:04.199.03-May-2020 4553.48 4124.24 82.15 2.00  83.77 2472.52
   15:03:04.399.03-May-2020 4553.48 4123.78 82.15 2.00  83.97 2472.52
   15:03:04.599.03-May-2020 4553.48 4123.78 82.15 2.00  84.17 2472.52
   15:03:04.799.03-May-2020 4553.48 4124.09 82.15 2.00  84.37 2472.52
   15:03:04.999.03-May-2020 4553.48 4123.98 82.15 2.00  84.57 2472.52
   15:03:05.199.03-May-2020 4553.48 4124.51 82.15 2.00  84.77 2472.52
   15:03:05.399.03-May-2020 4553.48 4124.01 82.15 2.00  84.97 2472.52
   15:03:05.599.03-May-2020 4553.48 4124.01 82.15 2.00  85.17 2472.52
   15:03:05.799.03-May-2020 4553.48 4123.94 82.15 2.00  85.37 2472.52
   15:03:05.999.03-May-2020 4553.48 4123.91 82.15 2.00  85.57 2472.52
   15:03:06.199.03-May-2020 4553.48 4124.27 82.15 2.00  85.77 2472.52
   15:03:06.398.03-May-2020 4553.48 4123.97 82.14 2.00  85.97 2472.52
   15:03:06.598.03-May-2020 4553.48 4123.97 82.14 2.00  86.17 2472.52
   15:03:06.798.03-May-2020 4553.48 4124.04 82.14 2.00  86.37 2472.52
   15:03:06.998.03-May-2020 4553.48 4124.57 82.14 2.00  86.57 2472.52
   15:03:07.198.03-May-2020 4553.48 4124.05 82.14 2.00  86.77 2472.52
   15:03:07.398.03-May-2020 4553.48 4124.17 82.14 2.00  86.97 2472.52
   15:03:07.598.03-May-2020 4553.48 4124.28 82.14 2.00  87.17 2472.52
   15:03:07.798.03-May-2020 4553.48 4124.28 82.14 2.00  87.37 2472.52
   15:03:07.998.03-May-2020 4553.48 4124.14 82.14 2.00  87.57 2472.52
   15:03:08.198.03-May-2020 4553.48 4124.25 82.14 2.00  87.77 2472.52
   15:03:08.398.03-May-2020 4553.48 4124.35 82.14 2.00  87.97 2472.52
   15:03:08.598.03-May-2020 4553.48 4124.35 82.14 2.00  88.17 2472.52
   15:03:08.798.03-May-2020 4553.48 4124.27 82.14 2.00  88.37 2472.52
   15:03:08.998.03-May-2020 4553.48 4124.10 82.14 2.00  88.57 2472.52
   15:03:09.198.03-May-2020 4553.48 4124.36 82.13 2.00  88.77 2472.52
   15:03:09.397.03-May-2020 4553.48 4123.92 82.13 2.00  88.97 2472.52
   15:03:09.597.03-May-2020 4553.48 4123.92 82.13 2.00  89.17 2472.52
   15:03:09.797.03-May-2020 4553.48 4124.24 82.13 2.00  89.37 2472.52
   15:03:09.997.03-May-2020 4553.48 4124.09 82.13 2.00  89.57 2472.52
   15:03:10.197.03-May-2020 4553.48 4124.20 82.13 2.00  89.77 2472.52
   15:03:10.397.03-May-2020 4553.48 4124.20 82.13 2.00  89.97 2472.52
   15:03:10.597.03-May-2020 4553.48 4124.20 82.13 2.00  90.17 2472.52
   15:03:10.797.03-May-2020 4553.48 4124.17 82.13 2.00  90.37 2472.52
   15:03:10.997.03-May-2020 4553.48 4124.20 82.13 2.00  90.57 2472.52
   15:03:11.197.03-May-2020 4553.48 4124.12 82.13 2.00  90.77 2472.52
   15:03:11.397.03-May-2020 4553.48 4124.21 82.13 2.00  90.97 2472.52
   15:03:11.597.03-May-2020 4553.48 4124.21 82.13 2.00  91.17 2472.52
   15:03:11.797.03-May-2020 4553.48 4124.09 82.12 2.00  91.37 2472.52
   15:03:11.997.03-May-2020 4553.48 4123.79 82.12 2.00  91.57 2472.52
   15:03:12.197.03-May-2020 4553.48 4124.15 82.12 2.00  91.77 2472.52
