~Version Information
 VERS.                  2.0:   CWLS log ASCII Standard -VERSION 2.0
 WRAP.                   NO:   One line per depth step
~Well Information Block
#MNEM.UNIT     VALUE/NAME     DESCRIPTION
#---------     -----------    ---------------------------
 STRT.S             00:33:44 04-May-20: START TIME 00:33:44 04-May-20
 STOP.S             00:40:14 04-May-20: STOP TIME  00:40:14 04-May-20
 STEP.S                   0.00: STEP TIME
 NULL.                 -999.25: NULL VALUE
 DFWT.                        :  DIST FWL TEXT
 DFST.                        :  DIST FSL TEXT
 DMF .             Drill Floor:  DRILL MEAS FROM
 STIM.      03.00.00 25-Mar-20:  START TIME
 DATE.      00.00.00 19-May-20:  END TIME
 SPUD.               27-Aug-20:  SPUD DATE
 NREF.                    Grid:  NORTH REFERENCE
 HPTY.       Minimum Curvature:  HOLE POS TYPE
 DMOD.             Drill Model:  DRILL MOD DESC
 SVYD.                  Survey:  SURVEY DESC
 ILTD.               Lithology:  INTERP LTH DESC
 FTOP.          Formation Tops:  FORM TOPS DESC
 SON .        AZ-XX-0906252240:  JOB NUMBER
 RIG .             West Chirag:  RIG NAME
 PDAT.          Mean Sea Level:  PERMANENT DATUM
 FLD .                     ACG:  FIELD NAME
 CTRY.              Azerbaijan:  COUNTRY NAME
 WELL.                     J23:  WELL NAME
 SRVC.          Turan Drilling:  CONTRACTOR
 COMP.     BP Exploration (Caspian Sea) Ltd.:  COMPANY
 WTYP.                Deviated:  WELL TYPE
 MDS .        Operator Entered:  MAG DATA SOURCE
 UWI .                     N/A:  UNIQUE WELL IDENTIFIER
 API .                     N/A:  API NUMBER
 BASE.              Azerbaijan:  LOGGING EQUIPMENT BASE LOCATION
 REGN.                   EESSA:  REGION
 PROV.                    Baku:  PROVINCE
 STAT.                    Baku:  STATE NAME
 MWDS.                     N/A:  MWD SHOP
 JOBN.        AZ-XX-0906252240:  JOB TICKET NUMB
 DOE .                     N/A:  DOE NUMBER
 DCON.         Sperry Drilling:  DIRECTNL CONTR
 UNIT.                     N/A:  LOGGING EQUIPMENT ID
 CNTY.                        :  COUNTY
 LOC .                        :  LOCATION
 LMF .             Drill Floor:  LOG MEASURED FROM
 TVDS.m                  43.00:  TVDSS CORRECTN
 LATI.deg                40.13:  LATITUDE
 LONG.deg                51.22:  LONGITUDE
 WHNS.m                   9.43:  WELL HEAD N/S
 WHEW.m                  -8.91:  WELL HEAD E/W
 UTMX.m              519005.06:  UTM X
 UTMY.m             4443793.85:  UTM Y
 DFWL.m                   0.00:  DISTANCE FWL
 DFSL.m                   0.00:  DISTANCE FSL
 SDEP.m                 363.00:  START DEPTH
 TDD .m                5150.01:  TOTAL DEPTH (DRILLER)
 VSDR.deg               179.88:  VERT SEC DIRECT
 GVFD.g                   1.00:  GRAVITY FIELD
 MFLD.nT              50295.00:  MAGNETIC FIELD
 MDIP.deg                59.56:  MAGNETIC DIP
 MDEC.deg                 6.45:  MAGNETIC DECL
 GRDC.deg                 0.14:  GRID CORRECTION
 AZTC.deg                 6.31:  AZM TOTAL CORR
 EPD .m                   0.00:  ELEVATION
 EGL .m                   0.00:  GROUND ELEVATION
 WDMS.m                 169.80:  WD ELEV
 APD .m                  43.00:  DEPTH ABOVE PD
 DEP .m                 354.17:  DEPTH
 AGAP.m                  43.00:  AIR GAP
 VSEW.m                  -8.91:  VERT SEC E/W
 VSNS.m                   9.43:  VERT SEC N/S
 EKB .m                   0.00:  KB ELEVATION
 EDF .m                  43.00:  DF ELEVATION
 TDL .m                1351.00:  TOTAL DEPTH (LOGGER)
 VSC .                       0:  VS TO CLOSURE
 MAGU.                 1850802:  MAGUTM CHECKSUM
~Parameter Information Block
#MNEM.UNIT       Value        Description
#---------     -----------    ---------------------------
 AV  .mps                 1.00:  Ann Velocity 
 AVMX.mps                 2.40:  Max Ann Veloc 
 AZIF.deg               148.96:  Azm, Final 
 BHAT.        Rotary Steerable:  BHA Type 
 BROT.°/30m               0.04:  Build Rotating 
 BS  .in                 12.25:  Bit Size 
 BSZ .in                 12.25:  Bit Size 
 BTPL.psig              814.00:  Bit Press Loss 
 TCS .hr                106.00:  Time Ciculation Ended 
 CV  .mps                 2.47:  Crit Velocity 
 CVMX.mps                 2.64:  Max Crit Veloc 
 DD1 .          Rashad Habibov:  Direct Drillr 1 
 DD2 .         Rasim Ibrahimov:  Direct Drillr 2 
 DDSV.                 iCruise:  DD Service 
 DEFF.%                 100.00:  % Det Eff 
 DLRX.°/30m               0.70:  Dogleg Rot Max 
 DLSO.°/30m               3.00:  Dogleg Oriented 
 DLSX.°/30m               4.55:  Dogleg Str Max 
 DRET.      08.08.32 02-May-20:  Drill End Time 
 DRST.      08.08.32 28-Apr-20:  Drill Start Tim 
 DTIM.hr                 60.00:  Time Drilling 
 EDEP.m                4761.01:  End Depth 
 ENG1.           Eldar Hajiyev:  Engineer 1 
 ENG2.        Marcelo Sandoval:  Engineer 2 
 ETIM.      23.23.07 05-May-20:  End Time 
 FLOI.gpm              1200.00:  Flow In 
 FLON.gpm               900.00:  Flow In Min 
 FLOS.cptm                0.00:  Fluid Loss 
 FLOX.gpm              1200.00:  Flow In Max 
 HFLO.                      No:  High Flow 
 HPRE.                      No:  High Pressure 
 HTEM.                      No:  High Temp 
 HYDO.m                   1.80:  Hydro Offset 
 IFIN.deg                68.17:  Inc, Final 
 IMAX.deg                74.61:  Inc Max 
 IMIN.deg                68.15:  Inc Min 
 IMND.m                4317.87:  Inc Min Depth 
 IMXD.m                4714.01:  Inc Max Depth 
 LETM.      08.08.32 02-May-20:  Log End Time 
 LOST.hr                     2:  Lost Rig Time 
 LSTM.      08.08.32 28-Apr-20:  Log Start Time 
 MDCL.ppm             41000.00:  Mud Chlorides 
 MDES.     Inversion Oil/Synthetic:  Mud Desc 
 DFD .sg                  1.58:  Mud Density 
 MDMN.sg                  1.58:  Dens Mud Min 
 MDMX.sg                  1.58:  Dens Mud Max 
 MOIL.                      71:  Run Mud Oil % 
 MOWR.                   71:29:  Run Mud OWR 
 MSND.                     0.1:  Run Mud Sand % 
 MSOL.                      23:  Run Mud Solids% 
 DFV .spqt               82.00:  Mud Viscosity 
 MWOD.in                  8.00:  MWD Tool OD 
 MWSI.                     Yes:  Serv Intrp, MWD 
 OTIM.hr                125.00:  Time Operating 
 PMAX.psia             6129.00:  Press Op, Max 
 PV  .cP                 32.00:  Mud PV 
 RUN .                     800:  Run Number 
 ROPA.m/hr               30.00:  ROP Avg 
 ROPN.m/hr               10.00:  ROP Min 
 ROPX.m/hr               40.00:  ROP Max 
 RPMA.rpm               140.00:  RPM Surface Avg 
 RPMN.rpm                80.00:  RPM Surface Min 
 RPMX.rpm               140.00:  RPM Surface Max 
 RRUN.                    L503:  Rig Run Number 
 RTIM.hr                  2.00:  Time Reaming 
 SAZI.deg               184.23:  Azm, Start 
 SDEP.m                3410.01:  Start Depth 
 SIDD.                      No:  Serv Intrp, DD 
 SINC.deg                68.29:  Inc, Start 
 SPPA.psig             6000.00:  SPP Avg 
 SPPN.psig             4000.00:  SPP Min 
 SPPX.psig             6100.00:  SPP Max 
 STIM.      08.08.32 28-Apr-20:  Start Time 
 SVCS.                 DD, MWD:  Services 
 SVER.                    9.20:  Sperry Version 
 TDAT.m                1351.00:  Tot Depth Attmp 
 TDDF.                      No:  Trip for DD 
 TDLG.m                1351.00:  Tot Depth Loggd 
 TFF .                      No:  Trip for Fail 
 TQAA.f-kp               27.00:  Torque Abs Avg 
 TQAN.f-kp               20.00:  Torque Abs Min 
 TQAX.f-kp               30.00:  Torque Abs Max 
 TRRT.°/30m               0.60:  Turn Rotating 
 MRT .                    EWER:  Maximum Recorded Temperature 
 TTMX.degC               83.00:  Max Tool Temp 
 VS01.                90511138:  Virtual Str1 SN 
 VS02.                90524876:  Virtual Str2 SN 
 VS03.                90524872:  Virtual Str3 SN 
 VS04.                90502750:  Virtual Str4 SN 
 VS05.                12330984:  Virtual Str5 SN 
 WBMN.klb                 0.00:  WOB Min 
 WOBA.klb                15.00:  WOB Avg 
 WOBX.klb                20.00:  WOB Max 
 YP  .lhf2               31.00:  Yield Point 
~Curve Information Block
#MNEM.UNIT                 API CODE     Curve Description
#---------               -----------    ---------------------------
 TIME.HHMMSS            00 000 000 000:  GT Time & Date
 GTDEPTH.m              00 000 000 000:  GT Depth
 GTPQH.psia             00 000 000 000:  GT HR Quartz Pressure
 GTTQ.degC              00 000 000 000:  GT Quartz Temperature
 GTTN.NONE              00 000 000 000:  GT Test Number
 GTET.sec               00 000 000 000:  GT Elapsed Test Time
 GTTVD.m                00 000 000 000:  GT True Vertical Depth
#Other Information
#
#WARRANTY: Halliburton will use its best efforts to furnish customers with 
#accurate information and interpretations that are part of, and incident to, the services 
#provided.  However, Halliburton cannot and does not warrant the accuracy 
#or correctness of such information and interpretations.  Under no circumstances should any 
#such information or interpretation be relied upon as the sole basis for any drilling, 
#completion, production, or financial decision or any procedure involving any risk to the 
#safety of any drilling venture, drilling rig or its crew or any other third party.  The 
#Customer has full responsibility for all drilling, completion and production operation.  
#Halliburton makes no representations or warranties, either expressed or 
#implied, including, but not limited to, the implied warranties of merchantability or fitness 
#for a particular purpose, with respect to the services rendered.  In no event will 
#Halliburton be liable for failure to obtain any particular results or for 
#any damages, including, but not limited to, indirect, special or consequential damages, 
#resulting from the use of any information or interpretation provided by Halliburton.
#
~A           TIME           GTDEPTH  GTPQH  GTTQ  GTTN  GTET   GTTVD  
# ...
   00:35:39.327.04-May-2020 4661.71  199.28 80.91 4.00 115.01 2504.33
   00:35:39.527.04-May-2020 4661.71  199.32 80.91 4.00 115.21 2504.33
   00:35:39.727.04-May-2020 4661.71  199.37 80.91 4.00 115.41 2504.33
   00:35:39.927.04-May-2020 4661.71  199.40 80.91 4.00 115.61 2504.33
   00:35:40.127.04-May-2020 4661.71  199.45 80.91 4.00 115.81 2504.33
   00:35:40.327.04-May-2020 4661.71  199.49 80.91 4.00 116.01 2504.33
   00:35:40.527.04-May-2020 4661.71  199.49 80.91 4.00 116.21 2504.33
   00:35:40.727.04-May-2020 4661.71  199.56 80.90 4.00 116.41 2504.33
   00:35:40.927.04-May-2020 4661.71  199.56 80.90 4.00 116.61 2504.33
   00:35:41.127.04-May-2020 4661.71  199.62 80.90 4.00 116.81 2504.33
   00:35:41.327.04-May-2020 4661.71  199.66 80.90 4.00 117.01 2504.33
   00:35:41.527.04-May-2020 4661.71  199.69 80.90 4.00 117.21 2504.33
   00:35:41.727.04-May-2020 4661.71  199.75 80.90 4.00 117.41 2504.33
   00:35:41.927.04-May-2020 4661.71  199.81 80.90 4.00 117.61 2504.33
   00:35:42.127.04-May-2020 4661.71  199.84 80.90 4.00 117.81 2504.33
   00:35:42.327.04-May-2020 4661.71  199.88 80.90 4.00 118.01 2504.33
   00:35:42.527.04-May-2020 4661.71  199.88 80.90 4.00 118.21 2504.33
   00:35:42.727.04-May-2020 4661.71  199.98 80.90 4.00 118.41 2504.33
   00:35:42.927.04-May-2020 4661.71  200.03 80.90 4.00 118.61 2504.33
   00:35:43.127.04-May-2020 4661.71  200.05 80.90 4.00 118.81 2504.33
   00:35:43.327.04-May-2020 4661.71  200.07 80.90 4.00 119.01 2504.33
   00:35:43.527.04-May-2020 4661.71  200.13 80.90 4.00 119.21 2504.33
   00:35:43.727.04-May-2020 4661.71  200.19 80.89 4.00 119.41 2504.33
   00:35:43.927.04-May-2020 4661.71  200.22 80.89 4.00 119.61 2504.33
   00:35:44.127.04-May-2020 4661.71  200.25 80.89 4.00 119.81 2504.33
   00:35:44.327.04-May-2020 4661.71  200.30 80.89 4.00 120.01 2504.33
   00:35:44.527.04-May-2020 4661.71  200.35 80.89 4.00 120.21 2504.33
   00:35:44.727.04-May-2020 4661.71  200.40 80.89 4.00 120.41 2504.33
   00:35:44.927.04-May-2020 4661.71  200.44 80.89 4.00 120.61 2504.33
   00:35:45.127.04-May-2020 4661.71  200.48 80.89 4.00 120.81 2504.33
   00:35:45.327.04-May-2020 4661.71  200.52 80.89 4.00 121.01 2504.33
   00:35:45.527.04-May-2020 4661.71  200.56 80.89 4.00 121.21 2504.33
   00:35:45.727.04-May-2020 4661.71  200.60 80.89 4.00 121.41 2504.33
   00:35:45.927.04-May-2020 4661.71  200.63 80.89 4.00 121.61 2504.33
   00:35:46.127.04-May-2020 4661.71  200.66 80.89 4.00 121.81 2504.33
   00:35:46.327.04-May-2020 4661.71  200.70 80.89 4.00 122.01 2504.33
   00:35:46.527.04-May-2020 4661.71  200.74 80.89 4.00 122.21 2504.33
   00:35:46.727.04-May-2020 4661.71  200.75 80.89 4.00 122.41 2504.33
   00:35:46.927.04-May-2020 4661.71  200.76 80.88 4.00 122.61 2504.33
   00:35:47.127.04-May-2020 4661.71  200.82 80.88 4.00 122.81 2504.33
   00:35:47.327.04-May-2020 4661.71  200.87 80.88 4.00 123.01 2504.33
   00:35:47.527.04-May-2020 4661.71  200.91 80.88 4.00 123.21 2504.33
   00:35:47.727.04-May-2020 4661.71  200.95 80.88 4.00 123.41 2504.33
   00:35:47.927.04-May-2020 4661.71  200.98 80.88 4.00 123.61 2504.33
   00:35:48.127.04-May-2020 4661.71  201.02 80.88 4.00 123.81 2504.33
   00:35:48.327.04-May-2020 4661.71  201.06 80.88 4.00 124.01 2504.33
   00:35:48.527.04-May-2020 4661.71  201.06 80.88 4.00 124.21 2504.33
   00:35:48.727.04-May-2020 4661.71  201.12 80.88 4.00 124.41 2504.33
   00:35:48.927.04-May-2020 4661.71  201.15 80.88 4.00 124.61 2504.33
   00:35:49.127.04-May-2020 4661.71  201.15 80.88 4.00 124.81 2504.33
   00:35:49.327.04-May-2020 4661.71  201.17 80.88 4.00 125.01 2504.33
   00:35:49.528.04-May-2020 4661.71  201.22 80.88 4.00 125.21 2504.33
   00:35:49.728.04-May-2020 4661.71  201.25 80.88 4.00 125.41 2504.33
   00:35:49.928.04-May-2020 4661.71  201.30 80.88 4.00 125.61 2504.33
   00:35:50.128.04-May-2020 4661.71  201.36 80.87 4.00 125.81 2504.33
   00:35:50.328.04-May-2020 4661.71  201.41 80.87 4.00 126.01 2504.33
   00:35:50.528.04-May-2020 4661.71  201.43 80.87 4.00 126.21 2504.33
   00:35:50.728.04-May-2020 4661.71  201.47 80.87 4.00 126.41 2504.33
   00:35:50.928.04-May-2020 4661.71  201.53 80.87 4.00 126.61 2504.33
   00:35:51.128.04-May-2020 4661.71  201.58 80.87 4.00 126.81 2504.33
   00:35:51.328.04-May-2020 4661.71  201.62 80.87 4.00 127.01 2504.33
   00:35:51.528.04-May-2020 4661.71  201.64 80.87 4.00 127.21 2504.33
   00:35:51.728.04-May-2020 4661.71  201.66 80.87 4.00 127.41 2504.33
   00:35:51.928.04-May-2020 4661.71  201.72 80.87 4.00 127.61 2504.33
   00:35:52.128.04-May-2020 4661.71  201.76 80.87 4.00 127.81 2504.33
   00:35:52.328.04-May-2020 4661.71  201.81 80.87 4.00 128.01 2504.33
   00:35:52.528.04-May-2020 4661.71  201.81 80.87 4.00 128.21 2504.33
   00:35:52.728.04-May-2020 4661.71  201.90 80.87 4.00 128.41 2504.33
   00:35:52.928.04-May-2020 4661.71  201.95 80.87 4.00 128.61 2504.33
   00:35:53.128.04-May-2020 4661.71  201.98 80.87 4.00 128.81 2504.33
   00:35:53.328.04-May-2020 4661.71  202.02 80.86 4.00 129.01 2504.33
   00:35:53.528.04-May-2020 4661.71  202.02 80.86 4.00 129.21 2504.33
   00:35:53.728.04-May-2020 4661.71  202.09 80.86 4.00 129.41 2504.33
   00:35:53.928.04-May-2020 4661.71  202.10 80.86 4.00 129.61 2504.33
   00:35:54.128.04-May-2020 4661.71  202.14 80.86 4.00 129.81 2504.33
   00:35:54.328.04-May-2020 4661.71  202.16 80.86 4.00 130.01 2504.33
   00:35:54.528.04-May-2020 4661.71  202.16 80.86 4.00 130.21 2504.33
   00:35:54.728.04-May-2020 4661.71  202.22 80.86 4.00 130.41 2504.33
   00:35:54.928.04-May-2020 4661.71  202.22 80.86 4.00 130.61 2504.33
   00:35:55.128.04-May-2020 4661.71  202.24 80.86 4.00 130.81 2504.33
   00:35:55.328.04-May-2020 4661.71  202.30 80.86 4.00 131.01 2504.33
   00:35:55.528.04-May-2020 4661.71  202.30 80.86 4.00 131.21 2504.33
   00:35:55.728.04-May-2020 4661.71  202.38 80.86 4.00 131.41 2504.33
   00:35:55.928.04-May-2020 4661.71  202.42 80.86 4.00 131.61 2504.33
   00:35:56.128.04-May-2020 4661.71  202.44 80.86 4.00 131.81 2504.33
   00:35:56.328.04-May-2020 4661.71  202.48 80.86 4.00 132.01 2504.33
   00:35:56.528.04-May-2020 4661.71  202.51 80.85 4.00 132.21 2504.33
   00:35:56.728.04-May-2020 4661.71  202.53 80.85 4.00 132.41 2504.33
   00:35:56.928.04-May-2020 4661.71  202.55 80.85 4.00 132.61 2504.33
   00:35:57.128.04-May-2020 4661.71  202.58 80.85 4.00 132.81 2504.33
   00:35:57.328.04-May-2020 4661.71  202.58 80.85 4.00 133.01 2504.33
   00:35:57.528.04-May-2020 4661.71  202.58 80.85 4.00 133.21 2504.33
   00:35:57.728.04-May-2020 4661.71  202.65 80.85 4.00 133.41 2504.33
   00:35:57.928.04-May-2020 4661.71  202.67 80.85 4.00 133.61 2504.33
   00:35:58.128.04-May-2020 4661.71  202.72 80.85 4.00 133.81 2504.33
   00:35:58.328.04-May-2020 4661.71  202.77 80.85 4.00 134.01 2504.33
   00:35:58.528.04-May-2020 4661.71  202.81 80.85 4.00 134.21 2504.33
   00:35:58.728.04-May-2020 4661.71  202.83 80.85 4.00 134.41 2504.33
   00:35:58.928.04-May-2020 4661.71  202.85 80.85 4.00 134.61 2504.33
   00:35:59.128.04-May-2020 4661.71  202.88 80.85 4.00 134.81 2504.33
   00:35:59.328.04-May-2020 4661.71  202.93 80.85 4.00 135.01 2504.33
   00:35:59.528.04-May-2020 4661.71  202.97 80.84 4.00 135.21 2504.33
   00:35:59.728.04-May-2020 4661.71  202.98 80.84 4.00 135.41 2504.33
   00:35:59.928.04-May-2020 4661.71  203.00 80.84 4.00 135.61 2504.33
   00:36:00.128.04-May-2020 4661.71  203.05 80.84 4.00 135.81 2504.33
   00:36:00.328.04-May-2020 4661.71  203.10 80.84 4.00 136.01 2504.33
   00:36:00.529.04-May-2020 4661.71  203.10 80.84 4.00 136.21 2504.33
   00:36:00.729.04-May-2020 4661.71  203.12 80.84 4.00 136.41 2504.33
   00:36:00.929.04-May-2020 4661.71  203.16 80.84 4.00 136.61 2504.33
   00:36:01.129.04-May-2020 4661.71  203.21 80.84 4.00 136.81 2504.33
   00:36:01.329.04-May-2020 4661.71  203.25 80.84 4.00 137.01 2504.33
   00:36:01.529.04-May-2020 4661.71  203.25 80.84 4.00 137.21 2504.33
   00:36:01.729.04-May-2020 4661.71  203.29 80.84 4.00 137.41 2504.33
   00:36:01.929.04-May-2020 4661.71  203.33 80.84 4.00 137.61 2504.33
   00:36:02.129.04-May-2020 4661.71  203.36 80.84 4.00 137.81 2504.33
