~Version Information
 VERS.                  2.0:   CWLS log ASCII Standard -VERSION 2.0
 WRAP.                   NO:   One line per depth step
~Well Information Block
#MNEM.UNIT     VALUE/NAME     DESCRIPTION
#---------     -----------    ---------------------------
 STRT.S             00:33:44 04-May-20: START TIME 00:33:44 04-May-20
 STOP.S             00:40:14 04-May-20: STOP TIME  00:40:14 04-May-20
 STEP.S                   0.00: STEP TIME
 NULL.                 -999.25: NULL VALUE
 DFWT.                        :  DIST FWL TEXT
 DFST.                        :  DIST FSL TEXT
 DMF .             Drill Floor:  DRILL MEAS FROM
 STIM.      03.00.00 25-Mar-20:  START TIME
 DATE.      00.00.00 19-May-20:  END TIME
 SPUD.               27-Aug-20:  SPUD DATE
 NREF.                    Grid:  NORTH REFERENCE
 HPTY.       Minimum Curvature:  HOLE POS TYPE
 DMOD.             Drill Model:  DRILL MOD DESC
 SVYD.                  Survey:  SURVEY DESC
 ILTD.               Lithology:  INTERP LTH DESC
 FTOP.          Formation Tops:  FORM TOPS DESC
 SON .        AZ-XX-0906252240:  JOB NUMBER
 RIG .             West Chirag:  RIG NAME
 PDAT.          Mean Sea Level:  PERMANENT DATUM
 FLD .                     ACG:  FIELD NAME
 CTRY.              Azerbaijan:  COUNTRY NAME
 WELL.                     J23:  WELL NAME
 SRVC.          Turan Drilling:  CONTRACTOR
 COMP.     BP Exploration (Caspian Sea) Ltd.:  COMPANY
 WTYP.                Deviated:  WELL TYPE
 MDS .        Operator Entered:  MAG DATA SOURCE
 UWI .                     N/A:  UNIQUE WELL IDENTIFIER
 API .                     N/A:  API NUMBER
 BASE.              Azerbaijan:  LOGGING EQUIPMENT BASE LOCATION
 REGN.                   EESSA:  REGION
 PROV.                    Baku:  PROVINCE
 STAT.                    Baku:  STATE NAME
 MWDS.                     N/A:  MWD SHOP
 JOBN.        AZ-XX-0906252240:  JOB TICKET NUMB
 DOE .                     N/A:  DOE NUMBER
 DCON.         Sperry Drilling:  DIRECTNL CONTR
 UNIT.                     N/A:  LOGGING EQUIPMENT ID
 CNTY.                        :  COUNTY
 LOC .                        :  LOCATION
 LMF .             Drill Floor:  LOG MEASURED FROM
 TVDS.m                  43.00:  TVDSS CORRECTN
 LATI.deg                40.13:  LATITUDE
 LONG.deg                51.22:  LONGITUDE
 WHNS.m                   9.43:  WELL HEAD N/S
 WHEW.m                  -8.91:  WELL HEAD E/W
 UTMX.m              519005.06:  UTM X
 UTMY.m             4443793.85:  UTM Y
 DFWL.m                   0.00:  DISTANCE FWL
 DFSL.m                   0.00:  DISTANCE FSL
 SDEP.m                 363.00:  START DEPTH
 TDD .m                5150.01:  TOTAL DEPTH (DRILLER)
 VSDR.deg               179.88:  VERT SEC DIRECT
 GVFD.g                   1.00:  GRAVITY FIELD
 MFLD.nT              50295.00:  MAGNETIC FIELD
 MDIP.deg                59.56:  MAGNETIC DIP
 MDEC.deg                 6.45:  MAGNETIC DECL
 GRDC.deg                 0.14:  GRID CORRECTION
 AZTC.deg                 6.31:  AZM TOTAL CORR
 EPD .m                   0.00:  ELEVATION
 EGL .m                   0.00:  GROUND ELEVATION
 WDMS.m                 169.80:  WD ELEV
 APD .m                  43.00:  DEPTH ABOVE PD
 DEP .m                 354.17:  DEPTH
 AGAP.m                  43.00:  AIR GAP
 VSEW.m                  -8.91:  VERT SEC E/W
 VSNS.m                   9.43:  VERT SEC N/S
 EKB .m                   0.00:  KB ELEVATION
 EDF .m                  43.00:  DF ELEVATION
 TDL .m                1351.00:  TOTAL DEPTH (LOGGER)
 VSC .                       0:  VS TO CLOSURE
 MAGU.                 1850802:  MAGUTM CHECKSUM
~Parameter Information Block
#MNEM.UNIT       Value        Description
#---------     -----------    ---------------------------
 AV  .mps                 1.00:  Ann Velocity 
 AVMX.mps                 2.40:  Max Ann Veloc 
 AZIF.deg               148.96:  Azm, Final 
 BHAT.        Rotary Steerable:  BHA Type 
 BROT.°/30m               0.04:  Build Rotating 
 BS  .in                 12.25:  Bit Size 
 BSZ .in                 12.25:  Bit Size 
 BTPL.psig              814.00:  Bit Press Loss 
 TCS .hr                106.00:  Time Ciculation Ended 
 CV  .mps                 2.47:  Crit Velocity 
 CVMX.mps                 2.64:  Max Crit Veloc 
 DD1 .          Rashad Habibov:  Direct Drillr 1 
 DD2 .         Rasim Ibrahimov:  Direct Drillr 2 
 DDSV.                 iCruise:  DD Service 
 DEFF.%                 100.00:  % Det Eff 
 DLRX.°/30m               0.70:  Dogleg Rot Max 
 DLSO.°/30m               3.00:  Dogleg Oriented 
 DLSX.°/30m               4.55:  Dogleg Str Max 
 DRET.      08.08.32 02-May-20:  Drill End Time 
 DRST.      08.08.32 28-Apr-20:  Drill Start Tim 
 DTIM.hr                 60.00:  Time Drilling 
 EDEP.m                4761.01:  End Depth 
 ENG1.           Eldar Hajiyev:  Engineer 1 
 ENG2.        Marcelo Sandoval:  Engineer 2 
 ETIM.      23.23.07 05-May-20:  End Time 
 FLOI.gpm              1200.00:  Flow In 
 FLON.gpm               900.00:  Flow In Min 
 FLOS.cptm                0.00:  Fluid Loss 
 FLOX.gpm              1200.00:  Flow In Max 
 HFLO.                      No:  High Flow 
 HPRE.                      No:  High Pressure 
 HTEM.                      No:  High Temp 
 HYDO.m                   1.80:  Hydro Offset 
 IFIN.deg                68.17:  Inc, Final 
 IMAX.deg                74.61:  Inc Max 
 IMIN.deg                68.15:  Inc Min 
 IMND.m                4317.87:  Inc Min Depth 
 IMXD.m                4714.01:  Inc Max Depth 
 LETM.      08.08.32 02-May-20:  Log End Time 
 LOST.hr                     2:  Lost Rig Time 
 LSTM.      08.08.32 28-Apr-20:  Log Start Time 
 MDCL.ppm             41000.00:  Mud Chlorides 
 MDES.     Inversion Oil/Synthetic:  Mud Desc 
 DFD .sg                  1.58:  Mud Density 
 MDMN.sg                  1.58:  Dens Mud Min 
 MDMX.sg                  1.58:  Dens Mud Max 
 MOIL.                      71:  Run Mud Oil % 
 MOWR.                   71:29:  Run Mud OWR 
 MSND.                     0.1:  Run Mud Sand % 
 MSOL.                      23:  Run Mud Solids% 
 DFV .spqt               82.00:  Mud Viscosity 
 MWOD.in                  8.00:  MWD Tool OD 
 MWSI.                     Yes:  Serv Intrp, MWD 
 OTIM.hr                125.00:  Time Operating 
 PMAX.psia             6129.00:  Press Op, Max 
 PV  .cP                 32.00:  Mud PV 
 RUN .                     800:  Run Number 
 ROPA.m/hr               30.00:  ROP Avg 
 ROPN.m/hr               10.00:  ROP Min 
 ROPX.m/hr               40.00:  ROP Max 
 RPMA.rpm               140.00:  RPM Surface Avg 
 RPMN.rpm                80.00:  RPM Surface Min 
 RPMX.rpm               140.00:  RPM Surface Max 
 RRUN.                    L503:  Rig Run Number 
 RTIM.hr                  2.00:  Time Reaming 
 SAZI.deg               184.23:  Azm, Start 
 SDEP.m                3410.01:  Start Depth 
 SIDD.                      No:  Serv Intrp, DD 
 SINC.deg                68.29:  Inc, Start 
 SPPA.psig             6000.00:  SPP Avg 
 SPPN.psig             4000.00:  SPP Min 
 SPPX.psig             6100.00:  SPP Max 
 STIM.      08.08.32 28-Apr-20:  Start Time 
 SVCS.                 DD, MWD:  Services 
 SVER.                    9.20:  Sperry Version 
 TDAT.m                1351.00:  Tot Depth Attmp 
 TDDF.                      No:  Trip for DD 
 TDLG.m                1351.00:  Tot Depth Loggd 
 TFF .                      No:  Trip for Fail 
 TQAA.f-kp               27.00:  Torque Abs Avg 
 TQAN.f-kp               20.00:  Torque Abs Min 
 TQAX.f-kp               30.00:  Torque Abs Max 
 TRRT.°/30m               0.60:  Turn Rotating 
 MRT .                    EWER:  Maximum Recorded Temperature 
 TTMX.degC               83.00:  Max Tool Temp 
 VS01.                90511138:  Virtual Str1 SN 
 VS02.                90524876:  Virtual Str2 SN 
 VS03.                90524872:  Virtual Str3 SN 
 VS04.                90502750:  Virtual Str4 SN 
 VS05.                12330984:  Virtual Str5 SN 
 WBMN.klb                 0.00:  WOB Min 
 WOBA.klb                15.00:  WOB Avg 
 WOBX.klb                20.00:  WOB Max 
 YP  .lhf2               31.00:  Yield Point 
~Curve Information Block
#MNEM.UNIT                 API CODE     Curve Description
#---------               -----------    ---------------------------
 TIME.HHMMSS            00 000 000 000:  GT Time & Date
 GTDEPTH.m              00 000 000 000:  GT Depth
 GTPQH.psia             00 000 000 000:  GT HR Quartz Pressure
 GTTQ.degC              00 000 000 000:  GT Quartz Temperature
 GTTN.NONE              00 000 000 000:  GT Test Number
 GTET.sec               00 000 000 000:  GT Elapsed Test Time
 GTTVD.m                00 000 000 000:  GT True Vertical Depth
#Other Information
#
#WARRANTY: Halliburton will use its best efforts to furnish customers with 
#accurate information and interpretations that are part of, and incident to, the services 
#provided.  However, Halliburton cannot and does not warrant the accuracy 
#or correctness of such information and interpretations.  Under no circumstances should any 
#such information or interpretation be relied upon as the sole basis for any drilling, 
#completion, production, or financial decision or any procedure involving any risk to the 
#safety of any drilling venture, drilling rig or its crew or any other third party.  The 
#Customer has full responsibility for all drilling, completion and production operation.  
#Halliburton makes no representations or warranties, either expressed or 
#implied, including, but not limited to, the implied warranties of merchantability or fitness 
#for a particular purpose, with respect to the services rendered.  In no event will 
#Halliburton be liable for failure to obtain any particular results or for 
#any damages, including, but not limited to, indirect, special or consequential damages, 
#resulting from the use of any information or interpretation provided by Halliburton.
#
~A           TIME           GTDEPTH  GTPQH  GTTQ  GTTN  GTET   GTTVD  
# ...
   00:39:52.349.04-May-2020 4661.71 5810.68 80.03 4.00 368.03 2504.33
   00:39:52.549.04-May-2020 4661.71 5810.68 80.03 4.00 368.23 2504.33
   00:39:52.750.04-May-2020 4661.71 5810.45 80.03 4.00 368.43 2504.33
   00:39:52.950.04-May-2020 4661.71 5810.59 80.03 4.00 368.63 2504.33
   00:39:53.150.04-May-2020 4661.71 5811.06 80.04 4.00 368.83 2504.33
   00:39:53.350.04-May-2020 4661.71 5810.80 80.04 4.00 369.03 2504.33
   00:39:53.550.04-May-2020 4661.71 5810.80 80.04 4.00 369.23 2504.33
   00:39:53.750.04-May-2020 4661.71 5813.87 80.04 4.00 369.43 2504.33
   00:39:53.950.04-May-2020 4661.71 5809.24 80.04 4.00 369.63 2504.33
   00:39:54.150.04-May-2020 4661.71 5809.18 80.05 4.00 369.83 2504.33
   00:39:54.350.04-May-2020 4661.71 5814.54 80.05 4.00 370.03 2504.33
   00:39:54.550.04-May-2020 4661.71 5814.54 80.05 4.00 370.23 2504.33
   00:39:54.750.04-May-2020 4661.71 5810.97 80.05 4.00 370.43 2504.33
   00:39:54.950.04-May-2020 4661.71 5810.14 80.05 4.00 370.63 2504.33
   00:39:55.150.04-May-2020 4661.71 5814.65 80.05 4.00 370.83 2504.33
   00:39:55.350.04-May-2020 4661.71 5811.44 80.05 4.00 371.03 2504.33
   00:39:55.550.04-May-2020 4661.71 5811.44 80.05 4.00 371.23 2504.33
   00:39:55.750.04-May-2020 4661.71 5810.48 80.05 4.00 371.43 2504.33
   00:39:55.950.04-May-2020 4661.71 5814.66 80.05 4.00 371.63 2504.33
   00:39:56.150.04-May-2020 4661.71 5810.82 80.06 4.00 371.83 2504.33
   00:39:56.350.04-May-2020 4661.71 5809.32 80.06 4.00 372.03 2504.33
   00:39:56.550.04-May-2020 4661.71 5809.32 80.06 4.00 372.23 2504.33
   00:39:56.750.04-May-2020 4661.71 5810.89 80.06 4.00 372.43 2504.33
   00:39:56.950.04-May-2020 4661.71 5810.35 80.06 4.00 372.63 2504.33
   00:39:57.150.04-May-2020 4661.71 5809.99 80.06 4.00 372.83 2504.33
   00:39:57.350.04-May-2020 4661.71 5811.93 80.06 4.00 373.03 2504.33
   00:39:57.550.04-May-2020 4661.71 5811.93 80.06 4.00 373.23 2504.33
   00:39:57.750.04-May-2020 4661.71 5809.88 80.06 4.00 373.43 2504.33
   00:39:57.950.04-May-2020 4661.71 5809.34 80.06 4.00 373.63 2504.33
   00:39:58.150.04-May-2020 4661.71 5810.61 80.06 4.00 373.83 2504.33
   00:39:58.350.04-May-2020 4661.71 5810.29 80.06 4.00 374.03 2504.33
   00:39:58.550.04-May-2020 4661.71 5810.29 80.06 4.00 374.23 2504.33
   00:39:58.750.04-May-2020 4661.71 5809.50 80.06 4.00 374.43 2504.33
   00:39:58.950.04-May-2020 4661.71 5809.59 80.06 4.00 374.63 2504.33
   00:39:59.150.04-May-2020 4661.71 5810.22 80.05 4.00 374.83 2504.33
   00:39:59.350.04-May-2020 4661.71 5814.00 80.05 4.00 375.03 2504.33
   00:39:59.550.04-May-2020 4661.71 5814.00 80.05 4.00 375.23 2504.33
   00:39:59.750.04-May-2020 4661.71 5811.20 80.05 4.00 375.43 2504.33
   00:39:59.950.04-May-2020 4661.71 5810.73 80.05 4.00 375.63 2504.33
   00:40:00.150.04-May-2020 4661.71 5812.25 80.05 4.00 375.83 2504.33
   00:40:00.350.04-May-2020 4661.71 5810.72 80.05 4.00 376.03 2504.33
   00:40:00.550.04-May-2020 4661.71 5810.72 80.05 4.00 376.23 2504.33
   00:40:00.750.04-May-2020 4661.71 5810.87 80.05 4.00 376.43 2504.33
   00:40:00.950.04-May-2020 4661.71 5811.19 80.05 4.00 376.63 2504.33
   00:40:01.150.04-May-2020 4661.71 5811.37 80.05 4.00 376.83 2504.33
   00:40:01.350.04-May-2020 4661.71 5810.65 80.05 4.00 377.03 2504.33
   00:40:01.550.04-May-2020 4661.71 5810.65 80.05 4.00 377.23 2504.33
   00:40:01.750.04-May-2020 4661.71 5809.22 80.05 4.00 377.43 2504.33
   00:40:01.950.04-May-2020 4661.71 5817.01 80.04 4.00 377.63 2504.33
   00:40:02.150.04-May-2020 4661.71 5808.77 80.04 4.00 377.83 2504.33
   00:40:02.350.04-May-2020 4661.71 5815.41 80.04 4.00 378.03 2504.33
   00:40:02.550.04-May-2020 4661.71 5815.41 80.04 4.00 378.23 2504.33
   00:40:02.750.04-May-2020 4661.71 5814.56 80.04 4.00 378.43 2504.33
   00:40:02.950.04-May-2020 4661.71 5814.05 80.04 4.00 378.63 2504.33
   00:40:03.150.04-May-2020 4661.71 5813.18 80.04 4.00 378.83 2504.33
   00:40:03.350.04-May-2020 4661.71 5814.25 80.04 4.00 379.03 2504.33
   00:40:03.550.04-May-2020 4661.71 5814.25 80.04 4.00 379.23 2504.33
   00:40:03.751.04-May-2020 4661.71 5814.17 80.04 4.00 379.43 2504.33
   00:40:03.951.04-May-2020 4661.71 5811.99 80.03 4.00 379.63 2504.33
   00:40:04.151.04-May-2020 4661.71 5816.78 80.03 4.00 379.83 2504.33
   00:40:04.351.04-May-2020 4661.71 5813.28 80.03 4.00 380.03 2504.33
   00:40:04.551.04-May-2020 4661.71 5813.28 80.03 4.00 380.23 2504.33
   00:40:04.751.04-May-2020 4661.71 5811.76 80.03 4.00 380.43 2504.33
   00:40:04.951.04-May-2020 4661.71 5811.48 80.03 4.00 380.63 2504.33
   00:40:05.151.04-May-2020 4661.71 5817.18 80.03 4.00 380.83 2504.33
   00:40:05.351.04-May-2020 4661.71 5813.15 80.03 4.00 381.03 2504.33
   00:40:05.551.04-May-2020 4661.71 5813.15 80.03 4.00 381.23 2504.33
   00:40:05.751.04-May-2020 4661.71 5812.87 80.02 4.00 381.43 2504.33
   00:40:05.951.04-May-2020 4661.71 5813.61 80.02 4.00 381.63 2504.33
   00:40:06.151.04-May-2020 4661.71 5810.49 80.02 4.00 381.83 2504.33
   00:40:06.351.04-May-2020 4661.71 5811.47 80.02 4.00 382.03 2504.33
   00:40:06.551.04-May-2020 4661.71 5811.47 80.02 4.00 382.23 2504.33
   00:40:06.751.04-May-2020 4661.71 5812.28 80.02 4.00 382.43 2504.33
   00:40:06.951.04-May-2020 4661.71 5812.03 80.02 4.00 382.63 2504.33
   00:40:07.151.04-May-2020 4661.71 5812.47 80.02 4.00 382.83 2504.33
   00:40:07.351.04-May-2020 4661.71 5813.85 80.01 4.00 383.03 2504.33
   00:40:07.551.04-May-2020 4661.71 5813.85 80.01 4.00 383.23 2504.33
   00:40:07.751.04-May-2020 4661.71 5812.51 80.01 4.00 383.43 2504.33
   00:40:07.951.04-May-2020 4661.71 5816.32 80.01 4.00 383.63 2504.33
   00:40:08.151.04-May-2020 4661.71 5815.16 80.01 4.00 383.83 2504.33
   00:40:08.351.04-May-2020 4661.71 5813.60 80.01 4.00 384.03 2504.33
   00:40:08.551.04-May-2020 4661.71 5813.60 80.01 4.00 384.23 2504.33
   00:40:08.751.04-May-2020 4661.71 5813.99 80.00 4.00 384.43 2504.33
   00:40:08.951.04-May-2020 4661.71 5811.93 80.00 4.00 384.63 2504.33
   00:40:09.151.04-May-2020 4661.71 5813.12 80.00 4.00 384.83 2504.33
   00:40:09.351.04-May-2020 4661.71 5812.18 80.00 4.00 385.03 2504.33
   00:40:09.551.04-May-2020 4661.71 5811.82 80.00 4.00 385.23 2504.33
   00:40:09.751.04-May-2020 4661.71 5811.79 80.00 4.00 385.43 2504.33
   00:40:09.951.04-May-2020 4661.71 5811.58 80.00 4.00 385.63 2504.33
   00:40:10.151.04-May-2020 4661.71 5812.30 80.00 4.00 385.83 2504.33
   00:40:10.351.04-May-2020 4661.71 5812.05 79.99 4.00 386.03 2504.33
   00:40:10.551.04-May-2020 4661.71 5812.05 79.99 4.00 386.23 2504.33
   00:40:10.751.04-May-2020 4661.71 5810.55 79.99 4.00 386.43 2504.33
   00:40:10.951.04-May-2020 4661.71 5810.95 79.99 4.00 386.63 2504.33
   00:40:11.151.04-May-2020 4661.71 5814.57 79.99 4.00 386.83 2504.33
   00:40:11.351.04-May-2020 4661.71 5810.88 79.99 4.00 387.04 2504.33
   00:40:11.551.04-May-2020 4661.71 5810.88 79.99 4.00 387.24 2504.33
   00:40:11.751.04-May-2020 4661.71 5809.48 79.99 4.00 387.44 2504.33
   00:40:11.951.04-May-2020 4661.71 5810.50 79.98 4.00 387.64 2504.33
   00:40:12.151.04-May-2020 4661.71 5812.15 79.98 4.00 387.84 2504.33
   00:40:12.351.04-May-2020 4661.71 5809.95 79.98 4.00 388.04 2504.33
   00:40:12.551.04-May-2020 4661.71 5809.95 79.98 4.00 388.24 2504.33
   00:40:12.751.04-May-2020 4661.71 5812.33 79.98 4.00 388.44 2504.33
   00:40:12.951.04-May-2020 4661.71 5808.94 79.98 4.00 388.64 2504.33
   00:40:13.151.04-May-2020 4661.71 5806.94 79.98 4.00 388.84 2504.33
   00:40:13.351.04-May-2020 4661.71 5808.79 79.98 4.00 389.04 2504.33
   00:40:13.551.04-May-2020 4661.71 5808.79 79.98 4.00 389.24 2504.33
   00:40:13.751.04-May-2020 4661.71 5813.30 79.97 4.00 389.44 2504.33
   00:40:13.951.04-May-2020 4661.71 5809.71 79.97 4.00 389.64 2504.33
   00:40:14.151.04-May-2020 4661.71 5809.17 79.97 4.00 389.84 2504.33
