~Version Information
 VERS.                  2.0:   CWLS log ASCII Standard -VERSION 2.0
 WRAP.                   NO:   One line per depth step
~Well Information Block
#MNEM.UNIT     VALUE/NAME     DESCRIPTION
#---------     -----------    ---------------------------
 STRT.S             01:13:00 04-May-20: START TIME 01:13:00 04-May-20
 STOP.S             01:19:30 04-May-20: STOP TIME  01:19:30 04-May-20
 STEP.S                   0.00: STEP TIME
 NULL.                 -999.25: NULL VALUE
 DFWT.                        :  DIST FWL TEXT
 DFST.                        :  DIST FSL TEXT
 DMF .             Drill Floor:  DRILL MEAS FROM
 STIM.      03.00.00 25-Mar-20:  START TIME
 DATE.      00.00.00 19-May-20:  END TIME
 SPUD.               27-Aug-20:  SPUD DATE
 NREF.                    Grid:  NORTH REFERENCE
 HPTY.       Minimum Curvature:  HOLE POS TYPE
 DMOD.             Drill Model:  DRILL MOD DESC
 SVYD.                  Survey:  SURVEY DESC
 ILTD.               Lithology:  INTERP LTH DESC
 FTOP.          Formation Tops:  FORM TOPS DESC
 SON .        AZ-XX-0906252240:  JOB NUMBER
 RIG .             West Chirag:  RIG NAME
 PDAT.          Mean Sea Level:  PERMANENT DATUM
 FLD .                     ACG:  FIELD NAME
 CTRY.              Azerbaijan:  COUNTRY NAME
 WELL.                     J23:  WELL NAME
 SRVC.          Turan Drilling:  CONTRACTOR
 COMP.     BP Exploration (Caspian Sea) Ltd.:  COMPANY
 WTYP.                Deviated:  WELL TYPE
 MDS .        Operator Entered:  MAG DATA SOURCE
 UWI .                     N/A:  UNIQUE WELL IDENTIFIER
 API .                     N/A:  API NUMBER
 BASE.              Azerbaijan:  LOGGING EQUIPMENT BASE LOCATION
 REGN.                   EESSA:  REGION
 PROV.                    Baku:  PROVINCE
 STAT.                    Baku:  STATE NAME
 MWDS.                     N/A:  MWD SHOP
 JOBN.        AZ-XX-0906252240:  JOB TICKET NUMB
 DOE .                     N/A:  DOE NUMBER
 DCON.         Sperry Drilling:  DIRECTNL CONTR
 UNIT.                     N/A:  LOGGING EQUIPMENT ID
 CNTY.                        :  COUNTY
 LOC .                        :  LOCATION
 LMF .             Drill Floor:  LOG MEASURED FROM
 TVDS.m                  43.00:  TVDSS CORRECTN
 LATI.deg                40.13:  LATITUDE
 LONG.deg                51.22:  LONGITUDE
 WHNS.m                   9.43:  WELL HEAD N/S
 WHEW.m                  -8.91:  WELL HEAD E/W
 UTMX.m              519005.06:  UTM X
 UTMY.m             4443793.85:  UTM Y
 DFWL.m                   0.00:  DISTANCE FWL
 DFSL.m                   0.00:  DISTANCE FSL
 SDEP.m                 363.00:  START DEPTH
 TDD .m                5150.01:  TOTAL DEPTH (DRILLER)
 VSDR.deg               179.88:  VERT SEC DIRECT
 GVFD.g                   1.00:  GRAVITY FIELD
 MFLD.nT              50295.00:  MAGNETIC FIELD
 MDIP.deg                59.56:  MAGNETIC DIP
 MDEC.deg                 6.45:  MAGNETIC DECL
 GRDC.deg                 0.14:  GRID CORRECTION
 AZTC.deg                 6.31:  AZM TOTAL CORR
 EPD .m                   0.00:  ELEVATION
 EGL .m                   0.00:  GROUND ELEVATION
 WDMS.m                 169.80:  WD ELEV
 APD .m                  43.00:  DEPTH ABOVE PD
 DEP .m                 354.17:  DEPTH
 AGAP.m                  43.00:  AIR GAP
 VSEW.m                  -8.91:  VERT SEC E/W
 VSNS.m                   9.43:  VERT SEC N/S
 EKB .m                   0.00:  KB ELEVATION
 EDF .m                  43.00:  DF ELEVATION
 TDL .m                1351.00:  TOTAL DEPTH (LOGGER)
 VSC .                       0:  VS TO CLOSURE
 MAGU.                 1850802:  MAGUTM CHECKSUM
~Parameter Information Block
#MNEM.UNIT       Value        Description
#---------     -----------    ---------------------------
 AV  .mps                 1.00:  Ann Velocity 
 AVMX.mps                 2.40:  Max Ann Veloc 
 AZIF.deg               148.96:  Azm, Final 
 BHAT.        Rotary Steerable:  BHA Type 
 BROT.°/30m               0.04:  Build Rotating 
 BS  .in                 12.25:  Bit Size 
 BSZ .in                 12.25:  Bit Size 
 BTPL.psig              814.00:  Bit Press Loss 
 TCS .hr                106.00:  Time Ciculation Ended 
 CV  .mps                 2.47:  Crit Velocity 
 CVMX.mps                 2.64:  Max Crit Veloc 
 DD1 .          Rashad Habibov:  Direct Drillr 1 
 DD2 .         Rasim Ibrahimov:  Direct Drillr 2 
 DDSV.                 iCruise:  DD Service 
 DEFF.%                 100.00:  % Det Eff 
 DLRX.°/30m               0.70:  Dogleg Rot Max 
 DLSO.°/30m               3.00:  Dogleg Oriented 
 DLSX.°/30m               4.55:  Dogleg Str Max 
 DRET.      08.08.32 02-May-20:  Drill End Time 
 DRST.      08.08.32 28-Apr-20:  Drill Start Tim 
 DTIM.hr                 60.00:  Time Drilling 
 EDEP.m                4761.01:  End Depth 
 ENG1.           Eldar Hajiyev:  Engineer 1 
 ENG2.        Marcelo Sandoval:  Engineer 2 
 ETIM.      23.23.07 05-May-20:  End Time 
 FLOI.gpm              1200.00:  Flow In 
 FLON.gpm               900.00:  Flow In Min 
 FLOS.cptm                0.00:  Fluid Loss 
 FLOX.gpm              1200.00:  Flow In Max 
 HFLO.                      No:  High Flow 
 HPRE.                      No:  High Pressure 
 HTEM.                      No:  High Temp 
 HYDO.m                   1.80:  Hydro Offset 
 IFIN.deg                68.17:  Inc, Final 
 IMAX.deg                74.61:  Inc Max 
 IMIN.deg                68.15:  Inc Min 
 IMND.m                4317.87:  Inc Min Depth 
 IMXD.m                4714.01:  Inc Max Depth 
 LETM.      08.08.32 02-May-20:  Log End Time 
 LOST.hr                     2:  Lost Rig Time 
 LSTM.      08.08.32 28-Apr-20:  Log Start Time 
 MDCL.ppm             41000.00:  Mud Chlorides 
 MDES.     Inversion Oil/Synthetic:  Mud Desc 
 DFD .sg                  1.58:  Mud Density 
 MDMN.sg                  1.58:  Dens Mud Min 
 MDMX.sg                  1.58:  Dens Mud Max 
 MOIL.                      71:  Run Mud Oil % 
 MOWR.                   71:29:  Run Mud OWR 
 MSND.                     0.1:  Run Mud Sand % 
 MSOL.                      23:  Run Mud Solids% 
 DFV .spqt               82.00:  Mud Viscosity 
 MWOD.in                  8.00:  MWD Tool OD 
 MWSI.                     Yes:  Serv Intrp, MWD 
 OTIM.hr                125.00:  Time Operating 
 PMAX.psia             6129.00:  Press Op, Max 
 PV  .cP                 32.00:  Mud PV 
 RUN .                     800:  Run Number 
 ROPA.m/hr               30.00:  ROP Avg 
 ROPN.m/hr               10.00:  ROP Min 
 ROPX.m/hr               40.00:  ROP Max 
 RPMA.rpm               140.00:  RPM Surface Avg 
 RPMN.rpm                80.00:  RPM Surface Min 
 RPMX.rpm               140.00:  RPM Surface Max 
 RRUN.                    L503:  Rig Run Number 
 RTIM.hr                  2.00:  Time Reaming 
 SAZI.deg               184.23:  Azm, Start 
 SDEP.m                3410.01:  Start Depth 
 SIDD.                      No:  Serv Intrp, DD 
 SINC.deg                68.29:  Inc, Start 
 SPPA.psig             6000.00:  SPP Avg 
 SPPN.psig             4000.00:  SPP Min 
 SPPX.psig             6100.00:  SPP Max 
 STIM.      08.08.32 28-Apr-20:  Start Time 
 SVCS.                 DD, MWD:  Services 
 SVER.                    9.20:  Sperry Version 
 TDAT.m                1351.00:  Tot Depth Attmp 
 TDDF.                      No:  Trip for DD 
 TDLG.m                1351.00:  Tot Depth Loggd 
 TFF .                      No:  Trip for Fail 
 TQAA.f-kp               27.00:  Torque Abs Avg 
 TQAN.f-kp               20.00:  Torque Abs Min 
 TQAX.f-kp               30.00:  Torque Abs Max 
 TRRT.°/30m               0.60:  Turn Rotating 
 MRT .                    EWER:  Maximum Recorded Temperature 
 TTMX.degC               83.00:  Max Tool Temp 
 VS01.                90511138:  Virtual Str1 SN 
 VS02.                90524876:  Virtual Str2 SN 
 VS03.                90524872:  Virtual Str3 SN 
 VS04.                90502750:  Virtual Str4 SN 
 VS05.                12330984:  Virtual Str5 SN 
 WBMN.klb                 0.00:  WOB Min 
 WOBA.klb                15.00:  WOB Avg 
 WOBX.klb                20.00:  WOB Max 
 YP  .lhf2               31.00:  Yield Point 
~Curve Information Block
#MNEM.UNIT                 API CODE     Curve Description
#---------               -----------    ---------------------------
 TIME.HHMMSS            00 000 000 000:  GT Time & Date
 GTDEPTH.m              00 000 000 000:  GT Depth
 GTPQH.psia             00 000 000 000:  GT HR Quartz Pressure
 GTTQ.degC              00 000 000 000:  GT Quartz Temperature
 GTTN.NONE              00 000 000 000:  GT Test Number
 GTET.sec               00 000 000 000:  GT Elapsed Test Time
 GTTVD.m                00 000 000 000:  GT True Vertical Depth
#Other Information
#
#WARRANTY: Halliburton will use its best efforts to furnish customers with 
#accurate information and interpretations that are part of, and incident to, the services 
#provided.  However, Halliburton cannot and does not warrant the accuracy 
#or correctness of such information and interpretations.  Under no circumstances should any 
#such information or interpretation be relied upon as the sole basis for any drilling, 
#completion, production, or financial decision or any procedure involving any risk to the 
#safety of any drilling venture, drilling rig or its crew or any other third party.  The 
#Customer has full responsibility for all drilling, completion and production operation.  
#Halliburton makes no representations or warranties, either expressed or 
#implied, including, but not limited to, the implied warranties of merchantability or fitness 
#for a particular purpose, with respect to the services rendered.  In no event will 
#Halliburton be liable for failure to obtain any particular results or for 
#any damages, including, but not limited to, indirect, special or consequential damages, 
#resulting from the use of any information or interpretation provided by Halliburton.
#
~A           TIME           GTDEPTH  GTPQH  GTTQ  GTTN  GTET   GTTVD  
# ...
   01:14:32.538.04-May-2020 4660.50 3724.12 76.30 5.00  92.01 2503.99
   01:14:32.738.04-May-2020 4660.50 3724.12 76.30 5.00  92.21 2503.99
   01:14:32.938.04-May-2020 4660.50 3728.42 76.30 5.00  92.41 2503.99
   01:14:33.138.04-May-2020 4660.50 3731.09 76.30 5.00  92.61 2503.99
   01:14:33.338.04-May-2020 4660.50 3732.31 76.30 5.00  92.81 2503.99
   01:14:33.538.04-May-2020 4660.50 3734.49 76.30 5.00  93.01 2503.99
   01:14:33.738.04-May-2020 4660.50 3734.49 76.30 5.00  93.21 2503.99
   01:14:33.938.04-May-2020 4660.50 3739.27 76.30 5.00  93.41 2503.99
   01:14:34.138.04-May-2020 4660.50 3740.91 76.30 5.00  93.61 2503.99
   01:14:34.338.04-May-2020 4660.50 3743.01 76.30 5.00  93.81 2503.99
   01:14:34.538.04-May-2020 4660.50 3745.07 76.30 5.00  94.01 2503.99
   01:14:34.738.04-May-2020 4660.50 3745.07 76.30 5.00  94.21 2503.99
   01:14:34.938.04-May-2020 4660.50 3749.61 76.30 5.00  94.41 2503.99
   01:14:35.138.04-May-2020 4660.50 3751.60 76.30 5.00  94.61 2503.99
   01:14:35.338.04-May-2020 4660.50 3753.82 76.30 5.00  94.81 2503.99
   01:14:35.538.04-May-2020 4660.50 3756.05 76.30 5.00  95.01 2503.99
   01:14:35.738.04-May-2020 4660.50 3756.05 76.30 5.00  95.21 2503.99
   01:14:35.938.04-May-2020 4660.50 3760.26 76.30 5.00  95.41 2503.99
   01:14:36.138.04-May-2020 4660.50 3762.40 76.30 5.00  95.61 2503.99
   01:14:36.338.04-May-2020 4660.50 3764.44 76.30 5.00  95.81 2503.99
   01:14:36.538.04-May-2020 4660.50 3766.43 76.30 5.00  96.01 2503.99
   01:14:36.738.04-May-2020 4660.50 3766.43 76.30 5.00  96.21 2503.99
   01:14:36.938.04-May-2020 4660.50 3768.62 76.30 5.00  96.41 2503.99
   01:14:37.138.04-May-2020 4660.50 3772.64 76.29 5.00  96.61 2503.99
   01:14:37.338.04-May-2020 4660.50 3774.52 76.29 5.00  96.81 2503.99
   01:14:37.538.04-May-2020 4660.50 3776.68 76.29 5.00  97.01 2503.99
   01:14:37.738.04-May-2020 4660.50 3776.68 76.29 5.00  97.21 2503.99
   01:14:37.938.04-May-2020 4660.50 3780.48 76.29 5.00  97.41 2503.99
   01:14:38.138.04-May-2020 4660.50 3782.33 76.29 5.00  97.61 2503.99
   01:14:38.338.04-May-2020 4660.50 3784.29 76.29 5.00  97.81 2503.99
   01:14:38.538.04-May-2020 4660.50 3786.28 76.29 5.00  98.01 2503.99
   01:14:38.738.04-May-2020 4660.50 3786.28 76.29 5.00  98.21 2503.99
   01:14:38.938.04-May-2020 4660.50 3789.75 76.29 5.00  98.41 2503.99
   01:14:39.138.04-May-2020 4660.50 3791.57 76.29 5.00  98.61 2503.99
   01:14:39.338.04-May-2020 4660.50 3793.11 76.29 5.00  98.81 2503.99
   01:14:39.538.04-May-2020 4660.50 3794.59 76.29 5.00  99.01 2503.99
   01:14:39.738.04-May-2020 4660.50 3796.96 76.29 5.00  99.21 2503.99
   01:14:39.938.04-May-2020 4660.50 3798.49 76.29 5.00  99.41 2503.99
   01:14:40.138.04-May-2020 4660.50 3800.34 76.29 5.00  99.61 2503.99
   01:14:40.338.04-May-2020 4660.50 3801.94 76.29 5.00  99.81 2503.99
   01:14:40.538.04-May-2020 4660.50 3804.65 76.29 5.00 100.01 2503.99
   01:14:40.738.04-May-2020 4660.50 3804.65 76.29 5.00 100.21 2503.99
   01:14:40.938.04-May-2020 4660.50 3807.77 76.29 5.00 100.41 2503.99
   01:14:41.138.04-May-2020 4660.50 3809.60 76.29 5.00 100.61 2503.99
   01:14:41.338.04-May-2020 4660.50 3811.57 76.29 5.00 100.81 2503.99
   01:14:41.538.04-May-2020 4660.50 3813.01 76.29 5.00 101.01 2503.99
   01:14:41.738.04-May-2020 4660.50 3813.01 76.29 5.00 101.21 2503.99
   01:14:41.938.04-May-2020 4660.50 3816.78 76.28 5.00 101.41 2503.99
   01:14:42.138.04-May-2020 4660.50 3818.52 76.28 5.00 101.61 2503.99
   01:14:42.339.04-May-2020 4660.50 3820.82 76.28 5.00 101.81 2503.99
   01:14:42.539.04-May-2020 4660.50 3822.36 76.28 5.00 102.01 2503.99
   01:14:42.739.04-May-2020 4660.50 3822.36 76.28 5.00 102.21 2503.99
   01:14:42.939.04-May-2020 4660.50 3825.49 76.28 5.00 102.41 2503.99
   01:14:43.139.04-May-2020 4660.50 3827.41 76.28 5.00 102.61 2503.99
   01:14:43.339.04-May-2020 4660.50 3828.92 76.28 5.00 102.81 2503.99
   01:14:43.539.04-May-2020 4660.50 3830.74 76.28 5.00 103.01 2503.99
   01:14:43.739.04-May-2020 4660.50 3830.74 76.28 5.00 103.21 2503.99
   01:14:43.939.04-May-2020 4660.50 3834.21 76.28 5.00 103.41 2503.99
   01:14:44.139.04-May-2020 4660.50 3835.94 76.28 5.00 103.61 2503.99
   01:14:44.339.04-May-2020 4660.50 3837.59 76.28 5.00 103.81 2503.99
   01:14:44.539.04-May-2020 4660.50 3839.40 76.28 5.00 104.01 2503.99
   01:14:44.739.04-May-2020 4660.50 3839.40 76.28 5.00 104.21 2503.99
   01:14:44.939.04-May-2020 4660.50 3842.87 76.28 5.00 104.41 2503.99
   01:14:45.139.04-May-2020 4660.50 3844.35 76.28 5.00 104.61 2503.99
   01:14:45.339.04-May-2020 4660.50 3846.15 76.28 5.00 104.81 2503.99
   01:14:45.539.04-May-2020 4660.50 3847.51 76.28 5.00 105.01 2503.99
   01:14:45.739.04-May-2020 4660.50 3847.51 76.28 5.00 105.21 2503.99
   01:14:45.939.04-May-2020 4660.50 3850.28 76.28 5.00 105.41 2503.99
   01:14:46.139.04-May-2020 4660.50 3851.90 76.28 5.00 105.61 2503.99
   01:14:46.339.04-May-2020 4660.50 3853.08 76.28 5.00 105.81 2503.99
   01:14:46.539.04-May-2020 4660.50 3854.69 76.27 5.00 106.01 2503.99
   01:14:46.739.04-May-2020 4660.50 3854.69 76.27 5.00 106.21 2503.99
   01:14:46.939.04-May-2020 4660.50 3858.01 76.27 5.00 106.41 2503.99
   01:14:47.139.04-May-2020 4660.50 3859.60 76.27 5.00 106.61 2503.99
   01:14:47.339.04-May-2020 4660.50 3861.45 76.27 5.00 106.81 2503.99
   01:14:47.539.04-May-2020 4660.50 3863.41 76.27 5.00 107.01 2503.99
   01:14:47.739.04-May-2020 4660.50 3863.41 76.27 5.00 107.21 2503.99
   01:14:47.939.04-May-2020 4660.50 3866.03 76.27 5.00 107.41 2503.99
   01:14:48.139.04-May-2020 4660.50 3867.46 76.27 5.00 107.61 2503.99
   01:14:48.339.04-May-2020 4660.50 3870.04 76.27 5.00 107.81 2503.99
   01:14:48.539.04-May-2020 4660.50 3871.01 76.27 5.00 108.01 2503.99
   01:14:48.739.04-May-2020 4660.50 3871.01 76.27 5.00 108.21 2503.99
   01:14:48.939.04-May-2020 4660.50 3872.38 76.27 5.00 108.41 2503.99
   01:14:49.139.04-May-2020 4660.50 3875.60 76.27 5.00 108.61 2503.99
   01:14:49.339.04-May-2020 4660.50 3877.20 76.27 5.00 108.81 2503.99
   01:14:49.539.04-May-2020 4660.50 3878.65 76.27 5.00 109.01 2503.99
   01:14:49.739.04-May-2020 4660.50 3878.65 76.27 5.00 109.21 2503.99
   01:14:49.939.04-May-2020 4660.50 3881.60 76.27 5.00 109.41 2503.99
   01:14:50.139.04-May-2020 4660.50 3884.15 76.27 5.00 109.61 2503.99
   01:14:50.339.04-May-2020 4660.50 3884.65 76.27 5.00 109.81 2503.99
   01:14:50.539.04-May-2020 4660.50 3886.31 76.27 5.00 110.01 2503.99
   01:14:50.739.04-May-2020 4660.50 3886.31 76.27 5.00 110.21 2503.99
   01:14:50.939.04-May-2020 4660.50 3890.51 76.27 5.00 110.41 2503.99
   01:14:51.139.04-May-2020 4660.50 3891.33 76.26 5.00 110.61 2503.99
   01:14:51.339.04-May-2020 4660.50 3892.85 76.26 5.00 110.81 2503.99
   01:14:51.539.04-May-2020 4660.50 3894.39 76.26 5.00 111.01 2503.99
   01:14:51.739.04-May-2020 4660.50 3894.39 76.26 5.00 111.21 2503.99
   01:14:51.939.04-May-2020 4660.50 3897.57 76.26 5.00 111.41 2503.99
   01:14:52.139.04-May-2020 4660.50 3899.12 76.26 5.00 111.61 2503.99
   01:14:52.339.04-May-2020 4660.50 3901.54 76.26 5.00 111.81 2503.99
   01:14:52.539.04-May-2020 4660.50 3903.44 76.26 5.00 112.01 2503.99
   01:14:52.739.04-May-2020 4660.50 3903.44 76.26 5.00 112.21 2503.99
   01:14:52.939.04-May-2020 4660.50 3906.96 76.26 5.00 112.41 2503.99
   01:14:53.139.04-May-2020 4660.50 3908.82 76.26 5.00 112.61 2503.99
   01:14:53.340.04-May-2020 4660.50 3910.34 76.26 5.00 112.81 2503.99
   01:14:53.540.04-May-2020 4660.50 3911.84 76.26 5.00 113.01 2503.99
   01:14:53.740.04-May-2020 4660.50 3911.84 76.26 5.00 113.21 2503.99
   01:14:53.940.04-May-2020 4660.50 3914.74 76.26 5.00 113.41 2503.99
   01:14:54.140.04-May-2020 4660.50 3916.54 76.26 5.00 113.61 2503.99
   01:14:54.340.04-May-2020 4660.50 3918.16 76.26 5.00 113.81 2503.99
   01:14:54.540.04-May-2020 4660.50 3919.66 76.26 5.00 114.01 2503.99
   01:14:54.740.04-May-2020 4660.50 3919.66 76.26 5.00 114.21 2503.99
   01:14:54.940.04-May-2020 4660.50 3922.65 76.26 5.00 114.41 2503.99
   01:14:55.140.04-May-2020 4660.50 3924.04 76.26 5.00 114.61 2503.99
   01:14:55.340.04-May-2020 4660.50 3925.51 76.26 5.00 114.81 2503.99
