~Version Information
 VERS.                  2.0:   CWLS log ASCII Standard -VERSION 2.0
 WRAP.                   NO:   One line per depth step
~Well Information Block
#MNEM.UNIT     VALUE/NAME     DESCRIPTION
#---------     -----------    ---------------------------
 STRT.S             01:13:00 04-May-20: START TIME 01:13:00 04-May-20
 STOP.S             01:19:30 04-May-20: STOP TIME  01:19:30 04-May-20
 STEP.S                   0.00: STEP TIME
 NULL.                 -999.25: NULL VALUE
 DFWT.                        :  DIST FWL TEXT
 DFST.                        :  DIST FSL TEXT
 DMF .             Drill Floor:  DRILL MEAS FROM
 STIM.      03.00.00 25-Mar-20:  START TIME
 DATE.      00.00.00 19-May-20:  END TIME
 SPUD.               27-Aug-20:  SPUD DATE
 NREF.                    Grid:  NORTH REFERENCE
 HPTY.       Minimum Curvature:  HOLE POS TYPE
 DMOD.             Drill Model:  DRILL MOD DESC
 SVYD.                  Survey:  SURVEY DESC
 ILTD.               Lithology:  INTERP LTH DESC
 FTOP.          Formation Tops:  FORM TOPS DESC
 SON .        AZ-XX-0906252240:  JOB NUMBER
 RIG .             West Chirag:  RIG NAME
 PDAT.          Mean Sea Level:  PERMANENT DATUM
 FLD .                     ACG:  FIELD NAME
 CTRY.              Azerbaijan:  COUNTRY NAME
 WELL.                     J23:  WELL NAME
 SRVC.          Turan Drilling:  CONTRACTOR
 COMP.     BP Exploration (Caspian Sea) Ltd.:  COMPANY
 WTYP.                Deviated:  WELL TYPE
 MDS .        Operator Entered:  MAG DATA SOURCE
 UWI .                     N/A:  UNIQUE WELL IDENTIFIER
 API .                     N/A:  API NUMBER
 BASE.              Azerbaijan:  LOGGING EQUIPMENT BASE LOCATION
 REGN.                   EESSA:  REGION
 PROV.                    Baku:  PROVINCE
 STAT.                    Baku:  STATE NAME
 MWDS.                     N/A:  MWD SHOP
 JOBN.        AZ-XX-0906252240:  JOB TICKET NUMB
 DOE .                     N/A:  DOE NUMBER
 DCON.         Sperry Drilling:  DIRECTNL CONTR
 UNIT.                     N/A:  LOGGING EQUIPMENT ID
 CNTY.                        :  COUNTY
 LOC .                        :  LOCATION
 LMF .             Drill Floor:  LOG MEASURED FROM
 TVDS.m                  43.00:  TVDSS CORRECTN
 LATI.deg                40.13:  LATITUDE
 LONG.deg                51.22:  LONGITUDE
 WHNS.m                   9.43:  WELL HEAD N/S
 WHEW.m                  -8.91:  WELL HEAD E/W
 UTMX.m              519005.06:  UTM X
 UTMY.m             4443793.85:  UTM Y
 DFWL.m                   0.00:  DISTANCE FWL
 DFSL.m                   0.00:  DISTANCE FSL
 SDEP.m                 363.00:  START DEPTH
 TDD .m                5150.01:  TOTAL DEPTH (DRILLER)
 VSDR.deg               179.88:  VERT SEC DIRECT
 GVFD.g                   1.00:  GRAVITY FIELD
 MFLD.nT              50295.00:  MAGNETIC FIELD
 MDIP.deg                59.56:  MAGNETIC DIP
 MDEC.deg                 6.45:  MAGNETIC DECL
 GRDC.deg                 0.14:  GRID CORRECTION
 AZTC.deg                 6.31:  AZM TOTAL CORR
 EPD .m                   0.00:  ELEVATION
 EGL .m                   0.00:  GROUND ELEVATION
 WDMS.m                 169.80:  WD ELEV
 APD .m                  43.00:  DEPTH ABOVE PD
 DEP .m                 354.17:  DEPTH
 AGAP.m                  43.00:  AIR GAP
 VSEW.m                  -8.91:  VERT SEC E/W
 VSNS.m                   9.43:  VERT SEC N/S
 EKB .m                   0.00:  KB ELEVATION
 EDF .m                  43.00:  DF ELEVATION
 TDL .m                1351.00:  TOTAL DEPTH (LOGGER)
 VSC .                       0:  VS TO CLOSURE
 MAGU.                 1850802:  MAGUTM CHECKSUM
~Parameter Information Block
#MNEM.UNIT       Value        Description
#---------     -----------    ---------------------------
 AV  .mps                 1.00:  Ann Velocity 
 AVMX.mps                 2.40:  Max Ann Veloc 
 AZIF.deg               148.96:  Azm, Final 
 BHAT.        Rotary Steerable:  BHA Type 
 BROT.°/30m               0.04:  Build Rotating 
 BS  .in                 12.25:  Bit Size 
 BSZ .in                 12.25:  Bit Size 
 BTPL.psig              814.00:  Bit Press Loss 
 TCS .hr                106.00:  Time Ciculation Ended 
 CV  .mps                 2.47:  Crit Velocity 
 CVMX.mps                 2.64:  Max Crit Veloc 
 DD1 .          Rashad Habibov:  Direct Drillr 1 
 DD2 .         Rasim Ibrahimov:  Direct Drillr 2 
 DDSV.                 iCruise:  DD Service 
 DEFF.%                 100.00:  % Det Eff 
 DLRX.°/30m               0.70:  Dogleg Rot Max 
 DLSO.°/30m               3.00:  Dogleg Oriented 
 DLSX.°/30m               4.55:  Dogleg Str Max 
 DRET.      08.08.32 02-May-20:  Drill End Time 
 DRST.      08.08.32 28-Apr-20:  Drill Start Tim 
 DTIM.hr                 60.00:  Time Drilling 
 EDEP.m                4761.01:  End Depth 
 ENG1.           Eldar Hajiyev:  Engineer 1 
 ENG2.        Marcelo Sandoval:  Engineer 2 
 ETIM.      23.23.07 05-May-20:  End Time 
 FLOI.gpm              1200.00:  Flow In 
 FLON.gpm               900.00:  Flow In Min 
 FLOS.cptm                0.00:  Fluid Loss 
 FLOX.gpm              1200.00:  Flow In Max 
 HFLO.                      No:  High Flow 
 HPRE.                      No:  High Pressure 
 HTEM.                      No:  High Temp 
 HYDO.m                   1.80:  Hydro Offset 
 IFIN.deg                68.17:  Inc, Final 
 IMAX.deg                74.61:  Inc Max 
 IMIN.deg                68.15:  Inc Min 
 IMND.m                4317.87:  Inc Min Depth 
 IMXD.m                4714.01:  Inc Max Depth 
 LETM.      08.08.32 02-May-20:  Log End Time 
 LOST.hr                     2:  Lost Rig Time 
 LSTM.      08.08.32 28-Apr-20:  Log Start Time 
 MDCL.ppm             41000.00:  Mud Chlorides 
 MDES.     Inversion Oil/Synthetic:  Mud Desc 
 DFD .sg                  1.58:  Mud Density 
 MDMN.sg                  1.58:  Dens Mud Min 
 MDMX.sg                  1.58:  Dens Mud Max 
 MOIL.                      71:  Run Mud Oil % 
 MOWR.                   71:29:  Run Mud OWR 
 MSND.                     0.1:  Run Mud Sand % 
 MSOL.                      23:  Run Mud Solids% 
 DFV .spqt               82.00:  Mud Viscosity 
 MWOD.in                  8.00:  MWD Tool OD 
 MWSI.                     Yes:  Serv Intrp, MWD 
 OTIM.hr                125.00:  Time Operating 
 PMAX.psia             6129.00:  Press Op, Max 
 PV  .cP                 32.00:  Mud PV 
 RUN .                     800:  Run Number 
 ROPA.m/hr               30.00:  ROP Avg 
 ROPN.m/hr               10.00:  ROP Min 
 ROPX.m/hr               40.00:  ROP Max 
 RPMA.rpm               140.00:  RPM Surface Avg 
 RPMN.rpm                80.00:  RPM Surface Min 
 RPMX.rpm               140.00:  RPM Surface Max 
 RRUN.                    L503:  Rig Run Number 
 RTIM.hr                  2.00:  Time Reaming 
 SAZI.deg               184.23:  Azm, Start 
 SDEP.m                3410.01:  Start Depth 
 SIDD.                      No:  Serv Intrp, DD 
 SINC.deg                68.29:  Inc, Start 
 SPPA.psig             6000.00:  SPP Avg 
 SPPN.psig             4000.00:  SPP Min 
 SPPX.psig             6100.00:  SPP Max 
 STIM.      08.08.32 28-Apr-20:  Start Time 
 SVCS.                 DD, MWD:  Services 
 SVER.                    9.20:  Sperry Version 
 TDAT.m                1351.00:  Tot Depth Attmp 
 TDDF.                      No:  Trip for DD 
 TDLG.m                1351.00:  Tot Depth Loggd 
 TFF .                      No:  Trip for Fail 
 TQAA.f-kp               27.00:  Torque Abs Avg 
 TQAN.f-kp               20.00:  Torque Abs Min 
 TQAX.f-kp               30.00:  Torque Abs Max 
 TRRT.°/30m               0.60:  Turn Rotating 
 MRT .                    EWER:  Maximum Recorded Temperature 
 TTMX.degC               83.00:  Max Tool Temp 
 VS01.                90511138:  Virtual Str1 SN 
 VS02.                90524876:  Virtual Str2 SN 
 VS03.                90524872:  Virtual Str3 SN 
 VS04.                90502750:  Virtual Str4 SN 
 VS05.                12330984:  Virtual Str5 SN 
 WBMN.klb                 0.00:  WOB Min 
 WOBA.klb                15.00:  WOB Avg 
 WOBX.klb                20.00:  WOB Max 
 YP  .lhf2               31.00:  Yield Point 
~Curve Information Block
#MNEM.UNIT                 API CODE     Curve Description
#---------               -----------    ---------------------------
 TIME.HHMMSS            00 000 000 000:  GT Time & Date
 GTDEPTH.m              00 000 000 000:  GT Depth
 GTPQH.psia             00 000 000 000:  GT HR Quartz Pressure
 GTTQ.degC              00 000 000 000:  GT Quartz Temperature
 GTTN.NONE              00 000 000 000:  GT Test Number
 GTET.sec               00 000 000 000:  GT Elapsed Test Time
 GTTVD.m                00 000 000 000:  GT True Vertical Depth
#Other Information
#
#WARRANTY: Halliburton will use its best efforts to furnish customers with 
#accurate information and interpretations that are part of, and incident to, the services 
#provided.  However, Halliburton cannot and does not warrant the accuracy 
#or correctness of such information and interpretations.  Under no circumstances should any 
#such information or interpretation be relied upon as the sole basis for any drilling, 
#completion, production, or financial decision or any procedure involving any risk to the 
#safety of any drilling venture, drilling rig or its crew or any other third party.  The 
#Customer has full responsibility for all drilling, completion and production operation.  
#Halliburton makes no representations or warranties, either expressed or 
#implied, including, but not limited to, the implied warranties of merchantability or fitness 
#for a particular purpose, with respect to the services rendered.  In no event will 
#Halliburton be liable for failure to obtain any particular results or for 
#any damages, including, but not limited to, indirect, special or consequential damages, 
#resulting from the use of any information or interpretation provided by Halliburton.
#
~A           TIME           GTDEPTH  GTPQH  GTTQ  GTTN  GTET   GTTVD  
# ...
   01:17:13.552.04-May-2020 4660.50   67.28 75.88 5.00 253.02 2503.99
   01:17:13.752.04-May-2020 4660.50   67.28 75.88 5.00 253.22 2503.99
   01:17:13.952.04-May-2020 4660.50   67.33 75.88 5.00 253.42 2503.99
   01:17:14.152.04-May-2020 4660.50   67.40 75.88 5.00 253.62 2503.99
   01:17:14.352.04-May-2020 4660.50   67.42 75.88 5.00 253.82 2503.99
   01:17:14.552.04-May-2020 4660.50   67.45 75.88 5.00 254.02 2503.99
   01:17:14.752.04-May-2020 4660.50   67.45 75.88 5.00 254.22 2503.99
   01:17:14.952.04-May-2020 4660.50   67.52 75.88 5.00 254.42 2503.99
   01:17:15.152.04-May-2020 4660.50   67.57 75.88 5.00 254.62 2503.99
   01:17:15.352.04-May-2020 4660.50   67.59 75.88 5.00 254.82 2503.99
   01:17:15.552.04-May-2020 4660.50   67.64 75.88 5.00 255.02 2503.99
   01:17:15.752.04-May-2020 4660.50   67.64 75.88 5.00 255.22 2503.99
   01:17:15.952.04-May-2020 4660.50   67.70 75.88 5.00 255.42 2503.99
   01:17:16.152.04-May-2020 4660.50   67.73 75.88 5.00 255.62 2503.99
   01:17:16.352.04-May-2020 4660.50   67.76 75.88 5.00 255.82 2503.99
   01:17:16.552.04-May-2020 4660.50   67.79 75.88 5.00 256.02 2503.99
   01:17:16.752.04-May-2020 4660.50   67.83 75.88 5.00 256.22 2503.99
   01:17:16.952.04-May-2020 4660.50   67.86 75.88 5.00 256.42 2503.99
   01:17:17.153.04-May-2020 4660.50   67.89 75.88 5.00 256.62 2503.99
   01:17:17.353.04-May-2020 4660.50   67.93 75.88 5.00 256.82 2503.99
   01:17:17.553.04-May-2020 4660.50   67.96 75.88 5.00 257.02 2503.99
   01:17:17.753.04-May-2020 4660.50   67.96 75.88 5.00 257.22 2503.99
   01:17:17.953.04-May-2020 4660.50   68.03 75.88 5.00 257.42 2503.99
   01:17:18.153.04-May-2020 4660.50   68.07 75.88 5.00 257.62 2503.99
   01:17:18.353.04-May-2020 4660.50   68.16 75.87 5.00 257.82 2503.99
   01:17:18.553.04-May-2020 4660.50   68.17 75.87 5.00 258.02 2503.99
   01:17:18.753.04-May-2020 4660.50   67.51 75.87 5.00 258.22 2503.99
   01:17:18.953.04-May-2020 4660.50   66.03 75.87 5.00 258.42 2503.99
   01:17:19.153.04-May-2020 4660.50   64.72 75.87 5.00 258.62 2503.99
   01:17:19.353.04-May-2020 4660.50   63.52 75.87 5.00 258.82 2503.99
   01:17:19.553.04-May-2020 4660.50   62.40 75.87 5.00 259.02 2503.99
   01:17:19.753.04-May-2020 4660.50   61.30 75.87 5.00 259.22 2503.99
   01:17:19.953.04-May-2020 4660.50   60.25 75.87 5.00 259.42 2503.99
   01:17:20.153.04-May-2020 4660.50   59.23 75.87 5.00 259.62 2503.99
   01:17:20.353.04-May-2020 4660.50   58.27 75.87 5.00 259.82 2503.99
   01:17:20.553.04-May-2020 4660.50   57.35 75.87 5.00 260.02 2503.99
   01:17:20.753.04-May-2020 4660.50   57.35 75.87 5.00 260.22 2503.99
   01:17:20.953.04-May-2020 4660.50   55.62 75.87 5.00 260.42 2503.99
   01:17:21.153.04-May-2020 4660.50   54.79 75.87 5.00 260.62 2503.99
   01:17:21.353.04-May-2020 4660.50   54.02 75.87 5.00 260.82 2503.99
   01:17:21.553.04-May-2020 4660.50   53.30 75.87 5.00 261.02 2503.99
   01:17:21.753.04-May-2020 4660.50   52.58 75.87 5.00 261.22 2503.99
   01:17:21.953.04-May-2020 4660.50   51.93 75.87 5.00 261.42 2503.99
   01:17:22.153.04-May-2020 4660.50   51.29 75.87 5.00 261.62 2503.99
   01:17:22.353.04-May-2020 4660.50   50.67 75.87 5.00 261.82 2503.99
   01:17:22.553.04-May-2020 4660.50   50.04 75.87 5.00 262.02 2503.99
   01:17:22.753.04-May-2020 4660.50   50.04 75.87 5.00 262.22 2503.99
   01:17:22.953.04-May-2020 4660.50   48.93 75.87 5.00 262.42 2503.99
   01:17:23.153.04-May-2020 4660.50   48.39 75.87 5.00 262.62 2503.99
   01:17:23.353.04-May-2020 4660.50   47.85 75.87 5.00 262.82 2503.99
   01:17:23.553.04-May-2020 4660.50   47.37 75.86 5.00 263.02 2503.99
   01:17:23.753.04-May-2020 4660.50   46.90 75.86 5.00 263.22 2503.99
   01:17:23.953.04-May-2020 4660.50   46.44 75.86 5.00 263.42 2503.99
   01:17:24.153.04-May-2020 4660.50   46.00 75.86 5.00 263.62 2503.99
   01:17:24.353.04-May-2020 4660.50   45.57 75.86 5.00 263.82 2503.99
   01:17:24.553.04-May-2020 4660.50   45.17 75.86 5.00 264.02 2503.99
   01:17:24.753.04-May-2020 4660.50   45.17 75.86 5.00 264.22 2503.99
   01:17:24.953.04-May-2020 4660.50   44.40 75.86 5.00 264.42 2503.99
   01:17:25.153.04-May-2020 4660.50   44.02 75.86 5.00 264.62 2503.99
   01:17:25.353.04-May-2020 4660.50   43.65 75.86 5.00 264.82 2503.99
   01:17:25.553.04-May-2020 4660.50   43.30 75.86 5.00 265.02 2503.99
   01:17:25.753.04-May-2020 4660.50   43.30 75.86 5.00 265.22 2503.99
   01:17:25.953.04-May-2020 4660.50   42.62 75.86 5.00 265.42 2503.99
   01:17:26.153.04-May-2020 4660.50   42.26 75.86 5.00 265.62 2503.99
   01:17:26.353.04-May-2020 4660.50   41.99 75.86 5.00 265.82 2503.99
   01:17:26.553.04-May-2020 4660.50   41.70 75.86 5.00 266.02 2503.99
   01:17:26.753.04-May-2020 4660.50   41.42 75.86 5.00 266.22 2503.99
   01:17:26.953.04-May-2020 4660.50   41.14 75.86 5.00 266.42 2503.99
   01:17:27.153.04-May-2020 4660.50   41.04 75.86 5.00 266.62 2503.99
   01:17:27.353.04-May-2020 4660.50   41.07 75.86 5.00 266.82 2503.99
   01:17:27.553.04-May-2020 4660.50   41.11 75.86 5.00 267.02 2503.99
   01:17:27.753.04-May-2020 4660.50   41.11 75.86 5.00 267.22 2503.99
   01:17:27.953.04-May-2020 4660.50   41.20 75.86 5.00 267.42 2503.99
   01:17:28.154.04-May-2020 4660.50   41.25 75.86 5.00 267.62 2503.99
   01:17:28.354.04-May-2020 4660.50   41.30 75.85 5.00 267.82 2503.99
   01:17:28.554.04-May-2020 4660.50   41.35 75.85 5.00 268.02 2503.99
   01:17:28.754.04-May-2020 4660.50   41.35 75.85 5.00 268.22 2503.99
   01:17:28.954.04-May-2020 4660.50   41.46 75.85 5.00 268.42 2503.99
   01:17:29.154.04-May-2020 4660.50   41.53 75.85 5.00 268.62 2503.99
   01:17:29.354.04-May-2020 4660.50   41.58 75.85 5.00 268.82 2503.99
   01:17:29.554.04-May-2020 4660.50   41.63 75.85 5.00 269.02 2503.99
   01:17:29.754.04-May-2020 4660.50   41.66 75.85 5.00 269.22 2503.99
   01:17:29.954.04-May-2020 4660.50   41.74 75.85 5.00 269.42 2503.99
   01:17:30.154.04-May-2020 4660.50   41.79 75.85 5.00 269.62 2503.99
   01:17:30.354.04-May-2020 4660.50   41.84 75.85 5.00 269.82 2503.99
   01:17:30.554.04-May-2020 4660.50   41.90 75.85 5.00 270.02 2503.99
   01:17:30.754.04-May-2020 4660.50   41.97 75.85 5.00 270.22 2503.99
   01:17:30.954.04-May-2020 4660.50   42.01 75.85 5.00 270.42 2503.99
   01:17:31.154.04-May-2020 4660.50   42.06 75.85 5.00 270.62 2503.99
   01:17:31.354.04-May-2020 4660.50   42.11 75.85 5.00 270.82 2503.99
   01:17:31.554.04-May-2020 4660.50   42.17 75.85 5.00 271.02 2503.99
   01:17:31.754.04-May-2020 4660.50   42.21 75.85 5.00 271.22 2503.99
   01:17:31.954.04-May-2020 4660.50   42.26 75.85 5.00 271.42 2503.99
   01:17:32.154.04-May-2020 4660.50   42.31 75.85 5.00 271.62 2503.99
   01:17:32.354.04-May-2020 4660.50   42.35 75.85 5.00 271.82 2503.99
   01:17:32.554.04-May-2020 4660.50   42.41 75.85 5.00 272.02 2503.99
   01:17:32.754.04-May-2020 4660.50   42.41 75.85 5.00 272.22 2503.99
   01:17:32.954.04-May-2020 4660.50   42.50 75.85 5.00 272.42 2503.99
   01:17:33.154.04-May-2020 4660.50   42.55 75.85 5.00 272.62 2503.99
   01:17:33.354.04-May-2020 4660.50   42.61 75.84 5.00 272.82 2503.99
   01:17:33.554.04-May-2020 4660.50   42.65 75.84 5.00 273.02 2503.99
   01:17:33.754.04-May-2020 4660.50   42.65 75.84 5.00 273.22 2503.99
   01:17:33.954.04-May-2020 4660.50   42.75 75.84 5.00 273.42 2503.99
   01:17:34.154.04-May-2020 4660.50   42.81 75.84 5.00 273.62 2503.99
   01:17:34.354.04-May-2020 4660.50   42.86 75.84 5.00 273.82 2503.99
   01:17:34.554.04-May-2020 4660.50   42.90 75.84 5.00 274.02 2503.99
   01:17:34.754.04-May-2020 4660.50   42.94 75.84 5.00 274.22 2503.99
   01:17:34.954.04-May-2020 4660.50   42.98 75.84 5.00 274.42 2503.99
   01:17:35.154.04-May-2020 4660.50   43.01 75.84 5.00 274.62 2503.99
   01:17:35.354.04-May-2020 4660.50   43.07 75.84 5.00 274.82 2503.99
   01:17:35.554.04-May-2020 4660.50   43.10 75.84 5.00 275.02 2503.99
   01:17:35.754.04-May-2020 4660.50   43.10 75.84 5.00 275.22 2503.99
   01:17:35.954.04-May-2020 4660.50   43.19 75.84 5.00 275.42 2503.99
   01:17:36.154.04-May-2020 4660.50   43.23 75.84 5.00 275.62 2503.99
   01:17:36.354.04-May-2020 4660.50   43.28 75.84 5.00 275.82 2503.99
