~Version Information
 VERS.                  2.0:   CWLS log ASCII Standard -VERSION 2.0
 WRAP.                   NO:   One line per depth step
~Well Information Block
#MNEM.UNIT     VALUE/NAME     DESCRIPTION
#---------     -----------    ---------------------------
 STRT.S             13:13:41 03-May-20: START TIME 13:13:41 03-May-20
 STOP.S             13:20:16 03-May-20: STOP TIME  13:20:16 03-May-20
 STEP.S                   0.00: STEP TIME
 NULL.                 -999.25: NULL VALUE
 DFWT.                        :  DIST FWL TEXT
 DFST.                        :  DIST FSL TEXT
 DMF .             Drill Floor:  DRILL MEAS FROM
 STIM.      03.00.00 25-Mar-20:  START TIME
 DATE.      00.00.00 19-May-20:  END TIME
 SPUD.               27-Aug-20:  SPUD DATE
 NREF.                    Grid:  NORTH REFERENCE
 HPTY.       Minimum Curvature:  HOLE POS TYPE
 DMOD.             Drill Model:  DRILL MOD DESC
 SVYD.                  Survey:  SURVEY DESC
 ILTD.               Lithology:  INTERP LTH DESC
 FTOP.          Formation Tops:  FORM TOPS DESC
 SON .        AZ-XX-0906252240:  JOB NUMBER
 RIG .             West Chirag:  RIG NAME
 PDAT.          Mean Sea Level:  PERMANENT DATUM
 FLD .                     ACG:  FIELD NAME
 CTRY.              Azerbaijan:  COUNTRY NAME
 WELL.                     J23:  WELL NAME
 SRVC.          Turan Drilling:  CONTRACTOR
 COMP.     BP Exploration (Caspian Sea) Ltd.:  COMPANY
 WTYP.                Deviated:  WELL TYPE
 MDS .        Operator Entered:  MAG DATA SOURCE
 UWI .                     N/A:  UNIQUE WELL IDENTIFIER
 API .                     N/A:  API NUMBER
 BASE.              Azerbaijan:  LOGGING EQUIPMENT BASE LOCATION
 REGN.                   EESSA:  REGION
 PROV.                    Baku:  PROVINCE
 STAT.                    Baku:  STATE NAME
 MWDS.                     N/A:  MWD SHOP
 JOBN.        AZ-XX-0906252240:  JOB TICKET NUMB
 DOE .                     N/A:  DOE NUMBER
 DCON.         Sperry Drilling:  DIRECTNL CONTR
 UNIT.                     N/A:  LOGGING EQUIPMENT ID
 CNTY.                        :  COUNTY
 LOC .                        :  LOCATION
 LMF .             Drill Floor:  LOG MEASURED FROM
 TVDS.m                  43.00:  TVDSS CORRECTN
 LATI.deg                40.13:  LATITUDE
 LONG.deg                51.22:  LONGITUDE
 WHNS.m                   9.43:  WELL HEAD N/S
 WHEW.m                  -8.91:  WELL HEAD E/W
 UTMX.m              519005.06:  UTM X
 UTMY.m             4443793.85:  UTM Y
 DFWL.m                   0.00:  DISTANCE FWL
 DFSL.m                   0.00:  DISTANCE FSL
 SDEP.m                 363.00:  START DEPTH
 TDD .m                5150.01:  TOTAL DEPTH (DRILLER)
 VSDR.deg               179.88:  VERT SEC DIRECT
 GVFD.g                   1.00:  GRAVITY FIELD
 MFLD.nT              50295.00:  MAGNETIC FIELD
 MDIP.deg                59.56:  MAGNETIC DIP
 MDEC.deg                 6.45:  MAGNETIC DECL
 GRDC.deg                 0.14:  GRID CORRECTION
 AZTC.deg                 6.31:  AZM TOTAL CORR
 EPD .m                   0.00:  ELEVATION
 EGL .m                   0.00:  GROUND ELEVATION
 WDMS.m                 169.80:  WD ELEV
 APD .m                  43.00:  DEPTH ABOVE PD
 DEP .m                 354.17:  DEPTH
 AGAP.m                  43.00:  AIR GAP
 VSEW.m                  -8.91:  VERT SEC E/W
 VSNS.m                   9.43:  VERT SEC N/S
 EKB .m                   0.00:  KB ELEVATION
 EDF .m                  43.00:  DF ELEVATION
 TDL .m                1351.00:  TOTAL DEPTH (LOGGER)
 VSC .                       0:  VS TO CLOSURE
 MAGU.                 1850802:  MAGUTM CHECKSUM
~Parameter Information Block
#MNEM.UNIT       Value        Description
#---------     -----------    ---------------------------
 AV  .mps                 1.00:  Ann Velocity 
 AVMX.mps                 2.40:  Max Ann Veloc 
 AZIF.deg               148.96:  Azm, Final 
 BHAT.        Rotary Steerable:  BHA Type 
 BROT.°/30m               0.04:  Build Rotating 
 BS  .in                 12.25:  Bit Size 
 BSZ .in                 12.25:  Bit Size 
 BTPL.psig              814.00:  Bit Press Loss 
 TCS .hr                106.00:  Time Ciculation Ended 
 CV  .mps                 2.47:  Crit Velocity 
 CVMX.mps                 2.64:  Max Crit Veloc 
 DD1 .          Rashad Habibov:  Direct Drillr 1 
 DD2 .         Rasim Ibrahimov:  Direct Drillr 2 
 DDSV.                 iCruise:  DD Service 
 DEFF.%                 100.00:  % Det Eff 
 DLRX.°/30m               0.70:  Dogleg Rot Max 
 DLSO.°/30m               3.00:  Dogleg Oriented 
 DLSX.°/30m               4.55:  Dogleg Str Max 
 DRET.      08.08.32 02-May-20:  Drill End Time 
 DRST.      08.08.32 28-Apr-20:  Drill Start Tim 
 DTIM.hr                 60.00:  Time Drilling 
 EDEP.m                4761.01:  End Depth 
 ENG1.           Eldar Hajiyev:  Engineer 1 
 ENG2.        Marcelo Sandoval:  Engineer 2 
 ETIM.      23.23.07 05-May-20:  End Time 
 FLOI.gpm              1200.00:  Flow In 
 FLON.gpm               900.00:  Flow In Min 
 FLOS.cptm                0.00:  Fluid Loss 
 FLOX.gpm              1200.00:  Flow In Max 
 HFLO.                      No:  High Flow 
 HPRE.                      No:  High Pressure 
 HTEM.                      No:  High Temp 
 HYDO.m                   1.80:  Hydro Offset 
 IFIN.deg                68.17:  Inc, Final 
 IMAX.deg                74.61:  Inc Max 
 IMIN.deg                68.15:  Inc Min 
 IMND.m                4317.87:  Inc Min Depth 
 IMXD.m                4714.01:  Inc Max Depth 
 LETM.      08.08.32 02-May-20:  Log End Time 
 LOST.hr                     2:  Lost Rig Time 
 LSTM.      08.08.32 28-Apr-20:  Log Start Time 
 MDCL.ppm             41000.00:  Mud Chlorides 
 MDES.     Inversion Oil/Synthetic:  Mud Desc 
 DFD .sg                  1.58:  Mud Density 
 MDMN.sg                  1.58:  Dens Mud Min 
 MDMX.sg                  1.58:  Dens Mud Max 
 MOIL.                      71:  Run Mud Oil % 
 MOWR.                   71:29:  Run Mud OWR 
 MSND.                     0.1:  Run Mud Sand % 
 MSOL.                      23:  Run Mud Solids% 
 DFV .spqt               82.00:  Mud Viscosity 
 MWOD.in                  8.00:  MWD Tool OD 
 MWSI.                     Yes:  Serv Intrp, MWD 
 OTIM.hr                125.00:  Time Operating 
 PMAX.psia             6129.00:  Press Op, Max 
 PV  .cP                 32.00:  Mud PV 
 RUN .                     800:  Run Number 
 ROPA.m/hr               30.00:  ROP Avg 
 ROPN.m/hr               10.00:  ROP Min 
 ROPX.m/hr               40.00:  ROP Max 
 RPMA.rpm               140.00:  RPM Surface Avg 
 RPMN.rpm                80.00:  RPM Surface Min 
 RPMX.rpm               140.00:  RPM Surface Max 
 RRUN.                    L503:  Rig Run Number 
 RTIM.hr                  2.00:  Time Reaming 
 SAZI.deg               184.23:  Azm, Start 
 SDEP.m                3410.01:  Start Depth 
 SIDD.                      No:  Serv Intrp, DD 
 SINC.deg                68.29:  Inc, Start 
 SPPA.psig             6000.00:  SPP Avg 
 SPPN.psig             4000.00:  SPP Min 
 SPPX.psig             6100.00:  SPP Max 
 STIM.      08.08.32 28-Apr-20:  Start Time 
 SVCS.                 DD, MWD:  Services 
 SVER.                    9.20:  Sperry Version 
 TDAT.m                1351.00:  Tot Depth Attmp 
 TDDF.                      No:  Trip for DD 
 TDLG.m                1351.00:  Tot Depth Loggd 
 TFF .                      No:  Trip for Fail 
 TQAA.f-kp               27.00:  Torque Abs Avg 
 TQAN.f-kp               20.00:  Torque Abs Min 
 TQAX.f-kp               30.00:  Torque Abs Max 
 TRRT.°/30m               0.60:  Turn Rotating 
 MRT .                    EWER:  Maximum Recorded Temperature 
 TTMX.degC               83.00:  Max Tool Temp 
 VS01.                90511138:  Virtual Str1 SN 
 VS02.                90524876:  Virtual Str2 SN 
 VS03.                90524872:  Virtual Str3 SN 
 VS04.                90502750:  Virtual Str4 SN 
 VS05.                12330984:  Virtual Str5 SN 
 WBMN.klb                 0.00:  WOB Min 
 WOBA.klb                15.00:  WOB Avg 
 WOBX.klb                20.00:  WOB Max 
 YP  .lhf2               31.00:  Yield Point 
~Curve Information Block
#MNEM.UNIT                 API CODE     Curve Description
#---------               -----------    ---------------------------
 TIME.HHMMSS            00 000 000 000:  GT Time & Date
 GTDEPTH.m              00 000 000 000:  GT Depth
 GTPQH.psia             00 000 000 000:  GT HR Quartz Pressure
 GTTQ.degC              00 000 000 000:  GT Quartz Temperature
 GTTN.NONE              00 000 000 000:  GT Test Number
 GTET.sec               00 000 000 000:  GT Elapsed Test Time
 GTTVD.m                00 000 000 000:  GT True Vertical Depth
#Other Information
#
#WARRANTY: Halliburton will use its best efforts to furnish customers with 
#accurate information and interpretations that are part of, and incident to, the services 
#provided.  However, Halliburton cannot and does not warrant the accuracy 
#or correctness of such information and interpretations.  Under no circumstances should any 
#such information or interpretation be relied upon as the sole basis for any drilling, 
#completion, production, or financial decision or any procedure involving any risk to the 
#safety of any drilling venture, drilling rig or its crew or any other third party.  The 
#Customer has full responsibility for all drilling, completion and production operation.  
#Halliburton makes no representations or warranties, either expressed or 
#implied, including, but not limited to, the implied warranties of merchantability or fitness 
#for a particular purpose, with respect to the services rendered.  In no event will 
#Halliburton be liable for failure to obtain any particular results or for 
#any damages, including, but not limited to, indirect, special or consequential damages, 
#resulting from the use of any information or interpretation provided by Halliburton.
#
~A           TIME           GTDEPTH  GTPQH  GTTQ  GTTN  GTET   GTTVD  
# ...
   13:16:22.664.03-May-2020 4532.80 3490.01 80.31 1.00 161.25 2465.99
   13:16:22.864.03-May-2020 4532.80 3490.01 80.31 1.00 161.45 2465.99
   13:16:23.065.03-May-2020 4532.80 3490.38 80.31 1.00 161.65 2465.99
   13:16:23.265.03-May-2020 4532.80 3486.71 80.31 1.00 161.85 2465.99
   13:16:23.465.03-May-2020 4532.80 3490.67 80.31 1.00 162.05 2465.99
   13:16:23.666.03-May-2020 4532.80 3490.90 80.31 1.00 162.26 2465.99
   13:16:23.866.03-May-2020 4532.80 3487.35 80.31 1.00 162.46 2465.99
   13:16:24.066.03-May-2020 4532.80 3487.25 80.31 1.00 162.66 2465.99
   13:16:24.267.03-May-2020 4532.80 3487.42 80.31 1.00 162.86 2465.99
   13:16:24.467.03-May-2020 4532.80 3483.62 80.31 1.00 163.06 2465.99
   13:16:24.667.03-May-2020 4532.80 3589.68 80.31 1.00 163.26 2465.99
   13:16:24.868.03-May-2020 4532.80 3589.68 80.31 1.00 163.46 2465.99
   13:16:25.068.03-May-2020 4532.80 3954.52 80.31 1.00 163.66 2465.99
   13:16:25.268.03-May-2020 4532.80 4015.46 80.31 1.00 163.86 2465.99
   13:16:25.468.03-May-2020 4532.80 4047.63 80.31 1.00 164.06 2465.99
   13:16:25.669.03-May-2020 4532.80 4065.71 80.30 1.00 164.26 2465.99
   13:16:25.869.03-May-2020 4532.80 4065.71 80.30 1.00 164.46 2465.99
   13:16:26.069.03-May-2020 4532.80 4083.35 80.30 1.00 164.66 2465.99
   13:16:26.270.03-May-2020 4532.80 4088.11 80.30 1.00 164.86 2465.99
   13:16:26.470.03-May-2020 4532.80 4091.67 80.30 1.00 165.06 2465.99
   13:16:26.670.03-May-2020 4532.80 4094.38 80.30 1.00 165.26 2465.99
   13:16:26.871.03-May-2020 4532.80 4094.38 80.30 1.00 165.46 2465.99
   13:16:27.071.03-May-2020 4532.80 4098.23 80.30 1.00 165.66 2465.99
   13:16:27.271.03-May-2020 4532.80 4096.23 80.30 1.00 165.86 2465.99
   13:16:27.472.03-May-2020 4532.80 4098.33 80.30 1.00 166.06 2465.99
   13:16:27.672.03-May-2020 4532.80 4100.95 80.30 1.00 166.26 2465.99
   13:16:27.872.03-May-2020 4532.80 4100.95 80.30 1.00 166.46 2465.99
   13:16:28.073.03-May-2020 4532.80 4104.10 80.30 1.00 166.66 2465.99
   13:16:28.273.03-May-2020 4532.80 4104.98 80.30 1.00 166.86 2465.99
   13:16:28.473.03-May-2020 4532.80 4105.93 80.30 1.00 167.06 2465.99
   13:16:28.674.03-May-2020 4532.80 4106.66 80.30 1.00 167.26 2465.99
   13:16:28.874.03-May-2020 4532.80 4106.66 80.30 1.00 167.46 2465.99
   13:16:29.074.03-May-2020 4532.80 4107.85 80.30 1.00 167.66 2465.99
   13:16:29.274.03-May-2020 4532.80 4108.35 80.30 1.00 167.86 2465.99
   13:16:29.475.03-May-2020 4532.80 4108.84 80.30 1.00 168.06 2465.99
   13:16:29.675.03-May-2020 4532.80 4109.33 80.30 1.00 168.26 2465.99
   13:16:29.875.03-May-2020 4532.80 4109.33 80.30 1.00 168.46 2465.99
   13:16:30.076.03-May-2020 4532.80 4109.06 80.30 1.00 168.67 2465.99
   13:16:30.276.03-May-2020 4532.80 4109.80 80.30 1.00 168.87 2465.99
   13:16:30.476.03-May-2020 4532.80 4109.30 80.30 1.00 169.07 2465.99
   13:16:30.677.03-May-2020 4532.80 4110.77 80.30 1.00 169.27 2465.99
   13:16:30.877.03-May-2020 4532.80 4110.77 80.30 1.00 169.47 2465.99
   13:16:31.077.03-May-2020 4532.80 4112.34 80.30 1.00 169.67 2465.99
   13:16:31.278.03-May-2020 4532.80 4112.81 80.30 1.00 169.87 2465.99
   13:16:31.478.03-May-2020 4532.80 4113.05 80.30 1.00 170.07 2465.99
   13:16:31.678.03-May-2020 4532.80 4113.40 80.30 1.00 170.27 2465.99
   13:16:31.879.03-May-2020 4532.80 4113.17 80.30 1.00 170.47 2465.99
   13:16:32.079.03-May-2020 4532.80 4113.79 80.30 1.00 170.67 2465.99
   13:16:32.279.03-May-2020 4532.80 4114.05 80.30 1.00 170.87 2465.99
   13:16:32.480.03-May-2020 4532.80 4114.21 80.30 1.00 171.07 2465.99
   13:16:32.680.03-May-2020 4532.80 4115.17 80.30 1.00 171.27 2465.99
   13:16:32.880.03-May-2020 4532.80 4115.17 80.30 1.00 171.47 2465.99
   13:16:33.080.03-May-2020 4532.80 4114.94 80.30 1.00 171.67 2465.99
   13:16:33.281.03-May-2020 4532.80 4115.48 80.30 1.00 171.87 2465.99
   13:16:33.481.03-May-2020 4532.80 4115.31 80.30 1.00 172.07 2465.99
   13:16:33.681.03-May-2020 4532.80 4115.46 80.30 1.00 172.27 2465.99
   13:16:33.882.03-May-2020 4532.80 4115.46 80.30 1.00 172.47 2465.99
   13:16:34.082.03-May-2020 4532.80 4115.81 80.30 1.00 172.67 2465.99
   13:16:34.282.03-May-2020 4532.80 4115.97 80.30 1.00 172.87 2465.99
   13:16:34.483.03-May-2020 4532.80 4116.18 80.30 1.00 173.07 2465.99
   13:16:34.683.03-May-2020 4532.80 4116.32 80.30 1.00 173.27 2465.99
   13:16:34.883.03-May-2020 4532.80 4116.32 80.30 1.00 173.47 2465.99
   13:16:35.084.03-May-2020 4532.80 4116.58 80.30 1.00 173.67 2465.99
   13:16:35.284.03-May-2020 4532.80 4117.05 80.30 1.00 173.87 2465.99
   13:16:35.484.03-May-2020 4532.80 4117.51 80.30 1.00 174.07 2465.99
   13:16:35.685.03-May-2020 4532.80 4117.39 80.30 1.00 174.27 2465.99
   13:16:35.885.03-May-2020 4532.80 4117.39 80.30 1.00 174.47 2465.99
   13:16:36.085.03-May-2020 4532.80 4117.37 80.30 1.00 174.67 2465.99
   13:16:36.285.03-May-2020 4532.80 4117.44 80.29 1.00 174.87 2465.99
   13:16:36.486.03-May-2020 4532.80 4117.52 80.29 1.00 175.08 2465.99
   13:16:36.686.03-May-2020 4532.80 4117.54 80.29 1.00 175.28 2465.99
   13:16:36.886.03-May-2020 4532.80 4117.54 80.29 1.00 175.48 2465.99
   13:16:37.087.03-May-2020 4532.80 4117.59 80.29 1.00 175.68 2465.99
   13:16:37.287.03-May-2020 4532.80 4117.67 80.29 1.00 175.88 2465.99
   13:16:37.487.03-May-2020 4532.80 4117.74 80.29 1.00 176.08 2465.99
   13:16:37.688.03-May-2020 4532.80 4117.89 80.29 1.00 176.28 2465.99
   13:16:37.888.03-May-2020 4532.80 4117.89 80.29 1.00 176.48 2465.99
   13:16:38.088.03-May-2020 4532.80 4118.62 80.29 1.00 176.68 2465.99
   13:16:38.289.03-May-2020 4532.80 4118.48 80.29 1.00 176.88 2465.99
   13:16:38.489.03-May-2020 4532.80 4118.32 80.29 1.00 177.08 2465.99
   13:16:38.689.03-May-2020 4532.80 4118.79 80.29 1.00 177.28 2465.99
   13:16:38.890.03-May-2020 4532.80 4118.79 80.29 1.00 177.48 2465.99
   13:16:39.090.03-May-2020 4532.80 4118.96 80.29 1.00 177.68 2465.99
   13:16:39.290.03-May-2020 4532.80 4119.26 80.29 1.00 177.88 2465.99
   13:16:39.491.03-May-2020 4532.80 4119.08 80.29 1.00 178.08 2465.99
   13:16:39.691.03-May-2020 4532.80 4119.14 80.29 1.00 178.28 2465.99
   13:16:39.891.03-May-2020 4532.80 4119.47 80.29 1.00 178.48 2465.99
   13:16:40.091.03-May-2020 4532.80 4119.16 80.29 1.00 178.68 2465.99
   13:16:40.292.03-May-2020 4532.80 4118.94 80.29 1.00 178.88 2465.99
   13:16:40.492.03-May-2020 4532.80 4119.05 80.29 1.00 179.08 2465.99
   13:16:40.692.03-May-2020 4532.80 4119.50 80.29 1.00 179.28 2465.99
   13:16:40.893.03-May-2020 4532.80 4119.50 80.29 1.00 179.48 2465.99
   13:16:41.093.03-May-2020 4532.80 4119.40 80.28 1.00 179.68 2465.99
   13:16:41.293.03-May-2020 4532.80 4119.37 80.28 1.00 179.88 2465.99
   13:16:41.494.03-May-2020 4532.80 4119.32 80.28 1.00 180.08 2465.99
   13:16:41.694.03-May-2020 4532.80 4119.48 80.28 1.00 180.28 2465.99
   13:16:41.894.03-May-2020 4532.80 4119.48 80.28 1.00 180.48 2465.99
   13:16:42.095.03-May-2020 4532.80 4119.39 80.28 1.00 180.68 2465.99
   13:16:42.295.03-May-2020 4532.80 4119.58 80.28 1.00 180.88 2465.99
   13:16:42.495.03-May-2020 4532.80 4119.53 80.28 1.00 181.08 2465.99
   13:16:42.696.03-May-2020 4532.80 4119.59 80.28 1.00 181.29 2465.99
   13:16:42.896.03-May-2020 4532.80 4119.59 80.28 1.00 181.49 2465.99
   13:16:43.096.03-May-2020 4532.80 4119.68 80.28 1.00 181.69 2465.99
   13:16:43.297.03-May-2020 4532.80 4120.31 80.28 1.00 181.89 2465.99
   13:16:43.497.03-May-2020 4532.80 4120.43 80.28 1.00 182.09 2465.99
   13:16:43.697.03-May-2020 4532.80 4120.34 80.28 1.00 182.29 2465.99
   13:16:43.897.03-May-2020 4532.80 4120.00 80.28 1.00 182.49 2465.99
   13:16:44.098.03-May-2020 4532.80 4120.02 80.28 1.00 182.69 2465.99
   13:16:44.298.03-May-2020 4532.80 4120.02 80.28 1.00 182.89 2465.99
   13:16:44.498.03-May-2020 4532.80 4120.06 80.28 1.00 183.09 2465.99
   13:16:44.699.03-May-2020 4532.80 4120.13 80.28 1.00 183.29 2465.99
   13:16:44.899.03-May-2020 4532.80 4120.13 80.28 1.00 183.49 2465.99
   13:16:45.099.03-May-2020 4532.80 4120.01 80.27 1.00 183.69 2465.99
   13:16:45.300.03-May-2020 4532.80 4119.97 80.27 1.00 183.89 2465.99
   13:16:45.500.03-May-2020 4532.80 4120.02 80.27 1.00 184.09 2465.99
