~Version Information
 VERS.                  2.0:   CWLS log ASCII Standard -VERSION 2.0
 WRAP.                   NO:   One line per depth step
~Well Information Block
#MNEM.UNIT     VALUE/NAME     DESCRIPTION
#---------     -----------    ---------------------------
 STRT.S             00:33:44 04-May-20: START TIME 00:33:44 04-May-20
 STOP.S             00:40:14 04-May-20: STOP TIME  00:40:14 04-May-20
 STEP.S                   0.00: STEP TIME
 NULL.                 -999.25: NULL VALUE
 DFWT.                        :  DIST FWL TEXT
 DFST.                        :  DIST FSL TEXT
 DMF .             Drill Floor:  DRILL MEAS FROM
 STIM.      03.00.00 25-Mar-20:  START TIME
 DATE.      00.00.00 19-May-20:  END TIME
 SPUD.               27-Aug-20:  SPUD DATE
 NREF.                    Grid:  NORTH REFERENCE
 HPTY.       Minimum Curvature:  HOLE POS TYPE
 DMOD.             Drill Model:  DRILL MOD DESC
 SVYD.                  Survey:  SURVEY DESC
 ILTD.               Lithology:  INTERP LTH DESC
 FTOP.          Formation Tops:  FORM TOPS DESC
 SON .        AZ-XX-0906252240:  JOB NUMBER
 RIG .             West Chirag:  RIG NAME
 PDAT.          Mean Sea Level:  PERMANENT DATUM
 FLD .                     ACG:  FIELD NAME
 CTRY.              Azerbaijan:  COUNTRY NAME
 WELL.                     J23:  WELL NAME
 SRVC.          Turan Drilling:  CONTRACTOR
 COMP.     BP Exploration (Caspian Sea) Ltd.:  COMPANY
 WTYP.                Deviated:  WELL TYPE
 MDS .        Operator Entered:  MAG DATA SOURCE
 UWI .                     N/A:  UNIQUE WELL IDENTIFIER
 API .                     N/A:  API NUMBER
 BASE.              Azerbaijan:  LOGGING EQUIPMENT BASE LOCATION
 REGN.                   EESSA:  REGION
 PROV.                    Baku:  PROVINCE
 STAT.                    Baku:  STATE NAME
 MWDS.                     N/A:  MWD SHOP
 JOBN.        AZ-XX-0906252240:  JOB TICKET NUMB
 DOE .                     N/A:  DOE NUMBER
 DCON.         Sperry Drilling:  DIRECTNL CONTR
 UNIT.                     N/A:  LOGGING EQUIPMENT ID
 CNTY.                        :  COUNTY
 LOC .                        :  LOCATION
 LMF .             Drill Floor:  LOG MEASURED FROM
 TVDS.m                  43.00:  TVDSS CORRECTN
 LATI.deg                40.13:  LATITUDE
 LONG.deg                51.22:  LONGITUDE
 WHNS.m                   9.43:  WELL HEAD N/S
 WHEW.m                  -8.91:  WELL HEAD E/W
 UTMX.m              519005.06:  UTM X
 UTMY.m             4443793.85:  UTM Y
 DFWL.m                   0.00:  DISTANCE FWL
 DFSL.m                   0.00:  DISTANCE FSL
 SDEP.m                 363.00:  START DEPTH
 TDD .m                5150.01:  TOTAL DEPTH (DRILLER)
 VSDR.deg               179.88:  VERT SEC DIRECT
 GVFD.g                   1.00:  GRAVITY FIELD
 MFLD.nT              50295.00:  MAGNETIC FIELD
 MDIP.deg                59.56:  MAGNETIC DIP
 MDEC.deg                 6.45:  MAGNETIC DECL
 GRDC.deg                 0.14:  GRID CORRECTION
 AZTC.deg                 6.31:  AZM TOTAL CORR
 EPD .m                   0.00:  ELEVATION
 EGL .m                   0.00:  GROUND ELEVATION
 WDMS.m                 169.80:  WD ELEV
 APD .m                  43.00:  DEPTH ABOVE PD
 DEP .m                 354.17:  DEPTH
 AGAP.m                  43.00:  AIR GAP
 VSEW.m                  -8.91:  VERT SEC E/W
 VSNS.m                   9.43:  VERT SEC N/S
 EKB .m                   0.00:  KB ELEVATION
 EDF .m                  43.00:  DF ELEVATION
 TDL .m                1351.00:  TOTAL DEPTH (LOGGER)
 VSC .                       0:  VS TO CLOSURE
 MAGU.                 1850802:  MAGUTM CHECKSUM
~Parameter Information Block
#MNEM.UNIT       Value        Description
#---------     -----------    ---------------------------
 AV  .mps                 1.00:  Ann Velocity 
 AVMX.mps                 2.40:  Max Ann Veloc 
 AZIF.deg               148.96:  Azm, Final 
 BHAT.        Rotary Steerable:  BHA Type 
 BROT.°/30m               0.04:  Build Rotating 
 BS  .in                 12.25:  Bit Size 
 BSZ .in                 12.25:  Bit Size 
 BTPL.psig              814.00:  Bit Press Loss 
 TCS .hr                106.00:  Time Ciculation Ended 
 CV  .mps                 2.47:  Crit Velocity 
 CVMX.mps                 2.64:  Max Crit Veloc 
 DD1 .          Rashad Habibov:  Direct Drillr 1 
 DD2 .         Rasim Ibrahimov:  Direct Drillr 2 
 DDSV.                 iCruise:  DD Service 
 DEFF.%                 100.00:  % Det Eff 
 DLRX.°/30m               0.70:  Dogleg Rot Max 
 DLSO.°/30m               3.00:  Dogleg Oriented 
 DLSX.°/30m               4.55:  Dogleg Str Max 
 DRET.      08.08.32 02-May-20:  Drill End Time 
 DRST.      08.08.32 28-Apr-20:  Drill Start Tim 
 DTIM.hr                 60.00:  Time Drilling 
 EDEP.m                4761.01:  End Depth 
 ENG1.           Eldar Hajiyev:  Engineer 1 
 ENG2.        Marcelo Sandoval:  Engineer 2 
 ETIM.      23.23.07 05-May-20:  End Time 
 FLOI.gpm              1200.00:  Flow In 
 FLON.gpm               900.00:  Flow In Min 
 FLOS.cptm                0.00:  Fluid Loss 
 FLOX.gpm              1200.00:  Flow In Max 
 HFLO.                      No:  High Flow 
 HPRE.                      No:  High Pressure 
 HTEM.                      No:  High Temp 
 HYDO.m                   1.80:  Hydro Offset 
 IFIN.deg                68.17:  Inc, Final 
 IMAX.deg                74.61:  Inc Max 
 IMIN.deg                68.15:  Inc Min 
 IMND.m                4317.87:  Inc Min Depth 
 IMXD.m                4714.01:  Inc Max Depth 
 LETM.      08.08.32 02-May-20:  Log End Time 
 LOST.hr                     2:  Lost Rig Time 
 LSTM.      08.08.32 28-Apr-20:  Log Start Time 
 MDCL.ppm             41000.00:  Mud Chlorides 
 MDES.     Inversion Oil/Synthetic:  Mud Desc 
 DFD .sg                  1.58:  Mud Density 
 MDMN.sg                  1.58:  Dens Mud Min 
 MDMX.sg                  1.58:  Dens Mud Max 
 MOIL.                      71:  Run Mud Oil % 
 MOWR.                   71:29:  Run Mud OWR 
 MSND.                     0.1:  Run Mud Sand % 
 MSOL.                      23:  Run Mud Solids% 
 DFV .spqt               82.00:  Mud Viscosity 
 MWOD.in                  8.00:  MWD Tool OD 
 MWSI.                     Yes:  Serv Intrp, MWD 
 OTIM.hr                125.00:  Time Operating 
 PMAX.psia             6129.00:  Press Op, Max 
 PV  .cP                 32.00:  Mud PV 
 RUN .                     800:  Run Number 
 ROPA.m/hr               30.00:  ROP Avg 
 ROPN.m/hr               10.00:  ROP Min 
 ROPX.m/hr               40.00:  ROP Max 
 RPMA.rpm               140.00:  RPM Surface Avg 
 RPMN.rpm                80.00:  RPM Surface Min 
 RPMX.rpm               140.00:  RPM Surface Max 
 RRUN.                    L503:  Rig Run Number 
 RTIM.hr                  2.00:  Time Reaming 
 SAZI.deg               184.23:  Azm, Start 
 SDEP.m                3410.01:  Start Depth 
 SIDD.                      No:  Serv Intrp, DD 
 SINC.deg                68.29:  Inc, Start 
 SPPA.psig             6000.00:  SPP Avg 
 SPPN.psig             4000.00:  SPP Min 
 SPPX.psig             6100.00:  SPP Max 
 STIM.      08.08.32 28-Apr-20:  Start Time 
 SVCS.                 DD, MWD:  Services 
 SVER.                    9.20:  Sperry Version 
 TDAT.m                1351.00:  Tot Depth Attmp 
 TDDF.                      No:  Trip for DD 
 TDLG.m                1351.00:  Tot Depth Loggd 
 TFF .                      No:  Trip for Fail 
 TQAA.f-kp               27.00:  Torque Abs Avg 
 TQAN.f-kp               20.00:  Torque Abs Min 
 TQAX.f-kp               30.00:  Torque Abs Max 
 TRRT.°/30m               0.60:  Turn Rotating 
 MRT .                    EWER:  Maximum Recorded Temperature 
 TTMX.degC               83.00:  Max Tool Temp 
 VS01.                90511138:  Virtual Str1 SN 
 VS02.                90524876:  Virtual Str2 SN 
 VS03.                90524872:  Virtual Str3 SN 
 VS04.                90502750:  Virtual Str4 SN 
 VS05.                12330984:  Virtual Str5 SN 
 WBMN.klb                 0.00:  WOB Min 
 WOBA.klb                15.00:  WOB Avg 
 WOBX.klb                20.00:  WOB Max 
 YP  .lhf2               31.00:  Yield Point 
~Curve Information Block
#MNEM.UNIT                 API CODE     Curve Description
#---------               -----------    ---------------------------
 TIME.HHMMSS            00 000 000 000:  GT Time & Date
 GTDEPTH.m              00 000 000 000:  GT Depth
 GTPQH.psia             00 000 000 000:  GT HR Quartz Pressure
 GTTQ.degC              00 000 000 000:  GT Quartz Temperature
 GTTN.NONE              00 000 000 000:  GT Test Number
 GTET.sec               00 000 000 000:  GT Elapsed Test Time
 GTTVD.m                00 000 000 000:  GT True Vertical Depth
#Other Information
#
#WARRANTY: Halliburton will use its best efforts to furnish customers with 
#accurate information and interpretations that are part of, and incident to, the services 
#provided.  However, Halliburton cannot and does not warrant the accuracy 
#or correctness of such information and interpretations.  Under no circumstances should any 
#such information or interpretation be relied upon as the sole basis for any drilling, 
#completion, production, or financial decision or any procedure involving any risk to the 
#safety of any drilling venture, drilling rig or its crew or any other third party.  The 
#Customer has full responsibility for all drilling, completion and production operation.  
#Halliburton makes no representations or warranties, either expressed or 
#implied, including, but not limited to, the implied warranties of merchantability or fitness 
#for a particular purpose, with respect to the services rendered.  In no event will 
#Halliburton be liable for failure to obtain any particular results or for 
#any damages, including, but not limited to, indirect, special or consequential damages, 
#resulting from the use of any information or interpretation provided by Halliburton.
#
~A           TIME           GTDEPTH  GTPQH  GTTQ  GTTN  GTET   GTTVD  
# ...
   00:34:30.320.04-May-2020 4661.71 5839.28 81.27 4.00  46.00 2504.33
   00:34:30.520.04-May-2020 4661.71 5839.28 81.27 4.00  46.20 2504.33
   00:34:30.720.04-May-2020 4661.71 5838.93 81.27 4.00  46.40 2504.33
   00:34:30.920.04-May-2020 4661.71 5839.60 81.27 4.00  46.60 2504.33
   00:34:31.120.04-May-2020 4661.71 5839.38 81.27 4.00  46.80 2504.33
   00:34:31.320.04-May-2020 4661.71 5842.06 81.26 4.00  47.00 2504.33
   00:34:31.520.04-May-2020 4661.71 5842.06 81.26 4.00  47.20 2504.33
   00:34:31.720.04-May-2020 4661.71 5832.11 81.26 4.00  47.40 2504.33
   00:34:31.920.04-May-2020 4661.71 5831.97 81.26 4.00  47.60 2504.33
   00:34:32.121.04-May-2020 4661.71 5831.95 81.26 4.00  47.80 2504.33
   00:34:32.321.04-May-2020 4661.71 5830.09 81.26 4.00  48.00 2504.33
   00:34:32.521.04-May-2020 4661.71 5830.09 81.26 4.00  48.20 2504.33
   00:34:32.721.04-May-2020 4661.71 5685.78 81.26 4.00  48.40 2504.33
   00:34:32.921.04-May-2020 4661.71 5565.84 81.26 4.00  48.60 2504.33
   00:34:33.121.04-May-2020 4661.71 5421.86 81.26 4.00  48.80 2504.33
   00:34:33.321.04-May-2020 4661.71 5195.22 81.26 4.00  49.00 2504.33
   00:34:33.521.04-May-2020 4661.71 5195.22 81.26 4.00  49.20 2504.33
   00:34:33.721.04-May-2020 4661.71 4534.27 81.25 4.00  49.40 2504.33
   00:34:33.921.04-May-2020 4661.71 4133.36 81.25 4.00  49.60 2504.33
   00:34:34.121.04-May-2020 4661.71 3726.02 81.25 4.00  49.80 2504.33
   00:34:34.321.04-May-2020 4661.71 3309.16 81.25 4.00  50.00 2504.33
   00:34:34.521.04-May-2020 4661.71 3309.16 81.25 4.00  50.20 2504.33
   00:34:34.721.04-May-2020 4661.71 2503.32 81.25 4.00  50.40 2504.33
   00:34:34.921.04-May-2020 4661.71 2118.88 81.24 4.00  50.60 2504.33
   00:34:35.121.04-May-2020 4661.71 1851.52 81.24 4.00  50.80 2504.33
   00:34:35.321.04-May-2020 4661.71 1703.24 81.24 4.00  51.00 2504.33
   00:34:35.521.04-May-2020 4661.71 1703.24 81.24 4.00  51.20 2504.33
   00:34:35.721.04-May-2020 4661.71 1397.83 81.23 4.00  51.40 2504.33
   00:34:35.921.04-May-2020 4661.71 1241.30 81.23 4.00  51.60 2504.33
   00:34:36.121.04-May-2020 4661.71 1087.16 81.23 4.00  51.80 2504.33
   00:34:36.321.04-May-2020 4661.71  932.39 81.22 4.00  52.00 2504.33
   00:34:36.521.04-May-2020 4661.71  765.79 81.22 4.00  52.20 2504.33
   00:34:36.721.04-May-2020 4661.71  602.21 81.22 4.00  52.40 2504.33
   00:34:36.921.04-May-2020 4661.71  440.93 81.21 4.00  52.60 2504.33
   00:34:37.121.04-May-2020 4661.71  288.32 81.21 4.00  52.80 2504.33
   00:34:37.321.04-May-2020 4661.71  153.20 81.20 4.00  53.00 2504.33
   00:34:37.521.04-May-2020 4661.71  153.20 81.20 4.00  53.20 2504.33
   00:34:37.721.04-May-2020 4661.71   97.10 81.19 4.00  53.40 2504.33
   00:34:37.921.04-May-2020 4661.71  103.44 81.19 4.00  53.60 2504.33
   00:34:38.121.04-May-2020 4661.71  103.44 81.18 4.00  53.80 2504.33
   00:34:38.321.04-May-2020 4661.71  108.71 81.18 4.00  54.00 2504.33
   00:34:38.521.04-May-2020 4661.71  112.10 81.18 4.00  54.20 2504.33
   00:34:38.721.04-May-2020 4661.71  114.74 81.17 4.00  54.40 2504.33
   00:34:38.921.04-May-2020 4661.71  114.76 81.16 4.00  54.60 2504.33
   00:34:39.121.04-May-2020 4661.71  114.16 81.16 4.00  54.80 2504.33
   00:34:39.321.04-May-2020 4661.71  113.15 81.15 4.00  55.00 2504.33
   00:34:39.521.04-May-2020 4661.71  111.99 81.15 4.00  55.20 2504.33
   00:34:39.721.04-May-2020 4661.71  110.65 81.14 4.00  55.41 2504.33
   00:34:39.921.04-May-2020 4661.71  109.34 81.14 4.00  55.61 2504.33
   00:34:40.121.04-May-2020 4661.71  111.38 81.14 4.00  55.81 2504.33
   00:34:40.321.04-May-2020 4661.71  114.80 81.13 4.00  56.01 2504.33
   00:34:40.521.04-May-2020 4661.71  114.80 81.13 4.00  56.21 2504.33
   00:34:40.721.04-May-2020 4661.71  120.30 81.12 4.00  56.41 2504.33
   00:34:40.921.04-May-2020 4661.71  122.53 81.12 4.00  56.61 2504.33
   00:34:41.121.04-May-2020 4661.71  124.55 81.12 4.00  56.81 2504.33
   00:34:41.321.04-May-2020 4661.71  126.41 81.11 4.00  57.01 2504.33
   00:34:41.521.04-May-2020 4661.71  126.41 81.11 4.00  57.21 2504.33
   00:34:41.721.04-May-2020 4661.71  129.74 81.10 4.00  57.41 2504.33
   00:34:41.921.04-May-2020 4661.71  131.25 81.10 4.00  57.61 2504.33
   00:34:42.121.04-May-2020 4661.71  132.66 81.10 4.00  57.81 2504.33
   00:34:42.321.04-May-2020 4661.71  133.99 81.09 4.00  58.01 2504.33
   00:34:42.521.04-May-2020 4661.71  133.99 81.09 4.00  58.21 2504.33
   00:34:42.721.04-May-2020 4661.71  136.45 81.09 4.00  58.41 2504.33
   00:34:42.921.04-May-2020 4661.71  137.58 81.09 4.00  58.61 2504.33
   00:34:43.122.04-May-2020 4661.71  138.67 81.08 4.00  58.81 2504.33
   00:34:43.322.04-May-2020 4661.71  139.77 81.08 4.00  59.01 2504.33
   00:34:43.522.04-May-2020 4661.71  139.77 81.08 4.00  59.21 2504.33
   00:34:43.722.04-May-2020 4661.71  141.80 81.07 4.00  59.41 2504.33
   00:34:43.922.04-May-2020 4661.71  142.80 81.07 4.00  59.61 2504.33
   00:34:44.122.04-May-2020 4661.71  143.72 81.07 4.00  59.81 2504.33
   00:34:44.322.04-May-2020 4661.71  144.61 81.07 4.00  60.01 2504.33
   00:34:44.522.04-May-2020 4661.71  144.61 81.07 4.00  60.21 2504.33
   00:34:44.722.04-May-2020 4661.71  146.26 81.06 4.00  60.41 2504.33
   00:34:44.922.04-May-2020 4661.71  147.17 81.06 4.00  60.61 2504.33
   00:34:45.122.04-May-2020 4661.71  148.03 81.06 4.00  60.81 2504.33
   00:34:45.322.04-May-2020 4661.71  148.83 81.06 4.00  61.01 2504.33
   00:34:45.522.04-May-2020 4661.71  148.83 81.06 4.00  61.21 2504.33
   00:34:45.722.04-May-2020 4661.71  150.33 81.05 4.00  61.41 2504.33
   00:34:45.922.04-May-2020 4661.71  151.10 81.05 4.00  61.61 2504.33
   00:34:46.122.04-May-2020 4661.71  151.81 81.05 4.00  61.81 2504.33
   00:34:46.322.04-May-2020 4661.71  152.46 81.05 4.00  62.01 2504.33
   00:34:46.522.04-May-2020 4661.71  152.46 81.05 4.00  62.21 2504.33
   00:34:46.722.04-May-2020 4661.71  153.80 81.05 4.00  62.41 2504.33
   00:34:46.922.04-May-2020 4661.71  154.42 81.05 4.00  62.61 2504.33
   00:34:47.122.04-May-2020 4661.71  155.03 81.04 4.00  62.81 2504.33
   00:34:47.322.04-May-2020 4661.71  155.60 81.04 4.00  63.01 2504.33
   00:34:47.522.04-May-2020 4661.71  155.60 81.04 4.00  63.21 2504.33
   00:34:47.722.04-May-2020 4661.71  156.72 81.04 4.00  63.41 2504.33
   00:34:47.922.04-May-2020 4661.71  157.26 81.04 4.00  63.61 2504.33
   00:34:48.122.04-May-2020 4661.71  157.79 81.04 4.00  63.81 2504.33
   00:34:48.322.04-May-2020 4661.71  158.30 81.04 4.00  64.01 2504.33
   00:34:48.522.04-May-2020 4661.71  158.81 81.04 4.00  64.21 2504.33
   00:34:48.722.04-May-2020 4661.71  159.30 81.04 4.00  64.41 2504.33
   00:34:48.922.04-May-2020 4661.71  159.78 81.03 4.00  64.61 2504.33
   00:34:49.122.04-May-2020 4661.71  160.23 81.03 4.00  64.81 2504.33
   00:34:49.322.04-May-2020 4661.71  160.70 81.03 4.00  65.01 2504.33
   00:34:49.522.04-May-2020 4661.71  160.70 81.03 4.00  65.21 2504.33
   00:34:49.722.04-May-2020 4661.71  161.67 81.03 4.00  65.41 2504.33
   00:34:49.922.04-May-2020 4661.71  162.11 81.03 4.00  65.61 2504.33
   00:34:50.122.04-May-2020 4661.71  162.55 81.03 4.00  65.81 2504.33
   00:34:50.322.04-May-2020 4661.71  162.98 81.03 4.00  66.01 2504.33
   00:34:50.522.04-May-2020 4661.71  163.39 81.03 4.00  66.21 2504.33
   00:34:50.722.04-May-2020 4661.71  163.81 81.03 4.00  66.41 2504.33
   00:34:50.922.04-May-2020 4661.71  164.20 81.03 4.00  66.61 2504.33
   00:34:51.122.04-May-2020 4661.71  164.61 81.03 4.00  66.81 2504.33
   00:34:51.322.04-May-2020 4661.71  164.99 81.03 4.00  67.01 2504.33
   00:34:51.522.04-May-2020 4661.71  165.36 81.03 4.00  67.21 2504.33
   00:34:51.722.04-May-2020 4661.71  165.71 81.02 4.00  67.41 2504.33
   00:34:51.922.04-May-2020 4661.71  166.14 81.02 4.00  67.61 2504.33
   00:34:52.122.04-May-2020 4661.71  166.48 81.02 4.00  67.81 2504.33
   00:34:52.322.04-May-2020 4661.71  166.92 81.02 4.00  68.01 2504.33
   00:34:52.522.04-May-2020 4661.71  166.92 81.02 4.00  68.21 2504.33
   00:34:52.722.04-May-2020 4661.71  167.68 81.02 4.00  68.41 2504.33
   00:34:52.922.04-May-2020 4661.71  168.01 81.02 4.00  68.61 2504.33
   00:34:53.122.04-May-2020 4661.71  168.34 81.02 4.00  68.81 2504.33
