~Version Information
 VERS.                  2.0:   CWLS log ASCII Standard -VERSION 2.0
 WRAP.                   NO:   One line per depth step
~Well Information Block
#MNEM.UNIT     VALUE/NAME     DESCRIPTION
#---------     -----------    ---------------------------
 STRT.S             13:13:41 03-May-20: START TIME 13:13:41 03-May-20
 STOP.S             13:20:16 03-May-20: STOP TIME  13:20:16 03-May-20
 STEP.S                   0.00: STEP TIME
 NULL.                 -999.25: NULL VALUE
 DFWT.                        :  DIST FWL TEXT
 DFST.                        :  DIST FSL TEXT
 DMF .             Drill Floor:  DRILL MEAS FROM
 STIM.      03.00.00 25-Mar-20:  START TIME
 DATE.      00.00.00 19-May-20:  END TIME
 SPUD.               27-Aug-20:  SPUD DATE
 NREF.                    Grid:  NORTH REFERENCE
 HPTY.       Minimum Curvature:  HOLE POS TYPE
 DMOD.             Drill Model:  DRILL MOD DESC
 SVYD.                  Survey:  SURVEY DESC
 ILTD.               Lithology:  INTERP LTH DESC
 FTOP.          Formation Tops:  FORM TOPS DESC
 SON .        AZ-XX-0906252240:  JOB NUMBER
 RIG .             West Chirag:  RIG NAME
 PDAT.          Mean Sea Level:  PERMANENT DATUM
 FLD .                     ACG:  FIELD NAME
 CTRY.              Azerbaijan:  COUNTRY NAME
 WELL.                     J23:  WELL NAME
 SRVC.          Turan Drilling:  CONTRACTOR
 COMP.     BP Exploration (Caspian Sea) Ltd.:  COMPANY
 WTYP.                Deviated:  WELL TYPE
 MDS .        Operator Entered:  MAG DATA SOURCE
 UWI .                     N/A:  UNIQUE WELL IDENTIFIER
 API .                     N/A:  API NUMBER
 BASE.              Azerbaijan:  LOGGING EQUIPMENT BASE LOCATION
 REGN.                   EESSA:  REGION
 PROV.                    Baku:  PROVINCE
 STAT.                    Baku:  STATE NAME
 MWDS.                     N/A:  MWD SHOP
 JOBN.        AZ-XX-0906252240:  JOB TICKET NUMB
 DOE .                     N/A:  DOE NUMBER
 DCON.         Sperry Drilling:  DIRECTNL CONTR
 UNIT.                     N/A:  LOGGING EQUIPMENT ID
 CNTY.                        :  COUNTY
 LOC .                        :  LOCATION
 LMF .             Drill Floor:  LOG MEASURED FROM
 TVDS.m                  43.00:  TVDSS CORRECTN
 LATI.deg                40.13:  LATITUDE
 LONG.deg                51.22:  LONGITUDE
 WHNS.m                   9.43:  WELL HEAD N/S
 WHEW.m                  -8.91:  WELL HEAD E/W
 UTMX.m              519005.06:  UTM X
 UTMY.m             4443793.85:  UTM Y
 DFWL.m                   0.00:  DISTANCE FWL
 DFSL.m                   0.00:  DISTANCE FSL
 SDEP.m                 363.00:  START DEPTH
 TDD .m                5150.01:  TOTAL DEPTH (DRILLER)
 VSDR.deg               179.88:  VERT SEC DIRECT
 GVFD.g                   1.00:  GRAVITY FIELD
 MFLD.nT              50295.00:  MAGNETIC FIELD
 MDIP.deg                59.56:  MAGNETIC DIP
 MDEC.deg                 6.45:  MAGNETIC DECL
 GRDC.deg                 0.14:  GRID CORRECTION
 AZTC.deg                 6.31:  AZM TOTAL CORR
 EPD .m                   0.00:  ELEVATION
 EGL .m                   0.00:  GROUND ELEVATION
 WDMS.m                 169.80:  WD ELEV
 APD .m                  43.00:  DEPTH ABOVE PD
 DEP .m                 354.17:  DEPTH
 AGAP.m                  43.00:  AIR GAP
 VSEW.m                  -8.91:  VERT SEC E/W
 VSNS.m                   9.43:  VERT SEC N/S
 EKB .m                   0.00:  KB ELEVATION
 EDF .m                  43.00:  DF ELEVATION
 TDL .m                1351.00:  TOTAL DEPTH (LOGGER)
 VSC .                       0:  VS TO CLOSURE
 MAGU.                 1850802:  MAGUTM CHECKSUM
~Parameter Information Block
#MNEM.UNIT       Value        Description
#---------     -----------    ---------------------------
 AV  .mps                 1.00:  Ann Velocity 
 AVMX.mps                 2.40:  Max Ann Veloc 
 AZIF.deg               148.96:  Azm, Final 
 BHAT.        Rotary Steerable:  BHA Type 
 BROT.°/30m               0.04:  Build Rotating 
 BS  .in                 12.25:  Bit Size 
 BSZ .in                 12.25:  Bit Size 
 BTPL.psig              814.00:  Bit Press Loss 
 TCS .hr                106.00:  Time Ciculation Ended 
 CV  .mps                 2.47:  Crit Velocity 
 CVMX.mps                 2.64:  Max Crit Veloc 
 DD1 .          Rashad Habibov:  Direct Drillr 1 
 DD2 .         Rasim Ibrahimov:  Direct Drillr 2 
 DDSV.                 iCruise:  DD Service 
 DEFF.%                 100.00:  % Det Eff 
 DLRX.°/30m               0.70:  Dogleg Rot Max 
 DLSO.°/30m               3.00:  Dogleg Oriented 
 DLSX.°/30m               4.55:  Dogleg Str Max 
 DRET.      08.08.32 02-May-20:  Drill End Time 
 DRST.      08.08.32 28-Apr-20:  Drill Start Tim 
 DTIM.hr                 60.00:  Time Drilling 
 EDEP.m                4761.01:  End Depth 
 ENG1.           Eldar Hajiyev:  Engineer 1 
 ENG2.        Marcelo Sandoval:  Engineer 2 
 ETIM.      23.23.07 05-May-20:  End Time 
 FLOI.gpm              1200.00:  Flow In 
 FLON.gpm               900.00:  Flow In Min 
 FLOS.cptm                0.00:  Fluid Loss 
 FLOX.gpm              1200.00:  Flow In Max 
 HFLO.                      No:  High Flow 
 HPRE.                      No:  High Pressure 
 HTEM.                      No:  High Temp 
 HYDO.m                   1.80:  Hydro Offset 
 IFIN.deg                68.17:  Inc, Final 
 IMAX.deg                74.61:  Inc Max 
 IMIN.deg                68.15:  Inc Min 
 IMND.m                4317.87:  Inc Min Depth 
 IMXD.m                4714.01:  Inc Max Depth 
 LETM.      08.08.32 02-May-20:  Log End Time 
 LOST.hr                     2:  Lost Rig Time 
 LSTM.      08.08.32 28-Apr-20:  Log Start Time 
 MDCL.ppm             41000.00:  Mud Chlorides 
 MDES.     Inversion Oil/Synthetic:  Mud Desc 
 DFD .sg                  1.58:  Mud Density 
 MDMN.sg                  1.58:  Dens Mud Min 
 MDMX.sg                  1.58:  Dens Mud Max 
 MOIL.                      71:  Run Mud Oil % 
 MOWR.                   71:29:  Run Mud OWR 
 MSND.                     0.1:  Run Mud Sand % 
 MSOL.                      23:  Run Mud Solids% 
 DFV .spqt               82.00:  Mud Viscosity 
 MWOD.in                  8.00:  MWD Tool OD 
 MWSI.                     Yes:  Serv Intrp, MWD 
 OTIM.hr                125.00:  Time Operating 
 PMAX.psia             6129.00:  Press Op, Max 
 PV  .cP                 32.00:  Mud PV 
 RUN .                     800:  Run Number 
 ROPA.m/hr               30.00:  ROP Avg 
 ROPN.m/hr               10.00:  ROP Min 
 ROPX.m/hr               40.00:  ROP Max 
 RPMA.rpm               140.00:  RPM Surface Avg 
 RPMN.rpm                80.00:  RPM Surface Min 
 RPMX.rpm               140.00:  RPM Surface Max 
 RRUN.                    L503:  Rig Run Number 
 RTIM.hr                  2.00:  Time Reaming 
 SAZI.deg               184.23:  Azm, Start 
 SDEP.m                3410.01:  Start Depth 
 SIDD.                      No:  Serv Intrp, DD 
 SINC.deg                68.29:  Inc, Start 
 SPPA.psig             6000.00:  SPP Avg 
 SPPN.psig             4000.00:  SPP Min 
 SPPX.psig             6100.00:  SPP Max 
 STIM.      08.08.32 28-Apr-20:  Start Time 
 SVCS.                 DD, MWD:  Services 
 SVER.                    9.20:  Sperry Version 
 TDAT.m                1351.00:  Tot Depth Attmp 
 TDDF.                      No:  Trip for DD 
 TDLG.m                1351.00:  Tot Depth Loggd 
 TFF .                      No:  Trip for Fail 
 TQAA.f-kp               27.00:  Torque Abs Avg 
 TQAN.f-kp               20.00:  Torque Abs Min 
 TQAX.f-kp               30.00:  Torque Abs Max 
 TRRT.°/30m               0.60:  Turn Rotating 
 MRT .                    EWER:  Maximum Recorded Temperature 
 TTMX.degC               83.00:  Max Tool Temp 
 VS01.                90511138:  Virtual Str1 SN 
 VS02.                90524876:  Virtual Str2 SN 
 VS03.                90524872:  Virtual Str3 SN 
 VS04.                90502750:  Virtual Str4 SN 
 VS05.                12330984:  Virtual Str5 SN 
 WBMN.klb                 0.00:  WOB Min 
 WOBA.klb                15.00:  WOB Avg 
 WOBX.klb                20.00:  WOB Max 
 YP  .lhf2               31.00:  Yield Point 
~Curve Information Block
#MNEM.UNIT                 API CODE     Curve Description
#---------               -----------    ---------------------------
 TIME.HHMMSS            00 000 000 000:  GT Time & Date
 GTDEPTH.m              00 000 000 000:  GT Depth
 GTPQH.psia             00 000 000 000:  GT HR Quartz Pressure
 GTTQ.degC              00 000 000 000:  GT Quartz Temperature
 GTTN.NONE              00 000 000 000:  GT Test Number
 GTET.sec               00 000 000 000:  GT Elapsed Test Time
 GTTVD.m                00 000 000 000:  GT True Vertical Depth
#Other Information
#
#WARRANTY: Halliburton will use its best efforts to furnish customers with 
#accurate information and interpretations that are part of, and incident to, the services 
#provided.  However, Halliburton cannot and does not warrant the accuracy 
#or correctness of such information and interpretations.  Under no circumstances should any 
#such information or interpretation be relied upon as the sole basis for any drilling, 
#completion, production, or financial decision or any procedure involving any risk to the 
#safety of any drilling venture, drilling rig or its crew or any other third party.  The 
#Customer has full responsibility for all drilling, completion and production operation.  
#Halliburton makes no representations or warranties, either expressed or 
#implied, including, but not limited to, the implied warranties of merchantability or fitness 
#for a particular purpose, with respect to the services rendered.  In no event will 
#Halliburton be liable for failure to obtain any particular results or for 
#any damages, including, but not limited to, indirect, special or consequential damages, 
#resulting from the use of any information or interpretation provided by Halliburton.
#
~A           TIME           GTDEPTH  GTPQH  GTTQ  GTTN  GTET   GTTVD  
# ...
   13:18:40.881.03-May-2020 4532.80 4122.17 79.98 1.00 299.47 2465.99
   13:18:41.082.03-May-2020 4532.80 4122.17 79.98 1.00 299.67 2465.99
   13:18:41.282.03-May-2020 4532.80 4121.64 79.98 1.00 299.87 2465.99
   13:18:41.482.03-May-2020 4532.80 4121.72 79.98 1.00 300.07 2465.99
   13:18:41.683.03-May-2020 4532.80 4121.75 79.98 1.00 300.27 2465.99
   13:18:41.883.03-May-2020 4532.80 4121.72 79.98 1.00 300.47 2465.99
   13:18:42.083.03-May-2020 4532.80 4121.72 79.98 1.00 300.67 2465.99
   13:18:42.284.03-May-2020 4532.80 4121.56 79.98 1.00 300.87 2465.99
   13:18:42.484.03-May-2020 4532.80 4121.60 79.98 1.00 301.07 2465.99
   13:18:42.684.03-May-2020 4532.80 4121.58 79.98 1.00 301.27 2465.99
   13:18:42.885.03-May-2020 4532.80 4121.89 79.98 1.00 301.47 2465.99
   13:18:43.085.03-May-2020 4532.80 4121.89 79.98 1.00 301.67 2465.99
   13:18:43.285.03-May-2020 4532.80 4121.98 79.98 1.00 301.87 2465.99
   13:18:43.485.03-May-2020 4532.80 4121.67 79.98 1.00 302.07 2465.99
   13:18:43.686.03-May-2020 4532.80 4121.80 79.97 1.00 302.28 2465.99
   13:18:43.886.03-May-2020 4532.80 4121.76 79.97 1.00 302.48 2465.99
   13:18:44.086.03-May-2020 4532.80 4121.65 79.97 1.00 302.68 2465.99
   13:18:44.287.03-May-2020 4532.80 4121.66 79.97 1.00 302.88 2465.99
   13:18:44.487.03-May-2020 4532.80 4121.70 79.97 1.00 303.08 2465.99
   13:18:44.687.03-May-2020 4532.80 4121.63 79.97 1.00 303.28 2465.99
   13:18:44.888.03-May-2020 4532.80 4121.55 79.97 1.00 303.48 2465.99
   13:18:45.088.03-May-2020 4532.80 4121.55 79.97 1.00 303.68 2465.99
   13:18:45.288.03-May-2020 4532.80 4121.56 79.97 1.00 303.88 2465.99
   13:18:45.489.03-May-2020 4532.80 4121.84 79.97 1.00 304.08 2465.99
   13:18:45.689.03-May-2020 4532.80 4122.29 79.97 1.00 304.28 2465.99
   13:18:45.889.03-May-2020 4532.80 4122.09 79.97 1.00 304.48 2465.99
   13:18:46.090.03-May-2020 4532.80 4122.09 79.97 1.00 304.68 2465.99
   13:18:46.290.03-May-2020 4532.80 4122.43 79.97 1.00 304.88 2465.99
   13:18:46.490.03-May-2020 4532.80 4122.12 79.97 1.00 305.08 2465.99
   13:18:46.691.03-May-2020 4532.80 4121.80 79.97 1.00 305.28 2465.99
   13:18:46.891.03-May-2020 4532.80 4122.89 79.97 1.00 305.48 2465.99
   13:18:47.091.03-May-2020 4532.80 4122.89 79.97 1.00 305.68 2465.99
   13:18:47.291.03-May-2020 4532.80 4122.61 79.97 1.00 305.88 2465.99
   13:18:47.492.03-May-2020 4532.80 4122.60 79.96 1.00 306.08 2465.99
   13:18:47.692.03-May-2020 4532.80 4122.09 79.96 1.00 306.28 2465.99
   13:18:47.892.03-May-2020 4532.80 4121.96 79.96 1.00 306.48 2465.99
   13:18:48.093.03-May-2020 4532.80 4122.68 79.96 1.00 306.68 2465.99
   13:18:48.293.03-May-2020 4532.80 4122.44 79.96 1.00 306.88 2465.99
   13:18:48.493.03-May-2020 4532.80 4122.12 79.96 1.00 307.08 2465.99
   13:18:48.694.03-May-2020 4532.80 4121.88 79.96 1.00 307.28 2465.99
   13:18:48.894.03-May-2020 4532.80 4122.05 79.96 1.00 307.48 2465.99
   13:18:49.094.03-May-2020 4532.80 4122.05 79.96 1.00 307.68 2465.99
   13:18:49.295.03-May-2020 4532.80 4121.97 79.96 1.00 307.88 2465.99
   13:18:49.495.03-May-2020 4532.80 4121.91 79.96 1.00 308.08 2465.99
   13:18:49.695.03-May-2020 4532.80 4121.81 79.96 1.00 308.28 2465.99
   13:18:49.896.03-May-2020 4532.80 4121.89 79.96 1.00 308.49 2465.99
   13:18:50.096.03-May-2020 4532.80 4121.89 79.96 1.00 308.69 2465.99
   13:18:50.296.03-May-2020 4532.80 4121.90 79.96 1.00 308.89 2465.99
   13:18:50.497.03-May-2020 4532.80 4121.84 79.96 1.00 309.09 2465.99
   13:18:50.697.03-May-2020 4532.80 4121.95 79.96 1.00 309.29 2465.99
   13:18:50.897.03-May-2020 4532.80 4122.30 79.96 1.00 309.49 2465.99
   13:18:51.097.03-May-2020 4532.80 4122.30 79.96 1.00 309.69 2465.99
   13:18:51.298.03-May-2020 4532.80 4122.28 79.96 1.00 309.89 2465.99
   13:18:51.498.03-May-2020 4532.80 4122.17 79.95 1.00 310.09 2465.99
   13:18:51.698.03-May-2020 4532.80 4121.89 79.95 1.00 310.29 2465.99
   13:18:51.899.03-May-2020 4532.80 4121.90 79.95 1.00 310.49 2465.99
   13:18:52.099.03-May-2020 4532.80 4121.98 79.95 1.00 310.69 2465.99
   13:18:52.299.03-May-2020 4532.80 4122.01 79.95 1.00 310.89 2465.99
   13:18:52.500.03-May-2020 4532.80 4121.83 79.95 1.00 311.09 2465.99
   13:18:52.700.03-May-2020 4532.80 4121.86 79.95 1.00 311.29 2465.99
   13:18:52.900.03-May-2020 4532.80 4121.76 79.95 1.00 311.49 2465.99
   13:18:53.101.03-May-2020 4532.80 4121.76 79.95 1.00 311.69 2465.99
   13:18:53.301.03-May-2020 4532.80 4121.91 79.95 1.00 311.89 2465.99
   13:18:53.501.03-May-2020 4532.80 4122.26 79.95 1.00 312.09 2465.99
   13:18:53.702.03-May-2020 4532.80 4122.34 79.95 1.00 312.29 2465.99
   13:18:53.902.03-May-2020 4532.80 4122.42 79.95 1.00 312.49 2465.99
   13:18:54.102.03-May-2020 4532.80 4122.42 79.95 1.00 312.69 2465.99
   13:18:54.302.03-May-2020 4532.80 4122.25 79.95 1.00 312.89 2465.99
   13:18:54.503.03-May-2020 4532.80 4122.02 79.95 1.00 313.09 2465.99
   13:18:54.703.03-May-2020 4532.80 4122.64 79.95 1.00 313.29 2465.99
   13:18:54.903.03-May-2020 4532.80 4122.97 79.95 1.00 313.49 2465.99
   13:18:55.104.03-May-2020 4532.80 4122.97 79.95 1.00 313.69 2465.99
   13:18:55.304.03-May-2020 4532.80 4122.78 79.94 1.00 313.89 2465.99
   13:18:55.504.03-May-2020 4532.80 4122.79 79.94 1.00 314.09 2465.99
   13:18:55.705.03-May-2020 4532.80 4122.43 79.94 1.00 314.29 2465.99
   13:18:55.905.03-May-2020 4532.80 4122.16 79.94 1.00 314.49 2465.99
   13:18:56.105.03-May-2020 4532.80 4122.16 79.94 1.00 314.69 2465.99
   13:18:56.306.03-May-2020 4532.80 4122.40 79.94 1.00 314.90 2465.99
   13:18:56.506.03-May-2020 4532.80 4122.24 79.94 1.00 315.10 2465.99
   13:18:56.706.03-May-2020 4532.80 4122.18 79.94 1.00 315.30 2465.99
   13:18:56.907.03-May-2020 4532.80 4122.04 79.94 1.00 315.50 2465.99
   13:18:57.107.03-May-2020 4532.80 4122.04 79.94 1.00 315.70 2465.99
   13:18:57.307.03-May-2020 4532.80 4122.05 79.94 1.00 315.90 2465.99
   13:18:57.508.03-May-2020 4532.80 4122.10 79.94 1.00 316.10 2465.99
   13:18:57.708.03-May-2020 4532.80 4121.99 79.94 1.00 316.30 2465.99
   13:18:57.908.03-May-2020 4532.80 4122.09 79.94 1.00 316.50 2465.99
   13:18:58.108.03-May-2020 4532.80 4122.09 79.94 1.00 316.70 2465.99
   13:18:58.309.03-May-2020 4532.80 4122.03 79.94 1.00 316.90 2465.99
   13:18:58.509.03-May-2020 4532.80 4122.11 79.94 1.00 317.10 2465.99
   13:18:58.709.03-May-2020 4532.80 4122.34 79.94 1.00 317.30 2465.99
   13:18:58.910.03-May-2020 4532.80 4122.58 79.94 1.00 317.50 2465.99
   13:18:59.110.03-May-2020 4532.80 4122.58 79.94 1.00 317.70 2465.99
   13:18:59.310.03-May-2020 4532.80 4122.23 79.93 1.00 317.90 2465.99
   13:18:59.511.03-May-2020 4532.80 4122.23 79.93 1.00 318.10 2465.99
   13:18:59.711.03-May-2020 4532.80 4122.22 79.93 1.00 318.30 2465.99
   13:18:59.911.03-May-2020 4532.80 4122.15 79.93 1.00 318.50 2465.99
   13:19:00.112.03-May-2020 4532.80 4122.06 79.93 1.00 318.70 2465.99
   13:19:00.312.03-May-2020 4532.80 4122.10 79.93 1.00 318.90 2465.99
   13:19:00.512.03-May-2020 4532.80 4122.04 79.93 1.00 319.10 2465.99
   13:19:00.713.03-May-2020 4532.80 4121.93 79.93 1.00 319.30 2465.99
   13:19:00.913.03-May-2020 4532.80 4121.98 79.93 1.00 319.50 2465.99
   13:19:01.113.03-May-2020 4532.80 4121.98 79.93 1.00 319.70 2465.99
   13:19:01.314.03-May-2020 4532.80 4122.30 79.93 1.00 319.90 2465.99
   13:19:01.514.03-May-2020 4532.80 4122.52 79.93 1.00 320.10 2465.99
   13:19:01.714.03-May-2020 4532.80 4122.37 79.93 1.00 320.30 2465.99
   13:19:01.914.03-May-2020 4532.80 4122.11 79.93 1.00 320.50 2465.99
   13:19:02.115.03-May-2020 4532.80 4122.11 79.93 1.00 320.70 2465.99
   13:19:02.315.03-May-2020 4532.80 4122.63 79.93 1.00 320.90 2465.99
   13:19:02.515.03-May-2020 4532.80 4122.49 79.93 1.00 321.10 2465.99
   13:19:02.716.03-May-2020 4532.80 4123.17 79.93 1.00 321.31 2465.99
   13:19:02.916.03-May-2020 4532.80 4123.19 79.92 1.00 321.51 2465.99
   13:19:03.116.03-May-2020 4532.80 4123.19 79.92 1.00 321.71 2465.99
   13:19:03.317.03-May-2020 4532.80 4123.17 79.92 1.00 321.91 2465.99
   13:19:03.517.03-May-2020 4532.80 4122.92 79.92 1.00 322.11 2465.99
   13:19:03.717.03-May-2020 4532.80 4122.41 79.92 1.00 322.31 2465.99
