~Version Information
 VERS.                  2.0:   CWLS log ASCII Standard -VERSION 2.0
 WRAP.                   NO:   One line per depth step
~Well Information Block
#MNEM.UNIT     VALUE/NAME     DESCRIPTION
#---------     -----------    ---------------------------
 STRT.S             15:01:40 03-May-20: START TIME 15:01:40 03-May-20
 STOP.S             15:08:15 03-May-20: STOP TIME  15:08:15 03-May-20
 STEP.S                   0.00: STEP TIME
 NULL.                 -999.25: NULL VALUE
 DFWT.                        :  DIST FWL TEXT
 DFST.                        :  DIST FSL TEXT
 DMF .             Drill Floor:  DRILL MEAS FROM
 STIM.      03.00.00 25-Mar-20:  START TIME
 DATE.      00.00.00 19-May-20:  END TIME
 SPUD.               27-Aug-20:  SPUD DATE
 NREF.                    Grid:  NORTH REFERENCE
 HPTY.       Minimum Curvature:  HOLE POS TYPE
 DMOD.             Drill Model:  DRILL MOD DESC
 SVYD.                  Survey:  SURVEY DESC
 ILTD.               Lithology:  INTERP LTH DESC
 FTOP.          Formation Tops:  FORM TOPS DESC
 SON .        AZ-XX-0906252240:  JOB NUMBER
 RIG .             West Chirag:  RIG NAME
 PDAT.          Mean Sea Level:  PERMANENT DATUM
 FLD .                     ACG:  FIELD NAME
 CTRY.              Azerbaijan:  COUNTRY NAME
 WELL.                     J23:  WELL NAME
 SRVC.          Turan Drilling:  CONTRACTOR
 COMP.     BP Exploration (Caspian Sea) Ltd.:  COMPANY
 WTYP.                Deviated:  WELL TYPE
 MDS .        Operator Entered:  MAG DATA SOURCE
 UWI .                     N/A:  UNIQUE WELL IDENTIFIER
 API .                     N/A:  API NUMBER
 BASE.              Azerbaijan:  LOGGING EQUIPMENT BASE LOCATION
 REGN.                   EESSA:  REGION
 PROV.                    Baku:  PROVINCE
 STAT.                    Baku:  STATE NAME
 MWDS.                     N/A:  MWD SHOP
 JOBN.        AZ-XX-0906252240:  JOB TICKET NUMB
 DOE .                     N/A:  DOE NUMBER
 DCON.         Sperry Drilling:  DIRECTNL CONTR
 UNIT.                     N/A:  LOGGING EQUIPMENT ID
 CNTY.                        :  COUNTY
 LOC .                        :  LOCATION
 LMF .             Drill Floor:  LOG MEASURED FROM
 TVDS.m                  43.00:  TVDSS CORRECTN
 LATI.deg                40.13:  LATITUDE
 LONG.deg                51.22:  LONGITUDE
 WHNS.m                   9.43:  WELL HEAD N/S
 WHEW.m                  -8.91:  WELL HEAD E/W
 UTMX.m              519005.06:  UTM X
 UTMY.m             4443793.85:  UTM Y
 DFWL.m                   0.00:  DISTANCE FWL
 DFSL.m                   0.00:  DISTANCE FSL
 SDEP.m                 363.00:  START DEPTH
 TDD .m                5150.01:  TOTAL DEPTH (DRILLER)
 VSDR.deg               179.88:  VERT SEC DIRECT
 GVFD.g                   1.00:  GRAVITY FIELD
 MFLD.nT              50295.00:  MAGNETIC FIELD
 MDIP.deg                59.56:  MAGNETIC DIP
 MDEC.deg                 6.45:  MAGNETIC DECL
 GRDC.deg                 0.14:  GRID CORRECTION
 AZTC.deg                 6.31:  AZM TOTAL CORR
 EPD .m                   0.00:  ELEVATION
 EGL .m                   0.00:  GROUND ELEVATION
 WDMS.m                 169.80:  WD ELEV
 APD .m                  43.00:  DEPTH ABOVE PD
 DEP .m                 354.17:  DEPTH
 AGAP.m                  43.00:  AIR GAP
 VSEW.m                  -8.91:  VERT SEC E/W
 VSNS.m                   9.43:  VERT SEC N/S
 EKB .m                   0.00:  KB ELEVATION
 EDF .m                  43.00:  DF ELEVATION
 TDL .m                1351.00:  TOTAL DEPTH (LOGGER)
 VSC .                       0:  VS TO CLOSURE
 MAGU.                 1850802:  MAGUTM CHECKSUM
~Parameter Information Block
#MNEM.UNIT       Value        Description
#---------     -----------    ---------------------------
 AV  .mps                 1.00:  Ann Velocity 
 AVMX.mps                 2.40:  Max Ann Veloc 
 AZIF.deg               148.96:  Azm, Final 
 BHAT.        Rotary Steerable:  BHA Type 
 BROT.°/30m               0.04:  Build Rotating 
 BS  .in                 12.25:  Bit Size 
 BSZ .in                 12.25:  Bit Size 
 BTPL.psig              814.00:  Bit Press Loss 
 TCS .hr                106.00:  Time Ciculation Ended 
 CV  .mps                 2.47:  Crit Velocity 
 CVMX.mps                 2.64:  Max Crit Veloc 
 DD1 .          Rashad Habibov:  Direct Drillr 1 
 DD2 .         Rasim Ibrahimov:  Direct Drillr 2 
 DDSV.                 iCruise:  DD Service 
 DEFF.%                 100.00:  % Det Eff 
 DLRX.°/30m               0.70:  Dogleg Rot Max 
 DLSO.°/30m               3.00:  Dogleg Oriented 
 DLSX.°/30m               4.55:  Dogleg Str Max 
 DRET.      08.08.32 02-May-20:  Drill End Time 
 DRST.      08.08.32 28-Apr-20:  Drill Start Tim 
 DTIM.hr                 60.00:  Time Drilling 
 EDEP.m                4761.01:  End Depth 
 ENG1.           Eldar Hajiyev:  Engineer 1 
 ENG2.        Marcelo Sandoval:  Engineer 2 
 ETIM.      23.23.07 05-May-20:  End Time 
 FLOI.gpm              1200.00:  Flow In 
 FLON.gpm               900.00:  Flow In Min 
 FLOS.cptm                0.00:  Fluid Loss 
 FLOX.gpm              1200.00:  Flow In Max 
 HFLO.                      No:  High Flow 
 HPRE.                      No:  High Pressure 
 HTEM.                      No:  High Temp 
 HYDO.m                   1.80:  Hydro Offset 
 IFIN.deg                68.17:  Inc, Final 
 IMAX.deg                74.61:  Inc Max 
 IMIN.deg                68.15:  Inc Min 
 IMND.m                4317.87:  Inc Min Depth 
 IMXD.m                4714.01:  Inc Max Depth 
 LETM.      08.08.32 02-May-20:  Log End Time 
 LOST.hr                     2:  Lost Rig Time 
 LSTM.      08.08.32 28-Apr-20:  Log Start Time 
 MDCL.ppm             41000.00:  Mud Chlorides 
 MDES.     Inversion Oil/Synthetic:  Mud Desc 
 DFD .sg                  1.58:  Mud Density 
 MDMN.sg                  1.58:  Dens Mud Min 
 MDMX.sg                  1.58:  Dens Mud Max 
 MOIL.                      71:  Run Mud Oil % 
 MOWR.                   71:29:  Run Mud OWR 
 MSND.                     0.1:  Run Mud Sand % 
 MSOL.                      23:  Run Mud Solids% 
 DFV .spqt               82.00:  Mud Viscosity 
 MWOD.in                  8.00:  MWD Tool OD 
 MWSI.                     Yes:  Serv Intrp, MWD 
 OTIM.hr                125.00:  Time Operating 
 PMAX.psia             6129.00:  Press Op, Max 
 PV  .cP                 32.00:  Mud PV 
 RUN .                     800:  Run Number 
 ROPA.m/hr               30.00:  ROP Avg 
 ROPN.m/hr               10.00:  ROP Min 
 ROPX.m/hr               40.00:  ROP Max 
 RPMA.rpm               140.00:  RPM Surface Avg 
 RPMN.rpm                80.00:  RPM Surface Min 
 RPMX.rpm               140.00:  RPM Surface Max 
 RRUN.                    L503:  Rig Run Number 
 RTIM.hr                  2.00:  Time Reaming 
 SAZI.deg               184.23:  Azm, Start 
 SDEP.m                3410.01:  Start Depth 
 SIDD.                      No:  Serv Intrp, DD 
 SINC.deg                68.29:  Inc, Start 
 SPPA.psig             6000.00:  SPP Avg 
 SPPN.psig             4000.00:  SPP Min 
 SPPX.psig             6100.00:  SPP Max 
 STIM.      08.08.32 28-Apr-20:  Start Time 
 SVCS.                 DD, MWD:  Services 
 SVER.                    9.20:  Sperry Version 
 TDAT.m                1351.00:  Tot Depth Attmp 
 TDDF.                      No:  Trip for DD 
 TDLG.m                1351.00:  Tot Depth Loggd 
 TFF .                      No:  Trip for Fail 
 TQAA.f-kp               27.00:  Torque Abs Avg 
 TQAN.f-kp               20.00:  Torque Abs Min 
 TQAX.f-kp               30.00:  Torque Abs Max 
 TRRT.°/30m               0.60:  Turn Rotating 
 MRT .                    EWER:  Maximum Recorded Temperature 
 TTMX.degC               83.00:  Max Tool Temp 
 VS01.                90511138:  Virtual Str1 SN 
 VS02.                90524876:  Virtual Str2 SN 
 VS03.                90524872:  Virtual Str3 SN 
 VS04.                90502750:  Virtual Str4 SN 
 VS05.                12330984:  Virtual Str5 SN 
 WBMN.klb                 0.00:  WOB Min 
 WOBA.klb                15.00:  WOB Avg 
 WOBX.klb                20.00:  WOB Max 
 YP  .lhf2               31.00:  Yield Point 
~Curve Information Block
#MNEM.UNIT                 API CODE     Curve Description
#---------               -----------    ---------------------------
 TIME.HHMMSS            00 000 000 000:  GT Time & Date
 GTDEPTH.m              00 000 000 000:  GT Depth
 GTPQH.psia             00 000 000 000:  GT HR Quartz Pressure
 GTTQ.degC              00 000 000 000:  GT Quartz Temperature
 GTTN.NONE              00 000 000 000:  GT Test Number
 GTET.sec               00 000 000 000:  GT Elapsed Test Time
 GTTVD.m                00 000 000 000:  GT True Vertical Depth
#Other Information
#
#WARRANTY: Halliburton will use its best efforts to furnish customers with 
#accurate information and interpretations that are part of, and incident to, the services 
#provided.  However, Halliburton cannot and does not warrant the accuracy 
#or correctness of such information and interpretations.  Under no circumstances should any 
#such information or interpretation be relied upon as the sole basis for any drilling, 
#completion, production, or financial decision or any procedure involving any risk to the 
#safety of any drilling venture, drilling rig or its crew or any other third party.  The 
#Customer has full responsibility for all drilling, completion and production operation.  
#Halliburton makes no representations or warranties, either expressed or 
#implied, including, but not limited to, the implied warranties of merchantability or fitness 
#for a particular purpose, with respect to the services rendered.  In no event will 
#Halliburton be liable for failure to obtain any particular results or for 
#any damages, including, but not limited to, indirect, special or consequential damages, 
#resulting from the use of any information or interpretation provided by Halliburton.
#
~A           TIME           GTDEPTH  GTPQH  GTTQ  GTTN  GTET   GTTVD  
# ...
   15:04:21.374.03-May-2020 4553.48 3431.95 81.83 2.00 160.95 2472.52
   15:04:21.574.03-May-2020 4553.48 3431.95 81.83 2.00 161.15 2472.52
   15:04:21.774.03-May-2020 4553.48 3431.18 81.83 2.00 161.35 2472.52
   15:04:21.974.03-May-2020 4553.48 3429.31 81.83 2.00 161.55 2472.52
   15:04:22.174.03-May-2020 4553.48 3431.51 81.83 2.00 161.75 2472.52
   15:04:22.374.03-May-2020 4553.48 3428.77 81.83 2.00 161.95 2472.52
   15:04:22.574.03-May-2020 4553.48 3428.77 81.83 2.00 162.15 2472.52
   15:04:22.774.03-May-2020 4553.48 3729.60 81.83 2.00 162.35 2472.52
   15:04:22.974.03-May-2020 4553.48 3906.37 81.83 2.00 162.55 2472.52
   15:04:23.173.03-May-2020 4553.48 4001.47 81.82 2.00 162.75 2472.52
   15:04:23.373.03-May-2020 4553.48 4052.47 81.82 2.00 162.95 2472.52
   15:04:23.573.03-May-2020 4553.48 4052.47 81.82 2.00 163.15 2472.52
   15:04:23.773.03-May-2020 4553.48 4095.38 81.82 2.00 163.35 2472.52
   15:04:23.973.03-May-2020 4553.48 4102.32 81.82 2.00 163.55 2472.52
   15:04:24.173.03-May-2020 4553.48 4109.94 81.82 2.00 163.75 2472.52
   15:04:24.373.03-May-2020 4553.48 4113.81 81.82 2.00 163.95 2472.52
   15:04:24.573.03-May-2020 4553.48 4113.81 81.82 2.00 164.15 2472.52
   15:04:24.773.03-May-2020 4553.48 4116.88 81.82 2.00 164.35 2472.52
   15:04:24.973.03-May-2020 4553.48 4118.46 81.82 2.00 164.55 2472.52
   15:04:25.173.03-May-2020 4553.48 4119.49 81.82 2.00 164.75 2472.52
   15:04:25.373.03-May-2020 4553.48 4120.21 81.82 2.00 164.95 2472.52
   15:04:25.573.03-May-2020 4553.48 4120.21 81.82 2.00 165.15 2472.52
   15:04:25.773.03-May-2020 4553.48 4120.81 81.82 2.00 165.35 2472.52
   15:04:25.973.03-May-2020 4553.48 4120.98 81.82 2.00 165.55 2472.52
   15:04:26.172.03-May-2020 4553.48 4121.29 81.82 2.00 165.75 2472.52
   15:04:26.372.03-May-2020 4553.48 4121.58 81.82 2.00 165.95 2472.52
   15:04:26.572.03-May-2020 4553.48 4121.58 81.82 2.00 166.15 2472.52
   15:04:26.772.03-May-2020 4553.48 4122.09 81.82 2.00 166.35 2472.52
   15:04:26.972.03-May-2020 4553.48 4121.85 81.82 2.00 166.55 2472.52
   15:04:27.172.03-May-2020 4553.48 4122.20 81.82 2.00 166.75 2472.52
   15:04:27.372.03-May-2020 4553.48 4122.27 81.82 2.00 166.95 2472.52
   15:04:27.572.03-May-2020 4553.48 4122.27 81.82 2.00 167.15 2472.52
   15:04:27.772.03-May-2020 4553.48 4122.39 81.81 2.00 167.35 2472.52
   15:04:27.972.03-May-2020 4553.48 4122.42 81.81 2.00 167.55 2472.52
   15:04:28.172.03-May-2020 4553.48 4122.51 81.81 2.00 167.75 2472.52
   15:04:28.372.03-May-2020 4553.48 4122.57 81.81 2.00 167.95 2472.52
   15:04:28.572.03-May-2020 4553.48 4122.57 81.81 2.00 168.15 2472.52
   15:04:28.772.03-May-2020 4553.48 4122.61 81.81 2.00 168.35 2472.52
   15:04:28.972.03-May-2020 4553.48 4122.86 81.81 2.00 168.55 2472.52
   15:04:29.172.03-May-2020 4553.48 4122.77 81.81 2.00 168.75 2472.52
   15:04:29.371.03-May-2020 4553.48 4122.91 81.81 2.00 168.95 2472.52
   15:04:29.571.03-May-2020 4553.48 4122.91 81.81 2.00 169.14 2472.52
   15:04:29.771.03-May-2020 4553.48 4122.88 81.81 2.00 169.34 2472.52
   15:04:29.971.03-May-2020 4553.48 4123.03 81.81 2.00 169.54 2472.52
   15:04:30.171.03-May-2020 4553.48 4123.14 81.81 2.00 169.74 2472.52
   15:04:30.371.03-May-2020 4553.48 4123.17 81.81 2.00 169.94 2472.52
   15:04:30.571.03-May-2020 4553.48 4123.17 81.81 2.00 170.14 2472.52
   15:04:30.771.03-May-2020 4553.48 4123.19 81.81 2.00 170.34 2472.52
   15:04:30.971.03-May-2020 4553.48 4123.14 81.81 2.00 170.54 2472.52
   15:04:31.171.03-May-2020 4553.48 4123.23 81.81 2.00 170.74 2472.52
   15:04:31.371.03-May-2020 4553.48 4123.38 81.81 2.00 170.94 2472.52
   15:04:31.571.03-May-2020 4553.48 4123.38 81.81 2.00 171.14 2472.52
   15:04:31.771.03-May-2020 4553.48 4123.54 81.81 2.00 171.34 2472.52
   15:04:31.971.03-May-2020 4553.48 4122.88 81.80 2.00 171.54 2472.52
   15:04:32.171.03-May-2020 4553.48 4123.48 81.80 2.00 171.74 2472.52
   15:04:32.370.03-May-2020 4553.48 4123.24 81.80 2.00 171.94 2472.52
   15:04:32.570.03-May-2020 4553.48 4123.24 81.80 2.00 172.14 2472.52
   15:04:32.770.03-May-2020 4553.48 4123.36 81.80 2.00 172.34 2472.52
   15:04:32.970.03-May-2020 4553.48 4123.41 81.80 2.00 172.54 2472.52
   15:04:33.170.03-May-2020 4553.48 4123.57 81.80 2.00 172.74 2472.52
   15:04:33.370.03-May-2020 4553.48 4123.59 81.80 2.00 172.94 2472.52
   15:04:33.570.03-May-2020 4553.48 4123.59 81.80 2.00 173.14 2472.52
   15:04:33.770.03-May-2020 4553.48 4123.26 81.80 2.00 173.34 2472.52
   15:04:33.970.03-May-2020 4553.48 4123.74 81.80 2.00 173.54 2472.52
   15:04:34.170.03-May-2020 4553.48 4123.64 81.80 2.00 173.74 2472.52
   15:04:34.370.03-May-2020 4553.48 4123.71 81.80 2.00 173.94 2472.52
   15:04:34.570.03-May-2020 4553.48 4123.71 81.80 2.00 174.14 2472.52
   15:04:34.770.03-May-2020 4553.48 4123.74 81.79 2.00 174.34 2472.52
   15:04:34.970.03-May-2020 4553.48 4123.54 81.79 2.00 174.54 2472.52
   15:04:35.170.03-May-2020 4553.48 4123.75 81.79 2.00 174.74 2472.52
   15:04:35.369.03-May-2020 4553.48 4123.92 81.79 2.00 174.94 2472.52
   15:04:35.569.03-May-2020 4553.48 4123.92 81.79 2.00 175.14 2472.52
   15:04:35.769.03-May-2020 4553.48 4123.73 81.79 2.00 175.34 2472.52
   15:04:35.969.03-May-2020 4553.48 4123.63 81.79 2.00 175.54 2472.52
   15:04:36.169.03-May-2020 4553.48 4123.78 81.79 2.00 175.74 2472.52
   15:04:36.369.03-May-2020 4553.48 4123.79 81.79 2.00 175.94 2472.52
   15:04:36.569.03-May-2020 4553.48 4123.79 81.79 2.00 176.14 2472.52
   15:04:36.769.03-May-2020 4553.48 4123.77 81.79 2.00 176.34 2472.52
   15:04:36.969.03-May-2020 4553.48 4123.74 81.79 2.00 176.54 2472.52
   15:04:37.169.03-May-2020 4553.48 4123.83 81.79 2.00 176.74 2472.52
   15:04:37.369.03-May-2020 4553.48 4123.74 81.79 2.00 176.94 2472.52
   15:04:37.569.03-May-2020 4553.48 4123.74 81.79 2.00 177.14 2472.52
   15:04:37.769.03-May-2020 4553.48 4123.67 81.78 2.00 177.34 2472.52
   15:04:37.969.03-May-2020 4553.48 4123.90 81.78 2.00 177.54 2472.52
   15:04:38.169.03-May-2020 4553.48 4123.83 81.78 2.00 177.74 2472.52
   15:04:38.369.03-May-2020 4553.48 4123.85 81.78 2.00 177.94 2472.52
   15:04:38.568.03-May-2020 4553.48 4123.85 81.78 2.00 178.14 2472.52
   15:04:38.768.03-May-2020 4553.48 4123.79 81.78 2.00 178.34 2472.52
   15:04:38.968.03-May-2020 4553.48 4123.87 81.78 2.00 178.54 2472.52
   15:04:39.168.03-May-2020 4553.48 4123.88 81.78 2.00 178.74 2472.52
   15:04:39.368.03-May-2020 4553.48 4123.94 81.78 2.00 178.94 2472.52
   15:04:39.568.03-May-2020 4553.48 4123.94 81.78 2.00 179.14 2472.52
   15:04:39.768.03-May-2020 4553.48 4123.93 81.78 2.00 179.34 2472.52
   15:04:39.968.03-May-2020 4553.48 4123.80 81.77 2.00 179.54 2472.52
   15:04:40.168.03-May-2020 4553.48 4124.24 81.77 2.00 179.74 2472.52
   15:04:40.368.03-May-2020 4553.48 4123.82 81.77 2.00 179.94 2472.52
   15:04:40.568.03-May-2020 4553.48 4123.82 81.77 2.00 180.14 2472.52
   15:04:40.768.03-May-2020 4553.48 4123.86 81.77 2.00 180.34 2472.52
   15:04:40.968.03-May-2020 4553.48 4123.93 81.77 2.00 180.54 2472.52
   15:04:41.168.03-May-2020 4553.48 4123.96 81.77 2.00 180.74 2472.52
   15:04:41.368.03-May-2020 4553.48 4123.77 81.77 2.00 180.94 2472.52
   15:04:41.567.03-May-2020 4553.48 4123.77 81.77 2.00 181.14 2472.52
   15:04:41.767.03-May-2020 4553.48 4123.83 81.77 2.00 181.34 2472.52
   15:04:41.967.03-May-2020 4553.48 4123.99 81.77 2.00 181.54 2472.52
   15:04:42.167.03-May-2020 4553.48 4124.11 81.77 2.00 181.74 2472.52
   15:04:42.367.03-May-2020 4553.48 4123.86 81.76 2.00 181.94 2472.52
   15:04:42.567.03-May-2020 4553.48 4123.86 81.76 2.00 182.14 2472.52
   15:04:42.767.03-May-2020 4553.48 4123.91 81.76 2.00 182.34 2472.52
   15:04:42.967.03-May-2020 4553.48 4124.02 81.76 2.00 182.54 2472.52
   15:04:43.167.03-May-2020 4553.48 4124.15 81.76 2.00 182.74 2472.52
   15:04:43.367.03-May-2020 4553.48 4124.10 81.76 2.00 182.94 2472.52
   15:04:43.567.03-May-2020 4553.48 4124.10 81.76 2.00 183.14 2472.52
   15:04:43.767.03-May-2020 4553.48 4124.01 81.76 2.00 183.34 2472.52
   15:04:43.967.03-May-2020 4553.48 4124.06 81.76 2.00 183.54 2472.52
   15:04:44.167.03-May-2020 4553.48 4123.99 81.76 2.00 183.74 2472.52
