~Version Information
 VERS.                  2.0:   CWLS log ASCII Standard -VERSION 2.0
 WRAP.                   NO:   One line per depth step
~Well Information Block
#MNEM.UNIT     VALUE/NAME     DESCRIPTION
#---------     -----------    ---------------------------
 STRT.S             10:50:58 04-May-20: START TIME 10:50:58 04-May-20
 STOP.S             10:57:32 04-May-20: STOP TIME  10:57:32 04-May-20
 STEP.S                   0.00: STEP TIME
 NULL.                 -999.25: NULL VALUE
 DFWT.                        :  DIST FWL TEXT
 DFST.                        :  DIST FSL TEXT
 DMF .             Drill Floor:  DRILL MEAS FROM
 STIM.      03.00.00 25-Mar-20:  START TIME
 DATE.      00.00.00 19-May-20:  END TIME
 SPUD.               27-Aug-20:  SPUD DATE
 NREF.                    Grid:  NORTH REFERENCE
 HPTY.       Minimum Curvature:  HOLE POS TYPE
 DMOD.             Drill Model:  DRILL MOD DESC
 SVYD.                  Survey:  SURVEY DESC
 ILTD.               Lithology:  INTERP LTH DESC
 FTOP.          Formation Tops:  FORM TOPS DESC
 SON .        AZ-XX-0906252240:  JOB NUMBER
 RIG .             West Chirag:  RIG NAME
 PDAT.          Mean Sea Level:  PERMANENT DATUM
 FLD .                     ACG:  FIELD NAME
 CTRY.              Azerbaijan:  COUNTRY NAME
 WELL.                     J23:  WELL NAME
 SRVC.          Turan Drilling:  CONTRACTOR
 COMP.     BP Exploration (Caspian Sea) Ltd.:  COMPANY
 WTYP.                Deviated:  WELL TYPE
 MDS .        Operator Entered:  MAG DATA SOURCE
 UWI .                     N/A:  UNIQUE WELL IDENTIFIER
 API .                     N/A:  API NUMBER
 BASE.              Azerbaijan:  LOGGING EQUIPMENT BASE LOCATION
 REGN.                   EESSA:  REGION
 PROV.                    Baku:  PROVINCE
 STAT.                    Baku:  STATE NAME
 MWDS.                     N/A:  MWD SHOP
 JOBN.        AZ-XX-0906252240:  JOB TICKET NUMB
 DOE .                     N/A:  DOE NUMBER
 DCON.         Sperry Drilling:  DIRECTNL CONTR
 UNIT.                     N/A:  LOGGING EQUIPMENT ID
 CNTY.                        :  COUNTY
 LOC .                        :  LOCATION
 LMF .             Drill Floor:  LOG MEASURED FROM
 TVDS.m                  43.00:  TVDSS CORRECTN
 LATI.deg                40.13:  LATITUDE
 LONG.deg                51.22:  LONGITUDE
 WHNS.m                   9.43:  WELL HEAD N/S
 WHEW.m                  -8.91:  WELL HEAD E/W
 UTMX.m              519005.06:  UTM X
 UTMY.m             4443793.85:  UTM Y
 DFWL.m                   0.00:  DISTANCE FWL
 DFSL.m                   0.00:  DISTANCE FSL
 SDEP.m                 363.00:  START DEPTH
 TDD .m                5150.01:  TOTAL DEPTH (DRILLER)
 VSDR.deg               179.88:  VERT SEC DIRECT
 GVFD.g                   1.00:  GRAVITY FIELD
 MFLD.nT              50295.00:  MAGNETIC FIELD
 MDIP.deg                59.56:  MAGNETIC DIP
 MDEC.deg                 6.45:  MAGNETIC DECL
 GRDC.deg                 0.14:  GRID CORRECTION
 AZTC.deg                 6.31:  AZM TOTAL CORR
 EPD .m                   0.00:  ELEVATION
 EGL .m                   0.00:  GROUND ELEVATION
 WDMS.m                 169.80:  WD ELEV
 APD .m                  43.00:  DEPTH ABOVE PD
 DEP .m                 354.17:  DEPTH
 AGAP.m                  43.00:  AIR GAP
 VSEW.m                  -8.91:  VERT SEC E/W
 VSNS.m                   9.43:  VERT SEC N/S
 EKB .m                   0.00:  KB ELEVATION
 EDF .m                  43.00:  DF ELEVATION
 TDL .m                1351.00:  TOTAL DEPTH (LOGGER)
 VSC .                       0:  VS TO CLOSURE
 MAGU.                 1850802:  MAGUTM CHECKSUM
~Parameter Information Block
#MNEM.UNIT       Value        Description
#---------     -----------    ---------------------------
 AV  .mps                 1.00:  Ann Velocity 
 AVMX.mps                 2.40:  Max Ann Veloc 
 AZIF.deg               148.96:  Azm, Final 
 BHAT.        Rotary Steerable:  BHA Type 
 BROT.°/30m               0.04:  Build Rotating 
 BS  .in                 12.25:  Bit Size 
 BSZ .in                 12.25:  Bit Size 
 BTPL.psig              814.00:  Bit Press Loss 
 TCS .hr                106.00:  Time Ciculation Ended 
 CV  .mps                 2.47:  Crit Velocity 
 CVMX.mps                 2.64:  Max Crit Veloc 
 DD1 .          Rashad Habibov:  Direct Drillr 1 
 DD2 .         Rasim Ibrahimov:  Direct Drillr 2 
 DDSV.                 iCruise:  DD Service 
 DEFF.%                 100.00:  % Det Eff 
 DLRX.°/30m               0.70:  Dogleg Rot Max 
 DLSO.°/30m               3.00:  Dogleg Oriented 
 DLSX.°/30m               4.55:  Dogleg Str Max 
 DRET.      08.08.32 02-May-20:  Drill End Time 
 DRST.      08.08.32 28-Apr-20:  Drill Start Tim 
 DTIM.hr                 60.00:  Time Drilling 
 EDEP.m                4761.01:  End Depth 
 ENG1.           Eldar Hajiyev:  Engineer 1 
 ENG2.        Marcelo Sandoval:  Engineer 2 
 ETIM.      23.23.07 05-May-20:  End Time 
 FLOI.gpm              1200.00:  Flow In 
 FLON.gpm               900.00:  Flow In Min 
 FLOS.cptm                0.00:  Fluid Loss 
 FLOX.gpm              1200.00:  Flow In Max 
 HFLO.                      No:  High Flow 
 HPRE.                      No:  High Pressure 
 HTEM.                      No:  High Temp 
 HYDO.m                   1.80:  Hydro Offset 
 IFIN.deg                68.17:  Inc, Final 
 IMAX.deg                74.61:  Inc Max 
 IMIN.deg                68.15:  Inc Min 
 IMND.m                4317.87:  Inc Min Depth 
 IMXD.m                4714.01:  Inc Max Depth 
 LETM.      08.08.32 02-May-20:  Log End Time 
 LOST.hr                     2:  Lost Rig Time 
 LSTM.      08.08.32 28-Apr-20:  Log Start Time 
 MDCL.ppm             41000.00:  Mud Chlorides 
 MDES.     Inversion Oil/Synthetic:  Mud Desc 
 DFD .sg                  1.58:  Mud Density 
 MDMN.sg                  1.58:  Dens Mud Min 
 MDMX.sg                  1.58:  Dens Mud Max 
 MOIL.                      71:  Run Mud Oil % 
 MOWR.                   71:29:  Run Mud OWR 
 MSND.                     0.1:  Run Mud Sand % 
 MSOL.                      23:  Run Mud Solids% 
 DFV .spqt               82.00:  Mud Viscosity 
 MWOD.in                  8.00:  MWD Tool OD 
 MWSI.                     Yes:  Serv Intrp, MWD 
 OTIM.hr                125.00:  Time Operating 
 PMAX.psia             6129.00:  Press Op, Max 
 PV  .cP                 32.00:  Mud PV 
 RUN .                     800:  Run Number 
 ROPA.m/hr               30.00:  ROP Avg 
 ROPN.m/hr               10.00:  ROP Min 
 ROPX.m/hr               40.00:  ROP Max 
 RPMA.rpm               140.00:  RPM Surface Avg 
 RPMN.rpm                80.00:  RPM Surface Min 
 RPMX.rpm               140.00:  RPM Surface Max 
 RRUN.                    L503:  Rig Run Number 
 RTIM.hr                  2.00:  Time Reaming 
 SAZI.deg               184.23:  Azm, Start 
 SDEP.m                3410.01:  Start Depth 
 SIDD.                      No:  Serv Intrp, DD 
 SINC.deg                68.29:  Inc, Start 
 SPPA.psig             6000.00:  SPP Avg 
 SPPN.psig             4000.00:  SPP Min 
 SPPX.psig             6100.00:  SPP Max 
 STIM.      08.08.32 28-Apr-20:  Start Time 
 SVCS.                 DD, MWD:  Services 
 SVER.                    9.20:  Sperry Version 
 TDAT.m                1351.00:  Tot Depth Attmp 
 TDDF.                      No:  Trip for DD 
 TDLG.m                1351.00:  Tot Depth Loggd 
 TFF .                      No:  Trip for Fail 
 TQAA.f-kp               27.00:  Torque Abs Avg 
 TQAN.f-kp               20.00:  Torque Abs Min 
 TQAX.f-kp               30.00:  Torque Abs Max 
 TRRT.°/30m               0.60:  Turn Rotating 
 MRT .                    EWER:  Maximum Recorded Temperature 
 TTMX.degC               83.00:  Max Tool Temp 
 VS01.                90511138:  Virtual Str1 SN 
 VS02.                90524876:  Virtual Str2 SN 
 VS03.                90524872:  Virtual Str3 SN 
 VS04.                90502750:  Virtual Str4 SN 
 VS05.                12330984:  Virtual Str5 SN 
 WBMN.klb                 0.00:  WOB Min 
 WOBA.klb                15.00:  WOB Avg 
 WOBX.klb                20.00:  WOB Max 
 YP  .lhf2               31.00:  Yield Point 
~Curve Information Block
#MNEM.UNIT                 API CODE     Curve Description
#---------               -----------    ---------------------------
 TIME.HHMMSS            00 000 000 000:  GT Time & Date
 GTDEPTH.m              00 000 000 000:  GT Depth
 GTPQH.psia             00 000 000 000:  GT HR Quartz Pressure
 GTTQ.degC              00 000 000 000:  GT Quartz Temperature
 GTTN.NONE              00 000 000 000:  GT Test Number
 GTET.sec               00 000 000 000:  GT Elapsed Test Time
 GTTVD.m                00 000 000 000:  GT True Vertical Depth
#Other Information
#
#WARRANTY: Halliburton will use its best efforts to furnish customers with 
#accurate information and interpretations that are part of, and incident to, the services 
#provided.  However, Halliburton cannot and does not warrant the accuracy 
#or correctness of such information and interpretations.  Under no circumstances should any 
#such information or interpretation be relied upon as the sole basis for any drilling, 
#completion, production, or financial decision or any procedure involving any risk to the 
#safety of any drilling venture, drilling rig or its crew or any other third party.  The 
#Customer has full responsibility for all drilling, completion and production operation.  
#Halliburton makes no representations or warranties, either expressed or 
#implied, including, but not limited to, the implied warranties of merchantability or fitness 
#for a particular purpose, with respect to the services rendered.  In no event will 
#Halliburton be liable for failure to obtain any particular results or for 
#any damages, including, but not limited to, indirect, special or consequential damages, 
#resulting from the use of any information or interpretation provided by Halliburton.
#
~A           TIME           GTDEPTH  GTPQH  GTTQ  GTTN  GTET   GTTVD  
# ...
   10:51:21.251.04-May-2020 4718.46 5827.53 82.29 6.00  23.00 2519.85
   10:51:21.451.04-May-2020 4718.46 5827.53 82.29 6.00  23.20 2519.85
   10:51:21.651.04-May-2020 4718.46 5833.86 82.29 6.00  23.40 2519.85
   10:51:21.851.04-May-2020 4718.46 5830.18 82.29 6.00  23.60 2519.85
   10:51:22.051.04-May-2020 4718.46 5829.28 82.29 6.00  23.80 2519.85
   10:51:22.251.04-May-2020 4718.46 5828.80 82.29 6.00  24.00 2519.85
   10:51:22.451.04-May-2020 4718.46 5828.80 82.29 6.00  24.20 2519.85
   10:51:22.651.04-May-2020 4718.46 5827.50 82.29 6.00  24.40 2519.85
   10:51:22.851.04-May-2020 4718.46 5828.60 82.29 6.00  24.60 2519.85
   10:51:23.051.04-May-2020 4718.46 5829.23 82.29 6.00  24.80 2519.85
   10:51:23.251.04-May-2020 4718.46 5828.04 82.28 6.00  25.00 2519.85
   10:51:23.451.04-May-2020 4718.46 5828.04 82.28 6.00  25.20 2519.85
   10:51:23.651.04-May-2020 4718.46 5829.14 82.28 6.00  25.40 2519.85
   10:51:23.851.04-May-2020 4718.46 5830.41 82.28 6.00  25.60 2519.85
   10:51:24.051.04-May-2020 4718.46 5830.43 82.28 6.00  25.80 2519.85
   10:51:24.251.04-May-2020 4718.46 5829.74 82.28 6.00  26.00 2519.85
   10:51:24.451.04-May-2020 4718.46 5829.74 82.28 6.00  26.20 2519.85
   10:51:24.651.04-May-2020 4718.46 5832.79 82.28 6.00  26.40 2519.85
   10:51:24.851.04-May-2020 4718.46 5832.54 82.28 6.00  26.60 2519.85
   10:51:25.051.04-May-2020 4718.46 5831.76 82.28 6.00  26.80 2519.85
   10:51:25.251.04-May-2020 4718.46 5832.08 82.28 6.00  27.00 2519.85
   10:51:25.451.04-May-2020 4718.46 5832.08 82.28 6.00  27.20 2519.85
   10:51:25.651.04-May-2020 4718.46 5830.46 82.27 6.00  27.40 2519.85
   10:51:25.851.04-May-2020 4718.46 5830.23 82.27 6.00  27.60 2519.85
   10:51:26.051.04-May-2020 4718.46 5829.46 82.27 6.00  27.80 2519.85
   10:51:26.251.04-May-2020 4718.46 5829.83 82.27 6.00  28.00 2519.85
   10:51:26.452.04-May-2020 4718.46 5829.83 82.27 6.00  28.20 2519.85
   10:51:26.652.04-May-2020 4718.46 5830.34 82.27 6.00  28.40 2519.85
   10:51:26.852.04-May-2020 4718.46 5830.68 82.27 6.00  28.60 2519.85
   10:51:27.052.04-May-2020 4718.46 5836.68 82.27 6.00  28.80 2519.85
   10:51:27.252.04-May-2020 4718.46 5832.54 82.27 6.00  29.00 2519.85
   10:51:27.452.04-May-2020 4718.46 5831.65 82.27 6.00  29.20 2519.85
   10:51:27.652.04-May-2020 4718.46 5837.77 82.27 6.00  29.40 2519.85
   10:51:27.852.04-May-2020 4718.46 5835.55 82.27 6.00  29.60 2519.85
   10:51:28.052.04-May-2020 4718.46 5834.35 82.27 6.00  29.80 2519.85
   10:51:28.252.04-May-2020 4718.46 5833.26 82.26 6.00  30.00 2519.85
   10:51:28.452.04-May-2020 4718.46 5833.26 82.26 6.00  30.20 2519.85
   10:51:28.652.04-May-2020 4718.46 5832.83 82.26 6.00  30.40 2519.85
   10:51:28.852.04-May-2020 4718.46 5831.38 82.26 6.00  30.60 2519.85
   10:51:29.052.04-May-2020 4718.46 5832.23 82.26 6.00  30.80 2519.85
   10:51:29.252.04-May-2020 4718.46 5833.43 82.26 6.00  31.00 2519.85
   10:51:29.452.04-May-2020 4718.46 5833.43 82.26 6.00  31.20 2519.85
   10:51:29.652.04-May-2020 4718.46 5831.02 82.26 6.00  31.40 2519.85
   10:51:29.852.04-May-2020 4718.46 5837.14 82.26 6.00  31.60 2519.85
   10:51:30.052.04-May-2020 4718.46 5832.08 82.26 6.00  31.80 2519.85
   10:51:30.252.04-May-2020 4718.46 5832.41 82.26 6.00  32.00 2519.85
   10:51:30.452.04-May-2020 4718.46 5833.01 82.26 6.00  32.20 2519.85
   10:51:30.652.04-May-2020 4718.46 5832.15 82.26 6.00  32.41 2519.85
   10:51:30.852.04-May-2020 4718.46 5833.86 82.25 6.00  32.61 2519.85
   10:51:31.052.04-May-2020 4718.46 5832.20 82.25 6.00  32.81 2519.85
   10:51:31.252.04-May-2020 4718.46 5832.39 82.25 6.00  33.01 2519.85
   10:51:31.452.04-May-2020 4718.46 5832.39 82.25 6.00  33.21 2519.85
   10:51:31.652.04-May-2020 4718.46 5834.16 82.25 6.00  33.41 2519.85
   10:51:31.852.04-May-2020 4718.46 5834.29 82.25 6.00  33.61 2519.85
   10:51:32.052.04-May-2020 4718.46 5831.52 82.25 6.00  33.81 2519.85
   10:51:32.252.04-May-2020 4718.46 5831.98 82.25 6.00  34.01 2519.85
   10:51:32.452.04-May-2020 4718.46 5831.98 82.25 6.00  34.21 2519.85
   10:51:32.652.04-May-2020 4718.46 5839.33 82.25 6.00  34.41 2519.85
   10:51:32.852.04-May-2020 4718.46 5834.33 82.25 6.00  34.61 2519.85
   10:51:33.053.04-May-2020 4718.46 5833.36 82.25 6.00  34.81 2519.85
   10:51:33.253.04-May-2020 4718.46 5834.17 82.25 6.00  35.01 2519.85
   10:51:33.453.04-May-2020 4718.46 5834.17 82.25 6.00  35.21 2519.85
   10:51:33.653.04-May-2020 4718.46 5834.41 82.24 6.00  35.41 2519.85
   10:51:33.853.04-May-2020 4718.46 5833.00 82.24 6.00  35.61 2519.85
   10:51:34.053.04-May-2020 4718.46 5832.78 82.24 6.00  35.81 2519.85
   10:51:34.253.04-May-2020 4718.46 5832.16 82.24 6.00  36.01 2519.85
   10:51:34.453.04-May-2020 4718.46 5832.16 82.24 6.00  36.21 2519.85
   10:51:34.653.04-May-2020 4718.46 5712.64 82.24 6.00  36.41 2519.85
   10:51:34.853.04-May-2020 4718.46 5849.91 82.24 6.00  36.61 2519.85
   10:51:35.053.04-May-2020 4718.46 5978.94 82.24 6.00  36.81 2519.85
   10:51:35.253.04-May-2020 4718.46 5993.09 82.24 6.00  37.01 2519.85
   10:51:35.453.04-May-2020 4718.46 5996.83 82.24 6.00  37.21 2519.85
   10:51:35.653.04-May-2020 4718.46 5982.21 82.24 6.00  37.41 2519.85
   10:51:35.853.04-May-2020 4718.46 6009.20 82.24 6.00  37.61 2519.85
   10:51:36.053.04-May-2020 4718.46 6022.93 82.24 6.00  37.81 2519.85
   10:51:36.253.04-May-2020 4718.46 6007.02 82.23 6.00  38.01 2519.85
   10:51:36.453.04-May-2020 4718.46 6007.02 82.23 6.00  38.21 2519.85
   10:51:36.653.04-May-2020 4718.46 6024.12 82.23 6.00  38.41 2519.85
   10:51:36.853.04-May-2020 4718.46 6006.44 82.23 6.00  38.61 2519.85
   10:51:37.053.04-May-2020 4718.46 6044.05 82.23 6.00  38.81 2519.85
   10:51:37.253.04-May-2020 4718.46 5957.61 82.23 6.00  39.01 2519.85
   10:51:37.453.04-May-2020 4718.46 5935.56 82.23 6.00  39.21 2519.85
   10:51:37.653.04-May-2020 4718.46 5922.64 82.23 6.00  39.41 2519.85
   10:51:37.853.04-May-2020 4718.46 5927.60 82.23 6.00  39.61 2519.85
   10:51:38.053.04-May-2020 4718.46 5921.06 82.23 6.00  39.81 2519.85
   10:51:38.253.04-May-2020 4718.46 5916.75 82.23 6.00  40.01 2519.85
   10:51:38.453.04-May-2020 4718.46 5916.75 82.23 6.00  40.21 2519.85
   10:51:38.653.04-May-2020 4718.46 5912.69 82.23 6.00  40.41 2519.85
   10:51:38.853.04-May-2020 4718.46 5906.25 82.23 6.00  40.61 2519.85
   10:51:39.053.04-May-2020 4718.46 5908.52 82.23 6.00  40.81 2519.85
   10:51:39.253.04-May-2020 4718.46 5909.73 82.22 6.00  41.01 2519.85
   10:51:39.454.04-May-2020 4718.46 5909.73 82.22 6.00  41.21 2519.85
   10:51:39.654.04-May-2020 4718.46 5907.09 82.22 6.00  41.41 2519.85
   10:51:39.854.04-May-2020 4718.46 5908.89 82.22 6.00  41.61 2519.85
   10:51:40.054.04-May-2020 4718.46 5911.24 82.22 6.00  41.81 2519.85
   10:51:40.254.04-May-2020 4718.46 5913.21 82.22 6.00  42.01 2519.85
   10:51:40.454.04-May-2020 4718.46 5913.21 82.22 6.00  42.21 2519.85
   10:51:40.654.04-May-2020 4718.46 5918.56 82.22 6.00  42.41 2519.85
   10:51:40.854.04-May-2020 4718.46 5918.20 82.22 6.00  42.61 2519.85
   10:51:41.054.04-May-2020 4718.46 5918.65 82.22 6.00  42.81 2519.85
   10:51:41.254.04-May-2020 4718.46 5919.64 82.22 6.00  43.01 2519.85
   10:51:41.454.04-May-2020 4718.46 5919.64 82.22 6.00  43.21 2519.85
   10:51:41.654.04-May-2020 4718.46 5919.91 82.22 6.00  43.41 2519.85
   10:51:41.854.04-May-2020 4718.46 5920.24 82.21 6.00  43.61 2519.85
   10:51:42.054.04-May-2020 4718.46 5920.37 82.21 6.00  43.81 2519.85
   10:51:42.254.04-May-2020 4718.46 5921.54 82.21 6.00  44.01 2519.85
   10:51:42.454.04-May-2020 4718.46 5921.54 82.21 6.00  44.21 2519.85
   10:51:42.654.04-May-2020 4718.46 5919.12 82.21 6.00  44.41 2519.85
   10:51:42.854.04-May-2020 4718.46 5921.82 82.21 6.00  44.61 2519.85
   10:51:43.054.04-May-2020 4718.46 5923.25 82.21 6.00  44.81 2519.85
   10:51:43.254.04-May-2020 4718.46 5922.91 82.21 6.00  45.01 2519.85
   10:51:43.454.04-May-2020 4718.46 5922.91 82.21 6.00  45.21 2519.85
   10:51:43.654.04-May-2020 4718.46 5922.11 82.21 6.00  45.41 2519.85
   10:51:43.854.04-May-2020 4718.46 5923.14 82.21 6.00  45.61 2519.85
   10:51:44.054.04-May-2020 4718.46 5923.00 82.21 6.00  45.81 2519.85
