~Version Information
 VERS.                  2.0:   CWLS log ASCII Standard -VERSION 2.0
 WRAP.                   NO:   One line per depth step
~Well Information Block
#MNEM.UNIT     VALUE/NAME     DESCRIPTION
#---------     -----------    ---------------------------
 STRT.S             15:01:40 03-May-20: START TIME 15:01:40 03-May-20
 STOP.S             15:08:15 03-May-20: STOP TIME  15:08:15 03-May-20
 STEP.S                   0.00: STEP TIME
 NULL.                 -999.25: NULL VALUE
 DFWT.                        :  DIST FWL TEXT
 DFST.                        :  DIST FSL TEXT
 DMF .             Drill Floor:  DRILL MEAS FROM
 STIM.      03.00.00 25-Mar-20:  START TIME
 DATE.      00.00.00 19-May-20:  END TIME
 SPUD.               27-Aug-20:  SPUD DATE
 NREF.                    Grid:  NORTH REFERENCE
 HPTY.       Minimum Curvature:  HOLE POS TYPE
 DMOD.             Drill Model:  DRILL MOD DESC
 SVYD.                  Survey:  SURVEY DESC
 ILTD.               Lithology:  INTERP LTH DESC
 FTOP.          Formation Tops:  FORM TOPS DESC
 SON .        AZ-XX-0906252240:  JOB NUMBER
 RIG .             West Chirag:  RIG NAME
 PDAT.          Mean Sea Level:  PERMANENT DATUM
 FLD .                     ACG:  FIELD NAME
 CTRY.              Azerbaijan:  COUNTRY NAME
 WELL.                     J23:  WELL NAME
 SRVC.          Turan Drilling:  CONTRACTOR
 COMP.     BP Exploration (Caspian Sea) Ltd.:  COMPANY
 WTYP.                Deviated:  WELL TYPE
 MDS .        Operator Entered:  MAG DATA SOURCE
 UWI .                     N/A:  UNIQUE WELL IDENTIFIER
 API .                     N/A:  API NUMBER
 BASE.              Azerbaijan:  LOGGING EQUIPMENT BASE LOCATION
 REGN.                   EESSA:  REGION
 PROV.                    Baku:  PROVINCE
 STAT.                    Baku:  STATE NAME
 MWDS.                     N/A:  MWD SHOP
 JOBN.        AZ-XX-0906252240:  JOB TICKET NUMB
 DOE .                     N/A:  DOE NUMBER
 DCON.         Sperry Drilling:  DIRECTNL CONTR
 UNIT.                     N/A:  LOGGING EQUIPMENT ID
 CNTY.                        :  COUNTY
 LOC .                        :  LOCATION
 LMF .             Drill Floor:  LOG MEASURED FROM
 TVDS.m                  43.00:  TVDSS CORRECTN
 LATI.deg                40.13:  LATITUDE
 LONG.deg                51.22:  LONGITUDE
 WHNS.m                   9.43:  WELL HEAD N/S
 WHEW.m                  -8.91:  WELL HEAD E/W
 UTMX.m              519005.06:  UTM X
 UTMY.m             4443793.85:  UTM Y
 DFWL.m                   0.00:  DISTANCE FWL
 DFSL.m                   0.00:  DISTANCE FSL
 SDEP.m                 363.00:  START DEPTH
 TDD .m                5150.01:  TOTAL DEPTH (DRILLER)
 VSDR.deg               179.88:  VERT SEC DIRECT
 GVFD.g                   1.00:  GRAVITY FIELD
 MFLD.nT              50295.00:  MAGNETIC FIELD
 MDIP.deg                59.56:  MAGNETIC DIP
 MDEC.deg                 6.45:  MAGNETIC DECL
 GRDC.deg                 0.14:  GRID CORRECTION
 AZTC.deg                 6.31:  AZM TOTAL CORR
 EPD .m                   0.00:  ELEVATION
 EGL .m                   0.00:  GROUND ELEVATION
 WDMS.m                 169.80:  WD ELEV
 APD .m                  43.00:  DEPTH ABOVE PD
 DEP .m                 354.17:  DEPTH
 AGAP.m                  43.00:  AIR GAP
 VSEW.m                  -8.91:  VERT SEC E/W
 VSNS.m                   9.43:  VERT SEC N/S
 EKB .m                   0.00:  KB ELEVATION
 EDF .m                  43.00:  DF ELEVATION
 TDL .m                1351.00:  TOTAL DEPTH (LOGGER)
 VSC .                       0:  VS TO CLOSURE
 MAGU.                 1850802:  MAGUTM CHECKSUM
~Parameter Information Block
#MNEM.UNIT       Value        Description
#---------     -----------    ---------------------------
 AV  .mps                 1.00:  Ann Velocity 
 AVMX.mps                 2.40:  Max Ann Veloc 
 AZIF.deg               148.96:  Azm, Final 
 BHAT.        Rotary Steerable:  BHA Type 
 BROT.°/30m               0.04:  Build Rotating 
 BS  .in                 12.25:  Bit Size 
 BSZ .in                 12.25:  Bit Size 
 BTPL.psig              814.00:  Bit Press Loss 
 TCS .hr                106.00:  Time Ciculation Ended 
 CV  .mps                 2.47:  Crit Velocity 
 CVMX.mps                 2.64:  Max Crit Veloc 
 DD1 .          Rashad Habibov:  Direct Drillr 1 
 DD2 .         Rasim Ibrahimov:  Direct Drillr 2 
 DDSV.                 iCruise:  DD Service 
 DEFF.%                 100.00:  % Det Eff 
 DLRX.°/30m               0.70:  Dogleg Rot Max 
 DLSO.°/30m               3.00:  Dogleg Oriented 
 DLSX.°/30m               4.55:  Dogleg Str Max 
 DRET.      08.08.32 02-May-20:  Drill End Time 
 DRST.      08.08.32 28-Apr-20:  Drill Start Tim 
 DTIM.hr                 60.00:  Time Drilling 
 EDEP.m                4761.01:  End Depth 
 ENG1.           Eldar Hajiyev:  Engineer 1 
 ENG2.        Marcelo Sandoval:  Engineer 2 
 ETIM.      23.23.07 05-May-20:  End Time 
 FLOI.gpm              1200.00:  Flow In 
 FLON.gpm               900.00:  Flow In Min 
 FLOS.cptm                0.00:  Fluid Loss 
 FLOX.gpm              1200.00:  Flow In Max 
 HFLO.                      No:  High Flow 
 HPRE.                      No:  High Pressure 
 HTEM.                      No:  High Temp 
 HYDO.m                   1.80:  Hydro Offset 
 IFIN.deg                68.17:  Inc, Final 
 IMAX.deg                74.61:  Inc Max 
 IMIN.deg                68.15:  Inc Min 
 IMND.m                4317.87:  Inc Min Depth 
 IMXD.m                4714.01:  Inc Max Depth 
 LETM.      08.08.32 02-May-20:  Log End Time 
 LOST.hr                     2:  Lost Rig Time 
 LSTM.      08.08.32 28-Apr-20:  Log Start Time 
 MDCL.ppm             41000.00:  Mud Chlorides 
 MDES.     Inversion Oil/Synthetic:  Mud Desc 
 DFD .sg                  1.58:  Mud Density 
 MDMN.sg                  1.58:  Dens Mud Min 
 MDMX.sg                  1.58:  Dens Mud Max 
 MOIL.                      71:  Run Mud Oil % 
 MOWR.                   71:29:  Run Mud OWR 
 MSND.                     0.1:  Run Mud Sand % 
 MSOL.                      23:  Run Mud Solids% 
 DFV .spqt               82.00:  Mud Viscosity 
 MWOD.in                  8.00:  MWD Tool OD 
 MWSI.                     Yes:  Serv Intrp, MWD 
 OTIM.hr                125.00:  Time Operating 
 PMAX.psia             6129.00:  Press Op, Max 
 PV  .cP                 32.00:  Mud PV 
 RUN .                     800:  Run Number 
 ROPA.m/hr               30.00:  ROP Avg 
 ROPN.m/hr               10.00:  ROP Min 
 ROPX.m/hr               40.00:  ROP Max 
 RPMA.rpm               140.00:  RPM Surface Avg 
 RPMN.rpm                80.00:  RPM Surface Min 
 RPMX.rpm               140.00:  RPM Surface Max 
 RRUN.                    L503:  Rig Run Number 
 RTIM.hr                  2.00:  Time Reaming 
 SAZI.deg               184.23:  Azm, Start 
 SDEP.m                3410.01:  Start Depth 
 SIDD.                      No:  Serv Intrp, DD 
 SINC.deg                68.29:  Inc, Start 
 SPPA.psig             6000.00:  SPP Avg 
 SPPN.psig             4000.00:  SPP Min 
 SPPX.psig             6100.00:  SPP Max 
 STIM.      08.08.32 28-Apr-20:  Start Time 
 SVCS.                 DD, MWD:  Services 
 SVER.                    9.20:  Sperry Version 
 TDAT.m                1351.00:  Tot Depth Attmp 
 TDDF.                      No:  Trip for DD 
 TDLG.m                1351.00:  Tot Depth Loggd 
 TFF .                      No:  Trip for Fail 
 TQAA.f-kp               27.00:  Torque Abs Avg 
 TQAN.f-kp               20.00:  Torque Abs Min 
 TQAX.f-kp               30.00:  Torque Abs Max 
 TRRT.°/30m               0.60:  Turn Rotating 
 MRT .                    EWER:  Maximum Recorded Temperature 
 TTMX.degC               83.00:  Max Tool Temp 
 VS01.                90511138:  Virtual Str1 SN 
 VS02.                90524876:  Virtual Str2 SN 
 VS03.                90524872:  Virtual Str3 SN 
 VS04.                90502750:  Virtual Str4 SN 
 VS05.                12330984:  Virtual Str5 SN 
 WBMN.klb                 0.00:  WOB Min 
 WOBA.klb                15.00:  WOB Avg 
 WOBX.klb                20.00:  WOB Max 
 YP  .lhf2               31.00:  Yield Point 
~Curve Information Block
#MNEM.UNIT                 API CODE     Curve Description
#---------               -----------    ---------------------------
 TIME.HHMMSS            00 000 000 000:  GT Time & Date
 GTDEPTH.m              00 000 000 000:  GT Depth
 GTPQH.psia             00 000 000 000:  GT HR Quartz Pressure
 GTTQ.degC              00 000 000 000:  GT Quartz Temperature
 GTTN.NONE              00 000 000 000:  GT Test Number
 GTET.sec               00 000 000 000:  GT Elapsed Test Time
 GTTVD.m                00 000 000 000:  GT True Vertical Depth
#Other Information
#
#WARRANTY: Halliburton will use its best efforts to furnish customers with 
#accurate information and interpretations that are part of, and incident to, the services 
#provided.  However, Halliburton cannot and does not warrant the accuracy 
#or correctness of such information and interpretations.  Under no circumstances should any 
#such information or interpretation be relied upon as the sole basis for any drilling, 
#completion, production, or financial decision or any procedure involving any risk to the 
#safety of any drilling venture, drilling rig or its crew or any other third party.  The 
#Customer has full responsibility for all drilling, completion and production operation.  
#Halliburton makes no representations or warranties, either expressed or 
#implied, including, but not limited to, the implied warranties of merchantability or fitness 
#for a particular purpose, with respect to the services rendered.  In no event will 
#Halliburton be liable for failure to obtain any particular results or for 
#any damages, including, but not limited to, indirect, special or consequential damages, 
#resulting from the use of any information or interpretation provided by Halliburton.
#
~A           TIME           GTDEPTH  GTPQH  GTTQ  GTTN  GTET   GTTVD  
# ...
   15:05:53.344.03-May-2020 4553.48 4124.40 81.46 2.00 252.92 2472.52
   15:05:53.544.03-May-2020 4553.48 4124.40 81.46 2.00 253.12 2472.52
   15:05:53.744.03-May-2020 4553.48 4124.33 81.45 2.00 253.32 2472.52
   15:05:53.944.03-May-2020 4553.48 4124.32 81.45 2.00 253.52 2472.52
   15:05:54.144.03-May-2020 4553.48 4124.44 81.45 2.00 253.72 2472.52
   15:05:54.344.03-May-2020 4553.48 4124.24 81.45 2.00 253.92 2472.52
   15:05:54.544.03-May-2020 4553.48 4124.24 81.45 2.00 254.12 2472.52
   15:05:54.744.03-May-2020 4553.48 4124.34 81.45 2.00 254.32 2472.52
   15:05:54.944.03-May-2020 4553.48 4124.30 81.45 2.00 254.52 2472.52
   15:05:55.144.03-May-2020 4553.48 4124.33 81.45 2.00 254.72 2472.52
   15:05:55.343.03-May-2020 4553.48 4124.29 81.45 2.00 254.92 2472.52
   15:05:55.543.03-May-2020 4553.48 4124.29 81.45 2.00 255.12 2472.52
   15:05:55.743.03-May-2020 4553.48 4124.42 81.45 2.00 255.32 2472.52
   15:05:55.943.03-May-2020 4553.48 4124.52 81.44 2.00 255.52 2472.52
   15:05:56.143.03-May-2020 4553.48 4124.21 81.44 2.00 255.72 2472.52
   15:05:56.343.03-May-2020 4553.48 4124.52 81.44 2.00 255.92 2472.52
   15:05:56.543.03-May-2020 4553.48 4124.52 81.44 2.00 256.12 2472.52
   15:05:56.743.03-May-2020 4553.48 4124.33 81.44 2.00 256.32 2472.52
   15:05:56.943.03-May-2020 4553.48 4124.35 81.44 2.00 256.52 2472.52
   15:05:57.143.03-May-2020 4553.48 4124.27 81.44 2.00 256.72 2472.52
   15:05:57.343.03-May-2020 4553.48 4124.27 81.44 2.00 256.92 2472.52
   15:05:57.543.03-May-2020 4553.48 4124.27 81.44 2.00 257.12 2472.52
   15:05:57.743.03-May-2020 4553.48 4124.20 81.44 2.00 257.32 2472.52
   15:05:57.943.03-May-2020 4553.48 4124.21 81.44 2.00 257.52 2472.52
   15:05:58.143.03-May-2020 4553.48 4029.92 81.43 2.00 257.72 2472.52
   15:05:58.342.03-May-2020 4553.48 3819.65 81.43 2.00 257.92 2472.52
   15:05:58.542.03-May-2020 4553.48 3819.65 81.43 2.00 258.12 2472.52
   15:05:58.742.03-May-2020 4553.48 3651.87 81.43 2.00 258.32 2472.52
   15:05:58.942.03-May-2020 4553.48 3616.29 81.43 2.00 258.52 2472.52
   15:05:59.142.03-May-2020 4553.48 3589.46 81.43 2.00 258.72 2472.52
   15:05:59.342.03-May-2020 4553.48 3568.82 81.43 2.00 258.92 2472.52
   15:05:59.542.03-May-2020 4553.48 3568.82 81.43 2.00 259.12 2472.52
   15:05:59.742.03-May-2020 4553.48 3550.00 81.43 2.00 259.32 2472.52
   15:05:59.942.03-May-2020 4553.48 3543.64 81.43 2.00 259.52 2472.52
   15:06:00.142.03-May-2020 4553.48 3530.60 81.42 2.00 259.72 2472.52
   15:06:00.342.03-May-2020 4553.48 3528.00 81.42 2.00 259.92 2472.52
   15:06:00.542.03-May-2020 4553.48 3528.00 81.42 2.00 260.12 2472.52
   15:06:00.742.03-May-2020 4553.48 3518.40 81.42 2.00 260.32 2472.52
   15:06:00.942.03-May-2020 4553.48 3517.35 81.42 2.00 260.52 2472.52
   15:06:01.142.03-May-2020 4553.48 3517.06 81.42 2.00 260.72 2472.52
   15:06:01.342.03-May-2020 4553.48 3511.73 81.42 2.00 260.92 2472.52
   15:06:01.541.03-May-2020 4553.48 3511.73 81.42 2.00 261.12 2472.52
   15:06:01.741.03-May-2020 4553.48 3503.59 81.41 2.00 261.31 2472.52
   15:06:01.941.03-May-2020 4553.48 3501.10 81.41 2.00 261.51 2472.52
   15:06:02.141.03-May-2020 4553.48 3499.33 81.41 2.00 261.71 2472.52
   15:06:02.341.03-May-2020 4553.48 3496.87 81.41 2.00 261.91 2472.52
   15:06:02.541.03-May-2020 4553.48 3496.87 81.41 2.00 262.11 2472.52
   15:06:02.741.03-May-2020 4553.48 3491.40 81.41 2.00 262.31 2472.52
   15:06:02.941.03-May-2020 4553.48 3490.78 81.41 2.00 262.51 2472.52
   15:06:03.141.03-May-2020 4553.48 3489.13 81.40 2.00 262.71 2472.52
   15:06:03.341.03-May-2020 4553.48 3489.04 81.40 2.00 262.91 2472.52
   15:06:03.541.03-May-2020 4553.48 3489.04 81.40 2.00 263.11 2472.52
   15:06:03.741.03-May-2020 4553.48 3489.85 81.40 2.00 263.31 2472.52
   15:06:03.941.03-May-2020 4553.48 3491.08 81.40 2.00 263.51 2472.52
   15:06:04.141.03-May-2020 4553.48 3488.82 81.40 2.00 263.71 2472.52
   15:06:04.341.03-May-2020 4553.48 3485.18 81.40 2.00 263.91 2472.52
   15:06:04.540.03-May-2020 4553.48 3485.18 81.40 2.00 264.11 2472.52
   15:06:04.740.03-May-2020 4553.48 3483.32 81.39 2.00 264.31 2472.52
   15:06:04.940.03-May-2020 4553.48 3481.92 81.39 2.00 264.51 2472.52
   15:06:05.140.03-May-2020 4553.48 3482.99 81.39 2.00 264.71 2472.52
   15:06:05.340.03-May-2020 4553.48 3484.17 81.39 2.00 264.91 2472.52
   15:06:05.540.03-May-2020 4553.48 3484.17 81.39 2.00 265.11 2472.52
   15:06:05.740.03-May-2020 4553.48 3481.63 81.39 2.00 265.31 2472.52
   15:06:05.940.03-May-2020 4553.48 3482.23 81.39 2.00 265.51 2472.52
   15:06:06.140.03-May-2020 4553.48 3480.13 81.39 2.00 265.71 2472.52
   15:06:06.340.03-May-2020 4553.48 3481.87 81.38 2.00 265.91 2472.52
   15:06:06.540.03-May-2020 4553.48 3481.87 81.38 2.00 266.11 2472.52
   15:06:06.740.03-May-2020 4553.48 3711.94 81.38 2.00 266.31 2472.52
   15:06:06.940.03-May-2020 4553.48 3892.12 81.38 2.00 266.51 2472.52
   15:06:07.140.03-May-2020 4553.48 3988.85 81.38 2.00 266.71 2472.52
   15:06:07.340.03-May-2020 4553.48 4046.52 81.38 2.00 266.91 2472.52
   15:06:07.539.03-May-2020 4553.48 4046.52 81.38 2.00 267.11 2472.52
   15:06:07.739.03-May-2020 4553.48 4093.00 81.38 2.00 267.31 2472.52
   15:06:07.939.03-May-2020 4553.48 4102.47 81.38 2.00 267.51 2472.52
   15:06:08.139.03-May-2020 4553.48 4109.80 81.37 2.00 267.71 2472.52
   15:06:08.339.03-May-2020 4553.48 4113.66 81.37 2.00 267.91 2472.52
   15:06:08.539.03-May-2020 4553.48 4116.34 81.37 2.00 268.11 2472.52
   15:06:08.739.03-May-2020 4553.48 4118.40 81.37 2.00 268.31 2472.52
   15:06:08.939.03-May-2020 4553.48 4119.25 81.37 2.00 268.51 2472.52
   15:06:09.139.03-May-2020 4553.48 4120.31 81.37 2.00 268.71 2472.52
   15:06:09.339.03-May-2020 4553.48 4120.58 81.37 2.00 268.91 2472.52
   15:06:09.539.03-May-2020 4553.48 4120.58 81.37 2.00 269.11 2472.52
   15:06:09.739.03-May-2020 4553.48 4121.16 81.37 2.00 269.31 2472.52
   15:06:09.939.03-May-2020 4553.48 4121.26 81.37 2.00 269.51 2472.52
   15:06:10.139.03-May-2020 4553.48 4121.37 81.37 2.00 269.71 2472.52
   15:06:10.339.03-May-2020 4553.48 4121.59 81.37 2.00 269.91 2472.52
   15:06:10.539.03-May-2020 4553.48 4121.59 81.37 2.00 270.11 2472.52
   15:06:10.738.03-May-2020 4553.48 4121.91 81.37 2.00 270.31 2472.52
   15:06:10.938.03-May-2020 4553.48 4122.01 81.37 2.00 270.51 2472.52
   15:06:11.138.03-May-2020 4553.48 4121.99 81.37 2.00 270.71 2472.52
   15:06:11.338.03-May-2020 4553.48 4122.86 81.37 2.00 270.91 2472.52
   15:06:11.538.03-May-2020 4553.48 4122.86 81.37 2.00 271.11 2472.52
   15:06:11.738.03-May-2020 4553.48 4122.69 81.37 2.00 271.31 2472.52
   15:06:11.938.03-May-2020 4553.48 4122.59 81.36 2.00 271.51 2472.52
   15:06:12.138.03-May-2020 4553.48 4122.99 81.36 2.00 271.71 2472.52
   15:06:12.338.03-May-2020 4553.48 4122.71 81.36 2.00 271.91 2472.52
   15:06:12.538.03-May-2020 4553.48 4122.88 81.36 2.00 272.11 2472.52
   15:06:12.738.03-May-2020 4553.48 4122.91 81.36 2.00 272.31 2472.52
   15:06:12.938.03-May-2020 4553.48 4122.93 81.36 2.00 272.51 2472.52
   15:06:13.138.03-May-2020 4553.48 4122.94 81.36 2.00 272.71 2472.52
   15:06:13.338.03-May-2020 4553.48 4122.90 81.36 2.00 272.91 2472.52
   15:06:13.538.03-May-2020 4553.48 4122.96 81.36 2.00 273.11 2472.52
   15:06:13.737.03-May-2020 4553.48 4123.08 81.36 2.00 273.31 2472.52
   15:06:13.937.03-May-2020 4553.48 4123.44 81.36 2.00 273.51 2472.52
   15:06:14.137.03-May-2020 4553.48 4123.63 81.36 2.00 273.71 2472.52
   15:06:14.337.03-May-2020 4553.48 4123.49 81.36 2.00 273.91 2472.52
   15:06:14.537.03-May-2020 4553.48 4123.49 81.36 2.00 274.11 2472.52
   15:06:14.737.03-May-2020 4553.48 4123.29 81.36 2.00 274.31 2472.52
   15:06:14.937.03-May-2020 4553.48 4123.56 81.36 2.00 274.51 2472.52
   15:06:15.137.03-May-2020 4553.48 4123.46 81.36 2.00 274.71 2472.52
   15:06:15.337.03-May-2020 4553.48 4123.76 81.35 2.00 274.91 2472.52
   15:06:15.537.03-May-2020 4553.48 4123.76 81.35 2.00 275.11 2472.52
   15:06:15.737.03-May-2020 4553.48 4123.84 81.35 2.00 275.31 2472.52
   15:06:15.937.03-May-2020 4553.48 4123.95 81.35 2.00 275.51 2472.52
   15:06:16.137.03-May-2020 4553.48 4123.43 81.35 2.00 275.71 2472.52
