~Version Information
 VERS.                  2.0:   CWLS log ASCII Standard -VERSION 2.0
 WRAP.                   NO:   One line per depth step
~Well Information Block
#MNEM.UNIT     VALUE/NAME     DESCRIPTION
#---------     -----------    ---------------------------
 STRT.S             10:50:58 04-May-20: START TIME 10:50:58 04-May-20
 STOP.S             10:57:32 04-May-20: STOP TIME  10:57:32 04-May-20
 STEP.S                   0.00: STEP TIME
 NULL.                 -999.25: NULL VALUE
 DFWT.                        :  DIST FWL TEXT
 DFST.                        :  DIST FSL TEXT
 DMF .             Drill Floor:  DRILL MEAS FROM
 STIM.      03.00.00 25-Mar-20:  START TIME
 DATE.      00.00.00 19-May-20:  END TIME
 SPUD.               27-Aug-20:  SPUD DATE
 NREF.                    Grid:  NORTH REFERENCE
 HPTY.       Minimum Curvature:  HOLE POS TYPE
 DMOD.             Drill Model:  DRILL MOD DESC
 SVYD.                  Survey:  SURVEY DESC
 ILTD.               Lithology:  INTERP LTH DESC
 FTOP.          Formation Tops:  FORM TOPS DESC
 SON .        AZ-XX-0906252240:  JOB NUMBER
 RIG .             West Chirag:  RIG NAME
 PDAT.          Mean Sea Level:  PERMANENT DATUM
 FLD .                     ACG:  FIELD NAME
 CTRY.              Azerbaijan:  COUNTRY NAME
 WELL.                     J23:  WELL NAME
 SRVC.          Turan Drilling:  CONTRACTOR
 COMP.     BP Exploration (Caspian Sea) Ltd.:  COMPANY
 WTYP.                Deviated:  WELL TYPE
 MDS .        Operator Entered:  MAG DATA SOURCE
 UWI .                     N/A:  UNIQUE WELL IDENTIFIER
 API .                     N/A:  API NUMBER
 BASE.              Azerbaijan:  LOGGING EQUIPMENT BASE LOCATION
 REGN.                   EESSA:  REGION
 PROV.                    Baku:  PROVINCE
 STAT.                    Baku:  STATE NAME
 MWDS.                     N/A:  MWD SHOP
 JOBN.        AZ-XX-0906252240:  JOB TICKET NUMB
 DOE .                     N/A:  DOE NUMBER
 DCON.         Sperry Drilling:  DIRECTNL CONTR
 UNIT.                     N/A:  LOGGING EQUIPMENT ID
 CNTY.                        :  COUNTY
 LOC .                        :  LOCATION
 LMF .             Drill Floor:  LOG MEASURED FROM
 TVDS.m                  43.00:  TVDSS CORRECTN
 LATI.deg                40.13:  LATITUDE
 LONG.deg                51.22:  LONGITUDE
 WHNS.m                   9.43:  WELL HEAD N/S
 WHEW.m                  -8.91:  WELL HEAD E/W
 UTMX.m              519005.06:  UTM X
 UTMY.m             4443793.85:  UTM Y
 DFWL.m                   0.00:  DISTANCE FWL
 DFSL.m                   0.00:  DISTANCE FSL
 SDEP.m                 363.00:  START DEPTH
 TDD .m                5150.01:  TOTAL DEPTH (DRILLER)
 VSDR.deg               179.88:  VERT SEC DIRECT
 GVFD.g                   1.00:  GRAVITY FIELD
 MFLD.nT              50295.00:  MAGNETIC FIELD
 MDIP.deg                59.56:  MAGNETIC DIP
 MDEC.deg                 6.45:  MAGNETIC DECL
 GRDC.deg                 0.14:  GRID CORRECTION
 AZTC.deg                 6.31:  AZM TOTAL CORR
 EPD .m                   0.00:  ELEVATION
 EGL .m                   0.00:  GROUND ELEVATION
 WDMS.m                 169.80:  WD ELEV
 APD .m                  43.00:  DEPTH ABOVE PD
 DEP .m                 354.17:  DEPTH
 AGAP.m                  43.00:  AIR GAP
 VSEW.m                  -8.91:  VERT SEC E/W
 VSNS.m                   9.43:  VERT SEC N/S
 EKB .m                   0.00:  KB ELEVATION
 EDF .m                  43.00:  DF ELEVATION
 TDL .m                1351.00:  TOTAL DEPTH (LOGGER)
 VSC .                       0:  VS TO CLOSURE
 MAGU.                 1850802:  MAGUTM CHECKSUM
~Parameter Information Block
#MNEM.UNIT       Value        Description
#---------     -----------    ---------------------------
 AV  .mps                 1.00:  Ann Velocity 
 AVMX.mps                 2.40:  Max Ann Veloc 
 AZIF.deg               148.96:  Azm, Final 
 BHAT.        Rotary Steerable:  BHA Type 
 BROT.°/30m               0.04:  Build Rotating 
 BS  .in                 12.25:  Bit Size 
 BSZ .in                 12.25:  Bit Size 
 BTPL.psig              814.00:  Bit Press Loss 
 TCS .hr                106.00:  Time Ciculation Ended 
 CV  .mps                 2.47:  Crit Velocity 
 CVMX.mps                 2.64:  Max Crit Veloc 
 DD1 .          Rashad Habibov:  Direct Drillr 1 
 DD2 .         Rasim Ibrahimov:  Direct Drillr 2 
 DDSV.                 iCruise:  DD Service 
 DEFF.%                 100.00:  % Det Eff 
 DLRX.°/30m               0.70:  Dogleg Rot Max 
 DLSO.°/30m               3.00:  Dogleg Oriented 
 DLSX.°/30m               4.55:  Dogleg Str Max 
 DRET.      08.08.32 02-May-20:  Drill End Time 
 DRST.      08.08.32 28-Apr-20:  Drill Start Tim 
 DTIM.hr                 60.00:  Time Drilling 
 EDEP.m                4761.01:  End Depth 
 ENG1.           Eldar Hajiyev:  Engineer 1 
 ENG2.        Marcelo Sandoval:  Engineer 2 
 ETIM.      23.23.07 05-May-20:  End Time 
 FLOI.gpm              1200.00:  Flow In 
 FLON.gpm               900.00:  Flow In Min 
 FLOS.cptm                0.00:  Fluid Loss 
 FLOX.gpm              1200.00:  Flow In Max 
 HFLO.                      No:  High Flow 
 HPRE.                      No:  High Pressure 
 HTEM.                      No:  High Temp 
 HYDO.m                   1.80:  Hydro Offset 
 IFIN.deg                68.17:  Inc, Final 
 IMAX.deg                74.61:  Inc Max 
 IMIN.deg                68.15:  Inc Min 
 IMND.m                4317.87:  Inc Min Depth 
 IMXD.m                4714.01:  Inc Max Depth 
 LETM.      08.08.32 02-May-20:  Log End Time 
 LOST.hr                     2:  Lost Rig Time 
 LSTM.      08.08.32 28-Apr-20:  Log Start Time 
 MDCL.ppm             41000.00:  Mud Chlorides 
 MDES.     Inversion Oil/Synthetic:  Mud Desc 
 DFD .sg                  1.58:  Mud Density 
 MDMN.sg                  1.58:  Dens Mud Min 
 MDMX.sg                  1.58:  Dens Mud Max 
 MOIL.                      71:  Run Mud Oil % 
 MOWR.                   71:29:  Run Mud OWR 
 MSND.                     0.1:  Run Mud Sand % 
 MSOL.                      23:  Run Mud Solids% 
 DFV .spqt               82.00:  Mud Viscosity 
 MWOD.in                  8.00:  MWD Tool OD 
 MWSI.                     Yes:  Serv Intrp, MWD 
 OTIM.hr                125.00:  Time Operating 
 PMAX.psia             6129.00:  Press Op, Max 
 PV  .cP                 32.00:  Mud PV 
 RUN .                     800:  Run Number 
 ROPA.m/hr               30.00:  ROP Avg 
 ROPN.m/hr               10.00:  ROP Min 
 ROPX.m/hr               40.00:  ROP Max 
 RPMA.rpm               140.00:  RPM Surface Avg 
 RPMN.rpm                80.00:  RPM Surface Min 
 RPMX.rpm               140.00:  RPM Surface Max 
 RRUN.                    L503:  Rig Run Number 
 RTIM.hr                  2.00:  Time Reaming 
 SAZI.deg               184.23:  Azm, Start 
 SDEP.m                3410.01:  Start Depth 
 SIDD.                      No:  Serv Intrp, DD 
 SINC.deg                68.29:  Inc, Start 
 SPPA.psig             6000.00:  SPP Avg 
 SPPN.psig             4000.00:  SPP Min 
 SPPX.psig             6100.00:  SPP Max 
 STIM.      08.08.32 28-Apr-20:  Start Time 
 SVCS.                 DD, MWD:  Services 
 SVER.                    9.20:  Sperry Version 
 TDAT.m                1351.00:  Tot Depth Attmp 
 TDDF.                      No:  Trip for DD 
 TDLG.m                1351.00:  Tot Depth Loggd 
 TFF .                      No:  Trip for Fail 
 TQAA.f-kp               27.00:  Torque Abs Avg 
 TQAN.f-kp               20.00:  Torque Abs Min 
 TQAX.f-kp               30.00:  Torque Abs Max 
 TRRT.°/30m               0.60:  Turn Rotating 
 MRT .                    EWER:  Maximum Recorded Temperature 
 TTMX.degC               83.00:  Max Tool Temp 
 VS01.                90511138:  Virtual Str1 SN 
 VS02.                90524876:  Virtual Str2 SN 
 VS03.                90524872:  Virtual Str3 SN 
 VS04.                90502750:  Virtual Str4 SN 
 VS05.                12330984:  Virtual Str5 SN 
 WBMN.klb                 0.00:  WOB Min 
 WOBA.klb                15.00:  WOB Avg 
 WOBX.klb                20.00:  WOB Max 
 YP  .lhf2               31.00:  Yield Point 
~Curve Information Block
#MNEM.UNIT                 API CODE     Curve Description
#---------               -----------    ---------------------------
 TIME.HHMMSS            00 000 000 000:  GT Time & Date
 GTDEPTH.m              00 000 000 000:  GT Depth
 GTPQH.psia             00 000 000 000:  GT HR Quartz Pressure
 GTTQ.degC              00 000 000 000:  GT Quartz Temperature
 GTTN.NONE              00 000 000 000:  GT Test Number
 GTET.sec               00 000 000 000:  GT Elapsed Test Time
 GTTVD.m                00 000 000 000:  GT True Vertical Depth
#Other Information
#
#WARRANTY: Halliburton will use its best efforts to furnish customers with 
#accurate information and interpretations that are part of, and incident to, the services 
#provided.  However, Halliburton cannot and does not warrant the accuracy 
#or correctness of such information and interpretations.  Under no circumstances should any 
#such information or interpretation be relied upon as the sole basis for any drilling, 
#completion, production, or financial decision or any procedure involving any risk to the 
#safety of any drilling venture, drilling rig or its crew or any other third party.  The 
#Customer has full responsibility for all drilling, completion and production operation.  
#Halliburton makes no representations or warranties, either expressed or 
#implied, including, but not limited to, the implied warranties of merchantability or fitness 
#for a particular purpose, with respect to the services rendered.  In no event will 
#Halliburton be liable for failure to obtain any particular results or for 
#any damages, including, but not limited to, indirect, special or consequential damages, 
#resulting from the use of any information or interpretation provided by Halliburton.
#
~A           TIME           GTDEPTH  GTPQH  GTTQ  GTTN  GTET   GTTVD  
# ...
   10:52:30.261.04-May-2020 4718.46 4251.52 82.01 6.00  92.01 2519.85
   10:52:30.461.04-May-2020 4718.46 4251.90 82.01 6.00  92.21 2519.85
   10:52:30.661.04-May-2020 4718.46 4251.99 82.01 6.00  92.41 2519.85
   10:52:30.861.04-May-2020 4718.46 4251.60 82.01 6.00  92.61 2519.85
   10:52:31.062.04-May-2020 4718.46 4252.13 82.01 6.00  92.81 2519.85
   10:52:31.262.04-May-2020 4718.46 4252.03 82.01 6.00  93.01 2519.85
   10:52:31.462.04-May-2020 4718.46 4252.03 82.01 6.00  93.21 2519.85
   10:52:31.662.04-May-2020 4718.46 4252.32 82.01 6.00  93.41 2519.85
   10:52:31.862.04-May-2020 4718.46 4252.22 82.01 6.00  93.61 2519.85
   10:52:32.062.04-May-2020 4718.46 4252.53 82.01 6.00  93.81 2519.85
   10:52:32.262.04-May-2020 4718.46 4252.63 82.00 6.00  94.01 2519.85
   10:52:32.462.04-May-2020 4718.46 4252.63 82.00 6.00  94.21 2519.85
   10:52:32.662.04-May-2020 4718.46 4252.67 82.00 6.00  94.41 2519.85
   10:52:32.862.04-May-2020 4718.46 4252.85 82.00 6.00  94.61 2519.85
   10:52:33.062.04-May-2020 4718.46 4252.89 82.00 6.00  94.81 2519.85
   10:52:33.262.04-May-2020 4718.46 4253.42 82.00 6.00  95.01 2519.85
   10:52:33.462.04-May-2020 4718.46 4253.42 82.00 6.00  95.21 2519.85
   10:52:33.662.04-May-2020 4718.46 4253.00 82.00 6.00  95.41 2519.85
   10:52:33.862.04-May-2020 4718.46 4253.34 82.00 6.00  95.61 2519.85
   10:52:34.062.04-May-2020 4718.46 4252.72 82.00 6.00  95.81 2519.85
   10:52:34.262.04-May-2020 4718.46 4252.87 82.00 6.00  96.01 2519.85
   10:52:34.462.04-May-2020 4718.46 4252.87 82.00 6.00  96.21 2519.85
   10:52:34.662.04-May-2020 4718.46 4252.91 82.00 6.00  96.41 2519.85
   10:52:34.862.04-May-2020 4718.46 4252.95 82.00 6.00  96.61 2519.85
   10:52:35.062.04-May-2020 4718.46 4252.79 81.99 6.00  96.81 2519.85
   10:52:35.262.04-May-2020 4718.46 4252.73 81.99 6.00  97.02 2519.85
   10:52:35.462.04-May-2020 4718.46 4252.73 81.99 6.00  97.22 2519.85
   10:52:35.662.04-May-2020 4718.46 4252.53 81.99 6.00  97.42 2519.85
   10:52:35.862.04-May-2020 4718.46 4253.08 81.99 6.00  97.62 2519.85
   10:52:36.062.04-May-2020 4718.46 4252.70 81.99 6.00  97.82 2519.85
   10:52:36.262.04-May-2020 4718.46 4253.12 81.99 6.00  98.02 2519.85
   10:52:36.462.04-May-2020 4718.46 4253.12 81.99 6.00  98.22 2519.85
   10:52:36.662.04-May-2020 4718.46 4252.86 81.99 6.00  98.42 2519.85
   10:52:36.862.04-May-2020 4718.46 4252.78 81.99 6.00  98.62 2519.85
   10:52:37.062.04-May-2020 4718.46 4252.92 81.99 6.00  98.82 2519.85
   10:52:37.262.04-May-2020 4718.46 4253.00 81.99 6.00  99.02 2519.85
   10:52:37.463.04-May-2020 4718.46 4252.87 81.99 6.00  99.22 2519.85
   10:52:37.663.04-May-2020 4718.46 4252.29 81.99 6.00  99.42 2519.85
   10:52:37.863.04-May-2020 4718.46 4252.36 81.98 6.00  99.62 2519.85
   10:52:38.063.04-May-2020 4718.46 4252.60 81.98 6.00  99.82 2519.85
   10:52:38.263.04-May-2020 4718.46 4251.97 81.98 6.00 100.02 2519.85
   10:52:38.463.04-May-2020 4718.46 4251.97 81.98 6.00 100.22 2519.85
   10:52:38.663.04-May-2020 4718.46 4252.12 81.98 6.00 100.42 2519.85
   10:52:38.863.04-May-2020 4718.46 4252.40 81.98 6.00 100.62 2519.85
   10:52:39.063.04-May-2020 4718.46 4252.42 81.98 6.00 100.82 2519.85
   10:52:39.263.04-May-2020 4718.46 4252.36 81.98 6.00 101.02 2519.85
   10:52:39.463.04-May-2020 4718.46 4252.36 81.98 6.00 101.22 2519.85
   10:52:39.663.04-May-2020 4718.46 4252.39 81.98 6.00 101.42 2519.85
   10:52:39.863.04-May-2020 4718.46 4252.55 81.98 6.00 101.62 2519.85
   10:52:40.063.04-May-2020 4718.46 4252.54 81.98 6.00 101.82 2519.85
   10:52:40.263.04-May-2020 4718.46 4252.76 81.98 6.00 102.02 2519.85
   10:52:40.463.04-May-2020 4718.46 4252.76 81.98 6.00 102.22 2519.85
   10:52:40.663.04-May-2020 4718.46 4252.72 81.98 6.00 102.42 2519.85
   10:52:40.863.04-May-2020 4718.46 4252.86 81.97 6.00 102.62 2519.85
   10:52:41.063.04-May-2020 4718.46 4253.92 81.97 6.00 102.82 2519.85
   10:52:41.263.04-May-2020 4718.46 4252.88 81.97 6.00 103.02 2519.85
   10:52:41.463.04-May-2020 4718.46 4252.88 81.97 6.00 103.22 2519.85
   10:52:41.663.04-May-2020 4718.46 4253.15 81.97 6.00 103.42 2519.85
   10:52:41.863.04-May-2020 4718.46 4253.03 81.97 6.00 103.62 2519.85
   10:52:42.063.04-May-2020 4718.46 4253.27 81.97 6.00 103.82 2519.85
   10:52:42.263.04-May-2020 4718.46 4253.00 81.97 6.00 104.02 2519.85
   10:52:42.463.04-May-2020 4718.46 4253.00 81.97 6.00 104.22 2519.85
   10:52:42.663.04-May-2020 4718.46 4252.87 81.97 6.00 104.42 2519.85
   10:52:42.863.04-May-2020 4718.46 4253.00 81.97 6.00 104.62 2519.85
   10:52:43.063.04-May-2020 4718.46 4253.05 81.97 6.00 104.82 2519.85
   10:52:43.263.04-May-2020 4718.46 4252.86 81.97 6.00 105.02 2519.85
   10:52:43.463.04-May-2020 4718.46 4252.86 81.97 6.00 105.22 2519.85
   10:52:43.663.04-May-2020 4718.46 4253.45 81.96 6.00 105.42 2519.85
   10:52:43.863.04-May-2020 4718.46 4252.18 81.96 6.00 105.62 2519.85
   10:52:44.064.04-May-2020 4718.46 4252.59 81.96 6.00 105.82 2519.85
   10:52:44.264.04-May-2020 4718.46 4252.75 81.96 6.00 106.02 2519.85
   10:52:44.464.04-May-2020 4718.46 4252.75 81.96 6.00 106.22 2519.85
   10:52:44.664.04-May-2020 4718.46 4252.91 81.96 6.00 106.42 2519.85
   10:52:44.864.04-May-2020 4718.46 4252.85 81.96 6.00 106.62 2519.85
   10:52:45.064.04-May-2020 4718.46 4253.54 81.96 6.00 106.82 2519.85
   10:52:45.264.04-May-2020 4718.46 4253.11 81.96 6.00 107.02 2519.85
   10:52:45.464.04-May-2020 4718.46 4253.11 81.96 6.00 107.22 2519.85
   10:52:45.664.04-May-2020 4718.46 4252.98 81.96 6.00 107.42 2519.85
   10:52:45.864.04-May-2020 4718.46 4253.70 81.96 6.00 107.62 2519.85
   10:52:46.064.04-May-2020 4718.46 4252.14 81.96 6.00 107.82 2519.85
   10:52:46.264.04-May-2020 4718.46 4252.51 81.96 6.00 108.02 2519.85
   10:52:46.464.04-May-2020 4718.46 4252.51 81.96 6.00 108.22 2519.85
   10:52:46.664.04-May-2020 4718.46 4252.72 81.95 6.00 108.42 2519.85
   10:52:46.864.04-May-2020 4718.46 4252.52 81.95 6.00 108.62 2519.85
   10:52:47.064.04-May-2020 4718.46 4252.57 81.95 6.00 108.82 2519.85
   10:52:47.264.04-May-2020 4718.46 4252.83 81.95 6.00 109.02 2519.85
   10:52:47.464.04-May-2020 4718.46 4252.83 81.95 6.00 109.22 2519.85
   10:52:47.664.04-May-2020 4718.46 4252.69 81.95 6.00 109.42 2519.85
   10:52:47.864.04-May-2020 4718.46 4252.57 81.95 6.00 109.62 2519.85
   10:52:48.064.04-May-2020 4718.46 4252.63 81.95 6.00 109.82 2519.85
   10:52:48.264.04-May-2020 4718.46 4252.73 81.95 6.00 110.02 2519.85
   10:52:48.464.04-May-2020 4718.46 4252.73 81.95 6.00 110.22 2519.85
   10:52:48.664.04-May-2020 4718.46 4252.81 81.95 6.00 110.42 2519.85
   10:52:48.864.04-May-2020 4718.46 4252.85 81.95 6.00 110.62 2519.85
   10:52:49.064.04-May-2020 4718.46 4252.83 81.95 6.00 110.82 2519.85
   10:52:49.264.04-May-2020 4718.46 4253.85 81.95 6.00 111.02 2519.85
   10:52:49.464.04-May-2020 4718.46 4253.85 81.95 6.00 111.22 2519.85
   10:52:49.664.04-May-2020 4718.46 4253.00 81.94 6.00 111.42 2519.85
   10:52:49.864.04-May-2020 4718.46 4253.22 81.94 6.00 111.62 2519.85
   10:52:50.064.04-May-2020 4718.46 4253.14 81.94 6.00 111.82 2519.85
   10:52:50.264.04-May-2020 4718.46 4253.17 81.94 6.00 112.02 2519.85
   10:52:50.465.04-May-2020 4718.46 4253.17 81.94 6.00 112.22 2519.85
   10:52:50.665.04-May-2020 4718.46 4253.00 81.94 6.00 112.42 2519.85
   10:52:50.865.04-May-2020 4718.46 4252.99 81.94 6.00 112.62 2519.85
   10:52:51.065.04-May-2020 4718.46 4253.00 81.94 6.00 112.82 2519.85
   10:52:51.265.04-May-2020 4718.46 4252.99 81.94 6.00 113.02 2519.85
   10:52:51.465.04-May-2020 4718.46 4252.99 81.94 6.00 113.22 2519.85
   10:52:51.665.04-May-2020 4718.46 4252.62 81.94 6.00 113.42 2519.85
   10:52:51.865.04-May-2020 4718.46 4253.24 81.94 6.00 113.62 2519.85
   10:52:52.065.04-May-2020 4718.46 4252.59 81.94 6.00 113.82 2519.85
   10:52:52.265.04-May-2020 4718.46 4253.32 81.93 6.00 114.02 2519.85
   10:52:52.465.04-May-2020 4718.46 4253.32 81.93 6.00 114.22 2519.85
   10:52:52.665.04-May-2020 4718.46 4253.02 81.93 6.00 114.42 2519.85
   10:52:52.865.04-May-2020 4718.46 4252.96 81.93 6.00 114.62 2519.85
   10:52:53.065.04-May-2020 4718.46 4252.98 81.93 6.00 114.82 2519.85
