~Version Information
 VERS.                  2.0:   CWLS log ASCII Standard -VERSION 2.0
 WRAP.                   NO:   One line per depth step
~Well Information Block
#MNEM.UNIT     VALUE/NAME     DESCRIPTION
#---------     -----------    ---------------------------
 STRT.S             13:13:41 03-May-20: START TIME 13:13:41 03-May-20
 STOP.S             13:20:16 03-May-20: STOP TIME  13:20:16 03-May-20
 STEP.S                   0.00: STEP TIME
 NULL.                 -999.25: NULL VALUE
 DFWT.                        :  DIST FWL TEXT
 DFST.                        :  DIST FSL TEXT
 DMF .             Drill Floor:  DRILL MEAS FROM
 STIM.      03.00.00 25-Mar-20:  START TIME
 DATE.      00.00.00 19-May-20:  END TIME
 SPUD.               27-Aug-20:  SPUD DATE
 NREF.                    Grid:  NORTH REFERENCE
 HPTY.       Minimum Curvature:  HOLE POS TYPE
 DMOD.             Drill Model:  DRILL MOD DESC
 SVYD.                  Survey:  SURVEY DESC
 ILTD.               Lithology:  INTERP LTH DESC
 FTOP.          Formation Tops:  FORM TOPS DESC
 SON .        AZ-XX-0906252240:  JOB NUMBER
 RIG .             West Chirag:  RIG NAME
 PDAT.          Mean Sea Level:  PERMANENT DATUM
 FLD .                     ACG:  FIELD NAME
 CTRY.              Azerbaijan:  COUNTRY NAME
 WELL.                     J23:  WELL NAME
 SRVC.          Turan Drilling:  CONTRACTOR
 COMP.     BP Exploration (Caspian Sea) Ltd.:  COMPANY
 WTYP.                Deviated:  WELL TYPE
 MDS .        Operator Entered:  MAG DATA SOURCE
 UWI .                     N/A:  UNIQUE WELL IDENTIFIER
 API .                     N/A:  API NUMBER
 BASE.              Azerbaijan:  LOGGING EQUIPMENT BASE LOCATION
 REGN.                   EESSA:  REGION
 PROV.                    Baku:  PROVINCE
 STAT.                    Baku:  STATE NAME
 MWDS.                     N/A:  MWD SHOP
 JOBN.        AZ-XX-0906252240:  JOB TICKET NUMB
 DOE .                     N/A:  DOE NUMBER
 DCON.         Sperry Drilling:  DIRECTNL CONTR
 UNIT.                     N/A:  LOGGING EQUIPMENT ID
 CNTY.                        :  COUNTY
 LOC .                        :  LOCATION
 LMF .             Drill Floor:  LOG MEASURED FROM
 TVDS.m                  43.00:  TVDSS CORRECTN
 LATI.deg                40.13:  LATITUDE
 LONG.deg                51.22:  LONGITUDE
 WHNS.m                   9.43:  WELL HEAD N/S
 WHEW.m                  -8.91:  WELL HEAD E/W
 UTMX.m              519005.06:  UTM X
 UTMY.m             4443793.85:  UTM Y
 DFWL.m                   0.00:  DISTANCE FWL
 DFSL.m                   0.00:  DISTANCE FSL
 SDEP.m                 363.00:  START DEPTH
 TDD .m                5150.01:  TOTAL DEPTH (DRILLER)
 VSDR.deg               179.88:  VERT SEC DIRECT
 GVFD.g                   1.00:  GRAVITY FIELD
 MFLD.nT              50295.00:  MAGNETIC FIELD
 MDIP.deg                59.56:  MAGNETIC DIP
 MDEC.deg                 6.45:  MAGNETIC DECL
 GRDC.deg                 0.14:  GRID CORRECTION
 AZTC.deg                 6.31:  AZM TOTAL CORR
 EPD .m                   0.00:  ELEVATION
 EGL .m                   0.00:  GROUND ELEVATION
 WDMS.m                 169.80:  WD ELEV
 APD .m                  43.00:  DEPTH ABOVE PD
 DEP .m                 354.17:  DEPTH
 AGAP.m                  43.00:  AIR GAP
 VSEW.m                  -8.91:  VERT SEC E/W
 VSNS.m                   9.43:  VERT SEC N/S
 EKB .m                   0.00:  KB ELEVATION
 EDF .m                  43.00:  DF ELEVATION
 TDL .m                1351.00:  TOTAL DEPTH (LOGGER)
 VSC .                       0:  VS TO CLOSURE
 MAGU.                 1850802:  MAGUTM CHECKSUM
~Parameter Information Block
#MNEM.UNIT       Value        Description
#---------     -----------    ---------------------------
 AV  .mps                 1.00:  Ann Velocity 
 AVMX.mps                 2.40:  Max Ann Veloc 
 AZIF.deg               148.96:  Azm, Final 
 BHAT.        Rotary Steerable:  BHA Type 
 BROT.°/30m               0.04:  Build Rotating 
 BS  .in                 12.25:  Bit Size 
 BSZ .in                 12.25:  Bit Size 
 BTPL.psig              814.00:  Bit Press Loss 
 TCS .hr                106.00:  Time Ciculation Ended 
 CV  .mps                 2.47:  Crit Velocity 
 CVMX.mps                 2.64:  Max Crit Veloc 
 DD1 .          Rashad Habibov:  Direct Drillr 1 
 DD2 .         Rasim Ibrahimov:  Direct Drillr 2 
 DDSV.                 iCruise:  DD Service 
 DEFF.%                 100.00:  % Det Eff 
 DLRX.°/30m               0.70:  Dogleg Rot Max 
 DLSO.°/30m               3.00:  Dogleg Oriented 
 DLSX.°/30m               4.55:  Dogleg Str Max 
 DRET.      08.08.32 02-May-20:  Drill End Time 
 DRST.      08.08.32 28-Apr-20:  Drill Start Tim 
 DTIM.hr                 60.00:  Time Drilling 
 EDEP.m                4761.01:  End Depth 
 ENG1.           Eldar Hajiyev:  Engineer 1 
 ENG2.        Marcelo Sandoval:  Engineer 2 
 ETIM.      23.23.07 05-May-20:  End Time 
 FLOI.gpm              1200.00:  Flow In 
 FLON.gpm               900.00:  Flow In Min 
 FLOS.cptm                0.00:  Fluid Loss 
 FLOX.gpm              1200.00:  Flow In Max 
 HFLO.                      No:  High Flow 
 HPRE.                      No:  High Pressure 
 HTEM.                      No:  High Temp 
 HYDO.m                   1.80:  Hydro Offset 
 IFIN.deg                68.17:  Inc, Final 
 IMAX.deg                74.61:  Inc Max 
 IMIN.deg                68.15:  Inc Min 
 IMND.m                4317.87:  Inc Min Depth 
 IMXD.m                4714.01:  Inc Max Depth 
 LETM.      08.08.32 02-May-20:  Log End Time 
 LOST.hr                     2:  Lost Rig Time 
 LSTM.      08.08.32 28-Apr-20:  Log Start Time 
 MDCL.ppm             41000.00:  Mud Chlorides 
 MDES.     Inversion Oil/Synthetic:  Mud Desc 
 DFD .sg                  1.58:  Mud Density 
 MDMN.sg                  1.58:  Dens Mud Min 
 MDMX.sg                  1.58:  Dens Mud Max 
 MOIL.                      71:  Run Mud Oil % 
 MOWR.                   71:29:  Run Mud OWR 
 MSND.                     0.1:  Run Mud Sand % 
 MSOL.                      23:  Run Mud Solids% 
 DFV .spqt               82.00:  Mud Viscosity 
 MWOD.in                  8.00:  MWD Tool OD 
 MWSI.                     Yes:  Serv Intrp, MWD 
 OTIM.hr                125.00:  Time Operating 
 PMAX.psia             6129.00:  Press Op, Max 
 PV  .cP                 32.00:  Mud PV 
 RUN .                     800:  Run Number 
 ROPA.m/hr               30.00:  ROP Avg 
 ROPN.m/hr               10.00:  ROP Min 
 ROPX.m/hr               40.00:  ROP Max 
 RPMA.rpm               140.00:  RPM Surface Avg 
 RPMN.rpm                80.00:  RPM Surface Min 
 RPMX.rpm               140.00:  RPM Surface Max 
 RRUN.                    L503:  Rig Run Number 
 RTIM.hr                  2.00:  Time Reaming 
 SAZI.deg               184.23:  Azm, Start 
 SDEP.m                3410.01:  Start Depth 
 SIDD.                      No:  Serv Intrp, DD 
 SINC.deg                68.29:  Inc, Start 
 SPPA.psig             6000.00:  SPP Avg 
 SPPN.psig             4000.00:  SPP Min 
 SPPX.psig             6100.00:  SPP Max 
 STIM.      08.08.32 28-Apr-20:  Start Time 
 SVCS.                 DD, MWD:  Services 
 SVER.                    9.20:  Sperry Version 
 TDAT.m                1351.00:  Tot Depth Attmp 
 TDDF.                      No:  Trip for DD 
 TDLG.m                1351.00:  Tot Depth Loggd 
 TFF .                      No:  Trip for Fail 
 TQAA.f-kp               27.00:  Torque Abs Avg 
 TQAN.f-kp               20.00:  Torque Abs Min 
 TQAX.f-kp               30.00:  Torque Abs Max 
 TRRT.°/30m               0.60:  Turn Rotating 
 MRT .                    EWER:  Maximum Recorded Temperature 
 TTMX.degC               83.00:  Max Tool Temp 
 VS01.                90511138:  Virtual Str1 SN 
 VS02.                90524876:  Virtual Str2 SN 
 VS03.                90524872:  Virtual Str3 SN 
 VS04.                90502750:  Virtual Str4 SN 
 VS05.                12330984:  Virtual Str5 SN 
 WBMN.klb                 0.00:  WOB Min 
 WOBA.klb                15.00:  WOB Avg 
 WOBX.klb                20.00:  WOB Max 
 YP  .lhf2               31.00:  Yield Point 
~Curve Information Block
#MNEM.UNIT                 API CODE     Curve Description
#---------               -----------    ---------------------------
 TIME.HHMMSS            00 000 000 000:  GT Time & Date
 GTDEPTH.m              00 000 000 000:  GT Depth
 GTPQH.psia             00 000 000 000:  GT HR Quartz Pressure
 GTTQ.degC              00 000 000 000:  GT Quartz Temperature
 GTTN.NONE              00 000 000 000:  GT Test Number
 GTET.sec               00 000 000 000:  GT Elapsed Test Time
 GTTVD.m                00 000 000 000:  GT True Vertical Depth
#Other Information
#
#WARRANTY: Halliburton will use its best efforts to furnish customers with 
#accurate information and interpretations that are part of, and incident to, the services 
#provided.  However, Halliburton cannot and does not warrant the accuracy 
#or correctness of such information and interpretations.  Under no circumstances should any 
#such information or interpretation be relied upon as the sole basis for any drilling, 
#completion, production, or financial decision or any procedure involving any risk to the 
#safety of any drilling venture, drilling rig or its crew or any other third party.  The 
#Customer has full responsibility for all drilling, completion and production operation.  
#Halliburton makes no representations or warranties, either expressed or 
#implied, including, but not limited to, the implied warranties of merchantability or fitness 
#for a particular purpose, with respect to the services rendered.  In no event will 
#Halliburton be liable for failure to obtain any particular results or for 
#any damages, including, but not limited to, indirect, special or consequential damages, 
#resulting from the use of any information or interpretation provided by Halliburton.
#
~A           TIME           GTDEPTH  GTPQH  GTTQ  GTTN  GTET   GTTVD  
# ...
   13:19:26.954.03-May-2020 4532.80 4123.27 79.86 1.00 345.54 2465.99
   13:19:27.154.03-May-2020 4532.80 4123.27 79.86 1.00 345.74 2465.99
   13:19:27.354.03-May-2020 4532.80 4122.40 79.86 1.00 345.94 2465.99
   13:19:27.555.03-May-2020 4532.80 4122.84 79.86 1.00 346.14 2465.99
   13:19:27.755.03-May-2020 4532.80 4122.89 79.86 1.00 346.34 2465.99
   13:19:27.955.03-May-2020 4532.80 4122.79 79.86 1.00 346.54 2465.99
   13:19:28.156.03-May-2020 4532.80 4122.70 79.86 1.00 346.75 2465.99
   13:19:28.356.03-May-2020 4532.80 4122.51 79.86 1.00 346.95 2465.99
   13:19:28.556.03-May-2020 4532.80 4122.56 79.86 1.00 347.15 2465.99
   13:19:28.757.03-May-2020 4532.80 4122.67 79.86 1.00 347.35 2465.99
   13:19:28.957.03-May-2020 4532.80 4122.50 79.86 1.00 347.55 2465.99
   13:19:29.157.03-May-2020 4532.80 4122.50 79.86 1.00 347.75 2465.99
   13:19:29.358.03-May-2020 4532.80 4122.50 79.86 1.00 347.95 2465.99
   13:19:29.558.03-May-2020 4532.80 4122.54 79.86 1.00 348.15 2465.99
   13:19:29.758.03-May-2020 4532.80 4122.55 79.85 1.00 348.35 2465.99
   13:19:29.959.03-May-2020 4532.80 4122.95 79.85 1.00 348.55 2465.99
   13:19:30.159.03-May-2020 4532.80 4122.95 79.85 1.00 348.75 2465.99
   13:19:30.359.03-May-2020 4532.80 4122.86 79.85 1.00 348.95 2465.99
   13:19:30.560.03-May-2020 4532.80 4122.76 79.85 1.00 349.15 2465.99
   13:19:30.760.03-May-2020 4532.80 4122.94 79.85 1.00 349.35 2465.99
   13:19:30.960.03-May-2020 4532.80 4122.64 79.85 1.00 349.55 2465.99
   13:19:31.160.03-May-2020 4532.80 4122.64 79.85 1.00 349.75 2465.99
   13:19:31.361.03-May-2020 4532.80 4122.57 79.85 1.00 349.95 2465.99
   13:19:31.561.03-May-2020 4532.80 4122.61 79.85 1.00 350.15 2465.99
   13:19:31.761.03-May-2020 4532.80 4122.51 79.85 1.00 350.35 2465.99
   13:19:31.962.03-May-2020 4532.80 4122.49 79.85 1.00 350.55 2465.99
   13:19:32.162.03-May-2020 4532.80 4122.36 79.85 1.00 350.75 2465.99
   13:19:32.362.03-May-2020 4532.80 4122.38 79.85 1.00 350.95 2465.99
   13:19:32.563.03-May-2020 4532.80 4122.61 79.85 1.00 351.15 2465.99
   13:19:32.763.03-May-2020 4532.80 4122.75 79.85 1.00 351.35 2465.99
   13:19:32.963.03-May-2020 4532.80 4122.77 79.85 1.00 351.55 2465.99
   13:19:33.164.03-May-2020 4532.80 4122.77 79.85 1.00 351.75 2465.99
   13:19:33.364.03-May-2020 4532.80 4123.13 79.85 1.00 351.95 2465.99
   13:19:33.564.03-May-2020 4532.80 4122.79 79.84 1.00 352.15 2465.99
   13:19:33.765.03-May-2020 4532.80 4122.78 79.84 1.00 352.35 2465.99
   13:19:33.965.03-May-2020 4532.80 4123.27 79.84 1.00 352.55 2465.99
   13:19:34.165.03-May-2020 4532.80 4123.27 79.84 1.00 352.75 2465.99
   13:19:34.365.03-May-2020 4532.80 4122.76 79.84 1.00 352.95 2465.99
   13:19:34.566.03-May-2020 4532.80 4123.45 79.84 1.00 353.16 2465.99
   13:19:34.766.03-May-2020 4532.80 4123.20 79.84 1.00 353.36 2465.99
   13:19:34.966.03-May-2020 4532.80 4122.94 79.84 1.00 353.56 2465.99
   13:19:35.167.03-May-2020 4532.80 4122.94 79.84 1.00 353.76 2465.99
   13:19:35.367.03-May-2020 4532.80 4122.76 79.84 1.00 353.96 2465.99
   13:19:35.567.03-May-2020 4532.80 4122.83 79.84 1.00 354.16 2465.99
   13:19:35.768.03-May-2020 4532.80 4122.81 79.84 1.00 354.36 2465.99
   13:19:35.968.03-May-2020 4532.80 4122.62 79.84 1.00 354.56 2465.99
   13:19:36.168.03-May-2020 4532.80 4122.62 79.84 1.00 354.76 2465.99
   13:19:36.369.03-May-2020 4532.80 4122.68 79.84 1.00 354.96 2465.99
   13:19:36.569.03-May-2020 4532.80 4122.67 79.84 1.00 355.16 2465.99
   13:19:36.769.03-May-2020 4532.80 4122.48 79.84 1.00 355.36 2465.99
   13:19:36.970.03-May-2020 4532.80 4122.52 79.84 1.00 355.56 2465.99
   13:19:37.170.03-May-2020 4532.80 4122.52 79.84 1.00 355.76 2465.99
   13:19:37.370.03-May-2020 4532.80 4122.59 79.83 1.00 355.96 2465.99
   13:19:37.571.03-May-2020 4532.80 4122.59 79.83 1.00 356.16 2465.99
   13:19:37.771.03-May-2020 4532.80 4122.93 79.83 1.00 356.36 2465.99
   13:19:37.971.03-May-2020 4532.80 4123.06 79.83 1.00 356.56 2465.99
   13:19:38.171.03-May-2020 4532.80 4123.06 79.83 1.00 356.76 2465.99
   13:19:38.372.03-May-2020 4532.80 4122.81 79.83 1.00 356.96 2465.99
   13:19:38.572.03-May-2020 4532.80 4123.02 79.83 1.00 357.16 2465.99
   13:19:38.772.03-May-2020 4532.80 4122.65 79.83 1.00 357.36 2465.99
   13:19:38.973.03-May-2020 4532.80 4122.59 79.83 1.00 357.56 2465.99
   13:19:39.173.03-May-2020 4532.80 4122.59 79.83 1.00 357.76 2465.99
   13:19:39.373.03-May-2020 4532.80 4122.62 79.83 1.00 357.96 2465.99
   13:19:39.574.03-May-2020 4532.80 4122.56 79.83 1.00 358.16 2465.99
   13:19:39.774.03-May-2020 4532.80 4122.58 79.83 1.00 358.36 2465.99
   13:19:39.974.03-May-2020 4532.80 4122.40 79.83 1.00 358.56 2465.99
   13:19:40.175.03-May-2020 4532.80 4122.42 79.83 1.00 358.76 2465.99
   13:19:40.375.03-May-2020 4532.80 4122.70 79.83 1.00 358.96 2465.99
   13:19:40.575.03-May-2020 4532.80 4122.80 79.83 1.00 359.16 2465.99
   13:19:40.776.03-May-2020 4532.80 4122.76 79.83 1.00 359.37 2465.99
   13:19:40.976.03-May-2020 4532.80 4122.58 79.83 1.00 359.57 2465.99
   13:19:41.176.03-May-2020 4532.80 4122.58 79.83 1.00 359.77 2465.99
   13:19:41.377.03-May-2020 4532.80 4122.78 79.82 1.00 359.97 2465.99
   13:19:41.577.03-May-2020 4532.80 4122.79 79.82 1.00 360.17 2465.99
   13:19:41.777.03-May-2020 4532.80 4123.18 79.82 1.00 360.37 2465.99
   13:19:41.977.03-May-2020 4532.80 4123.14 79.82 1.00 360.57 2465.99
   13:19:42.178.03-May-2020 4532.80 4123.14 79.82 1.00 360.77 2465.99
   13:19:42.378.03-May-2020 4532.80 4123.32 79.82 1.00 360.97 2465.99
   13:19:42.578.03-May-2020 4532.80 4123.14 79.82 1.00 361.17 2465.99
   13:19:42.779.03-May-2020 4532.80 4122.98 79.82 1.00 361.37 2465.99
   13:19:42.979.03-May-2020 4532.80 4122.20 79.82 1.00 361.57 2465.99
   13:19:43.179.03-May-2020 4532.80 4122.20 79.82 1.00 361.77 2465.99
   13:19:43.380.03-May-2020 4532.80 4122.79 79.82 1.00 361.97 2465.99
   13:19:43.580.03-May-2020 4532.80 4122.78 79.82 1.00 362.17 2465.99
   13:19:43.780.03-May-2020 4532.80 4122.65 79.82 1.00 362.37 2465.99
   13:19:43.981.03-May-2020 4532.80 4122.53 79.82 1.00 362.57 2465.99
   13:19:44.181.03-May-2020 4532.80 4122.61 79.82 1.00 362.77 2465.99
   13:19:44.381.03-May-2020 4532.80 4122.74 79.82 1.00 362.97 2465.99
   13:19:44.582.03-May-2020 4532.80 4128.86 79.82 1.00 363.17 2465.99
   13:19:44.782.03-May-2020 4532.80 4150.20 79.82 1.00 363.37 2465.99
   13:19:44.982.03-May-2020 4532.80 4051.40 79.81 1.00 363.57 2465.99
   13:19:45.182.03-May-2020 4532.80 4051.40 79.81 1.00 363.77 2465.99
   13:19:45.383.03-May-2020 4532.80 3633.89 79.81 1.00 363.97 2465.99
   13:19:45.583.03-May-2020 4532.80 4892.98 79.81 1.00 364.17 2465.99
   13:19:45.783.03-May-2020 4532.80 5558.28 79.81 1.00 364.37 2465.99
   13:19:45.984.03-May-2020 4532.80 4122.53 79.82 1.00 364.57 2465.99
   13:19:46.184.03-May-2020 4532.80 5707.92 79.81 1.00 364.77 2465.99
   13:19:46.384.03-May-2020 4532.80 5707.92 79.81 1.00 364.97 2465.99
   13:19:46.585.03-May-2020 4532.80 5707.92 79.81 1.00 365.17 2465.99
   13:19:46.785.03-May-2020 4532.80 5709.05 79.81 1.00 365.37 2465.99
   13:19:46.985.03-May-2020 4532.80 5710.14 79.81 1.00 365.57 2465.99
   13:19:47.186.03-May-2020 4532.80 5710.14 79.81 1.00 365.78 2465.99
   13:19:47.386.03-May-2020 4532.80 5710.33 79.81 1.00 365.98 2465.99
   13:19:47.586.03-May-2020 4532.80 5709.77 79.81 1.00 366.18 2465.99
   13:19:47.787.03-May-2020 4532.80 5709.00 79.81 1.00 366.38 2465.99
   13:19:47.987.03-May-2020 4532.80 5709.44 79.81 1.00 366.58 2465.99
   13:19:48.187.03-May-2020 4532.80 5716.10 79.81 1.00 366.78 2465.99
   13:19:48.388.03-May-2020 4532.80 5711.87 79.82 1.00 366.98 2465.99
   13:19:48.588.03-May-2020 4532.80 5711.36 79.82 1.00 367.18 2465.99
   13:19:48.788.03-May-2020 4532.80 5715.41 79.82 1.00 367.38 2465.99
   13:19:48.988.03-May-2020 4532.80 5712.11 79.82 1.00 367.58 2465.99
   13:19:49.189.03-May-2020 4532.80 5712.11 79.82 1.00 367.78 2465.99
   13:19:49.389.03-May-2020 4532.80 5714.91 79.82 1.00 367.98 2465.99
   13:19:49.589.03-May-2020 4532.80 5714.86 79.82 1.00 368.18 2465.99
   13:19:49.790.03-May-2020 4532.80 5711.26 79.82 1.00 368.38 2465.99
