~Version Information
 VERS.                  2.0:   CWLS log ASCII Standard -VERSION 2.0
 WRAP.                   NO:   One line per depth step
~Well Information Block
#MNEM.UNIT     VALUE/NAME     DESCRIPTION
#---------     -----------    ---------------------------
 STRT.S             19:38:29 03-May-20: START TIME 19:38:29 03-May-20
 STOP.S             19:45:06 03-May-20: STOP TIME  19:45:06 03-May-20
 STEP.S                   0.00: STEP TIME
 NULL.                 -999.25: NULL VALUE
 DFWT.                        :  DIST FWL TEXT
 DFST.                        :  DIST FSL TEXT
 DMF .             Drill Floor:  DRILL MEAS FROM
 STIM.      03.00.00 25-Mar-20:  START TIME
 DATE.      00.00.00 19-May-20:  END TIME
 SPUD.               27-Aug-20:  SPUD DATE
 NREF.                    Grid:  NORTH REFERENCE
 HPTY.       Minimum Curvature:  HOLE POS TYPE
 DMOD.             Drill Model:  DRILL MOD DESC
 SVYD.                  Survey:  SURVEY DESC
 ILTD.               Lithology:  INTERP LTH DESC
 FTOP.          Formation Tops:  FORM TOPS DESC
 SON .        AZ-XX-0906252240:  JOB NUMBER
 RIG .             West Chirag:  RIG NAME
 PDAT.          Mean Sea Level:  PERMANENT DATUM
 FLD .                     ACG:  FIELD NAME
 CTRY.              Azerbaijan:  COUNTRY NAME
 WELL.                     J23:  WELL NAME
 SRVC.          Turan Drilling:  CONTRACTOR
 COMP.     BP Exploration (Caspian Sea) Ltd.:  COMPANY
 WTYP.                Deviated:  WELL TYPE
 MDS .        Operator Entered:  MAG DATA SOURCE
 UWI .                     N/A:  UNIQUE WELL IDENTIFIER
 API .                     N/A:  API NUMBER
 BASE.              Azerbaijan:  LOGGING EQUIPMENT BASE LOCATION
 REGN.                   EESSA:  REGION
 PROV.                    Baku:  PROVINCE
 STAT.                    Baku:  STATE NAME
 MWDS.                     N/A:  MWD SHOP
 JOBN.        AZ-XX-0906252240:  JOB TICKET NUMB
 DOE .                     N/A:  DOE NUMBER
 DCON.         Sperry Drilling:  DIRECTNL CONTR
 UNIT.                     N/A:  LOGGING EQUIPMENT ID
 CNTY.                        :  COUNTY
 LOC .                        :  LOCATION
 LMF .             Drill Floor:  LOG MEASURED FROM
 TVDS.m                  43.00:  TVDSS CORRECTN
 LATI.deg                40.13:  LATITUDE
 LONG.deg                51.22:  LONGITUDE
 WHNS.m                   9.43:  WELL HEAD N/S
 WHEW.m                  -8.91:  WELL HEAD E/W
 UTMX.m              519005.06:  UTM X
 UTMY.m             4443793.85:  UTM Y
 DFWL.m                   0.00:  DISTANCE FWL
 DFSL.m                   0.00:  DISTANCE FSL
 SDEP.m                 363.00:  START DEPTH
 TDD .m                5150.01:  TOTAL DEPTH (DRILLER)
 VSDR.deg               179.88:  VERT SEC DIRECT
 GVFD.g                   1.00:  GRAVITY FIELD
 MFLD.nT              50295.00:  MAGNETIC FIELD
 MDIP.deg                59.56:  MAGNETIC DIP
 MDEC.deg                 6.45:  MAGNETIC DECL
 GRDC.deg                 0.14:  GRID CORRECTION
 AZTC.deg                 6.31:  AZM TOTAL CORR
 EPD .m                   0.00:  ELEVATION
 EGL .m                   0.00:  GROUND ELEVATION
 WDMS.m                 169.80:  WD ELEV
 APD .m                  43.00:  DEPTH ABOVE PD
 DEP .m                 354.17:  DEPTH
 AGAP.m                  43.00:  AIR GAP
 VSEW.m                  -8.91:  VERT SEC E/W
 VSNS.m                   9.43:  VERT SEC N/S
 EKB .m                   0.00:  KB ELEVATION
 EDF .m                  43.00:  DF ELEVATION
 TDL .m                1351.00:  TOTAL DEPTH (LOGGER)
 VSC .                       0:  VS TO CLOSURE
 MAGU.                 1850802:  MAGUTM CHECKSUM
~Parameter Information Block
#MNEM.UNIT       Value        Description
#---------     -----------    ---------------------------
 AV  .mps                 1.00:  Ann Velocity 
 AVMX.mps                 2.40:  Max Ann Veloc 
 AZIF.deg               148.96:  Azm, Final 
 BHAT.        Rotary Steerable:  BHA Type 
 BROT.°/30m               0.04:  Build Rotating 
 BS  .in                 12.25:  Bit Size 
 BSZ .in                 12.25:  Bit Size 
 BTPL.psig              814.00:  Bit Press Loss 
 TCS .hr                106.00:  Time Ciculation Ended 
 CV  .mps                 2.47:  Crit Velocity 
 CVMX.mps                 2.64:  Max Crit Veloc 
 DD1 .          Rashad Habibov:  Direct Drillr 1 
 DD2 .         Rasim Ibrahimov:  Direct Drillr 2 
 DDSV.                 iCruise:  DD Service 
 DEFF.%                 100.00:  % Det Eff 
 DLRX.°/30m               0.70:  Dogleg Rot Max 
 DLSO.°/30m               3.00:  Dogleg Oriented 
 DLSX.°/30m               4.55:  Dogleg Str Max 
 DRET.      08.08.32 02-May-20:  Drill End Time 
 DRST.      08.08.32 28-Apr-20:  Drill Start Tim 
 DTIM.hr                 60.00:  Time Drilling 
 EDEP.m                4761.01:  End Depth 
 ENG1.           Eldar Hajiyev:  Engineer 1 
 ENG2.        Marcelo Sandoval:  Engineer 2 
 ETIM.      23.23.07 05-May-20:  End Time 
 FLOI.gpm              1200.00:  Flow In 
 FLON.gpm               900.00:  Flow In Min 
 FLOS.cptm                0.00:  Fluid Loss 
 FLOX.gpm              1200.00:  Flow In Max 
 HFLO.                      No:  High Flow 
 HPRE.                      No:  High Pressure 
 HTEM.                      No:  High Temp 
 HYDO.m                   1.80:  Hydro Offset 
 IFIN.deg                68.17:  Inc, Final 
 IMAX.deg                74.61:  Inc Max 
 IMIN.deg                68.15:  Inc Min 
 IMND.m                4317.87:  Inc Min Depth 
 IMXD.m                4714.01:  Inc Max Depth 
 LETM.      08.08.32 02-May-20:  Log End Time 
 LOST.hr                     2:  Lost Rig Time 
 LSTM.      08.08.32 28-Apr-20:  Log Start Time 
 MDCL.ppm             41000.00:  Mud Chlorides 
 MDES.     Inversion Oil/Synthetic:  Mud Desc 
 DFD .sg                  1.58:  Mud Density 
 MDMN.sg                  1.58:  Dens Mud Min 
 MDMX.sg                  1.58:  Dens Mud Max 
 MOIL.                      71:  Run Mud Oil % 
 MOWR.                   71:29:  Run Mud OWR 
 MSND.                     0.1:  Run Mud Sand % 
 MSOL.                      23:  Run Mud Solids% 
 DFV .spqt               82.00:  Mud Viscosity 
 MWOD.in                  8.00:  MWD Tool OD 
 MWSI.                     Yes:  Serv Intrp, MWD 
 OTIM.hr                125.00:  Time Operating 
 PMAX.psia             6129.00:  Press Op, Max 
 PV  .cP                 32.00:  Mud PV 
 RUN .                     800:  Run Number 
 ROPA.m/hr               30.00:  ROP Avg 
 ROPN.m/hr               10.00:  ROP Min 
 ROPX.m/hr               40.00:  ROP Max 
 RPMA.rpm               140.00:  RPM Surface Avg 
 RPMN.rpm                80.00:  RPM Surface Min 
 RPMX.rpm               140.00:  RPM Surface Max 
 RRUN.                    L503:  Rig Run Number 
 RTIM.hr                  2.00:  Time Reaming 
 SAZI.deg               184.23:  Azm, Start 
 SDEP.m                3410.01:  Start Depth 
 SIDD.                      No:  Serv Intrp, DD 
 SINC.deg                68.29:  Inc, Start 
 SPPA.psig             6000.00:  SPP Avg 
 SPPN.psig             4000.00:  SPP Min 
 SPPX.psig             6100.00:  SPP Max 
 STIM.      08.08.32 28-Apr-20:  Start Time 
 SVCS.                 DD, MWD:  Services 
 SVER.                    9.20:  Sperry Version 
 TDAT.m                1351.00:  Tot Depth Attmp 
 TDDF.                      No:  Trip for DD 
 TDLG.m                1351.00:  Tot Depth Loggd 
 TFF .                      No:  Trip for Fail 
 TQAA.f-kp               27.00:  Torque Abs Avg 
 TQAN.f-kp               20.00:  Torque Abs Min 
 TQAX.f-kp               30.00:  Torque Abs Max 
 TRRT.°/30m               0.60:  Turn Rotating 
 MRT .                    EWER:  Maximum Recorded Temperature 
 TTMX.degC               83.00:  Max Tool Temp 
 VS01.                90511138:  Virtual Str1 SN 
 VS02.                90524876:  Virtual Str2 SN 
 VS03.                90524872:  Virtual Str3 SN 
 VS04.                90502750:  Virtual Str4 SN 
 VS05.                12330984:  Virtual Str5 SN 
 WBMN.klb                 0.00:  WOB Min 
 WOBA.klb                15.00:  WOB Avg 
 WOBX.klb                20.00:  WOB Max 
 YP  .lhf2               31.00:  Yield Point 
~Curve Information Block
#MNEM.UNIT                 API CODE     Curve Description
#---------               -----------    ---------------------------
 TIME.HHMMSS            00 000 000 000:  GT Time & Date
 GTDEPTH.m              00 000 000 000:  GT Depth
 GTPQH.psia             00 000 000 000:  GT HR Quartz Pressure
 GTTQ.degC              00 000 000 000:  GT Quartz Temperature
 GTTN.NONE              00 000 000 000:  GT Test Number
 GTET.sec               00 000 000 000:  GT Elapsed Test Time
 GTTVD.m                00 000 000 000:  GT True Vertical Depth
#Other Information
#
#WARRANTY: Halliburton will use its best efforts to furnish customers with 
#accurate information and interpretations that are part of, and incident to, the services 
#provided.  However, Halliburton cannot and does not warrant the accuracy 
#or correctness of such information and interpretations.  Under no circumstances should any 
#such information or interpretation be relied upon as the sole basis for any drilling, 
#completion, production, or financial decision or any procedure involving any risk to the 
#safety of any drilling venture, drilling rig or its crew or any other third party.  The 
#Customer has full responsibility for all drilling, completion and production operation.  
#Halliburton makes no representations or warranties, either expressed or 
#implied, including, but not limited to, the implied warranties of merchantability or fitness 
#for a particular purpose, with respect to the services rendered.  In no event will 
#Halliburton be liable for failure to obtain any particular results or for 
#any damages, including, but not limited to, indirect, special or consequential damages, 
#resulting from the use of any information or interpretation provided by Halliburton.
#
~A           TIME           GTDEPTH  GTPQH  GTTQ  GTTN  GTET   GTTVD  
# ...
   19:40:24.498.03-May-2020 4608.48 4148.68 80.06 3.00 115.01 2489.14
   19:40:24.698.03-May-2020 4608.48 4148.81 80.06 3.00 115.21 2489.14
   19:40:24.898.03-May-2020 4608.48 4149.16 80.06 3.00 115.41 2489.14
   19:40:25.098.03-May-2020 4608.48 4148.15 80.06 3.00 115.61 2489.14
   19:40:25.298.03-May-2020 4608.48 4148.46 80.06 3.00 115.81 2489.14
   19:40:25.498.03-May-2020 4608.48 4148.59 80.06 3.00 116.01 2489.14
   19:40:25.698.03-May-2020 4608.48 4148.59 80.06 3.00 116.21 2489.14
   19:40:25.898.03-May-2020 4608.48 4148.36 80.06 3.00 116.41 2489.14
   19:40:26.098.03-May-2020 4608.48 4148.88 80.06 3.00 116.61 2489.14
   19:40:26.298.03-May-2020 4608.48 4148.76 80.06 3.00 116.81 2489.14
   19:40:26.498.03-May-2020 4608.48 4148.54 80.06 3.00 117.01 2489.14
   19:40:26.698.03-May-2020 4608.48 4148.54 80.06 3.00 117.21 2489.14
   19:40:26.898.03-May-2020 4608.48 4148.60 80.05 3.00 117.41 2489.14
   19:40:27.098.03-May-2020 4608.48 4148.70 80.05 3.00 117.61 2489.14
   19:40:27.298.03-May-2020 4608.48 4148.70 80.05 3.00 117.81 2489.14
   19:40:27.498.03-May-2020 4608.48 4148.63 80.05 3.00 118.01 2489.14
   19:40:27.698.03-May-2020 4608.48 4148.58 80.05 3.00 118.21 2489.14
   19:40:27.899.03-May-2020 4608.48 4148.63 80.05 3.00 118.41 2489.14
   19:40:28.099.03-May-2020 4608.48 4148.61 80.05 3.00 118.61 2489.14
   19:40:28.299.03-May-2020 4608.48 4148.64 80.05 3.00 118.81 2489.14
   19:40:28.499.03-May-2020 4608.48 4148.61 80.05 3.00 119.01 2489.14
   19:40:28.699.03-May-2020 4608.48 4148.61 80.05 3.00 119.21 2489.14
   19:40:28.899.03-May-2020 4608.48 4148.66 80.05 3.00 119.41 2489.14
   19:40:29.099.03-May-2020 4608.48 4148.53 80.05 3.00 119.61 2489.14
   19:40:29.299.03-May-2020 4608.48 4148.72 80.05 3.00 119.81 2489.14
   19:40:29.499.03-May-2020 4608.48 4148.73 80.04 3.00 120.01 2489.14
   19:40:29.699.03-May-2020 4608.48 4148.73 80.04 3.00 120.21 2489.14
   19:40:29.899.03-May-2020 4608.48 4148.60 80.04 3.00 120.41 2489.14
   19:40:30.099.03-May-2020 4608.48 4148.59 80.04 3.00 120.61 2489.14
   19:40:30.299.03-May-2020 4608.48 4148.64 80.04 3.00 120.81 2489.14
   19:40:30.499.03-May-2020 4608.48 4148.62 80.04 3.00 121.01 2489.14
   19:40:30.699.03-May-2020 4608.48 4148.62 80.04 3.00 121.21 2489.14
   19:40:30.899.03-May-2020 4608.48 4148.61 80.04 3.00 121.41 2489.14
   19:40:31.099.03-May-2020 4608.48 4148.60 80.04 3.00 121.61 2489.14
   19:40:31.299.03-May-2020 4608.48 4148.57 80.04 3.00 121.81 2489.14
   19:40:31.499.03-May-2020 4608.48 4148.73 80.04 3.00 122.01 2489.14
   19:40:31.699.03-May-2020 4608.48 4148.86 80.04 3.00 122.21 2489.14
   19:40:31.899.03-May-2020 4608.48 4148.33 80.04 3.00 122.41 2489.14
   19:40:32.099.03-May-2020 4608.48 4148.81 80.03 3.00 122.61 2489.14
   19:40:32.299.03-May-2020 4608.48 4148.65 80.03 3.00 122.81 2489.14
   19:40:32.499.03-May-2020 4608.48 4148.55 80.03 3.00 123.01 2489.14
   19:40:32.699.03-May-2020 4608.48 4148.55 80.03 3.00 123.21 2489.14
   19:40:32.899.03-May-2020 4608.48 4148.67 80.03 3.00 123.41 2489.14
   19:40:33.099.03-May-2020 4608.48 4148.58 80.03 3.00 123.61 2489.14
   19:40:33.299.03-May-2020 4608.48 4149.20 80.03 3.00 123.81 2489.14
   19:40:33.499.03-May-2020 4608.48 4148.48 80.03 3.00 124.01 2489.14
   19:40:33.699.03-May-2020 4608.48 4148.48 80.03 3.00 124.21 2489.14
   19:40:33.899.03-May-2020 4608.48 4148.52 80.03 3.00 124.41 2489.14
   19:40:34.099.03-May-2020 4608.48 4148.98 80.03 3.00 124.61 2489.14
   19:40:34.299.03-May-2020 4608.48 4148.34 80.03 3.00 124.81 2489.14
   19:40:34.499.03-May-2020 4608.48 4148.74 80.03 3.00 125.01 2489.14
   19:40:34.699.03-May-2020 4608.48 4148.74 80.03 3.00 125.21 2489.14
   19:40:34.899.03-May-2020 4608.48 4148.63 80.02 3.00 125.41 2489.14
   19:40:35.099.03-May-2020 4608.48 4148.51 80.02 3.00 125.61 2489.14
   19:40:35.299.03-May-2020 4608.48 4148.64 80.02 3.00 125.81 2489.14
   19:40:35.499.03-May-2020 4608.48 4148.67 80.02 3.00 126.01 2489.14
   19:40:35.699.03-May-2020 4608.48 4148.71 80.02 3.00 126.21 2489.14
   19:40:35.899.03-May-2020 4608.48 4148.66 80.02 3.00 126.41 2489.14
   19:40:36.099.03-May-2020 4608.48 4148.63 80.02 3.00 126.61 2489.14
   19:40:36.299.03-May-2020 4608.48 4148.60 80.02 3.00 126.81 2489.14
   19:40:36.499.03-May-2020 4608.48 4148.58 80.02 3.00 127.01 2489.14
   19:40:36.699.03-May-2020 4608.48 4148.58 80.02 3.00 127.21 2489.14
   19:40:36.899.03-May-2020 4608.48 4149.15 80.02 3.00 127.41 2489.14
   19:40:37.100.03-May-2020 4608.48 4148.25 80.02 3.00 127.61 2489.14
   19:40:37.300.03-May-2020 4608.48 4148.55 80.01 3.00 127.81 2489.14
   19:40:37.500.03-May-2020 4608.48 4148.58 80.01 3.00 128.01 2489.14
   19:40:37.700.03-May-2020 4608.48 4148.58 80.01 3.00 128.21 2489.14
   19:40:37.900.03-May-2020 4608.48 4148.71 80.01 3.00 128.41 2489.14
   19:40:38.100.03-May-2020 4608.48 4148.64 80.01 3.00 128.61 2489.14
   19:40:38.300.03-May-2020 4608.48 4148.61 80.01 3.00 128.81 2489.14
   19:40:38.500.03-May-2020 4608.48 4148.58 80.01 3.00 129.01 2489.14
   19:40:38.700.03-May-2020 4608.48 4148.58 80.01 3.00 129.21 2489.14
   19:40:38.900.03-May-2020 4608.48 4148.62 80.01 3.00 129.41 2489.14
   19:40:39.100.03-May-2020 4608.48 4148.63 80.01 3.00 129.61 2489.14
   19:40:39.300.03-May-2020 4608.48 4148.65 80.01 3.00 129.81 2489.14
   19:40:39.500.03-May-2020 4608.48 4149.05 80.01 3.00 130.01 2489.14
   19:40:39.700.03-May-2020 4608.48 4148.24 80.01 3.00 130.21 2489.14
   19:40:39.900.03-May-2020 4608.48 4148.59 80.00 3.00 130.41 2489.14
   19:40:40.100.03-May-2020 4608.48 4148.49 80.00 3.00 130.61 2489.14
   19:40:40.300.03-May-2020 4608.48 4148.82 80.00 3.00 130.81 2489.14
   19:40:40.500.03-May-2020 4608.48 4148.68 80.00 3.00 131.01 2489.14
   19:40:40.700.03-May-2020 4608.48 4148.68 80.00 3.00 131.21 2489.14
   19:40:40.900.03-May-2020 4608.48 4148.23 80.00 3.00 131.41 2489.14
   19:40:41.100.03-May-2020 4608.48 4148.48 80.00 3.00 131.61 2489.14
   19:40:41.300.03-May-2020 4608.48 4148.62 80.00 3.00 131.81 2489.14
   19:40:41.500.03-May-2020 4608.48 4148.39 80.00 3.00 132.01 2489.14
   19:40:41.700.03-May-2020 4608.48 4148.39 80.00 3.00 132.21 2489.14
   19:40:41.900.03-May-2020 4608.48 4148.77 80.00 3.00 132.41 2489.14
   19:40:42.100.03-May-2020 4608.48 4148.54 80.00 3.00 132.61 2489.14
   19:40:42.300.03-May-2020 4608.48 4148.54 80.00 3.00 132.81 2489.14
   19:40:42.500.03-May-2020 4608.48 4148.55 79.99 3.00 133.01 2489.14
   19:40:42.700.03-May-2020 4608.48 4148.55 79.99 3.00 133.21 2489.14
   19:40:42.900.03-May-2020 4608.48 4148.74 79.99 3.00 133.41 2489.14
   19:40:43.100.03-May-2020 4608.48 4148.75 79.99 3.00 133.61 2489.14
   19:40:43.300.03-May-2020 4608.48 4148.70 79.99 3.00 133.81 2489.14
   19:40:43.500.03-May-2020 4608.48 4148.55 79.99 3.00 134.01 2489.14
   19:40:43.700.03-May-2020 4608.48 4148.55 79.99 3.00 134.21 2489.14
   19:40:43.900.03-May-2020 4608.48 4148.65 79.99 3.00 134.41 2489.14
   19:40:44.100.03-May-2020 4608.48 4148.65 79.99 3.00 134.61 2489.14
   19:40:44.300.03-May-2020 4608.48 4148.67 79.99 3.00 134.81 2489.14
   19:40:44.500.03-May-2020 4608.48 4148.66 79.99 3.00 135.01 2489.14
   19:40:44.700.03-May-2020 4608.48 4148.66 79.99 3.00 135.21 2489.14
   19:40:44.900.03-May-2020 4608.48 4148.58 79.99 3.00 135.41 2489.14
   19:40:45.100.03-May-2020 4608.48 4148.59 79.98 3.00 135.61 2489.14
   19:40:45.300.03-May-2020 4608.48 4149.02 79.98 3.00 135.81 2489.14
   19:40:45.500.03-May-2020 4608.48 4148.62 79.98 3.00 136.01 2489.14
   19:40:45.700.03-May-2020 4608.48 4148.62 79.98 3.00 136.21 2489.14
   19:40:45.900.03-May-2020 4608.48 4148.57 79.98 3.00 136.41 2489.14
   19:40:46.100.03-May-2020 4608.48 4148.69 79.98 3.00 136.61 2489.14
   19:40:46.301.03-May-2020 4608.48 4148.68 79.98 3.00 136.81 2489.14
   19:40:46.501.03-May-2020 4608.48 4148.70 79.98 3.00 137.01 2489.14
   19:40:46.701.03-May-2020 4608.48 4148.70 79.98 3.00 137.21 2489.14
   19:40:46.901.03-May-2020 4608.48 4148.59 79.98 3.00 137.41 2489.14
   19:40:47.101.03-May-2020 4608.48 4148.62 79.98 3.00 137.61 2489.14
   19:40:47.301.03-May-2020 4608.48 4148.60 79.98 3.00 137.81 2489.14
