~Version Information
 VERS.                  2.0:   CWLS log ASCII Standard -VERSION 2.0
 WRAP.                   NO:   One line per depth step
~Well Information Block
#MNEM.UNIT     VALUE/NAME     DESCRIPTION
#---------     -----------    ---------------------------
 STRT.S             15:01:40 03-May-20: START TIME 15:01:40 03-May-20
 STOP.S             15:08:15 03-May-20: STOP TIME  15:08:15 03-May-20
 STEP.S                   0.00: STEP TIME
 NULL.                 -999.25: NULL VALUE
 DFWT.                        :  DIST FWL TEXT
 DFST.                        :  DIST FSL TEXT
 DMF .             Drill Floor:  DRILL MEAS FROM
 STIM.      03.00.00 25-Mar-20:  START TIME
 DATE.      00.00.00 19-May-20:  END TIME
 SPUD.               27-Aug-20:  SPUD DATE
 NREF.                    Grid:  NORTH REFERENCE
 HPTY.       Minimum Curvature:  HOLE POS TYPE
 DMOD.             Drill Model:  DRILL MOD DESC
 SVYD.                  Survey:  SURVEY DESC
 ILTD.               Lithology:  INTERP LTH DESC
 FTOP.          Formation Tops:  FORM TOPS DESC
 SON .        AZ-XX-0906252240:  JOB NUMBER
 RIG .             West Chirag:  RIG NAME
 PDAT.          Mean Sea Level:  PERMANENT DATUM
 FLD .                     ACG:  FIELD NAME
 CTRY.              Azerbaijan:  COUNTRY NAME
 WELL.                     J23:  WELL NAME
 SRVC.          Turan Drilling:  CONTRACTOR
 COMP.     BP Exploration (Caspian Sea) Ltd.:  COMPANY
 WTYP.                Deviated:  WELL TYPE
 MDS .        Operator Entered:  MAG DATA SOURCE
 UWI .                     N/A:  UNIQUE WELL IDENTIFIER
 API .                     N/A:  API NUMBER
 BASE.              Azerbaijan:  LOGGING EQUIPMENT BASE LOCATION
 REGN.                   EESSA:  REGION
 PROV.                    Baku:  PROVINCE
 STAT.                    Baku:  STATE NAME
 MWDS.                     N/A:  MWD SHOP
 JOBN.        AZ-XX-0906252240:  JOB TICKET NUMB
 DOE .                     N/A:  DOE NUMBER
 DCON.         Sperry Drilling:  DIRECTNL CONTR
 UNIT.                     N/A:  LOGGING EQUIPMENT ID
 CNTY.                        :  COUNTY
 LOC .                        :  LOCATION
 LMF .             Drill Floor:  LOG MEASURED FROM
 TVDS.m                  43.00:  TVDSS CORRECTN
 LATI.deg                40.13:  LATITUDE
 LONG.deg                51.22:  LONGITUDE
 WHNS.m                   9.43:  WELL HEAD N/S
 WHEW.m                  -8.91:  WELL HEAD E/W
 UTMX.m              519005.06:  UTM X
 UTMY.m             4443793.85:  UTM Y
 DFWL.m                   0.00:  DISTANCE FWL
 DFSL.m                   0.00:  DISTANCE FSL
 SDEP.m                 363.00:  START DEPTH
 TDD .m                5150.01:  TOTAL DEPTH (DRILLER)
 VSDR.deg               179.88:  VERT SEC DIRECT
 GVFD.g                   1.00:  GRAVITY FIELD
 MFLD.nT              50295.00:  MAGNETIC FIELD
 MDIP.deg                59.56:  MAGNETIC DIP
 MDEC.deg                 6.45:  MAGNETIC DECL
 GRDC.deg                 0.14:  GRID CORRECTION
 AZTC.deg                 6.31:  AZM TOTAL CORR
 EPD .m                   0.00:  ELEVATION
 EGL .m                   0.00:  GROUND ELEVATION
 WDMS.m                 169.80:  WD ELEV
 APD .m                  43.00:  DEPTH ABOVE PD
 DEP .m                 354.17:  DEPTH
 AGAP.m                  43.00:  AIR GAP
 VSEW.m                  -8.91:  VERT SEC E/W
 VSNS.m                   9.43:  VERT SEC N/S
 EKB .m                   0.00:  KB ELEVATION
 EDF .m                  43.00:  DF ELEVATION
 TDL .m                1351.00:  TOTAL DEPTH (LOGGER)
 VSC .                       0:  VS TO CLOSURE
 MAGU.                 1850802:  MAGUTM CHECKSUM
~Parameter Information Block
#MNEM.UNIT       Value        Description
#---------     -----------    ---------------------------
 AV  .mps                 1.00:  Ann Velocity 
 AVMX.mps                 2.40:  Max Ann Veloc 
 AZIF.deg               148.96:  Azm, Final 
 BHAT.        Rotary Steerable:  BHA Type 
 BROT.°/30m               0.04:  Build Rotating 
 BS  .in                 12.25:  Bit Size 
 BSZ .in                 12.25:  Bit Size 
 BTPL.psig              814.00:  Bit Press Loss 
 TCS .hr                106.00:  Time Ciculation Ended 
 CV  .mps                 2.47:  Crit Velocity 
 CVMX.mps                 2.64:  Max Crit Veloc 
 DD1 .          Rashad Habibov:  Direct Drillr 1 
 DD2 .         Rasim Ibrahimov:  Direct Drillr 2 
 DDSV.                 iCruise:  DD Service 
 DEFF.%                 100.00:  % Det Eff 
 DLRX.°/30m               0.70:  Dogleg Rot Max 
 DLSO.°/30m               3.00:  Dogleg Oriented 
 DLSX.°/30m               4.55:  Dogleg Str Max 
 DRET.      08.08.32 02-May-20:  Drill End Time 
 DRST.      08.08.32 28-Apr-20:  Drill Start Tim 
 DTIM.hr                 60.00:  Time Drilling 
 EDEP.m                4761.01:  End Depth 
 ENG1.           Eldar Hajiyev:  Engineer 1 
 ENG2.        Marcelo Sandoval:  Engineer 2 
 ETIM.      23.23.07 05-May-20:  End Time 
 FLOI.gpm              1200.00:  Flow In 
 FLON.gpm               900.00:  Flow In Min 
 FLOS.cptm                0.00:  Fluid Loss 
 FLOX.gpm              1200.00:  Flow In Max 
 HFLO.                      No:  High Flow 
 HPRE.                      No:  High Pressure 
 HTEM.                      No:  High Temp 
 HYDO.m                   1.80:  Hydro Offset 
 IFIN.deg                68.17:  Inc, Final 
 IMAX.deg                74.61:  Inc Max 
 IMIN.deg                68.15:  Inc Min 
 IMND.m                4317.87:  Inc Min Depth 
 IMXD.m                4714.01:  Inc Max Depth 
 LETM.      08.08.32 02-May-20:  Log End Time 
 LOST.hr                     2:  Lost Rig Time 
 LSTM.      08.08.32 28-Apr-20:  Log Start Time 
 MDCL.ppm             41000.00:  Mud Chlorides 
 MDES.     Inversion Oil/Synthetic:  Mud Desc 
 DFD .sg                  1.58:  Mud Density 
 MDMN.sg                  1.58:  Dens Mud Min 
 MDMX.sg                  1.58:  Dens Mud Max 
 MOIL.                      71:  Run Mud Oil % 
 MOWR.                   71:29:  Run Mud OWR 
 MSND.                     0.1:  Run Mud Sand % 
 MSOL.                      23:  Run Mud Solids% 
 DFV .spqt               82.00:  Mud Viscosity 
 MWOD.in                  8.00:  MWD Tool OD 
 MWSI.                     Yes:  Serv Intrp, MWD 
 OTIM.hr                125.00:  Time Operating 
 PMAX.psia             6129.00:  Press Op, Max 
 PV  .cP                 32.00:  Mud PV 
 RUN .                     800:  Run Number 
 ROPA.m/hr               30.00:  ROP Avg 
 ROPN.m/hr               10.00:  ROP Min 
 ROPX.m/hr               40.00:  ROP Max 
 RPMA.rpm               140.00:  RPM Surface Avg 
 RPMN.rpm                80.00:  RPM Surface Min 
 RPMX.rpm               140.00:  RPM Surface Max 
 RRUN.                    L503:  Rig Run Number 
 RTIM.hr                  2.00:  Time Reaming 
 SAZI.deg               184.23:  Azm, Start 
 SDEP.m                3410.01:  Start Depth 
 SIDD.                      No:  Serv Intrp, DD 
 SINC.deg                68.29:  Inc, Start 
 SPPA.psig             6000.00:  SPP Avg 
 SPPN.psig             4000.00:  SPP Min 
 SPPX.psig             6100.00:  SPP Max 
 STIM.      08.08.32 28-Apr-20:  Start Time 
 SVCS.                 DD, MWD:  Services 
 SVER.                    9.20:  Sperry Version 
 TDAT.m                1351.00:  Tot Depth Attmp 
 TDDF.                      No:  Trip for DD 
 TDLG.m                1351.00:  Tot Depth Loggd 
 TFF .                      No:  Trip for Fail 
 TQAA.f-kp               27.00:  Torque Abs Avg 
 TQAN.f-kp               20.00:  Torque Abs Min 
 TQAX.f-kp               30.00:  Torque Abs Max 
 TRRT.°/30m               0.60:  Turn Rotating 
 MRT .                    EWER:  Maximum Recorded Temperature 
 TTMX.degC               83.00:  Max Tool Temp 
 VS01.                90511138:  Virtual Str1 SN 
 VS02.                90524876:  Virtual Str2 SN 
 VS03.                90524872:  Virtual Str3 SN 
 VS04.                90502750:  Virtual Str4 SN 
 VS05.                12330984:  Virtual Str5 SN 
 WBMN.klb                 0.00:  WOB Min 
 WOBA.klb                15.00:  WOB Avg 
 WOBX.klb                20.00:  WOB Max 
 YP  .lhf2               31.00:  Yield Point 
~Curve Information Block
#MNEM.UNIT                 API CODE     Curve Description
#---------               -----------    ---------------------------
 TIME.HHMMSS            00 000 000 000:  GT Time & Date
 GTDEPTH.m              00 000 000 000:  GT Depth
 GTPQH.psia             00 000 000 000:  GT HR Quartz Pressure
 GTTQ.degC              00 000 000 000:  GT Quartz Temperature
 GTTN.NONE              00 000 000 000:  GT Test Number
 GTET.sec               00 000 000 000:  GT Elapsed Test Time
 GTTVD.m                00 000 000 000:  GT True Vertical Depth
#Other Information
#
#WARRANTY: Halliburton will use its best efforts to furnish customers with 
#accurate information and interpretations that are part of, and incident to, the services 
#provided.  However, Halliburton cannot and does not warrant the accuracy 
#or correctness of such information and interpretations.  Under no circumstances should any 
#such information or interpretation be relied upon as the sole basis for any drilling, 
#completion, production, or financial decision or any procedure involving any risk to the 
#safety of any drilling venture, drilling rig or its crew or any other third party.  The 
#Customer has full responsibility for all drilling, completion and production operation.  
#Halliburton makes no representations or warranties, either expressed or 
#implied, including, but not limited to, the implied warranties of merchantability or fitness 
#for a particular purpose, with respect to the services rendered.  In no event will 
#Halliburton be liable for failure to obtain any particular results or for 
#any damages, including, but not limited to, indirect, special or consequential damages, 
#resulting from the use of any information or interpretation provided by Halliburton.
#
~A           TIME           GTDEPTH  GTPQH  GTTQ  GTTN  GTET   GTTVD  
# ...
   15:03:58.382.03-May-2020 4553.48 4124.20 81.94 2.00 137.96 2472.52
   15:03:58.581.03-May-2020 4553.48 4124.31 81.94 2.00 138.16 2472.52
   15:03:58.781.03-May-2020 4553.48 4124.19 81.94 2.00 138.35 2472.52
   15:03:58.981.03-May-2020 4553.48 4124.50 81.94 2.00 138.55 2472.52
   15:03:59.181.03-May-2020 4553.48 4123.88 81.94 2.00 138.75 2472.52
   15:03:59.381.03-May-2020 4553.48 4124.63 81.94 2.00 138.95 2472.52
   15:03:59.581.03-May-2020 4553.48 4124.63 81.94 2.00 139.15 2472.52
   15:03:59.781.03-May-2020 4553.48 4124.19 81.94 2.00 139.35 2472.52
   15:03:59.981.03-May-2020 4553.48 4124.50 81.94 2.00 139.55 2472.52
   15:04:00.181.03-May-2020 4553.48 4124.29 81.94 2.00 139.75 2472.52
   15:04:00.381.03-May-2020 4553.48 4124.35 81.94 2.00 139.95 2472.52
   15:04:00.581.03-May-2020 4553.48 4124.35 81.94 2.00 140.15 2472.52
   15:04:00.781.03-May-2020 4553.48 4123.88 81.93 2.00 140.35 2472.52
   15:04:00.981.03-May-2020 4553.48 4124.28 81.93 2.00 140.55 2472.52
   15:04:01.181.03-May-2020 4553.48 4124.29 81.93 2.00 140.75 2472.52
   15:04:01.381.03-May-2020 4553.48 4124.21 81.93 2.00 140.95 2472.52
   15:04:01.580.03-May-2020 4553.48 4124.21 81.93 2.00 141.15 2472.52
   15:04:01.780.03-May-2020 4553.48 4124.14 81.93 2.00 141.35 2472.52
   15:04:01.980.03-May-2020 4553.48 4124.54 81.93 2.00 141.55 2472.52
   15:04:02.180.03-May-2020 4553.48 4124.15 81.93 2.00 141.75 2472.52
   15:04:02.380.03-May-2020 4553.48 4124.32 81.93 2.00 141.95 2472.52
   15:04:02.580.03-May-2020 4553.48 4124.32 81.93 2.00 142.15 2472.52
   15:04:02.780.03-May-2020 4553.48 4124.22 81.93 2.00 142.35 2472.52
   15:04:02.980.03-May-2020 4553.48 4124.29 81.92 2.00 142.55 2472.52
   15:04:03.180.03-May-2020 4553.48 4124.29 81.92 2.00 142.75 2472.52
   15:04:03.380.03-May-2020 4553.48 4124.36 81.92 2.00 142.95 2472.52
   15:04:03.580.03-May-2020 4553.48 4124.36 81.92 2.00 143.15 2472.52
   15:04:03.780.03-May-2020 4553.48 4124.29 81.92 2.00 143.35 2472.52
   15:04:03.980.03-May-2020 4553.48 4124.57 81.92 2.00 143.55 2472.52
   15:04:04.180.03-May-2020 4553.48 4124.33 81.92 2.00 143.75 2472.52
   15:04:04.380.03-May-2020 4553.48 4124.24 81.92 2.00 143.95 2472.52
   15:04:04.580.03-May-2020 4553.48 4124.24 81.92 2.00 144.15 2472.52
   15:04:04.779.03-May-2020 4553.48 4124.45 81.92 2.00 144.35 2472.52
   15:04:04.979.03-May-2020 4553.48 4124.14 81.92 2.00 144.55 2472.52
   15:04:05.179.03-May-2020 4553.48 4124.35 81.92 2.00 144.75 2472.52
   15:04:05.379.03-May-2020 4553.48 4124.33 81.92 2.00 144.95 2472.52
   15:04:05.579.03-May-2020 4553.48 4124.33 81.92 2.00 145.15 2472.52
   15:04:05.779.03-May-2020 4553.48 4124.21 81.91 2.00 145.35 2472.52
   15:04:05.979.03-May-2020 4553.48 4124.15 81.91 2.00 145.55 2472.52
   15:04:06.179.03-May-2020 4553.48 4124.22 81.91 2.00 145.75 2472.52
   15:04:06.379.03-May-2020 4553.48 4124.16 81.91 2.00 145.95 2472.52
   15:04:06.579.03-May-2020 4553.48 4124.16 81.91 2.00 146.15 2472.52
   15:04:06.779.03-May-2020 4553.48 4124.42 81.91 2.00 146.35 2472.52
   15:04:06.979.03-May-2020 4553.48 4124.09 81.91 2.00 146.55 2472.52
   15:04:07.179.03-May-2020 4553.48 4124.29 81.91 2.00 146.75 2472.52
   15:04:07.379.03-May-2020 4553.48 4124.20 81.91 2.00 146.95 2472.52
   15:04:07.579.03-May-2020 4553.48 4124.20 81.91 2.00 147.15 2472.52
   15:04:07.778.03-May-2020 4553.48 4124.59 81.91 2.00 147.35 2472.52
   15:04:07.978.03-May-2020 4553.48 4124.16 81.90 2.00 147.55 2472.52
   15:04:08.178.03-May-2020 4553.48 4124.28 81.90 2.00 147.75 2472.52
   15:04:08.378.03-May-2020 4553.48 4124.11 81.90 2.00 147.95 2472.52
   15:04:08.578.03-May-2020 4553.48 4124.11 81.90 2.00 148.15 2472.52
   15:04:08.778.03-May-2020 4553.48 4124.13 81.90 2.00 148.35 2472.52
   15:04:08.978.03-May-2020 4553.48 4124.00 81.90 2.00 148.55 2472.52
   15:04:09.178.03-May-2020 4553.48 4124.30 81.90 2.00 148.75 2472.52
   15:04:09.378.03-May-2020 4553.48 4124.16 81.90 2.00 148.95 2472.52
   15:04:09.578.03-May-2020 4553.48 4124.16 81.90 2.00 149.15 2472.52
   15:04:09.778.03-May-2020 4553.48 4124.25 81.90 2.00 149.35 2472.52
   15:04:09.978.03-May-2020 4553.48 4124.21 81.90 2.00 149.55 2472.52
   15:04:10.178.03-May-2020 4553.48 4124.19 81.90 2.00 149.75 2472.52
   15:04:10.378.03-May-2020 4553.48 4124.34 81.89 2.00 149.95 2472.52
   15:04:10.578.03-May-2020 4553.48 4124.34 81.89 2.00 150.15 2472.52
   15:04:10.778.03-May-2020 4553.48 4124.21 81.89 2.00 150.35 2472.52
   15:04:10.977.03-May-2020 4553.48 4124.27 81.89 2.00 150.55 2472.52
   15:04:11.177.03-May-2020 4553.48 4124.28 81.89 2.00 150.75 2472.52
   15:04:11.377.03-May-2020 4553.48 4124.30 81.89 2.00 150.95 2472.52
   15:04:11.577.03-May-2020 4553.48 4124.30 81.89 2.00 151.15 2472.52
   15:04:11.777.03-May-2020 4553.48 4124.30 81.89 2.00 151.35 2472.52
   15:04:11.977.03-May-2020 4553.48 4123.88 81.89 2.00 151.55 2472.52
   15:04:12.177.03-May-2020 4553.48 3861.15 81.89 2.00 151.75 2472.52
   15:04:12.377.03-May-2020 4553.48 3700.29 81.89 2.00 151.95 2472.52
   15:04:12.577.03-May-2020 4553.48 3700.29 81.89 2.00 152.15 2472.52
   15:04:12.777.03-May-2020 4553.48 3592.20 81.88 2.00 152.35 2472.52
   15:04:12.977.03-May-2020 4553.48 3566.91 81.88 2.00 152.55 2472.52
   15:04:13.177.03-May-2020 4553.48 3547.84 81.88 2.00 152.75 2472.52
   15:04:13.377.03-May-2020 4553.48 3534.08 81.88 2.00 152.95 2472.52
   15:04:13.577.03-May-2020 4553.48 3534.08 81.88 2.00 153.15 2472.52
   15:04:13.777.03-May-2020 4553.48 3512.20 81.88 2.00 153.35 2472.52
   15:04:13.976.03-May-2020 4553.48 3504.40 81.88 2.00 153.55 2472.52
   15:04:14.176.03-May-2020 4553.48 3496.85 81.88 2.00 153.75 2472.52
   15:04:14.376.03-May-2020 4553.48 3490.25 81.88 2.00 153.95 2472.52
   15:04:14.576.03-May-2020 4553.48 3490.25 81.88 2.00 154.15 2472.52
   15:04:14.776.03-May-2020 4553.48 3485.49 81.87 2.00 154.35 2472.52
   15:04:14.976.03-May-2020 4553.48 3480.95 81.87 2.00 154.55 2472.52
   15:04:15.176.03-May-2020 4553.48 3481.83 81.87 2.00 154.75 2472.52
   15:04:15.376.03-May-2020 4553.48 3479.03 81.87 2.00 154.95 2472.52
   15:04:15.576.03-May-2020 4553.48 3479.03 81.87 2.00 155.15 2472.52
   15:04:15.776.03-May-2020 4553.48 3471.35 81.87 2.00 155.35 2472.52
   15:04:15.976.03-May-2020 4553.48 3469.56 81.87 2.00 155.55 2472.52
   15:04:16.176.03-May-2020 4553.48 3466.55 81.86 2.00 155.75 2472.52
   15:04:16.376.03-May-2020 4553.48 3460.12 81.86 2.00 155.95 2472.52
   15:04:16.576.03-May-2020 4553.48 3460.12 81.86 2.00 156.15 2472.52
   15:04:16.776.03-May-2020 4553.48 3465.17 81.86 2.00 156.35 2472.52
   15:04:16.975.03-May-2020 4553.48 3459.30 81.86 2.00 156.55 2472.52
   15:04:17.175.03-May-2020 4553.48 3459.86 81.86 2.00 156.75 2472.52
   15:04:17.375.03-May-2020 4553.48 3458.68 81.86 2.00 156.95 2472.52
   15:04:17.575.03-May-2020 4553.48 3458.68 81.86 2.00 157.15 2472.52
   15:04:17.775.03-May-2020 4553.48 3453.18 81.85 2.00 157.35 2472.52
   15:04:17.975.03-May-2020 4553.48 3453.41 81.85 2.00 157.55 2472.52
   15:04:18.175.03-May-2020 4553.48 3450.60 81.85 2.00 157.75 2472.52
   15:04:18.375.03-May-2020 4553.48 3450.27 81.85 2.00 157.95 2472.52
   15:04:18.575.03-May-2020 4553.48 3450.27 81.85 2.00 158.15 2472.52
   15:04:18.775.03-May-2020 4553.48 3447.16 81.85 2.00 158.35 2472.52
   15:04:18.975.03-May-2020 4553.48 3442.14 81.85 2.00 158.55 2472.52
   15:04:19.175.03-May-2020 4553.48 3439.50 81.85 2.00 158.75 2472.52
   15:04:19.375.03-May-2020 4553.48 3438.98 81.84 2.00 158.95 2472.52
   15:04:19.575.03-May-2020 4553.48 3438.98 81.84 2.00 159.15 2472.52
   15:04:19.775.03-May-2020 4553.48 3433.53 81.84 2.00 159.35 2472.52
   15:04:19.975.03-May-2020 4553.48 3438.34 81.84 2.00 159.55 2472.52
   15:04:20.174.03-May-2020 4553.48 3440.98 81.84 2.00 159.75 2472.52
   15:04:20.374.03-May-2020 4553.48 3441.36 81.84 2.00 159.95 2472.52
   15:04:20.574.03-May-2020 4553.48 3441.36 81.84 2.00 160.15 2472.52
   15:04:20.774.03-May-2020 4553.48 3436.07 81.84 2.00 160.35 2472.52
   15:04:20.974.03-May-2020 4553.48 3432.87 81.84 2.00 160.55 2472.52
   15:04:21.174.03-May-2020 4553.48 3430.42 81.83 2.00 160.75 2472.52
