~Version Information
 VERS.                  2.0:   CWLS log ASCII Standard -VERSION 2.0
 WRAP.                   NO:   One line per depth step
~Well Information Block
#MNEM.UNIT     VALUE/NAME     DESCRIPTION
#---------     -----------    ---------------------------
 STRT.S             15:01:40 03-May-20: START TIME 15:01:40 03-May-20
 STOP.S             15:08:15 03-May-20: STOP TIME  15:08:15 03-May-20
 STEP.S                   0.00: STEP TIME
 NULL.                 -999.25: NULL VALUE
 DFWT.                        :  DIST FWL TEXT
 DFST.                        :  DIST FSL TEXT
 DMF .             Drill Floor:  DRILL MEAS FROM
 STIM.      03.00.00 25-Mar-20:  START TIME
 DATE.      00.00.00 19-May-20:  END TIME
 SPUD.               27-Aug-20:  SPUD DATE
 NREF.                    Grid:  NORTH REFERENCE
 HPTY.       Minimum Curvature:  HOLE POS TYPE
 DMOD.             Drill Model:  DRILL MOD DESC
 SVYD.                  Survey:  SURVEY DESC
 ILTD.               Lithology:  INTERP LTH DESC
 FTOP.          Formation Tops:  FORM TOPS DESC
 SON .        AZ-XX-0906252240:  JOB NUMBER
 RIG .             West Chirag:  RIG NAME
 PDAT.          Mean Sea Level:  PERMANENT DATUM
 FLD .                     ACG:  FIELD NAME
 CTRY.              Azerbaijan:  COUNTRY NAME
 WELL.                     J23:  WELL NAME
 SRVC.          Turan Drilling:  CONTRACTOR
 COMP.     BP Exploration (Caspian Sea) Ltd.:  COMPANY
 WTYP.                Deviated:  WELL TYPE
 MDS .        Operator Entered:  MAG DATA SOURCE
 UWI .                     N/A:  UNIQUE WELL IDENTIFIER
 API .                     N/A:  API NUMBER
 BASE.              Azerbaijan:  LOGGING EQUIPMENT BASE LOCATION
 REGN.                   EESSA:  REGION
 PROV.                    Baku:  PROVINCE
 STAT.                    Baku:  STATE NAME
 MWDS.                     N/A:  MWD SHOP
 JOBN.        AZ-XX-0906252240:  JOB TICKET NUMB
 DOE .                     N/A:  DOE NUMBER
 DCON.         Sperry Drilling:  DIRECTNL CONTR
 UNIT.                     N/A:  LOGGING EQUIPMENT ID
 CNTY.                        :  COUNTY
 LOC .                        :  LOCATION
 LMF .             Drill Floor:  LOG MEASURED FROM
 TVDS.m                  43.00:  TVDSS CORRECTN
 LATI.deg                40.13:  LATITUDE
 LONG.deg                51.22:  LONGITUDE
 WHNS.m                   9.43:  WELL HEAD N/S
 WHEW.m                  -8.91:  WELL HEAD E/W
 UTMX.m              519005.06:  UTM X
 UTMY.m             4443793.85:  UTM Y
 DFWL.m                   0.00:  DISTANCE FWL
 DFSL.m                   0.00:  DISTANCE FSL
 SDEP.m                 363.00:  START DEPTH
 TDD .m                5150.01:  TOTAL DEPTH (DRILLER)
 VSDR.deg               179.88:  VERT SEC DIRECT
 GVFD.g                   1.00:  GRAVITY FIELD
 MFLD.nT              50295.00:  MAGNETIC FIELD
 MDIP.deg                59.56:  MAGNETIC DIP
 MDEC.deg                 6.45:  MAGNETIC DECL
 GRDC.deg                 0.14:  GRID CORRECTION
 AZTC.deg                 6.31:  AZM TOTAL CORR
 EPD .m                   0.00:  ELEVATION
 EGL .m                   0.00:  GROUND ELEVATION
 WDMS.m                 169.80:  WD ELEV
 APD .m                  43.00:  DEPTH ABOVE PD
 DEP .m                 354.17:  DEPTH
 AGAP.m                  43.00:  AIR GAP
 VSEW.m                  -8.91:  VERT SEC E/W
 VSNS.m                   9.43:  VERT SEC N/S
 EKB .m                   0.00:  KB ELEVATION
 EDF .m                  43.00:  DF ELEVATION
 TDL .m                1351.00:  TOTAL DEPTH (LOGGER)
 VSC .                       0:  VS TO CLOSURE
 MAGU.                 1850802:  MAGUTM CHECKSUM
~Parameter Information Block
#MNEM.UNIT       Value        Description
#---------     -----------    ---------------------------
 AV  .mps                 1.00:  Ann Velocity 
 AVMX.mps                 2.40:  Max Ann Veloc 
 AZIF.deg               148.96:  Azm, Final 
 BHAT.        Rotary Steerable:  BHA Type 
 BROT.°/30m               0.04:  Build Rotating 
 BS  .in                 12.25:  Bit Size 
 BSZ .in                 12.25:  Bit Size 
 BTPL.psig              814.00:  Bit Press Loss 
 TCS .hr                106.00:  Time Ciculation Ended 
 CV  .mps                 2.47:  Crit Velocity 
 CVMX.mps                 2.64:  Max Crit Veloc 
 DD1 .          Rashad Habibov:  Direct Drillr 1 
 DD2 .         Rasim Ibrahimov:  Direct Drillr 2 
 DDSV.                 iCruise:  DD Service 
 DEFF.%                 100.00:  % Det Eff 
 DLRX.°/30m               0.70:  Dogleg Rot Max 
 DLSO.°/30m               3.00:  Dogleg Oriented 
 DLSX.°/30m               4.55:  Dogleg Str Max 
 DRET.      08.08.32 02-May-20:  Drill End Time 
 DRST.      08.08.32 28-Apr-20:  Drill Start Tim 
 DTIM.hr                 60.00:  Time Drilling 
 EDEP.m                4761.01:  End Depth 
 ENG1.           Eldar Hajiyev:  Engineer 1 
 ENG2.        Marcelo Sandoval:  Engineer 2 
 ETIM.      23.23.07 05-May-20:  End Time 
 FLOI.gpm              1200.00:  Flow In 
 FLON.gpm               900.00:  Flow In Min 
 FLOS.cptm                0.00:  Fluid Loss 
 FLOX.gpm              1200.00:  Flow In Max 
 HFLO.                      No:  High Flow 
 HPRE.                      No:  High Pressure 
 HTEM.                      No:  High Temp 
 HYDO.m                   1.80:  Hydro Offset 
 IFIN.deg                68.17:  Inc, Final 
 IMAX.deg                74.61:  Inc Max 
 IMIN.deg                68.15:  Inc Min 
 IMND.m                4317.87:  Inc Min Depth 
 IMXD.m                4714.01:  Inc Max Depth 
 LETM.      08.08.32 02-May-20:  Log End Time 
 LOST.hr                     2:  Lost Rig Time 
 LSTM.      08.08.32 28-Apr-20:  Log Start Time 
 MDCL.ppm             41000.00:  Mud Chlorides 
 MDES.     Inversion Oil/Synthetic:  Mud Desc 
 DFD .sg                  1.58:  Mud Density 
 MDMN.sg                  1.58:  Dens Mud Min 
 MDMX.sg                  1.58:  Dens Mud Max 
 MOIL.                      71:  Run Mud Oil % 
 MOWR.                   71:29:  Run Mud OWR 
 MSND.                     0.1:  Run Mud Sand % 
 MSOL.                      23:  Run Mud Solids% 
 DFV .spqt               82.00:  Mud Viscosity 
 MWOD.in                  8.00:  MWD Tool OD 
 MWSI.                     Yes:  Serv Intrp, MWD 
 OTIM.hr                125.00:  Time Operating 
 PMAX.psia             6129.00:  Press Op, Max 
 PV  .cP                 32.00:  Mud PV 
 RUN .                     800:  Run Number 
 ROPA.m/hr               30.00:  ROP Avg 
 ROPN.m/hr               10.00:  ROP Min 
 ROPX.m/hr               40.00:  ROP Max 
 RPMA.rpm               140.00:  RPM Surface Avg 
 RPMN.rpm                80.00:  RPM Surface Min 
 RPMX.rpm               140.00:  RPM Surface Max 
 RRUN.                    L503:  Rig Run Number 
 RTIM.hr                  2.00:  Time Reaming 
 SAZI.deg               184.23:  Azm, Start 
 SDEP.m                3410.01:  Start Depth 
 SIDD.                      No:  Serv Intrp, DD 
 SINC.deg                68.29:  Inc, Start 
 SPPA.psig             6000.00:  SPP Avg 
 SPPN.psig             4000.00:  SPP Min 
 SPPX.psig             6100.00:  SPP Max 
 STIM.      08.08.32 28-Apr-20:  Start Time 
 SVCS.                 DD, MWD:  Services 
 SVER.                    9.20:  Sperry Version 
 TDAT.m                1351.00:  Tot Depth Attmp 
 TDDF.                      No:  Trip for DD 
 TDLG.m                1351.00:  Tot Depth Loggd 
 TFF .                      No:  Trip for Fail 
 TQAA.f-kp               27.00:  Torque Abs Avg 
 TQAN.f-kp               20.00:  Torque Abs Min 
 TQAX.f-kp               30.00:  Torque Abs Max 
 TRRT.°/30m               0.60:  Turn Rotating 
 MRT .                    EWER:  Maximum Recorded Temperature 
 TTMX.degC               83.00:  Max Tool Temp 
 VS01.                90511138:  Virtual Str1 SN 
 VS02.                90524876:  Virtual Str2 SN 
 VS03.                90524872:  Virtual Str3 SN 
 VS04.                90502750:  Virtual Str4 SN 
 VS05.                12330984:  Virtual Str5 SN 
 WBMN.klb                 0.00:  WOB Min 
 WOBA.klb                15.00:  WOB Avg 
 WOBX.klb                20.00:  WOB Max 
 YP  .lhf2               31.00:  Yield Point 
~Curve Information Block
#MNEM.UNIT                 API CODE     Curve Description
#---------               -----------    ---------------------------
 TIME.HHMMSS            00 000 000 000:  GT Time & Date
 GTDEPTH.m              00 000 000 000:  GT Depth
 GTPQH.psia             00 000 000 000:  GT HR Quartz Pressure
 GTTQ.degC              00 000 000 000:  GT Quartz Temperature
 GTTN.NONE              00 000 000 000:  GT Test Number
 GTET.sec               00 000 000 000:  GT Elapsed Test Time
 GTTVD.m                00 000 000 000:  GT True Vertical Depth
#Other Information
#
#WARRANTY: Halliburton will use its best efforts to furnish customers with 
#accurate information and interpretations that are part of, and incident to, the services 
#provided.  However, Halliburton cannot and does not warrant the accuracy 
#or correctness of such information and interpretations.  Under no circumstances should any 
#such information or interpretation be relied upon as the sole basis for any drilling, 
#completion, production, or financial decision or any procedure involving any risk to the 
#safety of any drilling venture, drilling rig or its crew or any other third party.  The 
#Customer has full responsibility for all drilling, completion and production operation.  
#Halliburton makes no representations or warranties, either expressed or 
#implied, including, but not limited to, the implied warranties of merchantability or fitness 
#for a particular purpose, with respect to the services rendered.  In no event will 
#Halliburton be liable for failure to obtain any particular results or for 
#any damages, including, but not limited to, indirect, special or consequential damages, 
#resulting from the use of any information or interpretation provided by Halliburton.
#
~A           TIME           GTDEPTH  GTPQH  GTTQ  GTTN  GTET   GTTVD  
# ...
   15:05:30.352.03-May-2020 4553.48 4124.28 81.56 2.00 229.93 2472.52
   15:05:30.552.03-May-2020 4553.48 4124.28 81.56 2.00 230.13 2472.52
   15:05:30.751.03-May-2020 4553.48 4124.33 81.56 2.00 230.33 2472.52
   15:05:30.951.03-May-2020 4553.48 4124.21 81.56 2.00 230.52 2472.52
   15:05:31.151.03-May-2020 4553.48 4124.28 81.55 2.00 230.72 2472.52
   15:05:31.351.03-May-2020 4553.48 4124.31 81.55 2.00 230.92 2472.52
   15:05:31.551.03-May-2020 4553.48 4124.31 81.55 2.00 231.12 2472.52
   15:05:31.751.03-May-2020 4553.48 4124.30 81.55 2.00 231.32 2472.52
   15:05:31.951.03-May-2020 4553.48 4124.84 81.55 2.00 231.52 2472.52
   15:05:32.151.03-May-2020 4553.48 4124.62 81.55 2.00 231.72 2472.52
   15:05:32.351.03-May-2020 4553.48 4124.33 81.55 2.00 231.92 2472.52
   15:05:32.551.03-May-2020 4553.48 4124.33 81.55 2.00 232.12 2472.52
   15:05:32.751.03-May-2020 4553.48 4124.40 81.55 2.00 232.32 2472.52
   15:05:32.951.03-May-2020 4553.48 4124.26 81.55 2.00 232.52 2472.52
   15:05:33.151.03-May-2020 4553.48 4124.35 81.55 2.00 232.72 2472.52
   15:05:33.351.03-May-2020 4553.48 4124.32 81.54 2.00 232.92 2472.52
   15:05:33.551.03-May-2020 4553.48 4124.32 81.54 2.00 233.12 2472.52
   15:05:33.750.03-May-2020 4553.48 4124.21 81.54 2.00 233.32 2472.52
   15:05:33.950.03-May-2020 4553.48 4124.21 81.54 2.00 233.52 2472.52
   15:05:34.150.03-May-2020 4553.48 4124.15 81.54 2.00 233.72 2472.52
   15:05:34.350.03-May-2020 4553.48 4124.24 81.54 2.00 233.92 2472.52
   15:05:34.550.03-May-2020 4553.48 4124.24 81.54 2.00 234.12 2472.52
   15:05:34.750.03-May-2020 4553.48 4124.58 81.54 2.00 234.32 2472.52
   15:05:34.950.03-May-2020 4553.48 4124.39 81.54 2.00 234.52 2472.52
   15:05:35.150.03-May-2020 4553.48 4124.53 81.54 2.00 234.72 2472.52
   15:05:35.350.03-May-2020 4553.48 4124.60 81.54 2.00 234.92 2472.52
   15:05:35.550.03-May-2020 4553.48 4124.60 81.54 2.00 235.12 2472.52
   15:05:35.750.03-May-2020 4553.48 4124.53 81.53 2.00 235.32 2472.52
   15:05:35.950.03-May-2020 4553.48 4124.52 81.53 2.00 235.52 2472.52
   15:05:36.150.03-May-2020 4553.48 4124.40 81.53 2.00 235.72 2472.52
   15:05:36.350.03-May-2020 4553.48 4124.06 81.53 2.00 235.92 2472.52
   15:05:36.550.03-May-2020 4553.48 4124.06 81.53 2.00 236.12 2472.52
   15:05:36.750.03-May-2020 4553.48 4124.32 81.53 2.00 236.32 2472.52
   15:05:36.949.03-May-2020 4553.48 4124.21 81.53 2.00 236.52 2472.52
   15:05:37.149.03-May-2020 4553.48 4124.65 81.53 2.00 236.72 2472.52
   15:05:37.349.03-May-2020 4553.48 4124.53 81.53 2.00 236.92 2472.52
   15:05:37.549.03-May-2020 4553.48 4124.53 81.53 2.00 237.12 2472.52
   15:05:37.749.03-May-2020 4553.48 4124.28 81.53 2.00 237.32 2472.52
   15:05:37.949.03-May-2020 4553.48 4124.56 81.52 2.00 237.52 2472.52
   15:05:38.149.03-May-2020 4553.48 4124.18 81.52 2.00 237.72 2472.52
   15:05:38.349.03-May-2020 4553.48 4124.40 81.52 2.00 237.92 2472.52
   15:05:38.549.03-May-2020 4553.48 4124.40 81.52 2.00 238.12 2472.52
   15:05:38.749.03-May-2020 4553.48 4124.27 81.52 2.00 238.32 2472.52
   15:05:38.949.03-May-2020 4553.48 4124.31 81.52 2.00 238.52 2472.52
   15:05:39.149.03-May-2020 4553.48 4124.32 81.52 2.00 238.72 2472.52
   15:05:39.349.03-May-2020 4553.48 4124.34 81.52 2.00 238.92 2472.52
   15:05:39.549.03-May-2020 4553.48 4124.34 81.52 2.00 239.12 2472.52
   15:05:39.749.03-May-2020 4553.48 4124.43 81.52 2.00 239.32 2472.52
   15:05:39.948.03-May-2020 4553.48 4124.79 81.52 2.00 239.52 2472.52
   15:05:40.148.03-May-2020 4553.48 4124.67 81.51 2.00 239.72 2472.52
   15:05:40.348.03-May-2020 4553.48 4124.30 81.51 2.00 239.92 2472.52
   15:05:40.548.03-May-2020 4553.48 4124.30 81.51 2.00 240.12 2472.52
   15:05:40.748.03-May-2020 4553.48 4124.28 81.51 2.00 240.32 2472.52
   15:05:40.948.03-May-2020 4553.48 4124.30 81.51 2.00 240.52 2472.52
   15:05:41.148.03-May-2020 4553.48 4124.35 81.51 2.00 240.72 2472.52
   15:05:41.348.03-May-2020 4553.48 4124.31 81.51 2.00 240.92 2472.52
   15:05:41.548.03-May-2020 4553.48 4124.31 81.51 2.00 241.12 2472.52
   15:05:41.748.03-May-2020 4553.48 4124.23 81.51 2.00 241.32 2472.52
   15:05:41.948.03-May-2020 4553.48 4124.21 81.51 2.00 241.52 2472.52
   15:05:42.148.03-May-2020 4553.48 4124.18 81.51 2.00 241.72 2472.52
   15:05:42.348.03-May-2020 4553.48 4124.25 81.50 2.00 241.92 2472.52
   15:05:42.548.03-May-2020 4553.48 4124.25 81.50 2.00 242.12 2472.52
   15:05:42.748.03-May-2020 4553.48 4124.70 81.50 2.00 242.32 2472.52
   15:05:42.947.03-May-2020 4553.48 4124.45 81.50 2.00 242.52 2472.52
   15:05:43.147.03-May-2020 4553.48 4124.70 81.50 2.00 242.72 2472.52
   15:05:43.347.03-May-2020 4553.48 4124.21 81.50 2.00 242.92 2472.52
   15:05:43.547.03-May-2020 4553.48 4124.21 81.50 2.00 243.12 2472.52
   15:05:43.747.03-May-2020 4553.48 4124.53 81.50 2.00 243.32 2472.52
   15:05:43.947.03-May-2020 4553.48 4124.36 81.50 2.00 243.52 2472.52
   15:05:44.147.03-May-2020 4553.48 4124.40 81.50 2.00 243.72 2472.52
   15:05:44.347.03-May-2020 4553.48 4124.65 81.50 2.00 243.92 2472.52
   15:05:44.547.03-May-2020 4553.48 4124.65 81.50 2.00 244.12 2472.52
   15:05:44.747.03-May-2020 4553.48 4124.36 81.49 2.00 244.32 2472.52
   15:05:44.947.03-May-2020 4553.48 4124.58 81.49 2.00 244.52 2472.52
   15:05:45.147.03-May-2020 4553.48 4124.38 81.49 2.00 244.72 2472.52
   15:05:45.347.03-May-2020 4553.48 4124.46 81.49 2.00 244.92 2472.52
   15:05:45.547.03-May-2020 4553.48 4124.46 81.49 2.00 245.12 2472.52
   15:05:45.747.03-May-2020 4553.48 4124.56 81.49 2.00 245.32 2472.52
   15:05:45.947.03-May-2020 4553.48 4124.23 81.49 2.00 245.52 2472.52
   15:05:46.146.03-May-2020 4553.48 4124.37 81.49 2.00 245.72 2472.52
   15:05:46.346.03-May-2020 4553.48 4124.34 81.49 2.00 245.92 2472.52
   15:05:46.546.03-May-2020 4553.48 4124.34 81.49 2.00 246.12 2472.52
   15:05:46.746.03-May-2020 4553.48 4124.27 81.49 2.00 246.32 2472.52
   15:05:46.946.03-May-2020 4553.48 4124.31 81.48 2.00 246.52 2472.52
   15:05:47.146.03-May-2020 4553.48 4124.38 81.48 2.00 246.72 2472.52
   15:05:47.346.03-May-2020 4553.48 4124.31 81.48 2.00 246.92 2472.52
   15:05:47.546.03-May-2020 4553.48 4124.31 81.48 2.00 247.12 2472.52
   15:05:47.746.03-May-2020 4553.48 4125.36 81.48 2.00 247.32 2472.52
   15:05:47.946.03-May-2020 4553.48 4124.67 81.48 2.00 247.52 2472.52
   15:05:48.146.03-May-2020 4553.48 4124.39 81.48 2.00 247.72 2472.52
   15:05:48.346.03-May-2020 4553.48 4124.32 81.48 2.00 247.92 2472.52
   15:05:48.546.03-May-2020 4553.48 4124.32 81.48 2.00 248.12 2472.52
   15:05:48.746.03-May-2020 4553.48 4124.21 81.48 2.00 248.32 2472.52
   15:05:48.946.03-May-2020 4553.48 4124.37 81.48 2.00 248.52 2472.52
   15:05:49.145.03-May-2020 4553.48 4124.31 81.47 2.00 248.72 2472.52
   15:05:49.345.03-May-2020 4553.48 4124.30 81.47 2.00 248.92 2472.52
   15:05:49.545.03-May-2020 4553.48 4124.30 81.47 2.00 249.12 2472.52
   15:05:49.745.03-May-2020 4553.48 4124.20 81.47 2.00 249.32 2472.52
   15:05:49.945.03-May-2020 4553.48 4124.19 81.47 2.00 249.52 2472.52
   15:05:50.145.03-May-2020 4553.48 4124.10 81.47 2.00 249.72 2472.52
   15:05:50.345.03-May-2020 4553.48 4125.23 81.47 2.00 249.92 2472.52
   15:05:50.545.03-May-2020 4553.48 4125.23 81.47 2.00 250.12 2472.52
   15:05:50.745.03-May-2020 4553.48 4124.83 81.47 2.00 250.32 2472.52
   15:05:50.945.03-May-2020 4553.48 4124.71 81.47 2.00 250.52 2472.52
   15:05:51.145.03-May-2020 4553.48 4124.47 81.47 2.00 250.72 2472.52
   15:05:51.345.03-May-2020 4553.48 4124.69 81.46 2.00 250.92 2472.52
   15:05:51.545.03-May-2020 4553.48 4124.69 81.46 2.00 251.12 2472.52
   15:05:51.745.03-May-2020 4553.48 4124.05 81.46 2.00 251.32 2472.52
   15:05:51.945.03-May-2020 4553.48 4124.42 81.46 2.00 251.52 2472.52
   15:05:52.145.03-May-2020 4553.48 4124.72 81.46 2.00 251.72 2472.52
   15:05:52.344.03-May-2020 4553.48 4124.56 81.46 2.00 251.92 2472.52
   15:05:52.544.03-May-2020 4553.48 4124.56 81.46 2.00 252.12 2472.52
   15:05:52.744.03-May-2020 4553.48 4124.52 81.46 2.00 252.32 2472.52
   15:05:52.944.03-May-2020 4553.48 4124.59 81.46 2.00 252.52 2472.52
   15:05:53.144.03-May-2020 4553.48 4124.21 81.46 2.00 252.72 2472.52
