~Version Information
 VERS.                  2.0:   CWLS log ASCII Standard -VERSION 2.0
 WRAP.                   NO:   One line per depth step
~Well Information Block
#MNEM.UNIT     VALUE/NAME     DESCRIPTION
#---------     -----------    ---------------------------
 STRT.S             19:38:29 03-May-20: START TIME 19:38:29 03-May-20
 STOP.S             19:45:06 03-May-20: STOP TIME  19:45:06 03-May-20
 STEP.S                   0.00: STEP TIME
 NULL.                 -999.25: NULL VALUE
 DFWT.                        :  DIST FWL TEXT
 DFST.                        :  DIST FSL TEXT
 DMF .             Drill Floor:  DRILL MEAS FROM
 STIM.      03.00.00 25-Mar-20:  START TIME
 DATE.      00.00.00 19-May-20:  END TIME
 SPUD.               27-Aug-20:  SPUD DATE
 NREF.                    Grid:  NORTH REFERENCE
 HPTY.       Minimum Curvature:  HOLE POS TYPE
 DMOD.             Drill Model:  DRILL MOD DESC
 SVYD.                  Survey:  SURVEY DESC
 ILTD.               Lithology:  INTERP LTH DESC
 FTOP.          Formation Tops:  FORM TOPS DESC
 SON .        AZ-XX-0906252240:  JOB NUMBER
 RIG .             West Chirag:  RIG NAME
 PDAT.          Mean Sea Level:  PERMANENT DATUM
 FLD .                     ACG:  FIELD NAME
 CTRY.              Azerbaijan:  COUNTRY NAME
 WELL.                     J23:  WELL NAME
 SRVC.          Turan Drilling:  CONTRACTOR
 COMP.     BP Exploration (Caspian Sea) Ltd.:  COMPANY
 WTYP.                Deviated:  WELL TYPE
 MDS .        Operator Entered:  MAG DATA SOURCE
 UWI .                     N/A:  UNIQUE WELL IDENTIFIER
 API .                     N/A:  API NUMBER
 BASE.              Azerbaijan:  LOGGING EQUIPMENT BASE LOCATION
 REGN.                   EESSA:  REGION
 PROV.                    Baku:  PROVINCE
 STAT.                    Baku:  STATE NAME
 MWDS.                     N/A:  MWD SHOP
 JOBN.        AZ-XX-0906252240:  JOB TICKET NUMB
 DOE .                     N/A:  DOE NUMBER
 DCON.         Sperry Drilling:  DIRECTNL CONTR
 UNIT.                     N/A:  LOGGING EQUIPMENT ID
 CNTY.                        :  COUNTY
 LOC .                        :  LOCATION
 LMF .             Drill Floor:  LOG MEASURED FROM
 TVDS.m                  43.00:  TVDSS CORRECTN
 LATI.deg                40.13:  LATITUDE
 LONG.deg                51.22:  LONGITUDE
 WHNS.m                   9.43:  WELL HEAD N/S
 WHEW.m                  -8.91:  WELL HEAD E/W
 UTMX.m              519005.06:  UTM X
 UTMY.m             4443793.85:  UTM Y
 DFWL.m                   0.00:  DISTANCE FWL
 DFSL.m                   0.00:  DISTANCE FSL
 SDEP.m                 363.00:  START DEPTH
 TDD .m                5150.01:  TOTAL DEPTH (DRILLER)
 VSDR.deg               179.88:  VERT SEC DIRECT
 GVFD.g                   1.00:  GRAVITY FIELD
 MFLD.nT              50295.00:  MAGNETIC FIELD
 MDIP.deg                59.56:  MAGNETIC DIP
 MDEC.deg                 6.45:  MAGNETIC DECL
 GRDC.deg                 0.14:  GRID CORRECTION
 AZTC.deg                 6.31:  AZM TOTAL CORR
 EPD .m                   0.00:  ELEVATION
 EGL .m                   0.00:  GROUND ELEVATION
 WDMS.m                 169.80:  WD ELEV
 APD .m                  43.00:  DEPTH ABOVE PD
 DEP .m                 354.17:  DEPTH
 AGAP.m                  43.00:  AIR GAP
 VSEW.m                  -8.91:  VERT SEC E/W
 VSNS.m                   9.43:  VERT SEC N/S
 EKB .m                   0.00:  KB ELEVATION
 EDF .m                  43.00:  DF ELEVATION
 TDL .m                1351.00:  TOTAL DEPTH (LOGGER)
 VSC .                       0:  VS TO CLOSURE
 MAGU.                 1850802:  MAGUTM CHECKSUM
~Parameter Information Block
#MNEM.UNIT       Value        Description
#---------     -----------    ---------------------------
 AV  .mps                 1.00:  Ann Velocity 
 AVMX.mps                 2.40:  Max Ann Veloc 
 AZIF.deg               148.96:  Azm, Final 
 BHAT.        Rotary Steerable:  BHA Type 
 BROT.°/30m               0.04:  Build Rotating 
 BS  .in                 12.25:  Bit Size 
 BSZ .in                 12.25:  Bit Size 
 BTPL.psig              814.00:  Bit Press Loss 
 TCS .hr                106.00:  Time Ciculation Ended 
 CV  .mps                 2.47:  Crit Velocity 
 CVMX.mps                 2.64:  Max Crit Veloc 
 DD1 .          Rashad Habibov:  Direct Drillr 1 
 DD2 .         Rasim Ibrahimov:  Direct Drillr 2 
 DDSV.                 iCruise:  DD Service 
 DEFF.%                 100.00:  % Det Eff 
 DLRX.°/30m               0.70:  Dogleg Rot Max 
 DLSO.°/30m               3.00:  Dogleg Oriented 
 DLSX.°/30m               4.55:  Dogleg Str Max 
 DRET.      08.08.32 02-May-20:  Drill End Time 
 DRST.      08.08.32 28-Apr-20:  Drill Start Tim 
 DTIM.hr                 60.00:  Time Drilling 
 EDEP.m                4761.01:  End Depth 
 ENG1.           Eldar Hajiyev:  Engineer 1 
 ENG2.        Marcelo Sandoval:  Engineer 2 
 ETIM.      23.23.07 05-May-20:  End Time 
 FLOI.gpm              1200.00:  Flow In 
 FLON.gpm               900.00:  Flow In Min 
 FLOS.cptm                0.00:  Fluid Loss 
 FLOX.gpm              1200.00:  Flow In Max 
 HFLO.                      No:  High Flow 
 HPRE.                      No:  High Pressure 
 HTEM.                      No:  High Temp 
 HYDO.m                   1.80:  Hydro Offset 
 IFIN.deg                68.17:  Inc, Final 
 IMAX.deg                74.61:  Inc Max 
 IMIN.deg                68.15:  Inc Min 
 IMND.m                4317.87:  Inc Min Depth 
 IMXD.m                4714.01:  Inc Max Depth 
 LETM.      08.08.32 02-May-20:  Log End Time 
 LOST.hr                     2:  Lost Rig Time 
 LSTM.      08.08.32 28-Apr-20:  Log Start Time 
 MDCL.ppm             41000.00:  Mud Chlorides 
 MDES.     Inversion Oil/Synthetic:  Mud Desc 
 DFD .sg                  1.58:  Mud Density 
 MDMN.sg                  1.58:  Dens Mud Min 
 MDMX.sg                  1.58:  Dens Mud Max 
 MOIL.                      71:  Run Mud Oil % 
 MOWR.                   71:29:  Run Mud OWR 
 MSND.                     0.1:  Run Mud Sand % 
 MSOL.                      23:  Run Mud Solids% 
 DFV .spqt               82.00:  Mud Viscosity 
 MWOD.in                  8.00:  MWD Tool OD 
 MWSI.                     Yes:  Serv Intrp, MWD 
 OTIM.hr                125.00:  Time Operating 
 PMAX.psia             6129.00:  Press Op, Max 
 PV  .cP                 32.00:  Mud PV 
 RUN .                     800:  Run Number 
 ROPA.m/hr               30.00:  ROP Avg 
 ROPN.m/hr               10.00:  ROP Min 
 ROPX.m/hr               40.00:  ROP Max 
 RPMA.rpm               140.00:  RPM Surface Avg 
 RPMN.rpm                80.00:  RPM Surface Min 
 RPMX.rpm               140.00:  RPM Surface Max 
 RRUN.                    L503:  Rig Run Number 
 RTIM.hr                  2.00:  Time Reaming 
 SAZI.deg               184.23:  Azm, Start 
 SDEP.m                3410.01:  Start Depth 
 SIDD.                      No:  Serv Intrp, DD 
 SINC.deg                68.29:  Inc, Start 
 SPPA.psig             6000.00:  SPP Avg 
 SPPN.psig             4000.00:  SPP Min 
 SPPX.psig             6100.00:  SPP Max 
 STIM.      08.08.32 28-Apr-20:  Start Time 
 SVCS.                 DD, MWD:  Services 
 SVER.                    9.20:  Sperry Version 
 TDAT.m                1351.00:  Tot Depth Attmp 
 TDDF.                      No:  Trip for DD 
 TDLG.m                1351.00:  Tot Depth Loggd 
 TFF .                      No:  Trip for Fail 
 TQAA.f-kp               27.00:  Torque Abs Avg 
 TQAN.f-kp               20.00:  Torque Abs Min 
 TQAX.f-kp               30.00:  Torque Abs Max 
 TRRT.°/30m               0.60:  Turn Rotating 
 MRT .                    EWER:  Maximum Recorded Temperature 
 TTMX.degC               83.00:  Max Tool Temp 
 VS01.                90511138:  Virtual Str1 SN 
 VS02.                90524876:  Virtual Str2 SN 
 VS03.                90524872:  Virtual Str3 SN 
 VS04.                90502750:  Virtual Str4 SN 
 VS05.                12330984:  Virtual Str5 SN 
 WBMN.klb                 0.00:  WOB Min 
 WOBA.klb                15.00:  WOB Avg 
 WOBX.klb                20.00:  WOB Max 
 YP  .lhf2               31.00:  Yield Point 
~Curve Information Block
#MNEM.UNIT                 API CODE     Curve Description
#---------               -----------    ---------------------------
 TIME.HHMMSS            00 000 000 000:  GT Time & Date
 GTDEPTH.m              00 000 000 000:  GT Depth
 GTPQH.psia             00 000 000 000:  GT HR Quartz Pressure
 GTTQ.degC              00 000 000 000:  GT Quartz Temperature
 GTTN.NONE              00 000 000 000:  GT Test Number
 GTET.sec               00 000 000 000:  GT Elapsed Test Time
 GTTVD.m                00 000 000 000:  GT True Vertical Depth
#Other Information
#
#WARRANTY: Halliburton will use its best efforts to furnish customers with 
#accurate information and interpretations that are part of, and incident to, the services 
#provided.  However, Halliburton cannot and does not warrant the accuracy 
#or correctness of such information and interpretations.  Under no circumstances should any 
#such information or interpretation be relied upon as the sole basis for any drilling, 
#completion, production, or financial decision or any procedure involving any risk to the 
#safety of any drilling venture, drilling rig or its crew or any other third party.  The 
#Customer has full responsibility for all drilling, completion and production operation.  
#Halliburton makes no representations or warranties, either expressed or 
#implied, including, but not limited to, the implied warranties of merchantability or fitness 
#for a particular purpose, with respect to the services rendered.  In no event will 
#Halliburton be liable for failure to obtain any particular results or for 
#any damages, including, but not limited to, indirect, special or consequential damages, 
#resulting from the use of any information or interpretation provided by Halliburton.
#
~A           TIME           GTDEPTH  GTPQH  GTTQ  GTTN  GTET   GTTVD  
# ...
   19:39:38.493.03-May-2020 4608.48 4148.29 80.23 3.00  69.01 2489.14
   19:39:38.693.03-May-2020 4608.48 4148.29 80.23 3.00  69.21 2489.14
   19:39:38.893.03-May-2020 4608.48 4148.65 80.23 3.00  69.41 2489.14
   19:39:39.093.03-May-2020 4608.48 4147.93 80.23 3.00  69.61 2489.14
   19:39:39.293.03-May-2020 4608.48 4148.30 80.23 3.00  69.81 2489.14
   19:39:39.493.03-May-2020 4608.48 4148.45 80.23 3.00  70.01 2489.14
   19:39:39.693.03-May-2020 4608.48 4148.35 80.23 3.00  70.21 2489.14
   19:39:39.893.03-May-2020 4608.48 4148.20 80.23 3.00  70.41 2489.14
   19:39:40.093.03-May-2020 4608.48 4148.26 80.23 3.00  70.61 2489.14
   19:39:40.293.03-May-2020 4608.48 4148.25 80.23 3.00  70.81 2489.14
   19:39:40.493.03-May-2020 4608.48 4148.35 80.22 3.00  71.01 2489.14
   19:39:40.693.03-May-2020 4608.48 4148.35 80.22 3.00  71.21 2489.14
   19:39:40.893.03-May-2020 4608.48 4148.32 80.22 3.00  71.41 2489.14
   19:39:41.093.03-May-2020 4608.48 4148.28 80.22 3.00  71.61 2489.14
   19:39:41.293.03-May-2020 4608.48 4148.27 80.22 3.00  71.81 2489.14
   19:39:41.494.03-May-2020 4608.48 4148.67 80.22 3.00  72.01 2489.14
   19:39:41.694.03-May-2020 4608.48 4148.67 80.22 3.00  72.21 2489.14
   19:39:41.894.03-May-2020 4608.48 4148.36 80.22 3.00  72.41 2489.14
   19:39:42.094.03-May-2020 4608.48 4148.07 80.22 3.00  72.61 2489.14
   19:39:42.294.03-May-2020 4608.48 4148.85 80.22 3.00  72.81 2489.14
   19:39:42.494.03-May-2020 4608.48 4148.38 80.22 3.00  73.01 2489.14
   19:39:42.694.03-May-2020 4608.48 4148.38 80.22 3.00  73.21 2489.14
   19:39:42.894.03-May-2020 4608.48 4147.83 80.22 3.00  73.41 2489.14
   19:39:43.094.03-May-2020 4608.48 4148.36 80.22 3.00  73.61 2489.14
   19:39:43.294.03-May-2020 4608.48 4148.50 80.21 3.00  73.81 2489.14
   19:39:43.494.03-May-2020 4608.48 4148.82 80.21 3.00  74.01 2489.14
   19:39:43.694.03-May-2020 4608.48 4148.82 80.21 3.00  74.21 2489.14
   19:39:43.894.03-May-2020 4608.48 4148.17 80.21 3.00  74.41 2489.14
   19:39:44.094.03-May-2020 4608.48 4148.31 80.21 3.00  74.61 2489.14
   19:39:44.294.03-May-2020 4608.48 4148.42 80.21 3.00  74.81 2489.14
   19:39:44.494.03-May-2020 4608.48 4148.06 80.21 3.00  75.01 2489.14
   19:39:44.694.03-May-2020 4608.48 4148.06 80.21 3.00  75.21 2489.14
   19:39:44.894.03-May-2020 4608.48 4148.45 80.21 3.00  75.41 2489.14
   19:39:45.094.03-May-2020 4608.48 4148.27 80.21 3.00  75.61 2489.14
   19:39:45.294.03-May-2020 4608.48 4148.30 80.21 3.00  75.81 2489.14
   19:39:45.494.03-May-2020 4608.48 4148.32 80.21 3.00  76.01 2489.14
   19:39:45.694.03-May-2020 4608.48 4148.32 80.21 3.00  76.21 2489.14
   19:39:45.894.03-May-2020 4608.48 4148.43 80.21 3.00  76.41 2489.14
   19:39:46.094.03-May-2020 4608.48 4148.40 80.21 3.00  76.61 2489.14
   19:39:46.294.03-May-2020 4608.48 4148.34 80.20 3.00  76.81 2489.14
   19:39:46.494.03-May-2020 4608.48 4148.40 80.20 3.00  77.01 2489.14
   19:39:46.694.03-May-2020 4608.48 4148.40 80.20 3.00  77.21 2489.14
   19:39:46.894.03-May-2020 4608.48 4148.43 80.20 3.00  77.41 2489.14
   19:39:47.094.03-May-2020 4608.48 4148.42 80.20 3.00  77.61 2489.14
   19:39:47.294.03-May-2020 4608.48 4148.56 80.20 3.00  77.81 2489.14
   19:39:47.494.03-May-2020 4608.48 4148.42 80.20 3.00  78.01 2489.14
   19:39:47.694.03-May-2020 4608.48 4148.32 80.20 3.00  78.21 2489.14
   19:39:47.894.03-May-2020 4608.48 4148.43 80.20 3.00  78.41 2489.14
   19:39:48.094.03-May-2020 4608.48 4148.58 80.20 3.00  78.61 2489.14
   19:39:48.294.03-May-2020 4608.48 4148.36 80.20 3.00  78.81 2489.14
   19:39:48.494.03-May-2020 4608.48 4148.38 80.20 3.00  79.01 2489.14
   19:39:48.694.03-May-2020 4608.48 4148.38 80.20 3.00  79.21 2489.14
   19:39:48.894.03-May-2020 4608.48 4148.41 80.19 3.00  79.41 2489.14
   19:39:49.094.03-May-2020 4608.48 4148.40 80.19 3.00  79.61 2489.14
   19:39:49.294.03-May-2020 4608.48 4148.44 80.19 3.00  79.81 2489.14
   19:39:49.494.03-May-2020 4608.48 4148.44 80.19 3.00  80.01 2489.14
   19:39:49.694.03-May-2020 4608.48 4148.44 80.19 3.00  80.21 2489.14
   19:39:49.894.03-May-2020 4608.48 4148.50 80.19 3.00  80.41 2489.14
   19:39:50.094.03-May-2020 4608.48 4148.51 80.19 3.00  80.61 2489.14
   19:39:50.294.03-May-2020 4608.48 4148.72 80.19 3.00  80.81 2489.14
   19:39:50.494.03-May-2020 4608.48 4148.11 80.19 3.00  81.01 2489.14
   19:39:50.695.03-May-2020 4608.48 4148.63 80.19 3.00  81.21 2489.14
   19:39:50.895.03-May-2020 4608.48 4148.46 80.19 3.00  81.41 2489.14
   19:39:51.095.03-May-2020 4608.48 4148.59 80.19 3.00  81.61 2489.14
   19:39:51.295.03-May-2020 4608.48 4148.31 80.19 3.00  81.81 2489.14
   19:39:51.495.03-May-2020 4608.48 4148.40 80.19 3.00  82.01 2489.14
   19:39:51.695.03-May-2020 4608.48 4148.40 80.19 3.00  82.21 2489.14
   19:39:51.895.03-May-2020 4608.48 4148.97 80.18 3.00  82.41 2489.14
   19:39:52.095.03-May-2020 4608.48 4148.30 80.18 3.00  82.61 2489.14
   19:39:52.295.03-May-2020 4608.48 4148.31 80.18 3.00  82.81 2489.14
   19:39:52.495.03-May-2020 4608.48 4148.33 80.18 3.00  83.01 2489.14
   19:39:52.695.03-May-2020 4608.48 4148.33 80.18 3.00  83.21 2489.14
   19:39:52.895.03-May-2020 4608.48 4148.12 80.18 3.00  83.41 2489.14
   19:39:53.095.03-May-2020 4608.48 4148.54 80.18 3.00  83.61 2489.14
   19:39:53.295.03-May-2020 4608.48 4148.60 80.18 3.00  83.81 2489.14
   19:39:53.495.03-May-2020 4608.48 4148.50 80.18 3.00  84.01 2489.14
   19:39:53.695.03-May-2020 4608.48 4148.50 80.18 3.00  84.21 2489.14
   19:39:53.895.03-May-2020 4608.48 4148.47 80.18 3.00  84.41 2489.14
   19:39:54.095.03-May-2020 4608.48 4148.49 80.18 3.00  84.61 2489.14
   19:39:54.295.03-May-2020 4608.48 4148.54 80.18 3.00  84.81 2489.14
   19:39:54.495.03-May-2020 4608.48 4148.46 80.18 3.00  85.01 2489.14
   19:39:54.695.03-May-2020 4608.48 4148.46 80.18 3.00  85.21 2489.14
   19:39:54.895.03-May-2020 4608.48 4148.52 80.17 3.00  85.41 2489.14
   19:39:55.095.03-May-2020 4608.48 4148.44 80.17 3.00  85.61 2489.14
   19:39:55.295.03-May-2020 4608.48 4148.49 80.17 3.00  85.81 2489.14
   19:39:55.495.03-May-2020 4608.48 4148.96 80.17 3.00  86.01 2489.14
   19:39:55.695.03-May-2020 4608.48 4148.25 80.17 3.00  86.21 2489.14
   19:39:55.895.03-May-2020 4608.48 4148.42 80.17 3.00  86.41 2489.14
   19:39:56.095.03-May-2020 4608.48 4148.38 80.17 3.00  86.61 2489.14
   19:39:56.295.03-May-2020 4608.48 4148.56 80.17 3.00  86.81 2489.14
   19:39:56.495.03-May-2020 4608.48 4148.60 80.17 3.00  87.01 2489.14
   19:39:56.695.03-May-2020 4608.48 4148.60 80.17 3.00  87.21 2489.14
   19:39:56.895.03-May-2020 4608.48 4148.50 80.17 3.00  87.41 2489.14
   19:39:57.095.03-May-2020 4608.48 4148.42 80.17 3.00  87.61 2489.14
   19:39:57.295.03-May-2020 4608.48 4148.45 80.16 3.00  87.81 2489.14
   19:39:57.495.03-May-2020 4608.48 4148.52 80.16 3.00  88.01 2489.14
   19:39:57.695.03-May-2020 4608.48 4148.52 80.16 3.00  88.21 2489.14
   19:39:57.895.03-May-2020 4608.48 4148.53 80.16 3.00  88.41 2489.14
   19:39:58.095.03-May-2020 4608.48 4148.89 80.16 3.00  88.61 2489.14
   19:39:58.295.03-May-2020 4608.48 4148.29 80.16 3.00  88.81 2489.14
   19:39:58.495.03-May-2020 4608.48 4148.45 80.16 3.00  89.01 2489.14
   19:39:58.695.03-May-2020 4608.48 4148.45 80.16 3.00  89.21 2489.14
   19:39:58.895.03-May-2020 4608.48 4148.60 80.16 3.00  89.41 2489.14
   19:39:59.095.03-May-2020 4608.48 4148.53 80.16 3.00  89.61 2489.14
   19:39:59.295.03-May-2020 4608.48 4148.97 80.16 3.00  89.81 2489.14
   19:39:59.495.03-May-2020 4608.48 4148.29 80.16 3.00  90.01 2489.14
   19:39:59.695.03-May-2020 4608.48 4148.34 80.16 3.00  90.21 2489.14
   19:39:59.896.03-May-2020 4608.48 4148.48 80.16 3.00  90.41 2489.14
   19:40:00.096.03-May-2020 4608.48 4148.16 80.15 3.00  90.61 2489.14
   19:40:00.296.03-May-2020 4608.48 4149.06 80.15 3.00  90.81 2489.14
   19:40:00.496.03-May-2020 4608.48 4148.64 80.15 3.00  91.01 2489.14
   19:40:00.696.03-May-2020 4608.48 4148.64 80.15 3.00  91.21 2489.14
   19:40:00.896.03-May-2020 4608.48 4148.42 80.15 3.00  91.41 2489.14
   19:40:01.096.03-May-2020 4608.48 4148.48 80.15 3.00  91.61 2489.14
   19:40:01.296.03-May-2020 4608.48 4148.62 80.15 3.00  91.81 2489.14
