~Version Information
 VERS.                  2.0:   CWLS log ASCII Standard -VERSION 2.0
 WRAP.                   NO:   One line per depth step
~Well Information Block
#MNEM.UNIT     VALUE/NAME     DESCRIPTION
#---------     -----------    ---------------------------
 STRT.S             10:50:58 04-May-20: START TIME 10:50:58 04-May-20
 STOP.S             10:57:32 04-May-20: STOP TIME  10:57:32 04-May-20
 STEP.S                   0.00: STEP TIME
 NULL.                 -999.25: NULL VALUE
 DFWT.                        :  DIST FWL TEXT
 DFST.                        :  DIST FSL TEXT
 DMF .             Drill Floor:  DRILL MEAS FROM
 STIM.      03.00.00 25-Mar-20:  START TIME
 DATE.      00.00.00 19-May-20:  END TIME
 SPUD.               27-Aug-20:  SPUD DATE
 NREF.                    Grid:  NORTH REFERENCE
 HPTY.       Minimum Curvature:  HOLE POS TYPE
 DMOD.             Drill Model:  DRILL MOD DESC
 SVYD.                  Survey:  SURVEY DESC
 ILTD.               Lithology:  INTERP LTH DESC
 FTOP.          Formation Tops:  FORM TOPS DESC
 SON .        AZ-XX-0906252240:  JOB NUMBER
 RIG .             West Chirag:  RIG NAME
 PDAT.          Mean Sea Level:  PERMANENT DATUM
 FLD .                     ACG:  FIELD NAME
 CTRY.              Azerbaijan:  COUNTRY NAME
 WELL.                     J23:  WELL NAME
 SRVC.          Turan Drilling:  CONTRACTOR
 COMP.     BP Exploration (Caspian Sea) Ltd.:  COMPANY
 WTYP.                Deviated:  WELL TYPE
 MDS .        Operator Entered:  MAG DATA SOURCE
 UWI .                     N/A:  UNIQUE WELL IDENTIFIER
 API .                     N/A:  API NUMBER
 BASE.              Azerbaijan:  LOGGING EQUIPMENT BASE LOCATION
 REGN.                   EESSA:  REGION
 PROV.                    Baku:  PROVINCE
 STAT.                    Baku:  STATE NAME
 MWDS.                     N/A:  MWD SHOP
 JOBN.        AZ-XX-0906252240:  JOB TICKET NUMB
 DOE .                     N/A:  DOE NUMBER
 DCON.         Sperry Drilling:  DIRECTNL CONTR
 UNIT.                     N/A:  LOGGING EQUIPMENT ID
 CNTY.                        :  COUNTY
 LOC .                        :  LOCATION
 LMF .             Drill Floor:  LOG MEASURED FROM
 TVDS.m                  43.00:  TVDSS CORRECTN
 LATI.deg                40.13:  LATITUDE
 LONG.deg                51.22:  LONGITUDE
 WHNS.m                   9.43:  WELL HEAD N/S
 WHEW.m                  -8.91:  WELL HEAD E/W
 UTMX.m              519005.06:  UTM X
 UTMY.m             4443793.85:  UTM Y
 DFWL.m                   0.00:  DISTANCE FWL
 DFSL.m                   0.00:  DISTANCE FSL
 SDEP.m                 363.00:  START DEPTH
 TDD .m                5150.01:  TOTAL DEPTH (DRILLER)
 VSDR.deg               179.88:  VERT SEC DIRECT
 GVFD.g                   1.00:  GRAVITY FIELD
 MFLD.nT              50295.00:  MAGNETIC FIELD
 MDIP.deg                59.56:  MAGNETIC DIP
 MDEC.deg                 6.45:  MAGNETIC DECL
 GRDC.deg                 0.14:  GRID CORRECTION
 AZTC.deg                 6.31:  AZM TOTAL CORR
 EPD .m                   0.00:  ELEVATION
 EGL .m                   0.00:  GROUND ELEVATION
 WDMS.m                 169.80:  WD ELEV
 APD .m                  43.00:  DEPTH ABOVE PD
 DEP .m                 354.17:  DEPTH
 AGAP.m                  43.00:  AIR GAP
 VSEW.m                  -8.91:  VERT SEC E/W
 VSNS.m                   9.43:  VERT SEC N/S
 EKB .m                   0.00:  KB ELEVATION
 EDF .m                  43.00:  DF ELEVATION
 TDL .m                1351.00:  TOTAL DEPTH (LOGGER)
 VSC .                       0:  VS TO CLOSURE
 MAGU.                 1850802:  MAGUTM CHECKSUM
~Parameter Information Block
#MNEM.UNIT       Value        Description
#---------     -----------    ---------------------------
 AV  .mps                 1.00:  Ann Velocity 
 AVMX.mps                 2.40:  Max Ann Veloc 
 AZIF.deg               148.96:  Azm, Final 
 BHAT.        Rotary Steerable:  BHA Type 
 BROT.°/30m               0.04:  Build Rotating 
 BS  .in                 12.25:  Bit Size 
 BSZ .in                 12.25:  Bit Size 
 BTPL.psig              814.00:  Bit Press Loss 
 TCS .hr                106.00:  Time Ciculation Ended 
 CV  .mps                 2.47:  Crit Velocity 
 CVMX.mps                 2.64:  Max Crit Veloc 
 DD1 .          Rashad Habibov:  Direct Drillr 1 
 DD2 .         Rasim Ibrahimov:  Direct Drillr 2 
 DDSV.                 iCruise:  DD Service 
 DEFF.%                 100.00:  % Det Eff 
 DLRX.°/30m               0.70:  Dogleg Rot Max 
 DLSO.°/30m               3.00:  Dogleg Oriented 
 DLSX.°/30m               4.55:  Dogleg Str Max 
 DRET.      08.08.32 02-May-20:  Drill End Time 
 DRST.      08.08.32 28-Apr-20:  Drill Start Tim 
 DTIM.hr                 60.00:  Time Drilling 
 EDEP.m                4761.01:  End Depth 
 ENG1.           Eldar Hajiyev:  Engineer 1 
 ENG2.        Marcelo Sandoval:  Engineer 2 
 ETIM.      23.23.07 05-May-20:  End Time 
 FLOI.gpm              1200.00:  Flow In 
 FLON.gpm               900.00:  Flow In Min 
 FLOS.cptm                0.00:  Fluid Loss 
 FLOX.gpm              1200.00:  Flow In Max 
 HFLO.                      No:  High Flow 
 HPRE.                      No:  High Pressure 
 HTEM.                      No:  High Temp 
 HYDO.m                   1.80:  Hydro Offset 
 IFIN.deg                68.17:  Inc, Final 
 IMAX.deg                74.61:  Inc Max 
 IMIN.deg                68.15:  Inc Min 
 IMND.m                4317.87:  Inc Min Depth 
 IMXD.m                4714.01:  Inc Max Depth 
 LETM.      08.08.32 02-May-20:  Log End Time 
 LOST.hr                     2:  Lost Rig Time 
 LSTM.      08.08.32 28-Apr-20:  Log Start Time 
 MDCL.ppm             41000.00:  Mud Chlorides 
 MDES.     Inversion Oil/Synthetic:  Mud Desc 
 DFD .sg                  1.58:  Mud Density 
 MDMN.sg                  1.58:  Dens Mud Min 
 MDMX.sg                  1.58:  Dens Mud Max 
 MOIL.                      71:  Run Mud Oil % 
 MOWR.                   71:29:  Run Mud OWR 
 MSND.                     0.1:  Run Mud Sand % 
 MSOL.                      23:  Run Mud Solids% 
 DFV .spqt               82.00:  Mud Viscosity 
 MWOD.in                  8.00:  MWD Tool OD 
 MWSI.                     Yes:  Serv Intrp, MWD 
 OTIM.hr                125.00:  Time Operating 
 PMAX.psia             6129.00:  Press Op, Max 
 PV  .cP                 32.00:  Mud PV 
 RUN .                     800:  Run Number 
 ROPA.m/hr               30.00:  ROP Avg 
 ROPN.m/hr               10.00:  ROP Min 
 ROPX.m/hr               40.00:  ROP Max 
 RPMA.rpm               140.00:  RPM Surface Avg 
 RPMN.rpm                80.00:  RPM Surface Min 
 RPMX.rpm               140.00:  RPM Surface Max 
 RRUN.                    L503:  Rig Run Number 
 RTIM.hr                  2.00:  Time Reaming 
 SAZI.deg               184.23:  Azm, Start 
 SDEP.m                3410.01:  Start Depth 
 SIDD.                      No:  Serv Intrp, DD 
 SINC.deg                68.29:  Inc, Start 
 SPPA.psig             6000.00:  SPP Avg 
 SPPN.psig             4000.00:  SPP Min 
 SPPX.psig             6100.00:  SPP Max 
 STIM.      08.08.32 28-Apr-20:  Start Time 
 SVCS.                 DD, MWD:  Services 
 SVER.                    9.20:  Sperry Version 
 TDAT.m                1351.00:  Tot Depth Attmp 
 TDDF.                      No:  Trip for DD 
 TDLG.m                1351.00:  Tot Depth Loggd 
 TFF .                      No:  Trip for Fail 
 TQAA.f-kp               27.00:  Torque Abs Avg 
 TQAN.f-kp               20.00:  Torque Abs Min 
 TQAX.f-kp               30.00:  Torque Abs Max 
 TRRT.°/30m               0.60:  Turn Rotating 
 MRT .                    EWER:  Maximum Recorded Temperature 
 TTMX.degC               83.00:  Max Tool Temp 
 VS01.                90511138:  Virtual Str1 SN 
 VS02.                90524876:  Virtual Str2 SN 
 VS03.                90524872:  Virtual Str3 SN 
 VS04.                90502750:  Virtual Str4 SN 
 VS05.                12330984:  Virtual Str5 SN 
 WBMN.klb                 0.00:  WOB Min 
 WOBA.klb                15.00:  WOB Avg 
 WOBX.klb                20.00:  WOB Max 
 YP  .lhf2               31.00:  Yield Point 
~Curve Information Block
#MNEM.UNIT                 API CODE     Curve Description
#---------               -----------    ---------------------------
 TIME.HHMMSS            00 000 000 000:  GT Time & Date
 GTDEPTH.m              00 000 000 000:  GT Depth
 GTPQH.psia             00 000 000 000:  GT HR Quartz Pressure
 GTTQ.degC              00 000 000 000:  GT Quartz Temperature
 GTTN.NONE              00 000 000 000:  GT Test Number
 GTET.sec               00 000 000 000:  GT Elapsed Test Time
 GTTVD.m                00 000 000 000:  GT True Vertical Depth
#Other Information
#
#WARRANTY: Halliburton will use its best efforts to furnish customers with 
#accurate information and interpretations that are part of, and incident to, the services 
#provided.  However, Halliburton cannot and does not warrant the accuracy 
#or correctness of such information and interpretations.  Under no circumstances should any 
#such information or interpretation be relied upon as the sole basis for any drilling, 
#completion, production, or financial decision or any procedure involving any risk to the 
#safety of any drilling venture, drilling rig or its crew or any other third party.  The 
#Customer has full responsibility for all drilling, completion and production operation.  
#Halliburton makes no representations or warranties, either expressed or 
#implied, including, but not limited to, the implied warranties of merchantability or fitness 
#for a particular purpose, with respect to the services rendered.  In no event will 
#Halliburton be liable for failure to obtain any particular results or for 
#any damages, including, but not limited to, indirect, special or consequential damages, 
#resulting from the use of any information or interpretation provided by Halliburton.
#
~A           TIME           GTDEPTH  GTPQH  GTTQ  GTTN  GTET   GTTVD  
# ...
   10:56:43.301.04-May-2020 4718.46 4250.63 81.05 6.00 345.05 2519.85
   10:56:43.501.04-May-2020 4718.46 4250.63 81.05 6.00 345.25 2519.85
   10:56:43.701.04-May-2020 4718.46 4250.72 81.05 6.00 345.45 2519.85
   10:56:43.901.04-May-2020 4718.46 4250.60 81.05 6.00 345.65 2519.85
   10:56:44.101.04-May-2020 4718.46 4250.53 81.05 6.00 345.85 2519.85
   10:56:44.301.04-May-2020 4718.46 4250.55 81.05 6.00 346.05 2519.85
   10:56:44.501.04-May-2020 4718.46 4250.55 81.05 6.00 346.25 2519.85
   10:56:44.701.04-May-2020 4718.46 4250.60 81.05 6.00 346.45 2519.85
   10:56:44.901.04-May-2020 4718.46 4250.59 81.04 6.00 346.65 2519.85
   10:56:45.101.04-May-2020 4718.46 4250.63 81.04 6.00 346.85 2519.85
   10:56:45.301.04-May-2020 4718.46 4251.06 81.04 6.00 347.05 2519.85
   10:56:45.501.04-May-2020 4718.46 4251.06 81.04 6.00 347.25 2519.85
   10:56:45.701.04-May-2020 4718.46 4250.85 81.04 6.00 347.45 2519.85
   10:56:45.901.04-May-2020 4718.46 4251.17 81.04 6.00 347.65 2519.85
   10:56:46.101.04-May-2020 4718.46 4250.99 81.04 6.00 347.85 2519.85
   10:56:46.301.04-May-2020 4718.46 4251.01 81.04 6.00 348.05 2519.85
   10:56:46.501.04-May-2020 4718.46 4251.01 81.04 6.00 348.25 2519.85
   10:56:46.701.04-May-2020 4718.46 4250.81 81.04 6.00 348.45 2519.85
   10:56:46.901.04-May-2020 4718.46 4250.77 81.04 6.00 348.65 2519.85
   10:56:47.101.04-May-2020 4718.46 4250.81 81.03 6.00 348.85 2519.85
   10:56:47.301.04-May-2020 4718.46 4250.79 81.03 6.00 349.05 2519.85
   10:56:47.501.04-May-2020 4718.46 4250.79 81.03 6.00 349.25 2519.85
   10:56:47.701.04-May-2020 4718.46 4250.63 81.03 6.00 349.45 2519.85
   10:56:47.901.04-May-2020 4718.46 4250.86 81.03 6.00 349.65 2519.85
   10:56:48.101.04-May-2020 4718.46 4250.57 81.03 6.00 349.85 2519.85
   10:56:48.301.04-May-2020 4718.46 4250.61 81.03 6.00 350.05 2519.85
   10:56:48.501.04-May-2020 4718.46 4250.61 81.03 6.00 350.25 2519.85
   10:56:48.701.04-May-2020 4718.46 4251.20 81.03 6.00 350.45 2519.85
   10:56:48.901.04-May-2020 4718.46 4250.94 81.03 6.00 350.65 2519.85
   10:56:49.101.04-May-2020 4718.46 4250.63 81.03 6.00 350.85 2519.85
   10:56:49.301.04-May-2020 4718.46 4250.91 81.03 6.00 351.05 2519.85
   10:56:49.502.04-May-2020 4718.46 4250.91 81.03 6.00 351.25 2519.85
   10:56:49.702.04-May-2020 4718.46 4251.09 81.02 6.00 351.45 2519.85
   10:56:49.902.04-May-2020 4718.46 4250.73 81.02 6.00 351.65 2519.85
   10:56:50.102.04-May-2020 4718.46 4251.15 81.02 6.00 351.85 2519.85
   10:56:50.302.04-May-2020 4718.46 4250.81 81.02 6.00 352.05 2519.85
   10:56:50.502.04-May-2020 4718.46 4250.81 81.02 6.00 352.25 2519.85
   10:56:50.702.04-May-2020 4718.46 4250.42 81.02 6.00 352.45 2519.85
   10:56:50.902.04-May-2020 4718.46 4250.70 81.02 6.00 352.65 2519.85
   10:56:51.102.04-May-2020 4718.46 4250.56 81.02 6.00 352.85 2519.85
   10:56:51.302.04-May-2020 4718.46 4250.60 81.02 6.00 353.05 2519.85
   10:56:51.502.04-May-2020 4718.46 4250.60 81.02 6.00 353.25 2519.85
   10:56:51.702.04-May-2020 4718.46 4250.57 81.02 6.00 353.45 2519.85
   10:56:51.902.04-May-2020 4718.46 4250.63 81.01 6.00 353.65 2519.85
   10:56:52.102.04-May-2020 4718.46 4250.55 81.01 6.00 353.85 2519.85
   10:56:52.302.04-May-2020 4718.46 4250.56 81.01 6.00 354.05 2519.85
   10:56:52.502.04-May-2020 4718.46 4250.56 81.01 6.00 354.25 2519.85
   10:56:52.702.04-May-2020 4718.46 4250.59 81.01 6.00 354.45 2519.85
   10:56:52.902.04-May-2020 4718.46 4250.62 81.01 6.00 354.65 2519.85
   10:56:53.102.04-May-2020 4718.46 4250.62 81.01 6.00 354.85 2519.85
   10:56:53.302.04-May-2020 4718.46 4250.73 81.01 6.00 355.05 2519.85
   10:56:53.502.04-May-2020 4718.46 4250.73 81.01 6.00 355.26 2519.85
   10:56:53.702.04-May-2020 4718.46 4251.02 81.01 6.00 355.46 2519.85
   10:56:53.902.04-May-2020 4718.46 4250.98 81.01 6.00 355.66 2519.85
   10:56:54.102.04-May-2020 4718.46 4251.02 81.01 6.00 355.86 2519.85
   10:56:54.302.04-May-2020 4718.46 4250.91 81.00 6.00 356.06 2519.85
   10:56:54.502.04-May-2020 4718.46 4250.91 81.00 6.00 356.26 2519.85
   10:56:54.702.04-May-2020 4718.46 4250.86 81.00 6.00 356.46 2519.85
   10:56:54.902.04-May-2020 4718.46 4250.83 81.00 6.00 356.66 2519.85
   10:56:55.102.04-May-2020 4718.46 4250.83 81.00 6.00 356.86 2519.85
   10:56:55.302.04-May-2020 4718.46 4250.84 81.00 6.00 357.06 2519.85
   10:56:55.502.04-May-2020 4718.46 4250.84 81.00 6.00 357.26 2519.85
   10:56:55.702.04-May-2020 4718.46 4250.70 81.00 6.00 357.46 2519.85
   10:56:55.903.04-May-2020 4718.46 4250.57 81.00 6.00 357.66 2519.85
   10:56:56.103.04-May-2020 4718.46 4250.91 81.00 6.00 357.86 2519.85
   10:56:56.303.04-May-2020 4718.46 4250.58 81.00 6.00 358.06 2519.85
   10:56:56.503.04-May-2020 4718.46 4250.58 81.00 6.00 358.26 2519.85
   10:56:56.703.04-May-2020 4718.46 4250.72 80.99 6.00 358.46 2519.85
   10:56:56.903.04-May-2020 4718.46 4250.79 80.99 6.00 358.66 2519.85
   10:56:57.103.04-May-2020 4718.46 4250.81 80.99 6.00 358.86 2519.85
   10:56:57.303.04-May-2020 4718.46 4250.76 80.99 6.00 359.06 2519.85
   10:56:57.503.04-May-2020 4718.46 4250.76 80.99 6.00 359.26 2519.85
   10:56:57.703.04-May-2020 4718.46 4251.14 80.99 6.00 359.46 2519.85
   10:56:57.903.04-May-2020 4718.46 4251.03 80.99 6.00 359.66 2519.85
   10:56:58.103.04-May-2020 4718.46 4250.89 80.99 6.00 359.86 2519.85
   10:56:58.303.04-May-2020 4718.46 4250.91 80.99 6.00 360.06 2519.85
   10:56:58.503.04-May-2020 4718.46 4250.91 80.99 6.00 360.26 2519.85
   10:56:58.703.04-May-2020 4718.46 4250.71 80.99 6.00 360.46 2519.85
   10:56:58.903.04-May-2020 4718.46 4250.79 80.99 6.00 360.66 2519.85
   10:56:59.103.04-May-2020 4718.46 4250.65 80.98 6.00 360.86 2519.85
   10:56:59.303.04-May-2020 4718.46 4250.52 80.98 6.00 361.06 2519.85
   10:56:59.503.04-May-2020 4718.46 4250.52 80.98 6.00 361.26 2519.85
   10:56:59.703.04-May-2020 4718.46 4250.62 80.98 6.00 361.46 2519.85
   10:56:59.903.04-May-2020 4718.46 4250.60 80.98 6.00 361.66 2519.85
   10:57:00.103.04-May-2020 4718.46 4250.61 80.98 6.00 361.86 2519.85
   10:57:00.303.04-May-2020 4718.46 4250.56 80.98 6.00 362.06 2519.85
   10:57:00.503.04-May-2020 4718.46 4250.56 80.98 6.00 362.26 2519.85
   10:57:00.703.04-May-2020 4718.46 4250.63 80.98 6.00 362.46 2519.85
   10:57:00.903.04-May-2020 4718.46 4250.61 80.98 6.00 362.66 2519.85
   10:57:01.103.04-May-2020 4718.46 4250.62 80.98 6.00 362.86 2519.85
   10:57:01.303.04-May-2020 4718.46 4258.28 80.98 6.00 363.06 2519.85
   10:57:01.503.04-May-2020 4718.46 4258.28 80.98 6.00 363.26 2519.85
   10:57:01.703.04-May-2020 4718.46 4519.66 80.97 6.00 363.46 2519.85
   10:57:01.903.04-May-2020 4718.46 5249.25 80.97 6.00 363.66 2519.85
   10:57:02.103.04-May-2020 4718.46 5819.98 80.97 6.00 363.86 2519.85
   10:57:02.304.04-May-2020 4718.46 5820.59 80.97 6.00 364.06 2519.85
   10:57:02.504.04-May-2020 4718.46 5820.59 80.97 6.00 364.26 2519.85
   10:57:02.704.04-May-2020 4718.46 5820.28 80.97 6.00 364.46 2519.85
   10:57:02.904.04-May-2020 4718.46 5820.98 80.97 6.00 364.66 2519.85
   10:57:03.104.04-May-2020 4718.46 5821.31 80.97 6.00 364.86 2519.85
   10:57:03.304.04-May-2020 4718.46 5821.83 80.97 6.00 365.06 2519.85
   10:57:03.504.04-May-2020 4718.46 5821.83 80.97 6.00 365.26 2519.85
   10:57:03.704.04-May-2020 4718.46 5821.23 80.97 6.00 365.46 2519.85
   10:57:03.904.04-May-2020 4718.46 5820.59 80.97 6.00 365.66 2519.85
   10:57:04.104.04-May-2020 4718.46 5825.62 80.97 6.00 365.86 2519.85
   10:57:04.304.04-May-2020 4718.46 5821.64 80.97 6.00 366.06 2519.85
   10:57:04.504.04-May-2020 4718.46 5821.64 80.97 6.00 366.26 2519.85
   10:57:04.704.04-May-2020 4718.46 5823.74 80.97 6.00 366.46 2519.85
   10:57:04.904.04-May-2020 4718.46 5823.49 80.97 6.00 366.66 2519.85
   10:57:05.104.04-May-2020 4718.46 5822.14 80.97 6.00 366.86 2519.85
   10:57:05.304.04-May-2020 4718.46 5823.01 80.97 6.00 367.06 2519.85
   10:57:05.504.04-May-2020 4718.46 5828.65 80.97 6.00 367.26 2519.85
   10:57:05.704.04-May-2020 4718.46 5824.45 80.97 6.00 367.46 2519.85
   10:57:05.904.04-May-2020 4718.46 5822.84 80.97 6.00 367.66 2519.85
   10:57:06.104.04-May-2020 4718.46 5823.83 80.97 6.00 367.86 2519.85
