~Version Information
 VERS.                  2.0:   CWLS log ASCII Standard -VERSION 2.0
 WRAP.                   NO:   One line per depth step
~Well Information Block
#MNEM.UNIT     VALUE/NAME     DESCRIPTION
#---------     -----------    ---------------------------
 STRT.S             00:33:44 04-May-20: START TIME 00:33:44 04-May-20
 STOP.S             00:40:14 04-May-20: STOP TIME  00:40:14 04-May-20
 STEP.S                   0.00: STEP TIME
 NULL.                 -999.25: NULL VALUE
 DFWT.                        :  DIST FWL TEXT
 DFST.                        :  DIST FSL TEXT
 DMF .             Drill Floor:  DRILL MEAS FROM
 STIM.      03.00.00 25-Mar-20:  START TIME
 DATE.      00.00.00 19-May-20:  END TIME
 SPUD.               27-Aug-20:  SPUD DATE
 NREF.                    Grid:  NORTH REFERENCE
 HPTY.       Minimum Curvature:  HOLE POS TYPE
 DMOD.             Drill Model:  DRILL MOD DESC
 SVYD.                  Survey:  SURVEY DESC
 ILTD.               Lithology:  INTERP LTH DESC
 FTOP.          Formation Tops:  FORM TOPS DESC
 SON .        AZ-XX-0906252240:  JOB NUMBER
 RIG .             West Chirag:  RIG NAME
 PDAT.          Mean Sea Level:  PERMANENT DATUM
 FLD .                     ACG:  FIELD NAME
 CTRY.              Azerbaijan:  COUNTRY NAME
 WELL.                     J23:  WELL NAME
 SRVC.          Turan Drilling:  CONTRACTOR
 COMP.     BP Exploration (Caspian Sea) Ltd.:  COMPANY
 WTYP.                Deviated:  WELL TYPE
 MDS .        Operator Entered:  MAG DATA SOURCE
 UWI .                     N/A:  UNIQUE WELL IDENTIFIER
 API .                     N/A:  API NUMBER
 BASE.              Azerbaijan:  LOGGING EQUIPMENT BASE LOCATION
 REGN.                   EESSA:  REGION
 PROV.                    Baku:  PROVINCE
 STAT.                    Baku:  STATE NAME
 MWDS.                     N/A:  MWD SHOP
 JOBN.        AZ-XX-0906252240:  JOB TICKET NUMB
 DOE .                     N/A:  DOE NUMBER
 DCON.         Sperry Drilling:  DIRECTNL CONTR
 UNIT.                     N/A:  LOGGING EQUIPMENT ID
 CNTY.                        :  COUNTY
 LOC .                        :  LOCATION
 LMF .             Drill Floor:  LOG MEASURED FROM
 TVDS.m                  43.00:  TVDSS CORRECTN
 LATI.deg                40.13:  LATITUDE
 LONG.deg                51.22:  LONGITUDE
 WHNS.m                   9.43:  WELL HEAD N/S
 WHEW.m                  -8.91:  WELL HEAD E/W
 UTMX.m              519005.06:  UTM X
 UTMY.m             4443793.85:  UTM Y
 DFWL.m                   0.00:  DISTANCE FWL
 DFSL.m                   0.00:  DISTANCE FSL
 SDEP.m                 363.00:  START DEPTH
 TDD .m                5150.01:  TOTAL DEPTH (DRILLER)
 VSDR.deg               179.88:  VERT SEC DIRECT
 GVFD.g                   1.00:  GRAVITY FIELD
 MFLD.nT              50295.00:  MAGNETIC FIELD
 MDIP.deg                59.56:  MAGNETIC DIP
 MDEC.deg                 6.45:  MAGNETIC DECL
 GRDC.deg                 0.14:  GRID CORRECTION
 AZTC.deg                 6.31:  AZM TOTAL CORR
 EPD .m                   0.00:  ELEVATION
 EGL .m                   0.00:  GROUND ELEVATION
 WDMS.m                 169.80:  WD ELEV
 APD .m                  43.00:  DEPTH ABOVE PD
 DEP .m                 354.17:  DEPTH
 AGAP.m                  43.00:  AIR GAP
 VSEW.m                  -8.91:  VERT SEC E/W
 VSNS.m                   9.43:  VERT SEC N/S
 EKB .m                   0.00:  KB ELEVATION
 EDF .m                  43.00:  DF ELEVATION
 TDL .m                1351.00:  TOTAL DEPTH (LOGGER)
 VSC .                       0:  VS TO CLOSURE
 MAGU.                 1850802:  MAGUTM CHECKSUM
~Parameter Information Block
#MNEM.UNIT       Value        Description
#---------     -----------    ---------------------------
 AV  .mps                 1.00:  Ann Velocity 
 AVMX.mps                 2.40:  Max Ann Veloc 
 AZIF.deg               148.96:  Azm, Final 
 BHAT.        Rotary Steerable:  BHA Type 
 BROT.°/30m               0.04:  Build Rotating 
 BS  .in                 12.25:  Bit Size 
 BSZ .in                 12.25:  Bit Size 
 BTPL.psig              814.00:  Bit Press Loss 
 TCS .hr                106.00:  Time Ciculation Ended 
 CV  .mps                 2.47:  Crit Velocity 
 CVMX.mps                 2.64:  Max Crit Veloc 
 DD1 .          Rashad Habibov:  Direct Drillr 1 
 DD2 .         Rasim Ibrahimov:  Direct Drillr 2 
 DDSV.                 iCruise:  DD Service 
 DEFF.%                 100.00:  % Det Eff 
 DLRX.°/30m               0.70:  Dogleg Rot Max 
 DLSO.°/30m               3.00:  Dogleg Oriented 
 DLSX.°/30m               4.55:  Dogleg Str Max 
 DRET.      08.08.32 02-May-20:  Drill End Time 
 DRST.      08.08.32 28-Apr-20:  Drill Start Tim 
 DTIM.hr                 60.00:  Time Drilling 
 EDEP.m                4761.01:  End Depth 
 ENG1.           Eldar Hajiyev:  Engineer 1 
 ENG2.        Marcelo Sandoval:  Engineer 2 
 ETIM.      23.23.07 05-May-20:  End Time 
 FLOI.gpm              1200.00:  Flow In 
 FLON.gpm               900.00:  Flow In Min 
 FLOS.cptm                0.00:  Fluid Loss 
 FLOX.gpm              1200.00:  Flow In Max 
 HFLO.                      No:  High Flow 
 HPRE.                      No:  High Pressure 
 HTEM.                      No:  High Temp 
 HYDO.m                   1.80:  Hydro Offset 
 IFIN.deg                68.17:  Inc, Final 
 IMAX.deg                74.61:  Inc Max 
 IMIN.deg                68.15:  Inc Min 
 IMND.m                4317.87:  Inc Min Depth 
 IMXD.m                4714.01:  Inc Max Depth 
 LETM.      08.08.32 02-May-20:  Log End Time 
 LOST.hr                     2:  Lost Rig Time 
 LSTM.      08.08.32 28-Apr-20:  Log Start Time 
 MDCL.ppm             41000.00:  Mud Chlorides 
 MDES.     Inversion Oil/Synthetic:  Mud Desc 
 DFD .sg                  1.58:  Mud Density 
 MDMN.sg                  1.58:  Dens Mud Min 
 MDMX.sg                  1.58:  Dens Mud Max 
 MOIL.                      71:  Run Mud Oil % 
 MOWR.                   71:29:  Run Mud OWR 
 MSND.                     0.1:  Run Mud Sand % 
 MSOL.                      23:  Run Mud Solids% 
 DFV .spqt               82.00:  Mud Viscosity 
 MWOD.in                  8.00:  MWD Tool OD 
 MWSI.                     Yes:  Serv Intrp, MWD 
 OTIM.hr                125.00:  Time Operating 
 PMAX.psia             6129.00:  Press Op, Max 
 PV  .cP                 32.00:  Mud PV 
 RUN .                     800:  Run Number 
 ROPA.m/hr               30.00:  ROP Avg 
 ROPN.m/hr               10.00:  ROP Min 
 ROPX.m/hr               40.00:  ROP Max 
 RPMA.rpm               140.00:  RPM Surface Avg 
 RPMN.rpm                80.00:  RPM Surface Min 
 RPMX.rpm               140.00:  RPM Surface Max 
 RRUN.                    L503:  Rig Run Number 
 RTIM.hr                  2.00:  Time Reaming 
 SAZI.deg               184.23:  Azm, Start 
 SDEP.m                3410.01:  Start Depth 
 SIDD.                      No:  Serv Intrp, DD 
 SINC.deg                68.29:  Inc, Start 
 SPPA.psig             6000.00:  SPP Avg 
 SPPN.psig             4000.00:  SPP Min 
 SPPX.psig             6100.00:  SPP Max 
 STIM.      08.08.32 28-Apr-20:  Start Time 
 SVCS.                 DD, MWD:  Services 
 SVER.                    9.20:  Sperry Version 
 TDAT.m                1351.00:  Tot Depth Attmp 
 TDDF.                      No:  Trip for DD 
 TDLG.m                1351.00:  Tot Depth Loggd 
 TFF .                      No:  Trip for Fail 
 TQAA.f-kp               27.00:  Torque Abs Avg 
 TQAN.f-kp               20.00:  Torque Abs Min 
 TQAX.f-kp               30.00:  Torque Abs Max 
 TRRT.°/30m               0.60:  Turn Rotating 
 MRT .                    EWER:  Maximum Recorded Temperature 
 TTMX.degC               83.00:  Max Tool Temp 
 VS01.                90511138:  Virtual Str1 SN 
 VS02.                90524876:  Virtual Str2 SN 
 VS03.                90524872:  Virtual Str3 SN 
 VS04.                90502750:  Virtual Str4 SN 
 VS05.                12330984:  Virtual Str5 SN 
 WBMN.klb                 0.00:  WOB Min 
 WOBA.klb                15.00:  WOB Avg 
 WOBX.klb                20.00:  WOB Max 
 YP  .lhf2               31.00:  Yield Point 
~Curve Information Block
#MNEM.UNIT                 API CODE     Curve Description
#---------               -----------    ---------------------------
 TIME.HHMMSS            00 000 000 000:  GT Time & Date
 GTDEPTH.m              00 000 000 000:  GT Depth
 GTPQH.psia             00 000 000 000:  GT HR Quartz Pressure
 GTTQ.degC              00 000 000 000:  GT Quartz Temperature
 GTTN.NONE              00 000 000 000:  GT Test Number
 GTET.sec               00 000 000 000:  GT Elapsed Test Time
 GTTVD.m                00 000 000 000:  GT True Vertical Depth
#Other Information
#
#WARRANTY: Halliburton will use its best efforts to furnish customers with 
#accurate information and interpretations that are part of, and incident to, the services 
#provided.  However, Halliburton cannot and does not warrant the accuracy 
#or correctness of such information and interpretations.  Under no circumstances should any 
#such information or interpretation be relied upon as the sole basis for any drilling, 
#completion, production, or financial decision or any procedure involving any risk to the 
#safety of any drilling venture, drilling rig or its crew or any other third party.  The 
#Customer has full responsibility for all drilling, completion and production operation.  
#Halliburton makes no representations or warranties, either expressed or 
#implied, including, but not limited to, the implied warranties of merchantability or fitness 
#for a particular purpose, with respect to the services rendered.  In no event will 
#Halliburton be liable for failure to obtain any particular results or for 
#any damages, including, but not limited to, indirect, special or consequential damages, 
#resulting from the use of any information or interpretation provided by Halliburton.
#
~A           TIME           GTDEPTH  GTPQH  GTTQ  GTTN  GTET   GTTVD  
# ...
   00:34:53.322.04-May-2020 4661.71  168.73 81.02 4.00  69.01 2504.33
   00:34:53.522.04-May-2020 4661.71  168.73 81.02 4.00  69.21 2504.33
   00:34:53.722.04-May-2020 4661.71  169.41 81.02 4.00  69.41 2504.33
   00:34:53.922.04-May-2020 4661.71  169.82 81.02 4.00  69.61 2504.33
   00:34:54.123.04-May-2020 4661.71  170.17 81.02 4.00  69.81 2504.33
   00:34:54.323.04-May-2020 4661.71  170.51 81.02 4.00  70.01 2504.33
   00:34:54.523.04-May-2020 4661.71  170.51 81.02 4.00  70.21 2504.33
   00:34:54.723.04-May-2020 4661.71  171.15 81.02 4.00  70.41 2504.33
   00:34:54.923.04-May-2020 4661.71  171.53 81.02 4.00  70.61 2504.33
   00:34:55.123.04-May-2020 4661.71  171.86 81.02 4.00  70.81 2504.33
   00:34:55.323.04-May-2020 4661.71  172.17 81.02 4.00  71.01 2504.33
   00:34:55.523.04-May-2020 4661.71  172.17 81.02 4.00  71.21 2504.33
   00:34:55.723.04-May-2020 4661.71  172.76 81.01 4.00  71.41 2504.33
   00:34:55.923.04-May-2020 4661.71  173.03 81.01 4.00  71.61 2504.33
   00:34:56.123.04-May-2020 4661.71  173.32 81.01 4.00  71.81 2504.33
   00:34:56.323.04-May-2020 4661.71  173.59 81.01 4.00  72.01 2504.33
   00:34:56.523.04-May-2020 4661.71  173.59 81.01 4.00  72.21 2504.33
   00:34:56.723.04-May-2020 4661.71  174.12 81.01 4.00  72.41 2504.33
   00:34:56.923.04-May-2020 4661.71  174.39 81.01 4.00  72.61 2504.33
   00:34:57.123.04-May-2020 4661.71  174.64 81.01 4.00  72.81 2504.33
   00:34:57.323.04-May-2020 4661.71  174.86 81.01 4.00  73.01 2504.33
   00:34:57.523.04-May-2020 4661.71  174.86 81.01 4.00  73.21 2504.33
   00:34:57.723.04-May-2020 4661.71  175.48 81.01 4.00  73.41 2504.33
   00:34:57.923.04-May-2020 4661.71  175.74 81.01 4.00  73.61 2504.33
   00:34:58.123.04-May-2020 4661.71  176.01 81.01 4.00  73.81 2504.33
   00:34:58.323.04-May-2020 4661.71  176.24 81.01 4.00  74.01 2504.33
   00:34:58.523.04-May-2020 4661.71  176.24 81.01 4.00  74.21 2504.33
   00:34:58.723.04-May-2020 4661.71  176.73 81.01 4.00  74.41 2504.33
   00:34:58.923.04-May-2020 4661.71  176.97 81.01 4.00  74.61 2504.33
   00:34:59.123.04-May-2020 4661.71  177.20 81.01 4.00  74.81 2504.33
   00:34:59.323.04-May-2020 4661.71  177.42 81.01 4.00  75.01 2504.33
   00:34:59.523.04-May-2020 4661.71  177.42 81.01 4.00  75.21 2504.33
   00:34:59.723.04-May-2020 4661.71  177.80 81.01 4.00  75.41 2504.33
   00:34:59.923.04-May-2020 4661.71  178.07 81.01 4.00  75.61 2504.33
   00:35:00.123.04-May-2020 4661.71  178.31 81.01 4.00  75.81 2504.33
   00:35:00.323.04-May-2020 4661.71  178.55 81.01 4.00  76.01 2504.33
   00:35:00.523.04-May-2020 4661.71  178.55 81.01 4.00  76.21 2504.33
   00:35:00.723.04-May-2020 4661.71  179.09 81.00 4.00  76.41 2504.33
   00:35:00.923.04-May-2020 4661.71  179.32 81.00 4.00  76.61 2504.33
   00:35:01.123.04-May-2020 4661.71  179.51 81.00 4.00  76.81 2504.33
   00:35:01.323.04-May-2020 4661.71  179.71 81.00 4.00  77.01 2504.33
   00:35:01.523.04-May-2020 4661.71  179.97 81.00 4.00  77.21 2504.33
   00:35:01.723.04-May-2020 4661.71  180.19 81.00 4.00  77.41 2504.33
   00:35:01.923.04-May-2020 4661.71  180.39 81.00 4.00  77.61 2504.33
   00:35:02.123.04-May-2020 4661.71  180.64 81.00 4.00  77.81 2504.33
   00:35:02.323.04-May-2020 4661.71  180.87 81.00 4.00  78.01 2504.33
   00:35:02.523.04-May-2020 4661.71  180.87 81.00 4.00  78.21 2504.33
   00:35:02.723.04-May-2020 4661.71  181.25 81.00 4.00  78.41 2504.33
   00:35:02.923.04-May-2020 4661.71  181.51 81.00 4.00  78.61 2504.33
   00:35:03.123.04-May-2020 4661.71  181.71 81.00 4.00  78.81 2504.33
   00:35:03.323.04-May-2020 4661.71  181.91 81.00 4.00  79.01 2504.33
   00:35:03.523.04-May-2020 4661.71  182.10 81.00 4.00  79.21 2504.33
   00:35:03.723.04-May-2020 4661.71  182.28 81.00 4.00  79.41 2504.33
   00:35:03.923.04-May-2020 4661.71  182.45 81.00 4.00  79.61 2504.33
   00:35:04.123.04-May-2020 4661.71  182.64 81.00 4.00  79.81 2504.33
   00:35:04.323.04-May-2020 4661.71  182.81 81.00 4.00  80.01 2504.33
   00:35:04.523.04-May-2020 4661.71  182.81 81.00 4.00  80.21 2504.33
   00:35:04.723.04-May-2020 4661.71  183.14 81.00 4.00  80.41 2504.33
   00:35:04.923.04-May-2020 4661.71  183.30 81.00 4.00  80.61 2504.33
   00:35:05.123.04-May-2020 4661.71  183.48 81.00 4.00  80.81 2504.33
   00:35:05.324.04-May-2020 4661.71  183.57 81.00 4.00  81.01 2504.33
   00:35:05.524.04-May-2020 4661.71  183.57 81.00 4.00  81.21 2504.33
   00:35:05.724.04-May-2020 4661.71  183.98 80.99 4.00  81.41 2504.33
   00:35:05.924.04-May-2020 4661.71  184.16 80.99 4.00  81.61 2504.33
   00:35:06.124.04-May-2020 4661.71  184.34 80.99 4.00  81.81 2504.33
   00:35:06.324.04-May-2020 4661.71  184.49 80.99 4.00  82.01 2504.33
   00:35:06.524.04-May-2020 4661.71  184.66 80.99 4.00  82.21 2504.33
   00:35:06.724.04-May-2020 4661.71  184.81 80.99 4.00  82.41 2504.33
   00:35:06.924.04-May-2020 4661.71  184.97 80.99 4.00  82.61 2504.33
   00:35:07.124.04-May-2020 4661.71  185.11 80.99 4.00  82.81 2504.33
   00:35:07.324.04-May-2020 4661.71  185.25 80.99 4.00  83.01 2504.33
   00:35:07.524.04-May-2020 4661.71  185.25 80.99 4.00  83.21 2504.33
   00:35:07.724.04-May-2020 4661.71  185.51 80.99 4.00  83.41 2504.33
   00:35:07.924.04-May-2020 4661.71  185.65 80.99 4.00  83.61 2504.33
   00:35:08.124.04-May-2020 4661.71  185.85 80.99 4.00  83.81 2504.33
   00:35:08.324.04-May-2020 4661.71  186.00 80.99 4.00  84.01 2504.33
   00:35:08.524.04-May-2020 4661.71  186.20 80.99 4.00  84.21 2504.33
   00:35:08.724.04-May-2020 4661.71  186.40 80.99 4.00  84.41 2504.33
   00:35:08.924.04-May-2020 4661.71  186.57 80.99 4.00  84.61 2504.33
   00:35:09.124.04-May-2020 4661.71  186.72 80.99 4.00  84.81 2504.33
   00:35:09.324.04-May-2020 4661.71  186.81 80.99 4.00  85.01 2504.33
   00:35:09.524.04-May-2020 4661.71  186.99 80.99 4.00  85.21 2504.33
   00:35:09.724.04-May-2020 4661.71  187.18 80.99 4.00  85.41 2504.33
   00:35:09.924.04-May-2020 4661.71  187.31 80.99 4.00  85.61 2504.33
   00:35:10.124.04-May-2020 4661.71  187.44 80.99 4.00  85.81 2504.33
   00:35:10.324.04-May-2020 4661.71  187.64 80.98 4.00  86.01 2504.33
   00:35:10.524.04-May-2020 4661.71  187.80 80.98 4.00  86.21 2504.33
   00:35:10.724.04-May-2020 4661.71  187.96 80.98 4.00  86.41 2504.33
   00:35:10.924.04-May-2020 4661.71  188.07 80.98 4.00  86.61 2504.33
   00:35:11.124.04-May-2020 4661.71  188.18 80.98 4.00  86.81 2504.33
   00:35:11.324.04-May-2020 4661.71  188.37 80.98 4.00  87.01 2504.33
   00:35:11.524.04-May-2020 4661.71  188.52 80.98 4.00  87.21 2504.33
   00:35:11.724.04-May-2020 4661.71  188.67 80.98 4.00  87.41 2504.33
   00:35:11.924.04-May-2020 4661.71  188.79 80.98 4.00  87.61 2504.33
   00:35:12.124.04-May-2020 4661.71  188.92 80.98 4.00  87.81 2504.33
   00:35:12.324.04-May-2020 4661.71  189.04 80.98 4.00  88.01 2504.33
   00:35:12.524.04-May-2020 4661.71  189.04 80.98 4.00  88.21 2504.33
   00:35:12.724.04-May-2020 4661.71  189.27 80.98 4.00  88.41 2504.33
   00:35:12.924.04-May-2020 4661.71  189.38 80.98 4.00  88.61 2504.33
   00:35:13.124.04-May-2020 4661.71  189.50 80.98 4.00  88.81 2504.33
   00:35:13.324.04-May-2020 4661.71  189.61 80.98 4.00  89.01 2504.33
   00:35:13.524.04-May-2020 4661.71  189.61 80.98 4.00  89.21 2504.33
   00:35:13.724.04-May-2020 4661.71  189.76 80.98 4.00  89.41 2504.33
   00:35:13.924.04-May-2020 4661.71  189.86 80.98 4.00  89.61 2504.33
   00:35:14.124.04-May-2020 4661.71  190.03 80.98 4.00  89.81 2504.33
   00:35:14.324.04-May-2020 4661.71  190.16 80.98 4.00  90.01 2504.33
   00:35:14.524.04-May-2020 4661.71  190.16 80.98 4.00  90.21 2504.33
   00:35:14.724.04-May-2020 4661.71  190.39 80.97 4.00  90.41 2504.33
   00:35:14.924.04-May-2020 4661.71  190.51 80.97 4.00  90.61 2504.33
   00:35:15.124.04-May-2020 4661.71  190.62 80.97 4.00  90.81 2504.33
   00:35:15.324.04-May-2020 4661.71  190.72 80.97 4.00  91.01 2504.33
   00:35:15.524.04-May-2020 4661.71  190.72 80.97 4.00  91.21 2504.33
   00:35:15.724.04-May-2020 4661.71  190.93 80.97 4.00  91.41 2504.33
   00:35:15.924.04-May-2020 4661.71  191.03 80.97 4.00  91.61 2504.33
   00:35:16.124.04-May-2020 4661.71  191.10 80.97 4.00  91.81 2504.33
