~Version Information
 VERS.                  2.0:   CWLS log ASCII Standard -VERSION 2.0
 WRAP.                   NO:   One line per depth step
~Well Information Block
#MNEM.UNIT     VALUE/NAME     DESCRIPTION
#---------     -----------    ---------------------------
 STRT.S             00:33:44 04-May-20: START TIME 00:33:44 04-May-20
 STOP.S             00:40:14 04-May-20: STOP TIME  00:40:14 04-May-20
 STEP.S                   0.00: STEP TIME
 NULL.                 -999.25: NULL VALUE
 DFWT.                        :  DIST FWL TEXT
 DFST.                        :  DIST FSL TEXT
 DMF .             Drill Floor:  DRILL MEAS FROM
 STIM.      03.00.00 25-Mar-20:  START TIME
 DATE.      00.00.00 19-May-20:  END TIME
 SPUD.               27-Aug-20:  SPUD DATE
 NREF.                    Grid:  NORTH REFERENCE
 HPTY.       Minimum Curvature:  HOLE POS TYPE
 DMOD.             Drill Model:  DRILL MOD DESC
 SVYD.                  Survey:  SURVEY DESC
 ILTD.               Lithology:  INTERP LTH DESC
 FTOP.          Formation Tops:  FORM TOPS DESC
 SON .        AZ-XX-0906252240:  JOB NUMBER
 RIG .             West Chirag:  RIG NAME
 PDAT.          Mean Sea Level:  PERMANENT DATUM
 FLD .                     ACG:  FIELD NAME
 CTRY.              Azerbaijan:  COUNTRY NAME
 WELL.                     J23:  WELL NAME
 SRVC.          Turan Drilling:  CONTRACTOR
 COMP.     BP Exploration (Caspian Sea) Ltd.:  COMPANY
 WTYP.                Deviated:  WELL TYPE
 MDS .        Operator Entered:  MAG DATA SOURCE
 UWI .                     N/A:  UNIQUE WELL IDENTIFIER
 API .                     N/A:  API NUMBER
 BASE.              Azerbaijan:  LOGGING EQUIPMENT BASE LOCATION
 REGN.                   EESSA:  REGION
 PROV.                    Baku:  PROVINCE
 STAT.                    Baku:  STATE NAME
 MWDS.                     N/A:  MWD SHOP
 JOBN.        AZ-XX-0906252240:  JOB TICKET NUMB
 DOE .                     N/A:  DOE NUMBER
 DCON.         Sperry Drilling:  DIRECTNL CONTR
 UNIT.                     N/A:  LOGGING EQUIPMENT ID
 CNTY.                        :  COUNTY
 LOC .                        :  LOCATION
 LMF .             Drill Floor:  LOG MEASURED FROM
 TVDS.m                  43.00:  TVDSS CORRECTN
 LATI.deg                40.13:  LATITUDE
 LONG.deg                51.22:  LONGITUDE
 WHNS.m                   9.43:  WELL HEAD N/S
 WHEW.m                  -8.91:  WELL HEAD E/W
 UTMX.m              519005.06:  UTM X
 UTMY.m             4443793.85:  UTM Y
 DFWL.m                   0.00:  DISTANCE FWL
 DFSL.m                   0.00:  DISTANCE FSL
 SDEP.m                 363.00:  START DEPTH
 TDD .m                5150.01:  TOTAL DEPTH (DRILLER)
 VSDR.deg               179.88:  VERT SEC DIRECT
 GVFD.g                   1.00:  GRAVITY FIELD
 MFLD.nT              50295.00:  MAGNETIC FIELD
 MDIP.deg                59.56:  MAGNETIC DIP
 MDEC.deg                 6.45:  MAGNETIC DECL
 GRDC.deg                 0.14:  GRID CORRECTION
 AZTC.deg                 6.31:  AZM TOTAL CORR
 EPD .m                   0.00:  ELEVATION
 EGL .m                   0.00:  GROUND ELEVATION
 WDMS.m                 169.80:  WD ELEV
 APD .m                  43.00:  DEPTH ABOVE PD
 DEP .m                 354.17:  DEPTH
 AGAP.m                  43.00:  AIR GAP
 VSEW.m                  -8.91:  VERT SEC E/W
 VSNS.m                   9.43:  VERT SEC N/S
 EKB .m                   0.00:  KB ELEVATION
 EDF .m                  43.00:  DF ELEVATION
 TDL .m                1351.00:  TOTAL DEPTH (LOGGER)
 VSC .                       0:  VS TO CLOSURE
 MAGU.                 1850802:  MAGUTM CHECKSUM
~Parameter Information Block
#MNEM.UNIT       Value        Description
#---------     -----------    ---------------------------
 AV  .mps                 1.00:  Ann Velocity 
 AVMX.mps                 2.40:  Max Ann Veloc 
 AZIF.deg               148.96:  Azm, Final 
 BHAT.        Rotary Steerable:  BHA Type 
 BROT.°/30m               0.04:  Build Rotating 
 BS  .in                 12.25:  Bit Size 
 BSZ .in                 12.25:  Bit Size 
 BTPL.psig              814.00:  Bit Press Loss 
 TCS .hr                106.00:  Time Ciculation Ended 
 CV  .mps                 2.47:  Crit Velocity 
 CVMX.mps                 2.64:  Max Crit Veloc 
 DD1 .          Rashad Habibov:  Direct Drillr 1 
 DD2 .         Rasim Ibrahimov:  Direct Drillr 2 
 DDSV.                 iCruise:  DD Service 
 DEFF.%                 100.00:  % Det Eff 
 DLRX.°/30m               0.70:  Dogleg Rot Max 
 DLSO.°/30m               3.00:  Dogleg Oriented 
 DLSX.°/30m               4.55:  Dogleg Str Max 
 DRET.      08.08.32 02-May-20:  Drill End Time 
 DRST.      08.08.32 28-Apr-20:  Drill Start Tim 
 DTIM.hr                 60.00:  Time Drilling 
 EDEP.m                4761.01:  End Depth 
 ENG1.           Eldar Hajiyev:  Engineer 1 
 ENG2.        Marcelo Sandoval:  Engineer 2 
 ETIM.      23.23.07 05-May-20:  End Time 
 FLOI.gpm              1200.00:  Flow In 
 FLON.gpm               900.00:  Flow In Min 
 FLOS.cptm                0.00:  Fluid Loss 
 FLOX.gpm              1200.00:  Flow In Max 
 HFLO.                      No:  High Flow 
 HPRE.                      No:  High Pressure 
 HTEM.                      No:  High Temp 
 HYDO.m                   1.80:  Hydro Offset 
 IFIN.deg                68.17:  Inc, Final 
 IMAX.deg                74.61:  Inc Max 
 IMIN.deg                68.15:  Inc Min 
 IMND.m                4317.87:  Inc Min Depth 
 IMXD.m                4714.01:  Inc Max Depth 
 LETM.      08.08.32 02-May-20:  Log End Time 
 LOST.hr                     2:  Lost Rig Time 
 LSTM.      08.08.32 28-Apr-20:  Log Start Time 
 MDCL.ppm             41000.00:  Mud Chlorides 
 MDES.     Inversion Oil/Synthetic:  Mud Desc 
 DFD .sg                  1.58:  Mud Density 
 MDMN.sg                  1.58:  Dens Mud Min 
 MDMX.sg                  1.58:  Dens Mud Max 
 MOIL.                      71:  Run Mud Oil % 
 MOWR.                   71:29:  Run Mud OWR 
 MSND.                     0.1:  Run Mud Sand % 
 MSOL.                      23:  Run Mud Solids% 
 DFV .spqt               82.00:  Mud Viscosity 
 MWOD.in                  8.00:  MWD Tool OD 
 MWSI.                     Yes:  Serv Intrp, MWD 
 OTIM.hr                125.00:  Time Operating 
 PMAX.psia             6129.00:  Press Op, Max 
 PV  .cP                 32.00:  Mud PV 
 RUN .                     800:  Run Number 
 ROPA.m/hr               30.00:  ROP Avg 
 ROPN.m/hr               10.00:  ROP Min 
 ROPX.m/hr               40.00:  ROP Max 
 RPMA.rpm               140.00:  RPM Surface Avg 
 RPMN.rpm                80.00:  RPM Surface Min 
 RPMX.rpm               140.00:  RPM Surface Max 
 RRUN.                    L503:  Rig Run Number 
 RTIM.hr                  2.00:  Time Reaming 
 SAZI.deg               184.23:  Azm, Start 
 SDEP.m                3410.01:  Start Depth 
 SIDD.                      No:  Serv Intrp, DD 
 SINC.deg                68.29:  Inc, Start 
 SPPA.psig             6000.00:  SPP Avg 
 SPPN.psig             4000.00:  SPP Min 
 SPPX.psig             6100.00:  SPP Max 
 STIM.      08.08.32 28-Apr-20:  Start Time 
 SVCS.                 DD, MWD:  Services 
 SVER.                    9.20:  Sperry Version 
 TDAT.m                1351.00:  Tot Depth Attmp 
 TDDF.                      No:  Trip for DD 
 TDLG.m                1351.00:  Tot Depth Loggd 
 TFF .                      No:  Trip for Fail 
 TQAA.f-kp               27.00:  Torque Abs Avg 
 TQAN.f-kp               20.00:  Torque Abs Min 
 TQAX.f-kp               30.00:  Torque Abs Max 
 TRRT.°/30m               0.60:  Turn Rotating 
 MRT .                    EWER:  Maximum Recorded Temperature 
 TTMX.degC               83.00:  Max Tool Temp 
 VS01.                90511138:  Virtual Str1 SN 
 VS02.                90524876:  Virtual Str2 SN 
 VS03.                90524872:  Virtual Str3 SN 
 VS04.                90502750:  Virtual Str4 SN 
 VS05.                12330984:  Virtual Str5 SN 
 WBMN.klb                 0.00:  WOB Min 
 WOBA.klb                15.00:  WOB Avg 
 WOBX.klb                20.00:  WOB Max 
 YP  .lhf2               31.00:  Yield Point 
~Curve Information Block
#MNEM.UNIT                 API CODE     Curve Description
#---------               -----------    ---------------------------
 TIME.HHMMSS            00 000 000 000:  GT Time & Date
 GTDEPTH.m              00 000 000 000:  GT Depth
 GTPQH.psia             00 000 000 000:  GT HR Quartz Pressure
 GTTQ.degC              00 000 000 000:  GT Quartz Temperature
 GTTN.NONE              00 000 000 000:  GT Test Number
 GTET.sec               00 000 000 000:  GT Elapsed Test Time
 GTTVD.m                00 000 000 000:  GT True Vertical Depth
#Other Information
#
#WARRANTY: Halliburton will use its best efforts to furnish customers with 
#accurate information and interpretations that are part of, and incident to, the services 
#provided.  However, Halliburton cannot and does not warrant the accuracy 
#or correctness of such information and interpretations.  Under no circumstances should any 
#such information or interpretation be relied upon as the sole basis for any drilling, 
#completion, production, or financial decision or any procedure involving any risk to the 
#safety of any drilling venture, drilling rig or its crew or any other third party.  The 
#Customer has full responsibility for all drilling, completion and production operation.  
#Halliburton makes no representations or warranties, either expressed or 
#implied, including, but not limited to, the implied warranties of merchantability or fitness 
#for a particular purpose, with respect to the services rendered.  In no event will 
#Halliburton be liable for failure to obtain any particular results or for 
#any damages, including, but not limited to, indirect, special or consequential damages, 
#resulting from the use of any information or interpretation provided by Halliburton.
#
~A           TIME           GTDEPTH  GTPQH  GTTQ  GTTN  GTET   GTTVD  
# ...
   00:39:29.347.04-May-2020 4661.71   62.72 80.02 4.00 345.03 2504.33
   00:39:29.547.04-May-2020 4661.71   62.72 80.02 4.00 345.23 2504.33
   00:39:29.747.04-May-2020 4661.71   62.75 80.02 4.00 345.43 2504.33
   00:39:29.947.04-May-2020 4661.71   62.74 80.02 4.00 345.63 2504.33
   00:39:30.147.04-May-2020 4661.71   62.78 80.02 4.00 345.83 2504.33
   00:39:30.347.04-May-2020 4661.71   62.78 80.02 4.00 346.03 2504.33
   00:39:30.548.04-May-2020 4661.71   62.78 80.02 4.00 346.23 2504.33
   00:39:30.748.04-May-2020 4661.71   62.81 80.02 4.00 346.43 2504.33
   00:39:30.948.04-May-2020 4661.71   62.80 80.02 4.00 346.63 2504.33
   00:39:31.148.04-May-2020 4661.71   62.81 80.02 4.00 346.83 2504.33
   00:39:31.348.04-May-2020 4661.71   62.81 80.01 4.00 347.03 2504.33
   00:39:31.548.04-May-2020 4661.71   62.84 80.01 4.00 347.23 2504.33
   00:39:31.748.04-May-2020 4661.71   62.83 80.01 4.00 347.43 2504.33
   00:39:31.948.04-May-2020 4661.71   62.84 80.01 4.00 347.63 2504.33
   00:39:32.148.04-May-2020 4661.71   62.84 80.01 4.00 347.83 2504.33
   00:39:32.348.04-May-2020 4661.71   62.88 80.01 4.00 348.03 2504.33
   00:39:32.548.04-May-2020 4661.71   62.87 80.01 4.00 348.23 2504.33
   00:39:32.748.04-May-2020 4661.71   62.87 80.01 4.00 348.43 2504.33
   00:39:32.948.04-May-2020 4661.71   62.90 80.01 4.00 348.63 2504.33
   00:39:33.148.04-May-2020 4661.71   62.89 80.01 4.00 348.83 2504.33
   00:39:33.348.04-May-2020 4661.71   62.90 80.01 4.00 349.03 2504.33
   00:39:33.548.04-May-2020 4661.71   62.90 80.01 4.00 349.23 2504.33
   00:39:33.748.04-May-2020 4661.71   62.91 80.00 4.00 349.43 2504.33
   00:39:33.948.04-May-2020 4661.71   62.92 80.00 4.00 349.63 2504.33
   00:39:34.148.04-May-2020 4661.71   62.92 80.00 4.00 349.83 2504.33
   00:39:34.348.04-May-2020 4661.71   62.94 80.00 4.00 350.03 2504.33
   00:39:34.548.04-May-2020 4661.71   62.94 80.00 4.00 350.23 2504.33
   00:39:34.748.04-May-2020 4661.71   62.95 80.00 4.00 350.43 2504.33
   00:39:34.948.04-May-2020 4661.71   62.96 80.00 4.00 350.63 2504.33
   00:39:35.148.04-May-2020 4661.71   62.96 80.00 4.00 350.83 2504.33
   00:39:35.348.04-May-2020 4661.71   62.97 80.00 4.00 351.03 2504.33
   00:39:35.548.04-May-2020 4661.71   62.97 80.00 4.00 351.23 2504.33
   00:39:35.748.04-May-2020 4661.71   62.99 80.00 4.00 351.43 2504.33
   00:39:35.948.04-May-2020 4661.71   63.02 80.00 4.00 351.63 2504.33
   00:39:36.148.04-May-2020 4661.71   63.01 79.99 4.00 351.83 2504.33
   00:39:36.348.04-May-2020 4661.71   63.03 79.99 4.00 352.03 2504.33
   00:39:36.548.04-May-2020 4661.71   63.02 79.99 4.00 352.23 2504.33
   00:39:36.748.04-May-2020 4661.71   63.03 79.99 4.00 352.43 2504.33
   00:39:36.948.04-May-2020 4661.71   63.04 79.99 4.00 352.63 2504.33
   00:39:37.148.04-May-2020 4661.71   63.04 79.99 4.00 352.83 2504.33
   00:39:37.348.04-May-2020 4661.71   63.05 79.99 4.00 353.03 2504.33
   00:39:37.548.04-May-2020 4661.71   63.06 79.99 4.00 353.23 2504.33
   00:39:37.748.04-May-2020 4661.71   63.07 79.99 4.00 353.43 2504.33
   00:39:37.948.04-May-2020 4661.71   63.07 79.99 4.00 353.63 2504.33
   00:39:38.148.04-May-2020 4661.71   63.11 79.99 4.00 353.83 2504.33
   00:39:38.348.04-May-2020 4661.71   63.11 79.98 4.00 354.03 2504.33
   00:39:38.548.04-May-2020 4661.71   63.11 79.98 4.00 354.23 2504.33
   00:39:38.748.04-May-2020 4661.71   63.13 79.98 4.00 354.43 2504.33
   00:39:38.948.04-May-2020 4661.71   63.13 79.98 4.00 354.63 2504.33
   00:39:39.148.04-May-2020 4661.71   63.13 79.98 4.00 354.83 2504.33
   00:39:39.348.04-May-2020 4661.71   63.14 79.98 4.00 355.03 2504.33
   00:39:39.548.04-May-2020 4661.71   63.16 79.98 4.00 355.23 2504.33
   00:39:39.748.04-May-2020 4661.71   63.15 79.98 4.00 355.43 2504.33
   00:39:39.948.04-May-2020 4661.71   63.16 79.98 4.00 355.63 2504.33
   00:39:40.148.04-May-2020 4661.71   63.17 79.98 4.00 355.83 2504.33
   00:39:40.348.04-May-2020 4661.71   63.19 79.98 4.00 356.03 2504.33
   00:39:40.548.04-May-2020 4661.71   63.19 79.98 4.00 356.23 2504.33
   00:39:40.748.04-May-2020 4661.71   63.20 79.97 4.00 356.43 2504.33
   00:39:40.948.04-May-2020 4661.71   63.22 79.97 4.00 356.63 2504.33
   00:39:41.148.04-May-2020 4661.71   63.21 79.97 4.00 356.83 2504.33
   00:39:41.348.04-May-2020 4661.71   63.21 79.97 4.00 357.03 2504.33
   00:39:41.549.04-May-2020 4661.71   63.21 79.97 4.00 357.23 2504.33
   00:39:41.749.04-May-2020 4661.71   63.22 79.97 4.00 357.43 2504.33
   00:39:41.949.04-May-2020 4661.71   63.23 79.97 4.00 357.63 2504.33
   00:39:42.149.04-May-2020 4661.71   63.23 79.97 4.00 357.83 2504.33
   00:39:42.349.04-May-2020 4661.71   63.24 79.97 4.00 358.03 2504.33
   00:39:42.549.04-May-2020 4661.71   63.24 79.97 4.00 358.23 2504.33
   00:39:42.749.04-May-2020 4661.71   63.26 79.97 4.00 358.43 2504.33
   00:39:42.949.04-May-2020 4661.71   63.27 79.97 4.00 358.63 2504.33
   00:39:43.149.04-May-2020 4661.71   63.27 79.96 4.00 358.83 2504.33
   00:39:43.349.04-May-2020 4661.71   63.28 79.96 4.00 359.03 2504.33
   00:39:43.549.04-May-2020 4661.71   63.30 79.96 4.00 359.23 2504.33
   00:39:43.749.04-May-2020 4661.71   63.31 79.96 4.00 359.43 2504.33
   00:39:43.949.04-May-2020 4661.71   63.32 79.96 4.00 359.63 2504.33
   00:39:44.149.04-May-2020 4661.71   63.31 79.96 4.00 359.83 2504.33
   00:39:44.349.04-May-2020 4661.71   63.32 79.96 4.00 360.03 2504.33
   00:39:44.549.04-May-2020 4661.71   63.32 79.96 4.00 360.23 2504.33
   00:39:44.749.04-May-2020 4661.71   63.33 79.96 4.00 360.43 2504.33
   00:39:44.949.04-May-2020 4661.71   63.33 79.96 4.00 360.63 2504.33
   00:39:45.149.04-May-2020 4661.71   63.34 79.96 4.00 360.83 2504.33
   00:39:45.349.04-May-2020 4661.71   63.35 79.96 4.00 361.03 2504.33
   00:39:45.549.04-May-2020 4661.71   63.35 79.96 4.00 361.23 2504.33
   00:39:45.749.04-May-2020 4661.71   63.36 79.95 4.00 361.43 2504.33
   00:39:45.949.04-May-2020 4661.71   63.40 79.95 4.00 361.63 2504.33
   00:39:46.149.04-May-2020 4661.71   86.42 79.95 4.00 361.83 2504.33
   00:39:46.349.04-May-2020 4661.71 2673.67 79.95 4.00 362.03 2504.33
   00:39:46.549.04-May-2020 4661.71 2673.67 79.95 4.00 362.23 2504.33
   00:39:46.749.04-May-2020 4661.71 4539.25 79.95 4.00 362.43 2504.33
   00:39:46.949.04-May-2020 4661.71 4580.61 79.95 4.00 362.63 2504.33
   00:39:47.149.04-May-2020 4661.71 4883.83 79.95 4.00 362.83 2504.33
   00:39:47.349.04-May-2020 4661.71 5283.97 79.95 4.00 363.03 2504.33
   00:39:47.549.04-May-2020 4661.71 5283.97 79.95 4.00 363.23 2504.33
   00:39:47.749.04-May-2020 4661.71 5181.66 79.95 4.00 363.43 2504.33
   00:39:47.949.04-May-2020 4661.71 5176.16 79.96 4.00 363.63 2504.33
   00:39:48.149.04-May-2020 4661.71 5195.67 79.96 4.00 363.83 2504.33
   00:39:48.349.04-May-2020 4661.71 5194.79 79.96 4.00 364.03 2504.33
   00:39:48.549.04-May-2020 4661.71 5194.79 79.96 4.00 364.23 2504.33
   00:39:48.749.04-May-2020 4661.71 5801.33 79.97 4.00 364.43 2504.33
   00:39:48.949.04-May-2020 4661.71 5803.43 79.97 4.00 364.63 2504.33
   00:39:49.149.04-May-2020 4661.71 5803.13 79.97 4.00 364.83 2504.33
   00:39:49.349.04-May-2020 4661.71 5803.50 79.98 4.00 365.03 2504.33
   00:39:49.549.04-May-2020 4661.71 5803.50 79.98 4.00 365.23 2504.33
   00:39:49.749.04-May-2020 4661.71 5804.22 79.98 4.00 365.43 2504.33
   00:39:49.949.04-May-2020 4661.71 5805.38 79.99 4.00 365.63 2504.33
   00:39:50.149.04-May-2020 4661.71 5806.01 79.99 4.00 365.83 2504.33
   00:39:50.349.04-May-2020 4661.71 5807.38 79.99 4.00 366.03 2504.33
   00:39:50.549.04-May-2020 4661.71 5807.38 79.99 4.00 366.23 2504.33
   00:39:50.749.04-May-2020 4661.71 5806.89 80.00 4.00 366.43 2504.33
   00:39:50.949.04-May-2020 4661.71 5807.39 80.01 4.00 366.63 2504.33
   00:39:51.149.04-May-2020 4661.71 5808.34 80.01 4.00 366.83 2504.33
   00:39:51.349.04-May-2020 4661.71 5816.22 80.01 4.00 367.03 2504.33
   00:39:51.549.04-May-2020 4661.71 5816.22 80.01 4.00 367.23 2504.33
   00:39:51.749.04-May-2020 4661.71 5810.32 80.02 4.00 367.43 2504.33
   00:39:51.949.04-May-2020 4661.71 5810.39 80.02 4.00 367.63 2504.33
   00:39:52.149.04-May-2020 4661.71 5809.86 80.02 4.00 367.83 2504.33
