~Version Information
 VERS.                  2.0:   CWLS log ASCII Standard -VERSION 2.0
 WRAP.                   NO:   One line per depth step
~Well Information Block
#MNEM.UNIT     VALUE/NAME     DESCRIPTION
#---------     -----------    ---------------------------
 STRT.S             15:01:40 03-May-20: START TIME 15:01:40 03-May-20
 STOP.S             15:08:15 03-May-20: STOP TIME  15:08:15 03-May-20
 STEP.S                   0.00: STEP TIME
 NULL.                 -999.25: NULL VALUE
 DFWT.                        :  DIST FWL TEXT
 DFST.                        :  DIST FSL TEXT
 DMF .             Drill Floor:  DRILL MEAS FROM
 STIM.      03.00.00 25-Mar-20:  START TIME
 DATE.      00.00.00 19-May-20:  END TIME
 SPUD.               27-Aug-20:  SPUD DATE
 NREF.                    Grid:  NORTH REFERENCE
 HPTY.       Minimum Curvature:  HOLE POS TYPE
 DMOD.             Drill Model:  DRILL MOD DESC
 SVYD.                  Survey:  SURVEY DESC
 ILTD.               Lithology:  INTERP LTH DESC
 FTOP.          Formation Tops:  FORM TOPS DESC
 SON .        AZ-XX-0906252240:  JOB NUMBER
 RIG .             West Chirag:  RIG NAME
 PDAT.          Mean Sea Level:  PERMANENT DATUM
 FLD .                     ACG:  FIELD NAME
 CTRY.              Azerbaijan:  COUNTRY NAME
 WELL.                     J23:  WELL NAME
 SRVC.          Turan Drilling:  CONTRACTOR
 COMP.     BP Exploration (Caspian Sea) Ltd.:  COMPANY
 WTYP.                Deviated:  WELL TYPE
 MDS .        Operator Entered:  MAG DATA SOURCE
 UWI .                     N/A:  UNIQUE WELL IDENTIFIER
 API .                     N/A:  API NUMBER
 BASE.              Azerbaijan:  LOGGING EQUIPMENT BASE LOCATION
 REGN.                   EESSA:  REGION
 PROV.                    Baku:  PROVINCE
 STAT.                    Baku:  STATE NAME
 MWDS.                     N/A:  MWD SHOP
 JOBN.        AZ-XX-0906252240:  JOB TICKET NUMB
 DOE .                     N/A:  DOE NUMBER
 DCON.         Sperry Drilling:  DIRECTNL CONTR
 UNIT.                     N/A:  LOGGING EQUIPMENT ID
 CNTY.                        :  COUNTY
 LOC .                        :  LOCATION
 LMF .             Drill Floor:  LOG MEASURED FROM
 TVDS.m                  43.00:  TVDSS CORRECTN
 LATI.deg                40.13:  LATITUDE
 LONG.deg                51.22:  LONGITUDE
 WHNS.m                   9.43:  WELL HEAD N/S
 WHEW.m                  -8.91:  WELL HEAD E/W
 UTMX.m              519005.06:  UTM X
 UTMY.m             4443793.85:  UTM Y
 DFWL.m                   0.00:  DISTANCE FWL
 DFSL.m                   0.00:  DISTANCE FSL
 SDEP.m                 363.00:  START DEPTH
 TDD .m                5150.01:  TOTAL DEPTH (DRILLER)
 VSDR.deg               179.88:  VERT SEC DIRECT
 GVFD.g                   1.00:  GRAVITY FIELD
 MFLD.nT              50295.00:  MAGNETIC FIELD
 MDIP.deg                59.56:  MAGNETIC DIP
 MDEC.deg                 6.45:  MAGNETIC DECL
 GRDC.deg                 0.14:  GRID CORRECTION
 AZTC.deg                 6.31:  AZM TOTAL CORR
 EPD .m                   0.00:  ELEVATION
 EGL .m                   0.00:  GROUND ELEVATION
 WDMS.m                 169.80:  WD ELEV
 APD .m                  43.00:  DEPTH ABOVE PD
 DEP .m                 354.17:  DEPTH
 AGAP.m                  43.00:  AIR GAP
 VSEW.m                  -8.91:  VERT SEC E/W
 VSNS.m                   9.43:  VERT SEC N/S
 EKB .m                   0.00:  KB ELEVATION
 EDF .m                  43.00:  DF ELEVATION
 TDL .m                1351.00:  TOTAL DEPTH (LOGGER)
 VSC .                       0:  VS TO CLOSURE
 MAGU.                 1850802:  MAGUTM CHECKSUM
~Parameter Information Block
#MNEM.UNIT       Value        Description
#---------     -----------    ---------------------------
 AV  .mps                 1.00:  Ann Velocity 
 AVMX.mps                 2.40:  Max Ann Veloc 
 AZIF.deg               148.96:  Azm, Final 
 BHAT.        Rotary Steerable:  BHA Type 
 BROT.°/30m               0.04:  Build Rotating 
 BS  .in                 12.25:  Bit Size 
 BSZ .in                 12.25:  Bit Size 
 BTPL.psig              814.00:  Bit Press Loss 
 TCS .hr                106.00:  Time Ciculation Ended 
 CV  .mps                 2.47:  Crit Velocity 
 CVMX.mps                 2.64:  Max Crit Veloc 
 DD1 .          Rashad Habibov:  Direct Drillr 1 
 DD2 .         Rasim Ibrahimov:  Direct Drillr 2 
 DDSV.                 iCruise:  DD Service 
 DEFF.%                 100.00:  % Det Eff 
 DLRX.°/30m               0.70:  Dogleg Rot Max 
 DLSO.°/30m               3.00:  Dogleg Oriented 
 DLSX.°/30m               4.55:  Dogleg Str Max 
 DRET.      08.08.32 02-May-20:  Drill End Time 
 DRST.      08.08.32 28-Apr-20:  Drill Start Tim 
 DTIM.hr                 60.00:  Time Drilling 
 EDEP.m                4761.01:  End Depth 
 ENG1.           Eldar Hajiyev:  Engineer 1 
 ENG2.        Marcelo Sandoval:  Engineer 2 
 ETIM.      23.23.07 05-May-20:  End Time 
 FLOI.gpm              1200.00:  Flow In 
 FLON.gpm               900.00:  Flow In Min 
 FLOS.cptm                0.00:  Fluid Loss 
 FLOX.gpm              1200.00:  Flow In Max 
 HFLO.                      No:  High Flow 
 HPRE.                      No:  High Pressure 
 HTEM.                      No:  High Temp 
 HYDO.m                   1.80:  Hydro Offset 
 IFIN.deg                68.17:  Inc, Final 
 IMAX.deg                74.61:  Inc Max 
 IMIN.deg                68.15:  Inc Min 
 IMND.m                4317.87:  Inc Min Depth 
 IMXD.m                4714.01:  Inc Max Depth 
 LETM.      08.08.32 02-May-20:  Log End Time 
 LOST.hr                     2:  Lost Rig Time 
 LSTM.      08.08.32 28-Apr-20:  Log Start Time 
 MDCL.ppm             41000.00:  Mud Chlorides 
 MDES.     Inversion Oil/Synthetic:  Mud Desc 
 DFD .sg                  1.58:  Mud Density 
 MDMN.sg                  1.58:  Dens Mud Min 
 MDMX.sg                  1.58:  Dens Mud Max 
 MOIL.                      71:  Run Mud Oil % 
 MOWR.                   71:29:  Run Mud OWR 
 MSND.                     0.1:  Run Mud Sand % 
 MSOL.                      23:  Run Mud Solids% 
 DFV .spqt               82.00:  Mud Viscosity 
 MWOD.in                  8.00:  MWD Tool OD 
 MWSI.                     Yes:  Serv Intrp, MWD 
 OTIM.hr                125.00:  Time Operating 
 PMAX.psia             6129.00:  Press Op, Max 
 PV  .cP                 32.00:  Mud PV 
 RUN .                     800:  Run Number 
 ROPA.m/hr               30.00:  ROP Avg 
 ROPN.m/hr               10.00:  ROP Min 
 ROPX.m/hr               40.00:  ROP Max 
 RPMA.rpm               140.00:  RPM Surface Avg 
 RPMN.rpm                80.00:  RPM Surface Min 
 RPMX.rpm               140.00:  RPM Surface Max 
 RRUN.                    L503:  Rig Run Number 
 RTIM.hr                  2.00:  Time Reaming 
 SAZI.deg               184.23:  Azm, Start 
 SDEP.m                3410.01:  Start Depth 
 SIDD.                      No:  Serv Intrp, DD 
 SINC.deg                68.29:  Inc, Start 
 SPPA.psig             6000.00:  SPP Avg 
 SPPN.psig             4000.00:  SPP Min 
 SPPX.psig             6100.00:  SPP Max 
 STIM.      08.08.32 28-Apr-20:  Start Time 
 SVCS.                 DD, MWD:  Services 
 SVER.                    9.20:  Sperry Version 
 TDAT.m                1351.00:  Tot Depth Attmp 
 TDDF.                      No:  Trip for DD 
 TDLG.m                1351.00:  Tot Depth Loggd 
 TFF .                      No:  Trip for Fail 
 TQAA.f-kp               27.00:  Torque Abs Avg 
 TQAN.f-kp               20.00:  Torque Abs Min 
 TQAX.f-kp               30.00:  Torque Abs Max 
 TRRT.°/30m               0.60:  Turn Rotating 
 MRT .                    EWER:  Maximum Recorded Temperature 
 TTMX.degC               83.00:  Max Tool Temp 
 VS01.                90511138:  Virtual Str1 SN 
 VS02.                90524876:  Virtual Str2 SN 
 VS03.                90524872:  Virtual Str3 SN 
 VS04.                90502750:  Virtual Str4 SN 
 VS05.                12330984:  Virtual Str5 SN 
 WBMN.klb                 0.00:  WOB Min 
 WOBA.klb                15.00:  WOB Avg 
 WOBX.klb                20.00:  WOB Max 
 YP  .lhf2               31.00:  Yield Point 
~Curve Information Block
#MNEM.UNIT                 API CODE     Curve Description
#---------               -----------    ---------------------------
 TIME.HHMMSS            00 000 000 000:  GT Time & Date
 GTDEPTH.m              00 000 000 000:  GT Depth
 GTPQH.psia             00 000 000 000:  GT HR Quartz Pressure
 GTTQ.degC              00 000 000 000:  GT Quartz Temperature
 GTTN.NONE              00 000 000 000:  GT Test Number
 GTET.sec               00 000 000 000:  GT Elapsed Test Time
 GTTVD.m                00 000 000 000:  GT True Vertical Depth
#Other Information
#
#WARRANTY: Halliburton will use its best efforts to furnish customers with 
#accurate information and interpretations that are part of, and incident to, the services 
#provided.  However, Halliburton cannot and does not warrant the accuracy 
#or correctness of such information and interpretations.  Under no circumstances should any 
#such information or interpretation be relied upon as the sole basis for any drilling, 
#completion, production, or financial decision or any procedure involving any risk to the 
#safety of any drilling venture, drilling rig or its crew or any other third party.  The 
#Customer has full responsibility for all drilling, completion and production operation.  
#Halliburton makes no representations or warranties, either expressed or 
#implied, including, but not limited to, the implied warranties of merchantability or fitness 
#for a particular purpose, with respect to the services rendered.  In no event will 
#Halliburton be liable for failure to obtain any particular results or for 
#any damages, including, but not limited to, indirect, special or consequential damages, 
#resulting from the use of any information or interpretation provided by Halliburton.
#
~A           TIME           GTDEPTH  GTPQH  GTTQ  GTTN  GTET   GTTVD  
   15:01:40.426.03-May-2020 4553.48 5720.31 82.53 2.00   0.00 2472.52
   15:01:40.626.03-May-2020 4553.48 5720.31 82.53 2.00   0.20 2472.52
   15:01:40.826.03-May-2020 4553.48 5722.50 82.53 2.00   0.40 2472.52
   15:01:41.026.03-May-2020 4553.48 5724.43 82.53 2.00   0.60 2472.52
   15:01:41.226.03-May-2020 4553.48 5727.35 82.53 2.00   0.80 2472.52
   15:01:41.426.03-May-2020 4553.48 5730.37 82.53 2.00   1.00 2472.52
   15:01:41.626.03-May-2020 4553.48 5730.37 82.53 2.00   1.20 2472.52
   15:01:41.826.03-May-2020 4553.48 5734.19 82.53 2.00   1.40 2472.52
   15:01:42.026.03-May-2020 4553.48 5737.35 82.53 2.00   1.60 2472.52
   15:01:42.226.03-May-2020 4553.48 5739.90 82.53 2.00   1.80 2472.52
   15:01:42.426.03-May-2020 4553.48 5734.95 82.53 2.00   2.00 2472.52
   15:01:42.626.03-May-2020 4553.48 5734.95 82.53 2.00   2.20 2472.52
   15:01:42.826.03-May-2020 4553.48 5734.16 82.52 2.00   2.40 2472.52
   15:01:43.026.03-May-2020 4553.48 5733.61 82.52 2.00   2.60 2472.52
   15:01:43.226.03-May-2020 4553.48 5731.10 82.52 2.00   2.80 2472.52
   15:01:43.425.03-May-2020 4553.48 5737.34 82.52 2.00   3.00 2472.52
   15:01:43.625.03-May-2020 4553.48 5737.34 82.52 2.00   3.20 2472.52
   15:01:43.825.03-May-2020 4553.48 5729.17 82.52 2.00   3.40 2472.52
   15:01:44.025.03-May-2020 4553.48 5728.98 82.52 2.00   3.60 2472.52
   15:01:44.225.03-May-2020 4553.48 5729.29 82.52 2.00   3.80 2472.52
   15:01:44.425.03-May-2020 4553.48 5736.96 82.52 2.00   4.00 2472.52
   15:01:44.625.03-May-2020 4553.48 5736.96 82.52 2.00   4.20 2472.52
   15:01:44.825.03-May-2020 4553.48 5736.96 82.52 2.00   4.40 2472.52
   15:01:45.025.03-May-2020 4553.48 5734.28 82.51 2.00   4.60 2472.52
   15:01:45.225.03-May-2020 4553.48 5734.28 82.51 2.00   4.80 2472.52
   15:01:45.425.03-May-2020 4553.48 5737.21 82.51 2.00   5.00 2472.52
   15:01:45.625.03-May-2020 4553.48 5737.21 82.51 2.00   5.20 2472.52
   15:01:45.825.03-May-2020 4553.48 5733.09 82.51 2.00   5.40 2472.52
   15:01:46.025.03-May-2020 4553.48 5739.30 82.51 2.00   5.60 2472.52
   15:01:46.225.03-May-2020 4553.48 5732.83 82.51 2.00   5.80 2472.52
   15:01:46.424.03-May-2020 4553.48 5733.52 82.51 2.00   6.00 2472.52
   15:01:46.624.03-May-2020 4553.48 5732.44 82.51 2.00   6.20 2472.52
   15:01:46.824.03-May-2020 4553.48 5732.34 82.51 2.00   6.40 2472.52
   15:01:47.024.03-May-2020 4553.48 5734.24 82.51 2.00   6.60 2472.52
   15:01:47.224.03-May-2020 4553.48 5737.39 82.51 2.00   6.80 2472.52
   15:01:47.424.03-May-2020 4553.48 5733.40 82.50 2.00   7.00 2472.52
   15:01:47.624.03-May-2020 4553.48 5733.40 82.50 2.00   7.20 2472.52
   15:01:47.824.03-May-2020 4553.48 5736.97 82.50 2.00   7.40 2472.52
   15:01:48.024.03-May-2020 4553.48 5736.90 82.50 2.00   7.60 2472.52
   15:01:48.224.03-May-2020 4553.48 5735.71 82.50 2.00   7.80 2472.52
   15:01:48.424.03-May-2020 4553.48 5739.82 82.50 2.00   8.00 2472.52
   15:01:48.624.03-May-2020 4553.48 5739.82 82.50 2.00   8.20 2472.52
   15:01:48.824.03-May-2020 4553.48 5736.25 82.50 2.00   8.40 2472.52
   15:01:49.024.03-May-2020 4553.48 5736.98 82.50 2.00   8.60 2472.52
   15:01:49.224.03-May-2020 4553.48 5741.96 82.50 2.00   8.80 2472.52
   15:01:49.424.03-May-2020 4553.48 5735.30 82.50 2.00   9.00 2472.52
   15:01:49.623.03-May-2020 4553.48 5735.30 82.50 2.00   9.20 2472.52
   15:01:49.823.03-May-2020 4553.48 5737.74 82.50 2.00   9.40 2472.52
   15:01:50.023.03-May-2020 4553.48 5737.33 82.49 2.00   9.60 2472.52
   15:01:50.223.03-May-2020 4553.48 5737.24 82.49 2.00   9.80 2472.52
   15:01:50.423.03-May-2020 4553.48 5736.26 82.49 2.00  10.00 2472.52
   15:01:50.623.03-May-2020 4553.48 5736.26 82.49 2.00  10.20 2472.52
   15:01:50.823.03-May-2020 4553.48 5735.74 82.49 2.00  10.40 2472.52
   15:01:51.023.03-May-2020 4553.48 5734.65 82.49 2.00  10.60 2472.52
   15:01:51.223.03-May-2020 4553.48 5734.79 82.49 2.00  10.80 2472.52
   15:01:51.423.03-May-2020 4553.48 5732.78 82.49 2.00  11.00 2472.52
   15:01:51.623.03-May-2020 4553.48 5732.78 82.49 2.00  11.20 2472.52
   15:01:51.823.03-May-2020 4553.48 5730.22 82.49 2.00  11.40 2472.52
   15:01:52.023.03-May-2020 4553.48 5734.53 82.49 2.00  11.60 2472.52
   15:01:52.223.03-May-2020 4553.48 5728.53 82.49 2.00  11.80 2472.52
   15:01:52.423.03-May-2020 4553.48 5727.71 82.48 2.00  12.00 2472.52
   15:01:52.622.03-May-2020 4553.48 5727.71 82.48 2.00  12.20 2472.52
   15:01:52.822.03-May-2020 4553.48 5727.60 82.48 2.00  12.40 2472.52
   15:01:53.022.03-May-2020 4553.48 5728.58 82.48 2.00  12.60 2472.52
   15:01:53.222.03-May-2020 4553.48 5727.75 82.48 2.00  12.80 2472.52
   15:01:53.422.03-May-2020 4553.48 5728.02 82.48 2.00  13.00 2472.52
   15:01:53.622.03-May-2020 4553.48 5728.02 82.48 2.00  13.20 2472.52
   15:01:53.822.03-May-2020 4553.48 5728.26 82.48 2.00  13.40 2472.52
   15:01:54.022.03-May-2020 4553.48 5728.96 82.48 2.00  13.60 2472.52
   15:01:54.222.03-May-2020 4553.48 5728.67 82.48 2.00  13.80 2472.52
   15:01:54.422.03-May-2020 4553.48 5727.78 82.48 2.00  14.00 2472.52
   15:01:54.622.03-May-2020 4553.48 5727.78 82.48 2.00  14.20 2472.52
   15:01:54.822.03-May-2020 4553.48 5734.84 82.47 2.00  14.40 2472.52
   15:01:55.022.03-May-2020 4553.48 5727.22 82.47 2.00  14.60 2472.52
   15:01:55.222.03-May-2020 4553.48 5726.80 82.47 2.00  14.80 2472.52
   15:01:55.422.03-May-2020 4553.48 5725.92 82.47 2.00  15.00 2472.52
   15:01:55.621.03-May-2020 4553.48 5725.92 82.47 2.00  15.20 2472.52
   15:01:55.821.03-May-2020 4553.48 5730.42 82.47 2.00  15.39 2472.52
   15:01:56.021.03-May-2020 4553.48 5726.52 82.47 2.00  15.59 2472.52
   15:01:56.221.03-May-2020 4553.48 5725.51 82.47 2.00  15.79 2472.52
   15:01:56.421.03-May-2020 4553.48 5726.00 82.47 2.00  15.99 2472.52
   15:01:56.621.03-May-2020 4553.48 5726.00 82.47 2.00  16.19 2472.52
   15:01:56.821.03-May-2020 4553.48 5724.55 82.47 2.00  16.39 2472.52
   15:01:57.021.03-May-2020 4553.48 5725.99 82.46 2.00  16.59 2472.52
   15:01:57.221.03-May-2020 4553.48 5725.50 82.46 2.00  16.79 2472.52
   15:01:57.421.03-May-2020 4553.48 5730.62 82.46 2.00  16.99 2472.52
   15:01:57.621.03-May-2020 4553.48 5730.62 82.46 2.00  17.19 2472.52
   15:01:57.821.03-May-2020 4553.48 5725.20 82.46 2.00  17.39 2472.52
   15:01:58.021.03-May-2020 4553.48 5731.10 82.46 2.00  17.59 2472.52
   15:01:58.221.03-May-2020 4553.48 5722.90 82.46 2.00  17.79 2472.52
   15:01:58.421.03-May-2020 4553.48 5723.91 82.46 2.00  17.99 2472.52
   15:01:58.621.03-May-2020 4553.48 5723.91 82.46 2.00  18.19 2472.52
   15:01:58.820.03-May-2020 4553.48 5729.94 82.46 2.00  18.39 2472.52
   15:01:59.020.03-May-2020 4553.48 5722.43 82.46 2.00  18.59 2472.52
   15:01:59.220.03-May-2020 4553.48 5721.79 82.46 2.00  18.79 2472.52
   15:01:59.420.03-May-2020 4553.48 5723.23 82.45 2.00  18.99 2472.52
   15:01:59.620.03-May-2020 4553.48 5723.23 82.45 2.00  19.19 2472.52
   15:01:59.820.03-May-2020 4553.48 5722.71 82.45 2.00  19.39 2472.52
   15:02:00.020.03-May-2020 4553.48 5722.54 82.45 2.00  19.59 2472.52
   15:02:00.220.03-May-2020 4553.48 5723.84 82.45 2.00  19.79 2472.52
   15:02:00.420.03-May-2020 4553.48 5724.34 82.45 2.00  19.99 2472.52
   15:02:00.620.03-May-2020 4553.48 5724.34 82.45 2.00  20.19 2472.52
   15:02:00.820.03-May-2020 4553.48 5724.79 82.45 2.00  20.39 2472.52
   15:02:01.020.03-May-2020 4553.48 5724.44 82.45 2.00  20.59 2472.52
   15:02:01.220.03-May-2020 4553.48 5724.19 82.45 2.00  20.79 2472.52
   15:02:01.420.03-May-2020 4553.48 5724.67 82.45 2.00  20.99 2472.52
   15:02:01.620.03-May-2020 4553.48 5724.67 82.45 2.00  21.19 2472.52
   15:02:01.819.03-May-2020 4553.48 5724.69 82.44 2.00  21.39 2472.52
   15:02:02.019.03-May-2020 4553.48 5724.57 82.44 2.00  21.59 2472.52
   15:02:02.219.03-May-2020 4553.48 5724.72 82.44 2.00  21.79 2472.52
   15:02:02.419.03-May-2020 4553.48 5725.32 82.44 2.00  21.99 2472.52
   15:02:02.619.03-May-2020 4553.48 5725.32 82.44 2.00  22.19 2472.52
   15:02:02.819.03-May-2020 4553.48 5726.28 82.44 2.00  22.39 2472.52
   15:02:03.019.03-May-2020 4553.48 5726.96 82.44 2.00  22.59 2472.52
   15:02:03.219.03-May-2020 4553.48 5727.39 82.44 2.00  22.79 2472.52
