~Version Information
 VERS.                  2.0:   CWLS log ASCII Standard -VERSION 2.0
 WRAP.                   NO:   One line per depth step
~Well Information Block
#MNEM.UNIT     VALUE/NAME     DESCRIPTION
#---------     -----------    ---------------------------
 STRT.S             00:33:44 04-May-20: START TIME 00:33:44 04-May-20
 STOP.S             00:40:14 04-May-20: STOP TIME  00:40:14 04-May-20
 STEP.S                   0.00: STEP TIME
 NULL.                 -999.25: NULL VALUE
 DFWT.                        :  DIST FWL TEXT
 DFST.                        :  DIST FSL TEXT
 DMF .             Drill Floor:  DRILL MEAS FROM
 STIM.      03.00.00 25-Mar-20:  START TIME
 DATE.      00.00.00 19-May-20:  END TIME
 SPUD.               27-Aug-20:  SPUD DATE
 NREF.                    Grid:  NORTH REFERENCE
 HPTY.       Minimum Curvature:  HOLE POS TYPE
 DMOD.             Drill Model:  DRILL MOD DESC
 SVYD.                  Survey:  SURVEY DESC
 ILTD.               Lithology:  INTERP LTH DESC
 FTOP.          Formation Tops:  FORM TOPS DESC
 SON .        AZ-XX-0906252240:  JOB NUMBER
 RIG .             West Chirag:  RIG NAME
 PDAT.          Mean Sea Level:  PERMANENT DATUM
 FLD .                     ACG:  FIELD NAME
 CTRY.              Azerbaijan:  COUNTRY NAME
 WELL.                     J23:  WELL NAME
 SRVC.          Turan Drilling:  CONTRACTOR
 COMP.     BP Exploration (Caspian Sea) Ltd.:  COMPANY
 WTYP.                Deviated:  WELL TYPE
 MDS .        Operator Entered:  MAG DATA SOURCE
 UWI .                     N/A:  UNIQUE WELL IDENTIFIER
 API .                     N/A:  API NUMBER
 BASE.              Azerbaijan:  LOGGING EQUIPMENT BASE LOCATION
 REGN.                   EESSA:  REGION
 PROV.                    Baku:  PROVINCE
 STAT.                    Baku:  STATE NAME
 MWDS.                     N/A:  MWD SHOP
 JOBN.        AZ-XX-0906252240:  JOB TICKET NUMB
 DOE .                     N/A:  DOE NUMBER
 DCON.         Sperry Drilling:  DIRECTNL CONTR
 UNIT.                     N/A:  LOGGING EQUIPMENT ID
 CNTY.                        :  COUNTY
 LOC .                        :  LOCATION
 LMF .             Drill Floor:  LOG MEASURED FROM
 TVDS.m                  43.00:  TVDSS CORRECTN
 LATI.deg                40.13:  LATITUDE
 LONG.deg                51.22:  LONGITUDE
 WHNS.m                   9.43:  WELL HEAD N/S
 WHEW.m                  -8.91:  WELL HEAD E/W
 UTMX.m              519005.06:  UTM X
 UTMY.m             4443793.85:  UTM Y
 DFWL.m                   0.00:  DISTANCE FWL
 DFSL.m                   0.00:  DISTANCE FSL
 SDEP.m                 363.00:  START DEPTH
 TDD .m                5150.01:  TOTAL DEPTH (DRILLER)
 VSDR.deg               179.88:  VERT SEC DIRECT
 GVFD.g                   1.00:  GRAVITY FIELD
 MFLD.nT              50295.00:  MAGNETIC FIELD
 MDIP.deg                59.56:  MAGNETIC DIP
 MDEC.deg                 6.45:  MAGNETIC DECL
 GRDC.deg                 0.14:  GRID CORRECTION
 AZTC.deg                 6.31:  AZM TOTAL CORR
 EPD .m                   0.00:  ELEVATION
 EGL .m                   0.00:  GROUND ELEVATION
 WDMS.m                 169.80:  WD ELEV
 APD .m                  43.00:  DEPTH ABOVE PD
 DEP .m                 354.17:  DEPTH
 AGAP.m                  43.00:  AIR GAP
 VSEW.m                  -8.91:  VERT SEC E/W
 VSNS.m                   9.43:  VERT SEC N/S
 EKB .m                   0.00:  KB ELEVATION
 EDF .m                  43.00:  DF ELEVATION
 TDL .m                1351.00:  TOTAL DEPTH (LOGGER)
 VSC .                       0:  VS TO CLOSURE
 MAGU.                 1850802:  MAGUTM CHECKSUM
~Parameter Information Block
#MNEM.UNIT       Value        Description
#---------     -----------    ---------------------------
 AV  .mps                 1.00:  Ann Velocity 
 AVMX.mps                 2.40:  Max Ann Veloc 
 AZIF.deg               148.96:  Azm, Final 
 BHAT.        Rotary Steerable:  BHA Type 
 BROT.°/30m               0.04:  Build Rotating 
 BS  .in                 12.25:  Bit Size 
 BSZ .in                 12.25:  Bit Size 
 BTPL.psig              814.00:  Bit Press Loss 
 TCS .hr                106.00:  Time Ciculation Ended 
 CV  .mps                 2.47:  Crit Velocity 
 CVMX.mps                 2.64:  Max Crit Veloc 
 DD1 .          Rashad Habibov:  Direct Drillr 1 
 DD2 .         Rasim Ibrahimov:  Direct Drillr 2 
 DDSV.                 iCruise:  DD Service 
 DEFF.%                 100.00:  % Det Eff 
 DLRX.°/30m               0.70:  Dogleg Rot Max 
 DLSO.°/30m               3.00:  Dogleg Oriented 
 DLSX.°/30m               4.55:  Dogleg Str Max 
 DRET.      08.08.32 02-May-20:  Drill End Time 
 DRST.      08.08.32 28-Apr-20:  Drill Start Tim 
 DTIM.hr                 60.00:  Time Drilling 
 EDEP.m                4761.01:  End Depth 
 ENG1.           Eldar Hajiyev:  Engineer 1 
 ENG2.        Marcelo Sandoval:  Engineer 2 
 ETIM.      23.23.07 05-May-20:  End Time 
 FLOI.gpm              1200.00:  Flow In 
 FLON.gpm               900.00:  Flow In Min 
 FLOS.cptm                0.00:  Fluid Loss 
 FLOX.gpm              1200.00:  Flow In Max 
 HFLO.                      No:  High Flow 
 HPRE.                      No:  High Pressure 
 HTEM.                      No:  High Temp 
 HYDO.m                   1.80:  Hydro Offset 
 IFIN.deg                68.17:  Inc, Final 
 IMAX.deg                74.61:  Inc Max 
 IMIN.deg                68.15:  Inc Min 
 IMND.m                4317.87:  Inc Min Depth 
 IMXD.m                4714.01:  Inc Max Depth 
 LETM.      08.08.32 02-May-20:  Log End Time 
 LOST.hr                     2:  Lost Rig Time 
 LSTM.      08.08.32 28-Apr-20:  Log Start Time 
 MDCL.ppm             41000.00:  Mud Chlorides 
 MDES.     Inversion Oil/Synthetic:  Mud Desc 
 DFD .sg                  1.58:  Mud Density 
 MDMN.sg                  1.58:  Dens Mud Min 
 MDMX.sg                  1.58:  Dens Mud Max 
 MOIL.                      71:  Run Mud Oil % 
 MOWR.                   71:29:  Run Mud OWR 
 MSND.                     0.1:  Run Mud Sand % 
 MSOL.                      23:  Run Mud Solids% 
 DFV .spqt               82.00:  Mud Viscosity 
 MWOD.in                  8.00:  MWD Tool OD 
 MWSI.                     Yes:  Serv Intrp, MWD 
 OTIM.hr                125.00:  Time Operating 
 PMAX.psia             6129.00:  Press Op, Max 
 PV  .cP                 32.00:  Mud PV 
 RUN .                     800:  Run Number 
 ROPA.m/hr               30.00:  ROP Avg 
 ROPN.m/hr               10.00:  ROP Min 
 ROPX.m/hr               40.00:  ROP Max 
 RPMA.rpm               140.00:  RPM Surface Avg 
 RPMN.rpm                80.00:  RPM Surface Min 
 RPMX.rpm               140.00:  RPM Surface Max 
 RRUN.                    L503:  Rig Run Number 
 RTIM.hr                  2.00:  Time Reaming 
 SAZI.deg               184.23:  Azm, Start 
 SDEP.m                3410.01:  Start Depth 
 SIDD.                      No:  Serv Intrp, DD 
 SINC.deg                68.29:  Inc, Start 
 SPPA.psig             6000.00:  SPP Avg 
 SPPN.psig             4000.00:  SPP Min 
 SPPX.psig             6100.00:  SPP Max 
 STIM.      08.08.32 28-Apr-20:  Start Time 
 SVCS.                 DD, MWD:  Services 
 SVER.                    9.20:  Sperry Version 
 TDAT.m                1351.00:  Tot Depth Attmp 
 TDDF.                      No:  Trip for DD 
 TDLG.m                1351.00:  Tot Depth Loggd 
 TFF .                      No:  Trip for Fail 
 TQAA.f-kp               27.00:  Torque Abs Avg 
 TQAN.f-kp               20.00:  Torque Abs Min 
 TQAX.f-kp               30.00:  Torque Abs Max 
 TRRT.°/30m               0.60:  Turn Rotating 
 MRT .                    EWER:  Maximum Recorded Temperature 
 TTMX.degC               83.00:  Max Tool Temp 
 VS01.                90511138:  Virtual Str1 SN 
 VS02.                90524876:  Virtual Str2 SN 
 VS03.                90524872:  Virtual Str3 SN 
 VS04.                90502750:  Virtual Str4 SN 
 VS05.                12330984:  Virtual Str5 SN 
 WBMN.klb                 0.00:  WOB Min 
 WOBA.klb                15.00:  WOB Avg 
 WOBX.klb                20.00:  WOB Max 
 YP  .lhf2               31.00:  Yield Point 
~Curve Information Block
#MNEM.UNIT                 API CODE     Curve Description
#---------               -----------    ---------------------------
 TIME.HHMMSS            00 000 000 000:  GT Time & Date
 GTDEPTH.m              00 000 000 000:  GT Depth
 GTPQH.psia             00 000 000 000:  GT HR Quartz Pressure
 GTTQ.degC              00 000 000 000:  GT Quartz Temperature
 GTTN.NONE              00 000 000 000:  GT Test Number
 GTET.sec               00 000 000 000:  GT Elapsed Test Time
 GTTVD.m                00 000 000 000:  GT True Vertical Depth
#Other Information
#
#WARRANTY: Halliburton will use its best efforts to furnish customers with 
#accurate information and interpretations that are part of, and incident to, the services 
#provided.  However, Halliburton cannot and does not warrant the accuracy 
#or correctness of such information and interpretations.  Under no circumstances should any 
#such information or interpretation be relied upon as the sole basis for any drilling, 
#completion, production, or financial decision or any procedure involving any risk to the 
#safety of any drilling venture, drilling rig or its crew or any other third party.  The 
#Customer has full responsibility for all drilling, completion and production operation.  
#Halliburton makes no representations or warranties, either expressed or 
#implied, including, but not limited to, the implied warranties of merchantability or fitness 
#for a particular purpose, with respect to the services rendered.  In no event will 
#Halliburton be liable for failure to obtain any particular results or for 
#any damages, including, but not limited to, indirect, special or consequential damages, 
#resulting from the use of any information or interpretation provided by Halliburton.
#
~A           TIME           GTDEPTH  GTPQH  GTTQ  GTTN  GTET   GTTVD  
# ...
   00:39:06.345.04-May-2020 4661.71   61.59 80.12 4.00 322.03 2504.33
   00:39:06.545.04-May-2020 4661.71   61.60 80.12 4.00 322.23 2504.33
   00:39:06.745.04-May-2020 4661.71   61.61 80.12 4.00 322.43 2504.33
   00:39:06.945.04-May-2020 4661.71   61.63 80.12 4.00 322.63 2504.33
   00:39:07.145.04-May-2020 4661.71   61.63 80.12 4.00 322.83 2504.33
   00:39:07.345.04-May-2020 4661.71   61.63 80.12 4.00 323.03 2504.33
   00:39:07.545.04-May-2020 4661.71   61.63 80.12 4.00 323.23 2504.33
   00:39:07.745.04-May-2020 4661.71   61.66 80.11 4.00 323.43 2504.33
   00:39:07.945.04-May-2020 4661.71   61.67 80.11 4.00 323.63 2504.33
   00:39:08.145.04-May-2020 4661.71   61.68 80.11 4.00 323.83 2504.33
   00:39:08.345.04-May-2020 4661.71   61.71 80.11 4.00 324.03 2504.33
   00:39:08.546.04-May-2020 4661.71   61.71 80.11 4.00 324.23 2504.33
   00:39:08.746.04-May-2020 4661.71   61.71 80.11 4.00 324.43 2504.33
   00:39:08.946.04-May-2020 4661.71   61.72 80.11 4.00 324.63 2504.33
   00:39:09.146.04-May-2020 4661.71   61.76 80.11 4.00 324.83 2504.33
   00:39:09.346.04-May-2020 4661.71   61.76 80.11 4.00 325.03 2504.33
   00:39:09.546.04-May-2020 4661.71   61.76 80.11 4.00 325.23 2504.33
   00:39:09.746.04-May-2020 4661.71   61.77 80.11 4.00 325.43 2504.33
   00:39:09.946.04-May-2020 4661.71   61.77 80.11 4.00 325.63 2504.33
   00:39:10.146.04-May-2020 4661.71   61.79 80.10 4.00 325.83 2504.33
   00:39:10.346.04-May-2020 4661.71   61.80 80.10 4.00 326.03 2504.33
   00:39:10.546.04-May-2020 4661.71   61.81 80.10 4.00 326.23 2504.33
   00:39:10.746.04-May-2020 4661.71   61.82 80.10 4.00 326.43 2504.33
   00:39:10.946.04-May-2020 4661.71   61.83 80.10 4.00 326.63 2504.33
   00:39:11.146.04-May-2020 4661.71   61.84 80.10 4.00 326.83 2504.33
   00:39:11.346.04-May-2020 4661.71   61.85 80.10 4.00 327.03 2504.33
   00:39:11.546.04-May-2020 4661.71   61.86 80.10 4.00 327.23 2504.33
   00:39:11.746.04-May-2020 4661.71   61.89 80.10 4.00 327.43 2504.33
   00:39:11.946.04-May-2020 4661.71   61.90 80.10 4.00 327.63 2504.33
   00:39:12.146.04-May-2020 4661.71   61.90 80.10 4.00 327.83 2504.33
   00:39:12.346.04-May-2020 4661.71   61.91 80.10 4.00 328.03 2504.33
   00:39:12.546.04-May-2020 4661.71   61.91 80.10 4.00 328.23 2504.33
   00:39:12.746.04-May-2020 4661.71   61.93 80.09 4.00 328.43 2504.33
   00:39:12.946.04-May-2020 4661.71   61.94 80.09 4.00 328.63 2504.33
   00:39:13.146.04-May-2020 4661.71   61.95 80.09 4.00 328.83 2504.33
   00:39:13.346.04-May-2020 4661.71   61.96 80.09 4.00 329.03 2504.33
   00:39:13.546.04-May-2020 4661.71   61.96 80.09 4.00 329.23 2504.33
   00:39:13.746.04-May-2020 4661.71   61.97 80.09 4.00 329.43 2504.33
   00:39:13.946.04-May-2020 4661.71   61.99 80.09 4.00 329.63 2504.33
   00:39:14.146.04-May-2020 4661.71   62.00 80.09 4.00 329.83 2504.33
   00:39:14.346.04-May-2020 4661.71   62.03 80.09 4.00 330.03 2504.33
   00:39:14.546.04-May-2020 4661.71   62.03 80.09 4.00 330.23 2504.33
   00:39:14.746.04-May-2020 4661.71   62.05 80.09 4.00 330.43 2504.33
   00:39:14.946.04-May-2020 4661.71   62.06 80.08 4.00 330.63 2504.33
   00:39:15.146.04-May-2020 4661.71   62.06 80.08 4.00 330.83 2504.33
   00:39:15.346.04-May-2020 4661.71   62.07 80.08 4.00 331.03 2504.33
   00:39:15.546.04-May-2020 4661.71   62.07 80.08 4.00 331.23 2504.33
   00:39:15.746.04-May-2020 4661.71   62.10 80.08 4.00 331.43 2504.33
   00:39:15.946.04-May-2020 4661.71   62.11 80.08 4.00 331.63 2504.33
   00:39:16.146.04-May-2020 4661.71   62.11 80.08 4.00 331.83 2504.33
   00:39:16.346.04-May-2020 4661.71   62.14 80.08 4.00 332.03 2504.33
   00:39:16.546.04-May-2020 4661.71   62.14 80.08 4.00 332.23 2504.33
   00:39:16.746.04-May-2020 4661.71   62.15 80.08 4.00 332.43 2504.33
   00:39:16.946.04-May-2020 4661.71   62.15 80.08 4.00 332.63 2504.33
   00:39:17.146.04-May-2020 4661.71   62.18 80.08 4.00 332.83 2504.33
   00:39:17.346.04-May-2020 4661.71   62.17 80.07 4.00 333.03 2504.33
   00:39:17.546.04-May-2020 4661.71   62.17 80.07 4.00 333.23 2504.33
   00:39:17.746.04-May-2020 4661.71   62.19 80.07 4.00 333.43 2504.33
   00:39:17.946.04-May-2020 4661.71   62.19 80.07 4.00 333.63 2504.33
   00:39:18.146.04-May-2020 4661.71   62.21 80.07 4.00 333.83 2504.33
   00:39:18.346.04-May-2020 4661.71   62.21 80.07 4.00 334.03 2504.33
   00:39:18.546.04-May-2020 4661.71   62.23 80.07 4.00 334.23 2504.33
   00:39:18.746.04-May-2020 4661.71   62.23 80.07 4.00 334.43 2504.33
   00:39:18.946.04-May-2020 4661.71   62.25 80.07 4.00 334.63 2504.33
   00:39:19.146.04-May-2020 4661.71   62.25 80.07 4.00 334.83 2504.33
   00:39:19.346.04-May-2020 4661.71   62.26 80.07 4.00 335.03 2504.33
   00:39:19.547.04-May-2020 4661.71   62.27 80.06 4.00 335.23 2504.33
   00:39:19.747.04-May-2020 4661.71   62.29 80.06 4.00 335.43 2504.33
   00:39:19.947.04-May-2020 4661.71   62.32 80.06 4.00 335.63 2504.33
   00:39:20.147.04-May-2020 4661.71   62.31 80.06 4.00 335.83 2504.33
   00:39:20.347.04-May-2020 4661.71   62.31 80.06 4.00 336.03 2504.33
   00:39:20.547.04-May-2020 4661.71   62.31 80.06 4.00 336.23 2504.33
   00:39:20.747.04-May-2020 4661.71   62.33 80.06 4.00 336.43 2504.33
   00:39:20.947.04-May-2020 4661.71   62.35 80.06 4.00 336.63 2504.33
   00:39:21.147.04-May-2020 4661.71   62.35 80.06 4.00 336.83 2504.33
   00:39:21.347.04-May-2020 4661.71   62.36 80.06 4.00 337.03 2504.33
   00:39:21.547.04-May-2020 4661.71   62.36 80.06 4.00 337.23 2504.33
   00:39:21.747.04-May-2020 4661.71   62.39 80.06 4.00 337.43 2504.33
   00:39:21.947.04-May-2020 4661.71   62.39 80.05 4.00 337.63 2504.33
   00:39:22.147.04-May-2020 4661.71   62.40 80.05 4.00 337.83 2504.33
   00:39:22.347.04-May-2020 4661.71   62.43 80.05 4.00 338.03 2504.33
   00:39:22.547.04-May-2020 4661.71   62.43 80.05 4.00 338.23 2504.33
   00:39:22.747.04-May-2020 4661.71   62.44 80.05 4.00 338.43 2504.33
   00:39:22.947.04-May-2020 4661.71   62.45 80.05 4.00 338.63 2504.33
   00:39:23.147.04-May-2020 4661.71   62.45 80.05 4.00 338.83 2504.33
   00:39:23.347.04-May-2020 4661.71   62.46 80.05 4.00 339.03 2504.33
   00:39:23.547.04-May-2020 4661.71   62.48 80.05 4.00 339.23 2504.33
   00:39:23.747.04-May-2020 4661.71   62.49 80.05 4.00 339.43 2504.33
   00:39:23.947.04-May-2020 4661.71   62.49 80.05 4.00 339.63 2504.33
   00:39:24.147.04-May-2020 4661.71   62.50 80.05 4.00 339.83 2504.33
   00:39:24.347.04-May-2020 4661.71   62.52 80.04 4.00 340.03 2504.33
   00:39:24.547.04-May-2020 4661.71   62.52 80.04 4.00 340.23 2504.33
   00:39:24.747.04-May-2020 4661.71   62.52 80.04 4.00 340.43 2504.33
   00:39:24.947.04-May-2020 4661.71   62.54 80.04 4.00 340.63 2504.33
   00:39:25.147.04-May-2020 4661.71   62.56 80.04 4.00 340.83 2504.33
   00:39:25.347.04-May-2020 4661.71   62.55 80.04 4.00 341.03 2504.33
   00:39:25.547.04-May-2020 4661.71   62.55 80.04 4.00 341.23 2504.33
   00:39:25.747.04-May-2020 4661.71   62.56 80.04 4.00 341.43 2504.33
   00:39:25.947.04-May-2020 4661.71   62.57 80.04 4.00 341.63 2504.33
   00:39:26.147.04-May-2020 4661.71   62.59 80.04 4.00 341.83 2504.33
   00:39:26.347.04-May-2020 4661.71   62.58 80.04 4.00 342.03 2504.33
   00:39:26.547.04-May-2020 4661.71   62.58 80.04 4.00 342.23 2504.33
   00:39:26.747.04-May-2020 4661.71   62.61 80.03 4.00 342.43 2504.33
   00:39:26.947.04-May-2020 4661.71   62.62 80.03 4.00 342.63 2504.33
   00:39:27.147.04-May-2020 4661.71   62.62 80.03 4.00 342.83 2504.33
   00:39:27.347.04-May-2020 4661.71   62.64 80.03 4.00 343.03 2504.33
   00:39:27.547.04-May-2020 4661.71   62.64 80.03 4.00 343.23 2504.33
   00:39:27.747.04-May-2020 4661.71   62.67 80.03 4.00 343.43 2504.33
   00:39:27.947.04-May-2020 4661.71   62.68 80.03 4.00 343.63 2504.33
   00:39:28.147.04-May-2020 4661.71   62.68 80.03 4.00 343.83 2504.33
   00:39:28.347.04-May-2020 4661.71   62.68 80.03 4.00 344.03 2504.33
   00:39:28.547.04-May-2020 4661.71   62.68 80.03 4.00 344.23 2504.33
   00:39:28.747.04-May-2020 4661.71   62.70 80.03 4.00 344.43 2504.33
   00:39:28.947.04-May-2020 4661.71   62.71 80.03 4.00 344.63 2504.33
   00:39:29.147.04-May-2020 4661.71   62.71 80.02 4.00 344.83 2504.33
