~Version Information
 VERS.                  2.0:   CWLS log ASCII Standard -VERSION 2.0
 WRAP.                   NO:   One line per depth step
~Well Information Block
#MNEM.UNIT     VALUE/NAME     DESCRIPTION
#---------     -----------    ---------------------------
 STRT.S             00:33:44 04-May-20: START TIME 00:33:44 04-May-20
 STOP.S             00:40:14 04-May-20: STOP TIME  00:40:14 04-May-20
 STEP.S                   0.00: STEP TIME
 NULL.                 -999.25: NULL VALUE
 DFWT.                        :  DIST FWL TEXT
 DFST.                        :  DIST FSL TEXT
 DMF .             Drill Floor:  DRILL MEAS FROM
 STIM.      03.00.00 25-Mar-20:  START TIME
 DATE.      00.00.00 19-May-20:  END TIME
 SPUD.               27-Aug-20:  SPUD DATE
 NREF.                    Grid:  NORTH REFERENCE
 HPTY.       Minimum Curvature:  HOLE POS TYPE
 DMOD.             Drill Model:  DRILL MOD DESC
 SVYD.                  Survey:  SURVEY DESC
 ILTD.               Lithology:  INTERP LTH DESC
 FTOP.          Formation Tops:  FORM TOPS DESC
 SON .        AZ-XX-0906252240:  JOB NUMBER
 RIG .             West Chirag:  RIG NAME
 PDAT.          Mean Sea Level:  PERMANENT DATUM
 FLD .                     ACG:  FIELD NAME
 CTRY.              Azerbaijan:  COUNTRY NAME
 WELL.                     J23:  WELL NAME
 SRVC.          Turan Drilling:  CONTRACTOR
 COMP.     BP Exploration (Caspian Sea) Ltd.:  COMPANY
 WTYP.                Deviated:  WELL TYPE
 MDS .        Operator Entered:  MAG DATA SOURCE
 UWI .                     N/A:  UNIQUE WELL IDENTIFIER
 API .                     N/A:  API NUMBER
 BASE.              Azerbaijan:  LOGGING EQUIPMENT BASE LOCATION
 REGN.                   EESSA:  REGION
 PROV.                    Baku:  PROVINCE
 STAT.                    Baku:  STATE NAME
 MWDS.                     N/A:  MWD SHOP
 JOBN.        AZ-XX-0906252240:  JOB TICKET NUMB
 DOE .                     N/A:  DOE NUMBER
 DCON.         Sperry Drilling:  DIRECTNL CONTR
 UNIT.                     N/A:  LOGGING EQUIPMENT ID
 CNTY.                        :  COUNTY
 LOC .                        :  LOCATION
 LMF .             Drill Floor:  LOG MEASURED FROM
 TVDS.m                  43.00:  TVDSS CORRECTN
 LATI.deg                40.13:  LATITUDE
 LONG.deg                51.22:  LONGITUDE
 WHNS.m                   9.43:  WELL HEAD N/S
 WHEW.m                  -8.91:  WELL HEAD E/W
 UTMX.m              519005.06:  UTM X
 UTMY.m             4443793.85:  UTM Y
 DFWL.m                   0.00:  DISTANCE FWL
 DFSL.m                   0.00:  DISTANCE FSL
 SDEP.m                 363.00:  START DEPTH
 TDD .m                5150.01:  TOTAL DEPTH (DRILLER)
 VSDR.deg               179.88:  VERT SEC DIRECT
 GVFD.g                   1.00:  GRAVITY FIELD
 MFLD.nT              50295.00:  MAGNETIC FIELD
 MDIP.deg                59.56:  MAGNETIC DIP
 MDEC.deg                 6.45:  MAGNETIC DECL
 GRDC.deg                 0.14:  GRID CORRECTION
 AZTC.deg                 6.31:  AZM TOTAL CORR
 EPD .m                   0.00:  ELEVATION
 EGL .m                   0.00:  GROUND ELEVATION
 WDMS.m                 169.80:  WD ELEV
 APD .m                  43.00:  DEPTH ABOVE PD
 DEP .m                 354.17:  DEPTH
 AGAP.m                  43.00:  AIR GAP
 VSEW.m                  -8.91:  VERT SEC E/W
 VSNS.m                   9.43:  VERT SEC N/S
 EKB .m                   0.00:  KB ELEVATION
 EDF .m                  43.00:  DF ELEVATION
 TDL .m                1351.00:  TOTAL DEPTH (LOGGER)
 VSC .                       0:  VS TO CLOSURE
 MAGU.                 1850802:  MAGUTM CHECKSUM
~Parameter Information Block
#MNEM.UNIT       Value        Description
#---------     -----------    ---------------------------
 AV  .mps                 1.00:  Ann Velocity 
 AVMX.mps                 2.40:  Max Ann Veloc 
 AZIF.deg               148.96:  Azm, Final 
 BHAT.        Rotary Steerable:  BHA Type 
 BROT.°/30m               0.04:  Build Rotating 
 BS  .in                 12.25:  Bit Size 
 BSZ .in                 12.25:  Bit Size 
 BTPL.psig              814.00:  Bit Press Loss 
 TCS .hr                106.00:  Time Ciculation Ended 
 CV  .mps                 2.47:  Crit Velocity 
 CVMX.mps                 2.64:  Max Crit Veloc 
 DD1 .          Rashad Habibov:  Direct Drillr 1 
 DD2 .         Rasim Ibrahimov:  Direct Drillr 2 
 DDSV.                 iCruise:  DD Service 
 DEFF.%                 100.00:  % Det Eff 
 DLRX.°/30m               0.70:  Dogleg Rot Max 
 DLSO.°/30m               3.00:  Dogleg Oriented 
 DLSX.°/30m               4.55:  Dogleg Str Max 
 DRET.      08.08.32 02-May-20:  Drill End Time 
 DRST.      08.08.32 28-Apr-20:  Drill Start Tim 
 DTIM.hr                 60.00:  Time Drilling 
 EDEP.m                4761.01:  End Depth 
 ENG1.           Eldar Hajiyev:  Engineer 1 
 ENG2.        Marcelo Sandoval:  Engineer 2 
 ETIM.      23.23.07 05-May-20:  End Time 
 FLOI.gpm              1200.00:  Flow In 
 FLON.gpm               900.00:  Flow In Min 
 FLOS.cptm                0.00:  Fluid Loss 
 FLOX.gpm              1200.00:  Flow In Max 
 HFLO.                      No:  High Flow 
 HPRE.                      No:  High Pressure 
 HTEM.                      No:  High Temp 
 HYDO.m                   1.80:  Hydro Offset 
 IFIN.deg                68.17:  Inc, Final 
 IMAX.deg                74.61:  Inc Max 
 IMIN.deg                68.15:  Inc Min 
 IMND.m                4317.87:  Inc Min Depth 
 IMXD.m                4714.01:  Inc Max Depth 
 LETM.      08.08.32 02-May-20:  Log End Time 
 LOST.hr                     2:  Lost Rig Time 
 LSTM.      08.08.32 28-Apr-20:  Log Start Time 
 MDCL.ppm             41000.00:  Mud Chlorides 
 MDES.     Inversion Oil/Synthetic:  Mud Desc 
 DFD .sg                  1.58:  Mud Density 
 MDMN.sg                  1.58:  Dens Mud Min 
 MDMX.sg                  1.58:  Dens Mud Max 
 MOIL.                      71:  Run Mud Oil % 
 MOWR.                   71:29:  Run Mud OWR 
 MSND.                     0.1:  Run Mud Sand % 
 MSOL.                      23:  Run Mud Solids% 
 DFV .spqt               82.00:  Mud Viscosity 
 MWOD.in                  8.00:  MWD Tool OD 
 MWSI.                     Yes:  Serv Intrp, MWD 
 OTIM.hr                125.00:  Time Operating 
 PMAX.psia             6129.00:  Press Op, Max 
 PV  .cP                 32.00:  Mud PV 
 RUN .                     800:  Run Number 
 ROPA.m/hr               30.00:  ROP Avg 
 ROPN.m/hr               10.00:  ROP Min 
 ROPX.m/hr               40.00:  ROP Max 
 RPMA.rpm               140.00:  RPM Surface Avg 
 RPMN.rpm                80.00:  RPM Surface Min 
 RPMX.rpm               140.00:  RPM Surface Max 
 RRUN.                    L503:  Rig Run Number 
 RTIM.hr                  2.00:  Time Reaming 
 SAZI.deg               184.23:  Azm, Start 
 SDEP.m                3410.01:  Start Depth 
 SIDD.                      No:  Serv Intrp, DD 
 SINC.deg                68.29:  Inc, Start 
 SPPA.psig             6000.00:  SPP Avg 
 SPPN.psig             4000.00:  SPP Min 
 SPPX.psig             6100.00:  SPP Max 
 STIM.      08.08.32 28-Apr-20:  Start Time 
 SVCS.                 DD, MWD:  Services 
 SVER.                    9.20:  Sperry Version 
 TDAT.m                1351.00:  Tot Depth Attmp 
 TDDF.                      No:  Trip for DD 
 TDLG.m                1351.00:  Tot Depth Loggd 
 TFF .                      No:  Trip for Fail 
 TQAA.f-kp               27.00:  Torque Abs Avg 
 TQAN.f-kp               20.00:  Torque Abs Min 
 TQAX.f-kp               30.00:  Torque Abs Max 
 TRRT.°/30m               0.60:  Turn Rotating 
 MRT .                    EWER:  Maximum Recorded Temperature 
 TTMX.degC               83.00:  Max Tool Temp 
 VS01.                90511138:  Virtual Str1 SN 
 VS02.                90524876:  Virtual Str2 SN 
 VS03.                90524872:  Virtual Str3 SN 
 VS04.                90502750:  Virtual Str4 SN 
 VS05.                12330984:  Virtual Str5 SN 
 WBMN.klb                 0.00:  WOB Min 
 WOBA.klb                15.00:  WOB Avg 
 WOBX.klb                20.00:  WOB Max 
 YP  .lhf2               31.00:  Yield Point 
~Curve Information Block
#MNEM.UNIT                 API CODE     Curve Description
#---------               -----------    ---------------------------
 TIME.HHMMSS            00 000 000 000:  GT Time & Date
 GTDEPTH.m              00 000 000 000:  GT Depth
 GTPQH.psia             00 000 000 000:  GT HR Quartz Pressure
 GTTQ.degC              00 000 000 000:  GT Quartz Temperature
 GTTN.NONE              00 000 000 000:  GT Test Number
 GTET.sec               00 000 000 000:  GT Elapsed Test Time
 GTTVD.m                00 000 000 000:  GT True Vertical Depth
#Other Information
#
#WARRANTY: Halliburton will use its best efforts to furnish customers with 
#accurate information and interpretations that are part of, and incident to, the services 
#provided.  However, Halliburton cannot and does not warrant the accuracy 
#or correctness of such information and interpretations.  Under no circumstances should any 
#such information or interpretation be relied upon as the sole basis for any drilling, 
#completion, production, or financial decision or any procedure involving any risk to the 
#safety of any drilling venture, drilling rig or its crew or any other third party.  The 
#Customer has full responsibility for all drilling, completion and production operation.  
#Halliburton makes no representations or warranties, either expressed or 
#implied, including, but not limited to, the implied warranties of merchantability or fitness 
#for a particular purpose, with respect to the services rendered.  In no event will 
#Halliburton be liable for failure to obtain any particular results or for 
#any damages, including, but not limited to, indirect, special or consequential damages, 
#resulting from the use of any information or interpretation provided by Halliburton.
#
~A           TIME           GTDEPTH  GTPQH  GTTQ  GTTN  GTET   GTTVD  
# ...
   00:36:25.331.04-May-2020 4661.71   67.91 80.75 4.00 161.01 2504.33
   00:36:25.531.04-May-2020 4661.71   67.91 80.75 4.00 161.21 2504.33
   00:36:25.731.04-May-2020 4661.71   66.70 80.75 4.00 161.41 2504.33
   00:36:25.931.04-May-2020 4661.71   66.12 80.75 4.00 161.61 2504.33
   00:36:26.131.04-May-2020 4661.71   65.57 80.75 4.00 161.81 2504.33
   00:36:26.331.04-May-2020 4661.71   65.56 80.75 4.00 162.01 2504.33
   00:36:26.531.04-May-2020 4661.71   65.78 80.75 4.00 162.21 2504.33
   00:36:26.731.04-May-2020 4661.71   65.95 80.75 4.00 162.41 2504.33
   00:36:26.931.04-May-2020 4661.71   66.14 80.75 4.00 162.61 2504.33
   00:36:27.131.04-May-2020 4661.71   66.29 80.75 4.00 162.81 2504.33
   00:36:27.331.04-May-2020 4661.71   66.45 80.75 4.00 163.01 2504.33
   00:36:27.531.04-May-2020 4661.71   66.45 80.75 4.00 163.21 2504.33
   00:36:27.731.04-May-2020 4661.71   66.74 80.74 4.00 163.41 2504.33
   00:36:27.931.04-May-2020 4661.71   66.88 80.74 4.00 163.61 2504.33
   00:36:28.131.04-May-2020 4661.71   67.01 80.74 4.00 163.81 2504.33
   00:36:28.331.04-May-2020 4661.71   67.14 80.74 4.00 164.01 2504.33
   00:36:28.531.04-May-2020 4661.71   67.27 80.74 4.00 164.21 2504.33
   00:36:28.731.04-May-2020 4661.71   67.39 80.74 4.00 164.41 2504.33
   00:36:28.931.04-May-2020 4661.71   67.51 80.74 4.00 164.61 2504.33
   00:36:29.131.04-May-2020 4661.71   67.63 80.74 4.00 164.81 2504.33
   00:36:29.331.04-May-2020 4661.71   67.76 80.74 4.00 165.01 2504.33
   00:36:29.531.04-May-2020 4661.71   67.76 80.74 4.00 165.21 2504.33
   00:36:29.731.04-May-2020 4661.71   67.98 80.74 4.00 165.41 2504.33
   00:36:29.931.04-May-2020 4661.71   68.08 80.74 4.00 165.61 2504.33
   00:36:30.131.04-May-2020 4661.71   68.19 80.74 4.00 165.81 2504.33
   00:36:30.331.04-May-2020 4661.71   68.29 80.73 4.00 166.02 2504.33
   00:36:30.531.04-May-2020 4661.71   68.39 80.73 4.00 166.22 2504.33
   00:36:30.731.04-May-2020 4661.71   68.49 80.73 4.00 166.42 2504.33
   00:36:30.931.04-May-2020 4661.71   68.60 80.73 4.00 166.62 2504.33
   00:36:31.131.04-May-2020 4661.71   68.69 80.73 4.00 166.82 2504.33
   00:36:31.331.04-May-2020 4661.71   68.79 80.73 4.00 167.02 2504.33
   00:36:31.531.04-May-2020 4661.71   68.88 80.73 4.00 167.22 2504.33
   00:36:31.731.04-May-2020 4661.71   69.00 80.73 4.00 167.42 2504.33
   00:36:31.931.04-May-2020 4661.71   69.09 80.73 4.00 167.62 2504.33
   00:36:32.131.04-May-2020 4661.71   69.17 80.73 4.00 167.82 2504.33
   00:36:32.331.04-May-2020 4661.71   69.28 80.73 4.00 168.02 2504.33
   00:36:32.531.04-May-2020 4661.71   69.28 80.73 4.00 168.22 2504.33
   00:36:32.731.04-May-2020 4661.71   69.44 80.73 4.00 168.42 2504.33
   00:36:32.931.04-May-2020 4661.71   69.55 80.73 4.00 168.62 2504.33
   00:36:33.131.04-May-2020 4661.71   69.62 80.72 4.00 168.82 2504.33
   00:36:33.331.04-May-2020 4661.71   69.71 80.72 4.00 169.02 2504.33
   00:36:33.531.04-May-2020 4661.71   69.71 80.72 4.00 169.22 2504.33
   00:36:33.732.04-May-2020 4661.71   69.87 80.72 4.00 169.42 2504.33
   00:36:33.932.04-May-2020 4661.71   69.96 80.72 4.00 169.62 2504.33
   00:36:34.132.04-May-2020 4661.71   70.03 80.72 4.00 169.82 2504.33
   00:36:34.332.04-May-2020 4661.71   70.10 80.72 4.00 170.02 2504.33
   00:36:34.532.04-May-2020 4661.71   70.10 80.72 4.00 170.22 2504.33
   00:36:34.732.04-May-2020 4661.71   70.25 80.72 4.00 170.42 2504.33
   00:36:34.932.04-May-2020 4661.71   70.35 80.72 4.00 170.62 2504.33
   00:36:35.132.04-May-2020 4661.71   70.42 80.72 4.00 170.82 2504.33
   00:36:35.332.04-May-2020 4661.71   70.50 80.72 4.00 171.02 2504.33
   00:36:35.532.04-May-2020 4661.71   70.50 80.72 4.00 171.22 2504.33
   00:36:35.732.04-May-2020 4661.71   70.64 80.72 4.00 171.42 2504.33
   00:36:35.932.04-May-2020 4661.71   70.71 80.71 4.00 171.62 2504.33
   00:36:36.132.04-May-2020 4661.71   70.78 80.71 4.00 171.82 2504.33
   00:36:36.332.04-May-2020 4661.71   70.86 80.71 4.00 172.02 2504.33
   00:36:36.532.04-May-2020 4661.71   70.86 80.71 4.00 172.22 2504.33
   00:36:36.732.04-May-2020 4661.71   70.99 80.71 4.00 172.42 2504.33
   00:36:36.932.04-May-2020 4661.71   71.06 80.71 4.00 172.62 2504.33
   00:36:37.132.04-May-2020 4661.71   71.13 80.71 4.00 172.82 2504.33
   00:36:37.332.04-May-2020 4661.71   71.19 80.71 4.00 173.02 2504.33
   00:36:37.532.04-May-2020 4661.71   71.19 80.71 4.00 173.22 2504.33
   00:36:37.732.04-May-2020 4661.71   71.35 80.71 4.00 173.42 2504.33
   00:36:37.932.04-May-2020 4661.71   71.41 80.71 4.00 173.62 2504.33
   00:36:38.132.04-May-2020 4661.71   71.47 80.71 4.00 173.82 2504.33
   00:36:38.332.04-May-2020 4661.71   71.53 80.71 4.00 174.02 2504.33
   00:36:38.532.04-May-2020 4661.71   71.58 80.71 4.00 174.22 2504.33
   00:36:38.732.04-May-2020 4661.71   71.65 80.70 4.00 174.42 2504.33
   00:36:38.932.04-May-2020 4661.71   71.71 80.70 4.00 174.62 2504.33
   00:36:39.132.04-May-2020 4661.71   71.77 80.70 4.00 174.82 2504.33
   00:36:39.332.04-May-2020 4661.71   71.83 80.70 4.00 175.02 2504.33
   00:36:39.532.04-May-2020 4661.71   71.90 80.70 4.00 175.22 2504.33
   00:36:39.732.04-May-2020 4661.71   71.95 80.70 4.00 175.42 2504.33
   00:36:39.932.04-May-2020 4661.71   72.02 80.70 4.00 175.62 2504.33
   00:36:40.132.04-May-2020 4661.71   72.09 80.70 4.00 175.82 2504.33
   00:36:40.332.04-May-2020 4661.71   72.15 80.70 4.00 176.02 2504.33
   00:36:40.532.04-May-2020 4661.71   72.15 80.70 4.00 176.22 2504.33
   00:36:40.732.04-May-2020 4661.71   72.28 80.70 4.00 176.42 2504.33
   00:36:40.932.04-May-2020 4661.71   72.33 80.70 4.00 176.62 2504.33
   00:36:41.132.04-May-2020 4661.71   72.38 80.70 4.00 176.82 2504.33
   00:36:41.332.04-May-2020 4661.71   72.45 80.70 4.00 177.02 2504.33
   00:36:41.532.04-May-2020 4661.71   72.45 80.70 4.00 177.22 2504.33
   00:36:41.732.04-May-2020 4661.71   72.55 80.69 4.00 177.42 2504.33
   00:36:41.932.04-May-2020 4661.71   72.60 80.69 4.00 177.62 2504.33
   00:36:42.132.04-May-2020 4661.71   72.66 80.69 4.00 177.82 2504.33
   00:36:42.332.04-May-2020 4661.71   72.72 80.69 4.00 178.02 2504.33
   00:36:42.532.04-May-2020 4661.71   72.72 80.69 4.00 178.22 2504.33
   00:36:42.732.04-May-2020 4661.71   72.82 80.69 4.00 178.42 2504.33
   00:36:42.932.04-May-2020 4661.71   72.90 80.69 4.00 178.62 2504.33
   00:36:43.132.04-May-2020 4661.71   72.94 80.69 4.00 178.82 2504.33
   00:36:43.332.04-May-2020 4661.71   72.99 80.69 4.00 179.02 2504.33
   00:36:43.532.04-May-2020 4661.71   73.04 80.69 4.00 179.22 2504.33
   00:36:43.732.04-May-2020 4661.71   73.08 80.69 4.00 179.42 2504.33
   00:36:43.932.04-May-2020 4661.71   73.14 80.69 4.00 179.62 2504.33
   00:36:44.132.04-May-2020 4661.71   73.19 80.68 4.00 179.82 2504.33
   00:36:44.332.04-May-2020 4661.71   73.24 80.68 4.00 180.02 2504.33
   00:36:44.532.04-May-2020 4661.71   73.29 80.68 4.00 180.22 2504.33
   00:36:44.733.04-May-2020 4661.71   73.34 80.68 4.00 180.42 2504.33
   00:36:44.933.04-May-2020 4661.71   73.39 80.68 4.00 180.62 2504.33
   00:36:45.133.04-May-2020 4661.71   73.44 80.68 4.00 180.82 2504.33
   00:36:45.333.04-May-2020 4661.71   73.49 80.68 4.00 181.02 2504.33
   00:36:45.533.04-May-2020 4661.71   73.49 80.68 4.00 181.22 2504.33
   00:36:45.733.04-May-2020 4661.71   73.60 80.68 4.00 181.42 2504.33
   00:36:45.933.04-May-2020 4661.71   73.65 80.68 4.00 181.62 2504.33
   00:36:46.133.04-May-2020 4661.71   73.69 80.68 4.00 181.82 2504.33
   00:36:46.333.04-May-2020 4661.71   73.74 80.68 4.00 182.02 2504.33
   00:36:46.533.04-May-2020 4661.71   73.78 80.68 4.00 182.22 2504.33
   00:36:46.733.04-May-2020 4661.71   73.83 80.68 4.00 182.42 2504.33
   00:36:46.933.04-May-2020 4661.71   73.88 80.67 4.00 182.62 2504.33
   00:36:47.133.04-May-2020 4661.71   73.92 80.67 4.00 182.82 2504.33
   00:36:47.333.04-May-2020 4661.71   73.96 80.67 4.00 183.02 2504.33
   00:36:47.533.04-May-2020 4661.71   73.96 80.67 4.00 183.22 2504.33
   00:36:47.733.04-May-2020 4661.71   74.05 80.67 4.00 183.42 2504.33
   00:36:47.933.04-May-2020 4661.71   74.11 80.67 4.00 183.62 2504.33
   00:36:48.133.04-May-2020 4661.71   74.18 80.67 4.00 183.82 2504.33
