~Version Information
 VERS.                  2.0:   CWLS log ASCII Standard -VERSION 2.0
 WRAP.                   NO:   One line per depth step
~Well Information Block
#MNEM.UNIT     VALUE/NAME     DESCRIPTION
#---------     -----------    ---------------------------
 STRT.S             00:33:44 04-May-20: START TIME 00:33:44 04-May-20
 STOP.S             00:40:14 04-May-20: STOP TIME  00:40:14 04-May-20
 STEP.S                   0.00: STEP TIME
 NULL.                 -999.25: NULL VALUE
 DFWT.                        :  DIST FWL TEXT
 DFST.                        :  DIST FSL TEXT
 DMF .             Drill Floor:  DRILL MEAS FROM
 STIM.      03.00.00 25-Mar-20:  START TIME
 DATE.      00.00.00 19-May-20:  END TIME
 SPUD.               27-Aug-20:  SPUD DATE
 NREF.                    Grid:  NORTH REFERENCE
 HPTY.       Minimum Curvature:  HOLE POS TYPE
 DMOD.             Drill Model:  DRILL MOD DESC
 SVYD.                  Survey:  SURVEY DESC
 ILTD.               Lithology:  INTERP LTH DESC
 FTOP.          Formation Tops:  FORM TOPS DESC
 SON .        AZ-XX-0906252240:  JOB NUMBER
 RIG .             West Chirag:  RIG NAME
 PDAT.          Mean Sea Level:  PERMANENT DATUM
 FLD .                     ACG:  FIELD NAME
 CTRY.              Azerbaijan:  COUNTRY NAME
 WELL.                     J23:  WELL NAME
 SRVC.          Turan Drilling:  CONTRACTOR
 COMP.     BP Exploration (Caspian Sea) Ltd.:  COMPANY
 WTYP.                Deviated:  WELL TYPE
 MDS .        Operator Entered:  MAG DATA SOURCE
 UWI .                     N/A:  UNIQUE WELL IDENTIFIER
 API .                     N/A:  API NUMBER
 BASE.              Azerbaijan:  LOGGING EQUIPMENT BASE LOCATION
 REGN.                   EESSA:  REGION
 PROV.                    Baku:  PROVINCE
 STAT.                    Baku:  STATE NAME
 MWDS.                     N/A:  MWD SHOP
 JOBN.        AZ-XX-0906252240:  JOB TICKET NUMB
 DOE .                     N/A:  DOE NUMBER
 DCON.         Sperry Drilling:  DIRECTNL CONTR
 UNIT.                     N/A:  LOGGING EQUIPMENT ID
 CNTY.                        :  COUNTY
 LOC .                        :  LOCATION
 LMF .             Drill Floor:  LOG MEASURED FROM
 TVDS.m                  43.00:  TVDSS CORRECTN
 LATI.deg                40.13:  LATITUDE
 LONG.deg                51.22:  LONGITUDE
 WHNS.m                   9.43:  WELL HEAD N/S
 WHEW.m                  -8.91:  WELL HEAD E/W
 UTMX.m              519005.06:  UTM X
 UTMY.m             4443793.85:  UTM Y
 DFWL.m                   0.00:  DISTANCE FWL
 DFSL.m                   0.00:  DISTANCE FSL
 SDEP.m                 363.00:  START DEPTH
 TDD .m                5150.01:  TOTAL DEPTH (DRILLER)
 VSDR.deg               179.88:  VERT SEC DIRECT
 GVFD.g                   1.00:  GRAVITY FIELD
 MFLD.nT              50295.00:  MAGNETIC FIELD
 MDIP.deg                59.56:  MAGNETIC DIP
 MDEC.deg                 6.45:  MAGNETIC DECL
 GRDC.deg                 0.14:  GRID CORRECTION
 AZTC.deg                 6.31:  AZM TOTAL CORR
 EPD .m                   0.00:  ELEVATION
 EGL .m                   0.00:  GROUND ELEVATION
 WDMS.m                 169.80:  WD ELEV
 APD .m                  43.00:  DEPTH ABOVE PD
 DEP .m                 354.17:  DEPTH
 AGAP.m                  43.00:  AIR GAP
 VSEW.m                  -8.91:  VERT SEC E/W
 VSNS.m                   9.43:  VERT SEC N/S
 EKB .m                   0.00:  KB ELEVATION
 EDF .m                  43.00:  DF ELEVATION
 TDL .m                1351.00:  TOTAL DEPTH (LOGGER)
 VSC .                       0:  VS TO CLOSURE
 MAGU.                 1850802:  MAGUTM CHECKSUM
~Parameter Information Block
#MNEM.UNIT       Value        Description
#---------     -----------    ---------------------------
 AV  .mps                 1.00:  Ann Velocity 
 AVMX.mps                 2.40:  Max Ann Veloc 
 AZIF.deg               148.96:  Azm, Final 
 BHAT.        Rotary Steerable:  BHA Type 
 BROT.°/30m               0.04:  Build Rotating 
 BS  .in                 12.25:  Bit Size 
 BSZ .in                 12.25:  Bit Size 
 BTPL.psig              814.00:  Bit Press Loss 
 TCS .hr                106.00:  Time Ciculation Ended 
 CV  .mps                 2.47:  Crit Velocity 
 CVMX.mps                 2.64:  Max Crit Veloc 
 DD1 .          Rashad Habibov:  Direct Drillr 1 
 DD2 .         Rasim Ibrahimov:  Direct Drillr 2 
 DDSV.                 iCruise:  DD Service 
 DEFF.%                 100.00:  % Det Eff 
 DLRX.°/30m               0.70:  Dogleg Rot Max 
 DLSO.°/30m               3.00:  Dogleg Oriented 
 DLSX.°/30m               4.55:  Dogleg Str Max 
 DRET.      08.08.32 02-May-20:  Drill End Time 
 DRST.      08.08.32 28-Apr-20:  Drill Start Tim 
 DTIM.hr                 60.00:  Time Drilling 
 EDEP.m                4761.01:  End Depth 
 ENG1.           Eldar Hajiyev:  Engineer 1 
 ENG2.        Marcelo Sandoval:  Engineer 2 
 ETIM.      23.23.07 05-May-20:  End Time 
 FLOI.gpm              1200.00:  Flow In 
 FLON.gpm               900.00:  Flow In Min 
 FLOS.cptm                0.00:  Fluid Loss 
 FLOX.gpm              1200.00:  Flow In Max 
 HFLO.                      No:  High Flow 
 HPRE.                      No:  High Pressure 
 HTEM.                      No:  High Temp 
 HYDO.m                   1.80:  Hydro Offset 
 IFIN.deg                68.17:  Inc, Final 
 IMAX.deg                74.61:  Inc Max 
 IMIN.deg                68.15:  Inc Min 
 IMND.m                4317.87:  Inc Min Depth 
 IMXD.m                4714.01:  Inc Max Depth 
 LETM.      08.08.32 02-May-20:  Log End Time 
 LOST.hr                     2:  Lost Rig Time 
 LSTM.      08.08.32 28-Apr-20:  Log Start Time 
 MDCL.ppm             41000.00:  Mud Chlorides 
 MDES.     Inversion Oil/Synthetic:  Mud Desc 
 DFD .sg                  1.58:  Mud Density 
 MDMN.sg                  1.58:  Dens Mud Min 
 MDMX.sg                  1.58:  Dens Mud Max 
 MOIL.                      71:  Run Mud Oil % 
 MOWR.                   71:29:  Run Mud OWR 
 MSND.                     0.1:  Run Mud Sand % 
 MSOL.                      23:  Run Mud Solids% 
 DFV .spqt               82.00:  Mud Viscosity 
 MWOD.in                  8.00:  MWD Tool OD 
 MWSI.                     Yes:  Serv Intrp, MWD 
 OTIM.hr                125.00:  Time Operating 
 PMAX.psia             6129.00:  Press Op, Max 
 PV  .cP                 32.00:  Mud PV 
 RUN .                     800:  Run Number 
 ROPA.m/hr               30.00:  ROP Avg 
 ROPN.m/hr               10.00:  ROP Min 
 ROPX.m/hr               40.00:  ROP Max 
 RPMA.rpm               140.00:  RPM Surface Avg 
 RPMN.rpm                80.00:  RPM Surface Min 
 RPMX.rpm               140.00:  RPM Surface Max 
 RRUN.                    L503:  Rig Run Number 
 RTIM.hr                  2.00:  Time Reaming 
 SAZI.deg               184.23:  Azm, Start 
 SDEP.m                3410.01:  Start Depth 
 SIDD.                      No:  Serv Intrp, DD 
 SINC.deg                68.29:  Inc, Start 
 SPPA.psig             6000.00:  SPP Avg 
 SPPN.psig             4000.00:  SPP Min 
 SPPX.psig             6100.00:  SPP Max 
 STIM.      08.08.32 28-Apr-20:  Start Time 
 SVCS.                 DD, MWD:  Services 
 SVER.                    9.20:  Sperry Version 
 TDAT.m                1351.00:  Tot Depth Attmp 
 TDDF.                      No:  Trip for DD 
 TDLG.m                1351.00:  Tot Depth Loggd 
 TFF .                      No:  Trip for Fail 
 TQAA.f-kp               27.00:  Torque Abs Avg 
 TQAN.f-kp               20.00:  Torque Abs Min 
 TQAX.f-kp               30.00:  Torque Abs Max 
 TRRT.°/30m               0.60:  Turn Rotating 
 MRT .                    EWER:  Maximum Recorded Temperature 
 TTMX.degC               83.00:  Max Tool Temp 
 VS01.                90511138:  Virtual Str1 SN 
 VS02.                90524876:  Virtual Str2 SN 
 VS03.                90524872:  Virtual Str3 SN 
 VS04.                90502750:  Virtual Str4 SN 
 VS05.                12330984:  Virtual Str5 SN 
 WBMN.klb                 0.00:  WOB Min 
 WOBA.klb                15.00:  WOB Avg 
 WOBX.klb                20.00:  WOB Max 
 YP  .lhf2               31.00:  Yield Point 
~Curve Information Block
#MNEM.UNIT                 API CODE     Curve Description
#---------               -----------    ---------------------------
 TIME.HHMMSS            00 000 000 000:  GT Time & Date
 GTDEPTH.m              00 000 000 000:  GT Depth
 GTPQH.psia             00 000 000 000:  GT HR Quartz Pressure
 GTTQ.degC              00 000 000 000:  GT Quartz Temperature
 GTTN.NONE              00 000 000 000:  GT Test Number
 GTET.sec               00 000 000 000:  GT Elapsed Test Time
 GTTVD.m                00 000 000 000:  GT True Vertical Depth
#Other Information
#
#WARRANTY: Halliburton will use its best efforts to furnish customers with 
#accurate information and interpretations that are part of, and incident to, the services 
#provided.  However, Halliburton cannot and does not warrant the accuracy 
#or correctness of such information and interpretations.  Under no circumstances should any 
#such information or interpretation be relied upon as the sole basis for any drilling, 
#completion, production, or financial decision or any procedure involving any risk to the 
#safety of any drilling venture, drilling rig or its crew or any other third party.  The 
#Customer has full responsibility for all drilling, completion and production operation.  
#Halliburton makes no representations or warranties, either expressed or 
#implied, including, but not limited to, the implied warranties of merchantability or fitness 
#for a particular purpose, with respect to the services rendered.  In no event will 
#Halliburton be liable for failure to obtain any particular results or for 
#any damages, including, but not limited to, indirect, special or consequential damages, 
#resulting from the use of any information or interpretation provided by Halliburton.
#
~A           TIME           GTDEPTH  GTPQH  GTTQ  GTTN  GTET   GTTVD  
# ...
   00:37:34.337.04-May-2020 4661.71   80.82 80.50 4.00 230.02 2504.33
   00:37:34.537.04-May-2020 4661.71   80.82 80.50 4.00 230.22 2504.33
   00:37:34.737.04-May-2020 4661.71   80.85 80.49 4.00 230.42 2504.33
   00:37:34.937.04-May-2020 4661.71   80.88 80.49 4.00 230.62 2504.33
   00:37:35.137.04-May-2020 4661.71   80.92 80.49 4.00 230.82 2504.33
   00:37:35.337.04-May-2020 4661.71   80.93 80.49 4.00 231.02 2504.33
   00:37:35.537.04-May-2020 4661.71   80.93 80.49 4.00 231.22 2504.33
   00:37:35.737.04-May-2020 4661.71   80.96 80.49 4.00 231.42 2504.33
   00:37:35.937.04-May-2020 4661.71   80.97 80.49 4.00 231.62 2504.33
   00:37:36.137.04-May-2020 4661.71   80.99 80.49 4.00 231.82 2504.33
   00:37:36.337.04-May-2020 4661.71   81.00 80.49 4.00 232.02 2504.33
   00:37:36.537.04-May-2020 4661.71   81.03 80.49 4.00 232.22 2504.33
   00:37:36.737.04-May-2020 4661.71   81.04 80.49 4.00 232.42 2504.33
   00:37:36.937.04-May-2020 4661.71   81.06 80.49 4.00 232.62 2504.33
   00:37:37.137.04-May-2020 4661.71   81.08 80.48 4.00 232.82 2504.33
   00:37:37.337.04-May-2020 4661.71   81.10 80.48 4.00 233.02 2504.33
   00:37:37.537.04-May-2020 4661.71   81.10 80.48 4.00 233.22 2504.33
   00:37:37.737.04-May-2020 4661.71   81.15 80.48 4.00 233.42 2504.33
   00:37:37.937.04-May-2020 4661.71   81.16 80.48 4.00 233.62 2504.33
   00:37:38.137.04-May-2020 4661.71   81.20 80.48 4.00 233.82 2504.33
   00:37:38.337.04-May-2020 4661.71   81.20 80.48 4.00 234.02 2504.33
   00:37:38.537.04-May-2020 4661.71   81.22 80.48 4.00 234.22 2504.33
   00:37:38.737.04-May-2020 4661.71   81.24 80.48 4.00 234.42 2504.33
   00:37:38.937.04-May-2020 4661.71   81.26 80.48 4.00 234.62 2504.33
   00:37:39.137.04-May-2020 4661.71   81.27 80.48 4.00 234.82 2504.33
   00:37:39.337.04-May-2020 4661.71   81.28 80.48 4.00 235.02 2504.33
   00:37:39.537.04-May-2020 4661.71   81.28 80.48 4.00 235.22 2504.33
   00:37:39.737.04-May-2020 4661.71   81.34 80.47 4.00 235.42 2504.33
   00:37:39.938.04-May-2020 4661.71   81.34 80.47 4.00 235.62 2504.33
   00:37:40.138.04-May-2020 4661.71   81.36 80.47 4.00 235.82 2504.33
   00:37:40.338.04-May-2020 4661.71   81.38 80.47 4.00 236.02 2504.33
   00:37:40.538.04-May-2020 4661.71   81.40 80.47 4.00 236.22 2504.33
   00:37:40.738.04-May-2020 4661.71   81.42 80.47 4.00 236.42 2504.33
   00:37:40.938.04-May-2020 4661.71   81.43 80.47 4.00 236.62 2504.33
   00:37:41.138.04-May-2020 4661.71   81.45 80.47 4.00 236.82 2504.33
   00:37:41.338.04-May-2020 4661.71   81.47 80.47 4.00 237.02 2504.33
   00:37:41.538.04-May-2020 4661.71   81.47 80.47 4.00 237.22 2504.33
   00:37:41.738.04-May-2020 4661.71   81.49 80.47 4.00 237.42 2504.33
   00:37:41.938.04-May-2020 4661.71   81.52 80.47 4.00 237.62 2504.33
   00:37:42.138.04-May-2020 4661.71   81.53 80.46 4.00 237.82 2504.33
   00:37:42.338.04-May-2020 4661.71   81.55 80.46 4.00 238.02 2504.33
   00:37:42.538.04-May-2020 4661.71   81.55 80.46 4.00 238.22 2504.33
   00:37:42.738.04-May-2020 4661.71   81.59 80.46 4.00 238.42 2504.33
   00:37:42.938.04-May-2020 4661.71   81.60 80.46 4.00 238.62 2504.33
   00:37:43.138.04-May-2020 4661.71   81.62 80.46 4.00 238.82 2504.33
   00:37:43.338.04-May-2020 4661.71   81.66 80.46 4.00 239.02 2504.33
   00:37:43.538.04-May-2020 4661.71   81.67 80.46 4.00 239.22 2504.33
   00:37:43.738.04-May-2020 4661.71   81.68 80.46 4.00 239.42 2504.33
   00:37:43.938.04-May-2020 4661.71   81.70 80.46 4.00 239.62 2504.33
   00:37:44.138.04-May-2020 4661.71   81.71 80.46 4.00 239.82 2504.33
   00:37:44.338.04-May-2020 4661.71   81.72 80.46 4.00 240.02 2504.33
   00:37:44.538.04-May-2020 4661.71   81.72 80.46 4.00 240.22 2504.33
   00:37:44.738.04-May-2020 4661.71   81.76 80.45 4.00 240.42 2504.33
   00:37:44.938.04-May-2020 4661.71   81.76 80.45 4.00 240.62 2504.33
   00:37:45.138.04-May-2020 4661.71   81.79 80.45 4.00 240.82 2504.33
   00:37:45.338.04-May-2020 4661.71   81.80 80.45 4.00 241.02 2504.33
   00:37:45.538.04-May-2020 4661.71   81.80 80.45 4.00 241.22 2504.33
   00:37:45.738.04-May-2020 4661.71   81.86 80.45 4.00 241.42 2504.33
   00:37:45.938.04-May-2020 4661.71   81.87 80.45 4.00 241.62 2504.33
   00:37:46.138.04-May-2020 4661.71   81.89 80.45 4.00 241.82 2504.33
   00:37:46.338.04-May-2020 4661.71   81.91 80.45 4.00 242.02 2504.33
   00:37:46.538.04-May-2020 4661.71   81.92 80.45 4.00 242.22 2504.33
   00:37:46.738.04-May-2020 4661.71   81.93 80.45 4.00 242.42 2504.33
   00:37:46.938.04-May-2020 4661.71   81.96 80.45 4.00 242.62 2504.33
   00:37:47.138.04-May-2020 4661.71   81.96 80.45 4.00 242.82 2504.33
   00:37:47.338.04-May-2020 4661.71   81.97 80.44 4.00 243.02 2504.33
   00:37:47.538.04-May-2020 4661.71   81.97 80.44 4.00 243.22 2504.33
   00:37:47.738.04-May-2020 4661.71   82.00 80.44 4.00 243.42 2504.33
   00:37:47.938.04-May-2020 4661.71   82.05 80.44 4.00 243.62 2504.33
   00:37:48.138.04-May-2020 4661.71   82.05 80.44 4.00 243.82 2504.33
   00:37:48.338.04-May-2020 4661.71   82.06 80.44 4.00 244.02 2504.33
   00:37:48.538.04-May-2020 4661.71   82.07 80.44 4.00 244.22 2504.33
   00:37:48.738.04-May-2020 4661.71   82.11 80.44 4.00 244.42 2504.33
   00:37:48.938.04-May-2020 4661.71   82.12 80.44 4.00 244.62 2504.33
   00:37:49.138.04-May-2020 4661.71   82.13 80.44 4.00 244.82 2504.33
   00:37:49.338.04-May-2020 4661.71   82.13 80.44 4.00 245.02 2504.33
   00:37:49.538.04-May-2020 4661.71   82.13 80.44 4.00 245.22 2504.33
   00:37:49.738.04-May-2020 4661.71   82.17 80.43 4.00 245.42 2504.33
   00:37:49.938.04-May-2020 4661.71   82.18 80.43 4.00 245.62 2504.33
   00:37:50.138.04-May-2020 4661.71   82.20 80.43 4.00 245.82 2504.33
   00:37:50.338.04-May-2020 4661.71   82.21 80.43 4.00 246.02 2504.33
   00:37:50.538.04-May-2020 4661.71   82.23 80.43 4.00 246.22 2504.33
   00:37:50.738.04-May-2020 4661.71   82.24 80.43 4.00 246.42 2504.33
   00:37:50.938.04-May-2020 4661.71   82.26 80.43 4.00 246.62 2504.33
   00:37:51.139.04-May-2020 4661.71   82.27 80.43 4.00 246.82 2504.33
   00:37:51.339.04-May-2020 4661.71   82.29 80.43 4.00 247.02 2504.33
   00:37:51.539.04-May-2020 4661.71   82.34 80.43 4.00 247.22 2504.33
   00:37:51.739.04-May-2020 4661.71   82.34 80.43 4.00 247.42 2504.33
   00:37:51.939.04-May-2020 4661.71   82.35 80.43 4.00 247.62 2504.33
   00:37:52.139.04-May-2020 4661.71   82.37 80.43 4.00 247.82 2504.33
   00:37:52.339.04-May-2020 4661.71   82.38 80.42 4.00 248.02 2504.33
   00:37:52.539.04-May-2020 4661.71   82.38 80.42 4.00 248.22 2504.33
   00:37:52.739.04-May-2020 4661.71   82.41 80.42 4.00 248.42 2504.33
   00:37:52.939.04-May-2020 4661.71   82.42 80.42 4.00 248.62 2504.33
   00:37:53.139.04-May-2020 4661.71   82.44 80.42 4.00 248.82 2504.33
   00:37:53.339.04-May-2020 4661.71   82.46 80.42 4.00 249.02 2504.33
   00:37:53.539.04-May-2020 4661.71   82.46 80.42 4.00 249.22 2504.33
   00:37:53.739.04-May-2020 4661.71   82.48 80.42 4.00 249.42 2504.33
   00:37:53.939.04-May-2020 4661.71   82.52 80.42 4.00 249.62 2504.33
   00:37:54.139.04-May-2020 4661.71   82.53 80.42 4.00 249.82 2504.33
   00:37:54.339.04-May-2020 4661.71   82.54 80.42 4.00 250.02 2504.33
   00:37:54.539.04-May-2020 4661.71   82.54 80.42 4.00 250.22 2504.33
   00:37:54.739.04-May-2020 4661.71   82.57 80.41 4.00 250.42 2504.33
   00:37:54.939.04-May-2020 4661.71   82.58 80.41 4.00 250.62 2504.33
   00:37:55.139.04-May-2020 4661.71   82.61 80.41 4.00 250.82 2504.33
   00:37:55.339.04-May-2020 4661.71   82.61 80.41 4.00 251.02 2504.33
   00:37:55.539.04-May-2020 4661.71   82.61 80.41 4.00 251.22 2504.33
   00:37:55.739.04-May-2020 4661.71   82.64 80.41 4.00 251.42 2504.33
   00:37:55.939.04-May-2020 4661.71   82.66 80.41 4.00 251.62 2504.33
   00:37:56.139.04-May-2020 4661.71   82.68 80.41 4.00 251.82 2504.33
   00:37:56.339.04-May-2020 4661.71   82.69 80.41 4.00 252.02 2504.33
   00:37:56.539.04-May-2020 4661.71   82.69 80.41 4.00 252.22 2504.33
   00:37:56.739.04-May-2020 4661.71   82.71 80.41 4.00 252.42 2504.33
   00:37:56.939.04-May-2020 4661.71   82.75 80.41 4.00 252.62 2504.33
   00:37:57.139.04-May-2020 4661.71   82.75 80.41 4.00 252.82 2504.33
