~Version Information
 VERS.                  2.0:   CWLS log ASCII Standard -VERSION 2.0
 WRAP.                   NO:   One line per depth step
~Well Information Block
#MNEM.UNIT     VALUE/NAME     DESCRIPTION
#---------     -----------    ---------------------------
 STRT.S             13:13:41 03-May-20: START TIME 13:13:41 03-May-20
 STOP.S             13:20:16 03-May-20: STOP TIME  13:20:16 03-May-20
 STEP.S                   0.00: STEP TIME
 NULL.                 -999.25: NULL VALUE
 DFWT.                        :  DIST FWL TEXT
 DFST.                        :  DIST FSL TEXT
 DMF .             Drill Floor:  DRILL MEAS FROM
 STIM.      03.00.00 25-Mar-20:  START TIME
 DATE.      00.00.00 19-May-20:  END TIME
 SPUD.               27-Aug-20:  SPUD DATE
 NREF.                    Grid:  NORTH REFERENCE
 HPTY.       Minimum Curvature:  HOLE POS TYPE
 DMOD.             Drill Model:  DRILL MOD DESC
 SVYD.                  Survey:  SURVEY DESC
 ILTD.               Lithology:  INTERP LTH DESC
 FTOP.          Formation Tops:  FORM TOPS DESC
 SON .        AZ-XX-0906252240:  JOB NUMBER
 RIG .             West Chirag:  RIG NAME
 PDAT.          Mean Sea Level:  PERMANENT DATUM
 FLD .                     ACG:  FIELD NAME
 CTRY.              Azerbaijan:  COUNTRY NAME
 WELL.                     J23:  WELL NAME
 SRVC.          Turan Drilling:  CONTRACTOR
 COMP.     BP Exploration (Caspian Sea) Ltd.:  COMPANY
 WTYP.                Deviated:  WELL TYPE
 MDS .        Operator Entered:  MAG DATA SOURCE
 UWI .                     N/A:  UNIQUE WELL IDENTIFIER
 API .                     N/A:  API NUMBER
 BASE.              Azerbaijan:  LOGGING EQUIPMENT BASE LOCATION
 REGN.                   EESSA:  REGION
 PROV.                    Baku:  PROVINCE
 STAT.                    Baku:  STATE NAME
 MWDS.                     N/A:  MWD SHOP
 JOBN.        AZ-XX-0906252240:  JOB TICKET NUMB
 DOE .                     N/A:  DOE NUMBER
 DCON.         Sperry Drilling:  DIRECTNL CONTR
 UNIT.                     N/A:  LOGGING EQUIPMENT ID
 CNTY.                        :  COUNTY
 LOC .                        :  LOCATION
 LMF .             Drill Floor:  LOG MEASURED FROM
 TVDS.m                  43.00:  TVDSS CORRECTN
 LATI.deg                40.13:  LATITUDE
 LONG.deg                51.22:  LONGITUDE
 WHNS.m                   9.43:  WELL HEAD N/S
 WHEW.m                  -8.91:  WELL HEAD E/W
 UTMX.m              519005.06:  UTM X
 UTMY.m             4443793.85:  UTM Y
 DFWL.m                   0.00:  DISTANCE FWL
 DFSL.m                   0.00:  DISTANCE FSL
 SDEP.m                 363.00:  START DEPTH
 TDD .m                5150.01:  TOTAL DEPTH (DRILLER)
 VSDR.deg               179.88:  VERT SEC DIRECT
 GVFD.g                   1.00:  GRAVITY FIELD
 MFLD.nT              50295.00:  MAGNETIC FIELD
 MDIP.deg                59.56:  MAGNETIC DIP
 MDEC.deg                 6.45:  MAGNETIC DECL
 GRDC.deg                 0.14:  GRID CORRECTION
 AZTC.deg                 6.31:  AZM TOTAL CORR
 EPD .m                   0.00:  ELEVATION
 EGL .m                   0.00:  GROUND ELEVATION
 WDMS.m                 169.80:  WD ELEV
 APD .m                  43.00:  DEPTH ABOVE PD
 DEP .m                 354.17:  DEPTH
 AGAP.m                  43.00:  AIR GAP
 VSEW.m                  -8.91:  VERT SEC E/W
 VSNS.m                   9.43:  VERT SEC N/S
 EKB .m                   0.00:  KB ELEVATION
 EDF .m                  43.00:  DF ELEVATION
 TDL .m                1351.00:  TOTAL DEPTH (LOGGER)
 VSC .                       0:  VS TO CLOSURE
 MAGU.                 1850802:  MAGUTM CHECKSUM
~Parameter Information Block
#MNEM.UNIT       Value        Description
#---------     -----------    ---------------------------
 AV  .mps                 1.00:  Ann Velocity 
 AVMX.mps                 2.40:  Max Ann Veloc 
 AZIF.deg               148.96:  Azm, Final 
 BHAT.        Rotary Steerable:  BHA Type 
 BROT.°/30m               0.04:  Build Rotating 
 BS  .in                 12.25:  Bit Size 
 BSZ .in                 12.25:  Bit Size 
 BTPL.psig              814.00:  Bit Press Loss 
 TCS .hr                106.00:  Time Ciculation Ended 
 CV  .mps                 2.47:  Crit Velocity 
 CVMX.mps                 2.64:  Max Crit Veloc 
 DD1 .          Rashad Habibov:  Direct Drillr 1 
 DD2 .         Rasim Ibrahimov:  Direct Drillr 2 
 DDSV.                 iCruise:  DD Service 
 DEFF.%                 100.00:  % Det Eff 
 DLRX.°/30m               0.70:  Dogleg Rot Max 
 DLSO.°/30m               3.00:  Dogleg Oriented 
 DLSX.°/30m               4.55:  Dogleg Str Max 
 DRET.      08.08.32 02-May-20:  Drill End Time 
 DRST.      08.08.32 28-Apr-20:  Drill Start Tim 
 DTIM.hr                 60.00:  Time Drilling 
 EDEP.m                4761.01:  End Depth 
 ENG1.           Eldar Hajiyev:  Engineer 1 
 ENG2.        Marcelo Sandoval:  Engineer 2 
 ETIM.      23.23.07 05-May-20:  End Time 
 FLOI.gpm              1200.00:  Flow In 
 FLON.gpm               900.00:  Flow In Min 
 FLOS.cptm                0.00:  Fluid Loss 
 FLOX.gpm              1200.00:  Flow In Max 
 HFLO.                      No:  High Flow 
 HPRE.                      No:  High Pressure 
 HTEM.                      No:  High Temp 
 HYDO.m                   1.80:  Hydro Offset 
 IFIN.deg                68.17:  Inc, Final 
 IMAX.deg                74.61:  Inc Max 
 IMIN.deg                68.15:  Inc Min 
 IMND.m                4317.87:  Inc Min Depth 
 IMXD.m                4714.01:  Inc Max Depth 
 LETM.      08.08.32 02-May-20:  Log End Time 
 LOST.hr                     2:  Lost Rig Time 
 LSTM.      08.08.32 28-Apr-20:  Log Start Time 
 MDCL.ppm             41000.00:  Mud Chlorides 
 MDES.     Inversion Oil/Synthetic:  Mud Desc 
 DFD .sg                  1.58:  Mud Density 
 MDMN.sg                  1.58:  Dens Mud Min 
 MDMX.sg                  1.58:  Dens Mud Max 
 MOIL.                      71:  Run Mud Oil % 
 MOWR.                   71:29:  Run Mud OWR 
 MSND.                     0.1:  Run Mud Sand % 
 MSOL.                      23:  Run Mud Solids% 
 DFV .spqt               82.00:  Mud Viscosity 
 MWOD.in                  8.00:  MWD Tool OD 
 MWSI.                     Yes:  Serv Intrp, MWD 
 OTIM.hr                125.00:  Time Operating 
 PMAX.psia             6129.00:  Press Op, Max 
 PV  .cP                 32.00:  Mud PV 
 RUN .                     800:  Run Number 
 ROPA.m/hr               30.00:  ROP Avg 
 ROPN.m/hr               10.00:  ROP Min 
 ROPX.m/hr               40.00:  ROP Max 
 RPMA.rpm               140.00:  RPM Surface Avg 
 RPMN.rpm                80.00:  RPM Surface Min 
 RPMX.rpm               140.00:  RPM Surface Max 
 RRUN.                    L503:  Rig Run Number 
 RTIM.hr                  2.00:  Time Reaming 
 SAZI.deg               184.23:  Azm, Start 
 SDEP.m                3410.01:  Start Depth 
 SIDD.                      No:  Serv Intrp, DD 
 SINC.deg                68.29:  Inc, Start 
 SPPA.psig             6000.00:  SPP Avg 
 SPPN.psig             4000.00:  SPP Min 
 SPPX.psig             6100.00:  SPP Max 
 STIM.      08.08.32 28-Apr-20:  Start Time 
 SVCS.                 DD, MWD:  Services 
 SVER.                    9.20:  Sperry Version 
 TDAT.m                1351.00:  Tot Depth Attmp 
 TDDF.                      No:  Trip for DD 
 TDLG.m                1351.00:  Tot Depth Loggd 
 TFF .                      No:  Trip for Fail 
 TQAA.f-kp               27.00:  Torque Abs Avg 
 TQAN.f-kp               20.00:  Torque Abs Min 
 TQAX.f-kp               30.00:  Torque Abs Max 
 TRRT.°/30m               0.60:  Turn Rotating 
 MRT .                    EWER:  Maximum Recorded Temperature 
 TTMX.degC               83.00:  Max Tool Temp 
 VS01.                90511138:  Virtual Str1 SN 
 VS02.                90524876:  Virtual Str2 SN 
 VS03.                90524872:  Virtual Str3 SN 
 VS04.                90502750:  Virtual Str4 SN 
 VS05.                12330984:  Virtual Str5 SN 
 WBMN.klb                 0.00:  WOB Min 
 WOBA.klb                15.00:  WOB Avg 
 WOBX.klb                20.00:  WOB Max 
 YP  .lhf2               31.00:  Yield Point 
~Curve Information Block
#MNEM.UNIT                 API CODE     Curve Description
#---------               -----------    ---------------------------
 TIME.HHMMSS            00 000 000 000:  GT Time & Date
 GTDEPTH.m              00 000 000 000:  GT Depth
 GTPQH.psia             00 000 000 000:  GT HR Quartz Pressure
 GTTQ.degC              00 000 000 000:  GT Quartz Temperature
 GTTN.NONE              00 000 000 000:  GT Test Number
 GTET.sec               00 000 000 000:  GT Elapsed Test Time
 GTTVD.m                00 000 000 000:  GT True Vertical Depth
#Other Information
#
#WARRANTY: Halliburton will use its best efforts to furnish customers with 
#accurate information and interpretations that are part of, and incident to, the services 
#provided.  However, Halliburton cannot and does not warrant the accuracy 
#or correctness of such information and interpretations.  Under no circumstances should any 
#such information or interpretation be relied upon as the sole basis for any drilling, 
#completion, production, or financial decision or any procedure involving any risk to the 
#safety of any drilling venture, drilling rig or its crew or any other third party.  The 
#Customer has full responsibility for all drilling, completion and production operation.  
#Halliburton makes no representations or warranties, either expressed or 
#implied, including, but not limited to, the implied warranties of merchantability or fitness 
#for a particular purpose, with respect to the services rendered.  In no event will 
#Halliburton be liable for failure to obtain any particular results or for 
#any damages, including, but not limited to, indirect, special or consequential damages, 
#resulting from the use of any information or interpretation provided by Halliburton.
#
~A           TIME           GTDEPTH  GTPQH  GTTQ  GTTN  GTET   GTTVD  
# ...
   13:14:27.483.03-May-2020 4532.80 5778.69 80.66 1.00  46.07 2465.99
   13:14:27.683.03-May-2020 4532.80 5779.94 80.66 1.00  46.27 2465.99
   13:14:27.884.03-May-2020 4532.80 5808.83 80.66 1.00  46.47 2465.99
   13:14:28.084.03-May-2020 4532.80 5745.79 80.66 1.00  46.67 2465.99
   13:14:28.284.03-May-2020 4532.80 5744.79 80.66 1.00  46.87 2465.99
   13:14:28.485.03-May-2020 4532.80 5743.86 80.66 1.00  47.07 2465.99
   13:14:28.685.03-May-2020 4532.80 5743.86 80.66 1.00  47.27 2465.99
   13:14:28.885.03-May-2020 4532.80 5744.01 80.66 1.00  47.47 2465.99
   13:14:29.085.03-May-2020 4532.80 5744.13 80.66 1.00  47.67 2465.99
   13:14:29.286.03-May-2020 4532.80 5744.46 80.66 1.00  47.88 2465.99
   13:14:29.486.03-May-2020 4532.80 5744.68 80.66 1.00  48.08 2465.99
   13:14:29.686.03-May-2020 4532.80 5741.76 80.65 1.00  48.28 2465.99
   13:14:29.887.03-May-2020 4532.80 5738.79 80.65 1.00  48.48 2465.99
   13:14:30.087.03-May-2020 4532.80 5741.57 80.65 1.00  48.68 2465.99
   13:14:30.287.03-May-2020 4532.80 5737.67 80.65 1.00  48.88 2465.99
   13:14:30.488.03-May-2020 4532.80 5737.66 80.65 1.00  49.08 2465.99
   13:14:30.688.03-May-2020 4532.80 5737.66 80.65 1.00  49.28 2465.99
   13:14:30.888.03-May-2020 4532.80 5719.52 80.65 1.00  49.48 2465.99
   13:14:31.089.03-May-2020 4532.80 5578.97 80.65 1.00  49.68 2465.99
   13:14:31.289.03-May-2020 4532.80 5442.13 80.65 1.00  49.88 2465.99
   13:14:31.489.03-May-2020 4532.80 5259.04 80.65 1.00  50.08 2465.99
   13:14:31.690.03-May-2020 4532.80 5032.78 80.65 1.00  50.28 2465.99
   13:14:31.890.03-May-2020 4532.80 4777.22 80.65 1.00  50.48 2465.99
   13:14:32.090.03-May-2020 4532.80 4516.45 80.65 1.00  50.68 2465.99
   13:14:32.291.03-May-2020 4532.80 4230.83 80.65 1.00  50.88 2465.99
   13:14:32.491.03-May-2020 4532.80 3918.63 80.64 1.00  51.08 2465.99
   13:14:32.691.03-May-2020 4532.80 3918.63 80.64 1.00  51.28 2465.99
   13:14:32.891.03-May-2020 4532.80 3597.06 80.64 1.00  51.48 2465.99
   13:14:33.092.03-May-2020 4532.80 3589.30 80.64 1.00  51.68 2465.99
   13:14:33.292.03-May-2020 4532.80 3598.19 80.64 1.00  51.88 2465.99
   13:14:33.492.03-May-2020 4532.80 3581.33 80.64 1.00  52.08 2465.99
   13:14:33.693.03-May-2020 4532.80 3581.33 80.64 1.00  52.28 2465.99
   13:14:33.893.03-May-2020 4532.80 3529.63 80.63 1.00  52.48 2465.99
   13:14:34.093.03-May-2020 4532.80 3520.48 80.63 1.00  52.68 2465.99
   13:14:34.294.03-May-2020 4532.80 3521.89 80.63 1.00  52.88 2465.99
   13:14:34.494.03-May-2020 4532.80 3516.78 80.63 1.00  53.08 2465.99
   13:14:34.694.03-May-2020 4532.80 3516.78 80.63 1.00  53.28 2465.99
   13:14:34.895.03-May-2020 4532.80 3514.85 80.62 1.00  53.48 2465.99
   13:14:35.095.03-May-2020 4532.80 3509.19 80.62 1.00  53.68 2465.99
   13:14:35.295.03-May-2020 4532.80 3501.44 80.62 1.00  53.88 2465.99
   13:14:35.496.03-May-2020 4532.80 3492.52 80.62 1.00  54.09 2465.99
   13:14:35.696.03-May-2020 4532.80 3492.52 80.62 1.00  54.29 2465.99
   13:14:35.896.03-May-2020 4532.80 3484.86 80.61 1.00  54.49 2465.99
   13:14:36.097.03-May-2020 4532.80 3478.54 80.61 1.00  54.69 2465.99
   13:14:36.297.03-May-2020 4532.80 3475.80 80.61 1.00  54.89 2465.99
   13:14:36.497.03-May-2020 4532.80 3473.22 80.60 1.00  55.09 2465.99
   13:14:36.697.03-May-2020 4532.80 3473.22 80.60 1.00  55.29 2465.99
   13:14:36.898.03-May-2020 4532.80 3467.24 80.60 1.00  55.49 2465.99
   13:14:37.098.03-May-2020 4532.80 3466.69 80.60 1.00  55.69 2465.99
   13:14:37.298.03-May-2020 4532.80 3469.29 80.60 1.00  55.89 2465.99
   13:14:37.499.03-May-2020 4532.80 3473.55 80.59 1.00  56.09 2465.99
   13:14:37.699.03-May-2020 4532.80 3473.55 80.59 1.00  56.29 2465.99
   13:14:37.899.03-May-2020 4532.80 3477.86 80.59 1.00  56.49 2465.99
   13:14:38.100.03-May-2020 4532.80 3482.31 80.59 1.00  56.69 2465.99
   13:14:38.300.03-May-2020 4532.80 3538.14 80.59 1.00  56.89 2465.99
   13:14:38.500.03-May-2020 4532.80 3814.05 80.59 1.00  57.09 2465.99
   13:14:38.701.03-May-2020 4532.80 3814.05 80.59 1.00  57.29 2465.99
   13:14:38.901.03-May-2020 4532.80 4026.25 80.58 1.00  57.49 2465.99
   13:14:39.101.03-May-2020 4532.80 4058.78 80.58 1.00  57.69 2465.99
   13:14:39.302.03-May-2020 4532.80 4075.67 80.58 1.00  57.89 2465.99
   13:14:39.502.03-May-2020 4532.80 4084.34 80.58 1.00  58.09 2465.99
   13:14:39.702.03-May-2020 4532.80 4091.06 80.58 1.00  58.29 2465.99
   13:14:39.902.03-May-2020 4532.80 4095.31 80.58 1.00  58.49 2465.99
   13:14:40.103.03-May-2020 4532.80 4098.58 80.57 1.00  58.69 2465.99
   13:14:40.303.03-May-2020 4532.80 4100.66 80.57 1.00  58.89 2465.99
   13:14:40.503.03-May-2020 4532.80 4101.40 80.57 1.00  59.09 2465.99
   13:14:40.704.03-May-2020 4532.80 4101.40 80.57 1.00  59.29 2465.99
   13:14:40.904.03-May-2020 4532.80 4105.51 80.57 1.00  59.49 2465.99
   13:14:41.104.03-May-2020 4532.80 4106.96 80.57 1.00  59.69 2465.99
   13:14:41.305.03-May-2020 4532.80 4107.69 80.57 1.00  59.89 2465.99
   13:14:41.505.03-May-2020 4532.80 4108.13 80.57 1.00  60.09 2465.99
   13:14:41.705.03-May-2020 4532.80 4108.13 80.57 1.00  60.29 2465.99
   13:14:41.906.03-May-2020 4532.80 4110.30 80.57 1.00  60.50 2465.99
   13:14:42.106.03-May-2020 4532.80 4110.68 80.57 1.00  60.70 2465.99
   13:14:42.306.03-May-2020 4532.80 4111.42 80.57 1.00  60.90 2465.99
   13:14:42.507.03-May-2020 4532.80 4111.72 80.57 1.00  61.10 2465.99
   13:14:42.707.03-May-2020 4532.80 4111.72 80.57 1.00  61.30 2465.99
   13:14:42.907.03-May-2020 4532.80 4112.72 80.56 1.00  61.50 2465.99
   13:14:43.108.03-May-2020 4532.80 4113.09 80.56 1.00  61.70 2465.99
   13:14:43.308.03-May-2020 4532.80 4113.57 80.56 1.00  61.90 2465.99
   13:14:43.508.03-May-2020 4532.80 4113.81 80.56 1.00  62.10 2465.99
   13:14:43.708.03-May-2020 4532.80 4114.16 80.56 1.00  62.30 2465.99
   13:14:43.909.03-May-2020 4532.80 4114.46 80.56 1.00  62.50 2465.99
   13:14:44.109.03-May-2020 4532.80 4114.70 80.56 1.00  62.70 2465.99
   13:14:44.309.03-May-2020 4532.80 4115.10 80.56 1.00  62.90 2465.99
   13:14:44.510.03-May-2020 4532.80 4115.58 80.56 1.00  63.10 2465.99
   13:14:44.710.03-May-2020 4532.80 4115.58 80.56 1.00  63.30 2465.99
   13:14:44.910.03-May-2020 4532.80 4115.96 80.56 1.00  63.50 2465.99
   13:14:45.111.03-May-2020 4532.80 4116.18 80.56 1.00  63.70 2465.99
   13:14:45.311.03-May-2020 4532.80 4116.22 80.56 1.00  63.90 2465.99
   13:14:45.511.03-May-2020 4532.80 4116.46 80.56 1.00  64.10 2465.99
   13:14:45.712.03-May-2020 4532.80 4116.46 80.56 1.00  64.30 2465.99
   13:14:45.912.03-May-2020 4532.80 4116.81 80.56 1.00  64.50 2465.99
   13:14:46.112.03-May-2020 4532.80 4117.04 80.56 1.00  64.70 2465.99
   13:14:46.313.03-May-2020 4532.80 4117.08 80.56 1.00  64.90 2465.99
   13:14:46.513.03-May-2020 4532.80 4117.27 80.56 1.00  65.10 2465.99
   13:14:46.713.03-May-2020 4532.80 4117.27 80.56 1.00  65.30 2465.99
   13:14:46.914.03-May-2020 4532.80 4117.64 80.56 1.00  65.50 2465.99
   13:14:47.114.03-May-2020 4532.80 4118.11 80.56 1.00  65.70 2465.99
   13:14:47.314.03-May-2020 4532.80 4118.39 80.56 1.00  65.90 2465.99
   13:14:47.514.03-May-2020 4532.80 4117.87 80.56 1.00  66.10 2465.99
   13:14:47.715.03-May-2020 4532.80 4118.58 80.56 1.00  66.30 2465.99
   13:14:47.915.03-May-2020 4532.80 4118.60 80.56 1.00  66.50 2465.99
   13:14:48.115.03-May-2020 4532.80 4118.73 80.56 1.00  66.70 2465.99
   13:14:48.316.03-May-2020 4532.80 4118.86 80.55 1.00  66.91 2465.99
   13:14:48.516.03-May-2020 4532.80 4119.36 80.55 1.00  67.11 2465.99
   13:14:48.716.03-May-2020 4532.80 4119.36 80.55 1.00  67.31 2465.99
   13:14:48.917.03-May-2020 4532.80 4119.05 80.55 1.00  67.51 2465.99
   13:14:49.117.03-May-2020 4532.80 4119.13 80.55 1.00  67.71 2465.99
   13:14:49.317.03-May-2020 4532.80 4119.17 80.55 1.00  67.91 2465.99
   13:14:49.518.03-May-2020 4532.80 4119.87 80.55 1.00  68.11 2465.99
   13:14:49.718.03-May-2020 4532.80 4119.87 80.55 1.00  68.31 2465.99
   13:14:49.918.03-May-2020 4532.80 4119.47 80.55 1.00  68.51 2465.99
   13:14:50.119.03-May-2020 4532.80 4120.13 80.55 1.00  68.71 2465.99
   13:14:50.319.03-May-2020 4532.80 4119.98 80.55 1.00  68.91 2465.99
