~Version Information
 VERS.                  2.0:   CWLS log ASCII Standard -VERSION 2.0
 WRAP.                   NO:   One line per depth step
~Well Information Block
#MNEM.UNIT     VALUE/NAME     DESCRIPTION
#---------     -----------    ---------------------------
 STRT.S             10:50:58 04-May-20: START TIME 10:50:58 04-May-20
 STOP.S             10:57:32 04-May-20: STOP TIME  10:57:32 04-May-20
 STEP.S                   0.00: STEP TIME
 NULL.                 -999.25: NULL VALUE
 DFWT.                        :  DIST FWL TEXT
 DFST.                        :  DIST FSL TEXT
 DMF .             Drill Floor:  DRILL MEAS FROM
 STIM.      03.00.00 25-Mar-20:  START TIME
 DATE.      00.00.00 19-May-20:  END TIME
 SPUD.               27-Aug-20:  SPUD DATE
 NREF.                    Grid:  NORTH REFERENCE
 HPTY.       Minimum Curvature:  HOLE POS TYPE
 DMOD.             Drill Model:  DRILL MOD DESC
 SVYD.                  Survey:  SURVEY DESC
 ILTD.               Lithology:  INTERP LTH DESC
 FTOP.          Formation Tops:  FORM TOPS DESC
 SON .        AZ-XX-0906252240:  JOB NUMBER
 RIG .             West Chirag:  RIG NAME
 PDAT.          Mean Sea Level:  PERMANENT DATUM
 FLD .                     ACG:  FIELD NAME
 CTRY.              Azerbaijan:  COUNTRY NAME
 WELL.                     J23:  WELL NAME
 SRVC.          Turan Drilling:  CONTRACTOR
 COMP.     BP Exploration (Caspian Sea) Ltd.:  COMPANY
 WTYP.                Deviated:  WELL TYPE
 MDS .        Operator Entered:  MAG DATA SOURCE
 UWI .                     N/A:  UNIQUE WELL IDENTIFIER
 API .                     N/A:  API NUMBER
 BASE.              Azerbaijan:  LOGGING EQUIPMENT BASE LOCATION
 REGN.                   EESSA:  REGION
 PROV.                    Baku:  PROVINCE
 STAT.                    Baku:  STATE NAME
 MWDS.                     N/A:  MWD SHOP
 JOBN.        AZ-XX-0906252240:  JOB TICKET NUMB
 DOE .                     N/A:  DOE NUMBER
 DCON.         Sperry Drilling:  DIRECTNL CONTR
 UNIT.                     N/A:  LOGGING EQUIPMENT ID
 CNTY.                        :  COUNTY
 LOC .                        :  LOCATION
 LMF .             Drill Floor:  LOG MEASURED FROM
 TVDS.m                  43.00:  TVDSS CORRECTN
 LATI.deg                40.13:  LATITUDE
 LONG.deg                51.22:  LONGITUDE
 WHNS.m                   9.43:  WELL HEAD N/S
 WHEW.m                  -8.91:  WELL HEAD E/W
 UTMX.m              519005.06:  UTM X
 UTMY.m             4443793.85:  UTM Y
 DFWL.m                   0.00:  DISTANCE FWL
 DFSL.m                   0.00:  DISTANCE FSL
 SDEP.m                 363.00:  START DEPTH
 TDD .m                5150.01:  TOTAL DEPTH (DRILLER)
 VSDR.deg               179.88:  VERT SEC DIRECT
 GVFD.g                   1.00:  GRAVITY FIELD
 MFLD.nT              50295.00:  MAGNETIC FIELD
 MDIP.deg                59.56:  MAGNETIC DIP
 MDEC.deg                 6.45:  MAGNETIC DECL
 GRDC.deg                 0.14:  GRID CORRECTION
 AZTC.deg                 6.31:  AZM TOTAL CORR
 EPD .m                   0.00:  ELEVATION
 EGL .m                   0.00:  GROUND ELEVATION
 WDMS.m                 169.80:  WD ELEV
 APD .m                  43.00:  DEPTH ABOVE PD
 DEP .m                 354.17:  DEPTH
 AGAP.m                  43.00:  AIR GAP
 VSEW.m                  -8.91:  VERT SEC E/W
 VSNS.m                   9.43:  VERT SEC N/S
 EKB .m                   0.00:  KB ELEVATION
 EDF .m                  43.00:  DF ELEVATION
 TDL .m                1351.00:  TOTAL DEPTH (LOGGER)
 VSC .                       0:  VS TO CLOSURE
 MAGU.                 1850802:  MAGUTM CHECKSUM
~Parameter Information Block
#MNEM.UNIT       Value        Description
#---------     -----------    ---------------------------
 AV  .mps                 1.00:  Ann Velocity 
 AVMX.mps                 2.40:  Max Ann Veloc 
 AZIF.deg               148.96:  Azm, Final 
 BHAT.        Rotary Steerable:  BHA Type 
 BROT.°/30m               0.04:  Build Rotating 
 BS  .in                 12.25:  Bit Size 
 BSZ .in                 12.25:  Bit Size 
 BTPL.psig              814.00:  Bit Press Loss 
 TCS .hr                106.00:  Time Ciculation Ended 
 CV  .mps                 2.47:  Crit Velocity 
 CVMX.mps                 2.64:  Max Crit Veloc 
 DD1 .          Rashad Habibov:  Direct Drillr 1 
 DD2 .         Rasim Ibrahimov:  Direct Drillr 2 
 DDSV.                 iCruise:  DD Service 
 DEFF.%                 100.00:  % Det Eff 
 DLRX.°/30m               0.70:  Dogleg Rot Max 
 DLSO.°/30m               3.00:  Dogleg Oriented 
 DLSX.°/30m               4.55:  Dogleg Str Max 
 DRET.      08.08.32 02-May-20:  Drill End Time 
 DRST.      08.08.32 28-Apr-20:  Drill Start Tim 
 DTIM.hr                 60.00:  Time Drilling 
 EDEP.m                4761.01:  End Depth 
 ENG1.           Eldar Hajiyev:  Engineer 1 
 ENG2.        Marcelo Sandoval:  Engineer 2 
 ETIM.      23.23.07 05-May-20:  End Time 
 FLOI.gpm              1200.00:  Flow In 
 FLON.gpm               900.00:  Flow In Min 
 FLOS.cptm                0.00:  Fluid Loss 
 FLOX.gpm              1200.00:  Flow In Max 
 HFLO.                      No:  High Flow 
 HPRE.                      No:  High Pressure 
 HTEM.                      No:  High Temp 
 HYDO.m                   1.80:  Hydro Offset 
 IFIN.deg                68.17:  Inc, Final 
 IMAX.deg                74.61:  Inc Max 
 IMIN.deg                68.15:  Inc Min 
 IMND.m                4317.87:  Inc Min Depth 
 IMXD.m                4714.01:  Inc Max Depth 
 LETM.      08.08.32 02-May-20:  Log End Time 
 LOST.hr                     2:  Lost Rig Time 
 LSTM.      08.08.32 28-Apr-20:  Log Start Time 
 MDCL.ppm             41000.00:  Mud Chlorides 
 MDES.     Inversion Oil/Synthetic:  Mud Desc 
 DFD .sg                  1.58:  Mud Density 
 MDMN.sg                  1.58:  Dens Mud Min 
 MDMX.sg                  1.58:  Dens Mud Max 
 MOIL.                      71:  Run Mud Oil % 
 MOWR.                   71:29:  Run Mud OWR 
 MSND.                     0.1:  Run Mud Sand % 
 MSOL.                      23:  Run Mud Solids% 
 DFV .spqt               82.00:  Mud Viscosity 
 MWOD.in                  8.00:  MWD Tool OD 
 MWSI.                     Yes:  Serv Intrp, MWD 
 OTIM.hr                125.00:  Time Operating 
 PMAX.psia             6129.00:  Press Op, Max 
 PV  .cP                 32.00:  Mud PV 
 RUN .                     800:  Run Number 
 ROPA.m/hr               30.00:  ROP Avg 
 ROPN.m/hr               10.00:  ROP Min 
 ROPX.m/hr               40.00:  ROP Max 
 RPMA.rpm               140.00:  RPM Surface Avg 
 RPMN.rpm                80.00:  RPM Surface Min 
 RPMX.rpm               140.00:  RPM Surface Max 
 RRUN.                    L503:  Rig Run Number 
 RTIM.hr                  2.00:  Time Reaming 
 SAZI.deg               184.23:  Azm, Start 
 SDEP.m                3410.01:  Start Depth 
 SIDD.                      No:  Serv Intrp, DD 
 SINC.deg                68.29:  Inc, Start 
 SPPA.psig             6000.00:  SPP Avg 
 SPPN.psig             4000.00:  SPP Min 
 SPPX.psig             6100.00:  SPP Max 
 STIM.      08.08.32 28-Apr-20:  Start Time 
 SVCS.                 DD, MWD:  Services 
 SVER.                    9.20:  Sperry Version 
 TDAT.m                1351.00:  Tot Depth Attmp 
 TDDF.                      No:  Trip for DD 
 TDLG.m                1351.00:  Tot Depth Loggd 
 TFF .                      No:  Trip for Fail 
 TQAA.f-kp               27.00:  Torque Abs Avg 
 TQAN.f-kp               20.00:  Torque Abs Min 
 TQAX.f-kp               30.00:  Torque Abs Max 
 TRRT.°/30m               0.60:  Turn Rotating 
 MRT .                    EWER:  Maximum Recorded Temperature 
 TTMX.degC               83.00:  Max Tool Temp 
 VS01.                90511138:  Virtual Str1 SN 
 VS02.                90524876:  Virtual Str2 SN 
 VS03.                90524872:  Virtual Str3 SN 
 VS04.                90502750:  Virtual Str4 SN 
 VS05.                12330984:  Virtual Str5 SN 
 WBMN.klb                 0.00:  WOB Min 
 WOBA.klb                15.00:  WOB Avg 
 WOBX.klb                20.00:  WOB Max 
 YP  .lhf2               31.00:  Yield Point 
~Curve Information Block
#MNEM.UNIT                 API CODE     Curve Description
#---------               -----------    ---------------------------
 TIME.HHMMSS            00 000 000 000:  GT Time & Date
 GTDEPTH.m              00 000 000 000:  GT Depth
 GTPQH.psia             00 000 000 000:  GT HR Quartz Pressure
 GTTQ.degC              00 000 000 000:  GT Quartz Temperature
 GTTN.NONE              00 000 000 000:  GT Test Number
 GTET.sec               00 000 000 000:  GT Elapsed Test Time
 GTTVD.m                00 000 000 000:  GT True Vertical Depth
#Other Information
#
#WARRANTY: Halliburton will use its best efforts to furnish customers with 
#accurate information and interpretations that are part of, and incident to, the services 
#provided.  However, Halliburton cannot and does not warrant the accuracy 
#or correctness of such information and interpretations.  Under no circumstances should any 
#such information or interpretation be relied upon as the sole basis for any drilling, 
#completion, production, or financial decision or any procedure involving any risk to the 
#safety of any drilling venture, drilling rig or its crew or any other third party.  The 
#Customer has full responsibility for all drilling, completion and production operation.  
#Halliburton makes no representations or warranties, either expressed or 
#implied, including, but not limited to, the implied warranties of merchantability or fitness 
#for a particular purpose, with respect to the services rendered.  In no event will 
#Halliburton be liable for failure to obtain any particular results or for 
#any damages, including, but not limited to, indirect, special or consequential damages, 
#resulting from the use of any information or interpretation provided by Halliburton.
#
~A           TIME           GTDEPTH  GTPQH  GTTQ  GTTN  GTET   GTTVD  
# ...
   10:52:07.258.04-May-2020 4718.46 4246.26 82.08 6.00  69.01 2519.85
   10:52:07.458.04-May-2020 4718.46 4246.26 82.08 6.00  69.21 2519.85
   10:52:07.658.04-May-2020 4718.46 4246.90 82.08 6.00  69.41 2519.85
   10:52:07.858.04-May-2020 4718.46 4247.21 82.08 6.00  69.61 2519.85
   10:52:08.058.04-May-2020 4718.46 4247.10 82.08 6.00  69.81 2519.85
   10:52:08.258.04-May-2020 4718.46 4247.03 82.08 6.00  70.01 2519.85
   10:52:08.458.04-May-2020 4718.46 4247.03 82.08 6.00  70.21 2519.85
   10:52:08.658.04-May-2020 4718.46 4247.16 82.08 6.00  70.41 2519.85
   10:52:08.858.04-May-2020 4718.46 4248.05 82.08 6.00  70.61 2519.85
   10:52:09.058.04-May-2020 4718.46 4248.00 82.08 6.00  70.81 2519.85
   10:52:09.258.04-May-2020 4718.46 4248.33 82.08 6.00  71.01 2519.85
   10:52:09.458.04-May-2020 4718.46 4248.33 82.08 6.00  71.21 2519.85
   10:52:09.658.04-May-2020 4718.46 4248.65 82.08 6.00  71.41 2519.85
   10:52:09.858.04-May-2020 4718.46 4248.92 82.08 6.00  71.61 2519.85
   10:52:10.058.04-May-2020 4718.46 4249.04 82.07 6.00  71.81 2519.85
   10:52:10.258.04-May-2020 4718.46 4249.07 82.07 6.00  72.01 2519.85
   10:52:10.458.04-May-2020 4718.46 4249.07 82.07 6.00  72.21 2519.85
   10:52:10.658.04-May-2020 4718.46 4249.02 82.07 6.00  72.41 2519.85
   10:52:10.858.04-May-2020 4718.46 4248.80 82.07 6.00  72.61 2519.85
   10:52:11.058.04-May-2020 4718.46 4248.82 82.07 6.00  72.81 2519.85
   10:52:11.258.04-May-2020 4718.46 4249.43 82.07 6.00  73.01 2519.85
   10:52:11.458.04-May-2020 4718.46 4249.43 82.07 6.00  73.21 2519.85
   10:52:11.659.04-May-2020 4718.46 4249.26 82.07 6.00  73.41 2519.85
   10:52:11.859.04-May-2020 4718.46 4249.40 82.07 6.00  73.61 2519.85
   10:52:12.059.04-May-2020 4718.46 4250.30 82.07 6.00  73.81 2519.85
   10:52:12.259.04-May-2020 4718.46 4249.27 82.07 6.00  74.01 2519.85
   10:52:12.459.04-May-2020 4718.46 4249.27 82.07 6.00  74.21 2519.85
   10:52:12.659.04-May-2020 4718.46 4249.59 82.07 6.00  74.41 2519.85
   10:52:12.859.04-May-2020 4718.46 4249.68 82.07 6.00  74.61 2519.85
   10:52:13.059.04-May-2020 4718.46 4249.71 82.07 6.00  74.81 2519.85
   10:52:13.259.04-May-2020 4718.46 4249.69 82.07 6.00  75.01 2519.85
   10:52:13.459.04-May-2020 4718.46 4249.69 82.07 6.00  75.21 2519.85
   10:52:13.659.04-May-2020 4718.46 4249.37 82.07 6.00  75.41 2519.85
   10:52:13.859.04-May-2020 4718.46 4249.95 82.07 6.00  75.61 2519.85
   10:52:14.059.04-May-2020 4718.46 4249.91 82.07 6.00  75.81 2519.85
   10:52:14.259.04-May-2020 4718.46 4249.69 82.06 6.00  76.01 2519.85
   10:52:14.459.04-May-2020 4718.46 4249.69 82.06 6.00  76.21 2519.85
   10:52:14.659.04-May-2020 4718.46 4250.62 82.06 6.00  76.41 2519.85
   10:52:14.859.04-May-2020 4718.46 4250.36 82.06 6.00  76.61 2519.85
   10:52:15.059.04-May-2020 4718.46 4250.71 82.06 6.00  76.81 2519.85
   10:52:15.259.04-May-2020 4718.46 4250.80 82.06 6.00  77.01 2519.85
   10:52:15.459.04-May-2020 4718.46 4250.80 82.06 6.00  77.21 2519.85
   10:52:15.659.04-May-2020 4718.46 4250.96 82.06 6.00  77.41 2519.85
   10:52:15.859.04-May-2020 4718.46 4251.02 82.06 6.00  77.61 2519.85
   10:52:16.059.04-May-2020 4718.46 4251.34 82.06 6.00  77.81 2519.85
   10:52:16.259.04-May-2020 4718.46 4251.58 82.06 6.00  78.01 2519.85
   10:52:16.459.04-May-2020 4718.46 4251.58 82.06 6.00  78.21 2519.85
   10:52:16.659.04-May-2020 4718.46 4251.75 82.06 6.00  78.41 2519.85
   10:52:16.859.04-May-2020 4718.46 4250.89 82.06 6.00  78.61 2519.85
   10:52:17.059.04-May-2020 4718.46 4251.16 82.06 6.00  78.81 2519.85
   10:52:17.259.04-May-2020 4718.46 4251.40 82.06 6.00  79.01 2519.85
   10:52:17.459.04-May-2020 4718.46 4251.40 82.06 6.00  79.21 2519.85
   10:52:17.659.04-May-2020 4718.46 4251.47 82.05 6.00  79.41 2519.85
   10:52:17.859.04-May-2020 4718.46 4251.48 82.05 6.00  79.61 2519.85
   10:52:18.059.04-May-2020 4718.46 4251.56 82.05 6.00  79.81 2519.85
   10:52:18.260.04-May-2020 4718.46 4251.67 82.05 6.00  80.01 2519.85
   10:52:18.460.04-May-2020 4718.46 4251.67 82.05 6.00  80.21 2519.85
   10:52:18.660.04-May-2020 4718.46 4251.64 82.05 6.00  80.41 2519.85
   10:52:18.860.04-May-2020 4718.46 4251.77 82.05 6.00  80.61 2519.85
   10:52:19.060.04-May-2020 4718.46 4251.70 82.05 6.00  80.81 2519.85
   10:52:19.260.04-May-2020 4718.46 4252.20 82.05 6.00  81.01 2519.85
   10:52:19.460.04-May-2020 4718.46 4252.20 82.05 6.00  81.21 2519.85
   10:52:19.660.04-May-2020 4718.46 4252.10 82.05 6.00  81.41 2519.85
   10:52:19.860.04-May-2020 4718.46 4251.62 82.05 6.00  81.61 2519.85
   10:52:20.060.04-May-2020 4718.46 4251.89 82.05 6.00  81.81 2519.85
   10:52:20.260.04-May-2020 4718.46 4251.84 82.05 6.00  82.01 2519.85
   10:52:20.460.04-May-2020 4718.46 4251.84 82.05 6.00  82.21 2519.85
   10:52:20.660.04-May-2020 4718.46 4252.04 82.04 6.00  82.41 2519.85
   10:52:20.860.04-May-2020 4718.46 4252.04 82.04 6.00  82.61 2519.85
   10:52:21.060.04-May-2020 4718.46 4251.54 82.04 6.00  82.81 2519.85
   10:52:21.260.04-May-2020 4718.46 4251.77 82.04 6.00  83.01 2519.85
   10:52:21.460.04-May-2020 4718.46 4251.77 82.04 6.00  83.21 2519.85
   10:52:21.660.04-May-2020 4718.46 4250.48 82.04 6.00  83.41 2519.85
   10:52:21.860.04-May-2020 4718.46 4251.26 82.04 6.00  83.61 2519.85
   10:52:22.060.04-May-2020 4718.46 4252.11 82.04 6.00  83.81 2519.85
   10:52:22.260.04-May-2020 4718.46 4250.71 82.04 6.00  84.01 2519.85
   10:52:22.460.04-May-2020 4718.46 4250.71 82.04 6.00  84.21 2519.85
   10:52:22.660.04-May-2020 4718.46 4251.19 82.04 6.00  84.41 2519.85
   10:52:22.860.04-May-2020 4718.46 4251.54 82.04 6.00  84.61 2519.85
   10:52:23.060.04-May-2020 4718.46 4252.04 82.04 6.00  84.81 2519.85
   10:52:23.260.04-May-2020 4718.46 4251.74 82.04 6.00  85.01 2519.85
   10:52:23.460.04-May-2020 4718.46 4251.74 82.04 6.00  85.21 2519.85
   10:52:23.660.04-May-2020 4718.46 4251.89 82.03 6.00  85.41 2519.85
   10:52:23.860.04-May-2020 4718.46 4252.14 82.03 6.00  85.61 2519.85
   10:52:24.060.04-May-2020 4718.46 4252.27 82.03 6.00  85.81 2519.85
   10:52:24.260.04-May-2020 4718.46 4252.13 82.03 6.00  86.01 2519.85
   10:52:24.460.04-May-2020 4718.46 4252.13 82.03 6.00  86.21 2519.85
   10:52:24.661.04-May-2020 4718.46 4252.44 82.03 6.00  86.41 2519.85
   10:52:24.861.04-May-2020 4718.46 4252.33 82.03 6.00  86.61 2519.85
   10:52:25.061.04-May-2020 4718.46 4252.50 82.03 6.00  86.81 2519.85
   10:52:25.261.04-May-2020 4718.46 4252.49 82.03 6.00  87.01 2519.85
   10:52:25.461.04-May-2020 4718.46 4252.49 82.03 6.00  87.21 2519.85
   10:52:25.661.04-May-2020 4718.46 4252.55 82.03 6.00  87.41 2519.85
   10:52:25.861.04-May-2020 4718.46 4252.30 82.03 6.00  87.61 2519.85
   10:52:26.061.04-May-2020 4718.46 4252.37 82.03 6.00  87.81 2519.85
   10:52:26.261.04-May-2020 4718.46 4252.44 82.03 6.00  88.01 2519.85
   10:52:26.461.04-May-2020 4718.46 4252.44 82.03 6.00  88.21 2519.85
   10:52:26.661.04-May-2020 4718.46 4252.51 82.02 6.00  88.41 2519.85
   10:52:26.861.04-May-2020 4718.46 4252.38 82.02 6.00  88.61 2519.85
   10:52:27.061.04-May-2020 4718.46 4252.33 82.02 6.00  88.81 2519.85
   10:52:27.261.04-May-2020 4718.46 4252.49 82.02 6.00  89.01 2519.85
   10:52:27.461.04-May-2020 4718.46 4252.49 82.02 6.00  89.21 2519.85
   10:52:27.661.04-May-2020 4718.46 4252.38 82.02 6.00  89.41 2519.85
   10:52:27.861.04-May-2020 4718.46 4252.27 82.02 6.00  89.61 2519.85
   10:52:28.061.04-May-2020 4718.46 4252.84 82.02 6.00  89.81 2519.85
   10:52:28.261.04-May-2020 4718.46 4252.62 82.02 6.00  90.01 2519.85
   10:52:28.461.04-May-2020 4718.46 4252.62 82.02 6.00  90.21 2519.85
   10:52:28.661.04-May-2020 4718.46 4252.57 82.02 6.00  90.41 2519.85
   10:52:28.861.04-May-2020 4718.46 4252.81 82.02 6.00  90.61 2519.85
   10:52:29.061.04-May-2020 4718.46 4252.84 82.02 6.00  90.81 2519.85
   10:52:29.261.04-May-2020 4718.46 4252.49 82.02 6.00  91.01 2519.85
   10:52:29.461.04-May-2020 4718.46 4252.14 82.01 6.00  91.21 2519.85
   10:52:29.661.04-May-2020 4718.46 4252.14 82.01 6.00  91.41 2519.85
   10:52:29.861.04-May-2020 4718.46 4252.12 82.01 6.00  91.61 2519.85
   10:52:30.061.04-May-2020 4718.46 4251.93 82.01 6.00  91.81 2519.85
