~Version Information
 VERS.                  2.0:   CWLS log ASCII Standard -VERSION 2.0
 WRAP.                   NO:   One line per depth step
~Well Information Block
#MNEM.UNIT     VALUE/NAME     DESCRIPTION
#---------     -----------    ---------------------------
 STRT.S             01:13:00 04-May-20: START TIME 01:13:00 04-May-20
 STOP.S             01:19:30 04-May-20: STOP TIME  01:19:30 04-May-20
 STEP.S                   0.00: STEP TIME
 NULL.                 -999.25: NULL VALUE
 DFWT.                        :  DIST FWL TEXT
 DFST.                        :  DIST FSL TEXT
 DMF .             Drill Floor:  DRILL MEAS FROM
 STIM.      03.00.00 25-Mar-20:  START TIME
 DATE.      00.00.00 19-May-20:  END TIME
 SPUD.               27-Aug-20:  SPUD DATE
 NREF.                    Grid:  NORTH REFERENCE
 HPTY.       Minimum Curvature:  HOLE POS TYPE
 DMOD.             Drill Model:  DRILL MOD DESC
 SVYD.                  Survey:  SURVEY DESC
 ILTD.               Lithology:  INTERP LTH DESC
 FTOP.          Formation Tops:  FORM TOPS DESC
 SON .        AZ-XX-0906252240:  JOB NUMBER
 RIG .             West Chirag:  RIG NAME
 PDAT.          Mean Sea Level:  PERMANENT DATUM
 FLD .                     ACG:  FIELD NAME
 CTRY.              Azerbaijan:  COUNTRY NAME
 WELL.                     J23:  WELL NAME
 SRVC.          Turan Drilling:  CONTRACTOR
 COMP.     BP Exploration (Caspian Sea) Ltd.:  COMPANY
 WTYP.                Deviated:  WELL TYPE
 MDS .        Operator Entered:  MAG DATA SOURCE
 UWI .                     N/A:  UNIQUE WELL IDENTIFIER
 API .                     N/A:  API NUMBER
 BASE.              Azerbaijan:  LOGGING EQUIPMENT BASE LOCATION
 REGN.                   EESSA:  REGION
 PROV.                    Baku:  PROVINCE
 STAT.                    Baku:  STATE NAME
 MWDS.                     N/A:  MWD SHOP
 JOBN.        AZ-XX-0906252240:  JOB TICKET NUMB
 DOE .                     N/A:  DOE NUMBER
 DCON.         Sperry Drilling:  DIRECTNL CONTR
 UNIT.                     N/A:  LOGGING EQUIPMENT ID
 CNTY.                        :  COUNTY
 LOC .                        :  LOCATION
 LMF .             Drill Floor:  LOG MEASURED FROM
 TVDS.m                  43.00:  TVDSS CORRECTN
 LATI.deg                40.13:  LATITUDE
 LONG.deg                51.22:  LONGITUDE
 WHNS.m                   9.43:  WELL HEAD N/S
 WHEW.m                  -8.91:  WELL HEAD E/W
 UTMX.m              519005.06:  UTM X
 UTMY.m             4443793.85:  UTM Y
 DFWL.m                   0.00:  DISTANCE FWL
 DFSL.m                   0.00:  DISTANCE FSL
 SDEP.m                 363.00:  START DEPTH
 TDD .m                5150.01:  TOTAL DEPTH (DRILLER)
 VSDR.deg               179.88:  VERT SEC DIRECT
 GVFD.g                   1.00:  GRAVITY FIELD
 MFLD.nT              50295.00:  MAGNETIC FIELD
 MDIP.deg                59.56:  MAGNETIC DIP
 MDEC.deg                 6.45:  MAGNETIC DECL
 GRDC.deg                 0.14:  GRID CORRECTION
 AZTC.deg                 6.31:  AZM TOTAL CORR
 EPD .m                   0.00:  ELEVATION
 EGL .m                   0.00:  GROUND ELEVATION
 WDMS.m                 169.80:  WD ELEV
 APD .m                  43.00:  DEPTH ABOVE PD
 DEP .m                 354.17:  DEPTH
 AGAP.m                  43.00:  AIR GAP
 VSEW.m                  -8.91:  VERT SEC E/W
 VSNS.m                   9.43:  VERT SEC N/S
 EKB .m                   0.00:  KB ELEVATION
 EDF .m                  43.00:  DF ELEVATION
 TDL .m                1351.00:  TOTAL DEPTH (LOGGER)
 VSC .                       0:  VS TO CLOSURE
 MAGU.                 1850802:  MAGUTM CHECKSUM
~Parameter Information Block
#MNEM.UNIT       Value        Description
#---------     -----------    ---------------------------
 AV  .mps                 1.00:  Ann Velocity 
 AVMX.mps                 2.40:  Max Ann Veloc 
 AZIF.deg               148.96:  Azm, Final 
 BHAT.        Rotary Steerable:  BHA Type 
 BROT.°/30m               0.04:  Build Rotating 
 BS  .in                 12.25:  Bit Size 
 BSZ .in                 12.25:  Bit Size 
 BTPL.psig              814.00:  Bit Press Loss 
 TCS .hr                106.00:  Time Ciculation Ended 
 CV  .mps                 2.47:  Crit Velocity 
 CVMX.mps                 2.64:  Max Crit Veloc 
 DD1 .          Rashad Habibov:  Direct Drillr 1 
 DD2 .         Rasim Ibrahimov:  Direct Drillr 2 
 DDSV.                 iCruise:  DD Service 
 DEFF.%                 100.00:  % Det Eff 
 DLRX.°/30m               0.70:  Dogleg Rot Max 
 DLSO.°/30m               3.00:  Dogleg Oriented 
 DLSX.°/30m               4.55:  Dogleg Str Max 
 DRET.      08.08.32 02-May-20:  Drill End Time 
 DRST.      08.08.32 28-Apr-20:  Drill Start Tim 
 DTIM.hr                 60.00:  Time Drilling 
 EDEP.m                4761.01:  End Depth 
 ENG1.           Eldar Hajiyev:  Engineer 1 
 ENG2.        Marcelo Sandoval:  Engineer 2 
 ETIM.      23.23.07 05-May-20:  End Time 
 FLOI.gpm              1200.00:  Flow In 
 FLON.gpm               900.00:  Flow In Min 
 FLOS.cptm                0.00:  Fluid Loss 
 FLOX.gpm              1200.00:  Flow In Max 
 HFLO.                      No:  High Flow 
 HPRE.                      No:  High Pressure 
 HTEM.                      No:  High Temp 
 HYDO.m                   1.80:  Hydro Offset 
 IFIN.deg                68.17:  Inc, Final 
 IMAX.deg                74.61:  Inc Max 
 IMIN.deg                68.15:  Inc Min 
 IMND.m                4317.87:  Inc Min Depth 
 IMXD.m                4714.01:  Inc Max Depth 
 LETM.      08.08.32 02-May-20:  Log End Time 
 LOST.hr                     2:  Lost Rig Time 
 LSTM.      08.08.32 28-Apr-20:  Log Start Time 
 MDCL.ppm             41000.00:  Mud Chlorides 
 MDES.     Inversion Oil/Synthetic:  Mud Desc 
 DFD .sg                  1.58:  Mud Density 
 MDMN.sg                  1.58:  Dens Mud Min 
 MDMX.sg                  1.58:  Dens Mud Max 
 MOIL.                      71:  Run Mud Oil % 
 MOWR.                   71:29:  Run Mud OWR 
 MSND.                     0.1:  Run Mud Sand % 
 MSOL.                      23:  Run Mud Solids% 
 DFV .spqt               82.00:  Mud Viscosity 
 MWOD.in                  8.00:  MWD Tool OD 
 MWSI.                     Yes:  Serv Intrp, MWD 
 OTIM.hr                125.00:  Time Operating 
 PMAX.psia             6129.00:  Press Op, Max 
 PV  .cP                 32.00:  Mud PV 
 RUN .                     800:  Run Number 
 ROPA.m/hr               30.00:  ROP Avg 
 ROPN.m/hr               10.00:  ROP Min 
 ROPX.m/hr               40.00:  ROP Max 
 RPMA.rpm               140.00:  RPM Surface Avg 
 RPMN.rpm                80.00:  RPM Surface Min 
 RPMX.rpm               140.00:  RPM Surface Max 
 RRUN.                    L503:  Rig Run Number 
 RTIM.hr                  2.00:  Time Reaming 
 SAZI.deg               184.23:  Azm, Start 
 SDEP.m                3410.01:  Start Depth 
 SIDD.                      No:  Serv Intrp, DD 
 SINC.deg                68.29:  Inc, Start 
 SPPA.psig             6000.00:  SPP Avg 
 SPPN.psig             4000.00:  SPP Min 
 SPPX.psig             6100.00:  SPP Max 
 STIM.      08.08.32 28-Apr-20:  Start Time 
 SVCS.                 DD, MWD:  Services 
 SVER.                    9.20:  Sperry Version 
 TDAT.m                1351.00:  Tot Depth Attmp 
 TDDF.                      No:  Trip for DD 
 TDLG.m                1351.00:  Tot Depth Loggd 
 TFF .                      No:  Trip for Fail 
 TQAA.f-kp               27.00:  Torque Abs Avg 
 TQAN.f-kp               20.00:  Torque Abs Min 
 TQAX.f-kp               30.00:  Torque Abs Max 
 TRRT.°/30m               0.60:  Turn Rotating 
 MRT .                    EWER:  Maximum Recorded Temperature 
 TTMX.degC               83.00:  Max Tool Temp 
 VS01.                90511138:  Virtual Str1 SN 
 VS02.                90524876:  Virtual Str2 SN 
 VS03.                90524872:  Virtual Str3 SN 
 VS04.                90502750:  Virtual Str4 SN 
 VS05.                12330984:  Virtual Str5 SN 
 WBMN.klb                 0.00:  WOB Min 
 WOBA.klb                15.00:  WOB Avg 
 WOBX.klb                20.00:  WOB Max 
 YP  .lhf2               31.00:  Yield Point 
~Curve Information Block
#MNEM.UNIT                 API CODE     Curve Description
#---------               -----------    ---------------------------
 TIME.HHMMSS            00 000 000 000:  GT Time & Date
 GTDEPTH.m              00 000 000 000:  GT Depth
 GTPQH.psia             00 000 000 000:  GT HR Quartz Pressure
 GTTQ.degC              00 000 000 000:  GT Quartz Temperature
 GTTN.NONE              00 000 000 000:  GT Test Number
 GTET.sec               00 000 000 000:  GT Elapsed Test Time
 GTTVD.m                00 000 000 000:  GT True Vertical Depth
#Other Information
#
#WARRANTY: Halliburton will use its best efforts to furnish customers with 
#accurate information and interpretations that are part of, and incident to, the services 
#provided.  However, Halliburton cannot and does not warrant the accuracy 
#or correctness of such information and interpretations.  Under no circumstances should any 
#such information or interpretation be relied upon as the sole basis for any drilling, 
#completion, production, or financial decision or any procedure involving any risk to the 
#safety of any drilling venture, drilling rig or its crew or any other third party.  The 
#Customer has full responsibility for all drilling, completion and production operation.  
#Halliburton makes no representations or warranties, either expressed or 
#implied, including, but not limited to, the implied warranties of merchantability or fitness 
#for a particular purpose, with respect to the services rendered.  In no event will 
#Halliburton be liable for failure to obtain any particular results or for 
#any damages, including, but not limited to, indirect, special or consequential damages, 
#resulting from the use of any information or interpretation provided by Halliburton.
#
~A           TIME           GTDEPTH  GTPQH  GTTQ  GTTN  GTET   GTTVD  
# ...
   01:13:46.533.04-May-2020 4660.50 5860.74 76.47 5.00  46.00 2503.99
   01:13:46.733.04-May-2020 4660.50 5860.74 76.47 5.00  46.20 2503.99
   01:13:46.934.04-May-2020 4660.50 5862.19 76.46 5.00  46.40 2503.99
   01:13:47.134.04-May-2020 4660.50 5891.06 76.46 5.00  46.60 2503.99
   01:13:47.334.04-May-2020 4660.50 5833.14 76.46 5.00  46.80 2503.99
   01:13:47.534.04-May-2020 4660.50 5833.06 76.46 5.00  47.00 2503.99
   01:13:47.734.04-May-2020 4660.50 5833.06 76.46 5.00  47.20 2503.99
   01:13:47.934.04-May-2020 4660.50 5833.14 76.46 5.00  47.40 2503.99
   01:13:48.134.04-May-2020 4660.50 5833.55 76.46 5.00  47.60 2503.99
   01:13:48.334.04-May-2020 4660.50 5832.46 76.46 5.00  47.80 2503.99
   01:13:48.534.04-May-2020 4660.50 5831.79 76.46 5.00  48.00 2503.99
   01:13:48.734.04-May-2020 4660.50 5831.79 76.46 5.00  48.20 2503.99
   01:13:48.934.04-May-2020 4660.50 5828.69 76.46 5.00  48.40 2503.99
   01:13:49.134.04-May-2020 4660.50 5830.74 76.46 5.00  48.60 2503.99
   01:13:49.334.04-May-2020 4660.50 5826.71 76.46 5.00  48.80 2503.99
   01:13:49.534.04-May-2020 4660.50 5826.30 76.46 5.00  49.00 2503.99
   01:13:49.734.04-May-2020 4660.50 5826.30 76.46 5.00  49.20 2503.99
   01:13:49.934.04-May-2020 4660.50 5812.54 76.46 5.00  49.40 2503.99
   01:13:50.134.04-May-2020 4660.50 5708.31 76.46 5.00  49.60 2503.99
   01:13:50.334.04-May-2020 4660.50 5500.63 76.45 5.00  49.80 2503.99
   01:13:50.534.04-May-2020 4660.50 5136.79 76.45 5.00  50.00 2503.99
   01:13:50.734.04-May-2020 4660.50 5136.79 76.45 5.00  50.20 2503.99
   01:13:50.934.04-May-2020 4660.50 4264.55 76.45 5.00  50.40 2503.99
   01:13:51.134.04-May-2020 4660.50 3810.77 76.45 5.00  50.60 2503.99
   01:13:51.334.04-May-2020 4660.50 3368.06 76.45 5.00  50.80 2503.99
   01:13:51.534.04-May-2020 4660.50 2939.28 76.45 5.00  51.00 2503.99
   01:13:51.734.04-May-2020 4660.50 2939.28 76.45 5.00  51.20 2503.99
   01:13:51.934.04-May-2020 4660.50 2137.19 76.45 5.00  51.40 2503.99
   01:13:52.134.04-May-2020 4660.50 1855.08 76.44 5.00  51.60 2503.99
   01:13:52.334.04-May-2020 4660.50 1705.81 76.44 5.00  51.80 2503.99
   01:13:52.534.04-May-2020 4660.50 1559.51 76.44 5.00  52.00 2503.99
   01:13:52.734.04-May-2020 4660.50 1559.51 76.44 5.00  52.20 2503.99
   01:13:52.934.04-May-2020 4660.50 1255.76 76.43 5.00  52.40 2503.99
   01:13:53.134.04-May-2020 4660.50 1098.00 76.43 5.00  52.60 2503.99
   01:13:53.334.04-May-2020 4660.50  942.75 76.43 5.00  52.80 2503.99
   01:13:53.534.04-May-2020 4660.50  781.03 76.42 5.00  53.00 2503.99
   01:13:53.734.04-May-2020 4660.50  781.03 76.42 5.00  53.20 2503.99
   01:13:53.934.04-May-2020 4660.50  476.25 76.42 5.00  53.40 2503.99
   01:13:54.134.04-May-2020 4660.50  361.33 76.41 5.00  53.60 2503.99
   01:13:54.334.04-May-2020 4660.50  296.15 76.41 5.00  53.80 2503.99
   01:13:54.534.04-May-2020 4660.50  230.38 76.40 5.00  54.00 2503.99
   01:13:54.734.04-May-2020 4660.50  230.38 76.40 5.00  54.20 2503.99
   01:13:54.934.04-May-2020 4660.50  146.56 76.39 5.00  54.40 2503.99
   01:13:55.134.04-May-2020 4660.50  116.91 76.39 5.00  54.60 2503.99
   01:13:55.334.04-May-2020 4660.50   99.13 76.38 5.00  54.80 2503.99
   01:13:55.534.04-May-2020 4660.50   87.85 76.38 5.00  55.00 2503.99
   01:13:55.734.04-May-2020 4660.50   87.85 76.38 5.00  55.20 2503.99
   01:13:55.934.04-May-2020 4660.50   67.99 76.37 5.00  55.41 2503.99
   01:13:56.134.04-May-2020 4660.50   61.30 76.37 5.00  55.61 2503.99
   01:13:56.334.04-May-2020 4660.50   56.55 76.36 5.00  55.81 2503.99
   01:13:56.534.04-May-2020 4660.50   52.81 76.36 5.00  56.01 2503.99
   01:13:56.734.04-May-2020 4660.50   52.81 76.36 5.00  56.21 2503.99
   01:13:56.934.04-May-2020 4660.50   49.98 76.35 5.00  56.41 2503.99
   01:13:57.134.04-May-2020 4660.50   47.45 76.34 5.00  56.61 2503.99
   01:13:57.334.04-May-2020 4660.50   46.44 76.34 5.00  56.81 2503.99
   01:13:57.534.04-May-2020 4660.50   45.22 76.34 5.00  57.01 2503.99
   01:13:57.734.04-May-2020 4660.50   45.22 76.34 5.00  57.21 2503.99
   01:13:57.934.04-May-2020 4660.50   76.10 76.33 5.00  57.41 2503.99
   01:13:58.135.04-May-2020 4660.50  174.04 76.32 5.00  57.61 2503.99
   01:13:58.335.04-May-2020 4660.50  296.45 76.32 5.00  57.81 2503.99
   01:13:58.535.04-May-2020 4660.50  449.10 76.32 5.00  58.01 2503.99
   01:13:58.735.04-May-2020 4660.50  449.10 76.32 5.00  58.21 2503.99
   01:13:58.935.04-May-2020 4660.50  987.89 76.31 5.00  58.41 2503.99
   01:13:59.135.04-May-2020 4660.50 1300.30 76.31 5.00  58.61 2503.99
   01:13:59.335.04-May-2020 4660.50 1557.11 76.30 5.00  58.81 2503.99
   01:13:59.535.04-May-2020 4660.50 1745.17 76.30 5.00  59.01 2503.99
   01:13:59.735.04-May-2020 4660.50 1745.17 76.30 5.00  59.21 2503.99
   01:13:59.935.04-May-2020 4660.50 1973.59 76.30 5.00  59.41 2503.99
   01:14:00.135.04-May-2020 4660.50 2056.24 76.30 5.00  59.61 2503.99
   01:14:00.335.04-May-2020 4660.50 2130.57 76.29 5.00  59.81 2503.99
   01:14:00.535.04-May-2020 4660.50 2192.06 76.29 5.00  60.01 2503.99
   01:14:00.735.04-May-2020 4660.50 2192.06 76.29 5.00  60.21 2503.99
   01:14:00.935.04-May-2020 4660.50 2319.48 76.29 5.00  60.41 2503.99
   01:14:01.135.04-May-2020 4660.50 2387.40 76.29 5.00  60.61 2503.99
   01:14:01.335.04-May-2020 4660.50 2434.00 76.29 5.00  60.81 2503.99
   01:14:01.535.04-May-2020 4660.50 2477.76 76.29 5.00  61.01 2503.99
   01:14:01.735.04-May-2020 4660.50 2477.76 76.29 5.00  61.21 2503.99
   01:14:01.935.04-May-2020 4660.50 2575.77 76.29 5.00  61.41 2503.99
   01:14:02.135.04-May-2020 4660.50 2609.92 76.29 5.00  61.61 2503.99
   01:14:02.335.04-May-2020 4660.50 2643.25 76.29 5.00  61.81 2503.99
   01:14:02.535.04-May-2020 4660.50 2679.71 76.29 5.00  62.01 2503.99
   01:14:02.735.04-May-2020 4660.50 2679.71 76.29 5.00  62.21 2503.99
   01:14:02.935.04-May-2020 4660.50 2750.41 76.29 5.00  62.41 2503.99
   01:14:03.135.04-May-2020 4660.50 2781.28 76.29 5.00  62.61 2503.99
   01:14:03.335.04-May-2020 4660.50 2820.08 76.29 5.00  62.81 2503.99
   01:14:03.535.04-May-2020 4660.50 2842.39 76.29 5.00  63.01 2503.99
   01:14:03.735.04-May-2020 4660.50 2842.39 76.29 5.00  63.21 2503.99
   01:14:03.935.04-May-2020 4660.50 2895.13 76.29 5.00  63.41 2503.99
   01:14:04.135.04-May-2020 4660.50 2917.71 76.29 5.00  63.61 2503.99
   01:14:04.335.04-May-2020 4660.50 2939.86 76.30 5.00  63.81 2503.99
   01:14:04.535.04-May-2020 4660.50 2960.33 76.30 5.00  64.01 2503.99
   01:14:04.735.04-May-2020 4660.50 2960.33 76.30 5.00  64.21 2503.99
   01:14:04.935.04-May-2020 4660.50 3003.06 76.30 5.00  64.41 2503.99
   01:14:05.135.04-May-2020 4660.50 3020.12 76.30 5.00  64.61 2503.99
   01:14:05.335.04-May-2020 4660.50 3036.35 76.30 5.00  64.81 2503.99
   01:14:05.535.04-May-2020 4660.50 3052.86 76.30 5.00  65.01 2503.99
   01:14:05.735.04-May-2020 4660.50 3052.86 76.30 5.00  65.21 2503.99
   01:14:05.935.04-May-2020 4660.50 3081.21 76.30 5.00  65.41 2503.99
   01:14:06.135.04-May-2020 4660.50 3095.41 76.30 5.00  65.61 2503.99
   01:14:06.335.04-May-2020 4660.50 3110.20 76.31 5.00  65.81 2503.99
   01:14:06.535.04-May-2020 4660.50 3123.28 76.31 5.00  66.01 2503.99
   01:14:06.735.04-May-2020 4660.50 3123.28 76.31 5.00  66.21 2503.99
   01:14:06.935.04-May-2020 4660.50 3152.26 76.31 5.00  66.41 2503.99
   01:14:07.135.04-May-2020 4660.50 3167.51 76.31 5.00  66.61 2503.99
   01:14:07.335.04-May-2020 4660.50 3179.22 76.31 5.00  66.81 2503.99
   01:14:07.535.04-May-2020 4660.50 3193.06 76.31 5.00  67.01 2503.99
   01:14:07.735.04-May-2020 4660.50 3193.06 76.31 5.00  67.21 2503.99
   01:14:07.935.04-May-2020 4660.50 3218.35 76.31 5.00  67.41 2503.99
   01:14:08.135.04-May-2020 4660.50 3231.07 76.31 5.00  67.61 2503.99
   01:14:08.335.04-May-2020 4660.50 3243.87 76.31 5.00  67.81 2503.99
   01:14:08.535.04-May-2020 4660.50 3256.45 76.31 5.00  68.01 2503.99
   01:14:08.735.04-May-2020 4660.50 3256.45 76.31 5.00  68.21 2503.99
   01:14:08.935.04-May-2020 4660.50 3278.14 76.32 5.00  68.41 2503.99
   01:14:09.136.04-May-2020 4660.50 3290.74 76.32 5.00  68.61 2503.99
   01:14:09.336.04-May-2020 4660.50 3303.87 76.32 5.00  68.81 2503.99
