~Version Information
 VERS.                  2.0:   CWLS log ASCII Standard -VERSION 2.0
 WRAP.                   NO:   One line per depth step
~Well Information Block
#MNEM.UNIT     VALUE/NAME     DESCRIPTION
#---------     -----------    ---------------------------
 STRT.S             10:50:58 04-May-20: START TIME 10:50:58 04-May-20
 STOP.S             10:57:32 04-May-20: STOP TIME  10:57:32 04-May-20
 STEP.S                   0.00: STEP TIME
 NULL.                 -999.25: NULL VALUE
 DFWT.                        :  DIST FWL TEXT
 DFST.                        :  DIST FSL TEXT
 DMF .             Drill Floor:  DRILL MEAS FROM
 STIM.      03.00.00 25-Mar-20:  START TIME
 DATE.      00.00.00 19-May-20:  END TIME
 SPUD.               27-Aug-20:  SPUD DATE
 NREF.                    Grid:  NORTH REFERENCE
 HPTY.       Minimum Curvature:  HOLE POS TYPE
 DMOD.             Drill Model:  DRILL MOD DESC
 SVYD.                  Survey:  SURVEY DESC
 ILTD.               Lithology:  INTERP LTH DESC
 FTOP.          Formation Tops:  FORM TOPS DESC
 SON .        AZ-XX-0906252240:  JOB NUMBER
 RIG .             West Chirag:  RIG NAME
 PDAT.          Mean Sea Level:  PERMANENT DATUM
 FLD .                     ACG:  FIELD NAME
 CTRY.              Azerbaijan:  COUNTRY NAME
 WELL.                     J23:  WELL NAME
 SRVC.          Turan Drilling:  CONTRACTOR
 COMP.     BP Exploration (Caspian Sea) Ltd.:  COMPANY
 WTYP.                Deviated:  WELL TYPE
 MDS .        Operator Entered:  MAG DATA SOURCE
 UWI .                     N/A:  UNIQUE WELL IDENTIFIER
 API .                     N/A:  API NUMBER
 BASE.              Azerbaijan:  LOGGING EQUIPMENT BASE LOCATION
 REGN.                   EESSA:  REGION
 PROV.                    Baku:  PROVINCE
 STAT.                    Baku:  STATE NAME
 MWDS.                     N/A:  MWD SHOP
 JOBN.        AZ-XX-0906252240:  JOB TICKET NUMB
 DOE .                     N/A:  DOE NUMBER
 DCON.         Sperry Drilling:  DIRECTNL CONTR
 UNIT.                     N/A:  LOGGING EQUIPMENT ID
 CNTY.                        :  COUNTY
 LOC .                        :  LOCATION
 LMF .             Drill Floor:  LOG MEASURED FROM
 TVDS.m                  43.00:  TVDSS CORRECTN
 LATI.deg                40.13:  LATITUDE
 LONG.deg                51.22:  LONGITUDE
 WHNS.m                   9.43:  WELL HEAD N/S
 WHEW.m                  -8.91:  WELL HEAD E/W
 UTMX.m              519005.06:  UTM X
 UTMY.m             4443793.85:  UTM Y
 DFWL.m                   0.00:  DISTANCE FWL
 DFSL.m                   0.00:  DISTANCE FSL
 SDEP.m                 363.00:  START DEPTH
 TDD .m                5150.01:  TOTAL DEPTH (DRILLER)
 VSDR.deg               179.88:  VERT SEC DIRECT
 GVFD.g                   1.00:  GRAVITY FIELD
 MFLD.nT              50295.00:  MAGNETIC FIELD
 MDIP.deg                59.56:  MAGNETIC DIP
 MDEC.deg                 6.45:  MAGNETIC DECL
 GRDC.deg                 0.14:  GRID CORRECTION
 AZTC.deg                 6.31:  AZM TOTAL CORR
 EPD .m                   0.00:  ELEVATION
 EGL .m                   0.00:  GROUND ELEVATION
 WDMS.m                 169.80:  WD ELEV
 APD .m                  43.00:  DEPTH ABOVE PD
 DEP .m                 354.17:  DEPTH
 AGAP.m                  43.00:  AIR GAP
 VSEW.m                  -8.91:  VERT SEC E/W
 VSNS.m                   9.43:  VERT SEC N/S
 EKB .m                   0.00:  KB ELEVATION
 EDF .m                  43.00:  DF ELEVATION
 TDL .m                1351.00:  TOTAL DEPTH (LOGGER)
 VSC .                       0:  VS TO CLOSURE
 MAGU.                 1850802:  MAGUTM CHECKSUM
~Parameter Information Block
#MNEM.UNIT       Value        Description
#---------     -----------    ---------------------------
 AV  .mps                 1.00:  Ann Velocity 
 AVMX.mps                 2.40:  Max Ann Veloc 
 AZIF.deg               148.96:  Azm, Final 
 BHAT.        Rotary Steerable:  BHA Type 
 BROT.°/30m               0.04:  Build Rotating 
 BS  .in                 12.25:  Bit Size 
 BSZ .in                 12.25:  Bit Size 
 BTPL.psig              814.00:  Bit Press Loss 
 TCS .hr                106.00:  Time Ciculation Ended 
 CV  .mps                 2.47:  Crit Velocity 
 CVMX.mps                 2.64:  Max Crit Veloc 
 DD1 .          Rashad Habibov:  Direct Drillr 1 
 DD2 .         Rasim Ibrahimov:  Direct Drillr 2 
 DDSV.                 iCruise:  DD Service 
 DEFF.%                 100.00:  % Det Eff 
 DLRX.°/30m               0.70:  Dogleg Rot Max 
 DLSO.°/30m               3.00:  Dogleg Oriented 
 DLSX.°/30m               4.55:  Dogleg Str Max 
 DRET.      08.08.32 02-May-20:  Drill End Time 
 DRST.      08.08.32 28-Apr-20:  Drill Start Tim 
 DTIM.hr                 60.00:  Time Drilling 
 EDEP.m                4761.01:  End Depth 
 ENG1.           Eldar Hajiyev:  Engineer 1 
 ENG2.        Marcelo Sandoval:  Engineer 2 
 ETIM.      23.23.07 05-May-20:  End Time 
 FLOI.gpm              1200.00:  Flow In 
 FLON.gpm               900.00:  Flow In Min 
 FLOS.cptm                0.00:  Fluid Loss 
 FLOX.gpm              1200.00:  Flow In Max 
 HFLO.                      No:  High Flow 
 HPRE.                      No:  High Pressure 
 HTEM.                      No:  High Temp 
 HYDO.m                   1.80:  Hydro Offset 
 IFIN.deg                68.17:  Inc, Final 
 IMAX.deg                74.61:  Inc Max 
 IMIN.deg                68.15:  Inc Min 
 IMND.m                4317.87:  Inc Min Depth 
 IMXD.m                4714.01:  Inc Max Depth 
 LETM.      08.08.32 02-May-20:  Log End Time 
 LOST.hr                     2:  Lost Rig Time 
 LSTM.      08.08.32 28-Apr-20:  Log Start Time 
 MDCL.ppm             41000.00:  Mud Chlorides 
 MDES.     Inversion Oil/Synthetic:  Mud Desc 
 DFD .sg                  1.58:  Mud Density 
 MDMN.sg                  1.58:  Dens Mud Min 
 MDMX.sg                  1.58:  Dens Mud Max 
 MOIL.                      71:  Run Mud Oil % 
 MOWR.                   71:29:  Run Mud OWR 
 MSND.                     0.1:  Run Mud Sand % 
 MSOL.                      23:  Run Mud Solids% 
 DFV .spqt               82.00:  Mud Viscosity 
 MWOD.in                  8.00:  MWD Tool OD 
 MWSI.                     Yes:  Serv Intrp, MWD 
 OTIM.hr                125.00:  Time Operating 
 PMAX.psia             6129.00:  Press Op, Max 
 PV  .cP                 32.00:  Mud PV 
 RUN .                     800:  Run Number 
 ROPA.m/hr               30.00:  ROP Avg 
 ROPN.m/hr               10.00:  ROP Min 
 ROPX.m/hr               40.00:  ROP Max 
 RPMA.rpm               140.00:  RPM Surface Avg 
 RPMN.rpm                80.00:  RPM Surface Min 
 RPMX.rpm               140.00:  RPM Surface Max 
 RRUN.                    L503:  Rig Run Number 
 RTIM.hr                  2.00:  Time Reaming 
 SAZI.deg               184.23:  Azm, Start 
 SDEP.m                3410.01:  Start Depth 
 SIDD.                      No:  Serv Intrp, DD 
 SINC.deg                68.29:  Inc, Start 
 SPPA.psig             6000.00:  SPP Avg 
 SPPN.psig             4000.00:  SPP Min 
 SPPX.psig             6100.00:  SPP Max 
 STIM.      08.08.32 28-Apr-20:  Start Time 
 SVCS.                 DD, MWD:  Services 
 SVER.                    9.20:  Sperry Version 
 TDAT.m                1351.00:  Tot Depth Attmp 
 TDDF.                      No:  Trip for DD 
 TDLG.m                1351.00:  Tot Depth Loggd 
 TFF .                      No:  Trip for Fail 
 TQAA.f-kp               27.00:  Torque Abs Avg 
 TQAN.f-kp               20.00:  Torque Abs Min 
 TQAX.f-kp               30.00:  Torque Abs Max 
 TRRT.°/30m               0.60:  Turn Rotating 
 MRT .                    EWER:  Maximum Recorded Temperature 
 TTMX.degC               83.00:  Max Tool Temp 
 VS01.                90511138:  Virtual Str1 SN 
 VS02.                90524876:  Virtual Str2 SN 
 VS03.                90524872:  Virtual Str3 SN 
 VS04.                90502750:  Virtual Str4 SN 
 VS05.                12330984:  Virtual Str5 SN 
 WBMN.klb                 0.00:  WOB Min 
 WOBA.klb                15.00:  WOB Avg 
 WOBX.klb                20.00:  WOB Max 
 YP  .lhf2               31.00:  Yield Point 
~Curve Information Block
#MNEM.UNIT                 API CODE     Curve Description
#---------               -----------    ---------------------------
 TIME.HHMMSS            00 000 000 000:  GT Time & Date
 GTDEPTH.m              00 000 000 000:  GT Depth
 GTPQH.psia             00 000 000 000:  GT HR Quartz Pressure
 GTTQ.degC              00 000 000 000:  GT Quartz Temperature
 GTTN.NONE              00 000 000 000:  GT Test Number
 GTET.sec               00 000 000 000:  GT Elapsed Test Time
 GTTVD.m                00 000 000 000:  GT True Vertical Depth
#Other Information
#
#WARRANTY: Halliburton will use its best efforts to furnish customers with 
#accurate information and interpretations that are part of, and incident to, the services 
#provided.  However, Halliburton cannot and does not warrant the accuracy 
#or correctness of such information and interpretations.  Under no circumstances should any 
#such information or interpretation be relied upon as the sole basis for any drilling, 
#completion, production, or financial decision or any procedure involving any risk to the 
#safety of any drilling venture, drilling rig or its crew or any other third party.  The 
#Customer has full responsibility for all drilling, completion and production operation.  
#Halliburton makes no representations or warranties, either expressed or 
#implied, including, but not limited to, the implied warranties of merchantability or fitness 
#for a particular purpose, with respect to the services rendered.  In no event will 
#Halliburton be liable for failure to obtain any particular results or for 
#any damages, including, but not limited to, indirect, special or consequential damages, 
#resulting from the use of any information or interpretation provided by Halliburton.
#
~A           TIME           GTDEPTH  GTPQH  GTTQ  GTTN  GTET   GTTVD  
# ...
   10:57:06.304.04-May-2020 4718.46 5827.99 80.97 6.00 368.06 2519.85
   10:57:06.504.04-May-2020 4718.46 5822.72 80.98 6.00 368.26 2519.85
   10:57:06.704.04-May-2020 4718.46 5826.88 80.98 6.00 368.46 2519.85
   10:57:06.904.04-May-2020 4718.46 5822.82 80.98 6.00 368.66 2519.85
   10:57:07.104.04-May-2020 4718.46 5821.69 80.98 6.00 368.86 2519.85
   10:57:07.304.04-May-2020 4718.46 5822.73 80.98 6.00 369.06 2519.85
   10:57:07.504.04-May-2020 4718.46 5822.73 80.98 6.00 369.26 2519.85
   10:57:07.704.04-May-2020 4718.46 5823.56 80.98 6.00 369.46 2519.85
   10:57:07.904.04-May-2020 4718.46 5823.04 80.98 6.00 369.66 2519.85
   10:57:08.104.04-May-2020 4718.46 5822.68 80.98 6.00 369.86 2519.85
   10:57:08.304.04-May-2020 4718.46 5821.59 80.98 6.00 370.06 2519.85
   10:57:08.504.04-May-2020 4718.46 5821.59 80.98 6.00 370.26 2519.85
   10:57:08.705.04-May-2020 4718.46 5823.04 80.98 6.00 370.46 2519.85
   10:57:08.905.04-May-2020 4718.46 5822.02 80.98 6.00 370.66 2519.85
   10:57:09.105.04-May-2020 4718.46 5821.97 80.98 6.00 370.86 2519.85
   10:57:09.305.04-May-2020 4718.46 5822.48 80.98 6.00 371.06 2519.85
   10:57:09.505.04-May-2020 4718.46 5822.48 80.98 6.00 371.26 2519.85
   10:57:09.705.04-May-2020 4718.46 5824.86 80.97 6.00 371.46 2519.85
   10:57:09.905.04-May-2020 4718.46 5823.78 80.97 6.00 371.66 2519.85
   10:57:10.105.04-May-2020 4718.46 5824.14 80.97 6.00 371.86 2519.85
   10:57:10.305.04-May-2020 4718.46 5823.75 80.97 6.00 372.06 2519.85
   10:57:10.505.04-May-2020 4718.46 5823.75 80.97 6.00 372.26 2519.85
   10:57:10.705.04-May-2020 4718.46 5824.78 80.97 6.00 372.46 2519.85
   10:57:10.905.04-May-2020 4718.46 5825.19 80.97 6.00 372.66 2519.85
   10:57:11.105.04-May-2020 4718.46 5824.77 80.97 6.00 372.86 2519.85
   10:57:11.305.04-May-2020 4718.46 5825.03 80.97 6.00 373.06 2519.85
   10:57:11.505.04-May-2020 4718.46 5825.03 80.97 6.00 373.26 2519.85
   10:57:11.705.04-May-2020 4718.46 5824.33 80.97 6.00 373.46 2519.85
   10:57:11.905.04-May-2020 4718.46 5823.66 80.97 6.00 373.66 2519.85
   10:57:12.105.04-May-2020 4718.46 5824.31 80.97 6.00 373.86 2519.85
   10:57:12.305.04-May-2020 4718.46 5828.19 80.97 6.00 374.06 2519.85
   10:57:12.505.04-May-2020 4718.46 5828.19 80.97 6.00 374.26 2519.85
   10:57:12.705.04-May-2020 4718.46 5829.93 80.97 6.00 374.46 2519.85
   10:57:12.905.04-May-2020 4718.46 5824.99 80.97 6.00 374.66 2519.85
   10:57:13.105.04-May-2020 4718.46 5823.76 80.97 6.00 374.86 2519.85
   10:57:13.305.04-May-2020 4718.46 5823.90 80.97 6.00 375.06 2519.85
   10:57:13.505.04-May-2020 4718.46 5823.90 80.97 6.00 375.26 2519.85
   10:57:13.705.04-May-2020 4718.46 5825.72 80.96 6.00 375.46 2519.85
   10:57:13.905.04-May-2020 4718.46 5828.31 80.96 6.00 375.66 2519.85
   10:57:14.105.04-May-2020 4718.46 5823.42 80.96 6.00 375.86 2519.85
   10:57:14.305.04-May-2020 4718.46 5822.97 80.96 6.00 376.06 2519.85
   10:57:14.505.04-May-2020 4718.46 5822.97 80.96 6.00 376.26 2519.85
   10:57:14.705.04-May-2020 4718.46 5828.57 80.96 6.00 376.46 2519.85
   10:57:14.905.04-May-2020 4718.46 5821.53 80.96 6.00 376.66 2519.85
   10:57:15.105.04-May-2020 4718.46 5821.88 80.96 6.00 376.86 2519.85
   10:57:15.306.04-May-2020 4718.46 5826.75 80.96 6.00 377.06 2519.85
   10:57:15.506.04-May-2020 4718.46 5826.75 80.96 6.00 377.26 2519.85
   10:57:15.706.04-May-2020 4718.46 5823.76 80.96 6.00 377.46 2519.85
   10:57:15.906.04-May-2020 4718.46 5823.00 80.96 6.00 377.66 2519.85
   10:57:16.106.04-May-2020 4718.46 5824.10 80.95 6.00 377.86 2519.85
   10:57:16.306.04-May-2020 4718.46 5822.01 80.95 6.00 378.06 2519.85
   10:57:16.506.04-May-2020 4718.46 5822.01 80.95 6.00 378.26 2519.85
   10:57:16.706.04-May-2020 4718.46 5821.27 80.95 6.00 378.46 2519.85
   10:57:16.906.04-May-2020 4718.46 5822.36 80.95 6.00 378.66 2519.85
   10:57:17.106.04-May-2020 4718.46 5823.14 80.95 6.00 378.86 2519.85
   10:57:17.306.04-May-2020 4718.46 5822.14 80.95 6.00 379.06 2519.85
   10:57:17.506.04-May-2020 4718.46 5822.14 80.95 6.00 379.26 2519.85
   10:57:17.706.04-May-2020 4718.46 5823.51 80.95 6.00 379.46 2519.85
   10:57:17.906.04-May-2020 4718.46 5824.29 80.95 6.00 379.66 2519.85
   10:57:18.106.04-May-2020 4718.46 5828.80 80.95 6.00 379.86 2519.85
   10:57:18.306.04-May-2020 4718.46 5824.62 80.95 6.00 380.06 2519.85
   10:57:18.506.04-May-2020 4718.46 5824.62 80.95 6.00 380.26 2519.85
   10:57:18.706.04-May-2020 4718.46 5824.35 80.94 6.00 380.46 2519.85
   10:57:18.906.04-May-2020 4718.46 5825.99 80.94 6.00 380.66 2519.85
   10:57:19.106.04-May-2020 4718.46 5823.73 80.94 6.00 380.86 2519.85
   10:57:19.306.04-May-2020 4718.46 5826.39 80.94 6.00 381.06 2519.85
   10:57:19.506.04-May-2020 4718.46 5826.39 80.94 6.00 381.26 2519.85
   10:57:19.706.04-May-2020 4718.46 5824.81 80.94 6.00 381.46 2519.85
   10:57:19.906.04-May-2020 4718.46 5824.42 80.94 6.00 381.66 2519.85
   10:57:20.106.04-May-2020 4718.46 5823.26 80.94 6.00 381.86 2519.85
   10:57:20.306.04-May-2020 4718.46 5823.13 80.94 6.00 382.06 2519.85
   10:57:20.506.04-May-2020 4718.46 5823.13 80.94 6.00 382.26 2519.85
   10:57:20.706.04-May-2020 4718.46 5828.90 80.93 6.00 382.46 2519.85
   10:57:20.906.04-May-2020 4718.46 5824.23 80.93 6.00 382.66 2519.85
   10:57:21.106.04-May-2020 4718.46 5823.05 80.93 6.00 382.86 2519.85
   10:57:21.306.04-May-2020 4718.46 5829.35 80.93 6.00 383.06 2519.85
   10:57:21.506.04-May-2020 4718.46 5829.35 80.93 6.00 383.26 2519.85
   10:57:21.707.04-May-2020 4718.46 5824.28 80.93 6.00 383.46 2519.85
   10:57:21.907.04-May-2020 4718.46 5823.12 80.93 6.00 383.66 2519.85
   10:57:22.107.04-May-2020 4718.46 5825.18 80.93 6.00 383.86 2519.85
   10:57:22.307.04-May-2020 4718.46 5827.59 80.93 6.00 384.06 2519.85
   10:57:22.507.04-May-2020 4718.46 5827.59 80.93 6.00 384.26 2519.85
   10:57:22.707.04-May-2020 4718.46 5821.49 80.92 6.00 384.46 2519.85
   10:57:22.907.04-May-2020 4718.46 5822.00 80.92 6.00 384.66 2519.85
   10:57:23.107.04-May-2020 4718.46 5827.24 80.92 6.00 384.86 2519.85
   10:57:23.307.04-May-2020 4718.46 5823.08 80.92 6.00 385.06 2519.85
   10:57:23.507.04-May-2020 4718.46 5823.08 80.92 6.00 385.26 2519.85
   10:57:23.707.04-May-2020 4718.46 5821.88 80.92 6.00 385.46 2519.85
   10:57:23.907.04-May-2020 4718.46 5827.70 80.92 6.00 385.66 2519.85
   10:57:24.107.04-May-2020 4718.46 5825.12 80.92 6.00 385.86 2519.85
   10:57:24.307.04-May-2020 4718.46 5821.80 80.92 6.00 386.06 2519.85
   10:57:24.507.04-May-2020 4718.46 5821.80 80.92 6.00 386.26 2519.85
   10:57:24.707.04-May-2020 4718.46 5823.12 80.91 6.00 386.46 2519.85
   10:57:24.907.04-May-2020 4718.46 5823.48 80.91 6.00 386.66 2519.85
   10:57:25.107.04-May-2020 4718.46 5822.22 80.91 6.00 386.86 2519.85
   10:57:25.307.04-May-2020 4718.46 5822.16 80.91 6.00 387.06 2519.85
   10:57:25.507.04-May-2020 4718.46 5822.16 80.91 6.00 387.26 2519.85
   10:57:25.707.04-May-2020 4718.46 5823.63 80.91 6.00 387.46 2519.85
   10:57:25.907.04-May-2020 4718.46 5823.05 80.91 6.00 387.66 2519.85
   10:57:26.107.04-May-2020 4718.46 5822.79 80.91 6.00 387.86 2519.85
   10:57:26.307.04-May-2020 4718.46 5824.19 80.91 6.00 388.06 2519.85
   10:57:26.507.04-May-2020 4718.46 5824.19 80.91 6.00 388.26 2519.85
   10:57:26.707.04-May-2020 4718.46 5828.41 80.91 6.00 388.46 2519.85
   10:57:26.907.04-May-2020 4718.46 5825.57 80.90 6.00 388.66 2519.85
   10:57:27.107.04-May-2020 4718.46 5824.13 80.90 6.00 388.86 2519.85
   10:57:27.307.04-May-2020 4718.46 5825.77 80.90 6.00 389.06 2519.85
   10:57:27.507.04-May-2020 4718.46 5825.77 80.90 6.00 389.26 2519.85
   10:57:27.707.04-May-2020 4718.46 5825.25 80.90 6.00 389.46 2519.85
   10:57:27.907.04-May-2020 4718.46 5824.32 80.90 6.00 389.66 2519.85
   10:57:28.108.04-May-2020 4718.46 5824.48 80.90 6.00 389.86 2519.85
   10:57:28.308.04-May-2020 4718.46 5823.83 80.90 6.00 390.06 2519.85
   10:57:28.508.04-May-2020 4718.46 5823.83 80.90 6.00 390.26 2519.85
   10:57:28.708.04-May-2020 4718.46 5823.45 80.90 6.00 390.46 2519.85
   10:57:28.908.04-May-2020 4718.46 5823.06 80.89 6.00 390.66 2519.85
   10:57:29.108.04-May-2020 4718.46 5822.83 80.89 6.00 390.86 2519.85
