~Version Information
 VERS.                  2.0:   CWLS log ASCII Standard -VERSION 2.0
 WRAP.                   NO:   One line per depth step
~Well Information Block
#MNEM.UNIT     VALUE/NAME     DESCRIPTION
#---------     -----------    ---------------------------
 STRT.S             01:13:00 04-May-20: START TIME 01:13:00 04-May-20
 STOP.S             01:19:30 04-May-20: STOP TIME  01:19:30 04-May-20
 STEP.S                   0.00: STEP TIME
 NULL.                 -999.25: NULL VALUE
 DFWT.                        :  DIST FWL TEXT
 DFST.                        :  DIST FSL TEXT
 DMF .             Drill Floor:  DRILL MEAS FROM
 STIM.      03.00.00 25-Mar-20:  START TIME
 DATE.      00.00.00 19-May-20:  END TIME
 SPUD.               27-Aug-20:  SPUD DATE
 NREF.                    Grid:  NORTH REFERENCE
 HPTY.       Minimum Curvature:  HOLE POS TYPE
 DMOD.             Drill Model:  DRILL MOD DESC
 SVYD.                  Survey:  SURVEY DESC
 ILTD.               Lithology:  INTERP LTH DESC
 FTOP.          Formation Tops:  FORM TOPS DESC
 SON .        AZ-XX-0906252240:  JOB NUMBER
 RIG .             West Chirag:  RIG NAME
 PDAT.          Mean Sea Level:  PERMANENT DATUM
 FLD .                     ACG:  FIELD NAME
 CTRY.              Azerbaijan:  COUNTRY NAME
 WELL.                     J23:  WELL NAME
 SRVC.          Turan Drilling:  CONTRACTOR
 COMP.     BP Exploration (Caspian Sea) Ltd.:  COMPANY
 WTYP.                Deviated:  WELL TYPE
 MDS .        Operator Entered:  MAG DATA SOURCE
 UWI .                     N/A:  UNIQUE WELL IDENTIFIER
 API .                     N/A:  API NUMBER
 BASE.              Azerbaijan:  LOGGING EQUIPMENT BASE LOCATION
 REGN.                   EESSA:  REGION
 PROV.                    Baku:  PROVINCE
 STAT.                    Baku:  STATE NAME
 MWDS.                     N/A:  MWD SHOP
 JOBN.        AZ-XX-0906252240:  JOB TICKET NUMB
 DOE .                     N/A:  DOE NUMBER
 DCON.         Sperry Drilling:  DIRECTNL CONTR
 UNIT.                     N/A:  LOGGING EQUIPMENT ID
 CNTY.                        :  COUNTY
 LOC .                        :  LOCATION
 LMF .             Drill Floor:  LOG MEASURED FROM
 TVDS.m                  43.00:  TVDSS CORRECTN
 LATI.deg                40.13:  LATITUDE
 LONG.deg                51.22:  LONGITUDE
 WHNS.m                   9.43:  WELL HEAD N/S
 WHEW.m                  -8.91:  WELL HEAD E/W
 UTMX.m              519005.06:  UTM X
 UTMY.m             4443793.85:  UTM Y
 DFWL.m                   0.00:  DISTANCE FWL
 DFSL.m                   0.00:  DISTANCE FSL
 SDEP.m                 363.00:  START DEPTH
 TDD .m                5150.01:  TOTAL DEPTH (DRILLER)
 VSDR.deg               179.88:  VERT SEC DIRECT
 GVFD.g                   1.00:  GRAVITY FIELD
 MFLD.nT              50295.00:  MAGNETIC FIELD
 MDIP.deg                59.56:  MAGNETIC DIP
 MDEC.deg                 6.45:  MAGNETIC DECL
 GRDC.deg                 0.14:  GRID CORRECTION
 AZTC.deg                 6.31:  AZM TOTAL CORR
 EPD .m                   0.00:  ELEVATION
 EGL .m                   0.00:  GROUND ELEVATION
 WDMS.m                 169.80:  WD ELEV
 APD .m                  43.00:  DEPTH ABOVE PD
 DEP .m                 354.17:  DEPTH
 AGAP.m                  43.00:  AIR GAP
 VSEW.m                  -8.91:  VERT SEC E/W
 VSNS.m                   9.43:  VERT SEC N/S
 EKB .m                   0.00:  KB ELEVATION
 EDF .m                  43.00:  DF ELEVATION
 TDL .m                1351.00:  TOTAL DEPTH (LOGGER)
 VSC .                       0:  VS TO CLOSURE
 MAGU.                 1850802:  MAGUTM CHECKSUM
~Parameter Information Block
#MNEM.UNIT       Value        Description
#---------     -----------    ---------------------------
 AV  .mps                 1.00:  Ann Velocity 
 AVMX.mps                 2.40:  Max Ann Veloc 
 AZIF.deg               148.96:  Azm, Final 
 BHAT.        Rotary Steerable:  BHA Type 
 BROT.°/30m               0.04:  Build Rotating 
 BS  .in                 12.25:  Bit Size 
 BSZ .in                 12.25:  Bit Size 
 BTPL.psig              814.00:  Bit Press Loss 
 TCS .hr                106.00:  Time Ciculation Ended 
 CV  .mps                 2.47:  Crit Velocity 
 CVMX.mps                 2.64:  Max Crit Veloc 
 DD1 .          Rashad Habibov:  Direct Drillr 1 
 DD2 .         Rasim Ibrahimov:  Direct Drillr 2 
 DDSV.                 iCruise:  DD Service 
 DEFF.%                 100.00:  % Det Eff 
 DLRX.°/30m               0.70:  Dogleg Rot Max 
 DLSO.°/30m               3.00:  Dogleg Oriented 
 DLSX.°/30m               4.55:  Dogleg Str Max 
 DRET.      08.08.32 02-May-20:  Drill End Time 
 DRST.      08.08.32 28-Apr-20:  Drill Start Tim 
 DTIM.hr                 60.00:  Time Drilling 
 EDEP.m                4761.01:  End Depth 
 ENG1.           Eldar Hajiyev:  Engineer 1 
 ENG2.        Marcelo Sandoval:  Engineer 2 
 ETIM.      23.23.07 05-May-20:  End Time 
 FLOI.gpm              1200.00:  Flow In 
 FLON.gpm               900.00:  Flow In Min 
 FLOS.cptm                0.00:  Fluid Loss 
 FLOX.gpm              1200.00:  Flow In Max 
 HFLO.                      No:  High Flow 
 HPRE.                      No:  High Pressure 
 HTEM.                      No:  High Temp 
 HYDO.m                   1.80:  Hydro Offset 
 IFIN.deg                68.17:  Inc, Final 
 IMAX.deg                74.61:  Inc Max 
 IMIN.deg                68.15:  Inc Min 
 IMND.m                4317.87:  Inc Min Depth 
 IMXD.m                4714.01:  Inc Max Depth 
 LETM.      08.08.32 02-May-20:  Log End Time 
 LOST.hr                     2:  Lost Rig Time 
 LSTM.      08.08.32 28-Apr-20:  Log Start Time 
 MDCL.ppm             41000.00:  Mud Chlorides 
 MDES.     Inversion Oil/Synthetic:  Mud Desc 
 DFD .sg                  1.58:  Mud Density 
 MDMN.sg                  1.58:  Dens Mud Min 
 MDMX.sg                  1.58:  Dens Mud Max 
 MOIL.                      71:  Run Mud Oil % 
 MOWR.                   71:29:  Run Mud OWR 
 MSND.                     0.1:  Run Mud Sand % 
 MSOL.                      23:  Run Mud Solids% 
 DFV .spqt               82.00:  Mud Viscosity 
 MWOD.in                  8.00:  MWD Tool OD 
 MWSI.                     Yes:  Serv Intrp, MWD 
 OTIM.hr                125.00:  Time Operating 
 PMAX.psia             6129.00:  Press Op, Max 
 PV  .cP                 32.00:  Mud PV 
 RUN .                     800:  Run Number 
 ROPA.m/hr               30.00:  ROP Avg 
 ROPN.m/hr               10.00:  ROP Min 
 ROPX.m/hr               40.00:  ROP Max 
 RPMA.rpm               140.00:  RPM Surface Avg 
 RPMN.rpm                80.00:  RPM Surface Min 
 RPMX.rpm               140.00:  RPM Surface Max 
 RRUN.                    L503:  Rig Run Number 
 RTIM.hr                  2.00:  Time Reaming 
 SAZI.deg               184.23:  Azm, Start 
 SDEP.m                3410.01:  Start Depth 
 SIDD.                      No:  Serv Intrp, DD 
 SINC.deg                68.29:  Inc, Start 
 SPPA.psig             6000.00:  SPP Avg 
 SPPN.psig             4000.00:  SPP Min 
 SPPX.psig             6100.00:  SPP Max 
 STIM.      08.08.32 28-Apr-20:  Start Time 
 SVCS.                 DD, MWD:  Services 
 SVER.                    9.20:  Sperry Version 
 TDAT.m                1351.00:  Tot Depth Attmp 
 TDDF.                      No:  Trip for DD 
 TDLG.m                1351.00:  Tot Depth Loggd 
 TFF .                      No:  Trip for Fail 
 TQAA.f-kp               27.00:  Torque Abs Avg 
 TQAN.f-kp               20.00:  Torque Abs Min 
 TQAX.f-kp               30.00:  Torque Abs Max 
 TRRT.°/30m               0.60:  Turn Rotating 
 MRT .                    EWER:  Maximum Recorded Temperature 
 TTMX.degC               83.00:  Max Tool Temp 
 VS01.                90511138:  Virtual Str1 SN 
 VS02.                90524876:  Virtual Str2 SN 
 VS03.                90524872:  Virtual Str3 SN 
 VS04.                90502750:  Virtual Str4 SN 
 VS05.                12330984:  Virtual Str5 SN 
 WBMN.klb                 0.00:  WOB Min 
 WOBA.klb                15.00:  WOB Avg 
 WOBX.klb                20.00:  WOB Max 
 YP  .lhf2               31.00:  Yield Point 
~Curve Information Block
#MNEM.UNIT                 API CODE     Curve Description
#---------               -----------    ---------------------------
 TIME.HHMMSS            00 000 000 000:  GT Time & Date
 GTDEPTH.m              00 000 000 000:  GT Depth
 GTPQH.psia             00 000 000 000:  GT HR Quartz Pressure
 GTTQ.degC              00 000 000 000:  GT Quartz Temperature
 GTTN.NONE              00 000 000 000:  GT Test Number
 GTET.sec               00 000 000 000:  GT Elapsed Test Time
 GTTVD.m                00 000 000 000:  GT True Vertical Depth
#Other Information
#
#WARRANTY: Halliburton will use its best efforts to furnish customers with 
#accurate information and interpretations that are part of, and incident to, the services 
#provided.  However, Halliburton cannot and does not warrant the accuracy 
#or correctness of such information and interpretations.  Under no circumstances should any 
#such information or interpretation be relied upon as the sole basis for any drilling, 
#completion, production, or financial decision or any procedure involving any risk to the 
#safety of any drilling venture, drilling rig or its crew or any other third party.  The 
#Customer has full responsibility for all drilling, completion and production operation.  
#Halliburton makes no representations or warranties, either expressed or 
#implied, including, but not limited to, the implied warranties of merchantability or fitness 
#for a particular purpose, with respect to the services rendered.  In no event will 
#Halliburton be liable for failure to obtain any particular results or for 
#any damages, including, but not limited to, indirect, special or consequential damages, 
#resulting from the use of any information or interpretation provided by Halliburton.
#
~A           TIME           GTDEPTH  GTPQH  GTTQ  GTTN  GTET   GTTVD  
# ...
   01:15:18.542.04-May-2020 4660.50 4101.90 76.20 5.00 138.01 2503.99
   01:15:18.742.04-May-2020 4660.50 4101.90 76.20 5.00 138.21 2503.99
   01:15:18.942.04-May-2020 4660.50 4104.90 76.20 5.00 138.41 2503.99
   01:15:19.142.04-May-2020 4660.50 4106.15 76.20 5.00 138.61 2503.99
   01:15:19.342.04-May-2020 4660.50 4107.65 76.20 5.00 138.81 2503.99
   01:15:19.542.04-May-2020 4660.50 4109.29 76.20 5.00 139.01 2503.99
   01:15:19.742.04-May-2020 4660.50 4109.29 76.20 5.00 139.21 2503.99
   01:15:19.942.04-May-2020 4660.50 4112.59 76.20 5.00 139.41 2503.99
   01:15:20.142.04-May-2020 4660.50 4114.14 76.20 5.00 139.61 2503.99
   01:15:20.342.04-May-2020 4660.50 4115.42 76.20 5.00 139.81 2503.99
   01:15:20.542.04-May-2020 4660.50 4116.65 76.20 5.00 140.01 2503.99
   01:15:20.742.04-May-2020 4660.50 4116.65 76.20 5.00 140.21 2503.99
   01:15:20.942.04-May-2020 4660.50 4118.97 76.20 5.00 140.41 2503.99
   01:15:21.142.04-May-2020 4660.50 4120.29 76.20 5.00 140.61 2503.99
   01:15:21.342.04-May-2020 4660.50 4121.73 76.20 5.00 140.81 2503.99
   01:15:21.542.04-May-2020 4660.50 4121.76 76.20 5.00 141.01 2503.99
   01:15:21.742.04-May-2020 4660.50 4121.76 76.20 5.00 141.21 2503.99
   01:15:21.942.04-May-2020 4660.50 4124.76 76.20 5.00 141.41 2503.99
   01:15:22.142.04-May-2020 4660.50 4125.92 76.19 5.00 141.61 2503.99
   01:15:22.342.04-May-2020 4660.50 4126.87 76.19 5.00 141.81 2503.99
   01:15:22.542.04-May-2020 4660.50 4127.93 76.19 5.00 142.01 2503.99
   01:15:22.742.04-May-2020 4660.50 4127.93 76.19 5.00 142.21 2503.99
   01:15:22.942.04-May-2020 4660.50 4130.98 76.19 5.00 142.41 2503.99
   01:15:23.142.04-May-2020 4660.50 4131.76 76.19 5.00 142.61 2503.99
   01:15:23.342.04-May-2020 4660.50 4132.77 76.19 5.00 142.81 2503.99
   01:15:23.542.04-May-2020 4660.50 4133.97 76.19 5.00 143.01 2503.99
   01:15:23.742.04-May-2020 4660.50 4133.97 76.19 5.00 143.21 2503.99
   01:15:23.942.04-May-2020 4660.50 4136.58 76.19 5.00 143.41 2503.99
   01:15:24.142.04-May-2020 4660.50 4137.61 76.19 5.00 143.61 2503.99
   01:15:24.342.04-May-2020 4660.50 4138.88 76.19 5.00 143.81 2503.99
   01:15:24.542.04-May-2020 4660.50 4140.24 76.19 5.00 144.01 2503.99
   01:15:24.742.04-May-2020 4660.50 4140.24 76.19 5.00 144.21 2503.99
   01:15:24.942.04-May-2020 4660.50 4142.33 76.19 5.00 144.41 2503.99
   01:15:25.142.04-May-2020 4660.50 4143.54 76.19 5.00 144.61 2503.99
   01:15:25.342.04-May-2020 4660.50 4144.95 76.19 5.00 144.81 2503.99
   01:15:25.542.04-May-2020 4660.50 4145.86 76.19 5.00 145.01 2503.99
   01:15:25.742.04-May-2020 4660.50 4145.86 76.19 5.00 145.21 2503.99
   01:15:25.942.04-May-2020 4660.50 4148.56 76.19 5.00 145.41 2503.99
   01:15:26.142.04-May-2020 4660.50 4149.72 76.19 5.00 145.61 2503.99
   01:15:26.342.04-May-2020 4660.50 4150.89 76.19 5.00 145.81 2503.99
   01:15:26.543.04-May-2020 4660.50 4158.17 76.18 5.00 146.01 2503.99
   01:15:26.743.04-May-2020 4660.50 4158.17 76.18 5.00 146.21 2503.99
   01:15:26.943.04-May-2020 4660.50 4160.50 76.18 5.00 146.41 2503.99
   01:15:27.143.04-May-2020 4660.50 4161.90 76.18 5.00 146.61 2503.99
   01:15:27.343.04-May-2020 4660.50 4162.75 76.18 5.00 146.81 2503.99
   01:15:27.543.04-May-2020 4660.50 4163.93 76.18 5.00 147.01 2503.99
   01:15:27.743.04-May-2020 4660.50 4163.93 76.18 5.00 147.21 2503.99
   01:15:27.943.04-May-2020 4660.50 4166.22 76.18 5.00 147.41 2503.99
   01:15:28.143.04-May-2020 4660.50 4167.10 76.18 5.00 147.61 2503.99
   01:15:28.343.04-May-2020 4660.50 4167.93 76.18 5.00 147.81 2503.99
   01:15:28.543.04-May-2020 4660.50 4168.91 76.18 5.00 148.01 2503.99
   01:15:28.743.04-May-2020 4660.50 4168.91 76.18 5.00 148.21 2503.99
   01:15:28.943.04-May-2020 4660.50 4170.65 76.18 5.00 148.41 2503.99
   01:15:29.143.04-May-2020 4660.50 4170.61 76.18 5.00 148.61 2503.99
   01:15:29.343.04-May-2020 4660.50 4172.22 76.18 5.00 148.81 2503.99
   01:15:29.543.04-May-2020 4660.50 4172.94 76.18 5.00 149.01 2503.99
   01:15:29.743.04-May-2020 4660.50 4173.99 76.18 5.00 149.21 2503.99
   01:15:29.943.04-May-2020 4660.50 4175.23 76.17 5.00 149.41 2503.99
   01:15:30.143.04-May-2020 4660.50 4175.97 76.17 5.00 149.61 2503.99
   01:15:30.343.04-May-2020 4660.50 4178.27 76.17 5.00 149.81 2503.99
   01:15:30.543.04-May-2020 4660.50 4180.07 76.17 5.00 150.01 2503.99
   01:15:30.743.04-May-2020 4660.50 4180.07 76.17 5.00 150.21 2503.99
   01:15:30.943.04-May-2020 4660.50 4182.17 76.17 5.00 150.41 2503.99
   01:15:31.143.04-May-2020 4660.50 4184.12 76.17 5.00 150.61 2503.99
   01:15:31.343.04-May-2020 4660.50 4187.80 76.17 5.00 150.81 2503.99
   01:15:31.543.04-May-2020 4660.50 4192.12 76.17 5.00 151.01 2503.99
   01:15:31.743.04-May-2020 4660.50 4192.12 76.17 5.00 151.21 2503.99
   01:15:31.943.04-May-2020 4660.50 4194.65 76.17 5.00 151.41 2503.99
   01:15:32.143.04-May-2020 4660.50 4195.76 76.17 5.00 151.61 2503.99
   01:15:32.343.04-May-2020 4660.50 4172.57 76.17 5.00 151.81 2503.99
   01:15:32.543.04-May-2020 4660.50 1996.67 76.17 5.00 152.01 2503.99
   01:15:32.743.04-May-2020 4660.50 1996.67 76.17 5.00 152.21 2503.99
   01:15:32.943.04-May-2020 4660.50 1289.84 76.17 5.00 152.41 2503.99
   01:15:33.143.04-May-2020 4660.50 1151.13 76.17 5.00 152.61 2503.99
   01:15:33.343.04-May-2020 4660.50 1017.74 76.16 5.00 152.81 2503.99
   01:15:33.543.04-May-2020 4660.50  874.14 76.16 5.00 153.01 2503.99
   01:15:33.743.04-May-2020 4660.50  874.14 76.16 5.00 153.21 2503.99
   01:15:33.943.04-May-2020 4660.50  566.41 76.16 5.00 153.41 2503.99
   01:15:34.143.04-May-2020 4660.50  428.71 76.16 5.00 153.61 2503.99
   01:15:34.343.04-May-2020 4660.50  303.57 76.15 5.00 153.81 2503.99
   01:15:34.543.04-May-2020 4660.50  204.91 76.15 5.00 154.01 2503.99
   01:15:34.743.04-May-2020 4660.50  204.91 76.15 5.00 154.21 2503.99
   01:15:34.943.04-May-2020 4660.50  110.90 76.15 5.00 154.41 2503.99
   01:15:35.143.04-May-2020 4660.50   91.47 76.14 5.00 154.61 2503.99
   01:15:35.343.04-May-2020 4660.50   79.15 76.14 5.00 154.81 2503.99
   01:15:35.543.04-May-2020 4660.50   70.62 76.14 5.00 155.01 2503.99
   01:15:35.743.04-May-2020 4660.50   70.62 76.14 5.00 155.21 2503.99
   01:15:35.943.04-May-2020 4660.50   64.18 76.13 5.00 155.41 2503.99
   01:15:36.143.04-May-2020 4660.50   55.15 76.13 5.00 155.61 2503.99
   01:15:36.343.04-May-2020 4660.50   52.02 76.12 5.00 155.81 2503.99
   01:15:36.543.04-May-2020 4660.50   49.48 76.12 5.00 156.01 2503.99
   01:15:36.743.04-May-2020 4660.50   49.48 76.12 5.00 156.21 2503.99
   01:15:36.943.04-May-2020 4660.50   45.67 76.11 5.00 156.41 2503.99
   01:15:37.143.04-May-2020 4660.50   44.23 76.11 5.00 156.61 2503.99
   01:15:37.343.04-May-2020 4660.50   42.79 76.10 5.00 156.81 2503.99
   01:15:37.544.04-May-2020 4660.50   41.59 76.10 5.00 157.01 2503.99
   01:15:37.744.04-May-2020 4660.50   41.59 76.10 5.00 157.21 2503.99
   01:15:37.944.04-May-2020 4660.50   39.30 76.09 5.00 157.41 2503.99
   01:15:38.144.04-May-2020 4660.50   38.36 76.09 5.00 157.61 2503.99
   01:15:38.344.04-May-2020 4660.50   37.49 76.09 5.00 157.81 2503.99
   01:15:38.544.04-May-2020 4660.50   36.64 76.08 5.00 158.01 2503.99
   01:15:38.744.04-May-2020 4660.50   36.64 76.08 5.00 158.21 2503.99
   01:15:38.944.04-May-2020 4660.50   35.27 76.08 5.00 158.41 2503.99
   01:15:39.144.04-May-2020 4660.50   34.68 76.07 5.00 158.61 2503.99
   01:15:39.344.04-May-2020 4660.50   34.09 76.07 5.00 158.81 2503.99
   01:15:39.544.04-May-2020 4660.50   33.57 76.07 5.00 159.01 2503.99
   01:15:39.744.04-May-2020 4660.50   33.57 76.07 5.00 159.21 2503.99
   01:15:39.944.04-May-2020 4660.50   32.65 76.06 5.00 159.41 2503.99
   01:15:40.144.04-May-2020 4660.50   32.27 76.06 5.00 159.61 2503.99
   01:15:40.344.04-May-2020 4660.50   31.93 76.06 5.00 159.81 2503.99
   01:15:40.544.04-May-2020 4660.50   31.60 76.06 5.00 160.01 2503.99
   01:15:40.744.04-May-2020 4660.50   31.28 76.05 5.00 160.21 2503.99
   01:15:40.944.04-May-2020 4660.50   31.02 76.05 5.00 160.41 2503.99
   01:15:41.144.04-May-2020 4660.50   30.73 76.05 5.00 160.61 2503.99
   01:15:41.344.04-May-2020 4660.50   30.48 76.05 5.00 160.81 2503.99
