~Version Information
 VERS.                  2.0:   CWLS log ASCII Standard -VERSION 2.0
 WRAP.                   NO:   One line per depth step
~Well Information Block
#MNEM.UNIT     VALUE/NAME     DESCRIPTION
#---------     -----------    ---------------------------
 STRT.S             13:13:41 03-May-20: START TIME 13:13:41 03-May-20
 STOP.S             13:20:16 03-May-20: STOP TIME  13:20:16 03-May-20
 STEP.S                   0.00: STEP TIME
 NULL.                 -999.25: NULL VALUE
 DFWT.                        :  DIST FWL TEXT
 DFST.                        :  DIST FSL TEXT
 DMF .             Drill Floor:  DRILL MEAS FROM
 STIM.      03.00.00 25-Mar-20:  START TIME
 DATE.      00.00.00 19-May-20:  END TIME
 SPUD.               27-Aug-20:  SPUD DATE
 NREF.                    Grid:  NORTH REFERENCE
 HPTY.       Minimum Curvature:  HOLE POS TYPE
 DMOD.             Drill Model:  DRILL MOD DESC
 SVYD.                  Survey:  SURVEY DESC
 ILTD.               Lithology:  INTERP LTH DESC
 FTOP.          Formation Tops:  FORM TOPS DESC
 SON .        AZ-XX-0906252240:  JOB NUMBER
 RIG .             West Chirag:  RIG NAME
 PDAT.          Mean Sea Level:  PERMANENT DATUM
 FLD .                     ACG:  FIELD NAME
 CTRY.              Azerbaijan:  COUNTRY NAME
 WELL.                     J23:  WELL NAME
 SRVC.          Turan Drilling:  CONTRACTOR
 COMP.     BP Exploration (Caspian Sea) Ltd.:  COMPANY
 WTYP.                Deviated:  WELL TYPE
 MDS .        Operator Entered:  MAG DATA SOURCE
 UWI .                     N/A:  UNIQUE WELL IDENTIFIER
 API .                     N/A:  API NUMBER
 BASE.              Azerbaijan:  LOGGING EQUIPMENT BASE LOCATION
 REGN.                   EESSA:  REGION
 PROV.                    Baku:  PROVINCE
 STAT.                    Baku:  STATE NAME
 MWDS.                     N/A:  MWD SHOP
 JOBN.        AZ-XX-0906252240:  JOB TICKET NUMB
 DOE .                     N/A:  DOE NUMBER
 DCON.         Sperry Drilling:  DIRECTNL CONTR
 UNIT.                     N/A:  LOGGING EQUIPMENT ID
 CNTY.                        :  COUNTY
 LOC .                        :  LOCATION
 LMF .             Drill Floor:  LOG MEASURED FROM
 TVDS.m                  43.00:  TVDSS CORRECTN
 LATI.deg                40.13:  LATITUDE
 LONG.deg                51.22:  LONGITUDE
 WHNS.m                   9.43:  WELL HEAD N/S
 WHEW.m                  -8.91:  WELL HEAD E/W
 UTMX.m              519005.06:  UTM X
 UTMY.m             4443793.85:  UTM Y
 DFWL.m                   0.00:  DISTANCE FWL
 DFSL.m                   0.00:  DISTANCE FSL
 SDEP.m                 363.00:  START DEPTH
 TDD .m                5150.01:  TOTAL DEPTH (DRILLER)
 VSDR.deg               179.88:  VERT SEC DIRECT
 GVFD.g                   1.00:  GRAVITY FIELD
 MFLD.nT              50295.00:  MAGNETIC FIELD
 MDIP.deg                59.56:  MAGNETIC DIP
 MDEC.deg                 6.45:  MAGNETIC DECL
 GRDC.deg                 0.14:  GRID CORRECTION
 AZTC.deg                 6.31:  AZM TOTAL CORR
 EPD .m                   0.00:  ELEVATION
 EGL .m                   0.00:  GROUND ELEVATION
 WDMS.m                 169.80:  WD ELEV
 APD .m                  43.00:  DEPTH ABOVE PD
 DEP .m                 354.17:  DEPTH
 AGAP.m                  43.00:  AIR GAP
 VSEW.m                  -8.91:  VERT SEC E/W
 VSNS.m                   9.43:  VERT SEC N/S
 EKB .m                   0.00:  KB ELEVATION
 EDF .m                  43.00:  DF ELEVATION
 TDL .m                1351.00:  TOTAL DEPTH (LOGGER)
 VSC .                       0:  VS TO CLOSURE
 MAGU.                 1850802:  MAGUTM CHECKSUM
~Parameter Information Block
#MNEM.UNIT       Value        Description
#---------     -----------    ---------------------------
 AV  .mps                 1.00:  Ann Velocity 
 AVMX.mps                 2.40:  Max Ann Veloc 
 AZIF.deg               148.96:  Azm, Final 
 BHAT.        Rotary Steerable:  BHA Type 
 BROT.°/30m               0.04:  Build Rotating 
 BS  .in                 12.25:  Bit Size 
 BSZ .in                 12.25:  Bit Size 
 BTPL.psig              814.00:  Bit Press Loss 
 TCS .hr                106.00:  Time Ciculation Ended 
 CV  .mps                 2.47:  Crit Velocity 
 CVMX.mps                 2.64:  Max Crit Veloc 
 DD1 .          Rashad Habibov:  Direct Drillr 1 
 DD2 .         Rasim Ibrahimov:  Direct Drillr 2 
 DDSV.                 iCruise:  DD Service 
 DEFF.%                 100.00:  % Det Eff 
 DLRX.°/30m               0.70:  Dogleg Rot Max 
 DLSO.°/30m               3.00:  Dogleg Oriented 
 DLSX.°/30m               4.55:  Dogleg Str Max 
 DRET.      08.08.32 02-May-20:  Drill End Time 
 DRST.      08.08.32 28-Apr-20:  Drill Start Tim 
 DTIM.hr                 60.00:  Time Drilling 
 EDEP.m                4761.01:  End Depth 
 ENG1.           Eldar Hajiyev:  Engineer 1 
 ENG2.        Marcelo Sandoval:  Engineer 2 
 ETIM.      23.23.07 05-May-20:  End Time 
 FLOI.gpm              1200.00:  Flow In 
 FLON.gpm               900.00:  Flow In Min 
 FLOS.cptm                0.00:  Fluid Loss 
 FLOX.gpm              1200.00:  Flow In Max 
 HFLO.                      No:  High Flow 
 HPRE.                      No:  High Pressure 
 HTEM.                      No:  High Temp 
 HYDO.m                   1.80:  Hydro Offset 
 IFIN.deg                68.17:  Inc, Final 
 IMAX.deg                74.61:  Inc Max 
 IMIN.deg                68.15:  Inc Min 
 IMND.m                4317.87:  Inc Min Depth 
 IMXD.m                4714.01:  Inc Max Depth 
 LETM.      08.08.32 02-May-20:  Log End Time 
 LOST.hr                     2:  Lost Rig Time 
 LSTM.      08.08.32 28-Apr-20:  Log Start Time 
 MDCL.ppm             41000.00:  Mud Chlorides 
 MDES.     Inversion Oil/Synthetic:  Mud Desc 
 DFD .sg                  1.58:  Mud Density 
 MDMN.sg                  1.58:  Dens Mud Min 
 MDMX.sg                  1.58:  Dens Mud Max 
 MOIL.                      71:  Run Mud Oil % 
 MOWR.                   71:29:  Run Mud OWR 
 MSND.                     0.1:  Run Mud Sand % 
 MSOL.                      23:  Run Mud Solids% 
 DFV .spqt               82.00:  Mud Viscosity 
 MWOD.in                  8.00:  MWD Tool OD 
 MWSI.                     Yes:  Serv Intrp, MWD 
 OTIM.hr                125.00:  Time Operating 
 PMAX.psia             6129.00:  Press Op, Max 
 PV  .cP                 32.00:  Mud PV 
 RUN .                     800:  Run Number 
 ROPA.m/hr               30.00:  ROP Avg 
 ROPN.m/hr               10.00:  ROP Min 
 ROPX.m/hr               40.00:  ROP Max 
 RPMA.rpm               140.00:  RPM Surface Avg 
 RPMN.rpm                80.00:  RPM Surface Min 
 RPMX.rpm               140.00:  RPM Surface Max 
 RRUN.                    L503:  Rig Run Number 
 RTIM.hr                  2.00:  Time Reaming 
 SAZI.deg               184.23:  Azm, Start 
 SDEP.m                3410.01:  Start Depth 
 SIDD.                      No:  Serv Intrp, DD 
 SINC.deg                68.29:  Inc, Start 
 SPPA.psig             6000.00:  SPP Avg 
 SPPN.psig             4000.00:  SPP Min 
 SPPX.psig             6100.00:  SPP Max 
 STIM.      08.08.32 28-Apr-20:  Start Time 
 SVCS.                 DD, MWD:  Services 
 SVER.                    9.20:  Sperry Version 
 TDAT.m                1351.00:  Tot Depth Attmp 
 TDDF.                      No:  Trip for DD 
 TDLG.m                1351.00:  Tot Depth Loggd 
 TFF .                      No:  Trip for Fail 
 TQAA.f-kp               27.00:  Torque Abs Avg 
 TQAN.f-kp               20.00:  Torque Abs Min 
 TQAX.f-kp               30.00:  Torque Abs Max 
 TRRT.°/30m               0.60:  Turn Rotating 
 MRT .                    EWER:  Maximum Recorded Temperature 
 TTMX.degC               83.00:  Max Tool Temp 
 VS01.                90511138:  Virtual Str1 SN 
 VS02.                90524876:  Virtual Str2 SN 
 VS03.                90524872:  Virtual Str3 SN 
 VS04.                90502750:  Virtual Str4 SN 
 VS05.                12330984:  Virtual Str5 SN 
 WBMN.klb                 0.00:  WOB Min 
 WOBA.klb                15.00:  WOB Avg 
 WOBX.klb                20.00:  WOB Max 
 YP  .lhf2               31.00:  Yield Point 
~Curve Information Block
#MNEM.UNIT                 API CODE     Curve Description
#---------               -----------    ---------------------------
 TIME.HHMMSS            00 000 000 000:  GT Time & Date
 GTDEPTH.m              00 000 000 000:  GT Depth
 GTPQH.psia             00 000 000 000:  GT HR Quartz Pressure
 GTTQ.degC              00 000 000 000:  GT Quartz Temperature
 GTTN.NONE              00 000 000 000:  GT Test Number
 GTET.sec               00 000 000 000:  GT Elapsed Test Time
 GTTVD.m                00 000 000 000:  GT True Vertical Depth
#Other Information
#
#WARRANTY: Halliburton will use its best efforts to furnish customers with 
#accurate information and interpretations that are part of, and incident to, the services 
#provided.  However, Halliburton cannot and does not warrant the accuracy 
#or correctness of such information and interpretations.  Under no circumstances should any 
#such information or interpretation be relied upon as the sole basis for any drilling, 
#completion, production, or financial decision or any procedure involving any risk to the 
#safety of any drilling venture, drilling rig or its crew or any other third party.  The 
#Customer has full responsibility for all drilling, completion and production operation.  
#Halliburton makes no representations or warranties, either expressed or 
#implied, including, but not limited to, the implied warranties of merchantability or fitness 
#for a particular purpose, with respect to the services rendered.  In no event will 
#Halliburton be liable for failure to obtain any particular results or for 
#any damages, including, but not limited to, indirect, special or consequential damages, 
#resulting from the use of any information or interpretation provided by Halliburton.
#
~A           TIME           GTDEPTH  GTPQH  GTTQ  GTTN  GTET   GTTVD  
# ...
   13:19:49.990.03-May-2020 4532.80 5718.32 79.82 1.00 368.58 2465.99
   13:19:50.190.03-May-2020 4532.80 5718.32 79.82 1.00 368.78 2465.99
   13:19:50.391.03-May-2020 4532.80 5709.77 79.82 1.00 368.98 2465.99
   13:19:50.591.03-May-2020 4532.80 5716.82 79.82 1.00 369.18 2465.99
   13:19:50.791.03-May-2020 4532.80 5709.38 79.82 1.00 369.38 2465.99
   13:19:50.992.03-May-2020 4532.80 5711.17 79.82 1.00 369.58 2465.99
   13:19:51.192.03-May-2020 4532.80 5711.17 79.82 1.00 369.78 2465.99
   13:19:51.392.03-May-2020 4532.80 5711.48 79.82 1.00 369.98 2465.99
   13:19:51.593.03-May-2020 4532.80 5711.75 79.82 1.00 370.18 2465.99
   13:19:51.793.03-May-2020 4532.80 5709.40 79.83 1.00 370.38 2465.99
   13:19:51.993.03-May-2020 4532.80 5711.56 79.83 1.00 370.58 2465.99
   13:19:52.194.03-May-2020 4532.80 5711.38 79.83 1.00 370.78 2465.99
   13:19:52.394.03-May-2020 4532.80 5710.83 79.83 1.00 370.98 2465.99
   13:19:52.594.03-May-2020 4532.80 5710.58 79.83 1.00 371.18 2465.99
   13:19:52.794.03-May-2020 4532.80 5711.30 79.83 1.00 371.38 2465.99
   13:19:52.995.03-May-2020 4532.80 5710.90 79.83 1.00 371.58 2465.99
   13:19:53.195.03-May-2020 4532.80 5710.90 79.83 1.00 371.78 2465.99
   13:19:53.395.03-May-2020 4532.80 5719.08 79.83 1.00 371.98 2465.99
   13:19:53.596.03-May-2020 4532.80 5712.30 79.83 1.00 372.19 2465.99
   13:19:53.796.03-May-2020 4532.80 5713.59 79.83 1.00 372.39 2465.99
   13:19:53.996.03-May-2020 4532.80 5713.98 79.83 1.00 372.59 2465.99
   13:19:54.197.03-May-2020 4532.80 5713.98 79.83 1.00 372.79 2465.99
   13:19:54.397.03-May-2020 4532.80 5714.60 79.83 1.00 372.99 2465.99
   13:19:54.597.03-May-2020 4532.80 5713.96 79.83 1.00 373.19 2465.99
   13:19:54.798.03-May-2020 4532.80 5714.51 79.83 1.00 373.39 2465.99
   13:19:54.998.03-May-2020 4532.80 5714.56 79.83 1.00 373.59 2465.99
   13:19:55.198.03-May-2020 4532.80 5714.56 79.83 1.00 373.79 2465.99
   13:19:55.399.03-May-2020 4532.80 5713.27 79.83 1.00 373.99 2465.99
   13:19:55.599.03-May-2020 4532.80 5712.13 79.83 1.00 374.19 2465.99
   13:19:55.799.03-May-2020 4532.80 5712.03 79.83 1.00 374.39 2465.99
   13:19:56.000.03-May-2020 4532.80 5712.75 79.83 1.00 374.59 2465.99
   13:19:56.200.03-May-2020 4532.80 5712.75 79.83 1.00 374.79 2465.99
   13:19:56.400.03-May-2020 4532.80 5714.83 79.83 1.00 374.99 2465.99
   13:19:56.600.03-May-2020 4532.80 5718.84 79.82 1.00 375.19 2465.99
   13:19:56.801.03-May-2020 4532.80 5711.50 79.82 1.00 375.39 2465.99
   13:19:57.001.03-May-2020 4532.80 5713.21 79.82 1.00 375.59 2465.99
   13:19:57.201.03-May-2020 4532.80 5713.21 79.82 1.00 375.79 2465.99
   13:19:57.402.03-May-2020 4532.80 5715.21 79.82 1.00 375.99 2465.99
   13:19:57.602.03-May-2020 4532.80 5713.15 79.82 1.00 376.19 2465.99
   13:19:57.802.03-May-2020 4532.80 5712.13 79.82 1.00 376.39 2465.99
   13:19:58.003.03-May-2020 4532.80 5712.32 79.82 1.00 376.59 2465.99
   13:19:58.203.03-May-2020 4532.80 5712.32 79.82 1.00 376.79 2465.99
   13:19:58.403.03-May-2020 4532.80 5709.34 79.82 1.00 376.99 2465.99
   13:19:58.604.03-May-2020 4532.80 5710.15 79.82 1.00 377.19 2465.99
   13:19:58.804.03-May-2020 4532.80 5711.19 79.82 1.00 377.39 2465.99
   13:19:59.004.03-May-2020 4532.80 5711.33 79.82 1.00 377.59 2465.99
   13:19:59.205.03-May-2020 4532.80 5711.33 79.82 1.00 377.79 2465.99
   13:19:59.405.03-May-2020 4532.80 5715.38 79.82 1.00 377.99 2465.99
   13:19:59.605.03-May-2020 4532.80 5712.78 79.82 1.00 378.19 2465.99
   13:19:59.805.03-May-2020 4532.80 5711.10 79.82 1.00 378.39 2465.99
   13:20:00.006.03-May-2020 4532.80 5711.62 79.82 1.00 378.60 2465.99
   13:20:00.206.03-May-2020 4532.80 5712.41 79.82 1.00 378.80 2465.99
   13:20:00.406.03-May-2020 4532.80 5710.50 79.82 1.00 379.00 2465.99
   13:20:00.607.03-May-2020 4532.80 5711.24 79.82 1.00 379.20 2465.99
   13:20:00.807.03-May-2020 4532.80 5711.96 79.82 1.00 379.40 2465.99
   13:20:01.007.03-May-2020 4532.80 5713.09 79.81 1.00 379.60 2465.99
   13:20:01.208.03-May-2020 4532.80 5713.09 79.81 1.00 379.80 2465.99
   13:20:01.408.03-May-2020 4532.80 5712.52 79.81 1.00 380.00 2465.99
   13:20:01.608.03-May-2020 4532.80 5712.60 79.81 1.00 380.20 2465.99
   13:20:01.809.03-May-2020 4532.80 5712.94 79.81 1.00 380.40 2465.99
   13:20:02.009.03-May-2020 4532.80 5714.25 79.81 1.00 380.60 2465.99
   13:20:02.209.03-May-2020 4532.80 5714.25 79.81 1.00 380.80 2465.99
   13:20:02.410.03-May-2020 4532.80 5715.09 79.81 1.00 381.00 2465.99
   13:20:02.610.03-May-2020 4532.80 5713.15 79.81 1.00 381.20 2465.99
   13:20:02.810.03-May-2020 4532.80 5712.81 79.81 1.00 381.40 2465.99
   13:20:03.011.03-May-2020 4532.80 5713.59 79.81 1.00 381.60 2465.99
   13:20:03.211.03-May-2020 4532.80 5713.59 79.81 1.00 381.80 2465.99
   13:20:03.411.03-May-2020 4532.80 5711.32 79.81 1.00 382.00 2465.99
   13:20:03.611.03-May-2020 4532.80 5711.02 79.81 1.00 382.20 2465.99
   13:20:03.812.03-May-2020 4532.80 5711.82 79.81 1.00 382.40 2465.99
   13:20:04.012.03-May-2020 4532.80 5714.73 79.81 1.00 382.60 2465.99
   13:20:04.212.03-May-2020 4532.80 5713.52 79.81 1.00 382.80 2465.99
   13:20:04.413.03-May-2020 4532.80 5712.97 79.80 1.00 383.00 2465.99
   13:20:04.613.03-May-2020 4532.80 5712.83 79.80 1.00 383.20 2465.99
   13:20:04.813.03-May-2020 4532.80 5720.02 79.80 1.00 383.40 2465.99
   13:20:05.014.03-May-2020 4532.80 5713.56 79.80 1.00 383.60 2465.99
   13:20:05.214.03-May-2020 4532.80 5713.56 79.80 1.00 383.80 2465.99
   13:20:05.414.03-May-2020 4532.80 5717.00 79.80 1.00 384.00 2465.99
   13:20:05.615.03-May-2020 4532.80 5714.33 79.80 1.00 384.20 2465.99
   13:20:05.815.03-May-2020 4532.80 5713.17 79.80 1.00 384.40 2465.99
   13:20:06.015.03-May-2020 4532.80 5715.05 79.80 1.00 384.60 2465.99
   13:20:06.216.03-May-2020 4532.80 5715.05 79.80 1.00 384.81 2465.99
   13:20:06.416.03-May-2020 4532.80 5709.78 79.80 1.00 385.01 2465.99
   13:20:06.616.03-May-2020 4532.80 5710.23 79.80 1.00 385.21 2465.99
   13:20:06.817.03-May-2020 4532.80 5710.93 79.80 1.00 385.41 2465.99
   13:20:07.017.03-May-2020 4532.80 5713.81 79.80 1.00 385.61 2465.99
   13:20:07.217.03-May-2020 4532.80 5713.81 79.80 1.00 385.81 2465.99
   13:20:07.417.03-May-2020 4532.80 5710.56 79.80 1.00 386.01 2465.99
   13:20:07.618.03-May-2020 4532.80 5711.56 79.79 1.00 386.21 2465.99
   13:20:07.818.03-May-2020 4532.80 5712.71 79.79 1.00 386.41 2465.99
   13:20:08.018.03-May-2020 4532.80 5714.94 79.79 1.00 386.61 2465.99
   13:20:08.219.03-May-2020 4532.80 5713.94 79.79 1.00 386.81 2465.99
   13:20:08.419.03-May-2020 4532.80 5711.30 79.79 1.00 387.01 2465.99
   13:20:08.619.03-May-2020 4532.80 5712.23 79.79 1.00 387.21 2465.99
   13:20:08.820.03-May-2020 4532.80 5713.75 79.79 1.00 387.41 2465.99
   13:20:09.020.03-May-2020 4532.80 5712.17 79.79 1.00 387.61 2465.99
   13:20:09.220.03-May-2020 4532.80 5712.17 79.79 1.00 387.81 2465.99
   13:20:09.421.03-May-2020 4532.80 5711.32 79.79 1.00 388.01 2465.99
   13:20:09.621.03-May-2020 4532.80 5712.35 79.79 1.00 388.21 2465.99
   13:20:09.821.03-May-2020 4532.80 5713.06 79.79 1.00 388.41 2465.99
   13:20:10.022.03-May-2020 4532.80 5712.71 79.79 1.00 388.61 2465.99
   13:20:10.222.03-May-2020 4532.80 5712.71 79.79 1.00 388.81 2465.99
   13:20:10.422.03-May-2020 4532.80 5712.84 79.79 1.00 389.01 2465.99
   13:20:10.622.03-May-2020 4532.80 5713.84 79.78 1.00 389.21 2465.99
   13:20:10.823.03-May-2020 4532.80 5717.91 79.78 1.00 389.41 2465.99
   13:20:11.023.03-May-2020 4532.80 5715.77 79.78 1.00 389.61 2465.99
   13:20:11.223.03-May-2020 4532.80 5715.77 79.78 1.00 389.81 2465.99
   13:20:11.424.03-May-2020 4532.80 5712.81 79.78 1.00 390.01 2465.99
   13:20:11.624.03-May-2020 4532.80 5713.12 79.78 1.00 390.21 2465.99
   13:20:11.824.03-May-2020 4532.80 5712.36 79.78 1.00 390.41 2465.99
   13:20:12.025.03-May-2020 4532.80 5711.81 79.78 1.00 390.61 2465.99
   13:20:12.225.03-May-2020 4532.80 5711.20 79.78 1.00 390.81 2465.99
   13:20:12.425.03-May-2020 4532.80 5711.20 79.78 1.00 391.01 2465.99
   13:20:12.626.03-May-2020 4532.80 5711.78 79.78 1.00 391.22 2465.99
   13:20:12.826.03-May-2020 4532.80 5712.16 79.78 1.00 391.42 2465.99
