~Version Information
 VERS.                  2.0:   CWLS log ASCII Standard -VERSION 2.0
 WRAP.                   NO:   One line per depth step
~Well Information Block
#MNEM.UNIT     VALUE/NAME     DESCRIPTION
#---------     -----------    ---------------------------
 STRT.S             13:13:41 03-May-20: START TIME 13:13:41 03-May-20
 STOP.S             13:20:16 03-May-20: STOP TIME  13:20:16 03-May-20
 STEP.S                   0.00: STEP TIME
 NULL.                 -999.25: NULL VALUE
 DFWT.                        :  DIST FWL TEXT
 DFST.                        :  DIST FSL TEXT
 DMF .             Drill Floor:  DRILL MEAS FROM
 STIM.      03.00.00 25-Mar-20:  START TIME
 DATE.      00.00.00 19-May-20:  END TIME
 SPUD.               27-Aug-20:  SPUD DATE
 NREF.                    Grid:  NORTH REFERENCE
 HPTY.       Minimum Curvature:  HOLE POS TYPE
 DMOD.             Drill Model:  DRILL MOD DESC
 SVYD.                  Survey:  SURVEY DESC
 ILTD.               Lithology:  INTERP LTH DESC
 FTOP.          Formation Tops:  FORM TOPS DESC
 SON .        AZ-XX-0906252240:  JOB NUMBER
 RIG .             West Chirag:  RIG NAME
 PDAT.          Mean Sea Level:  PERMANENT DATUM
 FLD .                     ACG:  FIELD NAME
 CTRY.              Azerbaijan:  COUNTRY NAME
 WELL.                     J23:  WELL NAME
 SRVC.          Turan Drilling:  CONTRACTOR
 COMP.     BP Exploration (Caspian Sea) Ltd.:  COMPANY
 WTYP.                Deviated:  WELL TYPE
 MDS .        Operator Entered:  MAG DATA SOURCE
 UWI .                     N/A:  UNIQUE WELL IDENTIFIER
 API .                     N/A:  API NUMBER
 BASE.              Azerbaijan:  LOGGING EQUIPMENT BASE LOCATION
 REGN.                   EESSA:  REGION
 PROV.                    Baku:  PROVINCE
 STAT.                    Baku:  STATE NAME
 MWDS.                     N/A:  MWD SHOP
 JOBN.        AZ-XX-0906252240:  JOB TICKET NUMB
 DOE .                     N/A:  DOE NUMBER
 DCON.         Sperry Drilling:  DIRECTNL CONTR
 UNIT.                     N/A:  LOGGING EQUIPMENT ID
 CNTY.                        :  COUNTY
 LOC .                        :  LOCATION
 LMF .             Drill Floor:  LOG MEASURED FROM
 TVDS.m                  43.00:  TVDSS CORRECTN
 LATI.deg                40.13:  LATITUDE
 LONG.deg                51.22:  LONGITUDE
 WHNS.m                   9.43:  WELL HEAD N/S
 WHEW.m                  -8.91:  WELL HEAD E/W
 UTMX.m              519005.06:  UTM X
 UTMY.m             4443793.85:  UTM Y
 DFWL.m                   0.00:  DISTANCE FWL
 DFSL.m                   0.00:  DISTANCE FSL
 SDEP.m                 363.00:  START DEPTH
 TDD .m                5150.01:  TOTAL DEPTH (DRILLER)
 VSDR.deg               179.88:  VERT SEC DIRECT
 GVFD.g                   1.00:  GRAVITY FIELD
 MFLD.nT              50295.00:  MAGNETIC FIELD
 MDIP.deg                59.56:  MAGNETIC DIP
 MDEC.deg                 6.45:  MAGNETIC DECL
 GRDC.deg                 0.14:  GRID CORRECTION
 AZTC.deg                 6.31:  AZM TOTAL CORR
 EPD .m                   0.00:  ELEVATION
 EGL .m                   0.00:  GROUND ELEVATION
 WDMS.m                 169.80:  WD ELEV
 APD .m                  43.00:  DEPTH ABOVE PD
 DEP .m                 354.17:  DEPTH
 AGAP.m                  43.00:  AIR GAP
 VSEW.m                  -8.91:  VERT SEC E/W
 VSNS.m                   9.43:  VERT SEC N/S
 EKB .m                   0.00:  KB ELEVATION
 EDF .m                  43.00:  DF ELEVATION
 TDL .m                1351.00:  TOTAL DEPTH (LOGGER)
 VSC .                       0:  VS TO CLOSURE
 MAGU.                 1850802:  MAGUTM CHECKSUM
~Parameter Information Block
#MNEM.UNIT       Value        Description
#---------     -----------    ---------------------------
 AV  .mps                 1.00:  Ann Velocity 
 AVMX.mps                 2.40:  Max Ann Veloc 
 AZIF.deg               148.96:  Azm, Final 
 BHAT.        Rotary Steerable:  BHA Type 
 BROT.°/30m               0.04:  Build Rotating 
 BS  .in                 12.25:  Bit Size 
 BSZ .in                 12.25:  Bit Size 
 BTPL.psig              814.00:  Bit Press Loss 
 TCS .hr                106.00:  Time Ciculation Ended 
 CV  .mps                 2.47:  Crit Velocity 
 CVMX.mps                 2.64:  Max Crit Veloc 
 DD1 .          Rashad Habibov:  Direct Drillr 1 
 DD2 .         Rasim Ibrahimov:  Direct Drillr 2 
 DDSV.                 iCruise:  DD Service 
 DEFF.%                 100.00:  % Det Eff 
 DLRX.°/30m               0.70:  Dogleg Rot Max 
 DLSO.°/30m               3.00:  Dogleg Oriented 
 DLSX.°/30m               4.55:  Dogleg Str Max 
 DRET.      08.08.32 02-May-20:  Drill End Time 
 DRST.      08.08.32 28-Apr-20:  Drill Start Tim 
 DTIM.hr                 60.00:  Time Drilling 
 EDEP.m                4761.01:  End Depth 
 ENG1.           Eldar Hajiyev:  Engineer 1 
 ENG2.        Marcelo Sandoval:  Engineer 2 
 ETIM.      23.23.07 05-May-20:  End Time 
 FLOI.gpm              1200.00:  Flow In 
 FLON.gpm               900.00:  Flow In Min 
 FLOS.cptm                0.00:  Fluid Loss 
 FLOX.gpm              1200.00:  Flow In Max 
 HFLO.                      No:  High Flow 
 HPRE.                      No:  High Pressure 
 HTEM.                      No:  High Temp 
 HYDO.m                   1.80:  Hydro Offset 
 IFIN.deg                68.17:  Inc, Final 
 IMAX.deg                74.61:  Inc Max 
 IMIN.deg                68.15:  Inc Min 
 IMND.m                4317.87:  Inc Min Depth 
 IMXD.m                4714.01:  Inc Max Depth 
 LETM.      08.08.32 02-May-20:  Log End Time 
 LOST.hr                     2:  Lost Rig Time 
 LSTM.      08.08.32 28-Apr-20:  Log Start Time 
 MDCL.ppm             41000.00:  Mud Chlorides 
 MDES.     Inversion Oil/Synthetic:  Mud Desc 
 DFD .sg                  1.58:  Mud Density 
 MDMN.sg                  1.58:  Dens Mud Min 
 MDMX.sg                  1.58:  Dens Mud Max 
 MOIL.                      71:  Run Mud Oil % 
 MOWR.                   71:29:  Run Mud OWR 
 MSND.                     0.1:  Run Mud Sand % 
 MSOL.                      23:  Run Mud Solids% 
 DFV .spqt               82.00:  Mud Viscosity 
 MWOD.in                  8.00:  MWD Tool OD 
 MWSI.                     Yes:  Serv Intrp, MWD 
 OTIM.hr                125.00:  Time Operating 
 PMAX.psia             6129.00:  Press Op, Max 
 PV  .cP                 32.00:  Mud PV 
 RUN .                     800:  Run Number 
 ROPA.m/hr               30.00:  ROP Avg 
 ROPN.m/hr               10.00:  ROP Min 
 ROPX.m/hr               40.00:  ROP Max 
 RPMA.rpm               140.00:  RPM Surface Avg 
 RPMN.rpm                80.00:  RPM Surface Min 
 RPMX.rpm               140.00:  RPM Surface Max 
 RRUN.                    L503:  Rig Run Number 
 RTIM.hr                  2.00:  Time Reaming 
 SAZI.deg               184.23:  Azm, Start 
 SDEP.m                3410.01:  Start Depth 
 SIDD.                      No:  Serv Intrp, DD 
 SINC.deg                68.29:  Inc, Start 
 SPPA.psig             6000.00:  SPP Avg 
 SPPN.psig             4000.00:  SPP Min 
 SPPX.psig             6100.00:  SPP Max 
 STIM.      08.08.32 28-Apr-20:  Start Time 
 SVCS.                 DD, MWD:  Services 
 SVER.                    9.20:  Sperry Version 
 TDAT.m                1351.00:  Tot Depth Attmp 
 TDDF.                      No:  Trip for DD 
 TDLG.m                1351.00:  Tot Depth Loggd 
 TFF .                      No:  Trip for Fail 
 TQAA.f-kp               27.00:  Torque Abs Avg 
 TQAN.f-kp               20.00:  Torque Abs Min 
 TQAX.f-kp               30.00:  Torque Abs Max 
 TRRT.°/30m               0.60:  Turn Rotating 
 MRT .                    EWER:  Maximum Recorded Temperature 
 TTMX.degC               83.00:  Max Tool Temp 
 VS01.                90511138:  Virtual Str1 SN 
 VS02.                90524876:  Virtual Str2 SN 
 VS03.                90524872:  Virtual Str3 SN 
 VS04.                90502750:  Virtual Str4 SN 
 VS05.                12330984:  Virtual Str5 SN 
 WBMN.klb                 0.00:  WOB Min 
 WOBA.klb                15.00:  WOB Avg 
 WOBX.klb                20.00:  WOB Max 
 YP  .lhf2               31.00:  Yield Point 
~Curve Information Block
#MNEM.UNIT                 API CODE     Curve Description
#---------               -----------    ---------------------------
 TIME.HHMMSS            00 000 000 000:  GT Time & Date
 GTDEPTH.m              00 000 000 000:  GT Depth
 GTPQH.psia             00 000 000 000:  GT HR Quartz Pressure
 GTTQ.degC              00 000 000 000:  GT Quartz Temperature
 GTTN.NONE              00 000 000 000:  GT Test Number
 GTET.sec               00 000 000 000:  GT Elapsed Test Time
 GTTVD.m                00 000 000 000:  GT True Vertical Depth
#Other Information
#
#WARRANTY: Halliburton will use its best efforts to furnish customers with 
#accurate information and interpretations that are part of, and incident to, the services 
#provided.  However, Halliburton cannot and does not warrant the accuracy 
#or correctness of such information and interpretations.  Under no circumstances should any 
#such information or interpretation be relied upon as the sole basis for any drilling, 
#completion, production, or financial decision or any procedure involving any risk to the 
#safety of any drilling venture, drilling rig or its crew or any other third party.  The 
#Customer has full responsibility for all drilling, completion and production operation.  
#Halliburton makes no representations or warranties, either expressed or 
#implied, including, but not limited to, the implied warranties of merchantability or fitness 
#for a particular purpose, with respect to the services rendered.  In no event will 
#Halliburton be liable for failure to obtain any particular results or for 
#any damages, including, but not limited to, indirect, special or consequential damages, 
#resulting from the use of any information or interpretation provided by Halliburton.
#
~A           TIME           GTDEPTH  GTPQH  GTTQ  GTTN  GTET   GTTVD  
# ...
   13:15:59.628.03-May-2020 4532.80 4122.75 80.39 1.00 138.22 2465.99
   13:15:59.828.03-May-2020 4532.80 4123.51 80.38 1.00 138.42 2465.99
   13:16:00.028.03-May-2020 4532.80 4123.24 80.38 1.00 138.62 2465.99
   13:16:00.229.03-May-2020 4532.80 4122.85 80.38 1.00 138.82 2465.99
   13:16:00.429.03-May-2020 4532.80 4123.42 80.38 1.00 139.02 2465.99
   13:16:00.629.03-May-2020 4532.80 4123.31 80.38 1.00 139.22 2465.99
   13:16:00.830.03-May-2020 4532.80 4123.31 80.38 1.00 139.42 2465.99
   13:16:01.030.03-May-2020 4532.80 4122.46 80.38 1.00 139.62 2465.99
   13:16:01.230.03-May-2020 4532.80 4122.78 80.38 1.00 139.82 2465.99
   13:16:01.431.03-May-2020 4532.80 4122.81 80.38 1.00 140.02 2465.99
   13:16:01.631.03-May-2020 4532.80 4122.79 80.38 1.00 140.22 2465.99
   13:16:01.831.03-May-2020 4532.80 4122.79 80.38 1.00 140.42 2465.99
   13:16:02.032.03-May-2020 4532.80 4122.56 80.38 1.00 140.62 2465.99
   13:16:02.232.03-May-2020 4532.80 4122.69 80.38 1.00 140.82 2465.99
   13:16:02.432.03-May-2020 4532.80 4122.78 80.38 1.00 141.02 2465.99
   13:16:02.633.03-May-2020 4532.80 4122.60 80.38 1.00 141.22 2465.99
   13:16:02.833.03-May-2020 4532.80 4122.60 80.38 1.00 141.42 2465.99
   13:16:03.033.03-May-2020 4532.80 4122.59 80.38 1.00 141.62 2465.99
   13:16:03.234.03-May-2020 4532.80 4122.61 80.38 1.00 141.82 2465.99
   13:16:03.434.03-May-2020 4532.80 4122.59 80.38 1.00 142.02 2465.99
   13:16:03.634.03-May-2020 4532.80 4123.11 80.38 1.00 142.22 2465.99
   13:16:03.834.03-May-2020 4532.80 4123.60 80.38 1.00 142.42 2465.99
   13:16:04.035.03-May-2020 4532.80 4123.59 80.37 1.00 142.62 2465.99
   13:16:04.235.03-May-2020 4532.80 4123.26 80.37 1.00 142.82 2465.99
   13:16:04.435.03-May-2020 4532.80 4123.29 80.37 1.00 143.02 2465.99
   13:16:04.636.03-May-2020 4532.80 4122.91 80.37 1.00 143.23 2465.99
   13:16:04.836.03-May-2020 4532.80 4122.91 80.37 1.00 143.43 2465.99
   13:16:05.036.03-May-2020 4532.80 4122.92 80.37 1.00 143.63 2465.99
   13:16:05.237.03-May-2020 4532.80 4122.84 80.37 1.00 143.83 2465.99
   13:16:05.437.03-May-2020 4532.80 4122.76 80.37 1.00 144.03 2465.99
   13:16:05.637.03-May-2020 4532.80 4122.74 80.37 1.00 144.23 2465.99
   13:16:05.838.03-May-2020 4532.80 4122.74 80.37 1.00 144.43 2465.99
   13:16:06.038.03-May-2020 4532.80 4122.56 80.37 1.00 144.63 2465.99
   13:16:06.238.03-May-2020 4532.80 4122.98 80.37 1.00 144.83 2465.99
   13:16:06.439.03-May-2020 4532.80 4123.51 80.37 1.00 145.03 2465.99
   13:16:06.639.03-May-2020 4532.80 4123.70 80.37 1.00 145.23 2465.99
   13:16:06.839.03-May-2020 4532.80 4123.70 80.37 1.00 145.43 2465.99
   13:16:07.040.03-May-2020 4532.80 4124.37 80.37 1.00 145.63 2465.99
   13:16:07.240.03-May-2020 4532.80 4123.70 80.37 1.00 145.83 2465.99
   13:16:07.440.03-May-2020 4532.80 4123.49 80.37 1.00 146.03 2465.99
   13:16:07.640.03-May-2020 4532.80 4124.44 80.37 1.00 146.23 2465.99
   13:16:07.841.03-May-2020 4532.80 4123.91 80.37 1.00 146.43 2465.99
   13:16:08.041.03-May-2020 4532.80 4123.38 80.36 1.00 146.63 2465.99
   13:16:08.241.03-May-2020 4532.80 4124.43 80.36 1.00 146.83 2465.99
   13:16:08.442.03-May-2020 4532.80 4124.09 80.36 1.00 147.03 2465.99
   13:16:08.642.03-May-2020 4532.80 4123.61 80.36 1.00 147.23 2465.99
   13:16:08.842.03-May-2020 4532.80 4123.61 80.36 1.00 147.43 2465.99
   13:16:09.043.03-May-2020 4532.80 4124.10 80.36 1.00 147.63 2465.99
   13:16:09.243.03-May-2020 4532.80 4123.83 80.36 1.00 147.83 2465.99
   13:16:09.443.03-May-2020 4532.80 4123.44 80.36 1.00 148.03 2465.99
   13:16:09.644.03-May-2020 4532.80 4123.32 80.36 1.00 148.23 2465.99
   13:16:09.844.03-May-2020 4532.80 4123.32 80.36 1.00 148.43 2465.99
   13:16:10.044.03-May-2020 4532.80 4123.11 80.36 1.00 148.63 2465.99
   13:16:10.245.03-May-2020 4532.80 4123.11 80.36 1.00 148.83 2465.99
   13:16:10.445.03-May-2020 4532.80 4122.84 80.36 1.00 149.03 2465.99
   13:16:10.645.03-May-2020 4532.80 4122.93 80.36 1.00 149.23 2465.99
   13:16:10.845.03-May-2020 4532.80 4122.93 80.36 1.00 149.43 2465.99
   13:16:11.046.03-May-2020 4532.80 4122.87 80.36 1.00 149.64 2465.99
   13:16:11.246.03-May-2020 4532.80 4122.97 80.36 1.00 149.84 2465.99
   13:16:11.446.03-May-2020 4532.80 4123.22 80.36 1.00 150.04 2465.99
   13:16:11.647.03-May-2020 4532.80 4123.64 80.36 1.00 150.24 2465.99
   13:16:11.847.03-May-2020 4532.80 4123.67 80.36 1.00 150.44 2465.99
   13:16:12.047.03-May-2020 4532.80 4123.48 80.35 1.00 150.64 2465.99
   13:16:12.248.03-May-2020 4532.80 4123.59 80.35 1.00 150.84 2465.99
   13:16:12.448.03-May-2020 4532.80 4123.12 80.35 1.00 151.04 2465.99
   13:16:12.648.03-May-2020 4532.80 4123.01 80.35 1.00 151.24 2465.99
   13:16:12.849.03-May-2020 4532.80 4123.01 80.35 1.00 151.44 2465.99
   13:16:13.049.03-May-2020 4532.80 4122.97 80.35 1.00 151.64 2465.99
   13:16:13.249.03-May-2020 4532.80 4122.91 80.35 1.00 151.84 2465.99
   13:16:13.450.03-May-2020 4532.80 4122.86 80.35 1.00 152.04 2465.99
   13:16:13.650.03-May-2020 4532.80 4122.74 80.35 1.00 152.24 2465.99
   13:16:13.850.03-May-2020 4532.80 4122.74 80.35 1.00 152.44 2465.99
   13:16:14.051.03-May-2020 4532.80 4075.46 80.35 1.00 152.64 2465.99
   13:16:14.251.03-May-2020 4532.80 3747.33 80.35 1.00 152.84 2465.99
   13:16:14.451.03-May-2020 4532.80 3636.30 80.35 1.00 153.04 2465.99
   13:16:14.651.03-May-2020 4532.80 3579.22 80.35 1.00 153.24 2465.99
   13:16:14.852.03-May-2020 4532.80 3579.22 80.35 1.00 153.44 2465.99
   13:16:15.052.03-May-2020 4532.80 3540.13 80.35 1.00 153.64 2465.99
   13:16:15.252.03-May-2020 4532.80 3530.53 80.35 1.00 153.84 2465.99
   13:16:15.453.03-May-2020 4532.80 3521.41 80.35 1.00 154.04 2465.99
   13:16:15.653.03-May-2020 4532.80 3515.03 80.34 1.00 154.24 2465.99
   13:16:15.853.03-May-2020 4532.80 3515.03 80.34 1.00 154.44 2465.99
   13:16:16.054.03-May-2020 4532.80 3512.87 80.34 1.00 154.64 2465.99
   13:16:16.254.03-May-2020 4532.80 3510.97 80.34 1.00 154.84 2465.99
   13:16:16.454.03-May-2020 4532.80 3508.68 80.34 1.00 155.04 2465.99
   13:16:16.655.03-May-2020 4532.80 3505.56 80.34 1.00 155.24 2465.99
   13:16:16.855.03-May-2020 4532.80 3505.56 80.34 1.00 155.44 2465.99
   13:16:17.055.03-May-2020 4532.80 3506.58 80.34 1.00 155.64 2465.99
   13:16:17.256.03-May-2020 4532.80 3505.03 80.34 1.00 155.85 2465.99
   13:16:17.456.03-May-2020 4532.80 3500.82 80.34 1.00 156.05 2465.99
   13:16:17.656.03-May-2020 4532.80 3500.23 80.34 1.00 156.25 2465.99
   13:16:17.857.03-May-2020 4532.80 3500.23 80.34 1.00 156.45 2465.99
   13:16:18.057.03-May-2020 4532.80 3499.15 80.33 1.00 156.65 2465.99
   13:16:18.257.03-May-2020 4532.80 3498.55 80.33 1.00 156.85 2465.99
   13:16:18.457.03-May-2020 4532.80 3497.38 80.33 1.00 157.05 2465.99
   13:16:18.658.03-May-2020 4532.80 3496.58 80.33 1.00 157.25 2465.99
   13:16:18.858.03-May-2020 4532.80 3496.58 80.33 1.00 157.45 2465.99
   13:16:19.058.03-May-2020 4532.80 3496.17 80.33 1.00 157.65 2465.99
   13:16:19.259.03-May-2020 4532.80 3497.36 80.33 1.00 157.85 2465.99
   13:16:19.459.03-May-2020 4532.80 3490.51 80.33 1.00 158.05 2465.99
   13:16:19.659.03-May-2020 4532.80 3498.54 80.33 1.00 158.25 2465.99
   13:16:19.860.03-May-2020 4532.80 3499.07 80.33 1.00 158.45 2465.99
   13:16:20.060.03-May-2020 4532.80 3495.81 80.32 1.00 158.65 2465.99
   13:16:20.260.03-May-2020 4532.80 3493.84 80.32 1.00 158.85 2465.99
   13:16:20.461.03-May-2020 4532.80 3493.08 80.32 1.00 159.05 2465.99
   13:16:20.661.03-May-2020 4532.80 3495.09 80.32 1.00 159.25 2465.99
   13:16:20.861.03-May-2020 4532.80 3495.09 80.32 1.00 159.45 2465.99
   13:16:21.062.03-May-2020 4532.80 3492.00 80.32 1.00 159.65 2465.99
   13:16:21.262.03-May-2020 4532.80 3489.20 80.32 1.00 159.85 2465.99
   13:16:21.462.03-May-2020 4532.80 3486.73 80.32 1.00 160.05 2465.99
   13:16:21.662.03-May-2020 4532.80 3487.07 80.32 1.00 160.25 2465.99
   13:16:21.863.03-May-2020 4532.80 3487.07 80.32 1.00 160.45 2465.99
   13:16:22.063.03-May-2020 4532.80 3484.89 80.32 1.00 160.65 2465.99
   13:16:22.263.03-May-2020 4532.80 3489.15 80.32 1.00 160.85 2465.99
   13:16:22.464.03-May-2020 4532.80 3488.65 80.31 1.00 161.05 2465.99
