~Version Information
 VERS.                  2.0:   CWLS log ASCII Standard -VERSION 2.0
 WRAP.                   NO:   One line per depth step
~Well Information Block
#MNEM.UNIT     VALUE/NAME     DESCRIPTION
#---------     -----------    ---------------------------
 STRT.S             19:38:29 03-May-20: START TIME 19:38:29 03-May-20
 STOP.S             19:45:06 03-May-20: STOP TIME  19:45:06 03-May-20
 STEP.S                   0.00: STEP TIME
 NULL.                 -999.25: NULL VALUE
 DFWT.                        :  DIST FWL TEXT
 DFST.                        :  DIST FSL TEXT
 DMF .             Drill Floor:  DRILL MEAS FROM
 STIM.      03.00.00 25-Mar-20:  START TIME
 DATE.      00.00.00 19-May-20:  END TIME
 SPUD.               27-Aug-20:  SPUD DATE
 NREF.                    Grid:  NORTH REFERENCE
 HPTY.       Minimum Curvature:  HOLE POS TYPE
 DMOD.             Drill Model:  DRILL MOD DESC
 SVYD.                  Survey:  SURVEY DESC
 ILTD.               Lithology:  INTERP LTH DESC
 FTOP.          Formation Tops:  FORM TOPS DESC
 SON .        AZ-XX-0906252240:  JOB NUMBER
 RIG .             West Chirag:  RIG NAME
 PDAT.          Mean Sea Level:  PERMANENT DATUM
 FLD .                     ACG:  FIELD NAME
 CTRY.              Azerbaijan:  COUNTRY NAME
 WELL.                     J23:  WELL NAME
 SRVC.          Turan Drilling:  CONTRACTOR
 COMP.     BP Exploration (Caspian Sea) Ltd.:  COMPANY
 WTYP.                Deviated:  WELL TYPE
 MDS .        Operator Entered:  MAG DATA SOURCE
 UWI .                     N/A:  UNIQUE WELL IDENTIFIER
 API .                     N/A:  API NUMBER
 BASE.              Azerbaijan:  LOGGING EQUIPMENT BASE LOCATION
 REGN.                   EESSA:  REGION
 PROV.                    Baku:  PROVINCE
 STAT.                    Baku:  STATE NAME
 MWDS.                     N/A:  MWD SHOP
 JOBN.        AZ-XX-0906252240:  JOB TICKET NUMB
 DOE .                     N/A:  DOE NUMBER
 DCON.         Sperry Drilling:  DIRECTNL CONTR
 UNIT.                     N/A:  LOGGING EQUIPMENT ID
 CNTY.                        :  COUNTY
 LOC .                        :  LOCATION
 LMF .             Drill Floor:  LOG MEASURED FROM
 TVDS.m                  43.00:  TVDSS CORRECTN
 LATI.deg                40.13:  LATITUDE
 LONG.deg                51.22:  LONGITUDE
 WHNS.m                   9.43:  WELL HEAD N/S
 WHEW.m                  -8.91:  WELL HEAD E/W
 UTMX.m              519005.06:  UTM X
 UTMY.m             4443793.85:  UTM Y
 DFWL.m                   0.00:  DISTANCE FWL
 DFSL.m                   0.00:  DISTANCE FSL
 SDEP.m                 363.00:  START DEPTH
 TDD .m                5150.01:  TOTAL DEPTH (DRILLER)
 VSDR.deg               179.88:  VERT SEC DIRECT
 GVFD.g                   1.00:  GRAVITY FIELD
 MFLD.nT              50295.00:  MAGNETIC FIELD
 MDIP.deg                59.56:  MAGNETIC DIP
 MDEC.deg                 6.45:  MAGNETIC DECL
 GRDC.deg                 0.14:  GRID CORRECTION
 AZTC.deg                 6.31:  AZM TOTAL CORR
 EPD .m                   0.00:  ELEVATION
 EGL .m                   0.00:  GROUND ELEVATION
 WDMS.m                 169.80:  WD ELEV
 APD .m                  43.00:  DEPTH ABOVE PD
 DEP .m                 354.17:  DEPTH
 AGAP.m                  43.00:  AIR GAP
 VSEW.m                  -8.91:  VERT SEC E/W
 VSNS.m                   9.43:  VERT SEC N/S
 EKB .m                   0.00:  KB ELEVATION
 EDF .m                  43.00:  DF ELEVATION
 TDL .m                1351.00:  TOTAL DEPTH (LOGGER)
 VSC .                       0:  VS TO CLOSURE
 MAGU.                 1850802:  MAGUTM CHECKSUM
~Parameter Information Block
#MNEM.UNIT       Value        Description
#---------     -----------    ---------------------------
 AV  .mps                 1.00:  Ann Velocity 
 AVMX.mps                 2.40:  Max Ann Veloc 
 AZIF.deg               148.96:  Azm, Final 
 BHAT.        Rotary Steerable:  BHA Type 
 BROT.°/30m               0.04:  Build Rotating 
 BS  .in                 12.25:  Bit Size 
 BSZ .in                 12.25:  Bit Size 
 BTPL.psig              814.00:  Bit Press Loss 
 TCS .hr                106.00:  Time Ciculation Ended 
 CV  .mps                 2.47:  Crit Velocity 
 CVMX.mps                 2.64:  Max Crit Veloc 
 DD1 .          Rashad Habibov:  Direct Drillr 1 
 DD2 .         Rasim Ibrahimov:  Direct Drillr 2 
 DDSV.                 iCruise:  DD Service 
 DEFF.%                 100.00:  % Det Eff 
 DLRX.°/30m               0.70:  Dogleg Rot Max 
 DLSO.°/30m               3.00:  Dogleg Oriented 
 DLSX.°/30m               4.55:  Dogleg Str Max 
 DRET.      08.08.32 02-May-20:  Drill End Time 
 DRST.      08.08.32 28-Apr-20:  Drill Start Tim 
 DTIM.hr                 60.00:  Time Drilling 
 EDEP.m                4761.01:  End Depth 
 ENG1.           Eldar Hajiyev:  Engineer 1 
 ENG2.        Marcelo Sandoval:  Engineer 2 
 ETIM.      23.23.07 05-May-20:  End Time 
 FLOI.gpm              1200.00:  Flow In 
 FLON.gpm               900.00:  Flow In Min 
 FLOS.cptm                0.00:  Fluid Loss 
 FLOX.gpm              1200.00:  Flow In Max 
 HFLO.                      No:  High Flow 
 HPRE.                      No:  High Pressure 
 HTEM.                      No:  High Temp 
 HYDO.m                   1.80:  Hydro Offset 
 IFIN.deg                68.17:  Inc, Final 
 IMAX.deg                74.61:  Inc Max 
 IMIN.deg                68.15:  Inc Min 
 IMND.m                4317.87:  Inc Min Depth 
 IMXD.m                4714.01:  Inc Max Depth 
 LETM.      08.08.32 02-May-20:  Log End Time 
 LOST.hr                     2:  Lost Rig Time 
 LSTM.      08.08.32 28-Apr-20:  Log Start Time 
 MDCL.ppm             41000.00:  Mud Chlorides 
 MDES.     Inversion Oil/Synthetic:  Mud Desc 
 DFD .sg                  1.58:  Mud Density 
 MDMN.sg                  1.58:  Dens Mud Min 
 MDMX.sg                  1.58:  Dens Mud Max 
 MOIL.                      71:  Run Mud Oil % 
 MOWR.                   71:29:  Run Mud OWR 
 MSND.                     0.1:  Run Mud Sand % 
 MSOL.                      23:  Run Mud Solids% 
 DFV .spqt               82.00:  Mud Viscosity 
 MWOD.in                  8.00:  MWD Tool OD 
 MWSI.                     Yes:  Serv Intrp, MWD 
 OTIM.hr                125.00:  Time Operating 
 PMAX.psia             6129.00:  Press Op, Max 
 PV  .cP                 32.00:  Mud PV 
 RUN .                     800:  Run Number 
 ROPA.m/hr               30.00:  ROP Avg 
 ROPN.m/hr               10.00:  ROP Min 
 ROPX.m/hr               40.00:  ROP Max 
 RPMA.rpm               140.00:  RPM Surface Avg 
 RPMN.rpm                80.00:  RPM Surface Min 
 RPMX.rpm               140.00:  RPM Surface Max 
 RRUN.                    L503:  Rig Run Number 
 RTIM.hr                  2.00:  Time Reaming 
 SAZI.deg               184.23:  Azm, Start 
 SDEP.m                3410.01:  Start Depth 
 SIDD.                      No:  Serv Intrp, DD 
 SINC.deg                68.29:  Inc, Start 
 SPPA.psig             6000.00:  SPP Avg 
 SPPN.psig             4000.00:  SPP Min 
 SPPX.psig             6100.00:  SPP Max 
 STIM.      08.08.32 28-Apr-20:  Start Time 
 SVCS.                 DD, MWD:  Services 
 SVER.                    9.20:  Sperry Version 
 TDAT.m                1351.00:  Tot Depth Attmp 
 TDDF.                      No:  Trip for DD 
 TDLG.m                1351.00:  Tot Depth Loggd 
 TFF .                      No:  Trip for Fail 
 TQAA.f-kp               27.00:  Torque Abs Avg 
 TQAN.f-kp               20.00:  Torque Abs Min 
 TQAX.f-kp               30.00:  Torque Abs Max 
 TRRT.°/30m               0.60:  Turn Rotating 
 MRT .                    EWER:  Maximum Recorded Temperature 
 TTMX.degC               83.00:  Max Tool Temp 
 VS01.                90511138:  Virtual Str1 SN 
 VS02.                90524876:  Virtual Str2 SN 
 VS03.                90524872:  Virtual Str3 SN 
 VS04.                90502750:  Virtual Str4 SN 
 VS05.                12330984:  Virtual Str5 SN 
 WBMN.klb                 0.00:  WOB Min 
 WOBA.klb                15.00:  WOB Avg 
 WOBX.klb                20.00:  WOB Max 
 YP  .lhf2               31.00:  Yield Point 
~Curve Information Block
#MNEM.UNIT                 API CODE     Curve Description
#---------               -----------    ---------------------------
 TIME.HHMMSS            00 000 000 000:  GT Time & Date
 GTDEPTH.m              00 000 000 000:  GT Depth
 GTPQH.psia             00 000 000 000:  GT HR Quartz Pressure
 GTTQ.degC              00 000 000 000:  GT Quartz Temperature
 GTTN.NONE              00 000 000 000:  GT Test Number
 GTET.sec               00 000 000 000:  GT Elapsed Test Time
 GTTVD.m                00 000 000 000:  GT True Vertical Depth
#Other Information
#
#WARRANTY: Halliburton will use its best efforts to furnish customers with 
#accurate information and interpretations that are part of, and incident to, the services 
#provided.  However, Halliburton cannot and does not warrant the accuracy 
#or correctness of such information and interpretations.  Under no circumstances should any 
#such information or interpretation be relied upon as the sole basis for any drilling, 
#completion, production, or financial decision or any procedure involving any risk to the 
#safety of any drilling venture, drilling rig or its crew or any other third party.  The 
#Customer has full responsibility for all drilling, completion and production operation.  
#Halliburton makes no representations or warranties, either expressed or 
#implied, including, but not limited to, the implied warranties of merchantability or fitness 
#for a particular purpose, with respect to the services rendered.  In no event will 
#Halliburton be liable for failure to obtain any particular results or for 
#any damages, including, but not limited to, indirect, special or consequential damages, 
#resulting from the use of any information or interpretation provided by Halliburton.
#
~A           TIME           GTDEPTH  GTPQH  GTTQ  GTTN  GTET   GTTVD  
# ...
   19:42:19.511.03-May-2020 4608.48 4148.47 79.61 3.00 230.02 2489.14
   19:42:19.711.03-May-2020 4608.48 4148.32 79.61 3.00 230.22 2489.14
   19:42:19.911.03-May-2020 4608.48 4148.96 79.61 3.00 230.42 2489.14
   19:42:20.111.03-May-2020 4608.48 4148.65 79.61 3.00 230.62 2489.14
   19:42:20.311.03-May-2020 4608.48 4148.52 79.60 3.00 230.82 2489.14
   19:42:20.511.03-May-2020 4608.48 4148.22 79.60 3.00 231.02 2489.14
   19:42:20.711.03-May-2020 4608.48 4148.22 79.60 3.00 231.22 2489.14
   19:42:20.911.03-May-2020 4608.48 4148.80 79.60 3.00 231.42 2489.14
   19:42:21.111.03-May-2020 4608.48 4148.77 79.60 3.00 231.62 2489.14
   19:42:21.311.03-May-2020 4608.48 4148.63 79.60 3.00 231.82 2489.14
   19:42:21.511.03-May-2020 4608.48 4148.67 79.60 3.00 232.03 2489.14
   19:42:21.711.03-May-2020 4608.48 4148.67 79.60 3.00 232.23 2489.14
   19:42:21.911.03-May-2020 4608.48 4148.53 79.60 3.00 232.43 2489.14
   19:42:22.111.03-May-2020 4608.48 4148.65 79.60 3.00 232.63 2489.14
   19:42:22.311.03-May-2020 4608.48 4148.70 79.60 3.00 232.83 2489.14
   19:42:22.511.03-May-2020 4608.48 4148.65 79.60 3.00 233.03 2489.14
   19:42:22.711.03-May-2020 4608.48 4148.65 79.60 3.00 233.23 2489.14
   19:42:22.911.03-May-2020 4608.48 4148.58 79.59 3.00 233.43 2489.14
   19:42:23.111.03-May-2020 4608.48 4148.89 79.59 3.00 233.63 2489.14
   19:42:23.311.03-May-2020 4608.48 4148.77 79.59 3.00 233.83 2489.14
   19:42:23.511.03-May-2020 4608.48 4148.64 79.59 3.00 234.03 2489.14
   19:42:23.711.03-May-2020 4608.48 4148.64 79.59 3.00 234.23 2489.14
   19:42:23.911.03-May-2020 4608.48 4148.62 79.59 3.00 234.43 2489.14
   19:42:24.111.03-May-2020 4608.48 4148.74 79.59 3.00 234.63 2489.14
   19:42:24.311.03-May-2020 4608.48 4148.52 79.59 3.00 234.83 2489.14
   19:42:24.511.03-May-2020 4608.48 4148.65 79.59 3.00 235.03 2489.14
   19:42:24.711.03-May-2020 4608.48 4148.65 79.59 3.00 235.23 2489.14
   19:42:24.911.03-May-2020 4608.48 4148.60 79.59 3.00 235.43 2489.14
   19:42:25.111.03-May-2020 4608.48 4148.53 79.58 3.00 235.63 2489.14
   19:42:25.311.03-May-2020 4608.48 4148.61 79.58 3.00 235.83 2489.14
   19:42:25.511.03-May-2020 4608.48 4148.64 79.58 3.00 236.03 2489.14
   19:42:25.711.03-May-2020 4608.48 4148.64 79.58 3.00 236.23 2489.14
   19:42:25.911.03-May-2020 4608.48 4148.56 79.58 3.00 236.43 2489.14
   19:42:26.111.03-May-2020 4608.48 4148.54 79.58 3.00 236.63 2489.14
   19:42:26.311.03-May-2020 4608.48 4148.57 79.58 3.00 236.83 2489.14
   19:42:26.511.03-May-2020 4608.48 4148.57 79.58 3.00 237.03 2489.14
   19:42:26.711.03-May-2020 4608.48 4148.57 79.58 3.00 237.23 2489.14
   19:42:26.911.03-May-2020 4608.48 4148.43 79.58 3.00 237.43 2489.14
   19:42:27.111.03-May-2020 4608.48 4148.66 79.58 3.00 237.63 2489.14
   19:42:27.311.03-May-2020 4608.48 4148.45 79.58 3.00 237.83 2489.14
   19:42:27.511.03-May-2020 4608.48 4148.80 79.57 3.00 238.03 2489.14
   19:42:27.711.03-May-2020 4608.48 4148.63 79.57 3.00 238.23 2489.14
   19:42:27.911.03-May-2020 4608.48 4148.70 79.57 3.00 238.43 2489.14
   19:42:28.111.03-May-2020 4608.48 4148.48 79.57 3.00 238.63 2489.14
   19:42:28.311.03-May-2020 4608.48 4148.74 79.57 3.00 238.83 2489.14
   19:42:28.512.03-May-2020 4608.48 4148.70 79.57 3.00 239.03 2489.14
   19:42:28.712.03-May-2020 4608.48 4148.70 79.57 3.00 239.23 2489.14
   19:42:28.912.03-May-2020 4608.48 4148.24 79.57 3.00 239.43 2489.14
   19:42:29.112.03-May-2020 4608.48 4148.51 79.57 3.00 239.63 2489.14
   19:42:29.312.03-May-2020 4608.48 4148.74 79.57 3.00 239.83 2489.14
   19:42:29.512.03-May-2020 4608.48 4148.89 79.57 3.00 240.03 2489.14
   19:42:29.712.03-May-2020 4608.48 4148.89 79.57 3.00 240.23 2489.14
   19:42:29.912.03-May-2020 4608.48 4148.78 79.56 3.00 240.43 2489.14
   19:42:30.112.03-May-2020 4608.48 4148.62 79.56 3.00 240.63 2489.14
   19:42:30.312.03-May-2020 4608.48 4148.59 79.56 3.00 240.83 2489.14
   19:42:30.512.03-May-2020 4608.48 4148.62 79.56 3.00 241.03 2489.14
   19:42:30.712.03-May-2020 4608.48 4148.62 79.56 3.00 241.23 2489.14
   19:42:30.912.03-May-2020 4608.48 4148.70 79.56 3.00 241.43 2489.14
   19:42:31.112.03-May-2020 4608.48 4148.64 79.56 3.00 241.63 2489.14
   19:42:31.312.03-May-2020 4608.48 4148.58 79.56 3.00 241.83 2489.14
   19:42:31.512.03-May-2020 4608.48 4148.58 79.56 3.00 242.03 2489.14
   19:42:31.712.03-May-2020 4608.48 4148.61 79.56 3.00 242.23 2489.14
   19:42:31.912.03-May-2020 4608.48 4148.61 79.56 3.00 242.43 2489.14
   19:42:32.112.03-May-2020 4608.48 4148.61 79.56 3.00 242.63 2489.14
   19:42:32.312.03-May-2020 4608.48 4148.58 79.56 3.00 242.83 2489.14
   19:42:32.512.03-May-2020 4608.48 4148.36 79.55 3.00 243.03 2489.14
   19:42:32.712.03-May-2020 4608.48 4148.36 79.55 3.00 243.23 2489.14
   19:42:32.912.03-May-2020 4608.48 4148.78 79.55 3.00 243.43 2489.14
   19:42:33.112.03-May-2020 4608.48 4148.71 79.55 3.00 243.63 2489.14
   19:42:33.312.03-May-2020 4608.48 4148.66 79.55 3.00 243.83 2489.14
   19:42:33.512.03-May-2020 4608.48 4148.48 79.55 3.00 244.03 2489.14
   19:42:33.712.03-May-2020 4608.48 4148.48 79.55 3.00 244.23 2489.14
   19:42:33.912.03-May-2020 4608.48 4148.58 79.55 3.00 244.43 2489.14
   19:42:34.112.03-May-2020 4608.48 4148.66 79.55 3.00 244.63 2489.14
   19:42:34.312.03-May-2020 4608.48 4148.57 79.55 3.00 244.83 2489.14
   19:42:34.512.03-May-2020 4608.48 4148.55 79.55 3.00 245.03 2489.14
   19:42:34.712.03-May-2020 4608.48 4148.57 79.55 3.00 245.23 2489.14
   19:42:34.912.03-May-2020 4608.48 4148.55 79.54 3.00 245.43 2489.14
   19:42:35.112.03-May-2020 4608.48 4148.22 79.54 3.00 245.63 2489.14
   19:42:35.312.03-May-2020 4608.48 4148.83 79.54 3.00 245.83 2489.14
   19:42:35.512.03-May-2020 4608.48 4148.92 79.54 3.00 246.03 2489.14
   19:42:35.712.03-May-2020 4608.48 4148.50 79.54 3.00 246.23 2489.14
   19:42:35.912.03-May-2020 4608.48 4148.70 79.54 3.00 246.43 2489.14
   19:42:36.112.03-May-2020 4608.48 4148.58 79.54 3.00 246.63 2489.14
   19:42:36.312.03-May-2020 4608.48 4148.08 79.54 3.00 246.83 2489.14
   19:42:36.512.03-May-2020 4608.48 4148.77 79.54 3.00 247.03 2489.14
   19:42:36.712.03-May-2020 4608.48 4148.77 79.54 3.00 247.23 2489.14
   19:42:36.912.03-May-2020 4608.48 4148.77 79.54 3.00 247.43 2489.14
   19:42:37.112.03-May-2020 4608.48 4149.05 79.54 3.00 247.63 2489.14
   19:42:37.312.03-May-2020 4608.48 4148.23 79.53 3.00 247.83 2489.14
   19:42:37.512.03-May-2020 4608.48 4148.47 79.53 3.00 248.03 2489.14
   19:42:37.713.03-May-2020 4608.48 4148.47 79.53 3.00 248.23 2489.14
   19:42:37.913.03-May-2020 4608.48 4148.92 79.53 3.00 248.43 2489.14
   19:42:38.113.03-May-2020 4608.48 4148.47 79.53 3.00 248.63 2489.14
   19:42:38.313.03-May-2020 4608.48 4148.68 79.53 3.00 248.83 2489.14
   19:42:38.513.03-May-2020 4608.48 4148.67 79.53 3.00 249.03 2489.14
   19:42:38.713.03-May-2020 4608.48 4148.67 79.53 3.00 249.23 2489.14
   19:42:38.913.03-May-2020 4608.48 4148.58 79.53 3.00 249.43 2489.14
   19:42:39.113.03-May-2020 4608.48 4148.67 79.53 3.00 249.63 2489.14
   19:42:39.313.03-May-2020 4608.48 4148.68 79.53 3.00 249.83 2489.14
   19:42:39.513.03-May-2020 4608.48 4148.67 79.53 3.00 250.03 2489.14
   19:42:39.713.03-May-2020 4608.48 4148.67 79.52 3.00 250.23 2489.14
   19:42:39.913.03-May-2020 4608.48 4148.61 79.52 3.00 250.43 2489.14
   19:42:40.113.03-May-2020 4608.48 4148.59 79.52 3.00 250.63 2489.14
   19:42:40.313.03-May-2020 4608.48 4148.56 79.52 3.00 250.83 2489.14
   19:42:40.513.03-May-2020 4608.48 4148.61 79.52 3.00 251.03 2489.14
   19:42:40.713.03-May-2020 4608.48 4148.61 79.52 3.00 251.23 2489.14
   19:42:40.913.03-May-2020 4608.48 4148.22 79.52 3.00 251.43 2489.14
   19:42:41.113.03-May-2020 4608.48 4148.52 79.52 3.00 251.63 2489.14
   19:42:41.313.03-May-2020 4608.48 4148.64 79.52 3.00 251.83 2489.14
   19:42:41.513.03-May-2020 4608.48 4148.77 79.52 3.00 252.03 2489.14
   19:42:41.713.03-May-2020 4608.48 4148.77 79.52 3.00 252.23 2489.14
   19:42:41.913.03-May-2020 4608.48 4148.60 79.52 3.00 252.43 2489.14
   19:42:42.113.03-May-2020 4608.48 4148.54 79.51 3.00 252.63 2489.14
   19:42:42.313.03-May-2020 4608.48 4148.58 79.51 3.00 252.83 2489.14
