~Version Information
 VERS.                  2.0:   CWLS log ASCII Standard -VERSION 2.0
 WRAP.                   NO:   One line per depth step
~Well Information Block
#MNEM.UNIT     VALUE/NAME     DESCRIPTION
#---------     -----------    ---------------------------
 STRT.S             10:50:58 04-May-20: START TIME 10:50:58 04-May-20
 STOP.S             10:57:32 04-May-20: STOP TIME  10:57:32 04-May-20
 STEP.S                   0.00: STEP TIME
 NULL.                 -999.25: NULL VALUE
 DFWT.                        :  DIST FWL TEXT
 DFST.                        :  DIST FSL TEXT
 DMF .             Drill Floor:  DRILL MEAS FROM
 STIM.      03.00.00 25-Mar-20:  START TIME
 DATE.      00.00.00 19-May-20:  END TIME
 SPUD.               27-Aug-20:  SPUD DATE
 NREF.                    Grid:  NORTH REFERENCE
 HPTY.       Minimum Curvature:  HOLE POS TYPE
 DMOD.             Drill Model:  DRILL MOD DESC
 SVYD.                  Survey:  SURVEY DESC
 ILTD.               Lithology:  INTERP LTH DESC
 FTOP.          Formation Tops:  FORM TOPS DESC
 SON .        AZ-XX-0906252240:  JOB NUMBER
 RIG .             West Chirag:  RIG NAME
 PDAT.          Mean Sea Level:  PERMANENT DATUM
 FLD .                     ACG:  FIELD NAME
 CTRY.              Azerbaijan:  COUNTRY NAME
 WELL.                     J23:  WELL NAME
 SRVC.          Turan Drilling:  CONTRACTOR
 COMP.     BP Exploration (Caspian Sea) Ltd.:  COMPANY
 WTYP.                Deviated:  WELL TYPE
 MDS .        Operator Entered:  MAG DATA SOURCE
 UWI .                     N/A:  UNIQUE WELL IDENTIFIER
 API .                     N/A:  API NUMBER
 BASE.              Azerbaijan:  LOGGING EQUIPMENT BASE LOCATION
 REGN.                   EESSA:  REGION
 PROV.                    Baku:  PROVINCE
 STAT.                    Baku:  STATE NAME
 MWDS.                     N/A:  MWD SHOP
 JOBN.        AZ-XX-0906252240:  JOB TICKET NUMB
 DOE .                     N/A:  DOE NUMBER
 DCON.         Sperry Drilling:  DIRECTNL CONTR
 UNIT.                     N/A:  LOGGING EQUIPMENT ID
 CNTY.                        :  COUNTY
 LOC .                        :  LOCATION
 LMF .             Drill Floor:  LOG MEASURED FROM
 TVDS.m                  43.00:  TVDSS CORRECTN
 LATI.deg                40.13:  LATITUDE
 LONG.deg                51.22:  LONGITUDE
 WHNS.m                   9.43:  WELL HEAD N/S
 WHEW.m                  -8.91:  WELL HEAD E/W
 UTMX.m              519005.06:  UTM X
 UTMY.m             4443793.85:  UTM Y
 DFWL.m                   0.00:  DISTANCE FWL
 DFSL.m                   0.00:  DISTANCE FSL
 SDEP.m                 363.00:  START DEPTH
 TDD .m                5150.01:  TOTAL DEPTH (DRILLER)
 VSDR.deg               179.88:  VERT SEC DIRECT
 GVFD.g                   1.00:  GRAVITY FIELD
 MFLD.nT              50295.00:  MAGNETIC FIELD
 MDIP.deg                59.56:  MAGNETIC DIP
 MDEC.deg                 6.45:  MAGNETIC DECL
 GRDC.deg                 0.14:  GRID CORRECTION
 AZTC.deg                 6.31:  AZM TOTAL CORR
 EPD .m                   0.00:  ELEVATION
 EGL .m                   0.00:  GROUND ELEVATION
 WDMS.m                 169.80:  WD ELEV
 APD .m                  43.00:  DEPTH ABOVE PD
 DEP .m                 354.17:  DEPTH
 AGAP.m                  43.00:  AIR GAP
 VSEW.m                  -8.91:  VERT SEC E/W
 VSNS.m                   9.43:  VERT SEC N/S
 EKB .m                   0.00:  KB ELEVATION
 EDF .m                  43.00:  DF ELEVATION
 TDL .m                1351.00:  TOTAL DEPTH (LOGGER)
 VSC .                       0:  VS TO CLOSURE
 MAGU.                 1850802:  MAGUTM CHECKSUM
~Parameter Information Block
#MNEM.UNIT       Value        Description
#---------     -----------    ---------------------------
 AV  .mps                 1.00:  Ann Velocity 
 AVMX.mps                 2.40:  Max Ann Veloc 
 AZIF.deg               148.96:  Azm, Final 
 BHAT.        Rotary Steerable:  BHA Type 
 BROT.°/30m               0.04:  Build Rotating 
 BS  .in                 12.25:  Bit Size 
 BSZ .in                 12.25:  Bit Size 
 BTPL.psig              814.00:  Bit Press Loss 
 TCS .hr                106.00:  Time Ciculation Ended 
 CV  .mps                 2.47:  Crit Velocity 
 CVMX.mps                 2.64:  Max Crit Veloc 
 DD1 .          Rashad Habibov:  Direct Drillr 1 
 DD2 .         Rasim Ibrahimov:  Direct Drillr 2 
 DDSV.                 iCruise:  DD Service 
 DEFF.%                 100.00:  % Det Eff 
 DLRX.°/30m               0.70:  Dogleg Rot Max 
 DLSO.°/30m               3.00:  Dogleg Oriented 
 DLSX.°/30m               4.55:  Dogleg Str Max 
 DRET.      08.08.32 02-May-20:  Drill End Time 
 DRST.      08.08.32 28-Apr-20:  Drill Start Tim 
 DTIM.hr                 60.00:  Time Drilling 
 EDEP.m                4761.01:  End Depth 
 ENG1.           Eldar Hajiyev:  Engineer 1 
 ENG2.        Marcelo Sandoval:  Engineer 2 
 ETIM.      23.23.07 05-May-20:  End Time 
 FLOI.gpm              1200.00:  Flow In 
 FLON.gpm               900.00:  Flow In Min 
 FLOS.cptm                0.00:  Fluid Loss 
 FLOX.gpm              1200.00:  Flow In Max 
 HFLO.                      No:  High Flow 
 HPRE.                      No:  High Pressure 
 HTEM.                      No:  High Temp 
 HYDO.m                   1.80:  Hydro Offset 
 IFIN.deg                68.17:  Inc, Final 
 IMAX.deg                74.61:  Inc Max 
 IMIN.deg                68.15:  Inc Min 
 IMND.m                4317.87:  Inc Min Depth 
 IMXD.m                4714.01:  Inc Max Depth 
 LETM.      08.08.32 02-May-20:  Log End Time 
 LOST.hr                     2:  Lost Rig Time 
 LSTM.      08.08.32 28-Apr-20:  Log Start Time 
 MDCL.ppm             41000.00:  Mud Chlorides 
 MDES.     Inversion Oil/Synthetic:  Mud Desc 
 DFD .sg                  1.58:  Mud Density 
 MDMN.sg                  1.58:  Dens Mud Min 
 MDMX.sg                  1.58:  Dens Mud Max 
 MOIL.                      71:  Run Mud Oil % 
 MOWR.                   71:29:  Run Mud OWR 
 MSND.                     0.1:  Run Mud Sand % 
 MSOL.                      23:  Run Mud Solids% 
 DFV .spqt               82.00:  Mud Viscosity 
 MWOD.in                  8.00:  MWD Tool OD 
 MWSI.                     Yes:  Serv Intrp, MWD 
 OTIM.hr                125.00:  Time Operating 
 PMAX.psia             6129.00:  Press Op, Max 
 PV  .cP                 32.00:  Mud PV 
 RUN .                     800:  Run Number 
 ROPA.m/hr               30.00:  ROP Avg 
 ROPN.m/hr               10.00:  ROP Min 
 ROPX.m/hr               40.00:  ROP Max 
 RPMA.rpm               140.00:  RPM Surface Avg 
 RPMN.rpm                80.00:  RPM Surface Min 
 RPMX.rpm               140.00:  RPM Surface Max 
 RRUN.                    L503:  Rig Run Number 
 RTIM.hr                  2.00:  Time Reaming 
 SAZI.deg               184.23:  Azm, Start 
 SDEP.m                3410.01:  Start Depth 
 SIDD.                      No:  Serv Intrp, DD 
 SINC.deg                68.29:  Inc, Start 
 SPPA.psig             6000.00:  SPP Avg 
 SPPN.psig             4000.00:  SPP Min 
 SPPX.psig             6100.00:  SPP Max 
 STIM.      08.08.32 28-Apr-20:  Start Time 
 SVCS.                 DD, MWD:  Services 
 SVER.                    9.20:  Sperry Version 
 TDAT.m                1351.00:  Tot Depth Attmp 
 TDDF.                      No:  Trip for DD 
 TDLG.m                1351.00:  Tot Depth Loggd 
 TFF .                      No:  Trip for Fail 
 TQAA.f-kp               27.00:  Torque Abs Avg 
 TQAN.f-kp               20.00:  Torque Abs Min 
 TQAX.f-kp               30.00:  Torque Abs Max 
 TRRT.°/30m               0.60:  Turn Rotating 
 MRT .                    EWER:  Maximum Recorded Temperature 
 TTMX.degC               83.00:  Max Tool Temp 
 VS01.                90511138:  Virtual Str1 SN 
 VS02.                90524876:  Virtual Str2 SN 
 VS03.                90524872:  Virtual Str3 SN 
 VS04.                90502750:  Virtual Str4 SN 
 VS05.                12330984:  Virtual Str5 SN 
 WBMN.klb                 0.00:  WOB Min 
 WOBA.klb                15.00:  WOB Avg 
 WOBX.klb                20.00:  WOB Max 
 YP  .lhf2               31.00:  Yield Point 
~Curve Information Block
#MNEM.UNIT                 API CODE     Curve Description
#---------               -----------    ---------------------------
 TIME.HHMMSS            00 000 000 000:  GT Time & Date
 GTDEPTH.m              00 000 000 000:  GT Depth
 GTPQH.psia             00 000 000 000:  GT HR Quartz Pressure
 GTTQ.degC              00 000 000 000:  GT Quartz Temperature
 GTTN.NONE              00 000 000 000:  GT Test Number
 GTET.sec               00 000 000 000:  GT Elapsed Test Time
 GTTVD.m                00 000 000 000:  GT True Vertical Depth
#Other Information
#
#WARRANTY: Halliburton will use its best efforts to furnish customers with 
#accurate information and interpretations that are part of, and incident to, the services 
#provided.  However, Halliburton cannot and does not warrant the accuracy 
#or correctness of such information and interpretations.  Under no circumstances should any 
#such information or interpretation be relied upon as the sole basis for any drilling, 
#completion, production, or financial decision or any procedure involving any risk to the 
#safety of any drilling venture, drilling rig or its crew or any other third party.  The 
#Customer has full responsibility for all drilling, completion and production operation.  
#Halliburton makes no representations or warranties, either expressed or 
#implied, including, but not limited to, the implied warranties of merchantability or fitness 
#for a particular purpose, with respect to the services rendered.  In no event will 
#Halliburton be liable for failure to obtain any particular results or for 
#any damages, including, but not limited to, indirect, special or consequential damages, 
#resulting from the use of any information or interpretation provided by Halliburton.
#
~A           TIME           GTDEPTH  GTPQH  GTTQ  GTTN  GTET   GTTVD  
# ...
   10:55:34.290.04-May-2020 4718.46 4245.61 81.33 6.00 276.04 2519.85
   10:55:34.490.04-May-2020 4718.46 4245.61 81.33 6.00 276.24 2519.85
   10:55:34.690.04-May-2020 4718.46 4246.20 81.33 6.00 276.44 2519.85
   10:55:34.890.04-May-2020 4718.46 4246.66 81.33 6.00 276.64 2519.85
   10:55:35.090.04-May-2020 4718.46 4246.89 81.33 6.00 276.84 2519.85
   10:55:35.290.04-May-2020 4718.46 4246.94 81.32 6.00 277.04 2519.85
   10:55:35.490.04-May-2020 4718.46 4246.94 81.32 6.00 277.24 2519.85
   10:55:35.690.04-May-2020 4718.46 4247.10 81.32 6.00 277.44 2519.85
   10:55:35.890.04-May-2020 4718.46 4247.16 81.32 6.00 277.64 2519.85
   10:55:36.090.04-May-2020 4718.46 4247.78 81.32 6.00 277.84 2519.85
   10:55:36.290.04-May-2020 4718.46 4247.73 81.32 6.00 278.04 2519.85
   10:55:36.490.04-May-2020 4718.46 4247.73 81.32 6.00 278.24 2519.85
   10:55:36.690.04-May-2020 4718.46 4247.78 81.32 6.00 278.44 2519.85
   10:55:36.890.04-May-2020 4718.46 4247.50 81.32 6.00 278.64 2519.85
   10:55:37.090.04-May-2020 4718.46 4247.67 81.32 6.00 278.84 2519.85
   10:55:37.290.04-May-2020 4718.46 4248.04 81.32 6.00 279.04 2519.85
   10:55:37.490.04-May-2020 4718.46 4248.04 81.32 6.00 279.24 2519.85
   10:55:37.690.04-May-2020 4718.46 4248.16 81.32 6.00 279.44 2519.85
   10:55:37.890.04-May-2020 4718.46 4248.20 81.32 6.00 279.64 2519.85
   10:55:38.090.04-May-2020 4718.46 4248.27 81.32 6.00 279.84 2519.85
   10:55:38.291.04-May-2020 4718.46 4248.26 81.32 6.00 280.04 2519.85
   10:55:38.491.04-May-2020 4718.46 4248.26 81.32 6.00 280.24 2519.85
   10:55:38.691.04-May-2020 4718.46 4248.27 81.31 6.00 280.44 2519.85
   10:55:38.891.04-May-2020 4718.46 4248.42 81.31 6.00 280.64 2519.85
   10:55:39.091.04-May-2020 4718.46 4248.60 81.31 6.00 280.84 2519.85
   10:55:39.291.04-May-2020 4718.46 4248.66 81.31 6.00 281.04 2519.85
   10:55:39.491.04-May-2020 4718.46 4248.66 81.31 6.00 281.24 2519.85
   10:55:39.691.04-May-2020 4718.46 4248.75 81.31 6.00 281.44 2519.85
   10:55:39.891.04-May-2020 4718.46 4248.76 81.31 6.00 281.64 2519.85
   10:55:40.091.04-May-2020 4718.46 4249.23 81.31 6.00 281.84 2519.85
   10:55:40.291.04-May-2020 4718.46 4248.87 81.31 6.00 282.04 2519.85
   10:55:40.491.04-May-2020 4718.46 4248.87 81.31 6.00 282.24 2519.85
   10:55:40.691.04-May-2020 4718.46 4249.41 81.31 6.00 282.44 2519.85
   10:55:40.891.04-May-2020 4718.46 4249.26 81.31 6.00 282.64 2519.85
   10:55:41.091.04-May-2020 4718.46 4249.38 81.31 6.00 282.84 2519.85
   10:55:41.291.04-May-2020 4718.46 4249.32 81.31 6.00 283.04 2519.85
   10:55:41.491.04-May-2020 4718.46 4249.32 81.31 6.00 283.24 2519.85
   10:55:41.691.04-May-2020 4718.46 4249.33 81.30 6.00 283.44 2519.85
   10:55:41.891.04-May-2020 4718.46 4249.30 81.30 6.00 283.64 2519.85
   10:55:42.091.04-May-2020 4718.46 4249.24 81.30 6.00 283.84 2519.85
   10:55:42.291.04-May-2020 4718.46 4249.20 81.30 6.00 284.04 2519.85
   10:55:42.491.04-May-2020 4718.46 4249.20 81.30 6.00 284.24 2519.85
   10:55:42.691.04-May-2020 4718.46 4249.61 81.30 6.00 284.44 2519.85
   10:55:42.891.04-May-2020 4718.46 4249.12 81.30 6.00 284.64 2519.85
   10:55:43.091.04-May-2020 4718.46 4249.29 81.30 6.00 284.84 2519.85
   10:55:43.291.04-May-2020 4718.46 4249.58 81.30 6.00 285.04 2519.85
   10:55:43.491.04-May-2020 4718.46 4249.58 81.30 6.00 285.24 2519.85
   10:55:43.691.04-May-2020 4718.46 4249.82 81.30 6.00 285.44 2519.85
   10:55:43.891.04-May-2020 4718.46 4249.52 81.30 6.00 285.64 2519.85
   10:55:44.091.04-May-2020 4718.46 4250.01 81.30 6.00 285.84 2519.85
   10:55:44.291.04-May-2020 4718.46 4249.57 81.29 6.00 286.04 2519.85
   10:55:44.491.04-May-2020 4718.46 4249.57 81.29 6.00 286.24 2519.85
   10:55:44.691.04-May-2020 4718.46 4249.60 81.29 6.00 286.44 2519.85
   10:55:44.892.04-May-2020 4718.46 4249.87 81.29 6.00 286.64 2519.85
   10:55:45.092.04-May-2020 4718.46 4249.79 81.29 6.00 286.84 2519.85
   10:55:45.292.04-May-2020 4718.46 4249.62 81.29 6.00 287.04 2519.85
   10:55:45.492.04-May-2020 4718.46 4249.62 81.29 6.00 287.24 2519.85
   10:55:45.692.04-May-2020 4718.46 4249.62 81.29 6.00 287.44 2519.85
   10:55:45.892.04-May-2020 4718.46 4250.05 81.29 6.00 287.64 2519.85
   10:55:46.092.04-May-2020 4718.46 4250.01 81.29 6.00 287.84 2519.85
   10:55:46.292.04-May-2020 4718.46 4249.66 81.29 6.00 288.04 2519.85
   10:55:46.492.04-May-2020 4718.46 4249.66 81.29 6.00 288.24 2519.85
   10:55:46.692.04-May-2020 4718.46 4249.93 81.28 6.00 288.44 2519.85
   10:55:46.892.04-May-2020 4718.46 4249.71 81.28 6.00 288.64 2519.85
   10:55:47.092.04-May-2020 4718.46 4249.75 81.28 6.00 288.84 2519.85
   10:55:47.292.04-May-2020 4718.46 4249.81 81.28 6.00 289.04 2519.85
   10:55:47.492.04-May-2020 4718.46 4249.81 81.28 6.00 289.24 2519.85
   10:55:47.692.04-May-2020 4718.46 4249.90 81.28 6.00 289.44 2519.85
   10:55:47.892.04-May-2020 4718.46 4249.78 81.28 6.00 289.64 2519.85
   10:55:48.092.04-May-2020 4718.46 4249.89 81.28 6.00 289.84 2519.85
   10:55:48.292.04-May-2020 4718.46 4250.01 81.28 6.00 290.04 2519.85
   10:55:48.492.04-May-2020 4718.46 4250.01 81.28 6.00 290.24 2519.85
   10:55:48.692.04-May-2020 4718.46 4250.28 81.28 6.00 290.44 2519.85
   10:55:48.892.04-May-2020 4718.46 4250.04 81.28 6.00 290.65 2519.85
   10:55:49.092.04-May-2020 4718.46 4250.20 81.27 6.00 290.85 2519.85
   10:55:49.292.04-May-2020 4718.46 4250.29 81.27 6.00 291.05 2519.85
   10:55:49.492.04-May-2020 4718.46 4250.29 81.27 6.00 291.25 2519.85
   10:55:49.692.04-May-2020 4718.46 4250.16 81.27 6.00 291.45 2519.85
   10:55:49.892.04-May-2020 4718.46 4250.05 81.27 6.00 291.65 2519.85
   10:55:50.092.04-May-2020 4718.46 4250.07 81.27 6.00 291.85 2519.85
   10:55:50.292.04-May-2020 4718.46 4250.07 81.27 6.00 292.05 2519.85
   10:55:50.492.04-May-2020 4718.46 4250.07 81.27 6.00 292.25 2519.85
   10:55:50.692.04-May-2020 4718.46 4249.90 81.27 6.00 292.45 2519.85
   10:55:50.892.04-May-2020 4718.46 4249.98 81.27 6.00 292.65 2519.85
   10:55:51.092.04-May-2020 4718.46 4249.99 81.27 6.00 292.85 2519.85
   10:55:51.293.04-May-2020 4718.46 4250.22 81.27 6.00 293.05 2519.85
   10:55:51.493.04-May-2020 4718.46 4250.22 81.27 6.00 293.25 2519.85
   10:55:51.693.04-May-2020 4718.46 4250.30 81.26 6.00 293.45 2519.85
   10:55:51.893.04-May-2020 4718.46 4250.23 81.26 6.00 293.65 2519.85
   10:55:52.093.04-May-2020 4718.46 4250.25 81.26 6.00 293.85 2519.85
   10:55:52.293.04-May-2020 4718.46 4250.12 81.26 6.00 294.05 2519.85
   10:55:52.493.04-May-2020 4718.46 4250.12 81.26 6.00 294.25 2519.85
   10:55:52.693.04-May-2020 4718.46 4250.40 81.26 6.00 294.45 2519.85
   10:55:52.893.04-May-2020 4718.46 4250.33 81.26 6.00 294.65 2519.85
   10:55:53.093.04-May-2020 4718.46 4250.14 81.26 6.00 294.85 2519.85
   10:55:53.293.04-May-2020 4718.46 4250.53 81.26 6.00 295.05 2519.85
   10:55:53.493.04-May-2020 4718.46 4250.53 81.26 6.00 295.25 2519.85
   10:55:53.693.04-May-2020 4718.46 4249.92 81.26 6.00 295.45 2519.85
   10:55:53.893.04-May-2020 4718.46 4250.18 81.26 6.00 295.65 2519.85
   10:55:54.093.04-May-2020 4718.46 4250.38 81.25 6.00 295.85 2519.85
   10:55:54.293.04-May-2020 4718.46 4250.24 81.25 6.00 296.05 2519.85
   10:55:54.493.04-May-2020 4718.46 4250.24 81.25 6.00 296.25 2519.85
   10:55:54.693.04-May-2020 4718.46 4250.05 81.25 6.00 296.45 2519.85
   10:55:54.893.04-May-2020 4718.46 4250.12 81.25 6.00 296.65 2519.85
   10:55:55.093.04-May-2020 4718.46 4250.34 81.25 6.00 296.85 2519.85
   10:55:55.293.04-May-2020 4718.46 4250.10 81.25 6.00 297.05 2519.85
   10:55:55.493.04-May-2020 4718.46 4250.10 81.25 6.00 297.25 2519.85
   10:55:55.693.04-May-2020 4718.46 4250.20 81.25 6.00 297.45 2519.85
   10:55:55.893.04-May-2020 4718.46 4250.37 81.25 6.00 297.65 2519.85
   10:55:56.093.04-May-2020 4718.46 4250.36 81.25 6.00 297.85 2519.85
   10:55:56.293.04-May-2020 4718.46 4250.20 81.25 6.00 298.05 2519.85
   10:55:56.493.04-May-2020 4718.46 4250.20 81.25 6.00 298.25 2519.85
   10:55:56.693.04-May-2020 4718.46 4250.34 81.24 6.00 298.45 2519.85
   10:55:56.893.04-May-2020 4718.46 4250.19 81.24 6.00 298.65 2519.85
   10:55:57.093.04-May-2020 4718.46 4250.87 81.24 6.00 298.85 2519.85
