~Version Information
 VERS.                  2.0:   CWLS log ASCII Standard -VERSION 2.0
 WRAP.                   NO:   One line per depth step
~Well Information Block
#MNEM.UNIT     VALUE/NAME     DESCRIPTION
#---------     -----------    ---------------------------
 STRT.S             15:01:40 03-May-20: START TIME 15:01:40 03-May-20
 STOP.S             15:08:15 03-May-20: STOP TIME  15:08:15 03-May-20
 STEP.S                   0.00: STEP TIME
 NULL.                 -999.25: NULL VALUE
 DFWT.                        :  DIST FWL TEXT
 DFST.                        :  DIST FSL TEXT
 DMF .             Drill Floor:  DRILL MEAS FROM
 STIM.      03.00.00 25-Mar-20:  START TIME
 DATE.      00.00.00 19-May-20:  END TIME
 SPUD.               27-Aug-20:  SPUD DATE
 NREF.                    Grid:  NORTH REFERENCE
 HPTY.       Minimum Curvature:  HOLE POS TYPE
 DMOD.             Drill Model:  DRILL MOD DESC
 SVYD.                  Survey:  SURVEY DESC
 ILTD.               Lithology:  INTERP LTH DESC
 FTOP.          Formation Tops:  FORM TOPS DESC
 SON .        AZ-XX-0906252240:  JOB NUMBER
 RIG .             West Chirag:  RIG NAME
 PDAT.          Mean Sea Level:  PERMANENT DATUM
 FLD .                     ACG:  FIELD NAME
 CTRY.              Azerbaijan:  COUNTRY NAME
 WELL.                     J23:  WELL NAME
 SRVC.          Turan Drilling:  CONTRACTOR
 COMP.     BP Exploration (Caspian Sea) Ltd.:  COMPANY
 WTYP.                Deviated:  WELL TYPE
 MDS .        Operator Entered:  MAG DATA SOURCE
 UWI .                     N/A:  UNIQUE WELL IDENTIFIER
 API .                     N/A:  API NUMBER
 BASE.              Azerbaijan:  LOGGING EQUIPMENT BASE LOCATION
 REGN.                   EESSA:  REGION
 PROV.                    Baku:  PROVINCE
 STAT.                    Baku:  STATE NAME
 MWDS.                     N/A:  MWD SHOP
 JOBN.        AZ-XX-0906252240:  JOB TICKET NUMB
 DOE .                     N/A:  DOE NUMBER
 DCON.         Sperry Drilling:  DIRECTNL CONTR
 UNIT.                     N/A:  LOGGING EQUIPMENT ID
 CNTY.                        :  COUNTY
 LOC .                        :  LOCATION
 LMF .             Drill Floor:  LOG MEASURED FROM
 TVDS.m                  43.00:  TVDSS CORRECTN
 LATI.deg                40.13:  LATITUDE
 LONG.deg                51.22:  LONGITUDE
 WHNS.m                   9.43:  WELL HEAD N/S
 WHEW.m                  -8.91:  WELL HEAD E/W
 UTMX.m              519005.06:  UTM X
 UTMY.m             4443793.85:  UTM Y
 DFWL.m                   0.00:  DISTANCE FWL
 DFSL.m                   0.00:  DISTANCE FSL
 SDEP.m                 363.00:  START DEPTH
 TDD .m                5150.01:  TOTAL DEPTH (DRILLER)
 VSDR.deg               179.88:  VERT SEC DIRECT
 GVFD.g                   1.00:  GRAVITY FIELD
 MFLD.nT              50295.00:  MAGNETIC FIELD
 MDIP.deg                59.56:  MAGNETIC DIP
 MDEC.deg                 6.45:  MAGNETIC DECL
 GRDC.deg                 0.14:  GRID CORRECTION
 AZTC.deg                 6.31:  AZM TOTAL CORR
 EPD .m                   0.00:  ELEVATION
 EGL .m                   0.00:  GROUND ELEVATION
 WDMS.m                 169.80:  WD ELEV
 APD .m                  43.00:  DEPTH ABOVE PD
 DEP .m                 354.17:  DEPTH
 AGAP.m                  43.00:  AIR GAP
 VSEW.m                  -8.91:  VERT SEC E/W
 VSNS.m                   9.43:  VERT SEC N/S
 EKB .m                   0.00:  KB ELEVATION
 EDF .m                  43.00:  DF ELEVATION
 TDL .m                1351.00:  TOTAL DEPTH (LOGGER)
 VSC .                       0:  VS TO CLOSURE
 MAGU.                 1850802:  MAGUTM CHECKSUM
~Parameter Information Block
#MNEM.UNIT       Value        Description
#---------     -----------    ---------------------------
 AV  .mps                 1.00:  Ann Velocity 
 AVMX.mps                 2.40:  Max Ann Veloc 
 AZIF.deg               148.96:  Azm, Final 
 BHAT.        Rotary Steerable:  BHA Type 
 BROT.°/30m               0.04:  Build Rotating 
 BS  .in                 12.25:  Bit Size 
 BSZ .in                 12.25:  Bit Size 
 BTPL.psig              814.00:  Bit Press Loss 
 TCS .hr                106.00:  Time Ciculation Ended 
 CV  .mps                 2.47:  Crit Velocity 
 CVMX.mps                 2.64:  Max Crit Veloc 
 DD1 .          Rashad Habibov:  Direct Drillr 1 
 DD2 .         Rasim Ibrahimov:  Direct Drillr 2 
 DDSV.                 iCruise:  DD Service 
 DEFF.%                 100.00:  % Det Eff 
 DLRX.°/30m               0.70:  Dogleg Rot Max 
 DLSO.°/30m               3.00:  Dogleg Oriented 
 DLSX.°/30m               4.55:  Dogleg Str Max 
 DRET.      08.08.32 02-May-20:  Drill End Time 
 DRST.      08.08.32 28-Apr-20:  Drill Start Tim 
 DTIM.hr                 60.00:  Time Drilling 
 EDEP.m                4761.01:  End Depth 
 ENG1.           Eldar Hajiyev:  Engineer 1 
 ENG2.        Marcelo Sandoval:  Engineer 2 
 ETIM.      23.23.07 05-May-20:  End Time 
 FLOI.gpm              1200.00:  Flow In 
 FLON.gpm               900.00:  Flow In Min 
 FLOS.cptm                0.00:  Fluid Loss 
 FLOX.gpm              1200.00:  Flow In Max 
 HFLO.                      No:  High Flow 
 HPRE.                      No:  High Pressure 
 HTEM.                      No:  High Temp 
 HYDO.m                   1.80:  Hydro Offset 
 IFIN.deg                68.17:  Inc, Final 
 IMAX.deg                74.61:  Inc Max 
 IMIN.deg                68.15:  Inc Min 
 IMND.m                4317.87:  Inc Min Depth 
 IMXD.m                4714.01:  Inc Max Depth 
 LETM.      08.08.32 02-May-20:  Log End Time 
 LOST.hr                     2:  Lost Rig Time 
 LSTM.      08.08.32 28-Apr-20:  Log Start Time 
 MDCL.ppm             41000.00:  Mud Chlorides 
 MDES.     Inversion Oil/Synthetic:  Mud Desc 
 DFD .sg                  1.58:  Mud Density 
 MDMN.sg                  1.58:  Dens Mud Min 
 MDMX.sg                  1.58:  Dens Mud Max 
 MOIL.                      71:  Run Mud Oil % 
 MOWR.                   71:29:  Run Mud OWR 
 MSND.                     0.1:  Run Mud Sand % 
 MSOL.                      23:  Run Mud Solids% 
 DFV .spqt               82.00:  Mud Viscosity 
 MWOD.in                  8.00:  MWD Tool OD 
 MWSI.                     Yes:  Serv Intrp, MWD 
 OTIM.hr                125.00:  Time Operating 
 PMAX.psia             6129.00:  Press Op, Max 
 PV  .cP                 32.00:  Mud PV 
 RUN .                     800:  Run Number 
 ROPA.m/hr               30.00:  ROP Avg 
 ROPN.m/hr               10.00:  ROP Min 
 ROPX.m/hr               40.00:  ROP Max 
 RPMA.rpm               140.00:  RPM Surface Avg 
 RPMN.rpm                80.00:  RPM Surface Min 
 RPMX.rpm               140.00:  RPM Surface Max 
 RRUN.                    L503:  Rig Run Number 
 RTIM.hr                  2.00:  Time Reaming 
 SAZI.deg               184.23:  Azm, Start 
 SDEP.m                3410.01:  Start Depth 
 SIDD.                      No:  Serv Intrp, DD 
 SINC.deg                68.29:  Inc, Start 
 SPPA.psig             6000.00:  SPP Avg 
 SPPN.psig             4000.00:  SPP Min 
 SPPX.psig             6100.00:  SPP Max 
 STIM.      08.08.32 28-Apr-20:  Start Time 
 SVCS.                 DD, MWD:  Services 
 SVER.                    9.20:  Sperry Version 
 TDAT.m                1351.00:  Tot Depth Attmp 
 TDDF.                      No:  Trip for DD 
 TDLG.m                1351.00:  Tot Depth Loggd 
 TFF .                      No:  Trip for Fail 
 TQAA.f-kp               27.00:  Torque Abs Avg 
 TQAN.f-kp               20.00:  Torque Abs Min 
 TQAX.f-kp               30.00:  Torque Abs Max 
 TRRT.°/30m               0.60:  Turn Rotating 
 MRT .                    EWER:  Maximum Recorded Temperature 
 TTMX.degC               83.00:  Max Tool Temp 
 VS01.                90511138:  Virtual Str1 SN 
 VS02.                90524876:  Virtual Str2 SN 
 VS03.                90524872:  Virtual Str3 SN 
 VS04.                90502750:  Virtual Str4 SN 
 VS05.                12330984:  Virtual Str5 SN 
 WBMN.klb                 0.00:  WOB Min 
 WOBA.klb                15.00:  WOB Avg 
 WOBX.klb                20.00:  WOB Max 
 YP  .lhf2               31.00:  Yield Point 
~Curve Information Block
#MNEM.UNIT                 API CODE     Curve Description
#---------               -----------    ---------------------------
 TIME.HHMMSS            00 000 000 000:  GT Time & Date
 GTDEPTH.m              00 000 000 000:  GT Depth
 GTPQH.psia             00 000 000 000:  GT HR Quartz Pressure
 GTTQ.degC              00 000 000 000:  GT Quartz Temperature
 GTTN.NONE              00 000 000 000:  GT Test Number
 GTET.sec               00 000 000 000:  GT Elapsed Test Time
 GTTVD.m                00 000 000 000:  GT True Vertical Depth
#Other Information
#
#WARRANTY: Halliburton will use its best efforts to furnish customers with 
#accurate information and interpretations that are part of, and incident to, the services 
#provided.  However, Halliburton cannot and does not warrant the accuracy 
#or correctness of such information and interpretations.  Under no circumstances should any 
#such information or interpretation be relied upon as the sole basis for any drilling, 
#completion, production, or financial decision or any procedure involving any risk to the 
#safety of any drilling venture, drilling rig or its crew or any other third party.  The 
#Customer has full responsibility for all drilling, completion and production operation.  
#Halliburton makes no representations or warranties, either expressed or 
#implied, including, but not limited to, the implied warranties of merchantability or fitness 
#for a particular purpose, with respect to the services rendered.  In no event will 
#Halliburton be liable for failure to obtain any particular results or for 
#any damages, including, but not limited to, indirect, special or consequential damages, 
#resulting from the use of any information or interpretation provided by Halliburton.
#
~A           TIME           GTDEPTH  GTPQH  GTTQ  GTTN  GTET   GTTVD  
# ...
   15:05:07.359.03-May-2020 4553.48 4124.14 81.66 2.00 206.93 2472.52
   15:05:07.559.03-May-2020 4553.48 4124.14 81.66 2.00 207.13 2472.52
   15:05:07.759.03-May-2020 4553.48 4124.21 81.66 2.00 207.33 2472.52
   15:05:07.959.03-May-2020 4553.48 4124.26 81.66 2.00 207.53 2472.52
   15:05:08.159.03-May-2020 4553.48 4124.24 81.65 2.00 207.73 2472.52
   15:05:08.359.03-May-2020 4553.48 4124.14 81.65 2.00 207.93 2472.52
   15:05:08.559.03-May-2020 4553.48 4124.14 81.65 2.00 208.13 2472.52
   15:05:08.759.03-May-2020 4553.48 4124.34 81.65 2.00 208.33 2472.52
   15:05:08.959.03-May-2020 4553.48 4124.30 81.65 2.00 208.53 2472.52
   15:05:09.158.03-May-2020 4553.48 4124.22 81.65 2.00 208.73 2472.52
   15:05:09.358.03-May-2020 4553.48 4124.41 81.65 2.00 208.93 2472.52
   15:05:09.558.03-May-2020 4553.48 4124.41 81.65 2.00 209.13 2472.52
   15:05:09.758.03-May-2020 4553.48 4124.21 81.65 2.00 209.33 2472.52
   15:05:09.958.03-May-2020 4553.48 4124.20 81.65 2.00 209.53 2472.52
   15:05:10.158.03-May-2020 4553.48 4124.13 81.65 2.00 209.73 2472.52
   15:05:10.358.03-May-2020 4553.48 4124.11 81.64 2.00 209.93 2472.52
   15:05:10.558.03-May-2020 4553.48 4124.11 81.64 2.00 210.13 2472.52
   15:05:10.758.03-May-2020 4553.48 4124.05 81.64 2.00 210.33 2472.52
   15:05:10.958.03-May-2020 4553.48 4124.02 81.64 2.00 210.53 2472.52
   15:05:11.158.03-May-2020 4553.48 4124.44 81.64 2.00 210.73 2472.52
   15:05:11.358.03-May-2020 4553.48 4124.35 81.64 2.00 210.93 2472.52
   15:05:11.558.03-May-2020 4553.48 4124.35 81.64 2.00 211.13 2472.52
   15:05:11.758.03-May-2020 4553.48 4124.13 81.64 2.00 211.33 2472.52
   15:05:11.958.03-May-2020 4553.48 4124.49 81.64 2.00 211.53 2472.52
   15:05:12.158.03-May-2020 4553.48 4124.72 81.64 2.00 211.73 2472.52
   15:05:12.357.03-May-2020 4553.48 4124.54 81.64 2.00 211.93 2472.52
   15:05:12.557.03-May-2020 4553.48 4124.54 81.64 2.00 212.13 2472.52
   15:05:12.757.03-May-2020 4553.48 4124.51 81.63 2.00 212.33 2472.52
   15:05:12.957.03-May-2020 4553.48 4124.66 81.63 2.00 212.53 2472.52
   15:05:13.157.03-May-2020 4553.48 4124.85 81.63 2.00 212.73 2472.52
   15:05:13.357.03-May-2020 4553.48 4124.49 81.63 2.00 212.93 2472.52
   15:05:13.557.03-May-2020 4553.48 4124.49 81.63 2.00 213.13 2472.52
   15:05:13.757.03-May-2020 4553.48 4124.93 81.63 2.00 213.33 2472.52
   15:05:13.957.03-May-2020 4553.48 4124.58 81.63 2.00 213.53 2472.52
   15:05:14.157.03-May-2020 4553.48 4124.59 81.63 2.00 213.73 2472.52
   15:05:14.357.03-May-2020 4553.48 4124.53 81.63 2.00 213.93 2472.52
   15:05:14.557.03-May-2020 4553.48 4124.53 81.63 2.00 214.13 2472.52
   15:05:14.757.03-May-2020 4553.48 4124.42 81.63 2.00 214.33 2472.52
   15:05:14.957.03-May-2020 4553.48 4124.45 81.62 2.00 214.53 2472.52
   15:05:15.157.03-May-2020 4553.48 4124.30 81.62 2.00 214.73 2472.52
   15:05:15.356.03-May-2020 4553.48 4124.31 81.62 2.00 214.93 2472.52
   15:05:15.556.03-May-2020 4553.48 4124.31 81.62 2.00 215.13 2472.52
   15:05:15.756.03-May-2020 4553.48 4124.34 81.62 2.00 215.33 2472.52
   15:05:15.956.03-May-2020 4553.48 4124.33 81.62 2.00 215.53 2472.52
   15:05:16.156.03-May-2020 4553.48 4124.35 81.62 2.00 215.73 2472.52
   15:05:16.356.03-May-2020 4553.48 4124.89 81.62 2.00 215.93 2472.52
   15:05:16.556.03-May-2020 4553.48 4124.89 81.62 2.00 216.13 2472.52
   15:05:16.756.03-May-2020 4553.48 4124.64 81.62 2.00 216.33 2472.52
   15:05:16.956.03-May-2020 4553.48 4124.44 81.62 2.00 216.53 2472.52
   15:05:17.156.03-May-2020 4553.48 4124.58 81.62 2.00 216.73 2472.52
   15:05:17.356.03-May-2020 4553.48 4124.33 81.61 2.00 216.93 2472.52
   15:05:17.556.03-May-2020 4553.48 4124.38 81.61 2.00 217.13 2472.52
   15:05:17.756.03-May-2020 4553.48 4124.41 81.61 2.00 217.33 2472.52
   15:05:17.956.03-May-2020 4553.48 4124.33 81.61 2.00 217.53 2472.52
   15:05:18.156.03-May-2020 4553.48 4124.27 81.61 2.00 217.73 2472.52
   15:05:18.356.03-May-2020 4553.48 4124.21 81.61 2.00 217.93 2472.52
   15:05:18.555.03-May-2020 4553.48 4124.21 81.61 2.00 218.13 2472.52
   15:05:18.755.03-May-2020 4553.48 4124.28 81.61 2.00 218.33 2472.52
   15:05:18.955.03-May-2020 4553.48 4124.64 81.61 2.00 218.53 2472.52
   15:05:19.155.03-May-2020 4553.48 4124.79 81.61 2.00 218.73 2472.52
   15:05:19.355.03-May-2020 4553.48 4124.70 81.61 2.00 218.93 2472.52
   15:05:19.555.03-May-2020 4553.48 4124.70 81.61 2.00 219.13 2472.52
   15:05:19.755.03-May-2020 4553.48 4124.78 81.60 2.00 219.33 2472.52
   15:05:19.955.03-May-2020 4553.48 4124.48 81.60 2.00 219.53 2472.52
   15:05:20.155.03-May-2020 4553.48 4124.73 81.60 2.00 219.73 2472.52
   15:05:20.355.03-May-2020 4553.48 4124.63 81.60 2.00 219.93 2472.52
   15:05:20.555.03-May-2020 4553.48 4124.63 81.60 2.00 220.13 2472.52
   15:05:20.755.03-May-2020 4553.48 4125.02 81.60 2.00 220.33 2472.52
   15:05:20.955.03-May-2020 4553.48 4124.52 81.60 2.00 220.53 2472.52
   15:05:21.155.03-May-2020 4553.48 4124.29 81.60 2.00 220.73 2472.52
   15:05:21.355.03-May-2020 4553.48 4124.82 81.60 2.00 220.93 2472.52
   15:05:21.554.03-May-2020 4553.48 4124.82 81.60 2.00 221.13 2472.52
   15:05:21.754.03-May-2020 4553.48 4124.33 81.60 2.00 221.33 2472.52
   15:05:21.954.03-May-2020 4553.48 4124.41 81.59 2.00 221.53 2472.52
   15:05:22.154.03-May-2020 4553.48 4124.53 81.59 2.00 221.73 2472.52
   15:05:22.354.03-May-2020 4553.48 4124.30 81.59 2.00 221.93 2472.52
   15:05:22.554.03-May-2020 4553.48 4124.30 81.59 2.00 222.13 2472.52
   15:05:22.754.03-May-2020 4553.48 4124.41 81.59 2.00 222.33 2472.52
   15:05:22.954.03-May-2020 4553.48 4124.31 81.59 2.00 222.53 2472.52
   15:05:23.154.03-May-2020 4553.48 4124.22 81.59 2.00 222.73 2472.52
   15:05:23.354.03-May-2020 4553.48 4124.33 81.59 2.00 222.93 2472.52
   15:05:23.554.03-May-2020 4553.48 4124.33 81.59 2.00 223.13 2472.52
   15:05:23.754.03-May-2020 4553.48 4124.33 81.59 2.00 223.33 2472.52
   15:05:23.954.03-May-2020 4553.48 4124.34 81.59 2.00 223.53 2472.52
   15:05:24.154.03-May-2020 4553.48 4124.73 81.58 2.00 223.73 2472.52
   15:05:24.354.03-May-2020 4553.48 4124.98 81.58 2.00 223.93 2472.52
   15:05:24.553.03-May-2020 4553.48 4124.98 81.58 2.00 224.13 2472.52
   15:05:24.753.03-May-2020 4553.48 4124.39 81.58 2.00 224.33 2472.52
   15:05:24.953.03-May-2020 4553.48 4124.34 81.58 2.00 224.53 2472.52
   15:05:25.153.03-May-2020 4553.48 4124.35 81.58 2.00 224.73 2472.52
   15:05:25.353.03-May-2020 4553.48 4124.36 81.58 2.00 224.93 2472.52
   15:05:25.553.03-May-2020 4553.48 4124.36 81.58 2.00 225.13 2472.52
   15:05:25.753.03-May-2020 4553.48 4124.29 81.58 2.00 225.33 2472.52
   15:05:25.953.03-May-2020 4553.48 4124.27 81.58 2.00 225.53 2472.52
   15:05:26.153.03-May-2020 4553.48 4124.24 81.58 2.00 225.73 2472.52
   15:05:26.353.03-May-2020 4553.48 4124.17 81.58 2.00 225.93 2472.52
   15:05:26.553.03-May-2020 4553.48 4124.17 81.58 2.00 226.13 2472.52
   15:05:26.753.03-May-2020 4553.48 4124.40 81.57 2.00 226.33 2472.52
   15:05:26.953.03-May-2020 4553.48 4124.83 81.57 2.00 226.53 2472.52
   15:05:27.153.03-May-2020 4553.48 4124.24 81.57 2.00 226.73 2472.52
   15:05:27.353.03-May-2020 4553.48 4124.81 81.57 2.00 226.93 2472.52
   15:05:27.553.03-May-2020 4553.48 4124.81 81.57 2.00 227.13 2472.52
   15:05:27.752.03-May-2020 4553.48 4124.22 81.57 2.00 227.33 2472.52
   15:05:27.952.03-May-2020 4553.48 4124.76 81.57 2.00 227.53 2472.52
   15:05:28.152.03-May-2020 4553.48 4124.52 81.57 2.00 227.73 2472.52
   15:05:28.352.03-May-2020 4553.48 4124.26 81.57 2.00 227.93 2472.52
   15:05:28.552.03-May-2020 4553.48 4124.26 81.57 2.00 228.13 2472.52
   15:05:28.752.03-May-2020 4553.48 4124.73 81.56 2.00 228.33 2472.52
   15:05:28.952.03-May-2020 4553.48 4124.30 81.56 2.00 228.53 2472.52
   15:05:29.152.03-May-2020 4553.48 4124.37 81.56 2.00 228.73 2472.52
   15:05:29.352.03-May-2020 4553.48 4124.58 81.56 2.00 228.93 2472.52
   15:05:29.552.03-May-2020 4553.48 4124.58 81.56 2.00 229.13 2472.52
   15:05:29.752.03-May-2020 4553.48 4124.26 81.56 2.00 229.33 2472.52
   15:05:29.952.03-May-2020 4553.48 4124.56 81.56 2.00 229.53 2472.52
   15:05:30.152.03-May-2020 4553.48 4124.29 81.56 2.00 229.73 2472.52
