~Version Information
 VERS.                  2.0:   CWLS log ASCII Standard -VERSION 2.0
 WRAP.                   NO:   One line per depth step
~Well Information Block
#MNEM.UNIT     VALUE/NAME     DESCRIPTION
#---------     -----------    ---------------------------
 STRT.S             01:13:00 04-May-20: START TIME 01:13:00 04-May-20
 STOP.S             01:19:30 04-May-20: STOP TIME  01:19:30 04-May-20
 STEP.S                   0.00: STEP TIME
 NULL.                 -999.25: NULL VALUE
 DFWT.                        :  DIST FWL TEXT
 DFST.                        :  DIST FSL TEXT
 DMF .             Drill Floor:  DRILL MEAS FROM
 STIM.      03.00.00 25-Mar-20:  START TIME
 DATE.      00.00.00 19-May-20:  END TIME
 SPUD.               27-Aug-20:  SPUD DATE
 NREF.                    Grid:  NORTH REFERENCE
 HPTY.       Minimum Curvature:  HOLE POS TYPE
 DMOD.             Drill Model:  DRILL MOD DESC
 SVYD.                  Survey:  SURVEY DESC
 ILTD.               Lithology:  INTERP LTH DESC
 FTOP.          Formation Tops:  FORM TOPS DESC
 SON .        AZ-XX-0906252240:  JOB NUMBER
 RIG .             West Chirag:  RIG NAME
 PDAT.          Mean Sea Level:  PERMANENT DATUM
 FLD .                     ACG:  FIELD NAME
 CTRY.              Azerbaijan:  COUNTRY NAME
 WELL.                     J23:  WELL NAME
 SRVC.          Turan Drilling:  CONTRACTOR
 COMP.     BP Exploration (Caspian Sea) Ltd.:  COMPANY
 WTYP.                Deviated:  WELL TYPE
 MDS .        Operator Entered:  MAG DATA SOURCE
 UWI .                     N/A:  UNIQUE WELL IDENTIFIER
 API .                     N/A:  API NUMBER
 BASE.              Azerbaijan:  LOGGING EQUIPMENT BASE LOCATION
 REGN.                   EESSA:  REGION
 PROV.                    Baku:  PROVINCE
 STAT.                    Baku:  STATE NAME
 MWDS.                     N/A:  MWD SHOP
 JOBN.        AZ-XX-0906252240:  JOB TICKET NUMB
 DOE .                     N/A:  DOE NUMBER
 DCON.         Sperry Drilling:  DIRECTNL CONTR
 UNIT.                     N/A:  LOGGING EQUIPMENT ID
 CNTY.                        :  COUNTY
 LOC .                        :  LOCATION
 LMF .             Drill Floor:  LOG MEASURED FROM
 TVDS.m                  43.00:  TVDSS CORRECTN
 LATI.deg                40.13:  LATITUDE
 LONG.deg                51.22:  LONGITUDE
 WHNS.m                   9.43:  WELL HEAD N/S
 WHEW.m                  -8.91:  WELL HEAD E/W
 UTMX.m              519005.06:  UTM X
 UTMY.m             4443793.85:  UTM Y
 DFWL.m                   0.00:  DISTANCE FWL
 DFSL.m                   0.00:  DISTANCE FSL
 SDEP.m                 363.00:  START DEPTH
 TDD .m                5150.01:  TOTAL DEPTH (DRILLER)
 VSDR.deg               179.88:  VERT SEC DIRECT
 GVFD.g                   1.00:  GRAVITY FIELD
 MFLD.nT              50295.00:  MAGNETIC FIELD
 MDIP.deg                59.56:  MAGNETIC DIP
 MDEC.deg                 6.45:  MAGNETIC DECL
 GRDC.deg                 0.14:  GRID CORRECTION
 AZTC.deg                 6.31:  AZM TOTAL CORR
 EPD .m                   0.00:  ELEVATION
 EGL .m                   0.00:  GROUND ELEVATION
 WDMS.m                 169.80:  WD ELEV
 APD .m                  43.00:  DEPTH ABOVE PD
 DEP .m                 354.17:  DEPTH
 AGAP.m                  43.00:  AIR GAP
 VSEW.m                  -8.91:  VERT SEC E/W
 VSNS.m                   9.43:  VERT SEC N/S
 EKB .m                   0.00:  KB ELEVATION
 EDF .m                  43.00:  DF ELEVATION
 TDL .m                1351.00:  TOTAL DEPTH (LOGGER)
 VSC .                       0:  VS TO CLOSURE
 MAGU.                 1850802:  MAGUTM CHECKSUM
~Parameter Information Block
#MNEM.UNIT       Value        Description
#---------     -----------    ---------------------------
 AV  .mps                 1.00:  Ann Velocity 
 AVMX.mps                 2.40:  Max Ann Veloc 
 AZIF.deg               148.96:  Azm, Final 
 BHAT.        Rotary Steerable:  BHA Type 
 BROT.°/30m               0.04:  Build Rotating 
 BS  .in                 12.25:  Bit Size 
 BSZ .in                 12.25:  Bit Size 
 BTPL.psig              814.00:  Bit Press Loss 
 TCS .hr                106.00:  Time Ciculation Ended 
 CV  .mps                 2.47:  Crit Velocity 
 CVMX.mps                 2.64:  Max Crit Veloc 
 DD1 .          Rashad Habibov:  Direct Drillr 1 
 DD2 .         Rasim Ibrahimov:  Direct Drillr 2 
 DDSV.                 iCruise:  DD Service 
 DEFF.%                 100.00:  % Det Eff 
 DLRX.°/30m               0.70:  Dogleg Rot Max 
 DLSO.°/30m               3.00:  Dogleg Oriented 
 DLSX.°/30m               4.55:  Dogleg Str Max 
 DRET.      08.08.32 02-May-20:  Drill End Time 
 DRST.      08.08.32 28-Apr-20:  Drill Start Tim 
 DTIM.hr                 60.00:  Time Drilling 
 EDEP.m                4761.01:  End Depth 
 ENG1.           Eldar Hajiyev:  Engineer 1 
 ENG2.        Marcelo Sandoval:  Engineer 2 
 ETIM.      23.23.07 05-May-20:  End Time 
 FLOI.gpm              1200.00:  Flow In 
 FLON.gpm               900.00:  Flow In Min 
 FLOS.cptm                0.00:  Fluid Loss 
 FLOX.gpm              1200.00:  Flow In Max 
 HFLO.                      No:  High Flow 
 HPRE.                      No:  High Pressure 
 HTEM.                      No:  High Temp 
 HYDO.m                   1.80:  Hydro Offset 
 IFIN.deg                68.17:  Inc, Final 
 IMAX.deg                74.61:  Inc Max 
 IMIN.deg                68.15:  Inc Min 
 IMND.m                4317.87:  Inc Min Depth 
 IMXD.m                4714.01:  Inc Max Depth 
 LETM.      08.08.32 02-May-20:  Log End Time 
 LOST.hr                     2:  Lost Rig Time 
 LSTM.      08.08.32 28-Apr-20:  Log Start Time 
 MDCL.ppm             41000.00:  Mud Chlorides 
 MDES.     Inversion Oil/Synthetic:  Mud Desc 
 DFD .sg                  1.58:  Mud Density 
 MDMN.sg                  1.58:  Dens Mud Min 
 MDMX.sg                  1.58:  Dens Mud Max 
 MOIL.                      71:  Run Mud Oil % 
 MOWR.                   71:29:  Run Mud OWR 
 MSND.                     0.1:  Run Mud Sand % 
 MSOL.                      23:  Run Mud Solids% 
 DFV .spqt               82.00:  Mud Viscosity 
 MWOD.in                  8.00:  MWD Tool OD 
 MWSI.                     Yes:  Serv Intrp, MWD 
 OTIM.hr                125.00:  Time Operating 
 PMAX.psia             6129.00:  Press Op, Max 
 PV  .cP                 32.00:  Mud PV 
 RUN .                     800:  Run Number 
 ROPA.m/hr               30.00:  ROP Avg 
 ROPN.m/hr               10.00:  ROP Min 
 ROPX.m/hr               40.00:  ROP Max 
 RPMA.rpm               140.00:  RPM Surface Avg 
 RPMN.rpm                80.00:  RPM Surface Min 
 RPMX.rpm               140.00:  RPM Surface Max 
 RRUN.                    L503:  Rig Run Number 
 RTIM.hr                  2.00:  Time Reaming 
 SAZI.deg               184.23:  Azm, Start 
 SDEP.m                3410.01:  Start Depth 
 SIDD.                      No:  Serv Intrp, DD 
 SINC.deg                68.29:  Inc, Start 
 SPPA.psig             6000.00:  SPP Avg 
 SPPN.psig             4000.00:  SPP Min 
 SPPX.psig             6100.00:  SPP Max 
 STIM.      08.08.32 28-Apr-20:  Start Time 
 SVCS.                 DD, MWD:  Services 
 SVER.                    9.20:  Sperry Version 
 TDAT.m                1351.00:  Tot Depth Attmp 
 TDDF.                      No:  Trip for DD 
 TDLG.m                1351.00:  Tot Depth Loggd 
 TFF .                      No:  Trip for Fail 
 TQAA.f-kp               27.00:  Torque Abs Avg 
 TQAN.f-kp               20.00:  Torque Abs Min 
 TQAX.f-kp               30.00:  Torque Abs Max 
 TRRT.°/30m               0.60:  Turn Rotating 
 MRT .                    EWER:  Maximum Recorded Temperature 
 TTMX.degC               83.00:  Max Tool Temp 
 VS01.                90511138:  Virtual Str1 SN 
 VS02.                90524876:  Virtual Str2 SN 
 VS03.                90524872:  Virtual Str3 SN 
 VS04.                90502750:  Virtual Str4 SN 
 VS05.                12330984:  Virtual Str5 SN 
 WBMN.klb                 0.00:  WOB Min 
 WOBA.klb                15.00:  WOB Avg 
 WOBX.klb                20.00:  WOB Max 
 YP  .lhf2               31.00:  Yield Point 
~Curve Information Block
#MNEM.UNIT                 API CODE     Curve Description
#---------               -----------    ---------------------------
 TIME.HHMMSS            00 000 000 000:  GT Time & Date
 GTDEPTH.m              00 000 000 000:  GT Depth
 GTPQH.psia             00 000 000 000:  GT HR Quartz Pressure
 GTTQ.degC              00 000 000 000:  GT Quartz Temperature
 GTTN.NONE              00 000 000 000:  GT Test Number
 GTET.sec               00 000 000 000:  GT Elapsed Test Time
 GTTVD.m                00 000 000 000:  GT True Vertical Depth
#Other Information
#
#WARRANTY: Halliburton will use its best efforts to furnish customers with 
#accurate information and interpretations that are part of, and incident to, the services 
#provided.  However, Halliburton cannot and does not warrant the accuracy 
#or correctness of such information and interpretations.  Under no circumstances should any 
#such information or interpretation be relied upon as the sole basis for any drilling, 
#completion, production, or financial decision or any procedure involving any risk to the 
#safety of any drilling venture, drilling rig or its crew or any other third party.  The 
#Customer has full responsibility for all drilling, completion and production operation.  
#Halliburton makes no representations or warranties, either expressed or 
#implied, including, but not limited to, the implied warranties of merchantability or fitness 
#for a particular purpose, with respect to the services rendered.  In no event will 
#Halliburton be liable for failure to obtain any particular results or for 
#any damages, including, but not limited to, indirect, special or consequential damages, 
#resulting from the use of any information or interpretation provided by Halliburton.
#
~A           TIME           GTDEPTH  GTPQH  GTTQ  GTTN  GTET   GTTVD  
# ...
   01:17:36.554.04-May-2020 4660.50   43.33 75.84 5.00 276.02 2503.99
   01:17:36.754.04-May-2020 4660.50   43.33 75.84 5.00 276.22 2503.99
   01:17:36.954.04-May-2020 4660.50   43.43 75.84 5.00 276.43 2503.99
   01:17:37.154.04-May-2020 4660.50   43.48 75.84 5.00 276.63 2503.99
   01:17:37.354.04-May-2020 4660.50   43.52 75.84 5.00 276.83 2503.99
   01:17:37.554.04-May-2020 4660.50   43.55 75.84 5.00 277.03 2503.99
   01:17:37.754.04-May-2020 4660.50   43.55 75.84 5.00 277.23 2503.99
   01:17:37.954.04-May-2020 4660.50   43.66 75.84 5.00 277.43 2503.99
   01:17:38.154.04-May-2020 4660.50   43.69 75.84 5.00 277.63 2503.99
   01:17:38.354.04-May-2020 4660.50   43.71 75.83 5.00 277.83 2503.99
   01:17:38.554.04-May-2020 4660.50   43.78 75.83 5.00 278.03 2503.99
   01:17:38.754.04-May-2020 4660.50   43.81 75.83 5.00 278.23 2503.99
   01:17:38.954.04-May-2020 4660.50   43.84 75.83 5.00 278.43 2503.99
   01:17:39.155.04-May-2020 4660.50   43.87 75.83 5.00 278.63 2503.99
   01:17:39.355.04-May-2020 4660.50   43.93 75.83 5.00 278.83 2503.99
   01:17:39.555.04-May-2020 4660.50   43.97 75.83 5.00 279.03 2503.99
   01:17:39.755.04-May-2020 4660.50   44.00 75.83 5.00 279.23 2503.99
   01:17:39.955.04-May-2020 4660.50   44.03 75.83 5.00 279.43 2503.99
   01:17:40.155.04-May-2020 4660.50   44.06 75.83 5.00 279.63 2503.99
   01:17:40.355.04-May-2020 4660.50   44.10 75.83 5.00 279.83 2503.99
   01:17:40.555.04-May-2020 4660.50   44.14 75.83 5.00 280.03 2503.99
   01:17:40.755.04-May-2020 4660.50   44.14 75.83 5.00 280.23 2503.99
   01:17:40.955.04-May-2020 4660.50   44.21 75.83 5.00 280.43 2503.99
   01:17:41.155.04-May-2020 4660.50   44.25 75.83 5.00 280.63 2503.99
   01:17:41.355.04-May-2020 4660.50   44.29 75.83 5.00 280.83 2503.99
   01:17:41.555.04-May-2020 4660.50   44.33 75.83 5.00 281.03 2503.99
   01:17:41.755.04-May-2020 4660.50   44.33 75.83 5.00 281.23 2503.99
   01:17:41.955.04-May-2020 4660.50   44.40 75.83 5.00 281.43 2503.99
   01:17:42.155.04-May-2020 4660.50   44.48 75.83 5.00 281.63 2503.99
   01:17:42.355.04-May-2020 4660.50   44.50 75.83 5.00 281.83 2503.99
   01:17:42.555.04-May-2020 4660.50   44.52 75.83 5.00 282.03 2503.99
   01:17:42.755.04-May-2020 4660.50   44.52 75.83 5.00 282.23 2503.99
   01:17:42.955.04-May-2020 4660.50   44.59 75.83 5.00 282.43 2503.99
   01:17:43.155.04-May-2020 4660.50   44.61 75.83 5.00 282.63 2503.99
   01:17:43.355.04-May-2020 4660.50   44.65 75.82 5.00 282.83 2503.99
   01:17:43.555.04-May-2020 4660.50   44.68 75.82 5.00 283.03 2503.99
   01:17:43.755.04-May-2020 4660.50   44.72 75.82 5.00 283.23 2503.99
   01:17:43.955.04-May-2020 4660.50   44.75 75.82 5.00 283.43 2503.99
   01:17:44.155.04-May-2020 4660.50   44.78 75.82 5.00 283.63 2503.99
   01:17:44.355.04-May-2020 4660.50   44.82 75.82 5.00 283.83 2503.99
   01:17:44.555.04-May-2020 4660.50   44.89 75.82 5.00 284.03 2503.99
   01:17:44.755.04-May-2020 4660.50   44.92 75.82 5.00 284.23 2503.99
   01:17:44.955.04-May-2020 4660.50   44.95 75.82 5.00 284.43 2503.99
   01:17:45.155.04-May-2020 4660.50   45.00 75.82 5.00 284.63 2503.99
   01:17:45.355.04-May-2020 4660.50   45.02 75.82 5.00 284.83 2503.99
   01:17:45.555.04-May-2020 4660.50   45.04 75.82 5.00 285.03 2503.99
   01:17:45.755.04-May-2020 4660.50   45.06 75.82 5.00 285.23 2503.99
   01:17:45.955.04-May-2020 4660.50   45.11 75.82 5.00 285.43 2503.99
   01:17:46.155.04-May-2020 4660.50   45.14 75.82 5.00 285.63 2503.99
   01:17:46.355.04-May-2020 4660.50   45.16 75.82 5.00 285.83 2503.99
   01:17:46.555.04-May-2020 4660.50   45.21 75.82 5.00 286.03 2503.99
   01:17:46.755.04-May-2020 4660.50   45.22 75.82 5.00 286.23 2503.99
   01:17:46.955.04-May-2020 4660.50   45.25 75.82 5.00 286.43 2503.99
   01:17:47.155.04-May-2020 4660.50   45.28 75.82 5.00 286.63 2503.99
   01:17:47.355.04-May-2020 4660.50   45.31 75.82 5.00 286.83 2503.99
   01:17:47.555.04-May-2020 4660.50   45.36 75.82 5.00 287.03 2503.99
   01:17:47.755.04-May-2020 4660.50   45.39 75.82 5.00 287.23 2503.99
   01:17:47.955.04-May-2020 4660.50   45.41 75.82 5.00 287.43 2503.99
   01:17:48.155.04-May-2020 4660.50   45.44 75.82 5.00 287.63 2503.99
   01:17:48.355.04-May-2020 4660.50   45.45 75.81 5.00 287.83 2503.99
   01:17:48.555.04-May-2020 4660.50   45.49 75.81 5.00 288.03 2503.99
   01:17:48.755.04-May-2020 4660.50   45.49 75.81 5.00 288.23 2503.99
   01:17:48.955.04-May-2020 4660.50   45.54 75.81 5.00 288.43 2503.99
   01:17:49.155.04-May-2020 4660.50   45.58 75.81 5.00 288.63 2503.99
   01:17:49.355.04-May-2020 4660.50   45.60 75.81 5.00 288.83 2503.99
   01:17:49.555.04-May-2020 4660.50   45.63 75.81 5.00 289.03 2503.99
   01:17:49.755.04-May-2020 4660.50   45.63 75.81 5.00 289.23 2503.99
   01:17:49.955.04-May-2020 4660.50   45.69 75.81 5.00 289.43 2503.99
   01:17:50.156.04-May-2020 4660.50   45.74 75.81 5.00 289.63 2503.99
   01:17:50.356.04-May-2020 4660.50   45.79 75.81 5.00 289.83 2503.99
   01:17:50.556.04-May-2020 4660.50   45.81 75.81 5.00 290.03 2503.99
   01:17:50.756.04-May-2020 4660.50   45.81 75.81 5.00 290.23 2503.99
   01:17:50.956.04-May-2020 4660.50   45.86 75.81 5.00 290.43 2503.99
   01:17:51.156.04-May-2020 4660.50   45.88 75.81 5.00 290.63 2503.99
   01:17:51.356.04-May-2020 4660.50   45.91 75.81 5.00 290.83 2503.99
   01:17:51.556.04-May-2020 4660.50   45.93 75.81 5.00 291.03 2503.99
   01:17:51.756.04-May-2020 4660.50   45.96 75.81 5.00 291.23 2503.99
   01:17:51.956.04-May-2020 4660.50   45.99 75.81 5.00 291.43 2503.99
   01:17:52.156.04-May-2020 4660.50   46.01 75.81 5.00 291.63 2503.99
   01:17:52.356.04-May-2020 4660.50   46.05 75.81 5.00 291.83 2503.99
   01:17:52.556.04-May-2020 4660.50   46.08 75.81 5.00 292.03 2503.99
   01:17:52.756.04-May-2020 4660.50   46.08 75.81 5.00 292.23 2503.99
   01:17:52.956.04-May-2020 4660.50   46.17 75.81 5.00 292.43 2503.99
   01:17:53.156.04-May-2020 4660.50   46.20 75.81 5.00 292.63 2503.99
   01:17:53.356.04-May-2020 4660.50   46.23 75.80 5.00 292.83 2503.99
   01:17:53.556.04-May-2020 4660.50   46.24 75.80 5.00 293.03 2503.99
   01:17:53.756.04-May-2020 4660.50   46.24 75.80 5.00 293.23 2503.99
   01:17:53.956.04-May-2020 4660.50   46.31 75.80 5.00 293.43 2503.99
   01:17:54.156.04-May-2020 4660.50   46.34 75.80 5.00 293.63 2503.99
   01:17:54.356.04-May-2020 4660.50   46.34 75.80 5.00 293.83 2503.99
   01:17:54.556.04-May-2020 4660.50   46.39 75.80 5.00 294.03 2503.99
   01:17:54.756.04-May-2020 4660.50   46.39 75.80 5.00 294.23 2503.99
   01:17:54.956.04-May-2020 4660.50   46.43 75.80 5.00 294.43 2503.99
   01:17:55.156.04-May-2020 4660.50   46.45 75.80 5.00 294.63 2503.99
   01:17:55.356.04-May-2020 4660.50   46.47 75.80 5.00 294.83 2503.99
   01:17:55.556.04-May-2020 4660.50   46.49 75.80 5.00 295.03 2503.99
   01:17:55.756.04-May-2020 4660.50   46.49 75.80 5.00 295.23 2503.99
   01:17:55.956.04-May-2020 4660.50   46.58 75.80 5.00 295.43 2503.99
   01:17:56.156.04-May-2020 4660.50   46.58 75.80 5.00 295.63 2503.99
   01:17:56.356.04-May-2020 4660.50   46.61 75.80 5.00 295.83 2503.99
   01:17:56.556.04-May-2020 4660.50   46.63 75.80 5.00 296.03 2503.99
   01:17:56.756.04-May-2020 4660.50   46.63 75.80 5.00 296.23 2503.99
   01:17:56.956.04-May-2020 4660.50   46.69 75.80 5.00 296.43 2503.99
   01:17:57.156.04-May-2020 4660.50   46.71 75.80 5.00 296.63 2503.99
   01:17:57.356.04-May-2020 4660.50   46.74 75.80 5.00 296.83 2503.99
   01:17:57.556.04-May-2020 4660.50   46.76 75.80 5.00 297.03 2503.99
   01:17:57.756.04-May-2020 4660.50   46.76 75.80 5.00 297.23 2503.99
   01:17:57.956.04-May-2020 4660.50   46.82 75.80 5.00 297.43 2503.99
   01:17:58.156.04-May-2020 4660.50   46.84 75.80 5.00 297.63 2503.99
   01:17:58.356.04-May-2020 4660.50   46.89 75.79 5.00 297.83 2503.99
   01:17:58.556.04-May-2020 4660.50   46.93 75.79 5.00 298.03 2503.99
   01:17:58.756.04-May-2020 4660.50   46.95 75.79 5.00 298.23 2503.99
   01:17:58.956.04-May-2020 4660.50   46.97 75.79 5.00 298.43 2503.99
   01:17:59.156.04-May-2020 4660.50   46.98 75.79 5.00 298.63 2503.99
   01:17:59.356.04-May-2020 4660.50   47.01 75.79 5.00 298.83 2503.99
