~Version Information
 VERS.                  2.0:   CWLS log ASCII Standard -VERSION 2.0
 WRAP.                   NO:   One line per depth step
~Well Information Block
#MNEM.UNIT     VALUE/NAME     DESCRIPTION
#---------     -----------    ---------------------------
 STRT.S             19:38:29 03-May-20: START TIME 19:38:29 03-May-20
 STOP.S             19:45:06 03-May-20: STOP TIME  19:45:06 03-May-20
 STEP.S                   0.00: STEP TIME
 NULL.                 -999.25: NULL VALUE
 DFWT.                        :  DIST FWL TEXT
 DFST.                        :  DIST FSL TEXT
 DMF .             Drill Floor:  DRILL MEAS FROM
 STIM.      03.00.00 25-Mar-20:  START TIME
 DATE.      00.00.00 19-May-20:  END TIME
 SPUD.               27-Aug-20:  SPUD DATE
 NREF.                    Grid:  NORTH REFERENCE
 HPTY.       Minimum Curvature:  HOLE POS TYPE
 DMOD.             Drill Model:  DRILL MOD DESC
 SVYD.                  Survey:  SURVEY DESC
 ILTD.               Lithology:  INTERP LTH DESC
 FTOP.          Formation Tops:  FORM TOPS DESC
 SON .        AZ-XX-0906252240:  JOB NUMBER
 RIG .             West Chirag:  RIG NAME
 PDAT.          Mean Sea Level:  PERMANENT DATUM
 FLD .                     ACG:  FIELD NAME
 CTRY.              Azerbaijan:  COUNTRY NAME
 WELL.                     J23:  WELL NAME
 SRVC.          Turan Drilling:  CONTRACTOR
 COMP.     BP Exploration (Caspian Sea) Ltd.:  COMPANY
 WTYP.                Deviated:  WELL TYPE
 MDS .        Operator Entered:  MAG DATA SOURCE
 UWI .                     N/A:  UNIQUE WELL IDENTIFIER
 API .                     N/A:  API NUMBER
 BASE.              Azerbaijan:  LOGGING EQUIPMENT BASE LOCATION
 REGN.                   EESSA:  REGION
 PROV.                    Baku:  PROVINCE
 STAT.                    Baku:  STATE NAME
 MWDS.                     N/A:  MWD SHOP
 JOBN.        AZ-XX-0906252240:  JOB TICKET NUMB
 DOE .                     N/A:  DOE NUMBER
 DCON.         Sperry Drilling:  DIRECTNL CONTR
 UNIT.                     N/A:  LOGGING EQUIPMENT ID
 CNTY.                        :  COUNTY
 LOC .                        :  LOCATION
 LMF .             Drill Floor:  LOG MEASURED FROM
 TVDS.m                  43.00:  TVDSS CORRECTN
 LATI.deg                40.13:  LATITUDE
 LONG.deg                51.22:  LONGITUDE
 WHNS.m                   9.43:  WELL HEAD N/S
 WHEW.m                  -8.91:  WELL HEAD E/W
 UTMX.m              519005.06:  UTM X
 UTMY.m             4443793.85:  UTM Y
 DFWL.m                   0.00:  DISTANCE FWL
 DFSL.m                   0.00:  DISTANCE FSL
 SDEP.m                 363.00:  START DEPTH
 TDD .m                5150.01:  TOTAL DEPTH (DRILLER)
 VSDR.deg               179.88:  VERT SEC DIRECT
 GVFD.g                   1.00:  GRAVITY FIELD
 MFLD.nT              50295.00:  MAGNETIC FIELD
 MDIP.deg                59.56:  MAGNETIC DIP
 MDEC.deg                 6.45:  MAGNETIC DECL
 GRDC.deg                 0.14:  GRID CORRECTION
 AZTC.deg                 6.31:  AZM TOTAL CORR
 EPD .m                   0.00:  ELEVATION
 EGL .m                   0.00:  GROUND ELEVATION
 WDMS.m                 169.80:  WD ELEV
 APD .m                  43.00:  DEPTH ABOVE PD
 DEP .m                 354.17:  DEPTH
 AGAP.m                  43.00:  AIR GAP
 VSEW.m                  -8.91:  VERT SEC E/W
 VSNS.m                   9.43:  VERT SEC N/S
 EKB .m                   0.00:  KB ELEVATION
 EDF .m                  43.00:  DF ELEVATION
 TDL .m                1351.00:  TOTAL DEPTH (LOGGER)
 VSC .                       0:  VS TO CLOSURE
 MAGU.                 1850802:  MAGUTM CHECKSUM
~Parameter Information Block
#MNEM.UNIT       Value        Description
#---------     -----------    ---------------------------
 AV  .mps                 1.00:  Ann Velocity 
 AVMX.mps                 2.40:  Max Ann Veloc 
 AZIF.deg               148.96:  Azm, Final 
 BHAT.        Rotary Steerable:  BHA Type 
 BROT.°/30m               0.04:  Build Rotating 
 BS  .in                 12.25:  Bit Size 
 BSZ .in                 12.25:  Bit Size 
 BTPL.psig              814.00:  Bit Press Loss 
 TCS .hr                106.00:  Time Ciculation Ended 
 CV  .mps                 2.47:  Crit Velocity 
 CVMX.mps                 2.64:  Max Crit Veloc 
 DD1 .          Rashad Habibov:  Direct Drillr 1 
 DD2 .         Rasim Ibrahimov:  Direct Drillr 2 
 DDSV.                 iCruise:  DD Service 
 DEFF.%                 100.00:  % Det Eff 
 DLRX.°/30m               0.70:  Dogleg Rot Max 
 DLSO.°/30m               3.00:  Dogleg Oriented 
 DLSX.°/30m               4.55:  Dogleg Str Max 
 DRET.      08.08.32 02-May-20:  Drill End Time 
 DRST.      08.08.32 28-Apr-20:  Drill Start Tim 
 DTIM.hr                 60.00:  Time Drilling 
 EDEP.m                4761.01:  End Depth 
 ENG1.           Eldar Hajiyev:  Engineer 1 
 ENG2.        Marcelo Sandoval:  Engineer 2 
 ETIM.      23.23.07 05-May-20:  End Time 
 FLOI.gpm              1200.00:  Flow In 
 FLON.gpm               900.00:  Flow In Min 
 FLOS.cptm                0.00:  Fluid Loss 
 FLOX.gpm              1200.00:  Flow In Max 
 HFLO.                      No:  High Flow 
 HPRE.                      No:  High Pressure 
 HTEM.                      No:  High Temp 
 HYDO.m                   1.80:  Hydro Offset 
 IFIN.deg                68.17:  Inc, Final 
 IMAX.deg                74.61:  Inc Max 
 IMIN.deg                68.15:  Inc Min 
 IMND.m                4317.87:  Inc Min Depth 
 IMXD.m                4714.01:  Inc Max Depth 
 LETM.      08.08.32 02-May-20:  Log End Time 
 LOST.hr                     2:  Lost Rig Time 
 LSTM.      08.08.32 28-Apr-20:  Log Start Time 
 MDCL.ppm             41000.00:  Mud Chlorides 
 MDES.     Inversion Oil/Synthetic:  Mud Desc 
 DFD .sg                  1.58:  Mud Density 
 MDMN.sg                  1.58:  Dens Mud Min 
 MDMX.sg                  1.58:  Dens Mud Max 
 MOIL.                      71:  Run Mud Oil % 
 MOWR.                   71:29:  Run Mud OWR 
 MSND.                     0.1:  Run Mud Sand % 
 MSOL.                      23:  Run Mud Solids% 
 DFV .spqt               82.00:  Mud Viscosity 
 MWOD.in                  8.00:  MWD Tool OD 
 MWSI.                     Yes:  Serv Intrp, MWD 
 OTIM.hr                125.00:  Time Operating 
 PMAX.psia             6129.00:  Press Op, Max 
 PV  .cP                 32.00:  Mud PV 
 RUN .                     800:  Run Number 
 ROPA.m/hr               30.00:  ROP Avg 
 ROPN.m/hr               10.00:  ROP Min 
 ROPX.m/hr               40.00:  ROP Max 
 RPMA.rpm               140.00:  RPM Surface Avg 
 RPMN.rpm                80.00:  RPM Surface Min 
 RPMX.rpm               140.00:  RPM Surface Max 
 RRUN.                    L503:  Rig Run Number 
 RTIM.hr                  2.00:  Time Reaming 
 SAZI.deg               184.23:  Azm, Start 
 SDEP.m                3410.01:  Start Depth 
 SIDD.                      No:  Serv Intrp, DD 
 SINC.deg                68.29:  Inc, Start 
 SPPA.psig             6000.00:  SPP Avg 
 SPPN.psig             4000.00:  SPP Min 
 SPPX.psig             6100.00:  SPP Max 
 STIM.      08.08.32 28-Apr-20:  Start Time 
 SVCS.                 DD, MWD:  Services 
 SVER.                    9.20:  Sperry Version 
 TDAT.m                1351.00:  Tot Depth Attmp 
 TDDF.                      No:  Trip for DD 
 TDLG.m                1351.00:  Tot Depth Loggd 
 TFF .                      No:  Trip for Fail 
 TQAA.f-kp               27.00:  Torque Abs Avg 
 TQAN.f-kp               20.00:  Torque Abs Min 
 TQAX.f-kp               30.00:  Torque Abs Max 
 TRRT.°/30m               0.60:  Turn Rotating 
 MRT .                    EWER:  Maximum Recorded Temperature 
 TTMX.degC               83.00:  Max Tool Temp 
 VS01.                90511138:  Virtual Str1 SN 
 VS02.                90524876:  Virtual Str2 SN 
 VS03.                90524872:  Virtual Str3 SN 
 VS04.                90502750:  Virtual Str4 SN 
 VS05.                12330984:  Virtual Str5 SN 
 WBMN.klb                 0.00:  WOB Min 
 WOBA.klb                15.00:  WOB Avg 
 WOBX.klb                20.00:  WOB Max 
 YP  .lhf2               31.00:  Yield Point 
~Curve Information Block
#MNEM.UNIT                 API CODE     Curve Description
#---------               -----------    ---------------------------
 TIME.HHMMSS            00 000 000 000:  GT Time & Date
 GTDEPTH.m              00 000 000 000:  GT Depth
 GTPQH.psia             00 000 000 000:  GT HR Quartz Pressure
 GTTQ.degC              00 000 000 000:  GT Quartz Temperature
 GTTN.NONE              00 000 000 000:  GT Test Number
 GTET.sec               00 000 000 000:  GT Elapsed Test Time
 GTTVD.m                00 000 000 000:  GT True Vertical Depth
#Other Information
#
#WARRANTY: Halliburton will use its best efforts to furnish customers with 
#accurate information and interpretations that are part of, and incident to, the services 
#provided.  However, Halliburton cannot and does not warrant the accuracy 
#or correctness of such information and interpretations.  Under no circumstances should any 
#such information or interpretation be relied upon as the sole basis for any drilling, 
#completion, production, or financial decision or any procedure involving any risk to the 
#safety of any drilling venture, drilling rig or its crew or any other third party.  The 
#Customer has full responsibility for all drilling, completion and production operation.  
#Halliburton makes no representations or warranties, either expressed or 
#implied, including, but not limited to, the implied warranties of merchantability or fitness 
#for a particular purpose, with respect to the services rendered.  In no event will 
#Halliburton be liable for failure to obtain any particular results or for 
#any damages, including, but not limited to, indirect, special or consequential damages, 
#resulting from the use of any information or interpretation provided by Halliburton.
#
~A           TIME           GTDEPTH  GTPQH  GTTQ  GTTN  GTET   GTTVD  
# ...
   19:44:14.523.03-May-2020 4608.48 4148.99 79.12 3.00 345.04 2489.14
   19:44:14.723.03-May-2020 4608.48 4148.99 79.12 3.00 345.24 2489.14
   19:44:14.923.03-May-2020 4608.48 4148.77 79.12 3.00 345.44 2489.14
   19:44:15.123.03-May-2020 4608.48 4148.60 79.12 3.00 345.64 2489.14
   19:44:15.323.03-May-2020 4608.48 4148.48 79.12 3.00 345.84 2489.14
   19:44:15.523.03-May-2020 4608.48 4148.12 79.12 3.00 346.04 2489.14
   19:44:15.723.03-May-2020 4608.48 4149.03 79.12 3.00 346.24 2489.14
   19:44:15.923.03-May-2020 4608.48 4148.87 79.12 3.00 346.44 2489.14
   19:44:16.123.03-May-2020 4608.48 4148.72 79.12 3.00 346.64 2489.14
   19:44:16.323.03-May-2020 4608.48 4148.73 79.12 3.00 346.84 2489.14
   19:44:16.523.03-May-2020 4608.48 4148.49 79.12 3.00 347.04 2489.14
   19:44:16.723.03-May-2020 4608.48 4148.49 79.12 3.00 347.24 2489.14
   19:44:16.923.03-May-2020 4608.48 4148.75 79.11 3.00 347.44 2489.14
   19:44:17.123.03-May-2020 4608.48 4148.85 79.11 3.00 347.64 2489.14
   19:44:17.323.03-May-2020 4608.48 4148.67 79.11 3.00 347.84 2489.14
   19:44:17.523.03-May-2020 4608.48 4148.64 79.11 3.00 348.04 2489.14
   19:44:17.723.03-May-2020 4608.48 4148.64 79.11 3.00 348.24 2489.14
   19:44:17.923.03-May-2020 4608.48 4148.55 79.11 3.00 348.44 2489.14
   19:44:18.123.03-May-2020 4608.48 4148.64 79.11 3.00 348.64 2489.14
   19:44:18.323.03-May-2020 4608.48 4148.72 79.11 3.00 348.84 2489.14
   19:44:18.523.03-May-2020 4608.48 4148.69 79.11 3.00 349.04 2489.14
   19:44:18.723.03-May-2020 4608.48 4148.69 79.11 3.00 349.24 2489.14
   19:44:18.923.03-May-2020 4608.48 4148.56 79.10 3.00 349.44 2489.14
   19:44:19.123.03-May-2020 4608.48 4148.60 79.10 3.00 349.64 2489.14
   19:44:19.323.03-May-2020 4608.48 4148.64 79.10 3.00 349.84 2489.14
   19:44:19.523.03-May-2020 4608.48 4148.57 79.10 3.00 350.04 2489.14
   19:44:19.724.03-May-2020 4608.48 4148.61 79.10 3.00 350.24 2489.14
   19:44:19.924.03-May-2020 4608.48 4149.00 79.10 3.00 350.44 2489.14
   19:44:20.124.03-May-2020 4608.48 4148.13 79.10 3.00 350.64 2489.14
   19:44:20.324.03-May-2020 4608.48 4148.60 79.10 3.00 350.84 2489.14
   19:44:20.524.03-May-2020 4608.48 4148.78 79.10 3.00 351.04 2489.14
   19:44:20.724.03-May-2020 4608.48 4148.78 79.10 3.00 351.24 2489.14
   19:44:20.924.03-May-2020 4608.48 4148.52 79.10 3.00 351.44 2489.14
   19:44:21.124.03-May-2020 4608.48 4148.58 79.10 3.00 351.64 2489.14
   19:44:21.324.03-May-2020 4608.48 4148.56 79.09 3.00 351.84 2489.14
   19:44:21.524.03-May-2020 4608.48 4148.61 79.09 3.00 352.04 2489.14
   19:44:21.724.03-May-2020 4608.48 4148.61 79.09 3.00 352.24 2489.14
   19:44:21.924.03-May-2020 4608.48 4148.57 79.09 3.00 352.44 2489.14
   19:44:22.124.03-May-2020 4608.48 4148.59 79.09 3.00 352.64 2489.14
   19:44:22.324.03-May-2020 4608.48 4148.52 79.09 3.00 352.84 2489.14
   19:44:22.524.03-May-2020 4608.48 4148.90 79.09 3.00 353.04 2489.14
   19:44:22.724.03-May-2020 4608.48 4148.90 79.09 3.00 353.24 2489.14
   19:44:22.924.03-May-2020 4608.48 4148.66 79.09 3.00 353.44 2489.14
   19:44:23.124.03-May-2020 4608.48 4148.36 79.09 3.00 353.64 2489.14
   19:44:23.324.03-May-2020 4608.48 4149.12 79.09 3.00 353.84 2489.14
   19:44:23.524.03-May-2020 4608.48 4148.69 79.08 3.00 354.04 2489.14
   19:44:23.724.03-May-2020 4608.48 4148.69 79.08 3.00 354.24 2489.14
   19:44:23.924.03-May-2020 4608.48 4148.06 79.08 3.00 354.44 2489.14
   19:44:24.124.03-May-2020 4608.48 4148.63 79.08 3.00 354.64 2489.14
   19:44:24.324.03-May-2020 4608.48 4148.79 79.08 3.00 354.84 2489.14
   19:44:24.524.03-May-2020 4608.48 4149.06 79.08 3.00 355.04 2489.14
   19:44:24.724.03-May-2020 4608.48 4149.06 79.08 3.00 355.24 2489.14
   19:44:24.924.03-May-2020 4608.48 4148.50 79.08 3.00 355.44 2489.14
   19:44:25.124.03-May-2020 4608.48 4148.59 79.08 3.00 355.64 2489.14
   19:44:25.324.03-May-2020 4608.48 4148.73 79.08 3.00 355.84 2489.14
   19:44:25.524.03-May-2020 4608.48 4148.34 79.08 3.00 356.04 2489.14
   19:44:25.724.03-May-2020 4608.48 4148.34 79.08 3.00 356.24 2489.14
   19:44:25.924.03-May-2020 4608.48 4148.79 79.07 3.00 356.44 2489.14
   19:44:26.124.03-May-2020 4608.48 4148.68 79.07 3.00 356.64 2489.14
   19:44:26.324.03-May-2020 4608.48 4148.61 79.07 3.00 356.84 2489.14
   19:44:26.524.03-May-2020 4608.48 4148.57 79.07 3.00 357.04 2489.14
   19:44:26.724.03-May-2020 4608.48 4148.57 79.07 3.00 357.24 2489.14
   19:44:26.924.03-May-2020 4608.48 4148.73 79.07 3.00 357.44 2489.14
   19:44:27.124.03-May-2020 4608.48 4148.68 79.07 3.00 357.64 2489.14
   19:44:27.324.03-May-2020 4608.48 4148.60 79.07 3.00 357.84 2489.14
   19:44:27.524.03-May-2020 4608.48 4148.60 79.07 3.00 358.04 2489.14
   19:44:27.724.03-May-2020 4608.48 4148.57 79.07 3.00 358.24 2489.14
   19:44:27.924.03-May-2020 4608.48 4148.62 79.07 3.00 358.44 2489.14
   19:44:28.124.03-May-2020 4608.48 4148.61 79.06 3.00 358.64 2489.14
   19:44:28.324.03-May-2020 4608.48 4148.76 79.06 3.00 358.84 2489.14
   19:44:28.524.03-May-2020 4608.48 4148.61 79.06 3.00 359.04 2489.14
   19:44:28.724.03-May-2020 4608.48 4148.61 79.06 3.00 359.24 2489.14
   19:44:28.924.03-May-2020 4608.48 4148.67 79.06 3.00 359.44 2489.14
   19:44:29.125.03-May-2020 4608.48 4148.78 79.06 3.00 359.64 2489.14
   19:44:29.325.03-May-2020 4608.48 4148.54 79.06 3.00 359.84 2489.14
   19:44:29.525.03-May-2020 4608.48 4148.60 79.06 3.00 360.04 2489.14
   19:44:29.725.03-May-2020 4608.48 4148.60 79.06 3.00 360.24 2489.14
   19:44:29.925.03-May-2020 4608.48 4148.56 79.06 3.00 360.44 2489.14
   19:44:30.125.03-May-2020 4608.48 4148.62 79.06 3.00 360.64 2489.14
   19:44:30.325.03-May-2020 4608.48 4148.61 79.06 3.00 360.84 2489.14
   19:44:30.525.03-May-2020 4608.48 4148.57 79.05 3.00 361.04 2489.14
   19:44:30.725.03-May-2020 4608.48 4148.57 79.05 3.00 361.24 2489.14
   19:44:30.925.03-May-2020 4608.48 4148.63 79.05 3.00 361.44 2489.14
   19:44:31.125.03-May-2020 4608.48 4148.63 79.05 3.00 361.64 2489.14
   19:44:31.325.03-May-2020 4608.48 4148.88 79.05 3.00 361.84 2489.14
   19:44:31.525.03-May-2020 4608.48 4148.21 79.05 3.00 362.04 2489.14
   19:44:31.725.03-May-2020 4608.48 4148.85 79.05 3.00 362.24 2489.14
   19:44:31.925.03-May-2020 4608.48 4148.72 79.05 3.00 362.44 2489.14
   19:44:32.125.03-May-2020 4608.48 4148.73 79.05 3.00 362.64 2489.14
   19:44:32.325.03-May-2020 4608.48 4148.48 79.05 3.00 362.84 2489.14
   19:44:32.525.03-May-2020 4608.48 4148.54 79.05 3.00 363.04 2489.14
   19:44:32.725.03-May-2020 4608.48 4148.56 79.04 3.00 363.24 2489.14
   19:44:32.925.03-May-2020 4608.48 4149.14 79.04 3.00 363.44 2489.14
   19:44:33.125.03-May-2020 4608.48 4148.64 79.04 3.00 363.64 2489.14
   19:44:33.325.03-May-2020 4608.48 4148.52 79.04 3.00 363.84 2489.14
   19:44:33.525.03-May-2020 4608.48 4150.75 79.04 3.00 364.04 2489.14
   19:44:33.725.03-May-2020 4608.48 4150.75 79.04 3.00 364.24 2489.14
   19:44:33.925.03-May-2020 4608.48 4098.75 79.04 3.00 364.44 2489.14
   19:44:34.125.03-May-2020 4608.48 4041.40 79.04 3.00 364.64 2489.14
   19:44:34.325.03-May-2020 4608.48 4067.04 79.04 3.00 364.84 2489.14
   19:44:34.525.03-May-2020 4608.48 5114.50 79.04 3.00 365.04 2489.14
   19:44:34.725.03-May-2020 4608.48 5114.50 79.04 3.00 365.24 2489.14
   19:44:34.925.03-May-2020 4608.48 5785.01 79.04 3.00 365.44 2489.14
   19:44:35.125.03-May-2020 4608.48 5785.51 79.03 3.00 365.64 2489.14
   19:44:35.325.03-May-2020 4608.48 5785.41 79.03 3.00 365.84 2489.14
   19:44:35.525.03-May-2020 4608.48 5786.11 79.03 3.00 366.04 2489.14
   19:44:35.725.03-May-2020 4608.48 5785.89 79.03 3.00 366.24 2489.14
   19:44:35.925.03-May-2020 4608.48 5787.07 79.03 3.00 366.44 2489.14
   19:44:36.125.03-May-2020 4608.48 5786.31 79.03 3.00 366.64 2489.14
   19:44:36.325.03-May-2020 4608.48 5787.22 79.03 3.00 366.84 2489.14
   19:44:36.525.03-May-2020 4608.48 5793.60 79.03 3.00 367.04 2489.14
   19:44:36.725.03-May-2020 4608.48 5793.60 79.03 3.00 367.24 2489.14
   19:44:36.925.03-May-2020 4608.48 5788.17 79.04 3.00 367.44 2489.14
   19:44:37.125.03-May-2020 4608.48 5788.44 79.04 3.00 367.64 2489.14
   19:44:37.325.03-May-2020 4608.48 5788.65 79.04 3.00 367.84 2489.14
