~Version Information
 VERS.                  2.0:   CWLS log ASCII Standard -VERSION 2.0
 WRAP.                   NO:   One line per depth step
~Well Information Block
#MNEM.UNIT     VALUE/NAME     DESCRIPTION
#---------     -----------    ---------------------------
 STRT.S             19:38:29 03-May-20: START TIME 19:38:29 03-May-20
 STOP.S             19:45:06 03-May-20: STOP TIME  19:45:06 03-May-20
 STEP.S                   0.00: STEP TIME
 NULL.                 -999.25: NULL VALUE
 DFWT.                        :  DIST FWL TEXT
 DFST.                        :  DIST FSL TEXT
 DMF .             Drill Floor:  DRILL MEAS FROM
 STIM.      03.00.00 25-Mar-20:  START TIME
 DATE.      00.00.00 19-May-20:  END TIME
 SPUD.               27-Aug-20:  SPUD DATE
 NREF.                    Grid:  NORTH REFERENCE
 HPTY.       Minimum Curvature:  HOLE POS TYPE
 DMOD.             Drill Model:  DRILL MOD DESC
 SVYD.                  Survey:  SURVEY DESC
 ILTD.               Lithology:  INTERP LTH DESC
 FTOP.          Formation Tops:  FORM TOPS DESC
 SON .        AZ-XX-0906252240:  JOB NUMBER
 RIG .             West Chirag:  RIG NAME
 PDAT.          Mean Sea Level:  PERMANENT DATUM
 FLD .                     ACG:  FIELD NAME
 CTRY.              Azerbaijan:  COUNTRY NAME
 WELL.                     J23:  WELL NAME
 SRVC.          Turan Drilling:  CONTRACTOR
 COMP.     BP Exploration (Caspian Sea) Ltd.:  COMPANY
 WTYP.                Deviated:  WELL TYPE
 MDS .        Operator Entered:  MAG DATA SOURCE
 UWI .                     N/A:  UNIQUE WELL IDENTIFIER
 API .                     N/A:  API NUMBER
 BASE.              Azerbaijan:  LOGGING EQUIPMENT BASE LOCATION
 REGN.                   EESSA:  REGION
 PROV.                    Baku:  PROVINCE
 STAT.                    Baku:  STATE NAME
 MWDS.                     N/A:  MWD SHOP
 JOBN.        AZ-XX-0906252240:  JOB TICKET NUMB
 DOE .                     N/A:  DOE NUMBER
 DCON.         Sperry Drilling:  DIRECTNL CONTR
 UNIT.                     N/A:  LOGGING EQUIPMENT ID
 CNTY.                        :  COUNTY
 LOC .                        :  LOCATION
 LMF .             Drill Floor:  LOG MEASURED FROM
 TVDS.m                  43.00:  TVDSS CORRECTN
 LATI.deg                40.13:  LATITUDE
 LONG.deg                51.22:  LONGITUDE
 WHNS.m                   9.43:  WELL HEAD N/S
 WHEW.m                  -8.91:  WELL HEAD E/W
 UTMX.m              519005.06:  UTM X
 UTMY.m             4443793.85:  UTM Y
 DFWL.m                   0.00:  DISTANCE FWL
 DFSL.m                   0.00:  DISTANCE FSL
 SDEP.m                 363.00:  START DEPTH
 TDD .m                5150.01:  TOTAL DEPTH (DRILLER)
 VSDR.deg               179.88:  VERT SEC DIRECT
 GVFD.g                   1.00:  GRAVITY FIELD
 MFLD.nT              50295.00:  MAGNETIC FIELD
 MDIP.deg                59.56:  MAGNETIC DIP
 MDEC.deg                 6.45:  MAGNETIC DECL
 GRDC.deg                 0.14:  GRID CORRECTION
 AZTC.deg                 6.31:  AZM TOTAL CORR
 EPD .m                   0.00:  ELEVATION
 EGL .m                   0.00:  GROUND ELEVATION
 WDMS.m                 169.80:  WD ELEV
 APD .m                  43.00:  DEPTH ABOVE PD
 DEP .m                 354.17:  DEPTH
 AGAP.m                  43.00:  AIR GAP
 VSEW.m                  -8.91:  VERT SEC E/W
 VSNS.m                   9.43:  VERT SEC N/S
 EKB .m                   0.00:  KB ELEVATION
 EDF .m                  43.00:  DF ELEVATION
 TDL .m                1351.00:  TOTAL DEPTH (LOGGER)
 VSC .                       0:  VS TO CLOSURE
 MAGU.                 1850802:  MAGUTM CHECKSUM
~Parameter Information Block
#MNEM.UNIT       Value        Description
#---------     -----------    ---------------------------
 AV  .mps                 1.00:  Ann Velocity 
 AVMX.mps                 2.40:  Max Ann Veloc 
 AZIF.deg               148.96:  Azm, Final 
 BHAT.        Rotary Steerable:  BHA Type 
 BROT.°/30m               0.04:  Build Rotating 
 BS  .in                 12.25:  Bit Size 
 BSZ .in                 12.25:  Bit Size 
 BTPL.psig              814.00:  Bit Press Loss 
 TCS .hr                106.00:  Time Ciculation Ended 
 CV  .mps                 2.47:  Crit Velocity 
 CVMX.mps                 2.64:  Max Crit Veloc 
 DD1 .          Rashad Habibov:  Direct Drillr 1 
 DD2 .         Rasim Ibrahimov:  Direct Drillr 2 
 DDSV.                 iCruise:  DD Service 
 DEFF.%                 100.00:  % Det Eff 
 DLRX.°/30m               0.70:  Dogleg Rot Max 
 DLSO.°/30m               3.00:  Dogleg Oriented 
 DLSX.°/30m               4.55:  Dogleg Str Max 
 DRET.      08.08.32 02-May-20:  Drill End Time 
 DRST.      08.08.32 28-Apr-20:  Drill Start Tim 
 DTIM.hr                 60.00:  Time Drilling 
 EDEP.m                4761.01:  End Depth 
 ENG1.           Eldar Hajiyev:  Engineer 1 
 ENG2.        Marcelo Sandoval:  Engineer 2 
 ETIM.      23.23.07 05-May-20:  End Time 
 FLOI.gpm              1200.00:  Flow In 
 FLON.gpm               900.00:  Flow In Min 
 FLOS.cptm                0.00:  Fluid Loss 
 FLOX.gpm              1200.00:  Flow In Max 
 HFLO.                      No:  High Flow 
 HPRE.                      No:  High Pressure 
 HTEM.                      No:  High Temp 
 HYDO.m                   1.80:  Hydro Offset 
 IFIN.deg                68.17:  Inc, Final 
 IMAX.deg                74.61:  Inc Max 
 IMIN.deg                68.15:  Inc Min 
 IMND.m                4317.87:  Inc Min Depth 
 IMXD.m                4714.01:  Inc Max Depth 
 LETM.      08.08.32 02-May-20:  Log End Time 
 LOST.hr                     2:  Lost Rig Time 
 LSTM.      08.08.32 28-Apr-20:  Log Start Time 
 MDCL.ppm             41000.00:  Mud Chlorides 
 MDES.     Inversion Oil/Synthetic:  Mud Desc 
 DFD .sg                  1.58:  Mud Density 
 MDMN.sg                  1.58:  Dens Mud Min 
 MDMX.sg                  1.58:  Dens Mud Max 
 MOIL.                      71:  Run Mud Oil % 
 MOWR.                   71:29:  Run Mud OWR 
 MSND.                     0.1:  Run Mud Sand % 
 MSOL.                      23:  Run Mud Solids% 
 DFV .spqt               82.00:  Mud Viscosity 
 MWOD.in                  8.00:  MWD Tool OD 
 MWSI.                     Yes:  Serv Intrp, MWD 
 OTIM.hr                125.00:  Time Operating 
 PMAX.psia             6129.00:  Press Op, Max 
 PV  .cP                 32.00:  Mud PV 
 RUN .                     800:  Run Number 
 ROPA.m/hr               30.00:  ROP Avg 
 ROPN.m/hr               10.00:  ROP Min 
 ROPX.m/hr               40.00:  ROP Max 
 RPMA.rpm               140.00:  RPM Surface Avg 
 RPMN.rpm                80.00:  RPM Surface Min 
 RPMX.rpm               140.00:  RPM Surface Max 
 RRUN.                    L503:  Rig Run Number 
 RTIM.hr                  2.00:  Time Reaming 
 SAZI.deg               184.23:  Azm, Start 
 SDEP.m                3410.01:  Start Depth 
 SIDD.                      No:  Serv Intrp, DD 
 SINC.deg                68.29:  Inc, Start 
 SPPA.psig             6000.00:  SPP Avg 
 SPPN.psig             4000.00:  SPP Min 
 SPPX.psig             6100.00:  SPP Max 
 STIM.      08.08.32 28-Apr-20:  Start Time 
 SVCS.                 DD, MWD:  Services 
 SVER.                    9.20:  Sperry Version 
 TDAT.m                1351.00:  Tot Depth Attmp 
 TDDF.                      No:  Trip for DD 
 TDLG.m                1351.00:  Tot Depth Loggd 
 TFF .                      No:  Trip for Fail 
 TQAA.f-kp               27.00:  Torque Abs Avg 
 TQAN.f-kp               20.00:  Torque Abs Min 
 TQAX.f-kp               30.00:  Torque Abs Max 
 TRRT.°/30m               0.60:  Turn Rotating 
 MRT .                    EWER:  Maximum Recorded Temperature 
 TTMX.degC               83.00:  Max Tool Temp 
 VS01.                90511138:  Virtual Str1 SN 
 VS02.                90524876:  Virtual Str2 SN 
 VS03.                90524872:  Virtual Str3 SN 
 VS04.                90502750:  Virtual Str4 SN 
 VS05.                12330984:  Virtual Str5 SN 
 WBMN.klb                 0.00:  WOB Min 
 WOBA.klb                15.00:  WOB Avg 
 WOBX.klb                20.00:  WOB Max 
 YP  .lhf2               31.00:  Yield Point 
~Curve Information Block
#MNEM.UNIT                 API CODE     Curve Description
#---------               -----------    ---------------------------
 TIME.HHMMSS            00 000 000 000:  GT Time & Date
 GTDEPTH.m              00 000 000 000:  GT Depth
 GTPQH.psia             00 000 000 000:  GT HR Quartz Pressure
 GTTQ.degC              00 000 000 000:  GT Quartz Temperature
 GTTN.NONE              00 000 000 000:  GT Test Number
 GTET.sec               00 000 000 000:  GT Elapsed Test Time
 GTTVD.m                00 000 000 000:  GT True Vertical Depth
#Other Information
#
#WARRANTY: Halliburton will use its best efforts to furnish customers with 
#accurate information and interpretations that are part of, and incident to, the services 
#provided.  However, Halliburton cannot and does not warrant the accuracy 
#or correctness of such information and interpretations.  Under no circumstances should any 
#such information or interpretation be relied upon as the sole basis for any drilling, 
#completion, production, or financial decision or any procedure involving any risk to the 
#safety of any drilling venture, drilling rig or its crew or any other third party.  The 
#Customer has full responsibility for all drilling, completion and production operation.  
#Halliburton makes no representations or warranties, either expressed or 
#implied, including, but not limited to, the implied warranties of merchantability or fitness 
#for a particular purpose, with respect to the services rendered.  In no event will 
#Halliburton be liable for failure to obtain any particular results or for 
#any damages, including, but not limited to, indirect, special or consequential damages, 
#resulting from the use of any information or interpretation provided by Halliburton.
#
~A           TIME           GTDEPTH  GTPQH  GTTQ  GTTN  GTET   GTTVD  
# ...
   19:43:51.520.03-May-2020 4608.48 4149.01 79.22 3.00 322.03 2489.14
   19:43:51.720.03-May-2020 4608.48 4148.61 79.22 3.00 322.23 2489.14
   19:43:51.921.03-May-2020 4608.48 4148.55 79.22 3.00 322.43 2489.14
   19:43:52.121.03-May-2020 4608.48 4148.51 79.22 3.00 322.63 2489.14
   19:43:52.321.03-May-2020 4608.48 4148.91 79.22 3.00 322.83 2489.14
   19:43:52.521.03-May-2020 4608.48 4148.27 79.22 3.00 323.03 2489.14
   19:43:52.721.03-May-2020 4608.48 4148.27 79.22 3.00 323.23 2489.14
   19:43:52.921.03-May-2020 4608.48 4148.81 79.22 3.00 323.43 2489.14
   19:43:53.121.03-May-2020 4608.48 4148.65 79.22 3.00 323.63 2489.14
   19:43:53.321.03-May-2020 4608.48 4148.49 79.21 3.00 323.83 2489.14
   19:43:53.521.03-May-2020 4608.48 4148.60 79.21 3.00 324.03 2489.14
   19:43:53.721.03-May-2020 4608.48 4148.60 79.21 3.00 324.23 2489.14
   19:43:53.921.03-May-2020 4608.48 4148.66 79.21 3.00 324.43 2489.14
   19:43:54.121.03-May-2020 4608.48 4148.64 79.21 3.00 324.63 2489.14
   19:43:54.321.03-May-2020 4608.48 4148.59 79.21 3.00 324.84 2489.14
   19:43:54.521.03-May-2020 4608.48 4148.59 79.21 3.00 325.04 2489.14
   19:43:54.721.03-May-2020 4608.48 4148.54 79.21 3.00 325.24 2489.14
   19:43:54.921.03-May-2020 4608.48 4148.60 79.21 3.00 325.44 2489.14
   19:43:55.121.03-May-2020 4608.48 4148.83 79.21 3.00 325.64 2489.14
   19:43:55.321.03-May-2020 4608.48 4148.56 79.21 3.00 325.84 2489.14
   19:43:55.521.03-May-2020 4608.48 4148.52 79.21 3.00 326.04 2489.14
   19:43:55.721.03-May-2020 4608.48 4148.54 79.20 3.00 326.24 2489.14
   19:43:55.921.03-May-2020 4608.48 4148.58 79.20 3.00 326.44 2489.14
   19:43:56.121.03-May-2020 4608.48 4148.65 79.20 3.00 326.64 2489.14
   19:43:56.321.03-May-2020 4608.48 4148.63 79.20 3.00 326.84 2489.14
   19:43:56.521.03-May-2020 4608.48 4148.60 79.20 3.00 327.04 2489.14
   19:43:56.721.03-May-2020 4608.48 4148.60 79.20 3.00 327.24 2489.14
   19:43:56.921.03-May-2020 4608.48 4148.52 79.20 3.00 327.44 2489.14
   19:43:57.121.03-May-2020 4608.48 4148.56 79.20 3.00 327.64 2489.14
   19:43:57.321.03-May-2020 4608.48 4148.57 79.20 3.00 327.84 2489.14
   19:43:57.521.03-May-2020 4608.48 4148.59 79.20 3.00 328.04 2489.14
   19:43:57.721.03-May-2020 4608.48 4148.75 79.20 3.00 328.24 2489.14
   19:43:57.921.03-May-2020 4608.48 4148.52 79.19 3.00 328.44 2489.14
   19:43:58.121.03-May-2020 4608.48 4148.55 79.19 3.00 328.64 2489.14
   19:43:58.321.03-May-2020 4608.48 4148.62 79.19 3.00 328.84 2489.14
   19:43:58.521.03-May-2020 4608.48 4148.62 79.19 3.00 329.04 2489.14
   19:43:58.721.03-May-2020 4608.48 4148.62 79.19 3.00 329.24 2489.14
   19:43:58.921.03-May-2020 4608.48 4148.82 79.19 3.00 329.44 2489.14
   19:43:59.121.03-May-2020 4608.48 4148.68 79.19 3.00 329.64 2489.14
   19:43:59.321.03-May-2020 4608.48 4148.47 79.19 3.00 329.84 2489.14
   19:43:59.521.03-May-2020 4608.48 4148.54 79.19 3.00 330.04 2489.14
   19:43:59.721.03-May-2020 4608.48 4148.18 79.19 3.00 330.24 2489.14
   19:43:59.921.03-May-2020 4608.48 4149.19 79.19 3.00 330.44 2489.14
   19:44:00.121.03-May-2020 4608.48 4148.81 79.19 3.00 330.64 2489.14
   19:44:00.321.03-May-2020 4608.48 4148.73 79.18 3.00 330.84 2489.14
   19:44:00.521.03-May-2020 4608.48 4148.57 79.18 3.00 331.04 2489.14
   19:44:00.721.03-May-2020 4608.48 4148.57 79.18 3.00 331.24 2489.14
   19:44:00.921.03-May-2020 4608.48 4148.59 79.18 3.00 331.44 2489.14
   19:44:01.121.03-May-2020 4608.48 4148.67 79.18 3.00 331.64 2489.14
   19:44:01.322.03-May-2020 4608.48 4148.70 79.18 3.00 331.84 2489.14
   19:44:01.522.03-May-2020 4608.48 4148.74 79.18 3.00 332.04 2489.14
   19:44:01.722.03-May-2020 4608.48 4148.74 79.18 3.00 332.24 2489.14
   19:44:01.922.03-May-2020 4608.48 4148.63 79.18 3.00 332.44 2489.14
   19:44:02.122.03-May-2020 4608.48 4148.56 79.18 3.00 332.64 2489.14
   19:44:02.322.03-May-2020 4608.48 4148.64 79.18 3.00 332.84 2489.14
   19:44:02.522.03-May-2020 4608.48 4148.64 79.18 3.00 333.04 2489.14
   19:44:02.722.03-May-2020 4608.48 4148.64 79.18 3.00 333.24 2489.14
   19:44:02.922.03-May-2020 4608.48 4148.60 79.17 3.00 333.44 2489.14
   19:44:03.122.03-May-2020 4608.48 4148.60 79.17 3.00 333.64 2489.14
   19:44:03.322.03-May-2020 4608.48 4148.56 79.17 3.00 333.84 2489.14
   19:44:03.522.03-May-2020 4608.48 4148.77 79.17 3.00 334.04 2489.14
   19:44:03.722.03-May-2020 4608.48 4148.77 79.17 3.00 334.24 2489.14
   19:44:03.922.03-May-2020 4608.48 4148.60 79.17 3.00 334.44 2489.14
   19:44:04.122.03-May-2020 4608.48 4148.51 79.17 3.00 334.64 2489.14
   19:44:04.322.03-May-2020 4608.48 4148.59 79.17 3.00 334.84 2489.14
   19:44:04.522.03-May-2020 4608.48 4148.65 79.17 3.00 335.04 2489.14
   19:44:04.722.03-May-2020 4608.48 4148.65 79.17 3.00 335.24 2489.14
   19:44:04.922.03-May-2020 4608.48 4148.67 79.16 3.00 335.44 2489.14
   19:44:05.122.03-May-2020 4608.48 4148.54 79.16 3.00 335.64 2489.14
   19:44:05.322.03-May-2020 4608.48 4148.56 79.16 3.00 335.84 2489.14
   19:44:05.522.03-May-2020 4608.48 4148.58 79.16 3.00 336.04 2489.14
   19:44:05.722.03-May-2020 4608.48 4148.58 79.16 3.00 336.24 2489.14
   19:44:05.922.03-May-2020 4608.48 4148.57 79.16 3.00 336.44 2489.14
   19:44:06.122.03-May-2020 4608.48 4148.67 79.16 3.00 336.64 2489.14
   19:44:06.322.03-May-2020 4608.48 4148.69 79.16 3.00 336.84 2489.14
   19:44:06.522.03-May-2020 4608.48 4148.79 79.16 3.00 337.04 2489.14
   19:44:06.722.03-May-2020 4608.48 4148.79 79.16 3.00 337.24 2489.14
   19:44:06.922.03-May-2020 4608.48 4148.55 79.16 3.00 337.44 2489.14
   19:44:07.122.03-May-2020 4608.48 4148.59 79.16 3.00 337.64 2489.14
   19:44:07.322.03-May-2020 4608.48 4148.85 79.15 3.00 337.84 2489.14
   19:44:07.522.03-May-2020 4608.48 4148.76 79.15 3.00 338.04 2489.14
   19:44:07.722.03-May-2020 4608.48 4148.53 79.15 3.00 338.24 2489.14
   19:44:07.922.03-May-2020 4608.48 4148.80 79.15 3.00 338.44 2489.14
   19:44:08.122.03-May-2020 4608.48 4148.22 79.15 3.00 338.64 2489.14
   19:44:08.322.03-May-2020 4608.48 4148.68 79.15 3.00 338.84 2489.14
   19:44:08.522.03-May-2020 4608.48 4148.88 79.15 3.00 339.04 2489.14
   19:44:08.722.03-May-2020 4608.48 4148.88 79.15 3.00 339.24 2489.14
   19:44:08.922.03-May-2020 4608.48 4148.70 79.15 3.00 339.44 2489.14
   19:44:09.122.03-May-2020 4608.48 4148.41 79.15 3.00 339.64 2489.14
   19:44:09.322.03-May-2020 4608.48 4148.57 79.15 3.00 339.84 2489.14
   19:44:09.522.03-May-2020 4608.48 4148.61 79.14 3.00 340.04 2489.14
   19:44:09.722.03-May-2020 4608.48 4148.61 79.14 3.00 340.24 2489.14
   19:44:09.922.03-May-2020 4608.48 4148.68 79.14 3.00 340.44 2489.14
   19:44:10.122.03-May-2020 4608.48 4148.65 79.14 3.00 340.64 2489.14
   19:44:10.322.03-May-2020 4608.48 4148.60 79.14 3.00 340.84 2489.14
   19:44:10.523.03-May-2020 4608.48 4148.61 79.14 3.00 341.04 2489.14
   19:44:10.723.03-May-2020 4608.48 4148.61 79.14 3.00 341.24 2489.14
   19:44:10.923.03-May-2020 4608.48 4148.63 79.14 3.00 341.44 2489.14
   19:44:11.123.03-May-2020 4608.48 4148.64 79.14 3.00 341.64 2489.14
   19:44:11.323.03-May-2020 4608.48 4148.58 79.14 3.00 341.84 2489.14
   19:44:11.523.03-May-2020 4608.48 4148.58 79.14 3.00 342.04 2489.14
   19:44:11.723.03-May-2020 4608.48 4148.29 79.14 3.00 342.24 2489.14
   19:44:11.923.03-May-2020 4608.48 4148.93 79.13 3.00 342.44 2489.14
   19:44:12.123.03-May-2020 4608.48 4148.74 79.13 3.00 342.64 2489.14
   19:44:12.323.03-May-2020 4608.48 4148.71 79.13 3.00 342.84 2489.14
   19:44:12.523.03-May-2020 4608.48 4148.57 79.13 3.00 343.04 2489.14
   19:44:12.723.03-May-2020 4608.48 4148.57 79.13 3.00 343.24 2489.14
   19:44:12.923.03-May-2020 4608.48 4148.61 79.13 3.00 343.44 2489.14
   19:44:13.123.03-May-2020 4608.48 4148.67 79.13 3.00 343.64 2489.14
   19:44:13.323.03-May-2020 4608.48 4148.65 79.13 3.00 343.84 2489.14
   19:44:13.523.03-May-2020 4608.48 4148.55 79.13 3.00 344.04 2489.14
   19:44:13.723.03-May-2020 4608.48 4148.55 79.13 3.00 344.24 2489.14
   19:44:13.923.03-May-2020 4608.48 4148.55 79.13 3.00 344.44 2489.14
   19:44:14.123.03-May-2020 4608.48 4148.59 79.13 3.00 344.64 2489.14
   19:44:14.323.03-May-2020 4608.48 4148.21 79.12 3.00 344.84 2489.14
