~Version Information
 VERS.                  2.0:   CWLS log ASCII Standard -VERSION 2.0
 WRAP.                   NO:   One line per depth step
~Well Information Block
#MNEM.UNIT     VALUE/NAME     DESCRIPTION
#---------     -----------    ---------------------------
 STRT.S             01:13:00 04-May-20: START TIME 01:13:00 04-May-20
 STOP.S             01:19:30 04-May-20: STOP TIME  01:19:30 04-May-20
 STEP.S                   0.00: STEP TIME
 NULL.                 -999.25: NULL VALUE
 DFWT.                        :  DIST FWL TEXT
 DFST.                        :  DIST FSL TEXT
 DMF .             Drill Floor:  DRILL MEAS FROM
 STIM.      03.00.00 25-Mar-20:  START TIME
 DATE.      00.00.00 19-May-20:  END TIME
 SPUD.               27-Aug-20:  SPUD DATE
 NREF.                    Grid:  NORTH REFERENCE
 HPTY.       Minimum Curvature:  HOLE POS TYPE
 DMOD.             Drill Model:  DRILL MOD DESC
 SVYD.                  Survey:  SURVEY DESC
 ILTD.               Lithology:  INTERP LTH DESC
 FTOP.          Formation Tops:  FORM TOPS DESC
 SON .        AZ-XX-0906252240:  JOB NUMBER
 RIG .             West Chirag:  RIG NAME
 PDAT.          Mean Sea Level:  PERMANENT DATUM
 FLD .                     ACG:  FIELD NAME
 CTRY.              Azerbaijan:  COUNTRY NAME
 WELL.                     J23:  WELL NAME
 SRVC.          Turan Drilling:  CONTRACTOR
 COMP.     BP Exploration (Caspian Sea) Ltd.:  COMPANY
 WTYP.                Deviated:  WELL TYPE
 MDS .        Operator Entered:  MAG DATA SOURCE
 UWI .                     N/A:  UNIQUE WELL IDENTIFIER
 API .                     N/A:  API NUMBER
 BASE.              Azerbaijan:  LOGGING EQUIPMENT BASE LOCATION
 REGN.                   EESSA:  REGION
 PROV.                    Baku:  PROVINCE
 STAT.                    Baku:  STATE NAME
 MWDS.                     N/A:  MWD SHOP
 JOBN.        AZ-XX-0906252240:  JOB TICKET NUMB
 DOE .                     N/A:  DOE NUMBER
 DCON.         Sperry Drilling:  DIRECTNL CONTR
 UNIT.                     N/A:  LOGGING EQUIPMENT ID
 CNTY.                        :  COUNTY
 LOC .                        :  LOCATION
 LMF .             Drill Floor:  LOG MEASURED FROM
 TVDS.m                  43.00:  TVDSS CORRECTN
 LATI.deg                40.13:  LATITUDE
 LONG.deg                51.22:  LONGITUDE
 WHNS.m                   9.43:  WELL HEAD N/S
 WHEW.m                  -8.91:  WELL HEAD E/W
 UTMX.m              519005.06:  UTM X
 UTMY.m             4443793.85:  UTM Y
 DFWL.m                   0.00:  DISTANCE FWL
 DFSL.m                   0.00:  DISTANCE FSL
 SDEP.m                 363.00:  START DEPTH
 TDD .m                5150.01:  TOTAL DEPTH (DRILLER)
 VSDR.deg               179.88:  VERT SEC DIRECT
 GVFD.g                   1.00:  GRAVITY FIELD
 MFLD.nT              50295.00:  MAGNETIC FIELD
 MDIP.deg                59.56:  MAGNETIC DIP
 MDEC.deg                 6.45:  MAGNETIC DECL
 GRDC.deg                 0.14:  GRID CORRECTION
 AZTC.deg                 6.31:  AZM TOTAL CORR
 EPD .m                   0.00:  ELEVATION
 EGL .m                   0.00:  GROUND ELEVATION
 WDMS.m                 169.80:  WD ELEV
 APD .m                  43.00:  DEPTH ABOVE PD
 DEP .m                 354.17:  DEPTH
 AGAP.m                  43.00:  AIR GAP
 VSEW.m                  -8.91:  VERT SEC E/W
 VSNS.m                   9.43:  VERT SEC N/S
 EKB .m                   0.00:  KB ELEVATION
 EDF .m                  43.00:  DF ELEVATION
 TDL .m                1351.00:  TOTAL DEPTH (LOGGER)
 VSC .                       0:  VS TO CLOSURE
 MAGU.                 1850802:  MAGUTM CHECKSUM
~Parameter Information Block
#MNEM.UNIT       Value        Description
#---------     -----------    ---------------------------
 AV  .mps                 1.00:  Ann Velocity 
 AVMX.mps                 2.40:  Max Ann Veloc 
 AZIF.deg               148.96:  Azm, Final 
 BHAT.        Rotary Steerable:  BHA Type 
 BROT.°/30m               0.04:  Build Rotating 
 BS  .in                 12.25:  Bit Size 
 BSZ .in                 12.25:  Bit Size 
 BTPL.psig              814.00:  Bit Press Loss 
 TCS .hr                106.00:  Time Ciculation Ended 
 CV  .mps                 2.47:  Crit Velocity 
 CVMX.mps                 2.64:  Max Crit Veloc 
 DD1 .          Rashad Habibov:  Direct Drillr 1 
 DD2 .         Rasim Ibrahimov:  Direct Drillr 2 
 DDSV.                 iCruise:  DD Service 
 DEFF.%                 100.00:  % Det Eff 
 DLRX.°/30m               0.70:  Dogleg Rot Max 
 DLSO.°/30m               3.00:  Dogleg Oriented 
 DLSX.°/30m               4.55:  Dogleg Str Max 
 DRET.      08.08.32 02-May-20:  Drill End Time 
 DRST.      08.08.32 28-Apr-20:  Drill Start Tim 
 DTIM.hr                 60.00:  Time Drilling 
 EDEP.m                4761.01:  End Depth 
 ENG1.           Eldar Hajiyev:  Engineer 1 
 ENG2.        Marcelo Sandoval:  Engineer 2 
 ETIM.      23.23.07 05-May-20:  End Time 
 FLOI.gpm              1200.00:  Flow In 
 FLON.gpm               900.00:  Flow In Min 
 FLOS.cptm                0.00:  Fluid Loss 
 FLOX.gpm              1200.00:  Flow In Max 
 HFLO.                      No:  High Flow 
 HPRE.                      No:  High Pressure 
 HTEM.                      No:  High Temp 
 HYDO.m                   1.80:  Hydro Offset 
 IFIN.deg                68.17:  Inc, Final 
 IMAX.deg                74.61:  Inc Max 
 IMIN.deg                68.15:  Inc Min 
 IMND.m                4317.87:  Inc Min Depth 
 IMXD.m                4714.01:  Inc Max Depth 
 LETM.      08.08.32 02-May-20:  Log End Time 
 LOST.hr                     2:  Lost Rig Time 
 LSTM.      08.08.32 28-Apr-20:  Log Start Time 
 MDCL.ppm             41000.00:  Mud Chlorides 
 MDES.     Inversion Oil/Synthetic:  Mud Desc 
 DFD .sg                  1.58:  Mud Density 
 MDMN.sg                  1.58:  Dens Mud Min 
 MDMX.sg                  1.58:  Dens Mud Max 
 MOIL.                      71:  Run Mud Oil % 
 MOWR.                   71:29:  Run Mud OWR 
 MSND.                     0.1:  Run Mud Sand % 
 MSOL.                      23:  Run Mud Solids% 
 DFV .spqt               82.00:  Mud Viscosity 
 MWOD.in                  8.00:  MWD Tool OD 
 MWSI.                     Yes:  Serv Intrp, MWD 
 OTIM.hr                125.00:  Time Operating 
 PMAX.psia             6129.00:  Press Op, Max 
 PV  .cP                 32.00:  Mud PV 
 RUN .                     800:  Run Number 
 ROPA.m/hr               30.00:  ROP Avg 
 ROPN.m/hr               10.00:  ROP Min 
 ROPX.m/hr               40.00:  ROP Max 
 RPMA.rpm               140.00:  RPM Surface Avg 
 RPMN.rpm                80.00:  RPM Surface Min 
 RPMX.rpm               140.00:  RPM Surface Max 
 RRUN.                    L503:  Rig Run Number 
 RTIM.hr                  2.00:  Time Reaming 
 SAZI.deg               184.23:  Azm, Start 
 SDEP.m                3410.01:  Start Depth 
 SIDD.                      No:  Serv Intrp, DD 
 SINC.deg                68.29:  Inc, Start 
 SPPA.psig             6000.00:  SPP Avg 
 SPPN.psig             4000.00:  SPP Min 
 SPPX.psig             6100.00:  SPP Max 
 STIM.      08.08.32 28-Apr-20:  Start Time 
 SVCS.                 DD, MWD:  Services 
 SVER.                    9.20:  Sperry Version 
 TDAT.m                1351.00:  Tot Depth Attmp 
 TDDF.                      No:  Trip for DD 
 TDLG.m                1351.00:  Tot Depth Loggd 
 TFF .                      No:  Trip for Fail 
 TQAA.f-kp               27.00:  Torque Abs Avg 
 TQAN.f-kp               20.00:  Torque Abs Min 
 TQAX.f-kp               30.00:  Torque Abs Max 
 TRRT.°/30m               0.60:  Turn Rotating 
 MRT .                    EWER:  Maximum Recorded Temperature 
 TTMX.degC               83.00:  Max Tool Temp 
 VS01.                90511138:  Virtual Str1 SN 
 VS02.                90524876:  Virtual Str2 SN 
 VS03.                90524872:  Virtual Str3 SN 
 VS04.                90502750:  Virtual Str4 SN 
 VS05.                12330984:  Virtual Str5 SN 
 WBMN.klb                 0.00:  WOB Min 
 WOBA.klb                15.00:  WOB Avg 
 WOBX.klb                20.00:  WOB Max 
 YP  .lhf2               31.00:  Yield Point 
~Curve Information Block
#MNEM.UNIT                 API CODE     Curve Description
#---------               -----------    ---------------------------
 TIME.HHMMSS            00 000 000 000:  GT Time & Date
 GTDEPTH.m              00 000 000 000:  GT Depth
 GTPQH.psia             00 000 000 000:  GT HR Quartz Pressure
 GTTQ.degC              00 000 000 000:  GT Quartz Temperature
 GTTN.NONE              00 000 000 000:  GT Test Number
 GTET.sec               00 000 000 000:  GT Elapsed Test Time
 GTTVD.m                00 000 000 000:  GT True Vertical Depth
#Other Information
#
#WARRANTY: Halliburton will use its best efforts to furnish customers with 
#accurate information and interpretations that are part of, and incident to, the services 
#provided.  However, Halliburton cannot and does not warrant the accuracy 
#or correctness of such information and interpretations.  Under no circumstances should any 
#such information or interpretation be relied upon as the sole basis for any drilling, 
#completion, production, or financial decision or any procedure involving any risk to the 
#safety of any drilling venture, drilling rig or its crew or any other third party.  The 
#Customer has full responsibility for all drilling, completion and production operation.  
#Halliburton makes no representations or warranties, either expressed or 
#implied, including, but not limited to, the implied warranties of merchantability or fitness 
#for a particular purpose, with respect to the services rendered.  In no event will 
#Halliburton be liable for failure to obtain any particular results or for 
#any damages, including, but not limited to, indirect, special or consequential damages, 
#resulting from the use of any information or interpretation provided by Halliburton.
#
~A           TIME           GTDEPTH  GTPQH  GTTQ  GTTN  GTET   GTTVD  
# ...
   01:19:08.563.04-May-2020 4660.50 5804.96 75.73 5.00 368.03 2503.99
   01:19:08.763.04-May-2020 4660.50 5804.96 75.73 5.00 368.23 2503.99
   01:19:08.963.04-May-2020 4660.50 5805.38 75.74 5.00 368.43 2503.99
   01:19:09.163.04-May-2020 4660.50 5805.29 75.74 5.00 368.63 2503.99
   01:19:09.363.04-May-2020 4660.50 5806.13 75.74 5.00 368.83 2503.99
   01:19:09.563.04-May-2020 4660.50 5806.87 75.75 5.00 369.03 2503.99
   01:19:09.763.04-May-2020 4660.50 5806.87 75.75 5.00 369.23 2503.99
   01:19:09.963.04-May-2020 4660.50 5807.08 75.75 5.00 369.43 2503.99
   01:19:10.163.04-May-2020 4660.50 5807.00 75.75 5.00 369.63 2503.99
   01:19:10.363.04-May-2020 4660.50 5807.43 75.76 5.00 369.83 2503.99
   01:19:10.563.04-May-2020 4660.50 5808.08 75.76 5.00 370.03 2503.99
   01:19:10.763.04-May-2020 4660.50 5808.08 75.76 5.00 370.23 2503.99
   01:19:10.963.04-May-2020 4660.50 5807.50 75.77 5.00 370.43 2503.99
   01:19:11.163.04-May-2020 4660.50 5807.09 75.77 5.00 370.63 2503.99
   01:19:11.363.04-May-2020 4660.50 5807.67 75.77 5.00 370.83 2503.99
   01:19:11.563.04-May-2020 4660.50 5813.08 75.77 5.00 371.03 2503.99
   01:19:11.763.04-May-2020 4660.50 5813.08 75.77 5.00 371.23 2503.99
   01:19:11.963.04-May-2020 4660.50 5808.69 75.78 5.00 371.43 2503.99
   01:19:12.163.04-May-2020 4660.50 5807.66 75.78 5.00 371.63 2503.99
   01:19:12.363.04-May-2020 4660.50 5809.40 75.78 5.00 371.83 2503.99
   01:19:12.563.04-May-2020 4660.50 5807.48 75.78 5.00 372.03 2503.99
   01:19:12.763.04-May-2020 4660.50 5807.48 75.78 5.00 372.23 2503.99
   01:19:12.963.04-May-2020 4660.50 5807.95 75.78 5.00 372.43 2503.99
   01:19:13.163.04-May-2020 4660.50 5807.98 75.79 5.00 372.63 2503.99
   01:19:13.363.04-May-2020 4660.50 5807.77 75.79 5.00 372.83 2503.99
   01:19:13.563.04-May-2020 4660.50 5806.60 75.79 5.00 373.03 2503.99
   01:19:13.763.04-May-2020 4660.50 5806.93 75.79 5.00 373.23 2503.99
   01:19:13.963.04-May-2020 4660.50 5806.85 75.79 5.00 373.43 2503.99
   01:19:14.163.04-May-2020 4660.50 5811.31 75.79 5.00 373.63 2503.99
   01:19:14.363.04-May-2020 4660.50 5809.13 75.79 5.00 373.83 2503.99
   01:19:14.563.04-May-2020 4660.50 5808.60 75.79 5.00 374.03 2503.99
   01:19:14.763.04-May-2020 4660.50 5808.60 75.79 5.00 374.23 2503.99
   01:19:14.963.04-May-2020 4660.50 5808.02 75.79 5.00 374.43 2503.99
   01:19:15.163.04-May-2020 4660.50 5807.77 75.79 5.00 374.63 2503.99
   01:19:15.363.04-May-2020 4660.50 5807.81 75.79 5.00 374.83 2503.99
   01:19:15.563.04-May-2020 4660.50 5809.05 75.79 5.00 375.03 2503.99
   01:19:15.763.04-May-2020 4660.50 5809.05 75.79 5.00 375.23 2503.99
   01:19:15.963.04-May-2020 4660.50 5805.07 75.79 5.00 375.43 2503.99
   01:19:16.163.04-May-2020 4660.50 5806.00 75.79 5.00 375.63 2503.99
   01:19:16.363.04-May-2020 4660.50 5807.06 75.80 5.00 375.83 2503.99
   01:19:16.563.04-May-2020 4660.50 5811.18 75.79 5.00 376.03 2503.99
   01:19:16.763.04-May-2020 4660.50 5811.18 75.79 5.00 376.23 2503.99
   01:19:16.963.04-May-2020 4660.50 5806.05 75.79 5.00 376.43 2503.99
   01:19:17.163.04-May-2020 4660.50 5809.17 75.79 5.00 376.63 2503.99
   01:19:17.363.04-May-2020 4660.50 5809.58 75.79 5.00 376.83 2503.99
   01:19:17.563.04-May-2020 4660.50 5807.42 75.79 5.00 377.03 2503.99
   01:19:17.763.04-May-2020 4660.50 5807.42 75.79 5.00 377.23 2503.99
   01:19:17.963.04-May-2020 4660.50 5808.37 75.79 5.00 377.43 2503.99
   01:19:18.163.04-May-2020 4660.50 5806.29 75.79 5.00 377.63 2503.99
   01:19:18.363.04-May-2020 4660.50 5810.07 75.79 5.00 377.83 2503.99
   01:19:18.563.04-May-2020 4660.50 5810.54 75.79 5.00 378.03 2503.99
   01:19:18.764.04-May-2020 4660.50 5810.54 75.79 5.00 378.23 2503.99
   01:19:18.964.04-May-2020 4660.50 5811.12 75.79 5.00 378.43 2503.99
   01:19:19.164.04-May-2020 4660.50 5809.75 75.79 5.00 378.63 2503.99
   01:19:19.364.04-May-2020 4660.50 5810.30 75.79 5.00 378.83 2503.99
   01:19:19.564.04-May-2020 4660.50 5810.89 75.79 5.00 379.03 2503.99
   01:19:19.764.04-May-2020 4660.50 5810.89 75.79 5.00 379.23 2503.99
   01:19:19.964.04-May-2020 4660.50 5813.84 75.79 5.00 379.43 2503.99
   01:19:20.164.04-May-2020 4660.50 5812.21 75.79 5.00 379.63 2503.99
   01:19:20.364.04-May-2020 4660.50 5810.92 75.79 5.00 379.83 2503.99
   01:19:20.564.04-May-2020 4660.50 5810.33 75.79 5.00 380.03 2503.99
   01:19:20.764.04-May-2020 4660.50 5810.33 75.79 5.00 380.23 2503.99
   01:19:20.964.04-May-2020 4660.50 5808.79 75.79 5.00 380.43 2503.99
   01:19:21.164.04-May-2020 4660.50 5809.99 75.79 5.00 380.63 2503.99
   01:19:21.364.04-May-2020 4660.50 5809.43 75.79 5.00 380.83 2503.99
   01:19:21.564.04-May-2020 4660.50 5809.52 75.79 5.00 381.03 2503.99
   01:19:21.764.04-May-2020 4660.50 5809.52 75.79 5.00 381.23 2503.99
   01:19:21.964.04-May-2020 4660.50 5808.70 75.78 5.00 381.43 2503.99
   01:19:22.164.04-May-2020 4660.50 5809.26 75.78 5.00 381.63 2503.99
   01:19:22.364.04-May-2020 4660.50 5809.13 75.78 5.00 381.83 2503.99
   01:19:22.564.04-May-2020 4660.50 5816.63 75.78 5.00 382.03 2503.99
   01:19:22.764.04-May-2020 4660.50 5816.63 75.78 5.00 382.23 2503.99
   01:19:22.964.04-May-2020 4660.50 5810.18 75.78 5.00 382.43 2503.99
   01:19:23.164.04-May-2020 4660.50 5814.06 75.78 5.00 382.63 2503.99
   01:19:23.364.04-May-2020 4660.50 5811.19 75.78 5.00 382.83 2503.99
   01:19:23.564.04-May-2020 4660.50 5810.27 75.78 5.00 383.03 2503.99
   01:19:23.764.04-May-2020 4660.50 5810.27 75.78 5.00 383.23 2503.99
   01:19:23.964.04-May-2020 4660.50 5810.80 75.78 5.00 383.43 2503.99
   01:19:24.164.04-May-2020 4660.50 5812.41 75.78 5.00 383.63 2503.99
   01:19:24.364.04-May-2020 4660.50 5810.10 75.78 5.00 383.83 2503.99
   01:19:24.564.04-May-2020 4660.50 5807.60 75.77 5.00 384.03 2503.99
   01:19:24.764.04-May-2020 4660.50 5807.60 75.77 5.00 384.23 2503.99
   01:19:24.964.04-May-2020 4660.50 5813.15 75.77 5.00 384.43 2503.99
   01:19:25.164.04-May-2020 4660.50 5807.30 75.77 5.00 384.63 2503.99
   01:19:25.364.04-May-2020 4660.50 5807.83 75.77 5.00 384.83 2503.99
   01:19:25.564.04-May-2020 4660.50 5808.34 75.77 5.00 385.03 2503.99
   01:19:25.764.04-May-2020 4660.50 5808.34 75.77 5.00 385.23 2503.99
   01:19:25.964.04-May-2020 4660.50 5816.51 75.77 5.00 385.43 2503.99
   01:19:26.164.04-May-2020 4660.50 5807.25 75.77 5.00 385.63 2503.99
   01:19:26.364.04-May-2020 4660.50 5809.30 75.77 5.00 385.83 2503.99
   01:19:26.564.04-May-2020 4660.50 5809.73 75.77 5.00 386.03 2503.99
   01:19:26.764.04-May-2020 4660.50 5809.73 75.77 5.00 386.23 2503.99
   01:19:26.964.04-May-2020 4660.50 5809.28 75.76 5.00 386.43 2503.99
   01:19:27.164.04-May-2020 4660.50 5807.79 75.76 5.00 386.63 2503.99
   01:19:27.364.04-May-2020 4660.50 5807.75 75.76 5.00 386.83 2503.99
   01:19:27.564.04-May-2020 4660.50 5807.41 75.76 5.00 387.04 2503.99
   01:19:27.764.04-May-2020 4660.50 5807.41 75.76 5.00 387.24 2503.99
   01:19:27.964.04-May-2020 4660.50 5808.32 75.76 5.00 387.44 2503.99
   01:19:28.164.04-May-2020 4660.50 5808.23 75.76 5.00 387.64 2503.99
   01:19:28.364.04-May-2020 4660.50 5807.49 75.76 5.00 387.84 2503.99
   01:19:28.564.04-May-2020 4660.50 5807.30 75.76 5.00 388.04 2503.99
   01:19:28.764.04-May-2020 4660.50 5807.30 75.76 5.00 388.24 2503.99
   01:19:28.964.04-May-2020 4660.50 5805.99 75.76 5.00 388.44 2503.99
   01:19:29.164.04-May-2020 4660.50 5808.01 75.76 5.00 388.64 2503.99
   01:19:29.364.04-May-2020 4660.50 5807.84 75.75 5.00 388.84 2503.99
   01:19:29.564.04-May-2020 4660.50 5807.37 75.75 5.00 389.04 2503.99
   01:19:29.765.04-May-2020 4660.50 5807.37 75.75 5.00 389.24 2503.99
   01:19:29.965.04-May-2020 4660.50 5807.16 75.75 5.00 389.44 2503.99
   01:19:30.165.04-May-2020 4660.50 5806.56 75.75 5.00 389.64 2503.99
   01:19:30.365.04-May-2020 4660.50 5806.27 75.75 5.00 389.84 2503.99
