~Version Information
 VERS.                  2.0:   CWLS log ASCII Standard -VERSION 2.0
 WRAP.                   NO:   One line per depth step
~Well Information Block
#MNEM.UNIT     VALUE/NAME     DESCRIPTION
#---------     -----------    ---------------------------
 STRT.S             13:13:41 03-May-20: START TIME 13:13:41 03-May-20
 STOP.S             13:20:16 03-May-20: STOP TIME  13:20:16 03-May-20
 STEP.S                   0.00: STEP TIME
 NULL.                 -999.25: NULL VALUE
 DFWT.                        :  DIST FWL TEXT
 DFST.                        :  DIST FSL TEXT
 DMF .             Drill Floor:  DRILL MEAS FROM
 STIM.      03.00.00 25-Mar-20:  START TIME
 DATE.      00.00.00 19-May-20:  END TIME
 SPUD.               27-Aug-20:  SPUD DATE
 NREF.                    Grid:  NORTH REFERENCE
 HPTY.       Minimum Curvature:  HOLE POS TYPE
 DMOD.             Drill Model:  DRILL MOD DESC
 SVYD.                  Survey:  SURVEY DESC
 ILTD.               Lithology:  INTERP LTH DESC
 FTOP.          Formation Tops:  FORM TOPS DESC
 SON .        AZ-XX-0906252240:  JOB NUMBER
 RIG .             West Chirag:  RIG NAME
 PDAT.          Mean Sea Level:  PERMANENT DATUM
 FLD .                     ACG:  FIELD NAME
 CTRY.              Azerbaijan:  COUNTRY NAME
 WELL.                     J23:  WELL NAME
 SRVC.          Turan Drilling:  CONTRACTOR
 COMP.     BP Exploration (Caspian Sea) Ltd.:  COMPANY
 WTYP.                Deviated:  WELL TYPE
 MDS .        Operator Entered:  MAG DATA SOURCE
 UWI .                     N/A:  UNIQUE WELL IDENTIFIER
 API .                     N/A:  API NUMBER
 BASE.              Azerbaijan:  LOGGING EQUIPMENT BASE LOCATION
 REGN.                   EESSA:  REGION
 PROV.                    Baku:  PROVINCE
 STAT.                    Baku:  STATE NAME
 MWDS.                     N/A:  MWD SHOP
 JOBN.        AZ-XX-0906252240:  JOB TICKET NUMB
 DOE .                     N/A:  DOE NUMBER
 DCON.         Sperry Drilling:  DIRECTNL CONTR
 UNIT.                     N/A:  LOGGING EQUIPMENT ID
 CNTY.                        :  COUNTY
 LOC .                        :  LOCATION
 LMF .             Drill Floor:  LOG MEASURED FROM
 TVDS.m                  43.00:  TVDSS CORRECTN
 LATI.deg                40.13:  LATITUDE
 LONG.deg                51.22:  LONGITUDE
 WHNS.m                   9.43:  WELL HEAD N/S
 WHEW.m                  -8.91:  WELL HEAD E/W
 UTMX.m              519005.06:  UTM X
 UTMY.m             4443793.85:  UTM Y
 DFWL.m                   0.00:  DISTANCE FWL
 DFSL.m                   0.00:  DISTANCE FSL
 SDEP.m                 363.00:  START DEPTH
 TDD .m                5150.01:  TOTAL DEPTH (DRILLER)
 VSDR.deg               179.88:  VERT SEC DIRECT
 GVFD.g                   1.00:  GRAVITY FIELD
 MFLD.nT              50295.00:  MAGNETIC FIELD
 MDIP.deg                59.56:  MAGNETIC DIP
 MDEC.deg                 6.45:  MAGNETIC DECL
 GRDC.deg                 0.14:  GRID CORRECTION
 AZTC.deg                 6.31:  AZM TOTAL CORR
 EPD .m                   0.00:  ELEVATION
 EGL .m                   0.00:  GROUND ELEVATION
 WDMS.m                 169.80:  WD ELEV
 APD .m                  43.00:  DEPTH ABOVE PD
 DEP .m                 354.17:  DEPTH
 AGAP.m                  43.00:  AIR GAP
 VSEW.m                  -8.91:  VERT SEC E/W
 VSNS.m                   9.43:  VERT SEC N/S
 EKB .m                   0.00:  KB ELEVATION
 EDF .m                  43.00:  DF ELEVATION
 TDL .m                1351.00:  TOTAL DEPTH (LOGGER)
 VSC .                       0:  VS TO CLOSURE
 MAGU.                 1850802:  MAGUTM CHECKSUM
~Parameter Information Block
#MNEM.UNIT       Value        Description
#---------     -----------    ---------------------------
 AV  .mps                 1.00:  Ann Velocity 
 AVMX.mps                 2.40:  Max Ann Veloc 
 AZIF.deg               148.96:  Azm, Final 
 BHAT.        Rotary Steerable:  BHA Type 
 BROT.°/30m               0.04:  Build Rotating 
 BS  .in                 12.25:  Bit Size 
 BSZ .in                 12.25:  Bit Size 
 BTPL.psig              814.00:  Bit Press Loss 
 TCS .hr                106.00:  Time Ciculation Ended 
 CV  .mps                 2.47:  Crit Velocity 
 CVMX.mps                 2.64:  Max Crit Veloc 
 DD1 .          Rashad Habibov:  Direct Drillr 1 
 DD2 .         Rasim Ibrahimov:  Direct Drillr 2 
 DDSV.                 iCruise:  DD Service 
 DEFF.%                 100.00:  % Det Eff 
 DLRX.°/30m               0.70:  Dogleg Rot Max 
 DLSO.°/30m               3.00:  Dogleg Oriented 
 DLSX.°/30m               4.55:  Dogleg Str Max 
 DRET.      08.08.32 02-May-20:  Drill End Time 
 DRST.      08.08.32 28-Apr-20:  Drill Start Tim 
 DTIM.hr                 60.00:  Time Drilling 
 EDEP.m                4761.01:  End Depth 
 ENG1.           Eldar Hajiyev:  Engineer 1 
 ENG2.        Marcelo Sandoval:  Engineer 2 
 ETIM.      23.23.07 05-May-20:  End Time 
 FLOI.gpm              1200.00:  Flow In 
 FLON.gpm               900.00:  Flow In Min 
 FLOS.cptm                0.00:  Fluid Loss 
 FLOX.gpm              1200.00:  Flow In Max 
 HFLO.                      No:  High Flow 
 HPRE.                      No:  High Pressure 
 HTEM.                      No:  High Temp 
 HYDO.m                   1.80:  Hydro Offset 
 IFIN.deg                68.17:  Inc, Final 
 IMAX.deg                74.61:  Inc Max 
 IMIN.deg                68.15:  Inc Min 
 IMND.m                4317.87:  Inc Min Depth 
 IMXD.m                4714.01:  Inc Max Depth 
 LETM.      08.08.32 02-May-20:  Log End Time 
 LOST.hr                     2:  Lost Rig Time 
 LSTM.      08.08.32 28-Apr-20:  Log Start Time 
 MDCL.ppm             41000.00:  Mud Chlorides 
 MDES.     Inversion Oil/Synthetic:  Mud Desc 
 DFD .sg                  1.58:  Mud Density 
 MDMN.sg                  1.58:  Dens Mud Min 
 MDMX.sg                  1.58:  Dens Mud Max 
 MOIL.                      71:  Run Mud Oil % 
 MOWR.                   71:29:  Run Mud OWR 
 MSND.                     0.1:  Run Mud Sand % 
 MSOL.                      23:  Run Mud Solids% 
 DFV .spqt               82.00:  Mud Viscosity 
 MWOD.in                  8.00:  MWD Tool OD 
 MWSI.                     Yes:  Serv Intrp, MWD 
 OTIM.hr                125.00:  Time Operating 
 PMAX.psia             6129.00:  Press Op, Max 
 PV  .cP                 32.00:  Mud PV 
 RUN .                     800:  Run Number 
 ROPA.m/hr               30.00:  ROP Avg 
 ROPN.m/hr               10.00:  ROP Min 
 ROPX.m/hr               40.00:  ROP Max 
 RPMA.rpm               140.00:  RPM Surface Avg 
 RPMN.rpm                80.00:  RPM Surface Min 
 RPMX.rpm               140.00:  RPM Surface Max 
 RRUN.                    L503:  Rig Run Number 
 RTIM.hr                  2.00:  Time Reaming 
 SAZI.deg               184.23:  Azm, Start 
 SDEP.m                3410.01:  Start Depth 
 SIDD.                      No:  Serv Intrp, DD 
 SINC.deg                68.29:  Inc, Start 
 SPPA.psig             6000.00:  SPP Avg 
 SPPN.psig             4000.00:  SPP Min 
 SPPX.psig             6100.00:  SPP Max 
 STIM.      08.08.32 28-Apr-20:  Start Time 
 SVCS.                 DD, MWD:  Services 
 SVER.                    9.20:  Sperry Version 
 TDAT.m                1351.00:  Tot Depth Attmp 
 TDDF.                      No:  Trip for DD 
 TDLG.m                1351.00:  Tot Depth Loggd 
 TFF .                      No:  Trip for Fail 
 TQAA.f-kp               27.00:  Torque Abs Avg 
 TQAN.f-kp               20.00:  Torque Abs Min 
 TQAX.f-kp               30.00:  Torque Abs Max 
 TRRT.°/30m               0.60:  Turn Rotating 
 MRT .                    EWER:  Maximum Recorded Temperature 
 TTMX.degC               83.00:  Max Tool Temp 
 VS01.                90511138:  Virtual Str1 SN 
 VS02.                90524876:  Virtual Str2 SN 
 VS03.                90524872:  Virtual Str3 SN 
 VS04.                90502750:  Virtual Str4 SN 
 VS05.                12330984:  Virtual Str5 SN 
 WBMN.klb                 0.00:  WOB Min 
 WOBA.klb                15.00:  WOB Avg 
 WOBX.klb                20.00:  WOB Max 
 YP  .lhf2               31.00:  Yield Point 
~Curve Information Block
#MNEM.UNIT                 API CODE     Curve Description
#---------               -----------    ---------------------------
 TIME.HHMMSS            00 000 000 000:  GT Time & Date
 GTDEPTH.m              00 000 000 000:  GT Depth
 GTPQH.psia             00 000 000 000:  GT HR Quartz Pressure
 GTTQ.degC              00 000 000 000:  GT Quartz Temperature
 GTTN.NONE              00 000 000 000:  GT Test Number
 GTET.sec               00 000 000 000:  GT Elapsed Test Time
 GTTVD.m                00 000 000 000:  GT True Vertical Depth
#Other Information
#
#WARRANTY: Halliburton will use its best efforts to furnish customers with 
#accurate information and interpretations that are part of, and incident to, the services 
#provided.  However, Halliburton cannot and does not warrant the accuracy 
#or correctness of such information and interpretations.  Under no circumstances should any 
#such information or interpretation be relied upon as the sole basis for any drilling, 
#completion, production, or financial decision or any procedure involving any risk to the 
#safety of any drilling venture, drilling rig or its crew or any other third party.  The 
#Customer has full responsibility for all drilling, completion and production operation.  
#Halliburton makes no representations or warranties, either expressed or 
#implied, including, but not limited to, the implied warranties of merchantability or fitness 
#for a particular purpose, with respect to the services rendered.  In no event will 
#Halliburton be liable for failure to obtain any particular results or for 
#any damages, including, but not limited to, indirect, special or consequential damages, 
#resulting from the use of any information or interpretation provided by Halliburton.
#
~A           TIME           GTDEPTH  GTPQH  GTTQ  GTTN  GTET   GTTVD  
   13:13:41.411.03-May-2020 4532.80 -999.25 80.80 1.00   0.00 2465.99
   13:13:41.611.03-May-2020 4532.80    0.00 80.80 1.00   0.20 2465.99
   13:13:41.811.03-May-2020 4532.80    0.00 80.80 1.00   0.40 2465.99
   13:13:42.011.03-May-2020 4532.80 5711.06 80.80 1.00   0.60 2465.99
   13:13:42.212.03-May-2020 4532.80 5716.60 80.80 1.00   0.80 2465.99
   13:13:42.412.03-May-2020 4532.80 5716.85 80.80 1.00   1.00 2465.99
   13:13:42.612.03-May-2020 4532.80 5716.85 80.80 1.00   1.20 2465.99
   13:13:42.813.03-May-2020 4532.80 5719.67 80.80 1.00   1.40 2465.99
   13:13:43.013.03-May-2020 4532.80 5722.99 80.80 1.00   1.60 2465.99
   13:13:43.213.03-May-2020 4532.80 5724.60 80.80 1.00   1.80 2465.99
   13:13:43.414.03-May-2020 4532.80 5721.86 80.80 1.00   2.00 2465.99
   13:13:43.614.03-May-2020 4532.80 5730.58 80.80 1.00   2.20 2465.99
   13:13:43.814.03-May-2020 4532.80 5723.17 80.80 1.00   2.40 2465.99
   13:13:44.015.03-May-2020 4532.80 5723.67 80.80 1.00   2.60 2465.99
   13:13:44.215.03-May-2020 4532.80 5722.97 80.80 1.00   2.80 2465.99
   13:13:44.415.03-May-2020 4532.80 5722.77 80.80 1.00   3.00 2465.99
   13:13:44.616.03-May-2020 4532.80 5722.77 80.80 1.00   3.21 2465.99
   13:13:44.816.03-May-2020 4532.80 5717.17 80.79 1.00   3.41 2465.99
   13:13:45.016.03-May-2020 4532.80 5722.20 80.79 1.00   3.61 2465.99
   13:13:45.217.03-May-2020 4532.80 5720.94 80.79 1.00   3.81 2465.99
   13:13:45.417.03-May-2020 4532.80 5717.67 80.79 1.00   4.01 2465.99
   13:13:45.617.03-May-2020 4532.80 5717.67 80.79 1.00   4.21 2465.99
   13:13:45.817.03-May-2020 4532.80 5725.25 80.79 1.00   4.41 2465.99
   13:13:46.018.03-May-2020 4532.80 5723.00 80.79 1.00   4.61 2465.99
   13:13:46.218.03-May-2020 4532.80 5720.87 80.79 1.00   4.81 2465.99
   13:13:46.418.03-May-2020 4532.80 5722.38 80.79 1.00   5.01 2465.99
   13:13:46.619.03-May-2020 4532.80 5722.38 80.79 1.00   5.21 2465.99
   13:13:46.819.03-May-2020 4532.80 5723.07 80.79 1.00   5.41 2465.99
   13:13:47.019.03-May-2020 4532.80 5722.57 80.79 1.00   5.61 2465.99
   13:13:47.220.03-May-2020 4532.80 5723.29 80.79 1.00   5.81 2465.99
   13:13:47.420.03-May-2020 4532.80 5721.92 80.79 1.00   6.01 2465.99
   13:13:47.620.03-May-2020 4532.80 5725.70 80.79 1.00   6.21 2465.99
   13:13:47.821.03-May-2020 4532.80 5722.82 80.78 1.00   6.41 2465.99
   13:13:48.021.03-May-2020 4532.80 5720.83 80.78 1.00   6.61 2465.99
   13:13:48.221.03-May-2020 4532.80 5721.15 80.78 1.00   6.81 2465.99
   13:13:48.422.03-May-2020 4532.80 5722.13 80.78 1.00   7.01 2465.99
   13:13:48.622.03-May-2020 4532.80 5722.13 80.78 1.00   7.21 2465.99
   13:13:48.822.03-May-2020 4532.80 5722.95 80.78 1.00   7.41 2465.99
   13:13:49.022.03-May-2020 4532.80 5723.10 80.78 1.00   7.61 2465.99
   13:13:49.223.03-May-2020 4532.80 5723.38 80.78 1.00   7.81 2465.99
   13:13:49.423.03-May-2020 4532.80 5724.52 80.78 1.00   8.01 2465.99
   13:13:49.623.03-May-2020 4532.80 5724.52 80.78 1.00   8.21 2465.99
   13:13:49.824.03-May-2020 4532.80 5725.33 80.78 1.00   8.41 2465.99
   13:13:50.024.03-May-2020 4532.80 5726.20 80.78 1.00   8.61 2465.99
   13:13:50.224.03-May-2020 4532.80 5727.14 80.78 1.00   8.81 2465.99
   13:13:50.425.03-May-2020 4532.80 5732.40 80.78 1.00   9.01 2465.99
   13:13:50.625.03-May-2020 4532.80 5732.40 80.78 1.00   9.21 2465.99
   13:13:50.825.03-May-2020 4532.80 5726.01 80.78 1.00   9.41 2465.99
   13:13:51.026.03-May-2020 4532.80 5725.78 80.77 1.00   9.62 2465.99
   13:13:51.226.03-May-2020 4532.80 5725.04 80.77 1.00   9.82 2465.99
   13:13:51.426.03-May-2020 4532.80 5725.29 80.77 1.00  10.02 2465.99
   13:13:51.627.03-May-2020 4532.80 5725.01 80.77 1.00  10.22 2465.99
   13:13:51.827.03-May-2020 4532.80 5724.80 80.77 1.00  10.42 2465.99
   13:13:52.027.03-May-2020 4532.80 5723.59 80.77 1.00  10.62 2465.99
   13:13:52.228.03-May-2020 4532.80 5721.82 80.77 1.00  10.82 2465.99
   13:13:52.428.03-May-2020 4532.80 5720.99 80.77 1.00  11.02 2465.99
   13:13:52.628.03-May-2020 4532.80 5720.99 80.77 1.00  11.22 2465.99
   13:13:52.828.03-May-2020 4532.80 5718.81 80.77 1.00  11.42 2465.99
   13:13:53.029.03-May-2020 4532.80 5718.55 80.77 1.00  11.62 2465.99
   13:13:53.229.03-May-2020 4532.80 5721.97 80.77 1.00  11.82 2465.99
   13:13:53.429.03-May-2020 4532.80 5719.64 80.77 1.00  12.02 2465.99
   13:13:53.630.03-May-2020 4532.80 5719.64 80.77 1.00  12.22 2465.99
   13:13:53.830.03-May-2020 4532.80 5715.14 80.77 1.00  12.42 2465.99
   13:13:54.030.03-May-2020 4532.80 5719.01 80.77 1.00  12.62 2465.99
   13:13:54.231.03-May-2020 4532.80 5716.46 80.76 1.00  12.82 2465.99
   13:13:54.431.03-May-2020 4532.80 5714.88 80.76 1.00  13.02 2465.99
   13:13:54.631.03-May-2020 4532.80 5714.88 80.76 1.00  13.22 2465.99
   13:13:54.832.03-May-2020 4532.80 5715.47 80.76 1.00  13.42 2465.99
   13:13:55.032.03-May-2020 4532.80 5719.30 80.76 1.00  13.62 2465.99
   13:13:55.232.03-May-2020 4532.80 5717.00 80.76 1.00  13.82 2465.99
   13:13:55.433.03-May-2020 4532.80 5714.80 80.76 1.00  14.02 2465.99
   13:13:55.633.03-May-2020 4532.80 5714.80 80.76 1.00  14.22 2465.99
   13:13:55.833.03-May-2020 4532.80 5714.80 80.76 1.00  14.42 2465.99
   13:13:56.034.03-May-2020 4532.80 5715.85 80.76 1.00  14.62 2465.99
   13:13:56.234.03-May-2020 4532.80 5714.37 80.76 1.00  14.82 2465.99
   13:13:56.434.03-May-2020 4532.80 5717.03 80.76 1.00  15.02 2465.99
   13:13:56.634.03-May-2020 4532.80 5717.03 80.76 1.00  15.22 2465.99
   13:13:56.835.03-May-2020 4532.80 5714.15 80.76 1.00  15.42 2465.99
   13:13:57.035.03-May-2020 4532.80 5713.73 80.76 1.00  15.62 2465.99
   13:13:57.235.03-May-2020 4532.80 5717.29 80.76 1.00  15.82 2465.99
   13:13:57.436.03-May-2020 4532.80 5715.21 80.75 1.00  16.03 2465.99
   13:13:57.636.03-May-2020 4532.80 5715.21 80.75 1.00  16.23 2465.99
   13:13:57.836.03-May-2020 4532.80 5714.40 80.75 1.00  16.43 2465.99
   13:13:58.037.03-May-2020 4532.80 5713.92 80.75 1.00  16.63 2465.99
   13:13:58.237.03-May-2020 4532.80 5713.39 80.75 1.00  16.83 2465.99
   13:13:58.437.03-May-2020 4532.80 5714.58 80.75 1.00  17.03 2465.99
   13:13:58.638.03-May-2020 4532.80 5714.58 80.75 1.00  17.23 2465.99
   13:13:58.838.03-May-2020 4532.80 5713.93 80.75 1.00  17.43 2465.99
   13:13:59.038.03-May-2020 4532.80 5714.30 80.75 1.00  17.63 2465.99
   13:13:59.239.03-May-2020 4532.80 5714.29 80.75 1.00  17.83 2465.99
   13:13:59.439.03-May-2020 4532.80 5713.11 80.75 1.00  18.03 2465.99
   13:13:59.639.03-May-2020 4532.80 5712.53 80.75 1.00  18.23 2465.99
   13:13:59.840.03-May-2020 4532.80 5712.81 80.75 1.00  18.43 2465.99
   13:14:00.040.03-May-2020 4532.80 5715.96 80.75 1.00  18.63 2465.99
   13:14:00.240.03-May-2020 4532.80 5713.09 80.75 1.00  18.83 2465.99
   13:14:00.440.03-May-2020 4532.80 5709.18 80.74 1.00  19.03 2465.99
   13:14:00.641.03-May-2020 4532.80 5709.18 80.74 1.00  19.23 2465.99
   13:14:00.841.03-May-2020 4532.80 5710.09 80.74 1.00  19.43 2465.99
   13:14:01.041.03-May-2020 4532.80 5709.73 80.74 1.00  19.63 2465.99
   13:14:01.242.03-May-2020 4532.80 5710.81 80.74 1.00  19.83 2465.99
   13:14:01.442.03-May-2020 4532.80 5711.09 80.74 1.00  20.03 2465.99
   13:14:01.642.03-May-2020 4532.80 5711.09 80.74 1.00  20.23 2465.99
   13:14:01.843.03-May-2020 4532.80 5711.13 80.74 1.00  20.43 2465.99
   13:14:02.043.03-May-2020 4532.80 5711.68 80.74 1.00  20.63 2465.99
   13:14:02.243.03-May-2020 4532.80 5711.84 80.74 1.00  20.83 2465.99
   13:14:02.444.03-May-2020 4532.80 5712.19 80.74 1.00  21.03 2465.99
   13:14:02.644.03-May-2020 4532.80 5712.19 80.74 1.00  21.23 2465.99
   13:14:02.844.03-May-2020 4532.80 5712.89 80.74 1.00  21.43 2465.99
   13:14:03.045.03-May-2020 4532.80 5713.06 80.74 1.00  21.63 2465.99
   13:14:03.245.03-May-2020 4532.80 5715.54 80.74 1.00  21.83 2465.99
   13:14:03.445.03-May-2020 4532.80 5714.39 80.73 1.00  22.03 2465.99
   13:14:03.645.03-May-2020 4532.80 5713.45 80.73 1.00  22.23 2465.99
   13:14:03.846.03-May-2020 4532.80 5718.33 80.73 1.00  22.44 2465.99
   13:14:04.046.03-May-2020 4532.80 5714.27 80.73 1.00  22.64 2465.99
   13:14:04.246.03-May-2020 4532.80 5712.89 80.73 1.00  22.84 2465.99
