~Version Information
 VERS.                  2.0:   CWLS log ASCII Standard -VERSION 2.0
 WRAP.                   NO:   One line per depth step
~Well Information Block
#MNEM.UNIT     VALUE/NAME     DESCRIPTION
#---------     -----------    ---------------------------
 STRT.S             10:50:58 04-May-20: START TIME 10:50:58 04-May-20
 STOP.S             10:57:32 04-May-20: STOP TIME  10:57:32 04-May-20
 STEP.S                   0.00: STEP TIME
 NULL.                 -999.25: NULL VALUE
 DFWT.                        :  DIST FWL TEXT
 DFST.                        :  DIST FSL TEXT
 DMF .             Drill Floor:  DRILL MEAS FROM
 STIM.      03.00.00 25-Mar-20:  START TIME
 DATE.      00.00.00 19-May-20:  END TIME
 SPUD.               27-Aug-20:  SPUD DATE
 NREF.                    Grid:  NORTH REFERENCE
 HPTY.       Minimum Curvature:  HOLE POS TYPE
 DMOD.             Drill Model:  DRILL MOD DESC
 SVYD.                  Survey:  SURVEY DESC
 ILTD.               Lithology:  INTERP LTH DESC
 FTOP.          Formation Tops:  FORM TOPS DESC
 SON .        AZ-XX-0906252240:  JOB NUMBER
 RIG .             West Chirag:  RIG NAME
 PDAT.          Mean Sea Level:  PERMANENT DATUM
 FLD .                     ACG:  FIELD NAME
 CTRY.              Azerbaijan:  COUNTRY NAME
 WELL.                     J23:  WELL NAME
 SRVC.          Turan Drilling:  CONTRACTOR
 COMP.     BP Exploration (Caspian Sea) Ltd.:  COMPANY
 WTYP.                Deviated:  WELL TYPE
 MDS .        Operator Entered:  MAG DATA SOURCE
 UWI .                     N/A:  UNIQUE WELL IDENTIFIER
 API .                     N/A:  API NUMBER
 BASE.              Azerbaijan:  LOGGING EQUIPMENT BASE LOCATION
 REGN.                   EESSA:  REGION
 PROV.                    Baku:  PROVINCE
 STAT.                    Baku:  STATE NAME
 MWDS.                     N/A:  MWD SHOP
 JOBN.        AZ-XX-0906252240:  JOB TICKET NUMB
 DOE .                     N/A:  DOE NUMBER
 DCON.         Sperry Drilling:  DIRECTNL CONTR
 UNIT.                     N/A:  LOGGING EQUIPMENT ID
 CNTY.                        :  COUNTY
 LOC .                        :  LOCATION
 LMF .             Drill Floor:  LOG MEASURED FROM
 TVDS.m                  43.00:  TVDSS CORRECTN
 LATI.deg                40.13:  LATITUDE
 LONG.deg                51.22:  LONGITUDE
 WHNS.m                   9.43:  WELL HEAD N/S
 WHEW.m                  -8.91:  WELL HEAD E/W
 UTMX.m              519005.06:  UTM X
 UTMY.m             4443793.85:  UTM Y
 DFWL.m                   0.00:  DISTANCE FWL
 DFSL.m                   0.00:  DISTANCE FSL
 SDEP.m                 363.00:  START DEPTH
 TDD .m                5150.01:  TOTAL DEPTH (DRILLER)
 VSDR.deg               179.88:  VERT SEC DIRECT
 GVFD.g                   1.00:  GRAVITY FIELD
 MFLD.nT              50295.00:  MAGNETIC FIELD
 MDIP.deg                59.56:  MAGNETIC DIP
 MDEC.deg                 6.45:  MAGNETIC DECL
 GRDC.deg                 0.14:  GRID CORRECTION
 AZTC.deg                 6.31:  AZM TOTAL CORR
 EPD .m                   0.00:  ELEVATION
 EGL .m                   0.00:  GROUND ELEVATION
 WDMS.m                 169.80:  WD ELEV
 APD .m                  43.00:  DEPTH ABOVE PD
 DEP .m                 354.17:  DEPTH
 AGAP.m                  43.00:  AIR GAP
 VSEW.m                  -8.91:  VERT SEC E/W
 VSNS.m                   9.43:  VERT SEC N/S
 EKB .m                   0.00:  KB ELEVATION
 EDF .m                  43.00:  DF ELEVATION
 TDL .m                1351.00:  TOTAL DEPTH (LOGGER)
 VSC .                       0:  VS TO CLOSURE
 MAGU.                 1850802:  MAGUTM CHECKSUM
~Parameter Information Block
#MNEM.UNIT       Value        Description
#---------     -----------    ---------------------------
 AV  .mps                 1.00:  Ann Velocity 
 AVMX.mps                 2.40:  Max Ann Veloc 
 AZIF.deg               148.96:  Azm, Final 
 BHAT.        Rotary Steerable:  BHA Type 
 BROT.°/30m               0.04:  Build Rotating 
 BS  .in                 12.25:  Bit Size 
 BSZ .in                 12.25:  Bit Size 
 BTPL.psig              814.00:  Bit Press Loss 
 TCS .hr                106.00:  Time Ciculation Ended 
 CV  .mps                 2.47:  Crit Velocity 
 CVMX.mps                 2.64:  Max Crit Veloc 
 DD1 .          Rashad Habibov:  Direct Drillr 1 
 DD2 .         Rasim Ibrahimov:  Direct Drillr 2 
 DDSV.                 iCruise:  DD Service 
 DEFF.%                 100.00:  % Det Eff 
 DLRX.°/30m               0.70:  Dogleg Rot Max 
 DLSO.°/30m               3.00:  Dogleg Oriented 
 DLSX.°/30m               4.55:  Dogleg Str Max 
 DRET.      08.08.32 02-May-20:  Drill End Time 
 DRST.      08.08.32 28-Apr-20:  Drill Start Tim 
 DTIM.hr                 60.00:  Time Drilling 
 EDEP.m                4761.01:  End Depth 
 ENG1.           Eldar Hajiyev:  Engineer 1 
 ENG2.        Marcelo Sandoval:  Engineer 2 
 ETIM.      23.23.07 05-May-20:  End Time 
 FLOI.gpm              1200.00:  Flow In 
 FLON.gpm               900.00:  Flow In Min 
 FLOS.cptm                0.00:  Fluid Loss 
 FLOX.gpm              1200.00:  Flow In Max 
 HFLO.                      No:  High Flow 
 HPRE.                      No:  High Pressure 
 HTEM.                      No:  High Temp 
 HYDO.m                   1.80:  Hydro Offset 
 IFIN.deg                68.17:  Inc, Final 
 IMAX.deg                74.61:  Inc Max 
 IMIN.deg                68.15:  Inc Min 
 IMND.m                4317.87:  Inc Min Depth 
 IMXD.m                4714.01:  Inc Max Depth 
 LETM.      08.08.32 02-May-20:  Log End Time 
 LOST.hr                     2:  Lost Rig Time 
 LSTM.      08.08.32 28-Apr-20:  Log Start Time 
 MDCL.ppm             41000.00:  Mud Chlorides 
 MDES.     Inversion Oil/Synthetic:  Mud Desc 
 DFD .sg                  1.58:  Mud Density 
 MDMN.sg                  1.58:  Dens Mud Min 
 MDMX.sg                  1.58:  Dens Mud Max 
 MOIL.                      71:  Run Mud Oil % 
 MOWR.                   71:29:  Run Mud OWR 
 MSND.                     0.1:  Run Mud Sand % 
 MSOL.                      23:  Run Mud Solids% 
 DFV .spqt               82.00:  Mud Viscosity 
 MWOD.in                  8.00:  MWD Tool OD 
 MWSI.                     Yes:  Serv Intrp, MWD 
 OTIM.hr                125.00:  Time Operating 
 PMAX.psia             6129.00:  Press Op, Max 
 PV  .cP                 32.00:  Mud PV 
 RUN .                     800:  Run Number 
 ROPA.m/hr               30.00:  ROP Avg 
 ROPN.m/hr               10.00:  ROP Min 
 ROPX.m/hr               40.00:  ROP Max 
 RPMA.rpm               140.00:  RPM Surface Avg 
 RPMN.rpm                80.00:  RPM Surface Min 
 RPMX.rpm               140.00:  RPM Surface Max 
 RRUN.                    L503:  Rig Run Number 
 RTIM.hr                  2.00:  Time Reaming 
 SAZI.deg               184.23:  Azm, Start 
 SDEP.m                3410.01:  Start Depth 
 SIDD.                      No:  Serv Intrp, DD 
 SINC.deg                68.29:  Inc, Start 
 SPPA.psig             6000.00:  SPP Avg 
 SPPN.psig             4000.00:  SPP Min 
 SPPX.psig             6100.00:  SPP Max 
 STIM.      08.08.32 28-Apr-20:  Start Time 
 SVCS.                 DD, MWD:  Services 
 SVER.                    9.20:  Sperry Version 
 TDAT.m                1351.00:  Tot Depth Attmp 
 TDDF.                      No:  Trip for DD 
 TDLG.m                1351.00:  Tot Depth Loggd 
 TFF .                      No:  Trip for Fail 
 TQAA.f-kp               27.00:  Torque Abs Avg 
 TQAN.f-kp               20.00:  Torque Abs Min 
 TQAX.f-kp               30.00:  Torque Abs Max 
 TRRT.°/30m               0.60:  Turn Rotating 
 MRT .                    EWER:  Maximum Recorded Temperature 
 TTMX.degC               83.00:  Max Tool Temp 
 VS01.                90511138:  Virtual Str1 SN 
 VS02.                90524876:  Virtual Str2 SN 
 VS03.                90524872:  Virtual Str3 SN 
 VS04.                90502750:  Virtual Str4 SN 
 VS05.                12330984:  Virtual Str5 SN 
 WBMN.klb                 0.00:  WOB Min 
 WOBA.klb                15.00:  WOB Avg 
 WOBX.klb                20.00:  WOB Max 
 YP  .lhf2               31.00:  Yield Point 
~Curve Information Block
#MNEM.UNIT                 API CODE     Curve Description
#---------               -----------    ---------------------------
 TIME.HHMMSS            00 000 000 000:  GT Time & Date
 GTDEPTH.m              00 000 000 000:  GT Depth
 GTPQH.psia             00 000 000 000:  GT HR Quartz Pressure
 GTTQ.degC              00 000 000 000:  GT Quartz Temperature
 GTTN.NONE              00 000 000 000:  GT Test Number
 GTET.sec               00 000 000 000:  GT Elapsed Test Time
 GTTVD.m                00 000 000 000:  GT True Vertical Depth
#Other Information
#
#WARRANTY: Halliburton will use its best efforts to furnish customers with 
#accurate information and interpretations that are part of, and incident to, the services 
#provided.  However, Halliburton cannot and does not warrant the accuracy 
#or correctness of such information and interpretations.  Under no circumstances should any 
#such information or interpretation be relied upon as the sole basis for any drilling, 
#completion, production, or financial decision or any procedure involving any risk to the 
#safety of any drilling venture, drilling rig or its crew or any other third party.  The 
#Customer has full responsibility for all drilling, completion and production operation.  
#Halliburton makes no representations or warranties, either expressed or 
#implied, including, but not limited to, the implied warranties of merchantability or fitness 
#for a particular purpose, with respect to the services rendered.  In no event will 
#Halliburton be liable for failure to obtain any particular results or for 
#any damages, including, but not limited to, indirect, special or consequential damages, 
#resulting from the use of any information or interpretation provided by Halliburton.
#
~A           TIME           GTDEPTH  GTPQH  GTTQ  GTTN  GTET   GTTVD  
# ...
   10:53:16.269.04-May-2020 4718.46 4253.23 81.85 6.00 138.02 2519.85
   10:53:16.469.04-May-2020 4718.46 4253.23 81.85 6.00 138.22 2519.85
   10:53:16.669.04-May-2020 4718.46 4253.35 81.85 6.00 138.42 2519.85
   10:53:16.869.04-May-2020 4718.46 4254.21 81.85 6.00 138.62 2519.85
   10:53:17.069.04-May-2020 4718.46 4254.03 81.85 6.00 138.82 2519.85
   10:53:17.269.04-May-2020 4718.46 4253.73 81.85 6.00 139.02 2519.85
   10:53:17.469.04-May-2020 4718.46 4253.73 81.85 6.00 139.22 2519.85
   10:53:17.669.04-May-2020 4718.46 4254.43 81.84 6.00 139.42 2519.85
   10:53:17.869.04-May-2020 4718.46 4253.25 81.84 6.00 139.62 2519.85
   10:53:18.069.04-May-2020 4718.46 4253.36 81.84 6.00 139.82 2519.85
   10:53:18.269.04-May-2020 4718.46 4253.34 81.84 6.00 140.02 2519.85
   10:53:18.469.04-May-2020 4718.46 4253.34 81.84 6.00 140.22 2519.85
   10:53:18.669.04-May-2020 4718.46 4254.00 81.84 6.00 140.42 2519.85
   10:53:18.869.04-May-2020 4718.46 4253.41 81.84 6.00 140.62 2519.85
   10:53:19.069.04-May-2020 4718.46 4253.50 81.84 6.00 140.82 2519.85
   10:53:19.269.04-May-2020 4718.46 4253.12 81.84 6.00 141.02 2519.85
   10:53:19.469.04-May-2020 4718.46 4253.15 81.84 6.00 141.22 2519.85
   10:53:19.669.04-May-2020 4718.46 4253.36 81.84 6.00 141.42 2519.85
   10:53:19.869.04-May-2020 4718.46 4253.20 81.84 6.00 141.62 2519.85
   10:53:20.069.04-May-2020 4718.46 4253.18 81.84 6.00 141.82 2519.85
   10:53:20.269.04-May-2020 4718.46 4253.13 81.84 6.00 142.02 2519.85
   10:53:20.469.04-May-2020 4718.46 4253.06 81.83 6.00 142.22 2519.85
   10:53:20.669.04-May-2020 4718.46 4253.03 81.83 6.00 142.42 2519.85
   10:53:20.869.04-May-2020 4718.46 4253.12 81.83 6.00 142.62 2519.85
   10:53:21.069.04-May-2020 4718.46 4253.11 81.83 6.00 142.82 2519.85
   10:53:21.269.04-May-2020 4718.46 4253.06 81.83 6.00 143.02 2519.85
   10:53:21.469.04-May-2020 4718.46 4253.07 81.83 6.00 143.22 2519.85
   10:53:21.669.04-May-2020 4718.46 4253.28 81.83 6.00 143.42 2519.85
   10:53:21.869.04-May-2020 4718.46 4253.78 81.83 6.00 143.62 2519.85
   10:53:22.069.04-May-2020 4718.46 4253.12 81.83 6.00 143.82 2519.85
   10:53:22.269.04-May-2020 4718.46 4253.61 81.83 6.00 144.02 2519.85
   10:53:22.469.04-May-2020 4718.46 4253.61 81.83 6.00 144.22 2519.85
   10:53:22.670.04-May-2020 4718.46 4253.21 81.83 6.00 144.42 2519.85
   10:53:22.870.04-May-2020 4718.46 4253.28 81.83 6.00 144.62 2519.85
   10:53:23.070.04-May-2020 4718.46 4253.13 81.83 6.00 144.82 2519.85
   10:53:23.270.04-May-2020 4718.46 4253.19 81.82 6.00 145.02 2519.85
   10:53:23.470.04-May-2020 4718.46 4253.19 81.82 6.00 145.22 2519.85
   10:53:23.670.04-May-2020 4718.46 4253.10 81.82 6.00 145.42 2519.85
   10:53:23.870.04-May-2020 4718.46 4253.02 81.82 6.00 145.62 2519.85
   10:53:24.070.04-May-2020 4718.46 4252.95 81.82 6.00 145.82 2519.85
   10:53:24.270.04-May-2020 4718.46 4252.94 81.82 6.00 146.02 2519.85
   10:53:24.470.04-May-2020 4718.46 4252.94 81.82 6.00 146.22 2519.85
   10:53:24.670.04-May-2020 4718.46 4252.82 81.82 6.00 146.42 2519.85
   10:53:24.870.04-May-2020 4718.46 4253.46 81.82 6.00 146.62 2519.85
   10:53:25.070.04-May-2020 4718.46 4253.80 81.82 6.00 146.82 2519.85
   10:53:25.270.04-May-2020 4718.46 4253.36 81.82 6.00 147.02 2519.85
   10:53:25.470.04-May-2020 4718.46 4252.97 81.82 6.00 147.22 2519.85
   10:53:25.670.04-May-2020 4718.46 4253.12 81.82 6.00 147.42 2519.85
   10:53:25.870.04-May-2020 4718.46 4253.69 81.82 6.00 147.62 2519.85
   10:53:26.070.04-May-2020 4718.46 4252.95 81.81 6.00 147.82 2519.85
   10:53:26.270.04-May-2020 4718.46 4252.84 81.81 6.00 148.02 2519.85
   10:53:26.470.04-May-2020 4718.46 4252.85 81.81 6.00 148.22 2519.85
   10:53:26.670.04-May-2020 4718.46 4253.50 81.81 6.00 148.42 2519.85
   10:53:26.870.04-May-2020 4718.46 4252.61 81.81 6.00 148.62 2519.85
   10:53:27.070.04-May-2020 4718.46 4252.36 81.81 6.00 148.82 2519.85
   10:53:27.270.04-May-2020 4718.46 4253.08 81.81 6.00 149.02 2519.85
   10:53:27.470.04-May-2020 4718.46 4253.08 81.81 6.00 149.22 2519.85
   10:53:27.670.04-May-2020 4718.46 4252.49 81.81 6.00 149.42 2519.85
   10:53:27.870.04-May-2020 4718.46 4252.77 81.81 6.00 149.62 2519.85
   10:53:28.070.04-May-2020 4718.46 4252.82 81.81 6.00 149.82 2519.85
   10:53:28.270.04-May-2020 4718.46 4252.75 81.81 6.00 150.02 2519.85
   10:53:28.470.04-May-2020 4718.46 4252.75 81.81 6.00 150.22 2519.85
   10:53:28.670.04-May-2020 4718.46 4252.78 81.81 6.00 150.42 2519.85
   10:53:28.870.04-May-2020 4718.46 4252.88 81.80 6.00 150.62 2519.85
   10:53:29.070.04-May-2020 4718.46 4252.93 81.80 6.00 150.82 2519.85
   10:53:29.271.04-May-2020 4718.46 4252.78 81.80 6.00 151.02 2519.85
   10:53:29.471.04-May-2020 4718.46 4252.78 81.80 6.00 151.22 2519.85
   10:53:29.671.04-May-2020 4718.46 4252.92 81.80 6.00 151.42 2519.85
   10:53:29.871.04-May-2020 4718.46 4253.24 81.80 6.00 151.62 2519.85
   10:53:30.071.04-May-2020 4718.46 4254.02 81.80 6.00 151.82 2519.85
   10:53:30.271.04-May-2020 4718.46 4253.35 81.80 6.00 152.02 2519.85
   10:53:30.471.04-May-2020 4718.46 4253.35 81.80 6.00 152.22 2519.85
   10:53:30.671.04-May-2020 4718.46 4253.53 81.80 6.00 152.42 2519.85
   10:53:30.871.04-May-2020 4718.46 4253.42 81.80 6.00 152.62 2519.85
   10:53:31.071.04-May-2020 4718.46 4253.00 81.80 6.00 152.82 2519.85
   10:53:31.271.04-May-2020 4718.46 3708.42 81.80 6.00 153.02 2519.85
   10:53:31.471.04-May-2020 4718.46 3708.42 81.80 6.00 153.22 2519.85
   10:53:31.671.04-May-2020 4718.46 3157.46 81.79 6.00 153.42 2519.85
   10:53:31.871.04-May-2020 4718.46 2989.54 81.79 6.00 153.62 2519.85
   10:53:32.071.04-May-2020 4718.46 2855.22 81.79 6.00 153.82 2519.85
   10:53:32.271.04-May-2020 4718.46 2746.10 81.79 6.00 154.02 2519.85
   10:53:32.471.04-May-2020 4718.46 2746.10 81.79 6.00 154.22 2519.85
   10:53:32.671.04-May-2020 4718.46 2591.17 81.79 6.00 154.42 2519.85
   10:53:32.871.04-May-2020 4718.46 2544.30 81.79 6.00 154.62 2519.85
   10:53:33.071.04-May-2020 4718.46 2499.23 81.79 6.00 154.82 2519.85
   10:53:33.271.04-May-2020 4718.46 2463.08 81.78 6.00 155.02 2519.85
   10:53:33.471.04-May-2020 4718.46 2463.08 81.78 6.00 155.22 2519.85
   10:53:33.671.04-May-2020 4718.46 2389.74 81.78 6.00 155.42 2519.85
   10:53:33.871.04-May-2020 4718.46 2359.50 81.78 6.00 155.62 2519.85
   10:53:34.071.04-May-2020 4718.46 2344.95 81.78 6.00 155.82 2519.85
   10:53:34.271.04-May-2020 4718.46 2342.15 81.77 6.00 156.02 2519.85
   10:53:34.471.04-May-2020 4718.46 2342.15 81.77 6.00 156.22 2519.85
   10:53:34.671.04-May-2020 4718.46 2400.70 81.77 6.00 156.42 2519.85
   10:53:34.871.04-May-2020 4718.46 2440.21 81.77 6.00 156.62 2519.85
   10:53:35.071.04-May-2020 4718.46 2472.12 81.77 6.00 156.82 2519.85
   10:53:35.271.04-May-2020 4718.46 2493.42 81.76 6.00 157.02 2519.85
   10:53:35.471.04-May-2020 4718.46 2493.42 81.76 6.00 157.22 2519.85
   10:53:35.672.04-May-2020 4718.46 2526.73 81.76 6.00 157.42 2519.85
   10:53:35.872.04-May-2020 4718.46 2541.82 81.76 6.00 157.62 2519.85
   10:53:36.072.04-May-2020 4718.46 2549.39 81.75 6.00 157.82 2519.85
   10:53:36.272.04-May-2020 4718.46 2557.52 81.75 6.00 158.02 2519.85
   10:53:36.472.04-May-2020 4718.46 2557.52 81.75 6.00 158.22 2519.85
   10:53:36.672.04-May-2020 4718.46 2576.83 81.75 6.00 158.42 2519.85
   10:53:36.872.04-May-2020 4718.46 2582.06 81.75 6.00 158.62 2519.85
   10:53:37.072.04-May-2020 4718.46 2585.88 81.75 6.00 158.82 2519.85
   10:53:37.272.04-May-2020 4718.46 2588.52 81.74 6.00 159.02 2519.85
   10:53:37.472.04-May-2020 4718.46 2588.52 81.74 6.00 159.22 2519.85
   10:53:37.672.04-May-2020 4718.46 2590.52 81.74 6.00 159.42 2519.85
   10:53:37.872.04-May-2020 4718.46 2591.91 81.74 6.00 159.62 2519.85
   10:53:38.072.04-May-2020 4718.46 2592.80 81.74 6.00 159.82 2519.85
   10:53:38.272.04-May-2020 4718.46 2595.96 81.74 6.00 160.02 2519.85
   10:53:38.472.04-May-2020 4718.46 2595.96 81.74 6.00 160.22 2519.85
   10:53:38.672.04-May-2020 4718.46 2601.35 81.73 6.00 160.42 2519.85
   10:53:38.872.04-May-2020 4718.46 2599.81 81.73 6.00 160.62 2519.85
   10:53:39.072.04-May-2020 4718.46 2598.10 81.73 6.00 160.82 2519.85
