~Version Information
 VERS.                  2.0:   CWLS log ASCII Standard -VERSION 2.0
 WRAP.                   NO:   One line per depth step
~Well Information Block
#MNEM.UNIT     VALUE/NAME     DESCRIPTION
#---------     -----------    ---------------------------
 STRT.S             13:13:41 03-May-20: START TIME 13:13:41 03-May-20
 STOP.S             13:20:16 03-May-20: STOP TIME  13:20:16 03-May-20
 STEP.S                   0.00: STEP TIME
 NULL.                 -999.25: NULL VALUE
 DFWT.                        :  DIST FWL TEXT
 DFST.                        :  DIST FSL TEXT
 DMF .             Drill Floor:  DRILL MEAS FROM
 STIM.      03.00.00 25-Mar-20:  START TIME
 DATE.      00.00.00 19-May-20:  END TIME
 SPUD.               27-Aug-20:  SPUD DATE
 NREF.                    Grid:  NORTH REFERENCE
 HPTY.       Minimum Curvature:  HOLE POS TYPE
 DMOD.             Drill Model:  DRILL MOD DESC
 SVYD.                  Survey:  SURVEY DESC
 ILTD.               Lithology:  INTERP LTH DESC
 FTOP.          Formation Tops:  FORM TOPS DESC
 SON .        AZ-XX-0906252240:  JOB NUMBER
 RIG .             West Chirag:  RIG NAME
 PDAT.          Mean Sea Level:  PERMANENT DATUM
 FLD .                     ACG:  FIELD NAME
 CTRY.              Azerbaijan:  COUNTRY NAME
 WELL.                     J23:  WELL NAME
 SRVC.          Turan Drilling:  CONTRACTOR
 COMP.     BP Exploration (Caspian Sea) Ltd.:  COMPANY
 WTYP.                Deviated:  WELL TYPE
 MDS .        Operator Entered:  MAG DATA SOURCE
 UWI .                     N/A:  UNIQUE WELL IDENTIFIER
 API .                     N/A:  API NUMBER
 BASE.              Azerbaijan:  LOGGING EQUIPMENT BASE LOCATION
 REGN.                   EESSA:  REGION
 PROV.                    Baku:  PROVINCE
 STAT.                    Baku:  STATE NAME
 MWDS.                     N/A:  MWD SHOP
 JOBN.        AZ-XX-0906252240:  JOB TICKET NUMB
 DOE .                     N/A:  DOE NUMBER
 DCON.         Sperry Drilling:  DIRECTNL CONTR
 UNIT.                     N/A:  LOGGING EQUIPMENT ID
 CNTY.                        :  COUNTY
 LOC .                        :  LOCATION
 LMF .             Drill Floor:  LOG MEASURED FROM
 TVDS.m                  43.00:  TVDSS CORRECTN
 LATI.deg                40.13:  LATITUDE
 LONG.deg                51.22:  LONGITUDE
 WHNS.m                   9.43:  WELL HEAD N/S
 WHEW.m                  -8.91:  WELL HEAD E/W
 UTMX.m              519005.06:  UTM X
 UTMY.m             4443793.85:  UTM Y
 DFWL.m                   0.00:  DISTANCE FWL
 DFSL.m                   0.00:  DISTANCE FSL
 SDEP.m                 363.00:  START DEPTH
 TDD .m                5150.01:  TOTAL DEPTH (DRILLER)
 VSDR.deg               179.88:  VERT SEC DIRECT
 GVFD.g                   1.00:  GRAVITY FIELD
 MFLD.nT              50295.00:  MAGNETIC FIELD
 MDIP.deg                59.56:  MAGNETIC DIP
 MDEC.deg                 6.45:  MAGNETIC DECL
 GRDC.deg                 0.14:  GRID CORRECTION
 AZTC.deg                 6.31:  AZM TOTAL CORR
 EPD .m                   0.00:  ELEVATION
 EGL .m                   0.00:  GROUND ELEVATION
 WDMS.m                 169.80:  WD ELEV
 APD .m                  43.00:  DEPTH ABOVE PD
 DEP .m                 354.17:  DEPTH
 AGAP.m                  43.00:  AIR GAP
 VSEW.m                  -8.91:  VERT SEC E/W
 VSNS.m                   9.43:  VERT SEC N/S
 EKB .m                   0.00:  KB ELEVATION
 EDF .m                  43.00:  DF ELEVATION
 TDL .m                1351.00:  TOTAL DEPTH (LOGGER)
 VSC .                       0:  VS TO CLOSURE
 MAGU.                 1850802:  MAGUTM CHECKSUM
~Parameter Information Block
#MNEM.UNIT       Value        Description
#---------     -----------    ---------------------------
 AV  .mps                 1.00:  Ann Velocity 
 AVMX.mps                 2.40:  Max Ann Veloc 
 AZIF.deg               148.96:  Azm, Final 
 BHAT.        Rotary Steerable:  BHA Type 
 BROT.°/30m               0.04:  Build Rotating 
 BS  .in                 12.25:  Bit Size 
 BSZ .in                 12.25:  Bit Size 
 BTPL.psig              814.00:  Bit Press Loss 
 TCS .hr                106.00:  Time Ciculation Ended 
 CV  .mps                 2.47:  Crit Velocity 
 CVMX.mps                 2.64:  Max Crit Veloc 
 DD1 .          Rashad Habibov:  Direct Drillr 1 
 DD2 .         Rasim Ibrahimov:  Direct Drillr 2 
 DDSV.                 iCruise:  DD Service 
 DEFF.%                 100.00:  % Det Eff 
 DLRX.°/30m               0.70:  Dogleg Rot Max 
 DLSO.°/30m               3.00:  Dogleg Oriented 
 DLSX.°/30m               4.55:  Dogleg Str Max 
 DRET.      08.08.32 02-May-20:  Drill End Time 
 DRST.      08.08.32 28-Apr-20:  Drill Start Tim 
 DTIM.hr                 60.00:  Time Drilling 
 EDEP.m                4761.01:  End Depth 
 ENG1.           Eldar Hajiyev:  Engineer 1 
 ENG2.        Marcelo Sandoval:  Engineer 2 
 ETIM.      23.23.07 05-May-20:  End Time 
 FLOI.gpm              1200.00:  Flow In 
 FLON.gpm               900.00:  Flow In Min 
 FLOS.cptm                0.00:  Fluid Loss 
 FLOX.gpm              1200.00:  Flow In Max 
 HFLO.                      No:  High Flow 
 HPRE.                      No:  High Pressure 
 HTEM.                      No:  High Temp 
 HYDO.m                   1.80:  Hydro Offset 
 IFIN.deg                68.17:  Inc, Final 
 IMAX.deg                74.61:  Inc Max 
 IMIN.deg                68.15:  Inc Min 
 IMND.m                4317.87:  Inc Min Depth 
 IMXD.m                4714.01:  Inc Max Depth 
 LETM.      08.08.32 02-May-20:  Log End Time 
 LOST.hr                     2:  Lost Rig Time 
 LSTM.      08.08.32 28-Apr-20:  Log Start Time 
 MDCL.ppm             41000.00:  Mud Chlorides 
 MDES.     Inversion Oil/Synthetic:  Mud Desc 
 DFD .sg                  1.58:  Mud Density 
 MDMN.sg                  1.58:  Dens Mud Min 
 MDMX.sg                  1.58:  Dens Mud Max 
 MOIL.                      71:  Run Mud Oil % 
 MOWR.                   71:29:  Run Mud OWR 
 MSND.                     0.1:  Run Mud Sand % 
 MSOL.                      23:  Run Mud Solids% 
 DFV .spqt               82.00:  Mud Viscosity 
 MWOD.in                  8.00:  MWD Tool OD 
 MWSI.                     Yes:  Serv Intrp, MWD 
 OTIM.hr                125.00:  Time Operating 
 PMAX.psia             6129.00:  Press Op, Max 
 PV  .cP                 32.00:  Mud PV 
 RUN .                     800:  Run Number 
 ROPA.m/hr               30.00:  ROP Avg 
 ROPN.m/hr               10.00:  ROP Min 
 ROPX.m/hr               40.00:  ROP Max 
 RPMA.rpm               140.00:  RPM Surface Avg 
 RPMN.rpm                80.00:  RPM Surface Min 
 RPMX.rpm               140.00:  RPM Surface Max 
 RRUN.                    L503:  Rig Run Number 
 RTIM.hr                  2.00:  Time Reaming 
 SAZI.deg               184.23:  Azm, Start 
 SDEP.m                3410.01:  Start Depth 
 SIDD.                      No:  Serv Intrp, DD 
 SINC.deg                68.29:  Inc, Start 
 SPPA.psig             6000.00:  SPP Avg 
 SPPN.psig             4000.00:  SPP Min 
 SPPX.psig             6100.00:  SPP Max 
 STIM.      08.08.32 28-Apr-20:  Start Time 
 SVCS.                 DD, MWD:  Services 
 SVER.                    9.20:  Sperry Version 
 TDAT.m                1351.00:  Tot Depth Attmp 
 TDDF.                      No:  Trip for DD 
 TDLG.m                1351.00:  Tot Depth Loggd 
 TFF .                      No:  Trip for Fail 
 TQAA.f-kp               27.00:  Torque Abs Avg 
 TQAN.f-kp               20.00:  Torque Abs Min 
 TQAX.f-kp               30.00:  Torque Abs Max 
 TRRT.°/30m               0.60:  Turn Rotating 
 MRT .                    EWER:  Maximum Recorded Temperature 
 TTMX.degC               83.00:  Max Tool Temp 
 VS01.                90511138:  Virtual Str1 SN 
 VS02.                90524876:  Virtual Str2 SN 
 VS03.                90524872:  Virtual Str3 SN 
 VS04.                90502750:  Virtual Str4 SN 
 VS05.                12330984:  Virtual Str5 SN 
 WBMN.klb                 0.00:  WOB Min 
 WOBA.klb                15.00:  WOB Avg 
 WOBX.klb                20.00:  WOB Max 
 YP  .lhf2               31.00:  Yield Point 
~Curve Information Block
#MNEM.UNIT                 API CODE     Curve Description
#---------               -----------    ---------------------------
 TIME.HHMMSS            00 000 000 000:  GT Time & Date
 GTDEPTH.m              00 000 000 000:  GT Depth
 GTPQH.psia             00 000 000 000:  GT HR Quartz Pressure
 GTTQ.degC              00 000 000 000:  GT Quartz Temperature
 GTTN.NONE              00 000 000 000:  GT Test Number
 GTET.sec               00 000 000 000:  GT Elapsed Test Time
 GTTVD.m                00 000 000 000:  GT True Vertical Depth
#Other Information
#
#WARRANTY: Halliburton will use its best efforts to furnish customers with 
#accurate information and interpretations that are part of, and incident to, the services 
#provided.  However, Halliburton cannot and does not warrant the accuracy 
#or correctness of such information and interpretations.  Under no circumstances should any 
#such information or interpretation be relied upon as the sole basis for any drilling, 
#completion, production, or financial decision or any procedure involving any risk to the 
#safety of any drilling venture, drilling rig or its crew or any other third party.  The 
#Customer has full responsibility for all drilling, completion and production operation.  
#Halliburton makes no representations or warranties, either expressed or 
#implied, including, but not limited to, the implied warranties of merchantability or fitness 
#for a particular purpose, with respect to the services rendered.  In no event will 
#Halliburton be liable for failure to obtain any particular results or for 
#any damages, including, but not limited to, indirect, special or consequential damages, 
#resulting from the use of any information or interpretation provided by Halliburton.
#
~A           TIME           GTDEPTH  GTPQH  GTTQ  GTTN  GTET   GTTVD  
# ...
   13:15:13.555.03-May-2020 4532.80 4123.63 80.50 1.00  92.14 2465.99
   13:15:13.756.03-May-2020 4532.80 4123.63 80.50 1.00  92.35 2465.99
   13:15:13.956.03-May-2020 4532.80 4122.45 80.50 1.00  92.55 2465.99
   13:15:14.156.03-May-2020 4532.80 4123.71 80.50 1.00  92.75 2465.99
   13:15:14.357.03-May-2020 4532.80 4123.48 80.50 1.00  92.95 2465.99
   13:15:14.557.03-May-2020 4532.80 4122.96 80.50 1.00  93.15 2465.99
   13:15:14.757.03-May-2020 4532.80 4122.96 80.50 1.00  93.35 2465.99
   13:15:14.958.03-May-2020 4532.80 4122.46 80.49 1.00  93.55 2465.99
   13:15:15.158.03-May-2020 4532.80 4122.43 80.49 1.00  93.75 2465.99
   13:15:15.358.03-May-2020 4532.80 4122.44 80.49 1.00  93.95 2465.99
   13:15:15.559.03-May-2020 4532.80 4122.38 80.49 1.00  94.15 2465.99
   13:15:15.759.03-May-2020 4532.80 4122.38 80.49 1.00  94.35 2465.99
   13:15:15.959.03-May-2020 4532.80 4122.33 80.49 1.00  94.55 2465.99
   13:15:16.160.03-May-2020 4532.80 4122.28 80.49 1.00  94.75 2465.99
   13:15:16.360.03-May-2020 4532.80 4122.28 80.49 1.00  94.95 2465.99
   13:15:16.560.03-May-2020 4532.80 4122.26 80.49 1.00  95.15 2465.99
   13:15:16.760.03-May-2020 4532.80 4122.26 80.49 1.00  95.35 2465.99
   13:15:16.961.03-May-2020 4532.80 4122.56 80.49 1.00  95.55 2465.99
   13:15:17.161.03-May-2020 4532.80 4122.87 80.49 1.00  95.75 2465.99
   13:15:17.361.03-May-2020 4532.80 4122.56 80.49 1.00  95.95 2465.99
   13:15:17.562.03-May-2020 4532.80 4122.75 80.49 1.00  96.15 2465.99
   13:15:17.762.03-May-2020 4532.80 4122.75 80.49 1.00  96.35 2465.99
   13:15:17.962.03-May-2020 4532.80 4122.26 80.49 1.00  96.55 2465.99
   13:15:18.163.03-May-2020 4532.80 4122.34 80.49 1.00  96.75 2465.99
   13:15:18.363.03-May-2020 4532.80 4122.32 80.49 1.00  96.95 2465.99
   13:15:18.563.03-May-2020 4532.80 4122.29 80.49 1.00  97.15 2465.99
   13:15:18.764.03-May-2020 4532.80 4122.29 80.49 1.00  97.35 2465.99
   13:15:18.964.03-May-2020 4532.80 4122.13 80.48 1.00  97.55 2465.99
   13:15:19.164.03-May-2020 4532.80 4122.14 80.48 1.00  97.75 2465.99
   13:15:19.365.03-May-2020 4532.80 4122.53 80.48 1.00  97.95 2465.99
   13:15:19.565.03-May-2020 4532.80 4122.46 80.48 1.00  98.15 2465.99
   13:15:19.765.03-May-2020 4532.80 4122.77 80.48 1.00  98.35 2465.99
   13:15:19.965.03-May-2020 4532.80 4122.52 80.48 1.00  98.55 2465.99
   13:15:20.166.03-May-2020 4532.80 4123.50 80.48 1.00  98.76 2465.99
   13:15:20.366.03-May-2020 4532.80 4122.96 80.48 1.00  98.96 2465.99
   13:15:20.566.03-May-2020 4532.80 4122.62 80.48 1.00  99.16 2465.99
   13:15:20.767.03-May-2020 4532.80 4122.62 80.48 1.00  99.36 2465.99
   13:15:20.967.03-May-2020 4532.80 4123.05 80.48 1.00  99.56 2465.99
   13:15:21.167.03-May-2020 4532.80 4122.80 80.48 1.00  99.76 2465.99
   13:15:21.368.03-May-2020 4532.80 4123.02 80.48 1.00  99.96 2465.99
   13:15:21.568.03-May-2020 4532.80 4122.83 80.48 1.00 100.16 2465.99
   13:15:21.768.03-May-2020 4532.80 4122.83 80.48 1.00 100.36 2465.99
   13:15:21.969.03-May-2020 4532.80 4122.22 80.48 1.00 100.56 2465.99
   13:15:22.169.03-May-2020 4532.80 4122.85 80.48 1.00 100.76 2465.99
   13:15:22.369.03-May-2020 4532.80 4122.85 80.48 1.00 100.96 2465.99
   13:15:22.570.03-May-2020 4532.80 4122.74 80.48 1.00 101.16 2465.99
   13:15:22.770.03-May-2020 4532.80 4122.74 80.48 1.00 101.36 2465.99
   13:15:22.970.03-May-2020 4532.80 4122.41 80.48 1.00 101.56 2465.99
   13:15:23.171.03-May-2020 4532.80 4122.44 80.47 1.00 101.76 2465.99
   13:15:23.371.03-May-2020 4532.80 4122.50 80.47 1.00 101.96 2465.99
   13:15:23.571.03-May-2020 4532.80 4122.40 80.47 1.00 102.16 2465.99
   13:15:23.771.03-May-2020 4532.80 4122.34 80.47 1.00 102.36 2465.99
   13:15:23.972.03-May-2020 4532.80 4122.35 80.47 1.00 102.56 2465.99
   13:15:24.172.03-May-2020 4532.80 4122.40 80.47 1.00 102.76 2465.99
   13:15:24.372.03-May-2020 4532.80 4122.36 80.47 1.00 102.96 2465.99
   13:15:24.573.03-May-2020 4532.80 4122.74 80.47 1.00 103.16 2465.99
   13:15:24.773.03-May-2020 4532.80 4122.74 80.47 1.00 103.36 2465.99
   13:15:24.973.03-May-2020 4532.80 4122.83 80.47 1.00 103.56 2465.99
   13:15:25.174.03-May-2020 4532.80 4122.59 80.47 1.00 103.76 2465.99
   13:15:25.374.03-May-2020 4532.80 4122.83 80.47 1.00 103.96 2465.99
   13:15:25.574.03-May-2020 4532.80 4122.51 80.47 1.00 104.16 2465.99
   13:15:25.775.03-May-2020 4532.80 4122.51 80.47 1.00 104.36 2465.99
   13:15:25.975.03-May-2020 4532.80 4122.41 80.47 1.00 104.56 2465.99
   13:15:26.175.03-May-2020 4532.80 4122.41 80.47 1.00 104.76 2465.99
   13:15:26.376.03-May-2020 4532.80 4122.36 80.47 1.00 104.97 2465.99
   13:15:26.576.03-May-2020 4532.80 4122.34 80.47 1.00 105.17 2465.99
   13:15:26.776.03-May-2020 4532.80 4122.34 80.47 1.00 105.37 2465.99
   13:15:26.977.03-May-2020 4532.80 4122.20 80.47 1.00 105.57 2465.99
   13:15:27.177.03-May-2020 4532.80 4122.66 80.47 1.00 105.77 2465.99
   13:15:27.377.03-May-2020 4532.80 4122.77 80.46 1.00 105.97 2465.99
   13:15:27.577.03-May-2020 4532.80 4122.74 80.46 1.00 106.17 2465.99
   13:15:27.778.03-May-2020 4532.80 4122.49 80.46 1.00 106.37 2465.99
   13:15:27.978.03-May-2020 4532.80 4123.26 80.46 1.00 106.57 2465.99
   13:15:28.178.03-May-2020 4532.80 4122.73 80.46 1.00 106.77 2465.99
   13:15:28.379.03-May-2020 4532.80 4122.69 80.46 1.00 106.97 2465.99
   13:15:28.579.03-May-2020 4532.80 4123.52 80.46 1.00 107.17 2465.99
   13:15:28.779.03-May-2020 4532.80 4123.52 80.46 1.00 107.37 2465.99
   13:15:28.980.03-May-2020 4532.80 4122.78 80.46 1.00 107.57 2465.99
   13:15:29.180.03-May-2020 4532.80 4123.06 80.46 1.00 107.77 2465.99
   13:15:29.380.03-May-2020 4532.80 4122.85 80.46 1.00 107.97 2465.99
   13:15:29.581.03-May-2020 4532.80 4122.75 80.46 1.00 108.17 2465.99
   13:15:29.781.03-May-2020 4532.80 4122.75 80.46 1.00 108.37 2465.99
   13:15:29.981.03-May-2020 4532.80 4122.77 80.46 1.00 108.57 2465.99
   13:15:30.182.03-May-2020 4532.80 4122.84 80.46 1.00 108.77 2465.99
   13:15:30.382.03-May-2020 4532.80 4122.71 80.46 1.00 108.97 2465.99
   13:15:30.582.03-May-2020 4532.80 4122.54 80.46 1.00 109.17 2465.99
   13:15:30.782.03-May-2020 4532.80 4122.54 80.46 1.00 109.37 2465.99
   13:15:30.983.03-May-2020 4532.80 4122.51 80.46 1.00 109.57 2465.99
   13:15:31.183.03-May-2020 4532.80 4122.55 80.46 1.00 109.77 2465.99
   13:15:31.383.03-May-2020 4532.80 4122.38 80.45 1.00 109.97 2465.99
   13:15:31.584.03-May-2020 4532.80 4122.37 80.45 1.00 110.17 2465.99
   13:15:31.784.03-May-2020 4532.80 4122.48 80.45 1.00 110.37 2465.99
   13:15:31.984.03-May-2020 4532.80 4122.46 80.45 1.00 110.57 2465.99
   13:15:32.185.03-May-2020 4532.80 4122.46 80.45 1.00 110.77 2465.99
   13:15:32.385.03-May-2020 4532.80 4122.75 80.45 1.00 110.97 2465.99
   13:15:32.585.03-May-2020 4532.80 4122.90 80.45 1.00 111.17 2465.99
   13:15:32.786.03-May-2020 4532.80 4122.90 80.45 1.00 111.38 2465.99
   13:15:32.986.03-May-2020 4532.80 4122.65 80.45 1.00 111.58 2465.99
   13:15:33.186.03-May-2020 4532.80 4122.87 80.45 1.00 111.78 2465.99
   13:15:33.387.03-May-2020 4532.80 4122.56 80.45 1.00 111.98 2465.99
   13:15:33.587.03-May-2020 4532.80 4122.40 80.45 1.00 112.18 2465.99
   13:15:33.787.03-May-2020 4532.80 4122.40 80.45 1.00 112.38 2465.99
   13:15:33.988.03-May-2020 4532.80 4122.52 80.45 1.00 112.58 2465.99
   13:15:34.188.03-May-2020 4532.80 4122.45 80.45 1.00 112.78 2465.99
   13:15:34.388.03-May-2020 4532.80 4122.39 80.45 1.00 112.98 2465.99
   13:15:34.588.03-May-2020 4532.80 4122.33 80.45 1.00 113.18 2465.99
   13:15:34.789.03-May-2020 4532.80 4122.33 80.45 1.00 113.38 2465.99
   13:15:34.989.03-May-2020 4532.80 4122.76 80.45 1.00 113.58 2465.99
   13:15:35.189.03-May-2020 4532.80 4122.87 80.45 1.00 113.78 2465.99
   13:15:35.390.03-May-2020 4532.80 4122.84 80.44 1.00 113.98 2465.99
   13:15:35.590.03-May-2020 4532.80 4122.48 80.44 1.00 114.18 2465.99
   13:15:35.790.03-May-2020 4532.80 4122.48 80.44 1.00 114.38 2465.99
   13:15:35.991.03-May-2020 4532.80 4122.77 80.44 1.00 114.58 2465.99
   13:15:36.191.03-May-2020 4532.80 4122.61 80.44 1.00 114.78 2465.99
   13:15:36.391.03-May-2020 4532.80 4123.62 80.44 1.00 114.98 2465.99
