~Version Information
 VERS.                  2.0:   CWLS log ASCII Standard -VERSION 2.0
 WRAP.                   NO:   One line per depth step
~Well Information Block
#MNEM.UNIT     VALUE/NAME     DESCRIPTION
#---------     -----------    ---------------------------
 STRT.S             01:13:00 04-May-20: START TIME 01:13:00 04-May-20
 STOP.S             01:19:30 04-May-20: STOP TIME  01:19:30 04-May-20
 STEP.S                   0.00: STEP TIME
 NULL.                 -999.25: NULL VALUE
 DFWT.                        :  DIST FWL TEXT
 DFST.                        :  DIST FSL TEXT
 DMF .             Drill Floor:  DRILL MEAS FROM
 STIM.      03.00.00 25-Mar-20:  START TIME
 DATE.      00.00.00 19-May-20:  END TIME
 SPUD.               27-Aug-20:  SPUD DATE
 NREF.                    Grid:  NORTH REFERENCE
 HPTY.       Minimum Curvature:  HOLE POS TYPE
 DMOD.             Drill Model:  DRILL MOD DESC
 SVYD.                  Survey:  SURVEY DESC
 ILTD.               Lithology:  INTERP LTH DESC
 FTOP.          Formation Tops:  FORM TOPS DESC
 SON .        AZ-XX-0906252240:  JOB NUMBER
 RIG .             West Chirag:  RIG NAME
 PDAT.          Mean Sea Level:  PERMANENT DATUM
 FLD .                     ACG:  FIELD NAME
 CTRY.              Azerbaijan:  COUNTRY NAME
 WELL.                     J23:  WELL NAME
 SRVC.          Turan Drilling:  CONTRACTOR
 COMP.     BP Exploration (Caspian Sea) Ltd.:  COMPANY
 WTYP.                Deviated:  WELL TYPE
 MDS .        Operator Entered:  MAG DATA SOURCE
 UWI .                     N/A:  UNIQUE WELL IDENTIFIER
 API .                     N/A:  API NUMBER
 BASE.              Azerbaijan:  LOGGING EQUIPMENT BASE LOCATION
 REGN.                   EESSA:  REGION
 PROV.                    Baku:  PROVINCE
 STAT.                    Baku:  STATE NAME
 MWDS.                     N/A:  MWD SHOP
 JOBN.        AZ-XX-0906252240:  JOB TICKET NUMB
 DOE .                     N/A:  DOE NUMBER
 DCON.         Sperry Drilling:  DIRECTNL CONTR
 UNIT.                     N/A:  LOGGING EQUIPMENT ID
 CNTY.                        :  COUNTY
 LOC .                        :  LOCATION
 LMF .             Drill Floor:  LOG MEASURED FROM
 TVDS.m                  43.00:  TVDSS CORRECTN
 LATI.deg                40.13:  LATITUDE
 LONG.deg                51.22:  LONGITUDE
 WHNS.m                   9.43:  WELL HEAD N/S
 WHEW.m                  -8.91:  WELL HEAD E/W
 UTMX.m              519005.06:  UTM X
 UTMY.m             4443793.85:  UTM Y
 DFWL.m                   0.00:  DISTANCE FWL
 DFSL.m                   0.00:  DISTANCE FSL
 SDEP.m                 363.00:  START DEPTH
 TDD .m                5150.01:  TOTAL DEPTH (DRILLER)
 VSDR.deg               179.88:  VERT SEC DIRECT
 GVFD.g                   1.00:  GRAVITY FIELD
 MFLD.nT              50295.00:  MAGNETIC FIELD
 MDIP.deg                59.56:  MAGNETIC DIP
 MDEC.deg                 6.45:  MAGNETIC DECL
 GRDC.deg                 0.14:  GRID CORRECTION
 AZTC.deg                 6.31:  AZM TOTAL CORR
 EPD .m                   0.00:  ELEVATION
 EGL .m                   0.00:  GROUND ELEVATION
 WDMS.m                 169.80:  WD ELEV
 APD .m                  43.00:  DEPTH ABOVE PD
 DEP .m                 354.17:  DEPTH
 AGAP.m                  43.00:  AIR GAP
 VSEW.m                  -8.91:  VERT SEC E/W
 VSNS.m                   9.43:  VERT SEC N/S
 EKB .m                   0.00:  KB ELEVATION
 EDF .m                  43.00:  DF ELEVATION
 TDL .m                1351.00:  TOTAL DEPTH (LOGGER)
 VSC .                       0:  VS TO CLOSURE
 MAGU.                 1850802:  MAGUTM CHECKSUM
~Parameter Information Block
#MNEM.UNIT       Value        Description
#---------     -----------    ---------------------------
 AV  .mps                 1.00:  Ann Velocity 
 AVMX.mps                 2.40:  Max Ann Veloc 
 AZIF.deg               148.96:  Azm, Final 
 BHAT.        Rotary Steerable:  BHA Type 
 BROT.°/30m               0.04:  Build Rotating 
 BS  .in                 12.25:  Bit Size 
 BSZ .in                 12.25:  Bit Size 
 BTPL.psig              814.00:  Bit Press Loss 
 TCS .hr                106.00:  Time Ciculation Ended 
 CV  .mps                 2.47:  Crit Velocity 
 CVMX.mps                 2.64:  Max Crit Veloc 
 DD1 .          Rashad Habibov:  Direct Drillr 1 
 DD2 .         Rasim Ibrahimov:  Direct Drillr 2 
 DDSV.                 iCruise:  DD Service 
 DEFF.%                 100.00:  % Det Eff 
 DLRX.°/30m               0.70:  Dogleg Rot Max 
 DLSO.°/30m               3.00:  Dogleg Oriented 
 DLSX.°/30m               4.55:  Dogleg Str Max 
 DRET.      08.08.32 02-May-20:  Drill End Time 
 DRST.      08.08.32 28-Apr-20:  Drill Start Tim 
 DTIM.hr                 60.00:  Time Drilling 
 EDEP.m                4761.01:  End Depth 
 ENG1.           Eldar Hajiyev:  Engineer 1 
 ENG2.        Marcelo Sandoval:  Engineer 2 
 ETIM.      23.23.07 05-May-20:  End Time 
 FLOI.gpm              1200.00:  Flow In 
 FLON.gpm               900.00:  Flow In Min 
 FLOS.cptm                0.00:  Fluid Loss 
 FLOX.gpm              1200.00:  Flow In Max 
 HFLO.                      No:  High Flow 
 HPRE.                      No:  High Pressure 
 HTEM.                      No:  High Temp 
 HYDO.m                   1.80:  Hydro Offset 
 IFIN.deg                68.17:  Inc, Final 
 IMAX.deg                74.61:  Inc Max 
 IMIN.deg                68.15:  Inc Min 
 IMND.m                4317.87:  Inc Min Depth 
 IMXD.m                4714.01:  Inc Max Depth 
 LETM.      08.08.32 02-May-20:  Log End Time 
 LOST.hr                     2:  Lost Rig Time 
 LSTM.      08.08.32 28-Apr-20:  Log Start Time 
 MDCL.ppm             41000.00:  Mud Chlorides 
 MDES.     Inversion Oil/Synthetic:  Mud Desc 
 DFD .sg                  1.58:  Mud Density 
 MDMN.sg                  1.58:  Dens Mud Min 
 MDMX.sg                  1.58:  Dens Mud Max 
 MOIL.                      71:  Run Mud Oil % 
 MOWR.                   71:29:  Run Mud OWR 
 MSND.                     0.1:  Run Mud Sand % 
 MSOL.                      23:  Run Mud Solids% 
 DFV .spqt               82.00:  Mud Viscosity 
 MWOD.in                  8.00:  MWD Tool OD 
 MWSI.                     Yes:  Serv Intrp, MWD 
 OTIM.hr                125.00:  Time Operating 
 PMAX.psia             6129.00:  Press Op, Max 
 PV  .cP                 32.00:  Mud PV 
 RUN .                     800:  Run Number 
 ROPA.m/hr               30.00:  ROP Avg 
 ROPN.m/hr               10.00:  ROP Min 
 ROPX.m/hr               40.00:  ROP Max 
 RPMA.rpm               140.00:  RPM Surface Avg 
 RPMN.rpm                80.00:  RPM Surface Min 
 RPMX.rpm               140.00:  RPM Surface Max 
 RRUN.                    L503:  Rig Run Number 
 RTIM.hr                  2.00:  Time Reaming 
 SAZI.deg               184.23:  Azm, Start 
 SDEP.m                3410.01:  Start Depth 
 SIDD.                      No:  Serv Intrp, DD 
 SINC.deg                68.29:  Inc, Start 
 SPPA.psig             6000.00:  SPP Avg 
 SPPN.psig             4000.00:  SPP Min 
 SPPX.psig             6100.00:  SPP Max 
 STIM.      08.08.32 28-Apr-20:  Start Time 
 SVCS.                 DD, MWD:  Services 
 SVER.                    9.20:  Sperry Version 
 TDAT.m                1351.00:  Tot Depth Attmp 
 TDDF.                      No:  Trip for DD 
 TDLG.m                1351.00:  Tot Depth Loggd 
 TFF .                      No:  Trip for Fail 
 TQAA.f-kp               27.00:  Torque Abs Avg 
 TQAN.f-kp               20.00:  Torque Abs Min 
 TQAX.f-kp               30.00:  Torque Abs Max 
 TRRT.°/30m               0.60:  Turn Rotating 
 MRT .                    EWER:  Maximum Recorded Temperature 
 TTMX.degC               83.00:  Max Tool Temp 
 VS01.                90511138:  Virtual Str1 SN 
 VS02.                90524876:  Virtual Str2 SN 
 VS03.                90524872:  Virtual Str3 SN 
 VS04.                90502750:  Virtual Str4 SN 
 VS05.                12330984:  Virtual Str5 SN 
 WBMN.klb                 0.00:  WOB Min 
 WOBA.klb                15.00:  WOB Avg 
 WOBX.klb                20.00:  WOB Max 
 YP  .lhf2               31.00:  Yield Point 
~Curve Information Block
#MNEM.UNIT                 API CODE     Curve Description
#---------               -----------    ---------------------------
 TIME.HHMMSS            00 000 000 000:  GT Time & Date
 GTDEPTH.m              00 000 000 000:  GT Depth
 GTPQH.psia             00 000 000 000:  GT HR Quartz Pressure
 GTTQ.degC              00 000 000 000:  GT Quartz Temperature
 GTTN.NONE              00 000 000 000:  GT Test Number
 GTET.sec               00 000 000 000:  GT Elapsed Test Time
 GTTVD.m                00 000 000 000:  GT True Vertical Depth
#Other Information
#
#WARRANTY: Halliburton will use its best efforts to furnish customers with 
#accurate information and interpretations that are part of, and incident to, the services 
#provided.  However, Halliburton cannot and does not warrant the accuracy 
#or correctness of such information and interpretations.  Under no circumstances should any 
#such information or interpretation be relied upon as the sole basis for any drilling, 
#completion, production, or financial decision or any procedure involving any risk to the 
#safety of any drilling venture, drilling rig or its crew or any other third party.  The 
#Customer has full responsibility for all drilling, completion and production operation.  
#Halliburton makes no representations or warranties, either expressed or 
#implied, including, but not limited to, the implied warranties of merchantability or fitness 
#for a particular purpose, with respect to the services rendered.  In no event will 
#Halliburton be liable for failure to obtain any particular results or for 
#any damages, including, but not limited to, indirect, special or consequential damages, 
#resulting from the use of any information or interpretation provided by Halliburton.
#
~A           TIME           GTDEPTH  GTPQH  GTTQ  GTTN  GTET   GTTVD  
   01:13:00.529.04-May-2020 4660.50 5809.56 76.61 5.00   0.00 2503.99
   01:13:00.729.04-May-2020 4660.50 5809.56 76.61 5.00   0.20 2503.99
   01:13:00.929.04-May-2020 4660.50 5808.03 76.61 5.00   0.40 2503.99
   01:13:01.129.04-May-2020 4660.50 5812.95 76.61 5.00   0.60 2503.99
   01:13:01.329.04-May-2020 4660.50 5812.45 76.61 5.00   0.80 2503.99
   01:13:01.529.04-May-2020 4660.50 5812.80 76.61 5.00   1.00 2503.99
   01:13:01.729.04-May-2020 4660.50 5818.88 76.61 5.00   1.20 2503.99
   01:13:01.929.04-May-2020 4660.50 5814.84 76.61 5.00   1.40 2503.99
   01:13:02.129.04-May-2020 4660.50 5815.70 76.60 5.00   1.60 2503.99
   01:13:02.329.04-May-2020 4660.50 5817.05 76.60 5.00   1.80 2503.99
   01:13:02.529.04-May-2020 4660.50 5818.71 76.60 5.00   2.00 2503.99
   01:13:02.730.04-May-2020 4660.50 5818.71 76.60 5.00   2.20 2503.99
   01:13:02.930.04-May-2020 4660.50 5812.67 76.60 5.00   2.40 2503.99
   01:13:03.130.04-May-2020 4660.50 5814.72 76.60 5.00   2.60 2503.99
   01:13:03.330.04-May-2020 4660.50 5811.84 76.60 5.00   2.80 2503.99
   01:13:03.530.04-May-2020 4660.50 5808.86 76.60 5.00   3.00 2503.99
   01:13:03.730.04-May-2020 4660.50 5808.86 76.60 5.00   3.20 2503.99
   01:13:03.930.04-May-2020 4660.50 5810.95 76.60 5.00   3.40 2503.99
   01:13:04.130.04-May-2020 4660.50 5815.00 76.60 5.00   3.60 2503.99
   01:13:04.330.04-May-2020 4660.50 5811.27 76.60 5.00   3.80 2503.99
   01:13:04.530.04-May-2020 4660.50 5810.96 76.60 5.00   4.00 2503.99
   01:13:04.730.04-May-2020 4660.50 5810.96 76.60 5.00   4.20 2503.99
   01:13:04.930.04-May-2020 4660.50 5817.48 76.60 5.00   4.40 2503.99
   01:13:05.130.04-May-2020 4660.50 5814.66 76.60 5.00   4.60 2503.99
   01:13:05.330.04-May-2020 4660.50 5814.37 76.59 5.00   4.80 2503.99
   01:13:05.530.04-May-2020 4660.50 5818.39 76.59 5.00   5.00 2503.99
   01:13:05.730.04-May-2020 4660.50 5818.39 76.59 5.00   5.20 2503.99
   01:13:05.930.04-May-2020 4660.50 5813.35 76.59 5.00   5.40 2503.99
   01:13:06.130.04-May-2020 4660.50 5815.29 76.59 5.00   5.60 2503.99
   01:13:06.330.04-May-2020 4660.50 5815.20 76.59 5.00   5.80 2503.99
   01:13:06.530.04-May-2020 4660.50 5818.22 76.59 5.00   6.00 2503.99
   01:13:06.730.04-May-2020 4660.50 5818.22 76.59 5.00   6.20 2503.99
   01:13:06.930.04-May-2020 4660.50 5813.72 76.59 5.00   6.40 2503.99
   01:13:07.130.04-May-2020 4660.50 5814.68 76.59 5.00   6.60 2503.99
   01:13:07.330.04-May-2020 4660.50 5816.65 76.59 5.00   6.80 2503.99
   01:13:07.530.04-May-2020 4660.50 5813.05 76.59 5.00   7.00 2503.99
   01:13:07.730.04-May-2020 4660.50 5813.05 76.59 5.00   7.20 2503.99
   01:13:07.930.04-May-2020 4660.50 5816.12 76.59 5.00   7.40 2503.99
   01:13:08.130.04-May-2020 4660.50 5816.78 76.59 5.00   7.60 2503.99
   01:13:08.330.04-May-2020 4660.50 5817.71 76.59 5.00   7.80 2503.99
   01:13:08.530.04-May-2020 4660.50 5818.39 76.58 5.00   8.00 2503.99
   01:13:08.730.04-May-2020 4660.50 5818.39 76.58 5.00   8.20 2503.99
   01:13:08.930.04-May-2020 4660.50 5818.45 76.58 5.00   8.40 2503.99
   01:13:09.130.04-May-2020 4660.50 5818.18 76.58 5.00   8.60 2503.99
   01:13:09.330.04-May-2020 4660.50 5822.06 76.58 5.00   8.80 2503.99
   01:13:09.530.04-May-2020 4660.50 5819.01 76.58 5.00   9.00 2503.99
   01:13:09.730.04-May-2020 4660.50 5819.01 76.58 5.00   9.20 2503.99
   01:13:09.930.04-May-2020 4660.50 5817.90 76.58 5.00   9.40 2503.99
   01:13:10.130.04-May-2020 4660.50 5818.90 76.58 5.00   9.60 2503.99
   01:13:10.330.04-May-2020 4660.50 5816.63 76.58 5.00   9.80 2503.99
   01:13:10.530.04-May-2020 4660.50 5817.10 76.58 5.00  10.00 2503.99
   01:13:10.730.04-May-2020 4660.50 5817.10 76.58 5.00  10.20 2503.99
   01:13:10.930.04-May-2020 4660.50 5814.64 76.58 5.00  10.40 2503.99
   01:13:11.130.04-May-2020 4660.50 5814.13 76.58 5.00  10.60 2503.99
   01:13:11.330.04-May-2020 4660.50 5813.12 76.58 5.00  10.80 2503.99
   01:13:11.530.04-May-2020 4660.50 5812.39 76.58 5.00  11.00 2503.99
   01:13:11.730.04-May-2020 4660.50 5812.39 76.58 5.00  11.20 2503.99
   01:13:11.930.04-May-2020 4660.50 5812.84 76.57 5.00  11.40 2503.99
   01:13:12.130.04-May-2020 4660.50 5814.20 76.57 5.00  11.60 2503.99
   01:13:12.330.04-May-2020 4660.50 5810.21 76.57 5.00  11.80 2503.99
   01:13:12.530.04-May-2020 4660.50 5809.98 76.57 5.00  12.00 2503.99
   01:13:12.730.04-May-2020 4660.50 5809.98 76.57 5.00  12.20 2503.99
   01:13:12.930.04-May-2020 4660.50 5815.58 76.57 5.00  12.40 2503.99
   01:13:13.130.04-May-2020 4660.50 5807.40 76.57 5.00  12.60 2503.99
   01:13:13.330.04-May-2020 4660.50 5808.36 76.57 5.00  12.80 2503.99
   01:13:13.530.04-May-2020 4660.50 5809.08 76.57 5.00  13.00 2503.99
   01:13:13.731.04-May-2020 4660.50 5809.08 76.57 5.00  13.20 2503.99
   01:13:13.931.04-May-2020 4660.50 5814.40 76.57 5.00  13.40 2503.99
   01:13:14.131.04-May-2020 4660.50 5809.37 76.57 5.00  13.60 2503.99
   01:13:14.331.04-May-2020 4660.50 5809.51 76.57 5.00  13.80 2503.99
   01:13:14.531.04-May-2020 4660.50 5808.62 76.57 5.00  14.00 2503.99
   01:13:14.731.04-May-2020 4660.50 5808.62 76.57 5.00  14.20 2503.99
   01:13:14.931.04-May-2020 4660.50 5809.37 76.56 5.00  14.40 2503.99
   01:13:15.131.04-May-2020 4660.50 5810.94 76.56 5.00  14.60 2503.99
   01:13:15.331.04-May-2020 4660.50 5812.41 76.56 5.00  14.80 2503.99
   01:13:15.531.04-May-2020 4660.50 5808.75 76.56 5.00  15.00 2503.99
   01:13:15.731.04-May-2020 4660.50 5808.75 76.56 5.00  15.20 2503.99
   01:13:15.931.04-May-2020 4660.50 5808.75 76.56 5.00  15.40 2503.99
   01:13:16.131.04-May-2020 4660.50 5813.20 76.56 5.00  15.60 2503.99
   01:13:16.331.04-May-2020 4660.50 5806.17 76.56 5.00  15.80 2503.99
   01:13:16.531.04-May-2020 4660.50 5808.62 76.57 5.00  16.00 2503.99
   01:13:16.731.04-May-2020 4660.50 5807.18 76.56 5.00  16.20 2503.99
   01:13:16.931.04-May-2020 4660.50 5807.18 76.56 5.00  16.40 2503.99
   01:13:17.131.04-May-2020 4660.50 5806.98 76.56 5.00  16.60 2503.99
   01:13:17.331.04-May-2020 4660.50 5807.15 76.56 5.00  16.80 2503.99
   01:13:17.531.04-May-2020 4660.50 5807.61 76.56 5.00  17.00 2503.99
   01:13:17.731.04-May-2020 4660.50 5807.61 76.56 5.00  17.20 2503.99
   01:13:17.931.04-May-2020 4660.50 5807.99 76.55 5.00  17.40 2503.99
   01:13:18.131.04-May-2020 4660.50 5807.63 76.55 5.00  17.60 2503.99
   01:13:18.331.04-May-2020 4660.50 5807.92 76.55 5.00  17.80 2503.99
   01:13:18.531.04-May-2020 4660.50 5807.01 76.55 5.00  18.00 2503.99
   01:13:18.731.04-May-2020 4660.50 5807.01 76.55 5.00  18.20 2503.99
   01:13:18.931.04-May-2020 4660.50 5810.34 76.55 5.00  18.40 2503.99
   01:13:19.131.04-May-2020 4660.50 5805.82 76.55 5.00  18.60 2503.99
   01:13:19.331.04-May-2020 4660.50 5805.27 76.55 5.00  18.80 2503.99
   01:13:19.531.04-May-2020 4660.50 5803.71 76.55 5.00  19.00 2503.99
   01:13:19.731.04-May-2020 4660.50 5803.71 76.55 5.00  19.20 2503.99
   01:13:19.931.04-May-2020 4660.50 5803.51 76.55 5.00  19.40 2503.99
   01:13:20.131.04-May-2020 4660.50 5804.19 76.55 5.00  19.60 2503.99
   01:13:20.331.04-May-2020 4660.50 5804.02 76.55 5.00  19.80 2503.99
   01:13:20.531.04-May-2020 4660.50 5804.05 76.55 5.00  20.00 2503.99
   01:13:20.731.04-May-2020 4660.50 5804.05 76.55 5.00  20.20 2503.99
   01:13:20.931.04-May-2020 4660.50 5804.62 76.54 5.00  20.40 2503.99
   01:13:21.131.04-May-2020 4660.50 5805.26 76.54 5.00  20.60 2503.99
   01:13:21.331.04-May-2020 4660.50 5805.46 76.54 5.00  20.80 2503.99
   01:13:21.531.04-May-2020 4660.50 5809.44 76.54 5.00  21.00 2503.99
   01:13:21.731.04-May-2020 4660.50 5809.44 76.54 5.00  21.20 2503.99
   01:13:21.931.04-May-2020 4660.50 5808.61 76.54 5.00  21.40 2503.99
   01:13:22.131.04-May-2020 4660.50 5811.01 76.54 5.00  21.60 2503.99
   01:13:22.331.04-May-2020 4660.50 5805.68 76.54 5.00  21.80 2503.99
   01:13:22.531.04-May-2020 4660.50 5805.37 76.54 5.00  22.00 2503.99
   01:13:22.731.04-May-2020 4660.50 5805.37 76.54 5.00  22.20 2503.99
   01:13:22.931.04-May-2020 4660.50 5809.33 76.54 5.00  22.40 2503.99
   01:13:23.131.04-May-2020 4660.50 5810.39 76.54 5.00  22.60 2503.99
   01:13:23.331.04-May-2020 4660.50 5805.92 76.54 5.00  22.80 2503.99
