~Version Information
 VERS.                  2.0:   CWLS log ASCII Standard -VERSION 2.0
 WRAP.                   NO:   One line per depth step
~Well Information Block
#MNEM.UNIT     VALUE/NAME     DESCRIPTION
#---------     -----------    ---------------------------
 STRT.S             10:50:58 04-May-20: START TIME 10:50:58 04-May-20
 STOP.S             10:57:32 04-May-20: STOP TIME  10:57:32 04-May-20
 STEP.S                   0.00: STEP TIME
 NULL.                 -999.25: NULL VALUE
 DFWT.                        :  DIST FWL TEXT
 DFST.                        :  DIST FSL TEXT
 DMF .             Drill Floor:  DRILL MEAS FROM
 STIM.      03.00.00 25-Mar-20:  START TIME
 DATE.      00.00.00 19-May-20:  END TIME
 SPUD.               27-Aug-20:  SPUD DATE
 NREF.                    Grid:  NORTH REFERENCE
 HPTY.       Minimum Curvature:  HOLE POS TYPE
 DMOD.             Drill Model:  DRILL MOD DESC
 SVYD.                  Survey:  SURVEY DESC
 ILTD.               Lithology:  INTERP LTH DESC
 FTOP.          Formation Tops:  FORM TOPS DESC
 SON .        AZ-XX-0906252240:  JOB NUMBER
 RIG .             West Chirag:  RIG NAME
 PDAT.          Mean Sea Level:  PERMANENT DATUM
 FLD .                     ACG:  FIELD NAME
 CTRY.              Azerbaijan:  COUNTRY NAME
 WELL.                     J23:  WELL NAME
 SRVC.          Turan Drilling:  CONTRACTOR
 COMP.     BP Exploration (Caspian Sea) Ltd.:  COMPANY
 WTYP.                Deviated:  WELL TYPE
 MDS .        Operator Entered:  MAG DATA SOURCE
 UWI .                     N/A:  UNIQUE WELL IDENTIFIER
 API .                     N/A:  API NUMBER
 BASE.              Azerbaijan:  LOGGING EQUIPMENT BASE LOCATION
 REGN.                   EESSA:  REGION
 PROV.                    Baku:  PROVINCE
 STAT.                    Baku:  STATE NAME
 MWDS.                     N/A:  MWD SHOP
 JOBN.        AZ-XX-0906252240:  JOB TICKET NUMB
 DOE .                     N/A:  DOE NUMBER
 DCON.         Sperry Drilling:  DIRECTNL CONTR
 UNIT.                     N/A:  LOGGING EQUIPMENT ID
 CNTY.                        :  COUNTY
 LOC .                        :  LOCATION
 LMF .             Drill Floor:  LOG MEASURED FROM
 TVDS.m                  43.00:  TVDSS CORRECTN
 LATI.deg                40.13:  LATITUDE
 LONG.deg                51.22:  LONGITUDE
 WHNS.m                   9.43:  WELL HEAD N/S
 WHEW.m                  -8.91:  WELL HEAD E/W
 UTMX.m              519005.06:  UTM X
 UTMY.m             4443793.85:  UTM Y
 DFWL.m                   0.00:  DISTANCE FWL
 DFSL.m                   0.00:  DISTANCE FSL
 SDEP.m                 363.00:  START DEPTH
 TDD .m                5150.01:  TOTAL DEPTH (DRILLER)
 VSDR.deg               179.88:  VERT SEC DIRECT
 GVFD.g                   1.00:  GRAVITY FIELD
 MFLD.nT              50295.00:  MAGNETIC FIELD
 MDIP.deg                59.56:  MAGNETIC DIP
 MDEC.deg                 6.45:  MAGNETIC DECL
 GRDC.deg                 0.14:  GRID CORRECTION
 AZTC.deg                 6.31:  AZM TOTAL CORR
 EPD .m                   0.00:  ELEVATION
 EGL .m                   0.00:  GROUND ELEVATION
 WDMS.m                 169.80:  WD ELEV
 APD .m                  43.00:  DEPTH ABOVE PD
 DEP .m                 354.17:  DEPTH
 AGAP.m                  43.00:  AIR GAP
 VSEW.m                  -8.91:  VERT SEC E/W
 VSNS.m                   9.43:  VERT SEC N/S
 EKB .m                   0.00:  KB ELEVATION
 EDF .m                  43.00:  DF ELEVATION
 TDL .m                1351.00:  TOTAL DEPTH (LOGGER)
 VSC .                       0:  VS TO CLOSURE
 MAGU.                 1850802:  MAGUTM CHECKSUM
~Parameter Information Block
#MNEM.UNIT       Value        Description
#---------     -----------    ---------------------------
 AV  .mps                 1.00:  Ann Velocity 
 AVMX.mps                 2.40:  Max Ann Veloc 
 AZIF.deg               148.96:  Azm, Final 
 BHAT.        Rotary Steerable:  BHA Type 
 BROT.°/30m               0.04:  Build Rotating 
 BS  .in                 12.25:  Bit Size 
 BSZ .in                 12.25:  Bit Size 
 BTPL.psig              814.00:  Bit Press Loss 
 TCS .hr                106.00:  Time Ciculation Ended 
 CV  .mps                 2.47:  Crit Velocity 
 CVMX.mps                 2.64:  Max Crit Veloc 
 DD1 .          Rashad Habibov:  Direct Drillr 1 
 DD2 .         Rasim Ibrahimov:  Direct Drillr 2 
 DDSV.                 iCruise:  DD Service 
 DEFF.%                 100.00:  % Det Eff 
 DLRX.°/30m               0.70:  Dogleg Rot Max 
 DLSO.°/30m               3.00:  Dogleg Oriented 
 DLSX.°/30m               4.55:  Dogleg Str Max 
 DRET.      08.08.32 02-May-20:  Drill End Time 
 DRST.      08.08.32 28-Apr-20:  Drill Start Tim 
 DTIM.hr                 60.00:  Time Drilling 
 EDEP.m                4761.01:  End Depth 
 ENG1.           Eldar Hajiyev:  Engineer 1 
 ENG2.        Marcelo Sandoval:  Engineer 2 
 ETIM.      23.23.07 05-May-20:  End Time 
 FLOI.gpm              1200.00:  Flow In 
 FLON.gpm               900.00:  Flow In Min 
 FLOS.cptm                0.00:  Fluid Loss 
 FLOX.gpm              1200.00:  Flow In Max 
 HFLO.                      No:  High Flow 
 HPRE.                      No:  High Pressure 
 HTEM.                      No:  High Temp 
 HYDO.m                   1.80:  Hydro Offset 
 IFIN.deg                68.17:  Inc, Final 
 IMAX.deg                74.61:  Inc Max 
 IMIN.deg                68.15:  Inc Min 
 IMND.m                4317.87:  Inc Min Depth 
 IMXD.m                4714.01:  Inc Max Depth 
 LETM.      08.08.32 02-May-20:  Log End Time 
 LOST.hr                     2:  Lost Rig Time 
 LSTM.      08.08.32 28-Apr-20:  Log Start Time 
 MDCL.ppm             41000.00:  Mud Chlorides 
 MDES.     Inversion Oil/Synthetic:  Mud Desc 
 DFD .sg                  1.58:  Mud Density 
 MDMN.sg                  1.58:  Dens Mud Min 
 MDMX.sg                  1.58:  Dens Mud Max 
 MOIL.                      71:  Run Mud Oil % 
 MOWR.                   71:29:  Run Mud OWR 
 MSND.                     0.1:  Run Mud Sand % 
 MSOL.                      23:  Run Mud Solids% 
 DFV .spqt               82.00:  Mud Viscosity 
 MWOD.in                  8.00:  MWD Tool OD 
 MWSI.                     Yes:  Serv Intrp, MWD 
 OTIM.hr                125.00:  Time Operating 
 PMAX.psia             6129.00:  Press Op, Max 
 PV  .cP                 32.00:  Mud PV 
 RUN .                     800:  Run Number 
 ROPA.m/hr               30.00:  ROP Avg 
 ROPN.m/hr               10.00:  ROP Min 
 ROPX.m/hr               40.00:  ROP Max 
 RPMA.rpm               140.00:  RPM Surface Avg 
 RPMN.rpm                80.00:  RPM Surface Min 
 RPMX.rpm               140.00:  RPM Surface Max 
 RRUN.                    L503:  Rig Run Number 
 RTIM.hr                  2.00:  Time Reaming 
 SAZI.deg               184.23:  Azm, Start 
 SDEP.m                3410.01:  Start Depth 
 SIDD.                      No:  Serv Intrp, DD 
 SINC.deg                68.29:  Inc, Start 
 SPPA.psig             6000.00:  SPP Avg 
 SPPN.psig             4000.00:  SPP Min 
 SPPX.psig             6100.00:  SPP Max 
 STIM.      08.08.32 28-Apr-20:  Start Time 
 SVCS.                 DD, MWD:  Services 
 SVER.                    9.20:  Sperry Version 
 TDAT.m                1351.00:  Tot Depth Attmp 
 TDDF.                      No:  Trip for DD 
 TDLG.m                1351.00:  Tot Depth Loggd 
 TFF .                      No:  Trip for Fail 
 TQAA.f-kp               27.00:  Torque Abs Avg 
 TQAN.f-kp               20.00:  Torque Abs Min 
 TQAX.f-kp               30.00:  Torque Abs Max 
 TRRT.°/30m               0.60:  Turn Rotating 
 MRT .                    EWER:  Maximum Recorded Temperature 
 TTMX.degC               83.00:  Max Tool Temp 
 VS01.                90511138:  Virtual Str1 SN 
 VS02.                90524876:  Virtual Str2 SN 
 VS03.                90524872:  Virtual Str3 SN 
 VS04.                90502750:  Virtual Str4 SN 
 VS05.                12330984:  Virtual Str5 SN 
 WBMN.klb                 0.00:  WOB Min 
 WOBA.klb                15.00:  WOB Avg 
 WOBX.klb                20.00:  WOB Max 
 YP  .lhf2               31.00:  Yield Point 
~Curve Information Block
#MNEM.UNIT                 API CODE     Curve Description
#---------               -----------    ---------------------------
 TIME.HHMMSS            00 000 000 000:  GT Time & Date
 GTDEPTH.m              00 000 000 000:  GT Depth
 GTPQH.psia             00 000 000 000:  GT HR Quartz Pressure
 GTTQ.degC              00 000 000 000:  GT Quartz Temperature
 GTTN.NONE              00 000 000 000:  GT Test Number
 GTET.sec               00 000 000 000:  GT Elapsed Test Time
 GTTVD.m                00 000 000 000:  GT True Vertical Depth
#Other Information
#
#WARRANTY: Halliburton will use its best efforts to furnish customers with 
#accurate information and interpretations that are part of, and incident to, the services 
#provided.  However, Halliburton cannot and does not warrant the accuracy 
#or correctness of such information and interpretations.  Under no circumstances should any 
#such information or interpretation be relied upon as the sole basis for any drilling, 
#completion, production, or financial decision or any procedure involving any risk to the 
#safety of any drilling venture, drilling rig or its crew or any other third party.  The 
#Customer has full responsibility for all drilling, completion and production operation.  
#Halliburton makes no representations or warranties, either expressed or 
#implied, including, but not limited to, the implied warranties of merchantability or fitness 
#for a particular purpose, with respect to the services rendered.  In no event will 
#Halliburton be liable for failure to obtain any particular results or for 
#any damages, including, but not limited to, indirect, special or consequential damages, 
#resulting from the use of any information or interpretation provided by Halliburton.
#
~A           TIME           GTDEPTH  GTPQH  GTTQ  GTTN  GTET   GTTVD  
# ...
   10:56:20.297.04-May-2020 4718.46 4250.55 81.15 6.00 322.05 2519.85
   10:56:20.497.04-May-2020 4718.46 4250.55 81.15 6.00 322.25 2519.85
   10:56:20.697.04-May-2020 4718.46 4250.66 81.14 6.00 322.45 2519.85
   10:56:20.897.04-May-2020 4718.46 4250.64 81.14 6.00 322.65 2519.85
   10:56:21.097.04-May-2020 4718.46 4250.64 81.14 6.00 322.85 2519.85
   10:56:21.297.04-May-2020 4718.46 4250.89 81.14 6.00 323.05 2519.85
   10:56:21.497.04-May-2020 4718.46 4250.89 81.14 6.00 323.25 2519.85
   10:56:21.697.04-May-2020 4718.46 4250.89 81.14 6.00 323.45 2519.85
   10:56:21.897.04-May-2020 4718.46 4250.86 81.14 6.00 323.65 2519.85
   10:56:22.097.04-May-2020 4718.46 4250.94 81.14 6.00 323.85 2519.85
   10:56:22.297.04-May-2020 4718.46 4250.69 81.14 6.00 324.05 2519.85
   10:56:22.497.04-May-2020 4718.46 4250.69 81.14 6.00 324.25 2519.85
   10:56:22.697.04-May-2020 4718.46 4250.73 81.14 6.00 324.45 2519.85
   10:56:22.897.04-May-2020 4718.46 4250.69 81.14 6.00 324.65 2519.85
   10:56:23.097.04-May-2020 4718.46 4250.68 81.13 6.00 324.85 2519.85
   10:56:23.297.04-May-2020 4718.46 4250.63 81.13 6.00 325.05 2519.85
   10:56:23.498.04-May-2020 4718.46 4250.63 81.13 6.00 325.25 2519.85
   10:56:23.698.04-May-2020 4718.46 4250.54 81.13 6.00 325.45 2519.85
   10:56:23.898.04-May-2020 4718.46 4250.60 81.13 6.00 325.65 2519.85
   10:56:24.098.04-May-2020 4718.46 4250.86 81.13 6.00 325.85 2519.85
   10:56:24.298.04-May-2020 4718.46 4250.83 81.13 6.00 326.05 2519.85
   10:56:24.498.04-May-2020 4718.46 4250.83 81.13 6.00 326.25 2519.85
   10:56:24.698.04-May-2020 4718.46 4250.80 81.13 6.00 326.45 2519.85
   10:56:24.898.04-May-2020 4718.46 4250.91 81.13 6.00 326.65 2519.85
   10:56:25.098.04-May-2020 4718.46 4250.75 81.13 6.00 326.85 2519.85
   10:56:25.298.04-May-2020 4718.46 4251.06 81.13 6.00 327.05 2519.85
   10:56:25.498.04-May-2020 4718.46 4251.06 81.13 6.00 327.25 2519.85
   10:56:25.698.04-May-2020 4718.46 4250.71 81.12 6.00 327.45 2519.85
   10:56:25.898.04-May-2020 4718.46 4250.53 81.12 6.00 327.65 2519.85
   10:56:26.098.04-May-2020 4718.46 4250.92 81.12 6.00 327.85 2519.85
   10:56:26.298.04-May-2020 4718.46 4250.56 81.12 6.00 328.05 2519.85
   10:56:26.498.04-May-2020 4718.46 4250.56 81.12 6.00 328.25 2519.85
   10:56:26.698.04-May-2020 4718.46 4250.35 81.12 6.00 328.45 2519.85
   10:56:26.898.04-May-2020 4718.46 4250.46 81.12 6.00 328.65 2519.85
   10:56:27.098.04-May-2020 4718.46 4250.53 81.12 6.00 328.85 2519.85
   10:56:27.298.04-May-2020 4718.46 4250.49 81.12 6.00 329.05 2519.85
   10:56:27.498.04-May-2020 4718.46 4250.49 81.12 6.00 329.25 2519.85
   10:56:27.698.04-May-2020 4718.46 4250.55 81.12 6.00 329.45 2519.85
   10:56:27.898.04-May-2020 4718.46 4250.56 81.12 6.00 329.65 2519.85
   10:56:28.098.04-May-2020 4718.46 4250.44 81.11 6.00 329.85 2519.85
   10:56:28.298.04-May-2020 4718.46 4250.53 81.11 6.00 330.05 2519.85
   10:56:28.498.04-May-2020 4718.46 4250.53 81.11 6.00 330.25 2519.85
   10:56:28.698.04-May-2020 4718.46 4250.67 81.11 6.00 330.45 2519.85
   10:56:28.898.04-May-2020 4718.46 4250.63 81.11 6.00 330.65 2519.85
   10:56:29.098.04-May-2020 4718.46 4250.68 81.11 6.00 330.85 2519.85
   10:56:29.298.04-May-2020 4718.46 4250.75 81.11 6.00 331.05 2519.85
   10:56:29.498.04-May-2020 4718.46 4250.75 81.11 6.00 331.25 2519.85
   10:56:29.698.04-May-2020 4718.46 4251.07 81.11 6.00 331.45 2519.85
   10:56:29.898.04-May-2020 4718.46 4250.73 81.11 6.00 331.65 2519.85
   10:56:30.099.04-May-2020 4718.46 4250.98 81.11 6.00 331.85 2519.85
   10:56:30.299.04-May-2020 4718.46 4250.79 81.11 6.00 332.05 2519.85
   10:56:30.499.04-May-2020 4718.46 4250.79 81.11 6.00 332.25 2519.85
   10:56:30.699.04-May-2020 4718.46 4250.84 81.10 6.00 332.45 2519.85
   10:56:30.899.04-May-2020 4718.46 4250.76 81.10 6.00 332.65 2519.85
   10:56:31.099.04-May-2020 4718.46 4250.78 81.10 6.00 332.85 2519.85
   10:56:31.299.04-May-2020 4718.46 4250.79 81.10 6.00 333.05 2519.85
   10:56:31.499.04-May-2020 4718.46 4250.79 81.10 6.00 333.25 2519.85
   10:56:31.699.04-May-2020 4718.46 4250.62 81.10 6.00 333.45 2519.85
   10:56:31.899.04-May-2020 4718.46 4250.46 81.10 6.00 333.65 2519.85
   10:56:32.099.04-May-2020 4718.46 4251.00 81.10 6.00 333.85 2519.85
   10:56:32.299.04-May-2020 4718.46 4250.83 81.10 6.00 334.05 2519.85
   10:56:32.499.04-May-2020 4718.46 4250.83 81.10 6.00 334.25 2519.85
   10:56:32.699.04-May-2020 4718.46 4250.91 81.09 6.00 334.45 2519.85
   10:56:32.899.04-May-2020 4718.46 4250.81 81.09 6.00 334.65 2519.85
   10:56:33.099.04-May-2020 4718.46 4250.85 81.09 6.00 334.85 2519.85
   10:56:33.299.04-May-2020 4718.46 4251.11 81.09 6.00 335.05 2519.85
   10:56:33.499.04-May-2020 4718.46 4251.11 81.09 6.00 335.25 2519.85
   10:56:33.699.04-May-2020 4718.46 4250.72 81.09 6.00 335.45 2519.85
   10:56:33.899.04-May-2020 4718.46 4251.00 81.09 6.00 335.65 2519.85
   10:56:34.099.04-May-2020 4718.46 4250.78 81.09 6.00 335.85 2519.85
   10:56:34.299.04-May-2020 4718.46 4250.90 81.09 6.00 336.05 2519.85
   10:56:34.499.04-May-2020 4718.46 4250.90 81.09 6.00 336.25 2519.85
   10:56:34.699.04-May-2020 4718.46 4250.44 81.09 6.00 336.45 2519.85
   10:56:34.899.04-May-2020 4718.46 4250.63 81.09 6.00 336.65 2519.85
   10:56:35.099.04-May-2020 4718.46 4250.72 81.09 6.00 336.85 2519.85
   10:56:35.299.04-May-2020 4718.46 4250.72 81.08 6.00 337.05 2519.85
   10:56:35.499.04-May-2020 4718.46 4250.72 81.08 6.00 337.25 2519.85
   10:56:35.699.04-May-2020 4718.46 4250.70 81.08 6.00 337.45 2519.85
   10:56:35.899.04-May-2020 4718.46 4250.56 81.08 6.00 337.65 2519.85
   10:56:36.099.04-May-2020 4718.46 4250.59 81.08 6.00 337.85 2519.85
   10:56:36.299.04-May-2020 4718.46 4250.63 81.08 6.00 338.05 2519.85
   10:56:36.500.04-May-2020 4718.46 4250.63 81.08 6.00 338.25 2519.85
   10:56:36.700.04-May-2020 4718.46 4250.66 81.08 6.00 338.45 2519.85
   10:56:36.900.04-May-2020 4718.46 4250.62 81.08 6.00 338.65 2519.85
   10:56:37.100.04-May-2020 4718.46 4250.65 81.08 6.00 338.85 2519.85
   10:56:37.300.04-May-2020 4718.46 4251.19 81.08 6.00 339.05 2519.85
   10:56:37.500.04-May-2020 4718.46 4251.19 81.08 6.00 339.25 2519.85
   10:56:37.700.04-May-2020 4718.46 4251.04 81.07 6.00 339.45 2519.85
   10:56:37.900.04-May-2020 4718.46 4250.94 81.07 6.00 339.65 2519.85
   10:56:38.100.04-May-2020 4718.46 4250.85 81.07 6.00 339.85 2519.85
   10:56:38.300.04-May-2020 4718.46 4250.90 81.07 6.00 340.05 2519.85
   10:56:38.500.04-May-2020 4718.46 4250.90 81.07 6.00 340.25 2519.85
   10:56:38.700.04-May-2020 4718.46 4250.78 81.07 6.00 340.45 2519.85
   10:56:38.900.04-May-2020 4718.46 4250.76 81.07 6.00 340.65 2519.85
   10:56:39.100.04-May-2020 4718.46 4250.76 81.07 6.00 340.85 2519.85
   10:56:39.300.04-May-2020 4718.46 4250.73 81.07 6.00 341.05 2519.85
   10:56:39.500.04-May-2020 4718.46 4250.63 81.07 6.00 341.25 2519.85
   10:56:39.700.04-May-2020 4718.46 4250.58 81.07 6.00 341.45 2519.85
   10:56:39.900.04-May-2020 4718.46 4250.95 81.06 6.00 341.65 2519.85
   10:56:40.100.04-May-2020 4718.46 4250.51 81.06 6.00 341.85 2519.85
   10:56:40.300.04-May-2020 4718.46 4250.68 81.06 6.00 342.05 2519.85
   10:56:40.500.04-May-2020 4718.46 4250.68 81.06 6.00 342.25 2519.85
   10:56:40.700.04-May-2020 4718.46 4250.94 81.06 6.00 342.45 2519.85
   10:56:40.900.04-May-2020 4718.46 4250.86 81.06 6.00 342.65 2519.85
   10:56:41.100.04-May-2020 4718.46 4250.90 81.06 6.00 342.85 2519.85
   10:56:41.300.04-May-2020 4718.46 4251.00 81.06 6.00 343.05 2519.85
   10:56:41.500.04-May-2020 4718.46 4251.00 81.06 6.00 343.25 2519.85
   10:56:41.700.04-May-2020 4718.46 4250.78 81.06 6.00 343.45 2519.85
   10:56:41.900.04-May-2020 4718.46 4250.71 81.06 6.00 343.65 2519.85
   10:56:42.100.04-May-2020 4718.46 4250.73 81.06 6.00 343.85 2519.85
   10:56:42.300.04-May-2020 4718.46 4251.05 81.06 6.00 344.05 2519.85
   10:56:42.500.04-May-2020 4718.46 4251.05 81.05 6.00 344.25 2519.85
   10:56:42.700.04-May-2020 4718.46 4250.75 81.05 6.00 344.45 2519.85
   10:56:42.901.04-May-2020 4718.46 4250.53 81.05 6.00 344.65 2519.85
   10:56:43.101.04-May-2020 4718.46 4250.49 81.05 6.00 344.85 2519.85
