~Version Information
 VERS.                  2.0:   CWLS log ASCII Standard -VERSION 2.0
 WRAP.                   NO:   One line per depth step
~Well Information Block
#MNEM.UNIT     VALUE/NAME     DESCRIPTION
#---------     -----------    ---------------------------
 STRT.S             00:33:44 04-May-20: START TIME 00:33:44 04-May-20
 STOP.S             00:40:14 04-May-20: STOP TIME  00:40:14 04-May-20
 STEP.S                   0.00: STEP TIME
 NULL.                 -999.25: NULL VALUE
 DFWT.                        :  DIST FWL TEXT
 DFST.                        :  DIST FSL TEXT
 DMF .             Drill Floor:  DRILL MEAS FROM
 STIM.      03.00.00 25-Mar-20:  START TIME
 DATE.      00.00.00 19-May-20:  END TIME
 SPUD.               27-Aug-20:  SPUD DATE
 NREF.                    Grid:  NORTH REFERENCE
 HPTY.       Minimum Curvature:  HOLE POS TYPE
 DMOD.             Drill Model:  DRILL MOD DESC
 SVYD.                  Survey:  SURVEY DESC
 ILTD.               Lithology:  INTERP LTH DESC
 FTOP.          Formation Tops:  FORM TOPS DESC
 SON .        AZ-XX-0906252240:  JOB NUMBER
 RIG .             West Chirag:  RIG NAME
 PDAT.          Mean Sea Level:  PERMANENT DATUM
 FLD .                     ACG:  FIELD NAME
 CTRY.              Azerbaijan:  COUNTRY NAME
 WELL.                     J23:  WELL NAME
 SRVC.          Turan Drilling:  CONTRACTOR
 COMP.     BP Exploration (Caspian Sea) Ltd.:  COMPANY
 WTYP.                Deviated:  WELL TYPE
 MDS .        Operator Entered:  MAG DATA SOURCE
 UWI .                     N/A:  UNIQUE WELL IDENTIFIER
 API .                     N/A:  API NUMBER
 BASE.              Azerbaijan:  LOGGING EQUIPMENT BASE LOCATION
 REGN.                   EESSA:  REGION
 PROV.                    Baku:  PROVINCE
 STAT.                    Baku:  STATE NAME
 MWDS.                     N/A:  MWD SHOP
 JOBN.        AZ-XX-0906252240:  JOB TICKET NUMB
 DOE .                     N/A:  DOE NUMBER
 DCON.         Sperry Drilling:  DIRECTNL CONTR
 UNIT.                     N/A:  LOGGING EQUIPMENT ID
 CNTY.                        :  COUNTY
 LOC .                        :  LOCATION
 LMF .             Drill Floor:  LOG MEASURED FROM
 TVDS.m                  43.00:  TVDSS CORRECTN
 LATI.deg                40.13:  LATITUDE
 LONG.deg                51.22:  LONGITUDE
 WHNS.m                   9.43:  WELL HEAD N/S
 WHEW.m                  -8.91:  WELL HEAD E/W
 UTMX.m              519005.06:  UTM X
 UTMY.m             4443793.85:  UTM Y
 DFWL.m                   0.00:  DISTANCE FWL
 DFSL.m                   0.00:  DISTANCE FSL
 SDEP.m                 363.00:  START DEPTH
 TDD .m                5150.01:  TOTAL DEPTH (DRILLER)
 VSDR.deg               179.88:  VERT SEC DIRECT
 GVFD.g                   1.00:  GRAVITY FIELD
 MFLD.nT              50295.00:  MAGNETIC FIELD
 MDIP.deg                59.56:  MAGNETIC DIP
 MDEC.deg                 6.45:  MAGNETIC DECL
 GRDC.deg                 0.14:  GRID CORRECTION
 AZTC.deg                 6.31:  AZM TOTAL CORR
 EPD .m                   0.00:  ELEVATION
 EGL .m                   0.00:  GROUND ELEVATION
 WDMS.m                 169.80:  WD ELEV
 APD .m                  43.00:  DEPTH ABOVE PD
 DEP .m                 354.17:  DEPTH
 AGAP.m                  43.00:  AIR GAP
 VSEW.m                  -8.91:  VERT SEC E/W
 VSNS.m                   9.43:  VERT SEC N/S
 EKB .m                   0.00:  KB ELEVATION
 EDF .m                  43.00:  DF ELEVATION
 TDL .m                1351.00:  TOTAL DEPTH (LOGGER)
 VSC .                       0:  VS TO CLOSURE
 MAGU.                 1850802:  MAGUTM CHECKSUM
~Parameter Information Block
#MNEM.UNIT       Value        Description
#---------     -----------    ---------------------------
 AV  .mps                 1.00:  Ann Velocity 
 AVMX.mps                 2.40:  Max Ann Veloc 
 AZIF.deg               148.96:  Azm, Final 
 BHAT.        Rotary Steerable:  BHA Type 
 BROT.°/30m               0.04:  Build Rotating 
 BS  .in                 12.25:  Bit Size 
 BSZ .in                 12.25:  Bit Size 
 BTPL.psig              814.00:  Bit Press Loss 
 TCS .hr                106.00:  Time Ciculation Ended 
 CV  .mps                 2.47:  Crit Velocity 
 CVMX.mps                 2.64:  Max Crit Veloc 
 DD1 .          Rashad Habibov:  Direct Drillr 1 
 DD2 .         Rasim Ibrahimov:  Direct Drillr 2 
 DDSV.                 iCruise:  DD Service 
 DEFF.%                 100.00:  % Det Eff 
 DLRX.°/30m               0.70:  Dogleg Rot Max 
 DLSO.°/30m               3.00:  Dogleg Oriented 
 DLSX.°/30m               4.55:  Dogleg Str Max 
 DRET.      08.08.32 02-May-20:  Drill End Time 
 DRST.      08.08.32 28-Apr-20:  Drill Start Tim 
 DTIM.hr                 60.00:  Time Drilling 
 EDEP.m                4761.01:  End Depth 
 ENG1.           Eldar Hajiyev:  Engineer 1 
 ENG2.        Marcelo Sandoval:  Engineer 2 
 ETIM.      23.23.07 05-May-20:  End Time 
 FLOI.gpm              1200.00:  Flow In 
 FLON.gpm               900.00:  Flow In Min 
 FLOS.cptm                0.00:  Fluid Loss 
 FLOX.gpm              1200.00:  Flow In Max 
 HFLO.                      No:  High Flow 
 HPRE.                      No:  High Pressure 
 HTEM.                      No:  High Temp 
 HYDO.m                   1.80:  Hydro Offset 
 IFIN.deg                68.17:  Inc, Final 
 IMAX.deg                74.61:  Inc Max 
 IMIN.deg                68.15:  Inc Min 
 IMND.m                4317.87:  Inc Min Depth 
 IMXD.m                4714.01:  Inc Max Depth 
 LETM.      08.08.32 02-May-20:  Log End Time 
 LOST.hr                     2:  Lost Rig Time 
 LSTM.      08.08.32 28-Apr-20:  Log Start Time 
 MDCL.ppm             41000.00:  Mud Chlorides 
 MDES.     Inversion Oil/Synthetic:  Mud Desc 
 DFD .sg                  1.58:  Mud Density 
 MDMN.sg                  1.58:  Dens Mud Min 
 MDMX.sg                  1.58:  Dens Mud Max 
 MOIL.                      71:  Run Mud Oil % 
 MOWR.                   71:29:  Run Mud OWR 
 MSND.                     0.1:  Run Mud Sand % 
 MSOL.                      23:  Run Mud Solids% 
 DFV .spqt               82.00:  Mud Viscosity 
 MWOD.in                  8.00:  MWD Tool OD 
 MWSI.                     Yes:  Serv Intrp, MWD 
 OTIM.hr                125.00:  Time Operating 
 PMAX.psia             6129.00:  Press Op, Max 
 PV  .cP                 32.00:  Mud PV 
 RUN .                     800:  Run Number 
 ROPA.m/hr               30.00:  ROP Avg 
 ROPN.m/hr               10.00:  ROP Min 
 ROPX.m/hr               40.00:  ROP Max 
 RPMA.rpm               140.00:  RPM Surface Avg 
 RPMN.rpm                80.00:  RPM Surface Min 
 RPMX.rpm               140.00:  RPM Surface Max 
 RRUN.                    L503:  Rig Run Number 
 RTIM.hr                  2.00:  Time Reaming 
 SAZI.deg               184.23:  Azm, Start 
 SDEP.m                3410.01:  Start Depth 
 SIDD.                      No:  Serv Intrp, DD 
 SINC.deg                68.29:  Inc, Start 
 SPPA.psig             6000.00:  SPP Avg 
 SPPN.psig             4000.00:  SPP Min 
 SPPX.psig             6100.00:  SPP Max 
 STIM.      08.08.32 28-Apr-20:  Start Time 
 SVCS.                 DD, MWD:  Services 
 SVER.                    9.20:  Sperry Version 
 TDAT.m                1351.00:  Tot Depth Attmp 
 TDDF.                      No:  Trip for DD 
 TDLG.m                1351.00:  Tot Depth Loggd 
 TFF .                      No:  Trip for Fail 
 TQAA.f-kp               27.00:  Torque Abs Avg 
 TQAN.f-kp               20.00:  Torque Abs Min 
 TQAX.f-kp               30.00:  Torque Abs Max 
 TRRT.°/30m               0.60:  Turn Rotating 
 MRT .                    EWER:  Maximum Recorded Temperature 
 TTMX.degC               83.00:  Max Tool Temp 
 VS01.                90511138:  Virtual Str1 SN 
 VS02.                90524876:  Virtual Str2 SN 
 VS03.                90524872:  Virtual Str3 SN 
 VS04.                90502750:  Virtual Str4 SN 
 VS05.                12330984:  Virtual Str5 SN 
 WBMN.klb                 0.00:  WOB Min 
 WOBA.klb                15.00:  WOB Avg 
 WOBX.klb                20.00:  WOB Max 
 YP  .lhf2               31.00:  Yield Point 
~Curve Information Block
#MNEM.UNIT                 API CODE     Curve Description
#---------               -----------    ---------------------------
 TIME.HHMMSS            00 000 000 000:  GT Time & Date
 GTDEPTH.m              00 000 000 000:  GT Depth
 GTPQH.psia             00 000 000 000:  GT HR Quartz Pressure
 GTTQ.degC              00 000 000 000:  GT Quartz Temperature
 GTTN.NONE              00 000 000 000:  GT Test Number
 GTET.sec               00 000 000 000:  GT Elapsed Test Time
 GTTVD.m                00 000 000 000:  GT True Vertical Depth
#Other Information
#
#WARRANTY: Halliburton will use its best efforts to furnish customers with 
#accurate information and interpretations that are part of, and incident to, the services 
#provided.  However, Halliburton cannot and does not warrant the accuracy 
#or correctness of such information and interpretations.  Under no circumstances should any 
#such information or interpretation be relied upon as the sole basis for any drilling, 
#completion, production, or financial decision or any procedure involving any risk to the 
#safety of any drilling venture, drilling rig or its crew or any other third party.  The 
#Customer has full responsibility for all drilling, completion and production operation.  
#Halliburton makes no representations or warranties, either expressed or 
#implied, including, but not limited to, the implied warranties of merchantability or fitness 
#for a particular purpose, with respect to the services rendered.  In no event will 
#Halliburton be liable for failure to obtain any particular results or for 
#any damages, including, but not limited to, indirect, special or consequential damages, 
#resulting from the use of any information or interpretation provided by Halliburton.
#
~A           TIME           GTDEPTH  GTPQH  GTTQ  GTTN  GTET   GTTVD  
# ...
   00:38:20.341.04-May-2020 4661.71   57.98 80.31 4.00 276.02 2504.33
   00:38:20.541.04-May-2020 4661.71   58.00 80.31 4.00 276.22 2504.33
   00:38:20.741.04-May-2020 4661.71   58.03 80.31 4.00 276.43 2504.33
   00:38:20.941.04-May-2020 4661.71   58.05 80.31 4.00 276.63 2504.33
   00:38:21.141.04-May-2020 4661.71   58.07 80.31 4.00 276.83 2504.33
   00:38:21.341.04-May-2020 4661.71   58.10 80.31 4.00 277.03 2504.33
   00:38:21.541.04-May-2020 4661.71   58.12 80.31 4.00 277.23 2504.33
   00:38:21.741.04-May-2020 4661.71   58.14 80.31 4.00 277.43 2504.33
   00:38:21.941.04-May-2020 4661.71   58.16 80.30 4.00 277.63 2504.33
   00:38:22.141.04-May-2020 4661.71   58.19 80.30 4.00 277.83 2504.33
   00:38:22.341.04-May-2020 4661.71   58.21 80.30 4.00 278.03 2504.33
   00:38:22.541.04-May-2020 4661.71   58.21 80.30 4.00 278.23 2504.33
   00:38:22.741.04-May-2020 4661.71   58.25 80.30 4.00 278.43 2504.33
   00:38:22.941.04-May-2020 4661.71   58.28 80.30 4.00 278.63 2504.33
   00:38:23.141.04-May-2020 4661.71   58.31 80.30 4.00 278.83 2504.33
   00:38:23.341.04-May-2020 4661.71   58.32 80.30 4.00 279.03 2504.33
   00:38:23.541.04-May-2020 4661.71   58.35 80.30 4.00 279.23 2504.33
   00:38:23.741.04-May-2020 4661.71   58.37 80.30 4.00 279.43 2504.33
   00:38:23.941.04-May-2020 4661.71   58.41 80.30 4.00 279.63 2504.33
   00:38:24.141.04-May-2020 4661.71   58.42 80.30 4.00 279.83 2504.33
   00:38:24.342.04-May-2020 4661.71   58.45 80.29 4.00 280.03 2504.33
   00:38:24.542.04-May-2020 4661.71   58.45 80.29 4.00 280.23 2504.33
   00:38:24.742.04-May-2020 4661.71   58.48 80.29 4.00 280.43 2504.33
   00:38:24.942.04-May-2020 4661.71   58.50 80.29 4.00 280.63 2504.33
   00:38:25.142.04-May-2020 4661.71   58.53 80.29 4.00 280.83 2504.33
   00:38:25.342.04-May-2020 4661.71   58.55 80.29 4.00 281.03 2504.33
   00:38:25.542.04-May-2020 4661.71   58.55 80.29 4.00 281.23 2504.33
   00:38:25.742.04-May-2020 4661.71   58.59 80.29 4.00 281.43 2504.33
   00:38:25.942.04-May-2020 4661.71   58.61 80.29 4.00 281.63 2504.33
   00:38:26.142.04-May-2020 4661.71   58.63 80.29 4.00 281.83 2504.33
   00:38:26.342.04-May-2020 4661.71   58.66 80.29 4.00 282.03 2504.33
   00:38:26.542.04-May-2020 4661.71   58.69 80.29 4.00 282.23 2504.33
   00:38:26.742.04-May-2020 4661.71   58.69 80.28 4.00 282.43 2504.33
   00:38:26.942.04-May-2020 4661.71   58.72 80.28 4.00 282.63 2504.33
   00:38:27.142.04-May-2020 4661.71   58.74 80.28 4.00 282.83 2504.33
   00:38:27.342.04-May-2020 4661.71   58.75 80.28 4.00 283.03 2504.33
   00:38:27.542.04-May-2020 4661.71   58.75 80.28 4.00 283.23 2504.33
   00:38:27.742.04-May-2020 4661.71   58.80 80.28 4.00 283.43 2504.33
   00:38:27.942.04-May-2020 4661.71   58.82 80.28 4.00 283.63 2504.33
   00:38:28.142.04-May-2020 4661.71   58.83 80.28 4.00 283.83 2504.33
   00:38:28.342.04-May-2020 4661.71   58.84 80.28 4.00 284.03 2504.33
   00:38:28.542.04-May-2020 4661.71   58.88 80.28 4.00 284.23 2504.33
   00:38:28.742.04-May-2020 4661.71   58.89 80.28 4.00 284.43 2504.33
   00:38:28.942.04-May-2020 4661.71   58.91 80.28 4.00 284.63 2504.33
   00:38:29.142.04-May-2020 4661.71   58.94 80.27 4.00 284.83 2504.33
   00:38:29.342.04-May-2020 4661.71   58.94 80.27 4.00 285.03 2504.33
   00:38:29.542.04-May-2020 4661.71   58.94 80.27 4.00 285.23 2504.33
   00:38:29.742.04-May-2020 4661.71   58.98 80.27 4.00 285.43 2504.33
   00:38:29.942.04-May-2020 4661.71   59.00 80.27 4.00 285.63 2504.33
   00:38:30.142.04-May-2020 4661.71   59.01 80.27 4.00 285.83 2504.33
   00:38:30.342.04-May-2020 4661.71   59.04 80.27 4.00 286.03 2504.33
   00:38:30.542.04-May-2020 4661.71   59.06 80.27 4.00 286.23 2504.33
   00:38:30.742.04-May-2020 4661.71   59.07 80.27 4.00 286.43 2504.33
   00:38:30.942.04-May-2020 4661.71   59.09 80.27 4.00 286.63 2504.33
   00:38:31.142.04-May-2020 4661.71   59.11 80.27 4.00 286.83 2504.33
   00:38:31.342.04-May-2020 4661.71   59.13 80.27 4.00 287.03 2504.33
   00:38:31.542.04-May-2020 4661.71   59.16 80.26 4.00 287.23 2504.33
   00:38:31.742.04-May-2020 4661.71   59.18 80.26 4.00 287.43 2504.33
   00:38:31.942.04-May-2020 4661.71   59.19 80.26 4.00 287.63 2504.33
   00:38:32.142.04-May-2020 4661.71   59.21 80.26 4.00 287.83 2504.33
   00:38:32.342.04-May-2020 4661.71   59.22 80.26 4.00 288.03 2504.33
   00:38:32.542.04-May-2020 4661.71   59.22 80.26 4.00 288.23 2504.33
   00:38:32.742.04-May-2020 4661.71   59.26 80.26 4.00 288.43 2504.33
   00:38:32.942.04-May-2020 4661.71   59.27 80.26 4.00 288.63 2504.33
   00:38:33.142.04-May-2020 4661.71   59.29 80.26 4.00 288.83 2504.33
   00:38:33.342.04-May-2020 4661.71   59.31 80.26 4.00 289.03 2504.33
   00:38:33.542.04-May-2020 4661.71   59.33 80.26 4.00 289.23 2504.33
   00:38:33.742.04-May-2020 4661.71   59.34 80.26 4.00 289.43 2504.33
   00:38:33.942.04-May-2020 4661.71   59.35 80.26 4.00 289.63 2504.33
   00:38:34.142.04-May-2020 4661.71   59.39 80.25 4.00 289.83 2504.33
   00:38:34.342.04-May-2020 4661.71   59.40 80.25 4.00 290.03 2504.33
   00:38:34.542.04-May-2020 4661.71   59.40 80.25 4.00 290.23 2504.33
   00:38:34.742.04-May-2020 4661.71   59.45 80.25 4.00 290.43 2504.33
   00:38:34.942.04-May-2020 4661.71   59.46 80.25 4.00 290.63 2504.33
   00:38:35.142.04-May-2020 4661.71   59.46 80.25 4.00 290.83 2504.33
   00:38:35.343.04-May-2020 4661.71   59.48 80.25 4.00 291.03 2504.33
   00:38:35.543.04-May-2020 4661.71   59.48 80.25 4.00 291.23 2504.33
   00:38:35.743.04-May-2020 4661.71   59.52 80.25 4.00 291.43 2504.33
   00:38:35.943.04-May-2020 4661.71   59.53 80.25 4.00 291.63 2504.33
   00:38:36.143.04-May-2020 4661.71   59.55 80.25 4.00 291.83 2504.33
   00:38:36.343.04-May-2020 4661.71   59.57 80.25 4.00 292.03 2504.33
   00:38:36.543.04-May-2020 4661.71   59.57 80.25 4.00 292.23 2504.33
   00:38:36.743.04-May-2020 4661.71   59.59 80.24 4.00 292.43 2504.33
   00:38:36.943.04-May-2020 4661.71   59.62 80.24 4.00 292.63 2504.33
   00:38:37.143.04-May-2020 4661.71   59.64 80.24 4.00 292.83 2504.33
   00:38:37.343.04-May-2020 4661.71   59.64 80.24 4.00 293.03 2504.33
   00:38:37.543.04-May-2020 4661.71   59.64 80.24 4.00 293.23 2504.33
   00:38:37.743.04-May-2020 4661.71   59.67 80.24 4.00 293.43 2504.33
   00:38:37.943.04-May-2020 4661.71   59.69 80.24 4.00 293.63 2504.33
   00:38:38.143.04-May-2020 4661.71   59.71 80.24 4.00 293.83 2504.33
   00:38:38.343.04-May-2020 4661.71   59.72 80.24 4.00 294.03 2504.33
   00:38:38.543.04-May-2020 4661.71   59.72 80.24 4.00 294.23 2504.33
   00:38:38.743.04-May-2020 4661.71   59.76 80.24 4.00 294.43 2504.33
   00:38:38.943.04-May-2020 4661.71   59.77 80.23 4.00 294.63 2504.33
   00:38:39.143.04-May-2020 4661.71   59.79 80.23 4.00 294.83 2504.33
   00:38:39.343.04-May-2020 4661.71   59.80 80.23 4.00 295.03 2504.33
   00:38:39.543.04-May-2020 4661.71   59.82 80.23 4.00 295.23 2504.33
   00:38:39.743.04-May-2020 4661.71   59.84 80.23 4.00 295.43 2504.33
   00:38:39.943.04-May-2020 4661.71   59.86 80.23 4.00 295.63 2504.33
   00:38:40.143.04-May-2020 4661.71   59.88 80.23 4.00 295.83 2504.33
   00:38:40.343.04-May-2020 4661.71   59.89 80.23 4.00 296.03 2504.33
   00:38:40.543.04-May-2020 4661.71   59.89 80.23 4.00 296.23 2504.33
   00:38:40.743.04-May-2020 4661.71   59.91 80.23 4.00 296.43 2504.33
   00:38:40.943.04-May-2020 4661.71   59.93 80.23 4.00 296.63 2504.33
   00:38:41.143.04-May-2020 4661.71   59.94 80.23 4.00 296.83 2504.33
   00:38:41.343.04-May-2020 4661.71   59.95 80.22 4.00 297.03 2504.33
   00:38:41.543.04-May-2020 4661.71   59.95 80.22 4.00 297.23 2504.33
   00:38:41.743.04-May-2020 4661.71   59.99 80.22 4.00 297.43 2504.33
   00:38:41.943.04-May-2020 4661.71   60.00 80.22 4.00 297.63 2504.33
   00:38:42.143.04-May-2020 4661.71   60.03 80.22 4.00 297.83 2504.33
   00:38:42.343.04-May-2020 4661.71   60.05 80.22 4.00 298.03 2504.33
   00:38:42.543.04-May-2020 4661.71   60.05 80.22 4.00 298.23 2504.33
   00:38:42.743.04-May-2020 4661.71   60.08 80.22 4.00 298.43 2504.33
   00:38:42.943.04-May-2020 4661.71   60.08 80.22 4.00 298.63 2504.33
   00:38:43.143.04-May-2020 4661.71   60.10 80.22 4.00 298.83 2504.33
