~Version Information
 VERS.                  2.0:   CWLS log ASCII Standard -VERSION 2.0
 WRAP.                   NO:   One line per depth step
~Well Information Block
#MNEM.UNIT     VALUE/NAME     DESCRIPTION
#---------     -----------    ---------------------------
 STRT.S             13:13:41 03-May-20: START TIME 13:13:41 03-May-20
 STOP.S             13:20:16 03-May-20: STOP TIME  13:20:16 03-May-20
 STEP.S                   0.00: STEP TIME
 NULL.                 -999.25: NULL VALUE
 DFWT.                        :  DIST FWL TEXT
 DFST.                        :  DIST FSL TEXT
 DMF .             Drill Floor:  DRILL MEAS FROM
 STIM.      03.00.00 25-Mar-20:  START TIME
 DATE.      00.00.00 19-May-20:  END TIME
 SPUD.               27-Aug-20:  SPUD DATE
 NREF.                    Grid:  NORTH REFERENCE
 HPTY.       Minimum Curvature:  HOLE POS TYPE
 DMOD.             Drill Model:  DRILL MOD DESC
 SVYD.                  Survey:  SURVEY DESC
 ILTD.               Lithology:  INTERP LTH DESC
 FTOP.          Formation Tops:  FORM TOPS DESC
 SON .        AZ-XX-0906252240:  JOB NUMBER
 RIG .             West Chirag:  RIG NAME
 PDAT.          Mean Sea Level:  PERMANENT DATUM
 FLD .                     ACG:  FIELD NAME
 CTRY.              Azerbaijan:  COUNTRY NAME
 WELL.                     J23:  WELL NAME
 SRVC.          Turan Drilling:  CONTRACTOR
 COMP.     BP Exploration (Caspian Sea) Ltd.:  COMPANY
 WTYP.                Deviated:  WELL TYPE
 MDS .        Operator Entered:  MAG DATA SOURCE
 UWI .                     N/A:  UNIQUE WELL IDENTIFIER
 API .                     N/A:  API NUMBER
 BASE.              Azerbaijan:  LOGGING EQUIPMENT BASE LOCATION
 REGN.                   EESSA:  REGION
 PROV.                    Baku:  PROVINCE
 STAT.                    Baku:  STATE NAME
 MWDS.                     N/A:  MWD SHOP
 JOBN.        AZ-XX-0906252240:  JOB TICKET NUMB
 DOE .                     N/A:  DOE NUMBER
 DCON.         Sperry Drilling:  DIRECTNL CONTR
 UNIT.                     N/A:  LOGGING EQUIPMENT ID
 CNTY.                        :  COUNTY
 LOC .                        :  LOCATION
 LMF .             Drill Floor:  LOG MEASURED FROM
 TVDS.m                  43.00:  TVDSS CORRECTN
 LATI.deg                40.13:  LATITUDE
 LONG.deg                51.22:  LONGITUDE
 WHNS.m                   9.43:  WELL HEAD N/S
 WHEW.m                  -8.91:  WELL HEAD E/W
 UTMX.m              519005.06:  UTM X
 UTMY.m             4443793.85:  UTM Y
 DFWL.m                   0.00:  DISTANCE FWL
 DFSL.m                   0.00:  DISTANCE FSL
 SDEP.m                 363.00:  START DEPTH
 TDD .m                5150.01:  TOTAL DEPTH (DRILLER)
 VSDR.deg               179.88:  VERT SEC DIRECT
 GVFD.g                   1.00:  GRAVITY FIELD
 MFLD.nT              50295.00:  MAGNETIC FIELD
 MDIP.deg                59.56:  MAGNETIC DIP
 MDEC.deg                 6.45:  MAGNETIC DECL
 GRDC.deg                 0.14:  GRID CORRECTION
 AZTC.deg                 6.31:  AZM TOTAL CORR
 EPD .m                   0.00:  ELEVATION
 EGL .m                   0.00:  GROUND ELEVATION
 WDMS.m                 169.80:  WD ELEV
 APD .m                  43.00:  DEPTH ABOVE PD
 DEP .m                 354.17:  DEPTH
 AGAP.m                  43.00:  AIR GAP
 VSEW.m                  -8.91:  VERT SEC E/W
 VSNS.m                   9.43:  VERT SEC N/S
 EKB .m                   0.00:  KB ELEVATION
 EDF .m                  43.00:  DF ELEVATION
 TDL .m                1351.00:  TOTAL DEPTH (LOGGER)
 VSC .                       0:  VS TO CLOSURE
 MAGU.                 1850802:  MAGUTM CHECKSUM
~Parameter Information Block
#MNEM.UNIT       Value        Description
#---------     -----------    ---------------------------
 AV  .mps                 1.00:  Ann Velocity 
 AVMX.mps                 2.40:  Max Ann Veloc 
 AZIF.deg               148.96:  Azm, Final 
 BHAT.        Rotary Steerable:  BHA Type 
 BROT.°/30m               0.04:  Build Rotating 
 BS  .in                 12.25:  Bit Size 
 BSZ .in                 12.25:  Bit Size 
 BTPL.psig              814.00:  Bit Press Loss 
 TCS .hr                106.00:  Time Ciculation Ended 
 CV  .mps                 2.47:  Crit Velocity 
 CVMX.mps                 2.64:  Max Crit Veloc 
 DD1 .          Rashad Habibov:  Direct Drillr 1 
 DD2 .         Rasim Ibrahimov:  Direct Drillr 2 
 DDSV.                 iCruise:  DD Service 
 DEFF.%                 100.00:  % Det Eff 
 DLRX.°/30m               0.70:  Dogleg Rot Max 
 DLSO.°/30m               3.00:  Dogleg Oriented 
 DLSX.°/30m               4.55:  Dogleg Str Max 
 DRET.      08.08.32 02-May-20:  Drill End Time 
 DRST.      08.08.32 28-Apr-20:  Drill Start Tim 
 DTIM.hr                 60.00:  Time Drilling 
 EDEP.m                4761.01:  End Depth 
 ENG1.           Eldar Hajiyev:  Engineer 1 
 ENG2.        Marcelo Sandoval:  Engineer 2 
 ETIM.      23.23.07 05-May-20:  End Time 
 FLOI.gpm              1200.00:  Flow In 
 FLON.gpm               900.00:  Flow In Min 
 FLOS.cptm                0.00:  Fluid Loss 
 FLOX.gpm              1200.00:  Flow In Max 
 HFLO.                      No:  High Flow 
 HPRE.                      No:  High Pressure 
 HTEM.                      No:  High Temp 
 HYDO.m                   1.80:  Hydro Offset 
 IFIN.deg                68.17:  Inc, Final 
 IMAX.deg                74.61:  Inc Max 
 IMIN.deg                68.15:  Inc Min 
 IMND.m                4317.87:  Inc Min Depth 
 IMXD.m                4714.01:  Inc Max Depth 
 LETM.      08.08.32 02-May-20:  Log End Time 
 LOST.hr                     2:  Lost Rig Time 
 LSTM.      08.08.32 28-Apr-20:  Log Start Time 
 MDCL.ppm             41000.00:  Mud Chlorides 
 MDES.     Inversion Oil/Synthetic:  Mud Desc 
 DFD .sg                  1.58:  Mud Density 
 MDMN.sg                  1.58:  Dens Mud Min 
 MDMX.sg                  1.58:  Dens Mud Max 
 MOIL.                      71:  Run Mud Oil % 
 MOWR.                   71:29:  Run Mud OWR 
 MSND.                     0.1:  Run Mud Sand % 
 MSOL.                      23:  Run Mud Solids% 
 DFV .spqt               82.00:  Mud Viscosity 
 MWOD.in                  8.00:  MWD Tool OD 
 MWSI.                     Yes:  Serv Intrp, MWD 
 OTIM.hr                125.00:  Time Operating 
 PMAX.psia             6129.00:  Press Op, Max 
 PV  .cP                 32.00:  Mud PV 
 RUN .                     800:  Run Number 
 ROPA.m/hr               30.00:  ROP Avg 
 ROPN.m/hr               10.00:  ROP Min 
 ROPX.m/hr               40.00:  ROP Max 
 RPMA.rpm               140.00:  RPM Surface Avg 
 RPMN.rpm                80.00:  RPM Surface Min 
 RPMX.rpm               140.00:  RPM Surface Max 
 RRUN.                    L503:  Rig Run Number 
 RTIM.hr                  2.00:  Time Reaming 
 SAZI.deg               184.23:  Azm, Start 
 SDEP.m                3410.01:  Start Depth 
 SIDD.                      No:  Serv Intrp, DD 
 SINC.deg                68.29:  Inc, Start 
 SPPA.psig             6000.00:  SPP Avg 
 SPPN.psig             4000.00:  SPP Min 
 SPPX.psig             6100.00:  SPP Max 
 STIM.      08.08.32 28-Apr-20:  Start Time 
 SVCS.                 DD, MWD:  Services 
 SVER.                    9.20:  Sperry Version 
 TDAT.m                1351.00:  Tot Depth Attmp 
 TDDF.                      No:  Trip for DD 
 TDLG.m                1351.00:  Tot Depth Loggd 
 TFF .                      No:  Trip for Fail 
 TQAA.f-kp               27.00:  Torque Abs Avg 
 TQAN.f-kp               20.00:  Torque Abs Min 
 TQAX.f-kp               30.00:  Torque Abs Max 
 TRRT.°/30m               0.60:  Turn Rotating 
 MRT .                    EWER:  Maximum Recorded Temperature 
 TTMX.degC               83.00:  Max Tool Temp 
 VS01.                90511138:  Virtual Str1 SN 
 VS02.                90524876:  Virtual Str2 SN 
 VS03.                90524872:  Virtual Str3 SN 
 VS04.                90502750:  Virtual Str4 SN 
 VS05.                12330984:  Virtual Str5 SN 
 WBMN.klb                 0.00:  WOB Min 
 WOBA.klb                15.00:  WOB Avg 
 WOBX.klb                20.00:  WOB Max 
 YP  .lhf2               31.00:  Yield Point 
~Curve Information Block
#MNEM.UNIT                 API CODE     Curve Description
#---------               -----------    ---------------------------
 TIME.HHMMSS            00 000 000 000:  GT Time & Date
 GTDEPTH.m              00 000 000 000:  GT Depth
 GTPQH.psia             00 000 000 000:  GT HR Quartz Pressure
 GTTQ.degC              00 000 000 000:  GT Quartz Temperature
 GTTN.NONE              00 000 000 000:  GT Test Number
 GTET.sec               00 000 000 000:  GT Elapsed Test Time
 GTTVD.m                00 000 000 000:  GT True Vertical Depth
#Other Information
#
#WARRANTY: Halliburton will use its best efforts to furnish customers with 
#accurate information and interpretations that are part of, and incident to, the services 
#provided.  However, Halliburton cannot and does not warrant the accuracy 
#or correctness of such information and interpretations.  Under no circumstances should any 
#such information or interpretation be relied upon as the sole basis for any drilling, 
#completion, production, or financial decision or any procedure involving any risk to the 
#safety of any drilling venture, drilling rig or its crew or any other third party.  The 
#Customer has full responsibility for all drilling, completion and production operation.  
#Halliburton makes no representations or warranties, either expressed or 
#implied, including, but not limited to, the implied warranties of merchantability or fitness 
#for a particular purpose, with respect to the services rendered.  In no event will 
#Halliburton be liable for failure to obtain any particular results or for 
#any damages, including, but not limited to, indirect, special or consequential damages, 
#resulting from the use of any information or interpretation provided by Halliburton.
#
~A           TIME           GTDEPTH  GTPQH  GTTQ  GTTN  GTET   GTTVD  
# ...
   13:15:36.592.03-May-2020 4532.80 4123.16 80.44 1.00 115.18 2465.99
   13:15:36.792.03-May-2020 4532.80 4123.16 80.44 1.00 115.38 2465.99
   13:15:36.992.03-May-2020 4532.80 4123.24 80.44 1.00 115.58 2465.99
   13:15:37.193.03-May-2020 4532.80 4122.97 80.44 1.00 115.78 2465.99
   13:15:37.393.03-May-2020 4532.80 4122.80 80.44 1.00 115.98 2465.99
   13:15:37.593.03-May-2020 4532.80 4122.16 80.44 1.00 116.18 2465.99
   13:15:37.794.03-May-2020 4532.80 4122.16 80.44 1.00 116.38 2465.99
   13:15:37.994.03-May-2020 4532.80 4122.78 80.44 1.00 116.58 2465.99
   13:15:38.194.03-May-2020 4532.80 4122.70 80.44 1.00 116.78 2465.99
   13:15:38.394.03-May-2020 4532.80 4122.59 80.44 1.00 116.98 2465.99
   13:15:38.595.03-May-2020 4532.80 4122.45 80.44 1.00 117.18 2465.99
   13:15:38.795.03-May-2020 4532.80 4122.45 80.44 1.00 117.38 2465.99
   13:15:38.995.03-May-2020 4532.80 4122.62 80.44 1.00 117.58 2465.99
   13:15:39.196.03-May-2020 4532.80 4122.42 80.44 1.00 117.79 2465.99
   13:15:39.396.03-May-2020 4532.80 4122.43 80.44 1.00 117.99 2465.99
   13:15:39.596.03-May-2020 4532.80 4122.58 80.43 1.00 118.19 2465.99
   13:15:39.797.03-May-2020 4532.80 4122.50 80.43 1.00 118.39 2465.99
   13:15:39.997.03-May-2020 4532.80 4122.54 80.43 1.00 118.59 2465.99
   13:15:40.197.03-May-2020 4532.80 4122.89 80.43 1.00 118.79 2465.99
   13:15:40.398.03-May-2020 4532.80 4122.96 80.43 1.00 118.99 2465.99
   13:15:40.598.03-May-2020 4532.80 4122.91 80.43 1.00 119.19 2465.99
   13:15:40.798.03-May-2020 4532.80 4122.91 80.43 1.00 119.39 2465.99
   13:15:40.999.03-May-2020 4532.80 4122.91 80.43 1.00 119.59 2465.99
   13:15:41.199.03-May-2020 4532.80 4122.65 80.43 1.00 119.79 2465.99
   13:15:41.399.03-May-2020 4532.80 4122.47 80.43 1.00 119.99 2465.99
   13:15:41.600.03-May-2020 4532.80 4122.60 80.43 1.00 120.19 2465.99
   13:15:41.800.03-May-2020 4532.80 4122.60 80.43 1.00 120.39 2465.99
   13:15:42.000.03-May-2020 4532.80 4122.52 80.43 1.00 120.59 2465.99
   13:15:42.200.03-May-2020 4532.80 4122.39 80.43 1.00 120.79 2465.99
   13:15:42.401.03-May-2020 4532.80 4122.38 80.43 1.00 120.99 2465.99
   13:15:42.601.03-May-2020 4532.80 4122.41 80.43 1.00 121.19 2465.99
   13:15:42.801.03-May-2020 4532.80 4122.41 80.43 1.00 121.39 2465.99
   13:15:43.002.03-May-2020 4532.80 4122.95 80.43 1.00 121.59 2465.99
   13:15:43.202.03-May-2020 4532.80 4122.99 80.43 1.00 121.79 2465.99
   13:15:43.402.03-May-2020 4532.80 4122.65 80.43 1.00 121.99 2465.99
   13:15:43.603.03-May-2020 4532.80 4123.27 80.43 1.00 122.19 2465.99
   13:15:43.803.03-May-2020 4532.80 4122.88 80.42 1.00 122.39 2465.99
   13:15:44.003.03-May-2020 4532.80 4122.74 80.42 1.00 122.59 2465.99
   13:15:44.204.03-May-2020 4532.80 4123.49 80.42 1.00 122.79 2465.99
   13:15:44.404.03-May-2020 4532.80 4123.09 80.42 1.00 122.99 2465.99
   13:15:44.604.03-May-2020 4532.80 4122.71 80.42 1.00 123.19 2465.99
   13:15:44.805.03-May-2020 4532.80 4122.71 80.42 1.00 123.39 2465.99
   13:15:45.005.03-May-2020 4532.80 4123.18 80.42 1.00 123.59 2465.99
   13:15:45.205.03-May-2020 4532.80 4122.85 80.42 1.00 123.79 2465.99
   13:15:45.405.03-May-2020 4532.80 4122.21 80.42 1.00 123.99 2465.99
   13:15:45.606.03-May-2020 4532.80 4122.69 80.42 1.00 124.20 2465.99
   13:15:45.806.03-May-2020 4532.80 4122.69 80.42 1.00 124.40 2465.99
   13:15:46.006.03-May-2020 4532.80 4122.74 80.42 1.00 124.60 2465.99
   13:15:46.207.03-May-2020 4532.80 4122.58 80.42 1.00 124.80 2465.99
   13:15:46.407.03-May-2020 4532.80 4122.51 80.42 1.00 125.00 2465.99
   13:15:46.607.03-May-2020 4532.80 4122.64 80.42 1.00 125.20 2465.99
   13:15:46.808.03-May-2020 4532.80 4122.64 80.42 1.00 125.40 2465.99
   13:15:47.008.03-May-2020 4532.80 4122.49 80.42 1.00 125.60 2465.99
   13:15:47.208.03-May-2020 4532.80 4122.46 80.42 1.00 125.80 2465.99
   13:15:47.409.03-May-2020 4532.80 4122.60 80.42 1.00 126.00 2465.99
   13:15:47.609.03-May-2020 4532.80 4122.59 80.42 1.00 126.20 2465.99
   13:15:47.809.03-May-2020 4532.80 4122.58 80.41 1.00 126.40 2465.99
   13:15:48.010.03-May-2020 4532.80 4122.86 80.41 1.00 126.60 2465.99
   13:15:48.210.03-May-2020 4532.80 4123.02 80.41 1.00 126.80 2465.99
   13:15:48.410.03-May-2020 4532.80 4122.84 80.41 1.00 127.00 2465.99
   13:15:48.611.03-May-2020 4532.80 4122.77 80.41 1.00 127.20 2465.99
   13:15:48.811.03-May-2020 4532.80 4122.77 80.41 1.00 127.40 2465.99
   13:15:49.011.03-May-2020 4532.80 4122.61 80.41 1.00 127.60 2465.99
   13:15:49.211.03-May-2020 4532.80 4122.51 80.41 1.00 127.80 2465.99
   13:15:49.412.03-May-2020 4532.80 4122.69 80.41 1.00 128.00 2465.99
   13:15:49.612.03-May-2020 4532.80 4122.64 80.41 1.00 128.20 2465.99
   13:15:49.812.03-May-2020 4532.80 4122.64 80.41 1.00 128.40 2465.99
   13:15:50.013.03-May-2020 4532.80 4122.46 80.41 1.00 128.60 2465.99
   13:15:50.213.03-May-2020 4532.80 4122.37 80.41 1.00 128.80 2465.99
   13:15:50.413.03-May-2020 4532.80 4122.44 80.41 1.00 129.00 2465.99
   13:15:50.614.03-May-2020 4532.80 4122.72 80.41 1.00 129.20 2465.99
   13:15:50.814.03-May-2020 4532.80 4122.72 80.41 1.00 129.40 2465.99
   13:15:51.014.03-May-2020 4532.80 4122.88 80.41 1.00 129.60 2465.99
   13:15:51.215.03-May-2020 4532.80 4122.73 80.41 1.00 129.80 2465.99
   13:15:51.415.03-May-2020 4532.80 4123.40 80.41 1.00 130.00 2465.99
   13:15:51.615.03-May-2020 4532.80 4122.92 80.41 1.00 130.20 2465.99
   13:15:51.816.03-May-2020 4532.80 4122.78 80.40 1.00 130.41 2465.99
   13:15:52.016.03-May-2020 4532.80 4123.44 80.40 1.00 130.61 2465.99
   13:15:52.216.03-May-2020 4532.80 4123.13 80.40 1.00 130.81 2465.99
   13:15:52.417.03-May-2020 4532.80 4122.85 80.40 1.00 131.01 2465.99
   13:15:52.617.03-May-2020 4532.80 4123.40 80.40 1.00 131.21 2465.99
   13:15:52.817.03-May-2020 4532.80 4123.40 80.40 1.00 131.41 2465.99
   13:15:53.017.03-May-2020 4532.80 4122.92 80.40 1.00 131.61 2465.99
   13:15:53.218.03-May-2020 4532.80 4122.33 80.40 1.00 131.81 2465.99
   13:15:53.418.03-May-2020 4532.80 4122.81 80.40 1.00 132.01 2465.99
   13:15:53.618.03-May-2020 4532.80 4122.81 80.40 1.00 132.21 2465.99
   13:15:53.819.03-May-2020 4532.80 4122.81 80.40 1.00 132.41 2465.99
   13:15:54.019.03-May-2020 4532.80 4122.71 80.40 1.00 132.61 2465.99
   13:15:54.219.03-May-2020 4532.80 4122.53 80.40 1.00 132.81 2465.99
   13:15:54.420.03-May-2020 4532.80 4122.59 80.40 1.00 133.01 2465.99
   13:15:54.620.03-May-2020 4532.80 4122.71 80.40 1.00 133.21 2465.99
   13:15:54.820.03-May-2020 4532.80 4122.71 80.40 1.00 133.41 2465.99
   13:15:55.021.03-May-2020 4532.80 4122.54 80.40 1.00 133.61 2465.99
   13:15:55.221.03-May-2020 4532.80 4122.54 80.40 1.00 133.81 2465.99
   13:15:55.421.03-May-2020 4532.80 4122.65 80.40 1.00 134.01 2465.99
   13:15:55.622.03-May-2020 4532.80 4122.60 80.40 1.00 134.21 2465.99
   13:15:55.822.03-May-2020 4532.80 4122.60 80.40 1.00 134.41 2465.99
   13:15:56.022.03-May-2020 4532.80 4123.10 80.39 1.00 134.61 2465.99
   13:15:56.222.03-May-2020 4532.80 4122.89 80.39 1.00 134.81 2465.99
   13:15:56.423.03-May-2020 4532.80 4122.76 80.39 1.00 135.01 2465.99
   13:15:56.623.03-May-2020 4532.80 4123.00 80.39 1.00 135.21 2465.99
   13:15:56.823.03-May-2020 4532.80 4123.00 80.39 1.00 135.41 2465.99
   13:15:57.024.03-May-2020 4532.80 4122.59 80.39 1.00 135.61 2465.99
   13:15:57.224.03-May-2020 4532.80 4122.70 80.39 1.00 135.81 2465.99
   13:15:57.424.03-May-2020 4532.80 4122.67 80.39 1.00 136.01 2465.99
   13:15:57.625.03-May-2020 4532.80 4122.66 80.39 1.00 136.21 2465.99
   13:15:57.825.03-May-2020 4532.80 4122.66 80.39 1.00 136.41 2465.99
   13:15:58.025.03-May-2020 4532.80 4122.44 80.39 1.00 136.61 2465.99
   13:15:58.226.03-May-2020 4532.80 4122.46 80.39 1.00 136.82 2465.99
   13:15:58.426.03-May-2020 4532.80 4122.76 80.39 1.00 137.02 2465.99
   13:15:58.626.03-May-2020 4532.80 4122.97 80.39 1.00 137.22 2465.99
   13:15:58.827.03-May-2020 4532.80 4122.97 80.39 1.00 137.42 2465.99
   13:15:59.027.03-May-2020 4532.80 4122.86 80.39 1.00 137.62 2465.99
   13:15:59.227.03-May-2020 4532.80 4123.36 80.39 1.00 137.82 2465.99
   13:15:59.428.03-May-2020 4532.80 4122.98 80.39 1.00 138.02 2465.99
