~Version Information
 VERS.                  2.0:   CWLS log ASCII Standard -VERSION 2.0
 WRAP.                   NO:   One line per depth step
~Well Information Block
#MNEM.UNIT     VALUE/NAME     DESCRIPTION
#---------     -----------    ---------------------------
 STRT.S             19:38:29 03-May-20: START TIME 19:38:29 03-May-20
 STOP.S             19:45:06 03-May-20: STOP TIME  19:45:06 03-May-20
 STEP.S                   0.00: STEP TIME
 NULL.                 -999.25: NULL VALUE
 DFWT.                        :  DIST FWL TEXT
 DFST.                        :  DIST FSL TEXT
 DMF .             Drill Floor:  DRILL MEAS FROM
 STIM.      03.00.00 25-Mar-20:  START TIME
 DATE.      00.00.00 19-May-20:  END TIME
 SPUD.               27-Aug-20:  SPUD DATE
 NREF.                    Grid:  NORTH REFERENCE
 HPTY.       Minimum Curvature:  HOLE POS TYPE
 DMOD.             Drill Model:  DRILL MOD DESC
 SVYD.                  Survey:  SURVEY DESC
 ILTD.               Lithology:  INTERP LTH DESC
 FTOP.          Formation Tops:  FORM TOPS DESC
 SON .        AZ-XX-0906252240:  JOB NUMBER
 RIG .             West Chirag:  RIG NAME
 PDAT.          Mean Sea Level:  PERMANENT DATUM
 FLD .                     ACG:  FIELD NAME
 CTRY.              Azerbaijan:  COUNTRY NAME
 WELL.                     J23:  WELL NAME
 SRVC.          Turan Drilling:  CONTRACTOR
 COMP.     BP Exploration (Caspian Sea) Ltd.:  COMPANY
 WTYP.                Deviated:  WELL TYPE
 MDS .        Operator Entered:  MAG DATA SOURCE
 UWI .                     N/A:  UNIQUE WELL IDENTIFIER
 API .                     N/A:  API NUMBER
 BASE.              Azerbaijan:  LOGGING EQUIPMENT BASE LOCATION
 REGN.                   EESSA:  REGION
 PROV.                    Baku:  PROVINCE
 STAT.                    Baku:  STATE NAME
 MWDS.                     N/A:  MWD SHOP
 JOBN.        AZ-XX-0906252240:  JOB TICKET NUMB
 DOE .                     N/A:  DOE NUMBER
 DCON.         Sperry Drilling:  DIRECTNL CONTR
 UNIT.                     N/A:  LOGGING EQUIPMENT ID
 CNTY.                        :  COUNTY
 LOC .                        :  LOCATION
 LMF .             Drill Floor:  LOG MEASURED FROM
 TVDS.m                  43.00:  TVDSS CORRECTN
 LATI.deg                40.13:  LATITUDE
 LONG.deg                51.22:  LONGITUDE
 WHNS.m                   9.43:  WELL HEAD N/S
 WHEW.m                  -8.91:  WELL HEAD E/W
 UTMX.m              519005.06:  UTM X
 UTMY.m             4443793.85:  UTM Y
 DFWL.m                   0.00:  DISTANCE FWL
 DFSL.m                   0.00:  DISTANCE FSL
 SDEP.m                 363.00:  START DEPTH
 TDD .m                5150.01:  TOTAL DEPTH (DRILLER)
 VSDR.deg               179.88:  VERT SEC DIRECT
 GVFD.g                   1.00:  GRAVITY FIELD
 MFLD.nT              50295.00:  MAGNETIC FIELD
 MDIP.deg                59.56:  MAGNETIC DIP
 MDEC.deg                 6.45:  MAGNETIC DECL
 GRDC.deg                 0.14:  GRID CORRECTION
 AZTC.deg                 6.31:  AZM TOTAL CORR
 EPD .m                   0.00:  ELEVATION
 EGL .m                   0.00:  GROUND ELEVATION
 WDMS.m                 169.80:  WD ELEV
 APD .m                  43.00:  DEPTH ABOVE PD
 DEP .m                 354.17:  DEPTH
 AGAP.m                  43.00:  AIR GAP
 VSEW.m                  -8.91:  VERT SEC E/W
 VSNS.m                   9.43:  VERT SEC N/S
 EKB .m                   0.00:  KB ELEVATION
 EDF .m                  43.00:  DF ELEVATION
 TDL .m                1351.00:  TOTAL DEPTH (LOGGER)
 VSC .                       0:  VS TO CLOSURE
 MAGU.                 1850802:  MAGUTM CHECKSUM
~Parameter Information Block
#MNEM.UNIT       Value        Description
#---------     -----------    ---------------------------
 AV  .mps                 1.00:  Ann Velocity 
 AVMX.mps                 2.40:  Max Ann Veloc 
 AZIF.deg               148.96:  Azm, Final 
 BHAT.        Rotary Steerable:  BHA Type 
 BROT.°/30m               0.04:  Build Rotating 
 BS  .in                 12.25:  Bit Size 
 BSZ .in                 12.25:  Bit Size 
 BTPL.psig              814.00:  Bit Press Loss 
 TCS .hr                106.00:  Time Ciculation Ended 
 CV  .mps                 2.47:  Crit Velocity 
 CVMX.mps                 2.64:  Max Crit Veloc 
 DD1 .          Rashad Habibov:  Direct Drillr 1 
 DD2 .         Rasim Ibrahimov:  Direct Drillr 2 
 DDSV.                 iCruise:  DD Service 
 DEFF.%                 100.00:  % Det Eff 
 DLRX.°/30m               0.70:  Dogleg Rot Max 
 DLSO.°/30m               3.00:  Dogleg Oriented 
 DLSX.°/30m               4.55:  Dogleg Str Max 
 DRET.      08.08.32 02-May-20:  Drill End Time 
 DRST.      08.08.32 28-Apr-20:  Drill Start Tim 
 DTIM.hr                 60.00:  Time Drilling 
 EDEP.m                4761.01:  End Depth 
 ENG1.           Eldar Hajiyev:  Engineer 1 
 ENG2.        Marcelo Sandoval:  Engineer 2 
 ETIM.      23.23.07 05-May-20:  End Time 
 FLOI.gpm              1200.00:  Flow In 
 FLON.gpm               900.00:  Flow In Min 
 FLOS.cptm                0.00:  Fluid Loss 
 FLOX.gpm              1200.00:  Flow In Max 
 HFLO.                      No:  High Flow 
 HPRE.                      No:  High Pressure 
 HTEM.                      No:  High Temp 
 HYDO.m                   1.80:  Hydro Offset 
 IFIN.deg                68.17:  Inc, Final 
 IMAX.deg                74.61:  Inc Max 
 IMIN.deg                68.15:  Inc Min 
 IMND.m                4317.87:  Inc Min Depth 
 IMXD.m                4714.01:  Inc Max Depth 
 LETM.      08.08.32 02-May-20:  Log End Time 
 LOST.hr                     2:  Lost Rig Time 
 LSTM.      08.08.32 28-Apr-20:  Log Start Time 
 MDCL.ppm             41000.00:  Mud Chlorides 
 MDES.     Inversion Oil/Synthetic:  Mud Desc 
 DFD .sg                  1.58:  Mud Density 
 MDMN.sg                  1.58:  Dens Mud Min 
 MDMX.sg                  1.58:  Dens Mud Max 
 MOIL.                      71:  Run Mud Oil % 
 MOWR.                   71:29:  Run Mud OWR 
 MSND.                     0.1:  Run Mud Sand % 
 MSOL.                      23:  Run Mud Solids% 
 DFV .spqt               82.00:  Mud Viscosity 
 MWOD.in                  8.00:  MWD Tool OD 
 MWSI.                     Yes:  Serv Intrp, MWD 
 OTIM.hr                125.00:  Time Operating 
 PMAX.psia             6129.00:  Press Op, Max 
 PV  .cP                 32.00:  Mud PV 
 RUN .                     800:  Run Number 
 ROPA.m/hr               30.00:  ROP Avg 
 ROPN.m/hr               10.00:  ROP Min 
 ROPX.m/hr               40.00:  ROP Max 
 RPMA.rpm               140.00:  RPM Surface Avg 
 RPMN.rpm                80.00:  RPM Surface Min 
 RPMX.rpm               140.00:  RPM Surface Max 
 RRUN.                    L503:  Rig Run Number 
 RTIM.hr                  2.00:  Time Reaming 
 SAZI.deg               184.23:  Azm, Start 
 SDEP.m                3410.01:  Start Depth 
 SIDD.                      No:  Serv Intrp, DD 
 SINC.deg                68.29:  Inc, Start 
 SPPA.psig             6000.00:  SPP Avg 
 SPPN.psig             4000.00:  SPP Min 
 SPPX.psig             6100.00:  SPP Max 
 STIM.      08.08.32 28-Apr-20:  Start Time 
 SVCS.                 DD, MWD:  Services 
 SVER.                    9.20:  Sperry Version 
 TDAT.m                1351.00:  Tot Depth Attmp 
 TDDF.                      No:  Trip for DD 
 TDLG.m                1351.00:  Tot Depth Loggd 
 TFF .                      No:  Trip for Fail 
 TQAA.f-kp               27.00:  Torque Abs Avg 
 TQAN.f-kp               20.00:  Torque Abs Min 
 TQAX.f-kp               30.00:  Torque Abs Max 
 TRRT.°/30m               0.60:  Turn Rotating 
 MRT .                    EWER:  Maximum Recorded Temperature 
 TTMX.degC               83.00:  Max Tool Temp 
 VS01.                90511138:  Virtual Str1 SN 
 VS02.                90524876:  Virtual Str2 SN 
 VS03.                90524872:  Virtual Str3 SN 
 VS04.                90502750:  Virtual Str4 SN 
 VS05.                12330984:  Virtual Str5 SN 
 WBMN.klb                 0.00:  WOB Min 
 WOBA.klb                15.00:  WOB Avg 
 WOBX.klb                20.00:  WOB Max 
 YP  .lhf2               31.00:  Yield Point 
~Curve Information Block
#MNEM.UNIT                 API CODE     Curve Description
#---------               -----------    ---------------------------
 TIME.HHMMSS            00 000 000 000:  GT Time & Date
 GTDEPTH.m              00 000 000 000:  GT Depth
 GTPQH.psia             00 000 000 000:  GT HR Quartz Pressure
 GTTQ.degC              00 000 000 000:  GT Quartz Temperature
 GTTN.NONE              00 000 000 000:  GT Test Number
 GTET.sec               00 000 000 000:  GT Elapsed Test Time
 GTTVD.m                00 000 000 000:  GT True Vertical Depth
#Other Information
#
#WARRANTY: Halliburton will use its best efforts to furnish customers with 
#accurate information and interpretations that are part of, and incident to, the services 
#provided.  However, Halliburton cannot and does not warrant the accuracy 
#or correctness of such information and interpretations.  Under no circumstances should any 
#such information or interpretation be relied upon as the sole basis for any drilling, 
#completion, production, or financial decision or any procedure involving any risk to the 
#safety of any drilling venture, drilling rig or its crew or any other third party.  The 
#Customer has full responsibility for all drilling, completion and production operation.  
#Halliburton makes no representations or warranties, either expressed or 
#implied, including, but not limited to, the implied warranties of merchantability or fitness 
#for a particular purpose, with respect to the services rendered.  In no event will 
#Halliburton be liable for failure to obtain any particular results or for 
#any damages, including, but not limited to, indirect, special or consequential damages, 
#resulting from the use of any information or interpretation provided by Halliburton.
#
~A           TIME           GTDEPTH  GTPQH  GTTQ  GTTN  GTET   GTTVD  
# ...
   19:40:47.501.03-May-2020 4608.48 4148.64 79.98 3.00 138.01 2489.14
   19:40:47.701.03-May-2020 4608.48 4148.56 79.97 3.00 138.21 2489.14
   19:40:47.901.03-May-2020 4608.48 4148.92 79.97 3.00 138.41 2489.14
   19:40:48.101.03-May-2020 4608.48 4148.67 79.97 3.00 138.61 2489.14
   19:40:48.301.03-May-2020 4608.48 4148.94 79.97 3.00 138.81 2489.14
   19:40:48.501.03-May-2020 4608.48 4148.16 79.97 3.00 139.01 2489.14
   19:40:48.701.03-May-2020 4608.48 4148.16 79.97 3.00 139.22 2489.14
   19:40:48.901.03-May-2020 4608.48 4148.57 79.97 3.00 139.42 2489.14
   19:40:49.101.03-May-2020 4608.48 4149.13 79.97 3.00 139.62 2489.14
   19:40:49.301.03-May-2020 4608.48 4148.67 79.97 3.00 139.82 2489.14
   19:40:49.501.03-May-2020 4608.48 4148.41 79.97 3.00 140.02 2489.14
   19:40:49.701.03-May-2020 4608.48 4148.41 79.97 3.00 140.22 2489.14
   19:40:49.901.03-May-2020 4608.48 4148.46 79.97 3.00 140.42 2489.14
   19:40:50.101.03-May-2020 4608.48 4148.80 79.97 3.00 140.62 2489.14
   19:40:50.301.03-May-2020 4608.48 4148.88 79.96 3.00 140.82 2489.14
   19:40:50.501.03-May-2020 4608.48 4148.74 79.96 3.00 141.02 2489.14
   19:40:50.701.03-May-2020 4608.48 4148.74 79.96 3.00 141.22 2489.14
   19:40:50.901.03-May-2020 4608.48 4148.21 79.96 3.00 141.42 2489.14
   19:40:51.101.03-May-2020 4608.48 4148.67 79.96 3.00 141.62 2489.14
   19:40:51.301.03-May-2020 4608.48 4148.73 79.96 3.00 141.82 2489.14
   19:40:51.501.03-May-2020 4608.48 4148.75 79.96 3.00 142.02 2489.14
   19:40:51.701.03-May-2020 4608.48 4148.73 79.96 3.00 142.22 2489.14
   19:40:51.901.03-May-2020 4608.48 4148.68 79.96 3.00 142.42 2489.14
   19:40:52.101.03-May-2020 4608.48 4148.58 79.96 3.00 142.62 2489.14
   19:40:52.301.03-May-2020 4608.48 4148.64 79.96 3.00 142.82 2489.14
   19:40:52.501.03-May-2020 4608.48 4148.67 79.96 3.00 143.02 2489.14
   19:40:52.701.03-May-2020 4608.48 4148.67 79.96 3.00 143.22 2489.14
   19:40:52.901.03-May-2020 4608.48 4148.69 79.95 3.00 143.42 2489.14
   19:40:53.101.03-May-2020 4608.48 4148.63 79.95 3.00 143.62 2489.14
   19:40:53.301.03-May-2020 4608.48 4148.60 79.95 3.00 143.82 2489.14
   19:40:53.501.03-May-2020 4608.48 4148.42 79.95 3.00 144.02 2489.14
   19:40:53.701.03-May-2020 4608.48 4148.42 79.95 3.00 144.22 2489.14
   19:40:53.901.03-May-2020 4608.48 4148.80 79.95 3.00 144.42 2489.14
   19:40:54.101.03-May-2020 4608.48 4148.62 79.95 3.00 144.62 2489.14
   19:40:54.301.03-May-2020 4608.48 4148.57 79.95 3.00 144.82 2489.14
   19:40:54.501.03-May-2020 4608.48 4148.62 79.95 3.00 145.02 2489.14
   19:40:54.701.03-May-2020 4608.48 4148.62 79.95 3.00 145.22 2489.14
   19:40:54.901.03-May-2020 4608.48 4148.71 79.95 3.00 145.42 2489.14
   19:40:55.101.03-May-2020 4608.48 4148.68 79.95 3.00 145.62 2489.14
   19:40:55.301.03-May-2020 4608.48 4148.57 79.95 3.00 145.82 2489.14
   19:40:55.501.03-May-2020 4608.48 4148.61 79.94 3.00 146.02 2489.14
   19:40:55.702.03-May-2020 4608.48 4148.63 79.94 3.00 146.22 2489.14
   19:40:55.902.03-May-2020 4608.48 4148.65 79.94 3.00 146.42 2489.14
   19:40:56.102.03-May-2020 4608.48 4148.37 79.94 3.00 146.62 2489.14
   19:40:56.302.03-May-2020 4608.48 4149.00 79.94 3.00 146.82 2489.14
   19:40:56.502.03-May-2020 4608.48 4148.72 79.94 3.00 147.02 2489.14
   19:40:56.702.03-May-2020 4608.48 4148.72 79.94 3.00 147.22 2489.14
   19:40:56.902.03-May-2020 4608.48 4148.55 79.94 3.00 147.42 2489.14
   19:40:57.102.03-May-2020 4608.48 4148.48 79.94 3.00 147.62 2489.14
   19:40:57.302.03-May-2020 4608.48 4148.27 79.94 3.00 147.82 2489.14
   19:40:57.502.03-May-2020 4608.48 4149.13 79.94 3.00 148.02 2489.14
   19:40:57.702.03-May-2020 4608.48 4149.13 79.94 3.00 148.22 2489.14
   19:40:57.902.03-May-2020 4608.48 4148.63 79.93 3.00 148.42 2489.14
   19:40:58.102.03-May-2020 4608.48 4148.47 79.93 3.00 148.62 2489.14
   19:40:58.302.03-May-2020 4608.48 4148.77 79.93 3.00 148.82 2489.14
   19:40:58.502.03-May-2020 4608.48 4148.71 79.93 3.00 149.02 2489.14
   19:40:58.702.03-May-2020 4608.48 4148.71 79.93 3.00 149.22 2489.14
   19:40:58.902.03-May-2020 4608.48 4148.70 79.93 3.00 149.42 2489.14
   19:40:59.102.03-May-2020 4608.48 4148.78 79.93 3.00 149.62 2489.14
   19:40:59.302.03-May-2020 4608.48 4148.61 79.93 3.00 149.82 2489.14
   19:40:59.502.03-May-2020 4608.48 4148.52 79.93 3.00 150.02 2489.14
   19:40:59.702.03-May-2020 4608.48 4148.65 79.93 3.00 150.22 2489.14
   19:40:59.902.03-May-2020 4608.48 4148.76 79.93 3.00 150.42 2489.14
   19:41:00.102.03-May-2020 4608.48 4148.70 79.93 3.00 150.62 2489.14
   19:41:00.302.03-May-2020 4608.48 4148.74 79.93 3.00 150.82 2489.14
   19:41:00.502.03-May-2020 4608.48 4148.64 79.92 3.00 151.02 2489.14
   19:41:00.702.03-May-2020 4608.48 4148.64 79.92 3.00 151.22 2489.14
   19:41:00.902.03-May-2020 4608.48 4148.71 79.92 3.00 151.42 2489.14
   19:41:01.102.03-May-2020 4608.48 4148.70 79.92 3.00 151.62 2489.14
   19:41:01.302.03-May-2020 4608.48 4148.63 79.92 3.00 151.82 2489.14
   19:41:01.502.03-May-2020 4608.48 4148.65 79.92 3.00 152.02 2489.14
   19:41:01.702.03-May-2020 4608.48 4148.65 79.92 3.00 152.22 2489.14
   19:41:01.902.03-May-2020 4608.48 4148.32 79.92 3.00 152.42 2489.14
   19:41:02.102.03-May-2020 4608.48 4148.78 79.92 3.00 152.62 2489.14
   19:41:02.302.03-May-2020 4608.48 4148.79 79.92 3.00 152.82 2489.14
   19:41:02.502.03-May-2020 4608.48 4148.72 79.92 3.00 153.02 2489.14
   19:41:02.702.03-May-2020 4608.48 4148.72 79.92 3.00 153.22 2489.14
   19:41:02.902.03-May-2020 4608.48 4148.65 79.92 3.00 153.42 2489.14
   19:41:03.102.03-May-2020 4608.48 4148.63 79.91 3.00 153.62 2489.14
   19:41:03.302.03-May-2020 4608.48 4124.16 79.91 3.00 153.82 2489.14
   19:41:03.502.03-May-2020 4608.48 4107.60 79.91 3.00 154.02 2489.14
   19:41:03.702.03-May-2020 4608.48 4107.60 79.91 3.00 154.22 2489.14
   19:41:03.902.03-May-2020 4608.48 4108.73 79.91 3.00 154.42 2489.14
   19:41:04.102.03-May-2020 4608.48 4108.78 79.91 3.00 154.62 2489.14
   19:41:04.302.03-May-2020 4608.48 4109.19 79.91 3.00 154.82 2489.14
   19:41:04.502.03-May-2020 4608.48 4108.40 79.91 3.00 155.02 2489.14
   19:41:04.702.03-May-2020 4608.48 4108.40 79.91 3.00 155.22 2489.14
   19:41:04.903.03-May-2020 4608.48 4108.59 79.91 3.00 155.42 2489.14
   19:41:05.103.03-May-2020 4608.48 4109.99 79.91 3.00 155.62 2489.14
   19:41:05.303.03-May-2020 4608.48 4109.69 79.91 3.00 155.82 2489.14
   19:41:05.503.03-May-2020 4608.48 4109.93 79.90 3.00 156.02 2489.14
   19:41:05.703.03-May-2020 4608.48 4109.93 79.90 3.00 156.22 2489.14
   19:41:05.903.03-May-2020 4608.48 4110.27 79.90 3.00 156.42 2489.14
   19:41:06.103.03-May-2020 4608.48 4110.50 79.90 3.00 156.62 2489.14
   19:41:06.303.03-May-2020 4608.48 4111.25 79.90 3.00 156.82 2489.14
   19:41:06.503.03-May-2020 4608.48 4108.89 79.90 3.00 157.02 2489.14
   19:41:06.703.03-May-2020 4608.48 4108.89 79.90 3.00 157.22 2489.14
   19:41:06.903.03-May-2020 4608.48 4110.49 79.90 3.00 157.42 2489.14
   19:41:07.103.03-May-2020 4608.48 4111.00 79.90 3.00 157.62 2489.14
   19:41:07.303.03-May-2020 4608.48 4110.11 79.90 3.00 157.82 2489.14
   19:41:07.503.03-May-2020 4608.48 4111.22 79.90 3.00 158.02 2489.14
   19:41:07.703.03-May-2020 4608.48 4111.39 79.90 3.00 158.22 2489.14
   19:41:07.903.03-May-2020 4608.48 4111.23 79.90 3.00 158.42 2489.14
   19:41:08.103.03-May-2020 4608.48 4111.22 79.89 3.00 158.62 2489.14
   19:41:08.303.03-May-2020 4608.48 4111.36 79.89 3.00 158.82 2489.14
   19:41:08.503.03-May-2020 4608.48 4111.39 79.89 3.00 159.02 2489.14
   19:41:08.703.03-May-2020 4608.48 4111.39 79.89 3.00 159.22 2489.14
   19:41:08.903.03-May-2020 4608.48 4111.65 79.89 3.00 159.42 2489.14
   19:41:09.103.03-May-2020 4608.48 4111.83 79.89 3.00 159.62 2489.14
   19:41:09.303.03-May-2020 4608.48 4111.79 79.89 3.00 159.82 2489.14
   19:41:09.503.03-May-2020 4608.48 4111.81 79.89 3.00 160.02 2489.14
   19:41:09.703.03-May-2020 4608.48 4111.81 79.89 3.00 160.22 2489.14
   19:41:09.903.03-May-2020 4608.48 4111.98 79.89 3.00 160.42 2489.14
   19:41:10.103.03-May-2020 4608.48 4110.83 79.89 3.00 160.62 2489.14
   19:41:10.303.03-May-2020 4608.48 4112.11 79.89 3.00 160.82 2489.14
