~Version Information
 VERS.                  2.0:   CWLS log ASCII Standard -VERSION 2.0
 WRAP.                   NO:   One line per depth step
~Well Information Block
#MNEM.UNIT     VALUE/NAME     DESCRIPTION
#---------     -----------    ---------------------------
 STRT.S             00:33:44 04-May-20: START TIME 00:33:44 04-May-20
 STOP.S             00:40:14 04-May-20: STOP TIME  00:40:14 04-May-20
 STEP.S                   0.00: STEP TIME
 NULL.                 -999.25: NULL VALUE
 DFWT.                        :  DIST FWL TEXT
 DFST.                        :  DIST FSL TEXT
 DMF .             Drill Floor:  DRILL MEAS FROM
 STIM.      03.00.00 25-Mar-20:  START TIME
 DATE.      00.00.00 19-May-20:  END TIME
 SPUD.               27-Aug-20:  SPUD DATE
 NREF.                    Grid:  NORTH REFERENCE
 HPTY.       Minimum Curvature:  HOLE POS TYPE
 DMOD.             Drill Model:  DRILL MOD DESC
 SVYD.                  Survey:  SURVEY DESC
 ILTD.               Lithology:  INTERP LTH DESC
 FTOP.          Formation Tops:  FORM TOPS DESC
 SON .        AZ-XX-0906252240:  JOB NUMBER
 RIG .             West Chirag:  RIG NAME
 PDAT.          Mean Sea Level:  PERMANENT DATUM
 FLD .                     ACG:  FIELD NAME
 CTRY.              Azerbaijan:  COUNTRY NAME
 WELL.                     J23:  WELL NAME
 SRVC.          Turan Drilling:  CONTRACTOR
 COMP.     BP Exploration (Caspian Sea) Ltd.:  COMPANY
 WTYP.                Deviated:  WELL TYPE
 MDS .        Operator Entered:  MAG DATA SOURCE
 UWI .                     N/A:  UNIQUE WELL IDENTIFIER
 API .                     N/A:  API NUMBER
 BASE.              Azerbaijan:  LOGGING EQUIPMENT BASE LOCATION
 REGN.                   EESSA:  REGION
 PROV.                    Baku:  PROVINCE
 STAT.                    Baku:  STATE NAME
 MWDS.                     N/A:  MWD SHOP
 JOBN.        AZ-XX-0906252240:  JOB TICKET NUMB
 DOE .                     N/A:  DOE NUMBER
 DCON.         Sperry Drilling:  DIRECTNL CONTR
 UNIT.                     N/A:  LOGGING EQUIPMENT ID
 CNTY.                        :  COUNTY
 LOC .                        :  LOCATION
 LMF .             Drill Floor:  LOG MEASURED FROM
 TVDS.m                  43.00:  TVDSS CORRECTN
 LATI.deg                40.13:  LATITUDE
 LONG.deg                51.22:  LONGITUDE
 WHNS.m                   9.43:  WELL HEAD N/S
 WHEW.m                  -8.91:  WELL HEAD E/W
 UTMX.m              519005.06:  UTM X
 UTMY.m             4443793.85:  UTM Y
 DFWL.m                   0.00:  DISTANCE FWL
 DFSL.m                   0.00:  DISTANCE FSL
 SDEP.m                 363.00:  START DEPTH
 TDD .m                5150.01:  TOTAL DEPTH (DRILLER)
 VSDR.deg               179.88:  VERT SEC DIRECT
 GVFD.g                   1.00:  GRAVITY FIELD
 MFLD.nT              50295.00:  MAGNETIC FIELD
 MDIP.deg                59.56:  MAGNETIC DIP
 MDEC.deg                 6.45:  MAGNETIC DECL
 GRDC.deg                 0.14:  GRID CORRECTION
 AZTC.deg                 6.31:  AZM TOTAL CORR
 EPD .m                   0.00:  ELEVATION
 EGL .m                   0.00:  GROUND ELEVATION
 WDMS.m                 169.80:  WD ELEV
 APD .m                  43.00:  DEPTH ABOVE PD
 DEP .m                 354.17:  DEPTH
 AGAP.m                  43.00:  AIR GAP
 VSEW.m                  -8.91:  VERT SEC E/W
 VSNS.m                   9.43:  VERT SEC N/S
 EKB .m                   0.00:  KB ELEVATION
 EDF .m                  43.00:  DF ELEVATION
 TDL .m                1351.00:  TOTAL DEPTH (LOGGER)
 VSC .                       0:  VS TO CLOSURE
 MAGU.                 1850802:  MAGUTM CHECKSUM
~Parameter Information Block
#MNEM.UNIT       Value        Description
#---------     -----------    ---------------------------
 AV  .mps                 1.00:  Ann Velocity 
 AVMX.mps                 2.40:  Max Ann Veloc 
 AZIF.deg               148.96:  Azm, Final 
 BHAT.        Rotary Steerable:  BHA Type 
 BROT.°/30m               0.04:  Build Rotating 
 BS  .in                 12.25:  Bit Size 
 BSZ .in                 12.25:  Bit Size 
 BTPL.psig              814.00:  Bit Press Loss 
 TCS .hr                106.00:  Time Ciculation Ended 
 CV  .mps                 2.47:  Crit Velocity 
 CVMX.mps                 2.64:  Max Crit Veloc 
 DD1 .          Rashad Habibov:  Direct Drillr 1 
 DD2 .         Rasim Ibrahimov:  Direct Drillr 2 
 DDSV.                 iCruise:  DD Service 
 DEFF.%                 100.00:  % Det Eff 
 DLRX.°/30m               0.70:  Dogleg Rot Max 
 DLSO.°/30m               3.00:  Dogleg Oriented 
 DLSX.°/30m               4.55:  Dogleg Str Max 
 DRET.      08.08.32 02-May-20:  Drill End Time 
 DRST.      08.08.32 28-Apr-20:  Drill Start Tim 
 DTIM.hr                 60.00:  Time Drilling 
 EDEP.m                4761.01:  End Depth 
 ENG1.           Eldar Hajiyev:  Engineer 1 
 ENG2.        Marcelo Sandoval:  Engineer 2 
 ETIM.      23.23.07 05-May-20:  End Time 
 FLOI.gpm              1200.00:  Flow In 
 FLON.gpm               900.00:  Flow In Min 
 FLOS.cptm                0.00:  Fluid Loss 
 FLOX.gpm              1200.00:  Flow In Max 
 HFLO.                      No:  High Flow 
 HPRE.                      No:  High Pressure 
 HTEM.                      No:  High Temp 
 HYDO.m                   1.80:  Hydro Offset 
 IFIN.deg                68.17:  Inc, Final 
 IMAX.deg                74.61:  Inc Max 
 IMIN.deg                68.15:  Inc Min 
 IMND.m                4317.87:  Inc Min Depth 
 IMXD.m                4714.01:  Inc Max Depth 
 LETM.      08.08.32 02-May-20:  Log End Time 
 LOST.hr                     2:  Lost Rig Time 
 LSTM.      08.08.32 28-Apr-20:  Log Start Time 
 MDCL.ppm             41000.00:  Mud Chlorides 
 MDES.     Inversion Oil/Synthetic:  Mud Desc 
 DFD .sg                  1.58:  Mud Density 
 MDMN.sg                  1.58:  Dens Mud Min 
 MDMX.sg                  1.58:  Dens Mud Max 
 MOIL.                      71:  Run Mud Oil % 
 MOWR.                   71:29:  Run Mud OWR 
 MSND.                     0.1:  Run Mud Sand % 
 MSOL.                      23:  Run Mud Solids% 
 DFV .spqt               82.00:  Mud Viscosity 
 MWOD.in                  8.00:  MWD Tool OD 
 MWSI.                     Yes:  Serv Intrp, MWD 
 OTIM.hr                125.00:  Time Operating 
 PMAX.psia             6129.00:  Press Op, Max 
 PV  .cP                 32.00:  Mud PV 
 RUN .                     800:  Run Number 
 ROPA.m/hr               30.00:  ROP Avg 
 ROPN.m/hr               10.00:  ROP Min 
 ROPX.m/hr               40.00:  ROP Max 
 RPMA.rpm               140.00:  RPM Surface Avg 
 RPMN.rpm                80.00:  RPM Surface Min 
 RPMX.rpm               140.00:  RPM Surface Max 
 RRUN.                    L503:  Rig Run Number 
 RTIM.hr                  2.00:  Time Reaming 
 SAZI.deg               184.23:  Azm, Start 
 SDEP.m                3410.01:  Start Depth 
 SIDD.                      No:  Serv Intrp, DD 
 SINC.deg                68.29:  Inc, Start 
 SPPA.psig             6000.00:  SPP Avg 
 SPPN.psig             4000.00:  SPP Min 
 SPPX.psig             6100.00:  SPP Max 
 STIM.      08.08.32 28-Apr-20:  Start Time 
 SVCS.                 DD, MWD:  Services 
 SVER.                    9.20:  Sperry Version 
 TDAT.m                1351.00:  Tot Depth Attmp 
 TDDF.                      No:  Trip for DD 
 TDLG.m                1351.00:  Tot Depth Loggd 
 TFF .                      No:  Trip for Fail 
 TQAA.f-kp               27.00:  Torque Abs Avg 
 TQAN.f-kp               20.00:  Torque Abs Min 
 TQAX.f-kp               30.00:  Torque Abs Max 
 TRRT.°/30m               0.60:  Turn Rotating 
 MRT .                    EWER:  Maximum Recorded Temperature 
 TTMX.degC               83.00:  Max Tool Temp 
 VS01.                90511138:  Virtual Str1 SN 
 VS02.                90524876:  Virtual Str2 SN 
 VS03.                90524872:  Virtual Str3 SN 
 VS04.                90502750:  Virtual Str4 SN 
 VS05.                12330984:  Virtual Str5 SN 
 WBMN.klb                 0.00:  WOB Min 
 WOBA.klb                15.00:  WOB Avg 
 WOBX.klb                20.00:  WOB Max 
 YP  .lhf2               31.00:  Yield Point 
~Curve Information Block
#MNEM.UNIT                 API CODE     Curve Description
#---------               -----------    ---------------------------
 TIME.HHMMSS            00 000 000 000:  GT Time & Date
 GTDEPTH.m              00 000 000 000:  GT Depth
 GTPQH.psia             00 000 000 000:  GT HR Quartz Pressure
 GTTQ.degC              00 000 000 000:  GT Quartz Temperature
 GTTN.NONE              00 000 000 000:  GT Test Number
 GTET.sec               00 000 000 000:  GT Elapsed Test Time
 GTTVD.m                00 000 000 000:  GT True Vertical Depth
#Other Information
#
#WARRANTY: Halliburton will use its best efforts to furnish customers with 
#accurate information and interpretations that are part of, and incident to, the services 
#provided.  However, Halliburton cannot and does not warrant the accuracy 
#or correctness of such information and interpretations.  Under no circumstances should any 
#such information or interpretation be relied upon as the sole basis for any drilling, 
#completion, production, or financial decision or any procedure involving any risk to the 
#safety of any drilling venture, drilling rig or its crew or any other third party.  The 
#Customer has full responsibility for all drilling, completion and production operation.  
#Halliburton makes no representations or warranties, either expressed or 
#implied, including, but not limited to, the implied warranties of merchantability or fitness 
#for a particular purpose, with respect to the services rendered.  In no event will 
#Halliburton be liable for failure to obtain any particular results or for 
#any damages, including, but not limited to, indirect, special or consequential damages, 
#resulting from the use of any information or interpretation provided by Halliburton.
#
~A           TIME           GTDEPTH  GTPQH  GTTQ  GTTN  GTET   GTTVD  
# ...
   00:37:57.339.04-May-2020 4661.71   82.77 80.40 4.00 253.02 2504.33
   00:37:57.539.04-May-2020 4661.71   82.77 80.40 4.00 253.22 2504.33
   00:37:57.739.04-May-2020 4661.71   82.79 80.40 4.00 253.42 2504.33
   00:37:57.939.04-May-2020 4661.71   82.81 80.40 4.00 253.62 2504.33
   00:37:58.139.04-May-2020 4661.71   82.81 80.40 4.00 253.82 2504.33
   00:37:58.339.04-May-2020 4661.71   82.84 80.40 4.00 254.02 2504.33
   00:37:58.539.04-May-2020 4661.71   82.85 80.40 4.00 254.22 2504.33
   00:37:58.739.04-May-2020 4661.71   82.86 80.40 4.00 254.42 2504.33
   00:37:58.939.04-May-2020 4661.71   82.87 80.40 4.00 254.62 2504.33
   00:37:59.139.04-May-2020 4661.71   82.89 80.40 4.00 254.82 2504.33
   00:37:59.339.04-May-2020 4661.71   82.91 80.40 4.00 255.02 2504.33
   00:37:59.539.04-May-2020 4661.71   82.93 80.40 4.00 255.22 2504.33
   00:37:59.739.04-May-2020 4661.71   82.96 80.39 4.00 255.42 2504.33
   00:37:59.939.04-May-2020 4661.71   82.96 80.39 4.00 255.62 2504.33
   00:38:00.139.04-May-2020 4661.71   82.98 80.39 4.00 255.82 2504.33
   00:38:00.339.04-May-2020 4661.71   82.98 80.39 4.00 256.02 2504.33
   00:38:00.539.04-May-2020 4661.71   82.98 80.39 4.00 256.22 2504.33
   00:38:00.739.04-May-2020 4661.71   83.01 80.39 4.00 256.42 2504.33
   00:38:00.939.04-May-2020 4661.71   83.02 80.39 4.00 256.62 2504.33
   00:38:01.139.04-May-2020 4661.71   83.03 80.39 4.00 256.82 2504.33
   00:38:01.339.04-May-2020 4661.71   83.05 80.39 4.00 257.02 2504.33
   00:38:01.539.04-May-2020 4661.71   83.05 80.39 4.00 257.22 2504.33
   00:38:01.739.04-May-2020 4661.71   83.08 80.39 4.00 257.42 2504.33
   00:38:01.939.04-May-2020 4661.71   82.85 80.39 4.00 257.62 2504.33
   00:38:02.140.04-May-2020 4661.71   81.83 80.39 4.00 257.82 2504.33
   00:38:02.340.04-May-2020 4661.71   80.78 80.38 4.00 258.02 2504.33
   00:38:02.540.04-May-2020 4661.71   80.78 80.38 4.00 258.22 2504.33
   00:38:02.740.04-May-2020 4661.71   78.82 80.38 4.00 258.42 2504.33
   00:38:02.940.04-May-2020 4661.71   77.87 80.38 4.00 258.62 2504.33
   00:38:03.140.04-May-2020 4661.71   76.96 80.38 4.00 258.82 2504.33
   00:38:03.340.04-May-2020 4661.71   76.09 80.38 4.00 259.02 2504.33
   00:38:03.540.04-May-2020 4661.71   75.24 80.38 4.00 259.22 2504.33
   00:38:03.740.04-May-2020 4661.71   74.41 80.38 4.00 259.42 2504.33
   00:38:03.940.04-May-2020 4661.71   73.62 80.38 4.00 259.62 2504.33
   00:38:04.140.04-May-2020 4661.71   72.82 80.38 4.00 259.82 2504.33
   00:38:04.340.04-May-2020 4661.71   72.07 80.38 4.00 260.02 2504.33
   00:38:04.540.04-May-2020 4661.71   72.07 80.38 4.00 260.22 2504.33
   00:38:04.740.04-May-2020 4661.71   70.61 80.37 4.00 260.42 2504.33
   00:38:04.940.04-May-2020 4661.71   69.91 80.37 4.00 260.62 2504.33
   00:38:05.140.04-May-2020 4661.71   69.23 80.37 4.00 260.82 2504.33
   00:38:05.340.04-May-2020 4661.71   68.55 80.37 4.00 261.02 2504.33
   00:38:05.540.04-May-2020 4661.71   67.91 80.37 4.00 261.22 2504.33
   00:38:05.740.04-May-2020 4661.71   67.29 80.37 4.00 261.42 2504.33
   00:38:05.940.04-May-2020 4661.71   66.67 80.37 4.00 261.62 2504.33
   00:38:06.140.04-May-2020 4661.71   66.05 80.37 4.00 261.82 2504.33
   00:38:06.340.04-May-2020 4661.71   65.47 80.37 4.00 262.02 2504.33
   00:38:06.540.04-May-2020 4661.71   64.91 80.37 4.00 262.22 2504.33
   00:38:06.740.04-May-2020 4661.71   64.35 80.37 4.00 262.42 2504.33
   00:38:06.940.04-May-2020 4661.71   63.80 80.37 4.00 262.62 2504.33
   00:38:07.140.04-May-2020 4661.71   63.26 80.36 4.00 262.82 2504.33
   00:38:07.340.04-May-2020 4661.71   62.74 80.36 4.00 263.02 2504.33
   00:38:07.540.04-May-2020 4661.71   62.74 80.36 4.00 263.22 2504.33
   00:38:07.740.04-May-2020 4661.71   61.74 80.36 4.00 263.42 2504.33
   00:38:07.940.04-May-2020 4661.71   61.25 80.36 4.00 263.62 2504.33
   00:38:08.140.04-May-2020 4661.71   60.77 80.36 4.00 263.82 2504.33
   00:38:08.340.04-May-2020 4661.71   60.34 80.36 4.00 264.02 2504.33
   00:38:08.540.04-May-2020 4661.71   60.34 80.36 4.00 264.22 2504.33
   00:38:08.740.04-May-2020 4661.71   59.43 80.36 4.00 264.42 2504.33
   00:38:08.940.04-May-2020 4661.71   59.00 80.36 4.00 264.62 2504.33
   00:38:09.140.04-May-2020 4661.71   58.57 80.36 4.00 264.82 2504.33
   00:38:09.340.04-May-2020 4661.71   58.16 80.36 4.00 265.02 2504.33
   00:38:09.540.04-May-2020 4661.71   58.16 80.36 4.00 265.22 2504.33
   00:38:09.740.04-May-2020 4661.71   57.36 80.35 4.00 265.42 2504.33
   00:38:09.940.04-May-2020 4661.71   56.95 80.35 4.00 265.62 2504.33
   00:38:10.140.04-May-2020 4661.71   56.57 80.35 4.00 265.82 2504.33
   00:38:10.340.04-May-2020 4661.71   56.37 80.35 4.00 266.02 2504.33
   00:38:10.540.04-May-2020 4661.71   56.37 80.35 4.00 266.22 2504.33
   00:38:10.740.04-May-2020 4661.71   56.42 80.35 4.00 266.42 2504.33
   00:38:10.940.04-May-2020 4661.71   56.46 80.35 4.00 266.62 2504.33
   00:38:11.140.04-May-2020 4661.71   56.51 80.35 4.00 266.82 2504.33
   00:38:11.340.04-May-2020 4661.71   56.56 80.35 4.00 267.02 2504.33
   00:38:11.540.04-May-2020 4661.71   56.61 80.35 4.00 267.22 2504.33
   00:38:11.740.04-May-2020 4661.71   56.66 80.35 4.00 267.42 2504.33
   00:38:11.940.04-May-2020 4661.71   56.70 80.35 4.00 267.62 2504.33
   00:38:12.140.04-May-2020 4661.71   56.75 80.34 4.00 267.82 2504.33
   00:38:12.340.04-May-2020 4661.71   56.79 80.34 4.00 268.02 2504.33
   00:38:12.540.04-May-2020 4661.71   56.79 80.34 4.00 268.22 2504.33
   00:38:12.740.04-May-2020 4661.71   56.88 80.34 4.00 268.42 2504.33
   00:38:12.940.04-May-2020 4661.71   56.91 80.34 4.00 268.62 2504.33
   00:38:13.141.04-May-2020 4661.71   56.95 80.34 4.00 268.82 2504.33
   00:38:13.341.04-May-2020 4661.71   56.99 80.34 4.00 269.02 2504.33
   00:38:13.541.04-May-2020 4661.71   56.99 80.34 4.00 269.22 2504.33
   00:38:13.741.04-May-2020 4661.71   57.06 80.34 4.00 269.42 2504.33
   00:38:13.941.04-May-2020 4661.71   57.09 80.34 4.00 269.62 2504.33
   00:38:14.141.04-May-2020 4661.71   57.13 80.34 4.00 269.82 2504.33
   00:38:14.341.04-May-2020 4661.71   57.16 80.34 4.00 270.02 2504.33
   00:38:14.541.04-May-2020 4661.71   57.16 80.34 4.00 270.22 2504.33
   00:38:14.741.04-May-2020 4661.71   57.22 80.33 4.00 270.42 2504.33
   00:38:14.941.04-May-2020 4661.71   57.25 80.33 4.00 270.62 2504.33
   00:38:15.141.04-May-2020 4661.71   57.28 80.33 4.00 270.82 2504.33
   00:38:15.341.04-May-2020 4661.71   57.32 80.33 4.00 271.02 2504.33
   00:38:15.541.04-May-2020 4661.71   57.32 80.33 4.00 271.22 2504.33
   00:38:15.741.04-May-2020 4661.71   57.37 80.33 4.00 271.42 2504.33
   00:38:15.941.04-May-2020 4661.71   57.40 80.33 4.00 271.62 2504.33
   00:38:16.141.04-May-2020 4661.71   57.44 80.33 4.00 271.82 2504.33
   00:38:16.341.04-May-2020 4661.71   57.47 80.33 4.00 272.02 2504.33
   00:38:16.541.04-May-2020 4661.71   57.49 80.33 4.00 272.22 2504.33
   00:38:16.741.04-May-2020 4661.71   57.52 80.33 4.00 272.42 2504.33
   00:38:16.941.04-May-2020 4661.71   57.55 80.32 4.00 272.62 2504.33
   00:38:17.141.04-May-2020 4661.71   57.57 80.32 4.00 272.82 2504.33
   00:38:17.341.04-May-2020 4661.71   57.60 80.32 4.00 273.02 2504.33
   00:38:17.541.04-May-2020 4661.71   57.60 80.32 4.00 273.22 2504.33
   00:38:17.741.04-May-2020 4661.71   57.66 80.32 4.00 273.42 2504.33
   00:38:17.941.04-May-2020 4661.71   57.68 80.32 4.00 273.62 2504.33
   00:38:18.141.04-May-2020 4661.71   57.70 80.32 4.00 273.82 2504.33
   00:38:18.341.04-May-2020 4661.71   57.73 80.32 4.00 274.02 2504.33
   00:38:18.541.04-May-2020 4661.71   57.75 80.32 4.00 274.22 2504.33
   00:38:18.741.04-May-2020 4661.71   57.80 80.32 4.00 274.42 2504.33
   00:38:18.941.04-May-2020 4661.71   57.81 80.32 4.00 274.62 2504.33
   00:38:19.141.04-May-2020 4661.71   57.84 80.32 4.00 274.82 2504.33
   00:38:19.341.04-May-2020 4661.71   57.86 80.31 4.00 275.02 2504.33
   00:38:19.541.04-May-2020 4661.71   57.88 80.31 4.00 275.22 2504.33
   00:38:19.741.04-May-2020 4661.71   57.90 80.31 4.00 275.42 2504.33
   00:38:19.941.04-May-2020 4661.71   57.94 80.31 4.00 275.62 2504.33
   00:38:20.141.04-May-2020 4661.71   57.96 80.31 4.00 275.82 2504.33
