~Version Information
 VERS.                  2.0:   CWLS log ASCII Standard -VERSION 2.0
 WRAP.                   NO:   One line per depth step
~Well Information Block
#MNEM.UNIT     VALUE/NAME     DESCRIPTION
#---------     -----------    ---------------------------
 STRT.S             10:50:58 04-May-20: START TIME 10:50:58 04-May-20
 STOP.S             10:57:32 04-May-20: STOP TIME  10:57:32 04-May-20
 STEP.S                   0.00: STEP TIME
 NULL.                 -999.25: NULL VALUE
 DFWT.                        :  DIST FWL TEXT
 DFST.                        :  DIST FSL TEXT
 DMF .             Drill Floor:  DRILL MEAS FROM
 STIM.      03.00.00 25-Mar-20:  START TIME
 DATE.      00.00.00 19-May-20:  END TIME
 SPUD.               27-Aug-20:  SPUD DATE
 NREF.                    Grid:  NORTH REFERENCE
 HPTY.       Minimum Curvature:  HOLE POS TYPE
 DMOD.             Drill Model:  DRILL MOD DESC
 SVYD.                  Survey:  SURVEY DESC
 ILTD.               Lithology:  INTERP LTH DESC
 FTOP.          Formation Tops:  FORM TOPS DESC
 SON .        AZ-XX-0906252240:  JOB NUMBER
 RIG .             West Chirag:  RIG NAME
 PDAT.          Mean Sea Level:  PERMANENT DATUM
 FLD .                     ACG:  FIELD NAME
 CTRY.              Azerbaijan:  COUNTRY NAME
 WELL.                     J23:  WELL NAME
 SRVC.          Turan Drilling:  CONTRACTOR
 COMP.     BP Exploration (Caspian Sea) Ltd.:  COMPANY
 WTYP.                Deviated:  WELL TYPE
 MDS .        Operator Entered:  MAG DATA SOURCE
 UWI .                     N/A:  UNIQUE WELL IDENTIFIER
 API .                     N/A:  API NUMBER
 BASE.              Azerbaijan:  LOGGING EQUIPMENT BASE LOCATION
 REGN.                   EESSA:  REGION
 PROV.                    Baku:  PROVINCE
 STAT.                    Baku:  STATE NAME
 MWDS.                     N/A:  MWD SHOP
 JOBN.        AZ-XX-0906252240:  JOB TICKET NUMB
 DOE .                     N/A:  DOE NUMBER
 DCON.         Sperry Drilling:  DIRECTNL CONTR
 UNIT.                     N/A:  LOGGING EQUIPMENT ID
 CNTY.                        :  COUNTY
 LOC .                        :  LOCATION
 LMF .             Drill Floor:  LOG MEASURED FROM
 TVDS.m                  43.00:  TVDSS CORRECTN
 LATI.deg                40.13:  LATITUDE
 LONG.deg                51.22:  LONGITUDE
 WHNS.m                   9.43:  WELL HEAD N/S
 WHEW.m                  -8.91:  WELL HEAD E/W
 UTMX.m              519005.06:  UTM X
 UTMY.m             4443793.85:  UTM Y
 DFWL.m                   0.00:  DISTANCE FWL
 DFSL.m                   0.00:  DISTANCE FSL
 SDEP.m                 363.00:  START DEPTH
 TDD .m                5150.01:  TOTAL DEPTH (DRILLER)
 VSDR.deg               179.88:  VERT SEC DIRECT
 GVFD.g                   1.00:  GRAVITY FIELD
 MFLD.nT              50295.00:  MAGNETIC FIELD
 MDIP.deg                59.56:  MAGNETIC DIP
 MDEC.deg                 6.45:  MAGNETIC DECL
 GRDC.deg                 0.14:  GRID CORRECTION
 AZTC.deg                 6.31:  AZM TOTAL CORR
 EPD .m                   0.00:  ELEVATION
 EGL .m                   0.00:  GROUND ELEVATION
 WDMS.m                 169.80:  WD ELEV
 APD .m                  43.00:  DEPTH ABOVE PD
 DEP .m                 354.17:  DEPTH
 AGAP.m                  43.00:  AIR GAP
 VSEW.m                  -8.91:  VERT SEC E/W
 VSNS.m                   9.43:  VERT SEC N/S
 EKB .m                   0.00:  KB ELEVATION
 EDF .m                  43.00:  DF ELEVATION
 TDL .m                1351.00:  TOTAL DEPTH (LOGGER)
 VSC .                       0:  VS TO CLOSURE
 MAGU.                 1850802:  MAGUTM CHECKSUM
~Parameter Information Block
#MNEM.UNIT       Value        Description
#---------     -----------    ---------------------------
 AV  .mps                 1.00:  Ann Velocity 
 AVMX.mps                 2.40:  Max Ann Veloc 
 AZIF.deg               148.96:  Azm, Final 
 BHAT.        Rotary Steerable:  BHA Type 
 BROT.°/30m               0.04:  Build Rotating 
 BS  .in                 12.25:  Bit Size 
 BSZ .in                 12.25:  Bit Size 
 BTPL.psig              814.00:  Bit Press Loss 
 TCS .hr                106.00:  Time Ciculation Ended 
 CV  .mps                 2.47:  Crit Velocity 
 CVMX.mps                 2.64:  Max Crit Veloc 
 DD1 .          Rashad Habibov:  Direct Drillr 1 
 DD2 .         Rasim Ibrahimov:  Direct Drillr 2 
 DDSV.                 iCruise:  DD Service 
 DEFF.%                 100.00:  % Det Eff 
 DLRX.°/30m               0.70:  Dogleg Rot Max 
 DLSO.°/30m               3.00:  Dogleg Oriented 
 DLSX.°/30m               4.55:  Dogleg Str Max 
 DRET.      08.08.32 02-May-20:  Drill End Time 
 DRST.      08.08.32 28-Apr-20:  Drill Start Tim 
 DTIM.hr                 60.00:  Time Drilling 
 EDEP.m                4761.01:  End Depth 
 ENG1.           Eldar Hajiyev:  Engineer 1 
 ENG2.        Marcelo Sandoval:  Engineer 2 
 ETIM.      23.23.07 05-May-20:  End Time 
 FLOI.gpm              1200.00:  Flow In 
 FLON.gpm               900.00:  Flow In Min 
 FLOS.cptm                0.00:  Fluid Loss 
 FLOX.gpm              1200.00:  Flow In Max 
 HFLO.                      No:  High Flow 
 HPRE.                      No:  High Pressure 
 HTEM.                      No:  High Temp 
 HYDO.m                   1.80:  Hydro Offset 
 IFIN.deg                68.17:  Inc, Final 
 IMAX.deg                74.61:  Inc Max 
 IMIN.deg                68.15:  Inc Min 
 IMND.m                4317.87:  Inc Min Depth 
 IMXD.m                4714.01:  Inc Max Depth 
 LETM.      08.08.32 02-May-20:  Log End Time 
 LOST.hr                     2:  Lost Rig Time 
 LSTM.      08.08.32 28-Apr-20:  Log Start Time 
 MDCL.ppm             41000.00:  Mud Chlorides 
 MDES.     Inversion Oil/Synthetic:  Mud Desc 
 DFD .sg                  1.58:  Mud Density 
 MDMN.sg                  1.58:  Dens Mud Min 
 MDMX.sg                  1.58:  Dens Mud Max 
 MOIL.                      71:  Run Mud Oil % 
 MOWR.                   71:29:  Run Mud OWR 
 MSND.                     0.1:  Run Mud Sand % 
 MSOL.                      23:  Run Mud Solids% 
 DFV .spqt               82.00:  Mud Viscosity 
 MWOD.in                  8.00:  MWD Tool OD 
 MWSI.                     Yes:  Serv Intrp, MWD 
 OTIM.hr                125.00:  Time Operating 
 PMAX.psia             6129.00:  Press Op, Max 
 PV  .cP                 32.00:  Mud PV 
 RUN .                     800:  Run Number 
 ROPA.m/hr               30.00:  ROP Avg 
 ROPN.m/hr               10.00:  ROP Min 
 ROPX.m/hr               40.00:  ROP Max 
 RPMA.rpm               140.00:  RPM Surface Avg 
 RPMN.rpm                80.00:  RPM Surface Min 
 RPMX.rpm               140.00:  RPM Surface Max 
 RRUN.                    L503:  Rig Run Number 
 RTIM.hr                  2.00:  Time Reaming 
 SAZI.deg               184.23:  Azm, Start 
 SDEP.m                3410.01:  Start Depth 
 SIDD.                      No:  Serv Intrp, DD 
 SINC.deg                68.29:  Inc, Start 
 SPPA.psig             6000.00:  SPP Avg 
 SPPN.psig             4000.00:  SPP Min 
 SPPX.psig             6100.00:  SPP Max 
 STIM.      08.08.32 28-Apr-20:  Start Time 
 SVCS.                 DD, MWD:  Services 
 SVER.                    9.20:  Sperry Version 
 TDAT.m                1351.00:  Tot Depth Attmp 
 TDDF.                      No:  Trip for DD 
 TDLG.m                1351.00:  Tot Depth Loggd 
 TFF .                      No:  Trip for Fail 
 TQAA.f-kp               27.00:  Torque Abs Avg 
 TQAN.f-kp               20.00:  Torque Abs Min 
 TQAX.f-kp               30.00:  Torque Abs Max 
 TRRT.°/30m               0.60:  Turn Rotating 
 MRT .                    EWER:  Maximum Recorded Temperature 
 TTMX.degC               83.00:  Max Tool Temp 
 VS01.                90511138:  Virtual Str1 SN 
 VS02.                90524876:  Virtual Str2 SN 
 VS03.                90524872:  Virtual Str3 SN 
 VS04.                90502750:  Virtual Str4 SN 
 VS05.                12330984:  Virtual Str5 SN 
 WBMN.klb                 0.00:  WOB Min 
 WOBA.klb                15.00:  WOB Avg 
 WOBX.klb                20.00:  WOB Max 
 YP  .lhf2               31.00:  Yield Point 
~Curve Information Block
#MNEM.UNIT                 API CODE     Curve Description
#---------               -----------    ---------------------------
 TIME.HHMMSS            00 000 000 000:  GT Time & Date
 GTDEPTH.m              00 000 000 000:  GT Depth
 GTPQH.psia             00 000 000 000:  GT HR Quartz Pressure
 GTTQ.degC              00 000 000 000:  GT Quartz Temperature
 GTTN.NONE              00 000 000 000:  GT Test Number
 GTET.sec               00 000 000 000:  GT Elapsed Test Time
 GTTVD.m                00 000 000 000:  GT True Vertical Depth
#Other Information
#
#WARRANTY: Halliburton will use its best efforts to furnish customers with 
#accurate information and interpretations that are part of, and incident to, the services 
#provided.  However, Halliburton cannot and does not warrant the accuracy 
#or correctness of such information and interpretations.  Under no circumstances should any 
#such information or interpretation be relied upon as the sole basis for any drilling, 
#completion, production, or financial decision or any procedure involving any risk to the 
#safety of any drilling venture, drilling rig or its crew or any other third party.  The 
#Customer has full responsibility for all drilling, completion and production operation.  
#Halliburton makes no representations or warranties, either expressed or 
#implied, including, but not limited to, the implied warranties of merchantability or fitness 
#for a particular purpose, with respect to the services rendered.  In no event will 
#Halliburton be liable for failure to obtain any particular results or for 
#any damages, including, but not limited to, indirect, special or consequential damages, 
#resulting from the use of any information or interpretation provided by Halliburton.
#
~A           TIME           GTDEPTH  GTPQH  GTTQ  GTTN  GTET   GTTVD  
# ...
   10:52:53.265.04-May-2020 4718.46 4253.12 81.93 6.00 115.02 2519.85
   10:52:53.465.04-May-2020 4718.46 4253.12 81.93 6.00 115.22 2519.85
   10:52:53.665.04-May-2020 4718.46 4252.97 81.93 6.00 115.42 2519.85
   10:52:53.865.04-May-2020 4718.46 4252.87 81.93 6.00 115.62 2519.85
   10:52:54.065.04-May-2020 4718.46 4253.05 81.93 6.00 115.82 2519.85
   10:52:54.265.04-May-2020 4718.46 4252.94 81.93 6.00 116.02 2519.85
   10:52:54.465.04-May-2020 4718.46 4252.94 81.93 6.00 116.22 2519.85
   10:52:54.665.04-May-2020 4718.46 4252.05 81.93 6.00 116.42 2519.85
   10:52:54.865.04-May-2020 4718.46 4253.06 81.93 6.00 116.62 2519.85
   10:52:55.065.04-May-2020 4718.46 4252.38 81.92 6.00 116.82 2519.85
   10:52:55.265.04-May-2020 4718.46 4252.49 81.92 6.00 117.02 2519.85
   10:52:55.465.04-May-2020 4718.46 4252.49 81.92 6.00 117.22 2519.85
   10:52:55.665.04-May-2020 4718.46 4252.34 81.92 6.00 117.42 2519.85
   10:52:55.865.04-May-2020 4718.46 4252.60 81.92 6.00 117.62 2519.85
   10:52:56.065.04-May-2020 4718.46 4252.59 81.92 6.00 117.82 2519.85
   10:52:56.265.04-May-2020 4718.46 4252.59 81.92 6.00 118.02 2519.85
   10:52:56.465.04-May-2020 4718.46 4252.59 81.92 6.00 118.22 2519.85
   10:52:56.665.04-May-2020 4718.46 4252.69 81.92 6.00 118.42 2519.85
   10:52:56.866.04-May-2020 4718.46 4252.74 81.92 6.00 118.62 2519.85
   10:52:57.066.04-May-2020 4718.46 4252.86 81.92 6.00 118.82 2519.85
   10:52:57.266.04-May-2020 4718.46 4252.96 81.92 6.00 119.02 2519.85
   10:52:57.466.04-May-2020 4718.46 4252.96 81.92 6.00 119.22 2519.85
   10:52:57.666.04-May-2020 4718.46 4253.41 81.92 6.00 119.42 2519.85
   10:52:57.866.04-May-2020 4718.46 4253.39 81.92 6.00 119.62 2519.85
   10:52:58.066.04-May-2020 4718.46 4253.56 81.91 6.00 119.82 2519.85
   10:52:58.266.04-May-2020 4718.46 4253.40 81.91 6.00 120.02 2519.85
   10:52:58.466.04-May-2020 4718.46 4253.40 81.91 6.00 120.22 2519.85
   10:52:58.666.04-May-2020 4718.46 4253.34 81.91 6.00 120.42 2519.85
   10:52:58.866.04-May-2020 4718.46 4253.19 81.91 6.00 120.62 2519.85
   10:52:59.066.04-May-2020 4718.46 4253.21 81.91 6.00 120.82 2519.85
   10:52:59.266.04-May-2020 4718.46 4253.16 81.91 6.00 121.02 2519.85
   10:52:59.466.04-May-2020 4718.46 4253.16 81.91 6.00 121.22 2519.85
   10:52:59.666.04-May-2020 4718.46 4252.93 81.91 6.00 121.42 2519.85
   10:52:59.866.04-May-2020 4718.46 4252.79 81.91 6.00 121.62 2519.85
   10:53:00.066.04-May-2020 4718.46 4253.42 81.91 6.00 121.82 2519.85
   10:53:00.266.04-May-2020 4718.46 4252.84 81.91 6.00 122.02 2519.85
   10:53:00.466.04-May-2020 4718.46 4252.84 81.91 6.00 122.22 2519.85
   10:53:00.666.04-May-2020 4718.46 4252.99 81.91 6.00 122.42 2519.85
   10:53:00.866.04-May-2020 4718.46 4253.11 81.90 6.00 122.62 2519.85
   10:53:01.066.04-May-2020 4718.46 4253.08 81.90 6.00 122.82 2519.85
   10:53:01.266.04-May-2020 4718.46 4253.06 81.90 6.00 123.02 2519.85
   10:53:01.466.04-May-2020 4718.46 4253.06 81.90 6.00 123.22 2519.85
   10:53:01.666.04-May-2020 4718.46 4253.45 81.90 6.00 123.42 2519.85
   10:53:01.866.04-May-2020 4718.46 4252.93 81.90 6.00 123.62 2519.85
   10:53:02.066.04-May-2020 4718.46 4252.62 81.90 6.00 123.82 2519.85
   10:53:02.266.04-May-2020 4718.46 4253.99 81.90 6.00 124.02 2519.85
   10:53:02.466.04-May-2020 4718.46 4253.99 81.90 6.00 124.22 2519.85
   10:53:02.666.04-May-2020 4718.46 4253.02 81.90 6.00 124.42 2519.85
   10:53:02.866.04-May-2020 4718.46 4252.45 81.90 6.00 124.62 2519.85
   10:53:03.066.04-May-2020 4718.46 4252.68 81.90 6.00 124.82 2519.85
   10:53:03.266.04-May-2020 4718.46 4252.82 81.90 6.00 125.02 2519.85
   10:53:03.467.04-May-2020 4718.46 4252.82 81.90 6.00 125.22 2519.85
   10:53:03.667.04-May-2020 4718.46 4252.83 81.89 6.00 125.42 2519.85
   10:53:03.867.04-May-2020 4718.46 4252.69 81.89 6.00 125.62 2519.85
   10:53:04.067.04-May-2020 4718.46 4252.81 81.89 6.00 125.82 2519.85
   10:53:04.267.04-May-2020 4718.46 4252.66 81.89 6.00 126.02 2519.85
   10:53:04.467.04-May-2020 4718.46 4252.66 81.89 6.00 126.22 2519.85
   10:53:04.667.04-May-2020 4718.46 4252.92 81.89 6.00 126.42 2519.85
   10:53:04.867.04-May-2020 4718.46 4252.81 81.89 6.00 126.62 2519.85
   10:53:05.067.04-May-2020 4718.46 4252.83 81.89 6.00 126.82 2519.85
   10:53:05.267.04-May-2020 4718.46 4253.00 81.89 6.00 127.02 2519.85
   10:53:05.467.04-May-2020 4718.46 4253.00 81.89 6.00 127.22 2519.85
   10:53:05.667.04-May-2020 4718.46 4253.64 81.89 6.00 127.42 2519.85
   10:53:05.867.04-May-2020 4718.46 4253.62 81.89 6.00 127.62 2519.85
   10:53:06.067.04-May-2020 4718.46 4253.08 81.89 6.00 127.82 2519.85
   10:53:06.267.04-May-2020 4718.46 4253.52 81.89 6.00 128.02 2519.85
   10:53:06.467.04-May-2020 4718.46 4253.52 81.89 6.00 128.22 2519.85
   10:53:06.667.04-May-2020 4718.46 4253.26 81.88 6.00 128.42 2519.85
   10:53:06.867.04-May-2020 4718.46 4253.30 81.88 6.00 128.62 2519.85
   10:53:07.067.04-May-2020 4718.46 4253.12 81.88 6.00 128.82 2519.85
   10:53:07.267.04-May-2020 4718.46 4253.15 81.88 6.00 129.02 2519.85
   10:53:07.467.04-May-2020 4718.46 4253.15 81.88 6.00 129.22 2519.85
   10:53:07.667.04-May-2020 4718.46 4253.00 81.88 6.00 129.42 2519.85
   10:53:07.867.04-May-2020 4718.46 4252.97 81.88 6.00 129.62 2519.85
   10:53:08.067.04-May-2020 4718.46 4252.98 81.88 6.00 129.82 2519.85
   10:53:08.267.04-May-2020 4718.46 4253.19 81.88 6.00 130.02 2519.85
   10:53:08.467.04-May-2020 4718.46 4253.19 81.88 6.00 130.22 2519.85
   10:53:08.667.04-May-2020 4718.46 4253.70 81.88 6.00 130.42 2519.85
   10:53:08.867.04-May-2020 4718.46 4253.32 81.88 6.00 130.62 2519.85
   10:53:09.067.04-May-2020 4718.46 4253.01 81.88 6.00 130.82 2519.85
   10:53:09.267.04-May-2020 4718.46 4253.09 81.87 6.00 131.02 2519.85
   10:53:09.467.04-May-2020 4718.46 4253.09 81.87 6.00 131.22 2519.85
   10:53:09.667.04-May-2020 4718.46 4252.74 81.87 6.00 131.42 2519.85
   10:53:09.868.04-May-2020 4718.46 4252.95 81.87 6.00 131.62 2519.85
   10:53:10.068.04-May-2020 4718.46 4252.98 81.87 6.00 131.82 2519.85
   10:53:10.268.04-May-2020 4718.46 4253.60 81.87 6.00 132.02 2519.85
   10:53:10.468.04-May-2020 4718.46 4253.60 81.87 6.00 132.22 2519.85
   10:53:10.668.04-May-2020 4718.46 4252.57 81.87 6.00 132.42 2519.85
   10:53:10.868.04-May-2020 4718.46 4253.57 81.87 6.00 132.62 2519.85
   10:53:11.068.04-May-2020 4718.46 4252.18 81.87 6.00 132.82 2519.85
   10:53:11.268.04-May-2020 4718.46 4252.59 81.87 6.00 133.02 2519.85
   10:53:11.468.04-May-2020 4718.46 4252.59 81.87 6.00 133.22 2519.85
   10:53:11.668.04-May-2020 4718.46 4252.58 81.87 6.00 133.42 2519.85
   10:53:11.868.04-May-2020 4718.46 4252.81 81.87 6.00 133.62 2519.85
   10:53:12.068.04-May-2020 4718.46 4252.63 81.86 6.00 133.82 2519.85
   10:53:12.268.04-May-2020 4718.46 4252.78 81.86 6.00 134.02 2519.85
   10:53:12.468.04-May-2020 4718.46 4252.78 81.86 6.00 134.22 2519.85
   10:53:12.668.04-May-2020 4718.46 4252.81 81.86 6.00 134.42 2519.85
   10:53:12.868.04-May-2020 4718.46 4252.84 81.86 6.00 134.62 2519.85
   10:53:13.068.04-May-2020 4718.46 4252.74 81.86 6.00 134.82 2519.85
   10:53:13.268.04-May-2020 4718.46 4252.82 81.86 6.00 135.02 2519.85
   10:53:13.468.04-May-2020 4718.46 4252.82 81.86 6.00 135.22 2519.85
   10:53:13.668.04-May-2020 4718.46 4253.22 81.86 6.00 135.42 2519.85
   10:53:13.868.04-May-2020 4718.46 4253.71 81.86 6.00 135.62 2519.85
   10:53:14.068.04-May-2020 4718.46 4253.74 81.86 6.00 135.82 2519.85
   10:53:14.268.04-May-2020 4718.46 4253.25 81.86 6.00 136.02 2519.85
   10:53:14.468.04-May-2020 4718.46 4253.25 81.86 6.00 136.22 2519.85
   10:53:14.668.04-May-2020 4718.46 4253.46 81.86 6.00 136.42 2519.85
   10:53:14.868.04-May-2020 4718.46 4253.28 81.85 6.00 136.62 2519.85
   10:53:15.068.04-May-2020 4718.46 4253.33 81.85 6.00 136.82 2519.85
   10:53:15.268.04-May-2020 4718.46 4253.16 81.85 6.00 137.02 2519.85
   10:53:15.468.04-May-2020 4718.46 4253.16 81.85 6.00 137.22 2519.85
   10:53:15.668.04-May-2020 4718.46 4253.12 81.85 6.00 137.42 2519.85
   10:53:15.868.04-May-2020 4718.46 4252.91 81.85 6.00 137.62 2519.85
   10:53:16.068.04-May-2020 4718.46 4253.04 81.85 6.00 137.82 2519.85
