~Version Information
 VERS.                  2.0:   CWLS log ASCII Standard -VERSION 2.0
 WRAP.                   NO:   One line per depth step
~Well Information Block
#MNEM.UNIT     VALUE/NAME     DESCRIPTION
#---------     -----------    ---------------------------
 STRT.S             19:38:29 03-May-20: START TIME 19:38:29 03-May-20
 STOP.S             19:45:06 03-May-20: STOP TIME  19:45:06 03-May-20
 STEP.S                   0.00: STEP TIME
 NULL.                 -999.25: NULL VALUE
 DFWT.                        :  DIST FWL TEXT
 DFST.                        :  DIST FSL TEXT
 DMF .             Drill Floor:  DRILL MEAS FROM
 STIM.      03.00.00 25-Mar-20:  START TIME
 DATE.      00.00.00 19-May-20:  END TIME
 SPUD.               27-Aug-20:  SPUD DATE
 NREF.                    Grid:  NORTH REFERENCE
 HPTY.       Minimum Curvature:  HOLE POS TYPE
 DMOD.             Drill Model:  DRILL MOD DESC
 SVYD.                  Survey:  SURVEY DESC
 ILTD.               Lithology:  INTERP LTH DESC
 FTOP.          Formation Tops:  FORM TOPS DESC
 SON .        AZ-XX-0906252240:  JOB NUMBER
 RIG .             West Chirag:  RIG NAME
 PDAT.          Mean Sea Level:  PERMANENT DATUM
 FLD .                     ACG:  FIELD NAME
 CTRY.              Azerbaijan:  COUNTRY NAME
 WELL.                     J23:  WELL NAME
 SRVC.          Turan Drilling:  CONTRACTOR
 COMP.     BP Exploration (Caspian Sea) Ltd.:  COMPANY
 WTYP.                Deviated:  WELL TYPE
 MDS .        Operator Entered:  MAG DATA SOURCE
 UWI .                     N/A:  UNIQUE WELL IDENTIFIER
 API .                     N/A:  API NUMBER
 BASE.              Azerbaijan:  LOGGING EQUIPMENT BASE LOCATION
 REGN.                   EESSA:  REGION
 PROV.                    Baku:  PROVINCE
 STAT.                    Baku:  STATE NAME
 MWDS.                     N/A:  MWD SHOP
 JOBN.        AZ-XX-0906252240:  JOB TICKET NUMB
 DOE .                     N/A:  DOE NUMBER
 DCON.         Sperry Drilling:  DIRECTNL CONTR
 UNIT.                     N/A:  LOGGING EQUIPMENT ID
 CNTY.                        :  COUNTY
 LOC .                        :  LOCATION
 LMF .             Drill Floor:  LOG MEASURED FROM
 TVDS.m                  43.00:  TVDSS CORRECTN
 LATI.deg                40.13:  LATITUDE
 LONG.deg                51.22:  LONGITUDE
 WHNS.m                   9.43:  WELL HEAD N/S
 WHEW.m                  -8.91:  WELL HEAD E/W
 UTMX.m              519005.06:  UTM X
 UTMY.m             4443793.85:  UTM Y
 DFWL.m                   0.00:  DISTANCE FWL
 DFSL.m                   0.00:  DISTANCE FSL
 SDEP.m                 363.00:  START DEPTH
 TDD .m                5150.01:  TOTAL DEPTH (DRILLER)
 VSDR.deg               179.88:  VERT SEC DIRECT
 GVFD.g                   1.00:  GRAVITY FIELD
 MFLD.nT              50295.00:  MAGNETIC FIELD
 MDIP.deg                59.56:  MAGNETIC DIP
 MDEC.deg                 6.45:  MAGNETIC DECL
 GRDC.deg                 0.14:  GRID CORRECTION
 AZTC.deg                 6.31:  AZM TOTAL CORR
 EPD .m                   0.00:  ELEVATION
 EGL .m                   0.00:  GROUND ELEVATION
 WDMS.m                 169.80:  WD ELEV
 APD .m                  43.00:  DEPTH ABOVE PD
 DEP .m                 354.17:  DEPTH
 AGAP.m                  43.00:  AIR GAP
 VSEW.m                  -8.91:  VERT SEC E/W
 VSNS.m                   9.43:  VERT SEC N/S
 EKB .m                   0.00:  KB ELEVATION
 EDF .m                  43.00:  DF ELEVATION
 TDL .m                1351.00:  TOTAL DEPTH (LOGGER)
 VSC .                       0:  VS TO CLOSURE
 MAGU.                 1850802:  MAGUTM CHECKSUM
~Parameter Information Block
#MNEM.UNIT       Value        Description
#---------     -----------    ---------------------------
 AV  .mps                 1.00:  Ann Velocity 
 AVMX.mps                 2.40:  Max Ann Veloc 
 AZIF.deg               148.96:  Azm, Final 
 BHAT.        Rotary Steerable:  BHA Type 
 BROT.°/30m               0.04:  Build Rotating 
 BS  .in                 12.25:  Bit Size 
 BSZ .in                 12.25:  Bit Size 
 BTPL.psig              814.00:  Bit Press Loss 
 TCS .hr                106.00:  Time Ciculation Ended 
 CV  .mps                 2.47:  Crit Velocity 
 CVMX.mps                 2.64:  Max Crit Veloc 
 DD1 .          Rashad Habibov:  Direct Drillr 1 
 DD2 .         Rasim Ibrahimov:  Direct Drillr 2 
 DDSV.                 iCruise:  DD Service 
 DEFF.%                 100.00:  % Det Eff 
 DLRX.°/30m               0.70:  Dogleg Rot Max 
 DLSO.°/30m               3.00:  Dogleg Oriented 
 DLSX.°/30m               4.55:  Dogleg Str Max 
 DRET.      08.08.32 02-May-20:  Drill End Time 
 DRST.      08.08.32 28-Apr-20:  Drill Start Tim 
 DTIM.hr                 60.00:  Time Drilling 
 EDEP.m                4761.01:  End Depth 
 ENG1.           Eldar Hajiyev:  Engineer 1 
 ENG2.        Marcelo Sandoval:  Engineer 2 
 ETIM.      23.23.07 05-May-20:  End Time 
 FLOI.gpm              1200.00:  Flow In 
 FLON.gpm               900.00:  Flow In Min 
 FLOS.cptm                0.00:  Fluid Loss 
 FLOX.gpm              1200.00:  Flow In Max 
 HFLO.                      No:  High Flow 
 HPRE.                      No:  High Pressure 
 HTEM.                      No:  High Temp 
 HYDO.m                   1.80:  Hydro Offset 
 IFIN.deg                68.17:  Inc, Final 
 IMAX.deg                74.61:  Inc Max 
 IMIN.deg                68.15:  Inc Min 
 IMND.m                4317.87:  Inc Min Depth 
 IMXD.m                4714.01:  Inc Max Depth 
 LETM.      08.08.32 02-May-20:  Log End Time 
 LOST.hr                     2:  Lost Rig Time 
 LSTM.      08.08.32 28-Apr-20:  Log Start Time 
 MDCL.ppm             41000.00:  Mud Chlorides 
 MDES.     Inversion Oil/Synthetic:  Mud Desc 
 DFD .sg                  1.58:  Mud Density 
 MDMN.sg                  1.58:  Dens Mud Min 
 MDMX.sg                  1.58:  Dens Mud Max 
 MOIL.                      71:  Run Mud Oil % 
 MOWR.                   71:29:  Run Mud OWR 
 MSND.                     0.1:  Run Mud Sand % 
 MSOL.                      23:  Run Mud Solids% 
 DFV .spqt               82.00:  Mud Viscosity 
 MWOD.in                  8.00:  MWD Tool OD 
 MWSI.                     Yes:  Serv Intrp, MWD 
 OTIM.hr                125.00:  Time Operating 
 PMAX.psia             6129.00:  Press Op, Max 
 PV  .cP                 32.00:  Mud PV 
 RUN .                     800:  Run Number 
 ROPA.m/hr               30.00:  ROP Avg 
 ROPN.m/hr               10.00:  ROP Min 
 ROPX.m/hr               40.00:  ROP Max 
 RPMA.rpm               140.00:  RPM Surface Avg 
 RPMN.rpm                80.00:  RPM Surface Min 
 RPMX.rpm               140.00:  RPM Surface Max 
 RRUN.                    L503:  Rig Run Number 
 RTIM.hr                  2.00:  Time Reaming 
 SAZI.deg               184.23:  Azm, Start 
 SDEP.m                3410.01:  Start Depth 
 SIDD.                      No:  Serv Intrp, DD 
 SINC.deg                68.29:  Inc, Start 
 SPPA.psig             6000.00:  SPP Avg 
 SPPN.psig             4000.00:  SPP Min 
 SPPX.psig             6100.00:  SPP Max 
 STIM.      08.08.32 28-Apr-20:  Start Time 
 SVCS.                 DD, MWD:  Services 
 SVER.                    9.20:  Sperry Version 
 TDAT.m                1351.00:  Tot Depth Attmp 
 TDDF.                      No:  Trip for DD 
 TDLG.m                1351.00:  Tot Depth Loggd 
 TFF .                      No:  Trip for Fail 
 TQAA.f-kp               27.00:  Torque Abs Avg 
 TQAN.f-kp               20.00:  Torque Abs Min 
 TQAX.f-kp               30.00:  Torque Abs Max 
 TRRT.°/30m               0.60:  Turn Rotating 
 MRT .                    EWER:  Maximum Recorded Temperature 
 TTMX.degC               83.00:  Max Tool Temp 
 VS01.                90511138:  Virtual Str1 SN 
 VS02.                90524876:  Virtual Str2 SN 
 VS03.                90524872:  Virtual Str3 SN 
 VS04.                90502750:  Virtual Str4 SN 
 VS05.                12330984:  Virtual Str5 SN 
 WBMN.klb                 0.00:  WOB Min 
 WOBA.klb                15.00:  WOB Avg 
 WOBX.klb                20.00:  WOB Max 
 YP  .lhf2               31.00:  Yield Point 
~Curve Information Block
#MNEM.UNIT                 API CODE     Curve Description
#---------               -----------    ---------------------------
 TIME.HHMMSS            00 000 000 000:  GT Time & Date
 GTDEPTH.m              00 000 000 000:  GT Depth
 GTPQH.psia             00 000 000 000:  GT HR Quartz Pressure
 GTTQ.degC              00 000 000 000:  GT Quartz Temperature
 GTTN.NONE              00 000 000 000:  GT Test Number
 GTET.sec               00 000 000 000:  GT Elapsed Test Time
 GTTVD.m                00 000 000 000:  GT True Vertical Depth
#Other Information
#
#WARRANTY: Halliburton will use its best efforts to furnish customers with 
#accurate information and interpretations that are part of, and incident to, the services 
#provided.  However, Halliburton cannot and does not warrant the accuracy 
#or correctness of such information and interpretations.  Under no circumstances should any 
#such information or interpretation be relied upon as the sole basis for any drilling, 
#completion, production, or financial decision or any procedure involving any risk to the 
#safety of any drilling venture, drilling rig or its crew or any other third party.  The 
#Customer has full responsibility for all drilling, completion and production operation.  
#Halliburton makes no representations or warranties, either expressed or 
#implied, including, but not limited to, the implied warranties of merchantability or fitness 
#for a particular purpose, with respect to the services rendered.  In no event will 
#Halliburton be liable for failure to obtain any particular results or for 
#any damages, including, but not limited to, indirect, special or consequential damages, 
#resulting from the use of any information or interpretation provided by Halliburton.
#
~A           TIME           GTDEPTH  GTPQH  GTTQ  GTTN  GTET   GTTVD  
# ...
   19:43:05.516.03-May-2020 4608.48 4148.80 79.42 3.00 276.03 2489.14
   19:43:05.716.03-May-2020 4608.48 4148.80 79.42 3.00 276.23 2489.14
   19:43:05.916.03-May-2020 4608.48 4148.39 79.41 3.00 276.43 2489.14
   19:43:06.116.03-May-2020 4608.48 4148.48 79.41 3.00 276.63 2489.14
   19:43:06.316.03-May-2020 4608.48 4148.68 79.41 3.00 276.83 2489.14
   19:43:06.516.03-May-2020 4608.48 4148.52 79.41 3.00 277.03 2489.14
   19:43:06.716.03-May-2020 4608.48 4148.52 79.41 3.00 277.23 2489.14
   19:43:06.916.03-May-2020 4608.48 4148.44 79.41 3.00 277.43 2489.14
   19:43:07.116.03-May-2020 4608.48 4148.47 79.41 3.00 277.63 2489.14
   19:43:07.316.03-May-2020 4608.48 4148.50 79.41 3.00 277.83 2489.14
   19:43:07.516.03-May-2020 4608.48 4148.49 79.41 3.00 278.03 2489.14
   19:43:07.716.03-May-2020 4608.48 4148.50 79.41 3.00 278.23 2489.14
   19:43:07.916.03-May-2020 4608.48 4148.49 79.41 3.00 278.43 2489.14
   19:43:08.116.03-May-2020 4608.48 4148.75 79.41 3.00 278.63 2489.14
   19:43:08.316.03-May-2020 4608.48 4148.37 79.41 3.00 278.83 2489.14
   19:43:08.516.03-May-2020 4608.48 4148.80 79.40 3.00 279.03 2489.14
   19:43:08.716.03-May-2020 4608.48 4148.80 79.40 3.00 279.23 2489.14
   19:43:08.916.03-May-2020 4608.48 4148.65 79.40 3.00 279.43 2489.14
   19:43:09.116.03-May-2020 4608.48 4148.61 79.40 3.00 279.63 2489.14
   19:43:09.316.03-May-2020 4608.48 4148.80 79.40 3.00 279.83 2489.14
   19:43:09.516.03-May-2020 4608.48 4148.27 79.40 3.00 280.03 2489.14
   19:43:09.716.03-May-2020 4608.48 4148.27 79.40 3.00 280.23 2489.14
   19:43:09.916.03-May-2020 4608.48 4148.57 79.40 3.00 280.43 2489.14
   19:43:10.116.03-May-2020 4608.48 4148.74 79.40 3.00 280.63 2489.14
   19:43:10.316.03-May-2020 4608.48 4148.61 79.40 3.00 280.83 2489.14
   19:43:10.516.03-May-2020 4608.48 4148.58 79.40 3.00 281.03 2489.14
   19:43:10.716.03-May-2020 4608.48 4148.58 79.40 3.00 281.23 2489.14
   19:43:10.916.03-May-2020 4608.48 4148.85 79.39 3.00 281.43 2489.14
   19:43:11.116.03-May-2020 4608.48 4148.20 79.39 3.00 281.63 2489.14
   19:43:11.316.03-May-2020 4608.48 4148.57 79.39 3.00 281.83 2489.14
   19:43:11.516.03-May-2020 4608.48 4148.75 79.39 3.00 282.03 2489.14
   19:43:11.716.03-May-2020 4608.48 4148.67 79.39 3.00 282.23 2489.14
   19:43:11.916.03-May-2020 4608.48 4148.50 79.39 3.00 282.43 2489.14
   19:43:12.116.03-May-2020 4608.48 4148.54 79.39 3.00 282.63 2489.14
   19:43:12.316.03-May-2020 4608.48 4148.52 79.39 3.00 282.83 2489.14
   19:43:12.516.03-May-2020 4608.48 4148.59 79.39 3.00 283.03 2489.14
   19:43:12.716.03-May-2020 4608.48 4148.59 79.39 3.00 283.23 2489.14
   19:43:12.916.03-May-2020 4608.48 4148.59 79.39 3.00 283.43 2489.14
   19:43:13.116.03-May-2020 4608.48 4148.56 79.38 3.00 283.63 2489.14
   19:43:13.316.03-May-2020 4608.48 4148.48 79.38 3.00 283.83 2489.14
   19:43:13.516.03-May-2020 4608.48 4148.54 79.38 3.00 284.03 2489.14
   19:43:13.716.03-May-2020 4608.48 4148.54 79.38 3.00 284.23 2489.14
   19:43:13.916.03-May-2020 4608.48 4148.65 79.38 3.00 284.43 2489.14
   19:43:14.116.03-May-2020 4608.48 4148.54 79.38 3.00 284.63 2489.14
   19:43:14.316.03-May-2020 4608.48 4148.47 79.38 3.00 284.83 2489.14
   19:43:14.516.03-May-2020 4608.48 4148.54 79.38 3.00 285.03 2489.14
   19:43:14.716.03-May-2020 4608.48 4148.54 79.38 3.00 285.23 2489.14
   19:43:14.917.03-May-2020 4608.48 4148.57 79.38 3.00 285.43 2489.14
   19:43:15.117.03-May-2020 4608.48 4148.58 79.38 3.00 285.63 2489.14
   19:43:15.317.03-May-2020 4608.48 4148.53 79.38 3.00 285.83 2489.14
   19:43:15.517.03-May-2020 4608.48 4148.45 79.37 3.00 286.03 2489.14
   19:43:15.717.03-May-2020 4608.48 4148.54 79.37 3.00 286.23 2489.14
   19:43:15.917.03-May-2020 4608.48 4148.53 79.37 3.00 286.43 2489.14
   19:43:16.117.03-May-2020 4608.48 4148.57 79.37 3.00 286.63 2489.14
   19:43:16.317.03-May-2020 4608.48 4148.53 79.37 3.00 286.83 2489.14
   19:43:16.517.03-May-2020 4608.48 4148.67 79.37 3.00 287.03 2489.14
   19:43:16.717.03-May-2020 4608.48 4148.67 79.37 3.00 287.23 2489.14
   19:43:16.917.03-May-2020 4608.48 4148.67 79.37 3.00 287.43 2489.14
   19:43:17.117.03-May-2020 4608.48 4148.45 79.37 3.00 287.63 2489.14
   19:43:17.317.03-May-2020 4608.48 4148.48 79.37 3.00 287.83 2489.14
   19:43:17.517.03-May-2020 4608.48 4148.54 79.37 3.00 288.03 2489.14
   19:43:17.717.03-May-2020 4608.48 4148.54 79.37 3.00 288.23 2489.14
   19:43:17.917.03-May-2020 4608.48 4148.49 79.36 3.00 288.43 2489.14
   19:43:18.117.03-May-2020 4608.48 4148.49 79.36 3.00 288.63 2489.14
   19:43:18.317.03-May-2020 4608.48 4148.17 79.36 3.00 288.83 2489.14
   19:43:18.517.03-May-2020 4608.48 4148.98 79.36 3.00 289.03 2489.14
   19:43:18.717.03-May-2020 4608.48 4148.98 79.36 3.00 289.23 2489.14
   19:43:18.917.03-May-2020 4608.48 4148.70 79.36 3.00 289.43 2489.14
   19:43:19.117.03-May-2020 4608.48 4148.53 79.36 3.00 289.63 2489.14
   19:43:19.317.03-May-2020 4608.48 4148.62 79.36 3.00 289.83 2489.14
   19:43:19.517.03-May-2020 4608.48 4148.45 79.36 3.00 290.03 2489.14
   19:43:19.717.03-May-2020 4608.48 4148.57 79.36 3.00 290.23 2489.14
   19:43:19.917.03-May-2020 4608.48 4148.66 79.36 3.00 290.43 2489.14
   19:43:20.117.03-May-2020 4608.48 4148.70 79.36 3.00 290.63 2489.14
   19:43:20.317.03-May-2020 4608.48 4148.53 79.35 3.00 290.83 2489.14
   19:43:20.517.03-May-2020 4608.48 4148.58 79.35 3.00 291.03 2489.14
   19:43:20.717.03-May-2020 4608.48 4148.58 79.35 3.00 291.23 2489.14
   19:43:20.917.03-May-2020 4608.48 4148.54 79.35 3.00 291.43 2489.14
   19:43:21.117.03-May-2020 4608.48 4148.61 79.35 3.00 291.63 2489.14
   19:43:21.317.03-May-2020 4608.48 4148.62 79.35 3.00 291.83 2489.14
   19:43:21.517.03-May-2020 4608.48 4148.50 79.35 3.00 292.03 2489.14
   19:43:21.717.03-May-2020 4608.48 4148.50 79.35 3.00 292.23 2489.14
   19:43:21.917.03-May-2020 4608.48 4148.58 79.35 3.00 292.43 2489.14
   19:43:22.117.03-May-2020 4608.48 4148.59 79.35 3.00 292.63 2489.14
   19:43:22.317.03-May-2020 4608.48 4148.67 79.35 3.00 292.83 2489.14
   19:43:22.517.03-May-2020 4608.48 4148.59 79.35 3.00 293.03 2489.14
   19:43:22.717.03-May-2020 4608.48 4148.59 79.35 3.00 293.23 2489.14
   19:43:22.917.03-May-2020 4608.48 4148.53 79.34 3.00 293.43 2489.14
   19:43:23.117.03-May-2020 4608.48 4148.58 79.34 3.00 293.63 2489.14
   19:43:23.317.03-May-2020 4608.48 4148.63 79.34 3.00 293.83 2489.14
   19:43:23.517.03-May-2020 4608.48 4148.64 79.34 3.00 294.03 2489.14
   19:43:23.717.03-May-2020 4608.48 4148.64 79.34 3.00 294.23 2489.14
   19:43:23.917.03-May-2020 4608.48 4148.49 79.34 3.00 294.43 2489.14
   19:43:24.118.03-May-2020 4608.48 4148.52 79.34 3.00 294.63 2489.14
   19:43:24.318.03-May-2020 4608.48 4148.51 79.34 3.00 294.83 2489.14
   19:43:24.518.03-May-2020 4608.48 4148.60 79.34 3.00 295.03 2489.14
   19:43:24.718.03-May-2020 4608.48 4148.60 79.34 3.00 295.23 2489.14
   19:43:24.918.03-May-2020 4608.48 4148.66 79.34 3.00 295.43 2489.14
   19:43:25.118.03-May-2020 4608.48 4148.61 79.33 3.00 295.63 2489.14
   19:43:25.318.03-May-2020 4608.48 4148.48 79.33 3.00 295.83 2489.14
   19:43:25.518.03-May-2020 4608.48 4148.53 79.33 3.00 296.03 2489.14
   19:43:25.718.03-May-2020 4608.48 4148.53 79.33 3.00 296.23 2489.14
   19:43:25.918.03-May-2020 4608.48 4148.70 79.33 3.00 296.43 2489.14
   19:43:26.118.03-May-2020 4608.48 4148.72 79.33 3.00 296.63 2489.14
   19:43:26.318.03-May-2020 4608.48 4148.58 79.33 3.00 296.83 2489.14
   19:43:26.518.03-May-2020 4608.48 4148.84 79.33 3.00 297.03 2489.14
   19:43:26.718.03-May-2020 4608.48 4148.84 79.33 3.00 297.23 2489.14
   19:43:26.918.03-May-2020 4608.48 4148.62 79.33 3.00 297.43 2489.14
   19:43:27.118.03-May-2020 4608.48 4148.81 79.33 3.00 297.63 2489.14
   19:43:27.318.03-May-2020 4608.48 4148.83 79.33 3.00 297.83 2489.14
   19:43:27.518.03-May-2020 4608.48 4148.58 79.32 3.00 298.03 2489.14
   19:43:27.718.03-May-2020 4608.48 4148.51 79.32 3.00 298.23 2489.14
   19:43:27.918.03-May-2020 4608.48 4148.58 79.32 3.00 298.43 2489.14
   19:43:28.118.03-May-2020 4608.48 4148.61 79.32 3.00 298.63 2489.14
   19:43:28.318.03-May-2020 4608.48 4148.65 79.32 3.00 298.83 2489.14
