~Version Information
 VERS.                  2.0:   CWLS log ASCII Standard -VERSION 2.0
 WRAP.                   NO:   One line per depth step
~Well Information Block
#MNEM.UNIT     VALUE/NAME     DESCRIPTION
#---------     -----------    ---------------------------
 STRT.S             19:38:29 03-May-20: START TIME 19:38:29 03-May-20
 STOP.S             19:45:06 03-May-20: STOP TIME  19:45:06 03-May-20
 STEP.S                   0.00: STEP TIME
 NULL.                 -999.25: NULL VALUE
 DFWT.                        :  DIST FWL TEXT
 DFST.                        :  DIST FSL TEXT
 DMF .             Drill Floor:  DRILL MEAS FROM
 STIM.      03.00.00 25-Mar-20:  START TIME
 DATE.      00.00.00 19-May-20:  END TIME
 SPUD.               27-Aug-20:  SPUD DATE
 NREF.                    Grid:  NORTH REFERENCE
 HPTY.       Minimum Curvature:  HOLE POS TYPE
 DMOD.             Drill Model:  DRILL MOD DESC
 SVYD.                  Survey:  SURVEY DESC
 ILTD.               Lithology:  INTERP LTH DESC
 FTOP.          Formation Tops:  FORM TOPS DESC
 SON .        AZ-XX-0906252240:  JOB NUMBER
 RIG .             West Chirag:  RIG NAME
 PDAT.          Mean Sea Level:  PERMANENT DATUM
 FLD .                     ACG:  FIELD NAME
 CTRY.              Azerbaijan:  COUNTRY NAME
 WELL.                     J23:  WELL NAME
 SRVC.          Turan Drilling:  CONTRACTOR
 COMP.     BP Exploration (Caspian Sea) Ltd.:  COMPANY
 WTYP.                Deviated:  WELL TYPE
 MDS .        Operator Entered:  MAG DATA SOURCE
 UWI .                     N/A:  UNIQUE WELL IDENTIFIER
 API .                     N/A:  API NUMBER
 BASE.              Azerbaijan:  LOGGING EQUIPMENT BASE LOCATION
 REGN.                   EESSA:  REGION
 PROV.                    Baku:  PROVINCE
 STAT.                    Baku:  STATE NAME
 MWDS.                     N/A:  MWD SHOP
 JOBN.        AZ-XX-0906252240:  JOB TICKET NUMB
 DOE .                     N/A:  DOE NUMBER
 DCON.         Sperry Drilling:  DIRECTNL CONTR
 UNIT.                     N/A:  LOGGING EQUIPMENT ID
 CNTY.                        :  COUNTY
 LOC .                        :  LOCATION
 LMF .             Drill Floor:  LOG MEASURED FROM
 TVDS.m                  43.00:  TVDSS CORRECTN
 LATI.deg                40.13:  LATITUDE
 LONG.deg                51.22:  LONGITUDE
 WHNS.m                   9.43:  WELL HEAD N/S
 WHEW.m                  -8.91:  WELL HEAD E/W
 UTMX.m              519005.06:  UTM X
 UTMY.m             4443793.85:  UTM Y
 DFWL.m                   0.00:  DISTANCE FWL
 DFSL.m                   0.00:  DISTANCE FSL
 SDEP.m                 363.00:  START DEPTH
 TDD .m                5150.01:  TOTAL DEPTH (DRILLER)
 VSDR.deg               179.88:  VERT SEC DIRECT
 GVFD.g                   1.00:  GRAVITY FIELD
 MFLD.nT              50295.00:  MAGNETIC FIELD
 MDIP.deg                59.56:  MAGNETIC DIP
 MDEC.deg                 6.45:  MAGNETIC DECL
 GRDC.deg                 0.14:  GRID CORRECTION
 AZTC.deg                 6.31:  AZM TOTAL CORR
 EPD .m                   0.00:  ELEVATION
 EGL .m                   0.00:  GROUND ELEVATION
 WDMS.m                 169.80:  WD ELEV
 APD .m                  43.00:  DEPTH ABOVE PD
 DEP .m                 354.17:  DEPTH
 AGAP.m                  43.00:  AIR GAP
 VSEW.m                  -8.91:  VERT SEC E/W
 VSNS.m                   9.43:  VERT SEC N/S
 EKB .m                   0.00:  KB ELEVATION
 EDF .m                  43.00:  DF ELEVATION
 TDL .m                1351.00:  TOTAL DEPTH (LOGGER)
 VSC .                       0:  VS TO CLOSURE
 MAGU.                 1850802:  MAGUTM CHECKSUM
~Parameter Information Block
#MNEM.UNIT       Value        Description
#---------     -----------    ---------------------------
 AV  .mps                 1.00:  Ann Velocity 
 AVMX.mps                 2.40:  Max Ann Veloc 
 AZIF.deg               148.96:  Azm, Final 
 BHAT.        Rotary Steerable:  BHA Type 
 BROT.°/30m               0.04:  Build Rotating 
 BS  .in                 12.25:  Bit Size 
 BSZ .in                 12.25:  Bit Size 
 BTPL.psig              814.00:  Bit Press Loss 
 TCS .hr                106.00:  Time Ciculation Ended 
 CV  .mps                 2.47:  Crit Velocity 
 CVMX.mps                 2.64:  Max Crit Veloc 
 DD1 .          Rashad Habibov:  Direct Drillr 1 
 DD2 .         Rasim Ibrahimov:  Direct Drillr 2 
 DDSV.                 iCruise:  DD Service 
 DEFF.%                 100.00:  % Det Eff 
 DLRX.°/30m               0.70:  Dogleg Rot Max 
 DLSO.°/30m               3.00:  Dogleg Oriented 
 DLSX.°/30m               4.55:  Dogleg Str Max 
 DRET.      08.08.32 02-May-20:  Drill End Time 
 DRST.      08.08.32 28-Apr-20:  Drill Start Tim 
 DTIM.hr                 60.00:  Time Drilling 
 EDEP.m                4761.01:  End Depth 
 ENG1.           Eldar Hajiyev:  Engineer 1 
 ENG2.        Marcelo Sandoval:  Engineer 2 
 ETIM.      23.23.07 05-May-20:  End Time 
 FLOI.gpm              1200.00:  Flow In 
 FLON.gpm               900.00:  Flow In Min 
 FLOS.cptm                0.00:  Fluid Loss 
 FLOX.gpm              1200.00:  Flow In Max 
 HFLO.                      No:  High Flow 
 HPRE.                      No:  High Pressure 
 HTEM.                      No:  High Temp 
 HYDO.m                   1.80:  Hydro Offset 
 IFIN.deg                68.17:  Inc, Final 
 IMAX.deg                74.61:  Inc Max 
 IMIN.deg                68.15:  Inc Min 
 IMND.m                4317.87:  Inc Min Depth 
 IMXD.m                4714.01:  Inc Max Depth 
 LETM.      08.08.32 02-May-20:  Log End Time 
 LOST.hr                     2:  Lost Rig Time 
 LSTM.      08.08.32 28-Apr-20:  Log Start Time 
 MDCL.ppm             41000.00:  Mud Chlorides 
 MDES.     Inversion Oil/Synthetic:  Mud Desc 
 DFD .sg                  1.58:  Mud Density 
 MDMN.sg                  1.58:  Dens Mud Min 
 MDMX.sg                  1.58:  Dens Mud Max 
 MOIL.                      71:  Run Mud Oil % 
 MOWR.                   71:29:  Run Mud OWR 
 MSND.                     0.1:  Run Mud Sand % 
 MSOL.                      23:  Run Mud Solids% 
 DFV .spqt               82.00:  Mud Viscosity 
 MWOD.in                  8.00:  MWD Tool OD 
 MWSI.                     Yes:  Serv Intrp, MWD 
 OTIM.hr                125.00:  Time Operating 
 PMAX.psia             6129.00:  Press Op, Max 
 PV  .cP                 32.00:  Mud PV 
 RUN .                     800:  Run Number 
 ROPA.m/hr               30.00:  ROP Avg 
 ROPN.m/hr               10.00:  ROP Min 
 ROPX.m/hr               40.00:  ROP Max 
 RPMA.rpm               140.00:  RPM Surface Avg 
 RPMN.rpm                80.00:  RPM Surface Min 
 RPMX.rpm               140.00:  RPM Surface Max 
 RRUN.                    L503:  Rig Run Number 
 RTIM.hr                  2.00:  Time Reaming 
 SAZI.deg               184.23:  Azm, Start 
 SDEP.m                3410.01:  Start Depth 
 SIDD.                      No:  Serv Intrp, DD 
 SINC.deg                68.29:  Inc, Start 
 SPPA.psig             6000.00:  SPP Avg 
 SPPN.psig             4000.00:  SPP Min 
 SPPX.psig             6100.00:  SPP Max 
 STIM.      08.08.32 28-Apr-20:  Start Time 
 SVCS.                 DD, MWD:  Services 
 SVER.                    9.20:  Sperry Version 
 TDAT.m                1351.00:  Tot Depth Attmp 
 TDDF.                      No:  Trip for DD 
 TDLG.m                1351.00:  Tot Depth Loggd 
 TFF .                      No:  Trip for Fail 
 TQAA.f-kp               27.00:  Torque Abs Avg 
 TQAN.f-kp               20.00:  Torque Abs Min 
 TQAX.f-kp               30.00:  Torque Abs Max 
 TRRT.°/30m               0.60:  Turn Rotating 
 MRT .                    EWER:  Maximum Recorded Temperature 
 TTMX.degC               83.00:  Max Tool Temp 
 VS01.                90511138:  Virtual Str1 SN 
 VS02.                90524876:  Virtual Str2 SN 
 VS03.                90524872:  Virtual Str3 SN 
 VS04.                90502750:  Virtual Str4 SN 
 VS05.                12330984:  Virtual Str5 SN 
 WBMN.klb                 0.00:  WOB Min 
 WOBA.klb                15.00:  WOB Avg 
 WOBX.klb                20.00:  WOB Max 
 YP  .lhf2               31.00:  Yield Point 
~Curve Information Block
#MNEM.UNIT                 API CODE     Curve Description
#---------               -----------    ---------------------------
 TIME.HHMMSS            00 000 000 000:  GT Time & Date
 GTDEPTH.m              00 000 000 000:  GT Depth
 GTPQH.psia             00 000 000 000:  GT HR Quartz Pressure
 GTTQ.degC              00 000 000 000:  GT Quartz Temperature
 GTTN.NONE              00 000 000 000:  GT Test Number
 GTET.sec               00 000 000 000:  GT Elapsed Test Time
 GTTVD.m                00 000 000 000:  GT True Vertical Depth
#Other Information
#
#WARRANTY: Halliburton will use its best efforts to furnish customers with 
#accurate information and interpretations that are part of, and incident to, the services 
#provided.  However, Halliburton cannot and does not warrant the accuracy 
#or correctness of such information and interpretations.  Under no circumstances should any 
#such information or interpretation be relied upon as the sole basis for any drilling, 
#completion, production, or financial decision or any procedure involving any risk to the 
#safety of any drilling venture, drilling rig or its crew or any other third party.  The 
#Customer has full responsibility for all drilling, completion and production operation.  
#Halliburton makes no representations or warranties, either expressed or 
#implied, including, but not limited to, the implied warranties of merchantability or fitness 
#for a particular purpose, with respect to the services rendered.  In no event will 
#Halliburton be liable for failure to obtain any particular results or for 
#any damages, including, but not limited to, indirect, special or consequential damages, 
#resulting from the use of any information or interpretation provided by Halliburton.
#
~A           TIME           GTDEPTH  GTPQH  GTTQ  GTTN  GTET   GTTVD  
# ...
   19:44:37.525.03-May-2020 4608.48 5788.95 79.04 3.00 368.04 2489.14
   19:44:37.725.03-May-2020 4608.48 5788.95 79.04 3.00 368.24 2489.14
   19:44:37.925.03-May-2020 4608.48 5788.53 79.04 3.00 368.44 2489.14
   19:44:38.125.03-May-2020 4608.48 5788.78 79.04 3.00 368.64 2489.14
   19:44:38.326.03-May-2020 4608.48 5788.12 79.04 3.00 368.84 2489.14
   19:44:38.526.03-May-2020 4608.48 5787.32 79.04 3.00 369.04 2489.14
   19:44:38.726.03-May-2020 4608.48 5787.32 79.04 3.00 369.24 2489.14
   19:44:38.926.03-May-2020 4608.48 5788.24 79.04 3.00 369.44 2489.14
   19:44:39.126.03-May-2020 4608.48 5794.30 79.04 3.00 369.64 2489.14
   19:44:39.326.03-May-2020 4608.48 5788.17 79.04 3.00 369.84 2489.14
   19:44:39.526.03-May-2020 4608.48 5789.83 79.04 3.00 370.04 2489.14
   19:44:39.726.03-May-2020 4608.48 5794.04 79.04 3.00 370.24 2489.14
   19:44:39.926.03-May-2020 4608.48 5789.71 79.04 3.00 370.44 2489.14
   19:44:40.126.03-May-2020 4608.48 5789.64 79.04 3.00 370.64 2489.14
   19:44:40.326.03-May-2020 4608.48 5794.78 79.04 3.00 370.84 2489.14
   19:44:40.526.03-May-2020 4608.48 5789.88 79.04 3.00 371.04 2489.14
   19:44:40.726.03-May-2020 4608.48 5789.88 79.04 3.00 371.24 2489.14
   19:44:40.926.03-May-2020 4608.48 5788.79 79.04 3.00 371.44 2489.14
   19:44:41.126.03-May-2020 4608.48 5791.53 79.04 3.00 371.64 2489.14
   19:44:41.326.03-May-2020 4608.48 5789.30 79.04 3.00 371.84 2489.14
   19:44:41.526.03-May-2020 4608.48 5786.59 79.04 3.00 372.04 2489.14
   19:44:41.726.03-May-2020 4608.48 5786.59 79.04 3.00 372.24 2489.14
   19:44:41.926.03-May-2020 4608.48 5787.30 79.04 3.00 372.44 2489.14
   19:44:42.126.03-May-2020 4608.48 5792.53 79.04 3.00 372.64 2489.14
   19:44:42.326.03-May-2020 4608.48 5787.65 79.04 3.00 372.84 2489.14
   19:44:42.526.03-May-2020 4608.48 5789.07 79.04 3.00 373.04 2489.14
   19:44:42.726.03-May-2020 4608.48 5789.07 79.04 3.00 373.24 2489.14
   19:44:42.926.03-May-2020 4608.48 5789.54 79.04 3.00 373.44 2489.14
   19:44:43.126.03-May-2020 4608.48 5787.75 79.04 3.00 373.64 2489.14
   19:44:43.326.03-May-2020 4608.48 5789.82 79.04 3.00 373.84 2489.14
   19:44:43.526.03-May-2020 4608.48 5790.25 79.04 3.00 374.04 2489.14
   19:44:43.726.03-May-2020 4608.48 5790.25 79.04 3.00 374.24 2489.14
   19:44:43.926.03-May-2020 4608.48 5789.08 79.04 3.00 374.44 2489.14
   19:44:44.126.03-May-2020 4608.48 5790.50 79.03 3.00 374.64 2489.14
   19:44:44.326.03-May-2020 4608.48 5789.74 79.03 3.00 374.84 2489.14
   19:44:44.526.03-May-2020 4608.48 5789.61 79.03 3.00 375.04 2489.14
   19:44:44.726.03-May-2020 4608.48 5789.61 79.03 3.00 375.24 2489.14
   19:44:44.926.03-May-2020 4608.48 5795.18 79.03 3.00 375.44 2489.14
   19:44:45.126.03-May-2020 4608.48 5791.70 79.03 3.00 375.64 2489.14
   19:44:45.326.03-May-2020 4608.48 5790.44 79.03 3.00 375.84 2489.14
   19:44:45.526.03-May-2020 4608.48 5789.89 79.03 3.00 376.04 2489.14
   19:44:45.726.03-May-2020 4608.48 5789.89 79.03 3.00 376.24 2489.14
   19:44:45.926.03-May-2020 4608.48 5789.43 79.03 3.00 376.44 2489.14
   19:44:46.126.03-May-2020 4608.48 5789.89 79.03 3.00 376.64 2489.14
   19:44:46.326.03-May-2020 4608.48 5790.26 79.03 3.00 376.84 2489.14
   19:44:46.526.03-May-2020 4608.48 5789.94 79.03 3.00 377.04 2489.14
   19:44:46.726.03-May-2020 4608.48 5789.94 79.03 3.00 377.24 2489.14
   19:44:46.926.03-May-2020 4608.48 5789.05 79.03 3.00 377.44 2489.14
   19:44:47.126.03-May-2020 4608.48 5789.11 79.02 3.00 377.64 2489.14
   19:44:47.326.03-May-2020 4608.48 5789.28 79.02 3.00 377.84 2489.14
   19:44:47.526.03-May-2020 4608.48 5795.63 79.02 3.00 378.04 2489.14
   19:44:47.727.03-May-2020 4608.48 5789.47 79.02 3.00 378.24 2489.14
   19:44:47.927.03-May-2020 4608.48 5790.45 79.02 3.00 378.44 2489.14
   19:44:48.127.03-May-2020 4608.48 5794.50 79.02 3.00 378.64 2489.14
   19:44:48.327.03-May-2020 4608.48 5790.22 79.02 3.00 378.84 2489.14
   19:44:48.527.03-May-2020 4608.48 5790.17 79.02 3.00 379.04 2489.14
   19:44:48.727.03-May-2020 4608.48 5790.17 79.02 3.00 379.24 2489.14
   19:44:48.927.03-May-2020 4608.48 5796.29 79.02 3.00 379.44 2489.14
   19:44:49.127.03-May-2020 4608.48 5788.27 79.02 3.00 379.64 2489.14
   19:44:49.327.03-May-2020 4608.48 5788.41 79.02 3.00 379.84 2489.14
   19:44:49.527.03-May-2020 4608.48 5788.41 79.01 3.00 380.04 2489.14
   19:44:49.727.03-May-2020 4608.48 5788.41 79.01 3.00 380.24 2489.14
   19:44:49.927.03-May-2020 4608.48 5786.13 79.01 3.00 380.44 2489.14
   19:44:50.127.03-May-2020 4608.48 5787.28 79.01 3.00 380.64 2489.14
   19:44:50.327.03-May-2020 4608.48 5792.12 79.01 3.00 380.84 2489.14
   19:44:50.527.03-May-2020 4608.48 5788.89 79.01 3.00 381.04 2489.14
   19:44:50.727.03-May-2020 4608.48 5788.85 79.01 3.00 381.24 2489.14
   19:44:50.927.03-May-2020 4608.48 5788.36 79.01 3.00 381.44 2489.14
   19:44:51.127.03-May-2020 4608.48 5790.44 79.01 3.00 381.64 2489.14
   19:44:51.327.03-May-2020 4608.48 5787.19 79.01 3.00 381.84 2489.14
   19:44:51.527.03-May-2020 4608.48 5788.65 79.01 3.00 382.04 2489.14
   19:44:51.727.03-May-2020 4608.48 5789.52 79.00 3.00 382.24 2489.14
   19:44:51.927.03-May-2020 4608.48 5791.01 79.00 3.00 382.44 2489.14
   19:44:52.127.03-May-2020 4608.48 5789.52 79.00 3.00 382.64 2489.14
   19:44:52.327.03-May-2020 4608.48 5789.00 79.00 3.00 382.84 2489.14
   19:44:52.527.03-May-2020 4608.48 5789.09 79.00 3.00 383.04 2489.14
   19:44:52.727.03-May-2020 4608.48 5789.09 79.00 3.00 383.24 2489.14
   19:44:52.927.03-May-2020 4608.48 5789.87 79.00 3.00 383.44 2489.14
   19:44:53.127.03-May-2020 4608.48 5794.19 79.00 3.00 383.64 2489.14
   19:44:53.327.03-May-2020 4608.48 5792.15 79.00 3.00 383.84 2489.14
   19:44:53.527.03-May-2020 4608.48 5790.94 79.00 3.00 384.04 2489.14
   19:44:53.727.03-May-2020 4608.48 5790.94 79.00 3.00 384.24 2489.14
   19:44:53.927.03-May-2020 4608.48 5791.37 78.99 3.00 384.44 2489.14
   19:44:54.127.03-May-2020 4608.48 5789.02 78.99 3.00 384.64 2489.14
   19:44:54.327.03-May-2020 4608.48 5789.46 78.99 3.00 384.84 2489.14
   19:44:54.527.03-May-2020 4608.48 5789.60 78.99 3.00 385.04 2489.14
   19:44:54.727.03-May-2020 4608.48 5789.60 78.99 3.00 385.24 2489.14
   19:44:54.927.03-May-2020 4608.48 5788.86 78.99 3.00 385.44 2489.14
   19:44:55.127.03-May-2020 4608.48 5788.16 78.99 3.00 385.64 2489.14
   19:44:55.327.03-May-2020 4608.48 5788.08 78.99 3.00 385.84 2489.14
   19:44:55.527.03-May-2020 4608.48 5788.53 78.99 3.00 386.04 2489.14
   19:44:55.727.03-May-2020 4608.48 5795.55 78.99 3.00 386.24 2489.14
   19:44:55.927.03-May-2020 4608.48 5789.05 78.98 3.00 386.44 2489.14
   19:44:56.127.03-May-2020 4608.48 5790.08 78.98 3.00 386.64 2489.14
   19:44:56.327.03-May-2020 4608.48 5793.91 78.98 3.00 386.84 2489.14
   19:44:56.527.03-May-2020 4608.48 5790.11 78.98 3.00 387.04 2489.14
   19:44:56.727.03-May-2020 4608.48 5790.11 78.98 3.00 387.24 2489.14
   19:44:56.928.03-May-2020 4608.48 5789.09 78.98 3.00 387.44 2489.14
   19:44:57.128.03-May-2020 4608.48 5791.09 78.98 3.00 387.64 2489.14
   19:44:57.328.03-May-2020 4608.48 5792.50 78.98 3.00 387.84 2489.14
   19:44:57.528.03-May-2020 4608.48 5790.18 78.98 3.00 388.04 2489.14
   19:44:57.728.03-May-2020 4608.48 5790.18 78.98 3.00 388.24 2489.14
   19:44:57.928.03-May-2020 4608.48 5791.93 78.97 3.00 388.44 2489.14
   19:44:58.128.03-May-2020 4608.48 5787.91 78.97 3.00 388.64 2489.14
   19:44:58.328.03-May-2020 4608.48 5786.43 78.97 3.00 388.84 2489.14
   19:44:58.528.03-May-2020 4608.48 5790.49 78.97 3.00 389.04 2489.14
   19:44:58.728.03-May-2020 4608.48 5790.49 78.97 3.00 389.24 2489.14
   19:44:58.928.03-May-2020 4608.48 5787.71 78.97 3.00 389.44 2489.14
   19:44:59.128.03-May-2020 4608.48 5788.29 78.97 3.00 389.64 2489.14
   19:44:59.328.03-May-2020 4608.48 5789.66 78.97 3.00 389.84 2489.14
   19:44:59.528.03-May-2020 4608.48 5788.37 78.97 3.00 390.04 2489.14
   19:44:59.728.03-May-2020 4608.48 5788.37 78.97 3.00 390.24 2489.14
   19:44:59.928.03-May-2020 4608.48 5788.63 78.96 3.00 390.44 2489.14
   19:45:00.128.03-May-2020 4608.48 5789.42 78.96 3.00 390.64 2489.14
   19:45:00.328.03-May-2020 4608.48 5789.69 78.96 3.00 390.84 2489.14
