~Version Information
 VERS.                  2.0:   CWLS log ASCII Standard -VERSION 2.0
 WRAP.                   NO:   One line per depth step
~Well Information Block
#MNEM.UNIT     VALUE/NAME     DESCRIPTION
#---------     -----------    ---------------------------
 STRT.S             15:01:40 03-May-20: START TIME 15:01:40 03-May-20
 STOP.S             15:08:15 03-May-20: STOP TIME  15:08:15 03-May-20
 STEP.S                   0.00: STEP TIME
 NULL.                 -999.25: NULL VALUE
 DFWT.                        :  DIST FWL TEXT
 DFST.                        :  DIST FSL TEXT
 DMF .             Drill Floor:  DRILL MEAS FROM
 STIM.      03.00.00 25-Mar-20:  START TIME
 DATE.      00.00.00 19-May-20:  END TIME
 SPUD.               27-Aug-20:  SPUD DATE
 NREF.                    Grid:  NORTH REFERENCE
 HPTY.       Minimum Curvature:  HOLE POS TYPE
 DMOD.             Drill Model:  DRILL MOD DESC
 SVYD.                  Survey:  SURVEY DESC
 ILTD.               Lithology:  INTERP LTH DESC
 FTOP.          Formation Tops:  FORM TOPS DESC
 SON .        AZ-XX-0906252240:  JOB NUMBER
 RIG .             West Chirag:  RIG NAME
 PDAT.          Mean Sea Level:  PERMANENT DATUM
 FLD .                     ACG:  FIELD NAME
 CTRY.              Azerbaijan:  COUNTRY NAME
 WELL.                     J23:  WELL NAME
 SRVC.          Turan Drilling:  CONTRACTOR
 COMP.     BP Exploration (Caspian Sea) Ltd.:  COMPANY
 WTYP.                Deviated:  WELL TYPE
 MDS .        Operator Entered:  MAG DATA SOURCE
 UWI .                     N/A:  UNIQUE WELL IDENTIFIER
 API .                     N/A:  API NUMBER
 BASE.              Azerbaijan:  LOGGING EQUIPMENT BASE LOCATION
 REGN.                   EESSA:  REGION
 PROV.                    Baku:  PROVINCE
 STAT.                    Baku:  STATE NAME
 MWDS.                     N/A:  MWD SHOP
 JOBN.        AZ-XX-0906252240:  JOB TICKET NUMB
 DOE .                     N/A:  DOE NUMBER
 DCON.         Sperry Drilling:  DIRECTNL CONTR
 UNIT.                     N/A:  LOGGING EQUIPMENT ID
 CNTY.                        :  COUNTY
 LOC .                        :  LOCATION
 LMF .             Drill Floor:  LOG MEASURED FROM
 TVDS.m                  43.00:  TVDSS CORRECTN
 LATI.deg                40.13:  LATITUDE
 LONG.deg                51.22:  LONGITUDE
 WHNS.m                   9.43:  WELL HEAD N/S
 WHEW.m                  -8.91:  WELL HEAD E/W
 UTMX.m              519005.06:  UTM X
 UTMY.m             4443793.85:  UTM Y
 DFWL.m                   0.00:  DISTANCE FWL
 DFSL.m                   0.00:  DISTANCE FSL
 SDEP.m                 363.00:  START DEPTH
 TDD .m                5150.01:  TOTAL DEPTH (DRILLER)
 VSDR.deg               179.88:  VERT SEC DIRECT
 GVFD.g                   1.00:  GRAVITY FIELD
 MFLD.nT              50295.00:  MAGNETIC FIELD
 MDIP.deg                59.56:  MAGNETIC DIP
 MDEC.deg                 6.45:  MAGNETIC DECL
 GRDC.deg                 0.14:  GRID CORRECTION
 AZTC.deg                 6.31:  AZM TOTAL CORR
 EPD .m                   0.00:  ELEVATION
 EGL .m                   0.00:  GROUND ELEVATION
 WDMS.m                 169.80:  WD ELEV
 APD .m                  43.00:  DEPTH ABOVE PD
 DEP .m                 354.17:  DEPTH
 AGAP.m                  43.00:  AIR GAP
 VSEW.m                  -8.91:  VERT SEC E/W
 VSNS.m                   9.43:  VERT SEC N/S
 EKB .m                   0.00:  KB ELEVATION
 EDF .m                  43.00:  DF ELEVATION
 TDL .m                1351.00:  TOTAL DEPTH (LOGGER)
 VSC .                       0:  VS TO CLOSURE
 MAGU.                 1850802:  MAGUTM CHECKSUM
~Parameter Information Block
#MNEM.UNIT       Value        Description
#---------     -----------    ---------------------------
 AV  .mps                 1.00:  Ann Velocity 
 AVMX.mps                 2.40:  Max Ann Veloc 
 AZIF.deg               148.96:  Azm, Final 
 BHAT.        Rotary Steerable:  BHA Type 
 BROT.°/30m               0.04:  Build Rotating 
 BS  .in                 12.25:  Bit Size 
 BSZ .in                 12.25:  Bit Size 
 BTPL.psig              814.00:  Bit Press Loss 
 TCS .hr                106.00:  Time Ciculation Ended 
 CV  .mps                 2.47:  Crit Velocity 
 CVMX.mps                 2.64:  Max Crit Veloc 
 DD1 .          Rashad Habibov:  Direct Drillr 1 
 DD2 .         Rasim Ibrahimov:  Direct Drillr 2 
 DDSV.                 iCruise:  DD Service 
 DEFF.%                 100.00:  % Det Eff 
 DLRX.°/30m               0.70:  Dogleg Rot Max 
 DLSO.°/30m               3.00:  Dogleg Oriented 
 DLSX.°/30m               4.55:  Dogleg Str Max 
 DRET.      08.08.32 02-May-20:  Drill End Time 
 DRST.      08.08.32 28-Apr-20:  Drill Start Tim 
 DTIM.hr                 60.00:  Time Drilling 
 EDEP.m                4761.01:  End Depth 
 ENG1.           Eldar Hajiyev:  Engineer 1 
 ENG2.        Marcelo Sandoval:  Engineer 2 
 ETIM.      23.23.07 05-May-20:  End Time 
 FLOI.gpm              1200.00:  Flow In 
 FLON.gpm               900.00:  Flow In Min 
 FLOS.cptm                0.00:  Fluid Loss 
 FLOX.gpm              1200.00:  Flow In Max 
 HFLO.                      No:  High Flow 
 HPRE.                      No:  High Pressure 
 HTEM.                      No:  High Temp 
 HYDO.m                   1.80:  Hydro Offset 
 IFIN.deg                68.17:  Inc, Final 
 IMAX.deg                74.61:  Inc Max 
 IMIN.deg                68.15:  Inc Min 
 IMND.m                4317.87:  Inc Min Depth 
 IMXD.m                4714.01:  Inc Max Depth 
 LETM.      08.08.32 02-May-20:  Log End Time 
 LOST.hr                     2:  Lost Rig Time 
 LSTM.      08.08.32 28-Apr-20:  Log Start Time 
 MDCL.ppm             41000.00:  Mud Chlorides 
 MDES.     Inversion Oil/Synthetic:  Mud Desc 
 DFD .sg                  1.58:  Mud Density 
 MDMN.sg                  1.58:  Dens Mud Min 
 MDMX.sg                  1.58:  Dens Mud Max 
 MOIL.                      71:  Run Mud Oil % 
 MOWR.                   71:29:  Run Mud OWR 
 MSND.                     0.1:  Run Mud Sand % 
 MSOL.                      23:  Run Mud Solids% 
 DFV .spqt               82.00:  Mud Viscosity 
 MWOD.in                  8.00:  MWD Tool OD 
 MWSI.                     Yes:  Serv Intrp, MWD 
 OTIM.hr                125.00:  Time Operating 
 PMAX.psia             6129.00:  Press Op, Max 
 PV  .cP                 32.00:  Mud PV 
 RUN .                     800:  Run Number 
 ROPA.m/hr               30.00:  ROP Avg 
 ROPN.m/hr               10.00:  ROP Min 
 ROPX.m/hr               40.00:  ROP Max 
 RPMA.rpm               140.00:  RPM Surface Avg 
 RPMN.rpm                80.00:  RPM Surface Min 
 RPMX.rpm               140.00:  RPM Surface Max 
 RRUN.                    L503:  Rig Run Number 
 RTIM.hr                  2.00:  Time Reaming 
 SAZI.deg               184.23:  Azm, Start 
 SDEP.m                3410.01:  Start Depth 
 SIDD.                      No:  Serv Intrp, DD 
 SINC.deg                68.29:  Inc, Start 
 SPPA.psig             6000.00:  SPP Avg 
 SPPN.psig             4000.00:  SPP Min 
 SPPX.psig             6100.00:  SPP Max 
 STIM.      08.08.32 28-Apr-20:  Start Time 
 SVCS.                 DD, MWD:  Services 
 SVER.                    9.20:  Sperry Version 
 TDAT.m                1351.00:  Tot Depth Attmp 
 TDDF.                      No:  Trip for DD 
 TDLG.m                1351.00:  Tot Depth Loggd 
 TFF .                      No:  Trip for Fail 
 TQAA.f-kp               27.00:  Torque Abs Avg 
 TQAN.f-kp               20.00:  Torque Abs Min 
 TQAX.f-kp               30.00:  Torque Abs Max 
 TRRT.°/30m               0.60:  Turn Rotating 
 MRT .                    EWER:  Maximum Recorded Temperature 
 TTMX.degC               83.00:  Max Tool Temp 
 VS01.                90511138:  Virtual Str1 SN 
 VS02.                90524876:  Virtual Str2 SN 
 VS03.                90524872:  Virtual Str3 SN 
 VS04.                90502750:  Virtual Str4 SN 
 VS05.                12330984:  Virtual Str5 SN 
 WBMN.klb                 0.00:  WOB Min 
 WOBA.klb                15.00:  WOB Avg 
 WOBX.klb                20.00:  WOB Max 
 YP  .lhf2               31.00:  Yield Point 
~Curve Information Block
#MNEM.UNIT                 API CODE     Curve Description
#---------               -----------    ---------------------------
 TIME.HHMMSS            00 000 000 000:  GT Time & Date
 GTDEPTH.m              00 000 000 000:  GT Depth
 GTPQH.psia             00 000 000 000:  GT HR Quartz Pressure
 GTTQ.degC              00 000 000 000:  GT Quartz Temperature
 GTTN.NONE              00 000 000 000:  GT Test Number
 GTET.sec               00 000 000 000:  GT Elapsed Test Time
 GTTVD.m                00 000 000 000:  GT True Vertical Depth
#Other Information
#
#WARRANTY: Halliburton will use its best efforts to furnish customers with 
#accurate information and interpretations that are part of, and incident to, the services 
#provided.  However, Halliburton cannot and does not warrant the accuracy 
#or correctness of such information and interpretations.  Under no circumstances should any 
#such information or interpretation be relied upon as the sole basis for any drilling, 
#completion, production, or financial decision or any procedure involving any risk to the 
#safety of any drilling venture, drilling rig or its crew or any other third party.  The 
#Customer has full responsibility for all drilling, completion and production operation.  
#Halliburton makes no representations or warranties, either expressed or 
#implied, including, but not limited to, the implied warranties of merchantability or fitness 
#for a particular purpose, with respect to the services rendered.  In no event will 
#Halliburton be liable for failure to obtain any particular results or for 
#any damages, including, but not limited to, indirect, special or consequential damages, 
#resulting from the use of any information or interpretation provided by Halliburton.
#
~A           TIME           GTDEPTH  GTPQH  GTTQ  GTTN  GTET   GTTVD  
# ...
   15:02:03.419.03-May-2020 4553.48 5727.02 82.44 2.00  22.99 2472.52
   15:02:03.619.03-May-2020 4553.48 5727.02 82.44 2.00  23.19 2472.52
   15:02:03.819.03-May-2020 4553.48 5727.58 82.44 2.00  23.39 2472.52
   15:02:04.019.03-May-2020 4553.48 5727.50 82.44 2.00  23.59 2472.52
   15:02:04.219.03-May-2020 4553.48 5728.60 82.43 2.00  23.79 2472.52
   15:02:04.419.03-May-2020 4553.48 5733.65 82.43 2.00  23.99 2472.52
   15:02:04.619.03-May-2020 4553.48 5733.65 82.43 2.00  24.19 2472.52
   15:02:04.819.03-May-2020 4553.48 5733.75 82.43 2.00  24.39 2472.52
   15:02:05.018.03-May-2020 4553.48 5724.72 82.43 2.00  24.59 2472.52
   15:02:05.218.03-May-2020 4553.48 5727.84 82.43 2.00  24.79 2472.52
   15:02:05.418.03-May-2020 4553.48 5731.79 82.43 2.00  24.99 2472.52
   15:02:05.618.03-May-2020 4553.48 5731.79 82.43 2.00  25.19 2472.52
   15:02:05.818.03-May-2020 4553.48 5727.44 82.43 2.00  25.39 2472.52
   15:02:06.018.03-May-2020 4553.48 5726.92 82.43 2.00  25.59 2472.52
   15:02:06.218.03-May-2020 4553.48 5727.86 82.43 2.00  25.79 2472.52
   15:02:06.418.03-May-2020 4553.48 5728.60 82.43 2.00  25.99 2472.52
   15:02:06.618.03-May-2020 4553.48 5728.60 82.43 2.00  26.19 2472.52
   15:02:06.818.03-May-2020 4553.48 5728.97 82.42 2.00  26.39 2472.52
   15:02:07.018.03-May-2020 4553.48 5728.71 82.42 2.00  26.59 2472.52
   15:02:07.218.03-May-2020 4553.48 5728.77 82.42 2.00  26.79 2472.52
   15:02:07.418.03-May-2020 4553.48 5733.04 82.42 2.00  26.99 2472.52
   15:02:07.618.03-May-2020 4553.48 5733.04 82.42 2.00  27.19 2472.52
   15:02:07.818.03-May-2020 4553.48 5728.45 82.42 2.00  27.39 2472.52
   15:02:08.017.03-May-2020 4553.48 5727.56 82.42 2.00  27.59 2472.52
   15:02:08.217.03-May-2020 4553.48 5729.67 82.42 2.00  27.79 2472.52
   15:02:08.417.03-May-2020 4553.48 5728.36 82.42 2.00  27.99 2472.52
   15:02:08.617.03-May-2020 4553.48 5728.36 82.42 2.00  28.19 2472.52
   15:02:08.817.03-May-2020 4553.48 5728.54 82.42 2.00  28.39 2472.52
   15:02:09.017.03-May-2020 4553.48 5730.20 82.41 2.00  28.59 2472.52
   15:02:09.217.03-May-2020 4553.48 5730.59 82.41 2.00  28.79 2472.52
   15:02:09.417.03-May-2020 4553.48 5731.75 82.41 2.00  28.99 2472.52
   15:02:09.617.03-May-2020 4553.48 5731.75 82.41 2.00  29.19 2472.52
   15:02:09.817.03-May-2020 4553.48 5730.99 82.41 2.00  29.39 2472.52
   15:02:10.017.03-May-2020 4553.48 5731.56 82.41 2.00  29.59 2472.52
   15:02:10.217.03-May-2020 4553.48 5736.33 82.41 2.00  29.79 2472.52
   15:02:10.417.03-May-2020 4553.48 5732.96 82.41 2.00  29.99 2472.52
   15:02:10.617.03-May-2020 4553.48 5732.96 82.41 2.00  30.19 2472.52
   15:02:10.817.03-May-2020 4553.48 5730.98 82.41 2.00  30.39 2472.52
   15:02:11.016.03-May-2020 4553.48 5731.93 82.41 2.00  30.59 2472.52
   15:02:11.216.03-May-2020 4553.48 5730.36 82.40 2.00  30.79 2472.52
   15:02:11.416.03-May-2020 4553.48 5730.99 82.40 2.00  30.99 2472.52
   15:02:11.616.03-May-2020 4553.48 5730.99 82.40 2.00  31.19 2472.52
   15:02:11.816.03-May-2020 4553.48 5729.74 82.40 2.00  31.39 2472.52
   15:02:12.016.03-May-2020 4553.48 5730.04 82.40 2.00  31.59 2472.52
   15:02:12.216.03-May-2020 4553.48 5730.88 82.40 2.00  31.79 2472.52
   15:02:12.416.03-May-2020 4553.48 5730.58 82.40 2.00  31.99 2472.52
   15:02:12.616.03-May-2020 4553.48 5730.58 82.40 2.00  32.19 2472.52
   15:02:12.816.03-May-2020 4553.48 5737.85 82.40 2.00  32.39 2472.52
   15:02:13.016.03-May-2020 4553.48 5730.73 82.40 2.00  32.59 2472.52
   15:02:13.216.03-May-2020 4553.48 5730.82 82.40 2.00  32.79 2472.52
   15:02:13.416.03-May-2020 4553.48 5734.65 82.40 2.00  32.99 2472.52
   15:02:13.616.03-May-2020 4553.48 5731.69 82.39 2.00  33.19 2472.52
   15:02:13.816.03-May-2020 4553.48 5721.69 82.39 2.00  33.39 2472.52
   15:02:14.016.03-May-2020 4553.48 5665.16 82.39 2.00  33.59 2472.52
   15:02:14.215.03-May-2020 4553.48 5651.73 82.39 2.00  33.79 2472.52
   15:02:14.415.03-May-2020 4553.48 5591.14 82.39 2.00  33.99 2472.52
   15:02:14.615.03-May-2020 4553.48 5591.14 82.39 2.00  34.19 2472.52
   15:02:14.815.03-May-2020 4553.48 5475.46 82.39 2.00  34.39 2472.52
   15:02:15.015.03-May-2020 4553.48 5412.34 82.39 2.00  34.59 2472.52
   15:02:15.215.03-May-2020 4553.48 5278.17 82.39 2.00  34.79 2472.52
   15:02:15.415.03-May-2020 4553.48 5449.79 82.39 2.00  34.99 2472.52
   15:02:15.615.03-May-2020 4553.48 5449.79 82.39 2.00  35.19 2472.52
   15:02:15.815.03-May-2020 4553.48 5801.20 82.39 2.00  35.39 2472.52
   15:02:16.015.03-May-2020 4553.48 5817.77 82.38 2.00  35.59 2472.52
   15:02:16.215.03-May-2020 4553.48 5823.06 82.38 2.00  35.79 2472.52
   15:02:16.415.03-May-2020 4553.48 5839.05 82.38 2.00  35.99 2472.52
   15:02:16.615.03-May-2020 4553.48 5839.05 82.38 2.00  36.19 2472.52
   15:02:16.815.03-May-2020 4553.48 5823.27 82.38 2.00  36.39 2472.52
   15:02:17.015.03-May-2020 4553.48 5807.06 82.38 2.00  36.59 2472.52
   15:02:17.214.03-May-2020 4553.48 5802.38 82.38 2.00  36.79 2472.52
   15:02:17.414.03-May-2020 4553.48 5804.85 82.38 2.00  36.99 2472.52
   15:02:17.614.03-May-2020 4553.48 5804.85 82.38 2.00  37.19 2472.52
   15:02:17.814.03-May-2020 4553.48 5798.36 82.38 2.00  37.39 2472.52
   15:02:18.014.03-May-2020 4553.48 5810.27 82.38 2.00  37.59 2472.52
   15:02:18.214.03-May-2020 4553.48 5798.49 82.37 2.00  37.79 2472.52
   15:02:18.414.03-May-2020 4553.48 5792.94 82.37 2.00  37.99 2472.52
   15:02:18.614.03-May-2020 4553.48 5792.94 82.37 2.00  38.19 2472.52
   15:02:18.814.03-May-2020 4553.48 5791.49 82.37 2.00  38.39 2472.52
   15:02:19.014.03-May-2020 4553.48 5790.09 82.37 2.00  38.59 2472.52
   15:02:19.214.03-May-2020 4553.48 5783.21 82.37 2.00  38.79 2472.52
   15:02:19.414.03-May-2020 4553.48 5780.79 82.37 2.00  38.99 2472.52
   15:02:19.614.03-May-2020 4553.48 5780.79 82.37 2.00  39.19 2472.52
   15:02:19.814.03-May-2020 4553.48 5780.75 82.37 2.00  39.39 2472.52
   15:02:20.014.03-May-2020 4553.48 5780.77 82.37 2.00  39.59 2472.52
   15:02:20.213.03-May-2020 4553.48 5780.18 82.37 2.00  39.79 2472.52
   15:02:20.413.03-May-2020 4553.48 5780.06 82.37 2.00  39.99 2472.52
   15:02:20.613.03-May-2020 4553.48 5780.06 82.37 2.00  40.19 2472.52
   15:02:20.813.03-May-2020 4553.48 5781.56 82.36 2.00  40.39 2472.52
   15:02:21.013.03-May-2020 4553.48 5782.11 82.36 2.00  40.59 2472.52
   15:02:21.213.03-May-2020 4553.48 5782.35 82.36 2.00  40.79 2472.52
   15:02:21.413.03-May-2020 4553.48 5789.56 82.36 2.00  40.99 2472.52
   15:02:21.613.03-May-2020 4553.48 5789.56 82.36 2.00  41.19 2472.52
   15:02:21.813.03-May-2020 4553.48 5793.39 82.36 2.00  41.39 2472.52
   15:02:22.013.03-May-2020 4553.48 5793.33 82.36 2.00  41.59 2472.52
   15:02:22.213.03-May-2020 4553.48 5793.13 82.36 2.00  41.79 2472.52
   15:02:22.413.03-May-2020 4553.48 5796.29 82.36 2.00  41.99 2472.52
   15:02:22.613.03-May-2020 4553.48 5796.29 82.36 2.00  42.19 2472.52
   15:02:22.813.03-May-2020 4553.48 5795.02 82.36 2.00  42.39 2472.52
   15:02:23.013.03-May-2020 4553.48 5794.81 82.36 2.00  42.59 2472.52
   15:02:23.213.03-May-2020 4553.48 5796.29 82.36 2.00  42.79 2472.52
   15:02:23.412.03-May-2020 4553.48 5792.78 82.35 2.00  42.99 2472.52
   15:02:23.612.03-May-2020 4553.48 5792.78 82.35 2.00  43.19 2472.52
   15:02:23.812.03-May-2020 4553.48 5794.62 82.35 2.00  43.39 2472.52
   15:02:24.012.03-May-2020 4553.48 5796.13 82.35 2.00  43.59 2472.52
   15:02:24.212.03-May-2020 4553.48 5792.69 82.35 2.00  43.79 2472.52
   15:02:24.412.03-May-2020 4553.48 5790.84 82.35 2.00  43.99 2472.52
   15:02:24.612.03-May-2020 4553.48 5790.84 82.35 2.00  44.19 2472.52
   15:02:24.812.03-May-2020 4553.48 5787.71 82.35 2.00  44.39 2472.52
   15:02:25.012.03-May-2020 4553.48 5786.62 82.35 2.00  44.59 2472.52
   15:02:25.212.03-May-2020 4553.48 5787.05 82.35 2.00  44.79 2472.52
   15:02:25.412.03-May-2020 4553.48 5787.08 82.35 2.00  44.99 2472.52
   15:02:25.612.03-May-2020 4553.48 5787.08 82.35 2.00  45.19 2472.52
   15:02:25.812.03-May-2020 4553.48 5783.94 82.35 2.00  45.39 2472.52
   15:02:26.012.03-May-2020 4553.48 5793.75 82.34 2.00  45.59 2472.52
   15:02:26.212.03-May-2020 4553.48 5789.47 82.34 2.00  45.79 2472.52
