~Version Information
 VERS.                  2.0:   CWLS log ASCII Standard -VERSION 2.0
 WRAP.                   NO:   One line per depth step
~Well Information Block
#MNEM.UNIT     VALUE/NAME     DESCRIPTION
#---------     -----------    ---------------------------
 STRT.S             13:13:41 03-May-20: START TIME 13:13:41 03-May-20
 STOP.S             13:20:16 03-May-20: STOP TIME  13:20:16 03-May-20
 STEP.S                   0.00: STEP TIME
 NULL.                 -999.25: NULL VALUE
 DFWT.                        :  DIST FWL TEXT
 DFST.                        :  DIST FSL TEXT
 DMF .             Drill Floor:  DRILL MEAS FROM
 STIM.      03.00.00 25-Mar-20:  START TIME
 DATE.      00.00.00 19-May-20:  END TIME
 SPUD.               27-Aug-20:  SPUD DATE
 NREF.                    Grid:  NORTH REFERENCE
 HPTY.       Minimum Curvature:  HOLE POS TYPE
 DMOD.             Drill Model:  DRILL MOD DESC
 SVYD.                  Survey:  SURVEY DESC
 ILTD.               Lithology:  INTERP LTH DESC
 FTOP.          Formation Tops:  FORM TOPS DESC
 SON .        AZ-XX-0906252240:  JOB NUMBER
 RIG .             West Chirag:  RIG NAME
 PDAT.          Mean Sea Level:  PERMANENT DATUM
 FLD .                     ACG:  FIELD NAME
 CTRY.              Azerbaijan:  COUNTRY NAME
 WELL.                     J23:  WELL NAME
 SRVC.          Turan Drilling:  CONTRACTOR
 COMP.     BP Exploration (Caspian Sea) Ltd.:  COMPANY
 WTYP.                Deviated:  WELL TYPE
 MDS .        Operator Entered:  MAG DATA SOURCE
 UWI .                     N/A:  UNIQUE WELL IDENTIFIER
 API .                     N/A:  API NUMBER
 BASE.              Azerbaijan:  LOGGING EQUIPMENT BASE LOCATION
 REGN.                   EESSA:  REGION
 PROV.                    Baku:  PROVINCE
 STAT.                    Baku:  STATE NAME
 MWDS.                     N/A:  MWD SHOP
 JOBN.        AZ-XX-0906252240:  JOB TICKET NUMB
 DOE .                     N/A:  DOE NUMBER
 DCON.         Sperry Drilling:  DIRECTNL CONTR
 UNIT.                     N/A:  LOGGING EQUIPMENT ID
 CNTY.                        :  COUNTY
 LOC .                        :  LOCATION
 LMF .             Drill Floor:  LOG MEASURED FROM
 TVDS.m                  43.00:  TVDSS CORRECTN
 LATI.deg                40.13:  LATITUDE
 LONG.deg                51.22:  LONGITUDE
 WHNS.m                   9.43:  WELL HEAD N/S
 WHEW.m                  -8.91:  WELL HEAD E/W
 UTMX.m              519005.06:  UTM X
 UTMY.m             4443793.85:  UTM Y
 DFWL.m                   0.00:  DISTANCE FWL
 DFSL.m                   0.00:  DISTANCE FSL
 SDEP.m                 363.00:  START DEPTH
 TDD .m                5150.01:  TOTAL DEPTH (DRILLER)
 VSDR.deg               179.88:  VERT SEC DIRECT
 GVFD.g                   1.00:  GRAVITY FIELD
 MFLD.nT              50295.00:  MAGNETIC FIELD
 MDIP.deg                59.56:  MAGNETIC DIP
 MDEC.deg                 6.45:  MAGNETIC DECL
 GRDC.deg                 0.14:  GRID CORRECTION
 AZTC.deg                 6.31:  AZM TOTAL CORR
 EPD .m                   0.00:  ELEVATION
 EGL .m                   0.00:  GROUND ELEVATION
 WDMS.m                 169.80:  WD ELEV
 APD .m                  43.00:  DEPTH ABOVE PD
 DEP .m                 354.17:  DEPTH
 AGAP.m                  43.00:  AIR GAP
 VSEW.m                  -8.91:  VERT SEC E/W
 VSNS.m                   9.43:  VERT SEC N/S
 EKB .m                   0.00:  KB ELEVATION
 EDF .m                  43.00:  DF ELEVATION
 TDL .m                1351.00:  TOTAL DEPTH (LOGGER)
 VSC .                       0:  VS TO CLOSURE
 MAGU.                 1850802:  MAGUTM CHECKSUM
~Parameter Information Block
#MNEM.UNIT       Value        Description
#---------     -----------    ---------------------------
 AV  .mps                 1.00:  Ann Velocity 
 AVMX.mps                 2.40:  Max Ann Veloc 
 AZIF.deg               148.96:  Azm, Final 
 BHAT.        Rotary Steerable:  BHA Type 
 BROT.°/30m               0.04:  Build Rotating 
 BS  .in                 12.25:  Bit Size 
 BSZ .in                 12.25:  Bit Size 
 BTPL.psig              814.00:  Bit Press Loss 
 TCS .hr                106.00:  Time Ciculation Ended 
 CV  .mps                 2.47:  Crit Velocity 
 CVMX.mps                 2.64:  Max Crit Veloc 
 DD1 .          Rashad Habibov:  Direct Drillr 1 
 DD2 .         Rasim Ibrahimov:  Direct Drillr 2 
 DDSV.                 iCruise:  DD Service 
 DEFF.%                 100.00:  % Det Eff 
 DLRX.°/30m               0.70:  Dogleg Rot Max 
 DLSO.°/30m               3.00:  Dogleg Oriented 
 DLSX.°/30m               4.55:  Dogleg Str Max 
 DRET.      08.08.32 02-May-20:  Drill End Time 
 DRST.      08.08.32 28-Apr-20:  Drill Start Tim 
 DTIM.hr                 60.00:  Time Drilling 
 EDEP.m                4761.01:  End Depth 
 ENG1.           Eldar Hajiyev:  Engineer 1 
 ENG2.        Marcelo Sandoval:  Engineer 2 
 ETIM.      23.23.07 05-May-20:  End Time 
 FLOI.gpm              1200.00:  Flow In 
 FLON.gpm               900.00:  Flow In Min 
 FLOS.cptm                0.00:  Fluid Loss 
 FLOX.gpm              1200.00:  Flow In Max 
 HFLO.                      No:  High Flow 
 HPRE.                      No:  High Pressure 
 HTEM.                      No:  High Temp 
 HYDO.m                   1.80:  Hydro Offset 
 IFIN.deg                68.17:  Inc, Final 
 IMAX.deg                74.61:  Inc Max 
 IMIN.deg                68.15:  Inc Min 
 IMND.m                4317.87:  Inc Min Depth 
 IMXD.m                4714.01:  Inc Max Depth 
 LETM.      08.08.32 02-May-20:  Log End Time 
 LOST.hr                     2:  Lost Rig Time 
 LSTM.      08.08.32 28-Apr-20:  Log Start Time 
 MDCL.ppm             41000.00:  Mud Chlorides 
 MDES.     Inversion Oil/Synthetic:  Mud Desc 
 DFD .sg                  1.58:  Mud Density 
 MDMN.sg                  1.58:  Dens Mud Min 
 MDMX.sg                  1.58:  Dens Mud Max 
 MOIL.                      71:  Run Mud Oil % 
 MOWR.                   71:29:  Run Mud OWR 
 MSND.                     0.1:  Run Mud Sand % 
 MSOL.                      23:  Run Mud Solids% 
 DFV .spqt               82.00:  Mud Viscosity 
 MWOD.in                  8.00:  MWD Tool OD 
 MWSI.                     Yes:  Serv Intrp, MWD 
 OTIM.hr                125.00:  Time Operating 
 PMAX.psia             6129.00:  Press Op, Max 
 PV  .cP                 32.00:  Mud PV 
 RUN .                     800:  Run Number 
 ROPA.m/hr               30.00:  ROP Avg 
 ROPN.m/hr               10.00:  ROP Min 
 ROPX.m/hr               40.00:  ROP Max 
 RPMA.rpm               140.00:  RPM Surface Avg 
 RPMN.rpm                80.00:  RPM Surface Min 
 RPMX.rpm               140.00:  RPM Surface Max 
 RRUN.                    L503:  Rig Run Number 
 RTIM.hr                  2.00:  Time Reaming 
 SAZI.deg               184.23:  Azm, Start 
 SDEP.m                3410.01:  Start Depth 
 SIDD.                      No:  Serv Intrp, DD 
 SINC.deg                68.29:  Inc, Start 
 SPPA.psig             6000.00:  SPP Avg 
 SPPN.psig             4000.00:  SPP Min 
 SPPX.psig             6100.00:  SPP Max 
 STIM.      08.08.32 28-Apr-20:  Start Time 
 SVCS.                 DD, MWD:  Services 
 SVER.                    9.20:  Sperry Version 
 TDAT.m                1351.00:  Tot Depth Attmp 
 TDDF.                      No:  Trip for DD 
 TDLG.m                1351.00:  Tot Depth Loggd 
 TFF .                      No:  Trip for Fail 
 TQAA.f-kp               27.00:  Torque Abs Avg 
 TQAN.f-kp               20.00:  Torque Abs Min 
 TQAX.f-kp               30.00:  Torque Abs Max 
 TRRT.°/30m               0.60:  Turn Rotating 
 MRT .                    EWER:  Maximum Recorded Temperature 
 TTMX.degC               83.00:  Max Tool Temp 
 VS01.                90511138:  Virtual Str1 SN 
 VS02.                90524876:  Virtual Str2 SN 
 VS03.                90524872:  Virtual Str3 SN 
 VS04.                90502750:  Virtual Str4 SN 
 VS05.                12330984:  Virtual Str5 SN 
 WBMN.klb                 0.00:  WOB Min 
 WOBA.klb                15.00:  WOB Avg 
 WOBX.klb                20.00:  WOB Max 
 YP  .lhf2               31.00:  Yield Point 
~Curve Information Block
#MNEM.UNIT                 API CODE     Curve Description
#---------               -----------    ---------------------------
 TIME.HHMMSS            00 000 000 000:  GT Time & Date
 GTDEPTH.m              00 000 000 000:  GT Depth
 GTPQH.psia             00 000 000 000:  GT HR Quartz Pressure
 GTTQ.degC              00 000 000 000:  GT Quartz Temperature
 GTTN.NONE              00 000 000 000:  GT Test Number
 GTET.sec               00 000 000 000:  GT Elapsed Test Time
 GTTVD.m                00 000 000 000:  GT True Vertical Depth
#Other Information
#
#WARRANTY: Halliburton will use its best efforts to furnish customers with 
#accurate information and interpretations that are part of, and incident to, the services 
#provided.  However, Halliburton cannot and does not warrant the accuracy 
#or correctness of such information and interpretations.  Under no circumstances should any 
#such information or interpretation be relied upon as the sole basis for any drilling, 
#completion, production, or financial decision or any procedure involving any risk to the 
#safety of any drilling venture, drilling rig or its crew or any other third party.  The 
#Customer has full responsibility for all drilling, completion and production operation.  
#Halliburton makes no representations or warranties, either expressed or 
#implied, including, but not limited to, the implied warranties of merchantability or fitness 
#for a particular purpose, with respect to the services rendered.  In no event will 
#Halliburton be liable for failure to obtain any particular results or for 
#any damages, including, but not limited to, indirect, special or consequential damages, 
#resulting from the use of any information or interpretation provided by Halliburton.
#
~A           TIME           GTDEPTH  GTPQH  GTTQ  GTTN  GTET   GTTVD  
# ...
   13:18:17.845.03-May-2020 4532.80 4116.41 80.04 1.00 276.43 2465.99
   13:18:18.045.03-May-2020 4532.80 4116.41 80.04 1.00 276.63 2465.99
   13:18:18.246.03-May-2020 4532.80 4116.67 80.04 1.00 276.84 2465.99
   13:18:18.446.03-May-2020 4532.80 4116.79 80.04 1.00 277.04 2465.99
   13:18:18.646.03-May-2020 4532.80 4117.34 80.04 1.00 277.24 2465.99
   13:18:18.847.03-May-2020 4532.80 4117.72 80.04 1.00 277.44 2465.99
   13:18:19.047.03-May-2020 4532.80 4117.72 80.04 1.00 277.64 2465.99
   13:18:19.247.03-May-2020 4532.80 4117.81 80.03 1.00 277.84 2465.99
   13:18:19.448.03-May-2020 4532.80 4118.13 80.03 1.00 278.04 2465.99
   13:18:19.648.03-May-2020 4532.80 4117.90 80.03 1.00 278.24 2465.99
   13:18:19.848.03-May-2020 4532.80 4117.85 80.03 1.00 278.44 2465.99
   13:18:20.049.03-May-2020 4532.80 4117.91 80.03 1.00 278.64 2465.99
   13:18:20.249.03-May-2020 4532.80 4117.95 80.03 1.00 278.84 2465.99
   13:18:20.449.03-May-2020 4532.80 4117.99 80.03 1.00 279.04 2465.99
   13:18:20.650.03-May-2020 4532.80 4118.11 80.03 1.00 279.24 2465.99
   13:18:20.850.03-May-2020 4532.80 4118.14 80.03 1.00 279.44 2465.99
   13:18:21.050.03-May-2020 4532.80 4118.14 80.03 1.00 279.64 2465.99
   13:18:21.251.03-May-2020 4532.80 4118.61 80.03 1.00 279.84 2465.99
   13:18:21.451.03-May-2020 4532.80 4118.98 80.03 1.00 280.04 2465.99
   13:18:21.651.03-May-2020 4532.80 4119.07 80.03 1.00 280.24 2465.99
   13:18:21.851.03-May-2020 4532.80 4118.99 80.03 1.00 280.44 2465.99
   13:18:22.052.03-May-2020 4532.80 4118.99 80.03 1.00 280.64 2465.99
   13:18:22.252.03-May-2020 4532.80 4119.67 80.03 1.00 280.84 2465.99
   13:18:22.452.03-May-2020 4532.80 4119.65 80.03 1.00 281.04 2465.99
   13:18:22.653.03-May-2020 4532.80 4120.22 80.03 1.00 281.24 2465.99
   13:18:22.853.03-May-2020 4532.80 4119.95 80.03 1.00 281.44 2465.99
   13:18:23.053.03-May-2020 4532.80 4119.95 80.03 1.00 281.64 2465.99
   13:18:23.254.03-May-2020 4532.80 4120.27 80.03 1.00 281.84 2465.99
   13:18:23.454.03-May-2020 4532.80 4119.96 80.03 1.00 282.04 2465.99
   13:18:23.654.03-May-2020 4532.80 4119.69 80.03 1.00 282.24 2465.99
   13:18:23.855.03-May-2020 4532.80 4120.41 80.03 1.00 282.44 2465.99
   13:18:24.055.03-May-2020 4532.80 4120.70 80.02 1.00 282.64 2465.99
   13:18:24.255.03-May-2020 4532.80 4120.24 80.02 1.00 282.84 2465.99
   13:18:24.456.03-May-2020 4532.80 4120.02 80.02 1.00 283.05 2465.99
   13:18:24.656.03-May-2020 4532.80 4120.12 80.02 1.00 283.25 2465.99
   13:18:24.856.03-May-2020 4532.80 4119.91 80.02 1.00 283.45 2465.99
   13:18:25.057.03-May-2020 4532.80 4119.91 80.02 1.00 283.65 2465.99
   13:18:25.257.03-May-2020 4532.80 4119.94 80.02 1.00 283.85 2465.99
   13:18:25.457.03-May-2020 4532.80 4119.98 80.02 1.00 284.05 2465.99
   13:18:25.657.03-May-2020 4532.80 4119.99 80.02 1.00 284.25 2465.99
   13:18:25.858.03-May-2020 4532.80 4119.93 80.02 1.00 284.45 2465.99
   13:18:26.058.03-May-2020 4532.80 4119.93 80.02 1.00 284.65 2465.99
   13:18:26.258.03-May-2020 4532.80 4119.97 80.02 1.00 284.85 2465.99
   13:18:26.459.03-May-2020 4532.80 4120.00 80.02 1.00 285.05 2465.99
   13:18:26.659.03-May-2020 4532.80 4120.46 80.02 1.00 285.25 2465.99
   13:18:26.859.03-May-2020 4532.80 4121.07 80.02 1.00 285.45 2465.99
   13:18:27.060.03-May-2020 4532.80 4121.07 80.02 1.00 285.65 2465.99
   13:18:27.260.03-May-2020 4532.80 4120.48 80.02 1.00 285.85 2465.99
   13:18:27.460.03-May-2020 4532.80 4120.57 80.02 1.00 286.05 2465.99
   13:18:27.661.03-May-2020 4532.80 4120.53 80.02 1.00 286.25 2465.99
   13:18:27.861.03-May-2020 4532.80 4120.42 80.02 1.00 286.45 2465.99
   13:18:28.061.03-May-2020 4532.80 4120.38 80.02 1.00 286.65 2465.99
   13:18:28.262.03-May-2020 4532.80 4120.41 80.01 1.00 286.85 2465.99
   13:18:28.462.03-May-2020 4532.80 4120.37 80.01 1.00 287.05 2465.99
   13:18:28.662.03-May-2020 4532.80 4120.24 80.01 1.00 287.25 2465.99
   13:18:28.862.03-May-2020 4532.80 4120.24 80.01 1.00 287.45 2465.99
   13:18:29.063.03-May-2020 4532.80 4120.24 80.01 1.00 287.65 2465.99
   13:18:29.263.03-May-2020 4532.80 4120.60 80.01 1.00 287.85 2465.99
   13:18:29.463.03-May-2020 4532.80 4121.12 80.01 1.00 288.05 2465.99
   13:18:29.664.03-May-2020 4532.80 4121.10 80.01 1.00 288.25 2465.99
   13:18:29.864.03-May-2020 4532.80 4120.97 80.01 1.00 288.45 2465.99
   13:18:30.064.03-May-2020 4532.80 4120.97 80.01 1.00 288.65 2465.99
   13:18:30.265.03-May-2020 4532.80 4121.54 80.01 1.00 288.85 2465.99
   13:18:30.465.03-May-2020 4532.80 4121.52 80.01 1.00 289.05 2465.99
   13:18:30.665.03-May-2020 4532.80 4121.69 80.01 1.00 289.25 2465.99
   13:18:30.866.03-May-2020 4532.80 4121.56 80.01 1.00 289.46 2465.99
   13:18:31.066.03-May-2020 4532.80 4121.56 80.01 1.00 289.66 2465.99
   13:18:31.266.03-May-2020 4532.80 4121.62 80.01 1.00 289.86 2465.99
   13:18:31.467.03-May-2020 4532.80 4121.55 80.01 1.00 290.06 2465.99
   13:18:31.667.03-May-2020 4532.80 4121.40 80.01 1.00 290.26 2465.99
   13:18:31.867.03-May-2020 4532.80 4121.70 80.01 1.00 290.46 2465.99
   13:18:32.068.03-May-2020 4532.80 4121.07 80.00 1.00 290.66 2465.99
   13:18:32.268.03-May-2020 4532.80 4121.17 80.00 1.00 290.86 2465.99
   13:18:32.468.03-May-2020 4532.80 4121.77 80.00 1.00 291.06 2465.99
   13:18:32.668.03-May-2020 4532.80 4121.75 80.00 1.00 291.26 2465.99
   13:18:32.869.03-May-2020 4532.80 4121.22 80.00 1.00 291.46 2465.99
   13:18:33.069.03-May-2020 4532.80 4121.22 80.00 1.00 291.66 2465.99
   13:18:33.269.03-May-2020 4532.80 4121.24 80.00 1.00 291.86 2465.99
   13:18:33.470.03-May-2020 4532.80 4121.32 80.00 1.00 292.06 2465.99
   13:18:33.670.03-May-2020 4532.80 4121.22 80.00 1.00 292.26 2465.99
   13:18:33.870.03-May-2020 4532.80 4121.06 80.00 1.00 292.46 2465.99
   13:18:34.071.03-May-2020 4532.80 4121.06 80.00 1.00 292.66 2465.99
   13:18:34.271.03-May-2020 4532.80 4121.05 80.00 1.00 292.86 2465.99
   13:18:34.471.03-May-2020 4532.80 4121.11 80.00 1.00 293.06 2465.99
   13:18:34.672.03-May-2020 4532.80 4121.16 80.00 1.00 293.26 2465.99
   13:18:34.872.03-May-2020 4532.80 4121.22 80.00 1.00 293.46 2465.99
   13:18:35.072.03-May-2020 4532.80 4121.22 80.00 1.00 293.66 2465.99
   13:18:35.273.03-May-2020 4532.80 4121.75 80.00 1.00 293.86 2465.99
   13:18:35.473.03-May-2020 4532.80 4121.62 80.00 1.00 294.06 2465.99
   13:18:35.673.03-May-2020 4532.80 4121.50 80.00 1.00 294.26 2465.99
   13:18:35.874.03-May-2020 4532.80 4121.22 79.99 1.00 294.46 2465.99
   13:18:36.074.03-May-2020 4532.80 4121.22 79.99 1.00 294.66 2465.99
   13:18:36.274.03-May-2020 4532.80 4121.24 79.99 1.00 294.86 2465.99
   13:18:36.474.03-May-2020 4532.80 4121.29 79.99 1.00 295.06 2465.99
   13:18:36.675.03-May-2020 4532.80 4121.07 79.99 1.00 295.26 2465.99
   13:18:36.875.03-May-2020 4532.80 4121.17 79.99 1.00 295.46 2465.99
   13:18:37.075.03-May-2020 4532.80 4121.17 79.99 1.00 295.66 2465.99
   13:18:37.276.03-May-2020 4532.80 4121.21 79.99 1.00 295.87 2465.99
   13:18:37.476.03-May-2020 4532.80 4121.23 79.99 1.00 296.07 2465.99
   13:18:37.676.03-May-2020 4532.80 4121.70 79.99 1.00 296.27 2465.99
   13:18:37.877.03-May-2020 4532.80 4121.87 79.99 1.00 296.47 2465.99
   13:18:38.077.03-May-2020 4532.80 4121.87 79.99 1.00 296.67 2465.99
   13:18:38.277.03-May-2020 4532.80 4121.88 79.99 1.00 296.87 2465.99
   13:18:38.478.03-May-2020 4532.80 4121.82 79.99 1.00 297.07 2465.99
   13:18:38.678.03-May-2020 4532.80 4121.64 79.99 1.00 297.27 2465.99
   13:18:38.878.03-May-2020 4532.80 4122.38 79.99 1.00 297.47 2465.99
   13:18:39.079.03-May-2020 4532.80 4122.38 79.99 1.00 297.67 2465.99
   13:18:39.279.03-May-2020 4532.80 4122.01 79.99 1.00 297.87 2465.99
   13:18:39.479.03-May-2020 4532.80 4122.48 79.99 1.00 298.07 2465.99
   13:18:39.680.03-May-2020 4532.80 4122.12 79.99 1.00 298.27 2465.99
   13:18:39.880.03-May-2020 4532.80 4121.91 79.98 1.00 298.47 2465.99
   13:18:40.080.03-May-2020 4532.80 4121.97 79.98 1.00 298.67 2465.99
   13:18:40.280.03-May-2020 4532.80 4121.95 79.98 1.00 298.87 2465.99
   13:18:40.481.03-May-2020 4532.80 4121.95 79.98 1.00 299.07 2465.99
   13:18:40.681.03-May-2020 4532.80 4121.92 79.98 1.00 299.27 2465.99
