~Version Information
 VERS.                  2.0:   CWLS log ASCII Standard -VERSION 2.0
 WRAP.                   NO:   One line per depth step
~Well Information Block
#MNEM.UNIT     VALUE/NAME     DESCRIPTION
#---------     -----------    ---------------------------
 STRT.S             15:01:40 03-May-20: START TIME 15:01:40 03-May-20
 STOP.S             15:08:15 03-May-20: STOP TIME  15:08:15 03-May-20
 STEP.S                   0.00: STEP TIME
 NULL.                 -999.25: NULL VALUE
 DFWT.                        :  DIST FWL TEXT
 DFST.                        :  DIST FSL TEXT
 DMF .             Drill Floor:  DRILL MEAS FROM
 STIM.      03.00.00 25-Mar-20:  START TIME
 DATE.      00.00.00 19-May-20:  END TIME
 SPUD.               27-Aug-20:  SPUD DATE
 NREF.                    Grid:  NORTH REFERENCE
 HPTY.       Minimum Curvature:  HOLE POS TYPE
 DMOD.             Drill Model:  DRILL MOD DESC
 SVYD.                  Survey:  SURVEY DESC
 ILTD.               Lithology:  INTERP LTH DESC
 FTOP.          Formation Tops:  FORM TOPS DESC
 SON .        AZ-XX-0906252240:  JOB NUMBER
 RIG .             West Chirag:  RIG NAME
 PDAT.          Mean Sea Level:  PERMANENT DATUM
 FLD .                     ACG:  FIELD NAME
 CTRY.              Azerbaijan:  COUNTRY NAME
 WELL.                     J23:  WELL NAME
 SRVC.          Turan Drilling:  CONTRACTOR
 COMP.     BP Exploration (Caspian Sea) Ltd.:  COMPANY
 WTYP.                Deviated:  WELL TYPE
 MDS .        Operator Entered:  MAG DATA SOURCE
 UWI .                     N/A:  UNIQUE WELL IDENTIFIER
 API .                     N/A:  API NUMBER
 BASE.              Azerbaijan:  LOGGING EQUIPMENT BASE LOCATION
 REGN.                   EESSA:  REGION
 PROV.                    Baku:  PROVINCE
 STAT.                    Baku:  STATE NAME
 MWDS.                     N/A:  MWD SHOP
 JOBN.        AZ-XX-0906252240:  JOB TICKET NUMB
 DOE .                     N/A:  DOE NUMBER
 DCON.         Sperry Drilling:  DIRECTNL CONTR
 UNIT.                     N/A:  LOGGING EQUIPMENT ID
 CNTY.                        :  COUNTY
 LOC .                        :  LOCATION
 LMF .             Drill Floor:  LOG MEASURED FROM
 TVDS.m                  43.00:  TVDSS CORRECTN
 LATI.deg                40.13:  LATITUDE
 LONG.deg                51.22:  LONGITUDE
 WHNS.m                   9.43:  WELL HEAD N/S
 WHEW.m                  -8.91:  WELL HEAD E/W
 UTMX.m              519005.06:  UTM X
 UTMY.m             4443793.85:  UTM Y
 DFWL.m                   0.00:  DISTANCE FWL
 DFSL.m                   0.00:  DISTANCE FSL
 SDEP.m                 363.00:  START DEPTH
 TDD .m                5150.01:  TOTAL DEPTH (DRILLER)
 VSDR.deg               179.88:  VERT SEC DIRECT
 GVFD.g                   1.00:  GRAVITY FIELD
 MFLD.nT              50295.00:  MAGNETIC FIELD
 MDIP.deg                59.56:  MAGNETIC DIP
 MDEC.deg                 6.45:  MAGNETIC DECL
 GRDC.deg                 0.14:  GRID CORRECTION
 AZTC.deg                 6.31:  AZM TOTAL CORR
 EPD .m                   0.00:  ELEVATION
 EGL .m                   0.00:  GROUND ELEVATION
 WDMS.m                 169.80:  WD ELEV
 APD .m                  43.00:  DEPTH ABOVE PD
 DEP .m                 354.17:  DEPTH
 AGAP.m                  43.00:  AIR GAP
 VSEW.m                  -8.91:  VERT SEC E/W
 VSNS.m                   9.43:  VERT SEC N/S
 EKB .m                   0.00:  KB ELEVATION
 EDF .m                  43.00:  DF ELEVATION
 TDL .m                1351.00:  TOTAL DEPTH (LOGGER)
 VSC .                       0:  VS TO CLOSURE
 MAGU.                 1850802:  MAGUTM CHECKSUM
~Parameter Information Block
#MNEM.UNIT       Value        Description
#---------     -----------    ---------------------------
 AV  .mps                 1.00:  Ann Velocity 
 AVMX.mps                 2.40:  Max Ann Veloc 
 AZIF.deg               148.96:  Azm, Final 
 BHAT.        Rotary Steerable:  BHA Type 
 BROT.°/30m               0.04:  Build Rotating 
 BS  .in                 12.25:  Bit Size 
 BSZ .in                 12.25:  Bit Size 
 BTPL.psig              814.00:  Bit Press Loss 
 TCS .hr                106.00:  Time Ciculation Ended 
 CV  .mps                 2.47:  Crit Velocity 
 CVMX.mps                 2.64:  Max Crit Veloc 
 DD1 .          Rashad Habibov:  Direct Drillr 1 
 DD2 .         Rasim Ibrahimov:  Direct Drillr 2 
 DDSV.                 iCruise:  DD Service 
 DEFF.%                 100.00:  % Det Eff 
 DLRX.°/30m               0.70:  Dogleg Rot Max 
 DLSO.°/30m               3.00:  Dogleg Oriented 
 DLSX.°/30m               4.55:  Dogleg Str Max 
 DRET.      08.08.32 02-May-20:  Drill End Time 
 DRST.      08.08.32 28-Apr-20:  Drill Start Tim 
 DTIM.hr                 60.00:  Time Drilling 
 EDEP.m                4761.01:  End Depth 
 ENG1.           Eldar Hajiyev:  Engineer 1 
 ENG2.        Marcelo Sandoval:  Engineer 2 
 ETIM.      23.23.07 05-May-20:  End Time 
 FLOI.gpm              1200.00:  Flow In 
 FLON.gpm               900.00:  Flow In Min 
 FLOS.cptm                0.00:  Fluid Loss 
 FLOX.gpm              1200.00:  Flow In Max 
 HFLO.                      No:  High Flow 
 HPRE.                      No:  High Pressure 
 HTEM.                      No:  High Temp 
 HYDO.m                   1.80:  Hydro Offset 
 IFIN.deg                68.17:  Inc, Final 
 IMAX.deg                74.61:  Inc Max 
 IMIN.deg                68.15:  Inc Min 
 IMND.m                4317.87:  Inc Min Depth 
 IMXD.m                4714.01:  Inc Max Depth 
 LETM.      08.08.32 02-May-20:  Log End Time 
 LOST.hr                     2:  Lost Rig Time 
 LSTM.      08.08.32 28-Apr-20:  Log Start Time 
 MDCL.ppm             41000.00:  Mud Chlorides 
 MDES.     Inversion Oil/Synthetic:  Mud Desc 
 DFD .sg                  1.58:  Mud Density 
 MDMN.sg                  1.58:  Dens Mud Min 
 MDMX.sg                  1.58:  Dens Mud Max 
 MOIL.                      71:  Run Mud Oil % 
 MOWR.                   71:29:  Run Mud OWR 
 MSND.                     0.1:  Run Mud Sand % 
 MSOL.                      23:  Run Mud Solids% 
 DFV .spqt               82.00:  Mud Viscosity 
 MWOD.in                  8.00:  MWD Tool OD 
 MWSI.                     Yes:  Serv Intrp, MWD 
 OTIM.hr                125.00:  Time Operating 
 PMAX.psia             6129.00:  Press Op, Max 
 PV  .cP                 32.00:  Mud PV 
 RUN .                     800:  Run Number 
 ROPA.m/hr               30.00:  ROP Avg 
 ROPN.m/hr               10.00:  ROP Min 
 ROPX.m/hr               40.00:  ROP Max 
 RPMA.rpm               140.00:  RPM Surface Avg 
 RPMN.rpm                80.00:  RPM Surface Min 
 RPMX.rpm               140.00:  RPM Surface Max 
 RRUN.                    L503:  Rig Run Number 
 RTIM.hr                  2.00:  Time Reaming 
 SAZI.deg               184.23:  Azm, Start 
 SDEP.m                3410.01:  Start Depth 
 SIDD.                      No:  Serv Intrp, DD 
 SINC.deg                68.29:  Inc, Start 
 SPPA.psig             6000.00:  SPP Avg 
 SPPN.psig             4000.00:  SPP Min 
 SPPX.psig             6100.00:  SPP Max 
 STIM.      08.08.32 28-Apr-20:  Start Time 
 SVCS.                 DD, MWD:  Services 
 SVER.                    9.20:  Sperry Version 
 TDAT.m                1351.00:  Tot Depth Attmp 
 TDDF.                      No:  Trip for DD 
 TDLG.m                1351.00:  Tot Depth Loggd 
 TFF .                      No:  Trip for Fail 
 TQAA.f-kp               27.00:  Torque Abs Avg 
 TQAN.f-kp               20.00:  Torque Abs Min 
 TQAX.f-kp               30.00:  Torque Abs Max 
 TRRT.°/30m               0.60:  Turn Rotating 
 MRT .                    EWER:  Maximum Recorded Temperature 
 TTMX.degC               83.00:  Max Tool Temp 
 VS01.                90511138:  Virtual Str1 SN 
 VS02.                90524876:  Virtual Str2 SN 
 VS03.                90524872:  Virtual Str3 SN 
 VS04.                90502750:  Virtual Str4 SN 
 VS05.                12330984:  Virtual Str5 SN 
 WBMN.klb                 0.00:  WOB Min 
 WOBA.klb                15.00:  WOB Avg 
 WOBX.klb                20.00:  WOB Max 
 YP  .lhf2               31.00:  Yield Point 
~Curve Information Block
#MNEM.UNIT                 API CODE     Curve Description
#---------               -----------    ---------------------------
 TIME.HHMMSS            00 000 000 000:  GT Time & Date
 GTDEPTH.m              00 000 000 000:  GT Depth
 GTPQH.psia             00 000 000 000:  GT HR Quartz Pressure
 GTTQ.degC              00 000 000 000:  GT Quartz Temperature
 GTTN.NONE              00 000 000 000:  GT Test Number
 GTET.sec               00 000 000 000:  GT Elapsed Test Time
 GTTVD.m                00 000 000 000:  GT True Vertical Depth
#Other Information
#
#WARRANTY: Halliburton will use its best efforts to furnish customers with 
#accurate information and interpretations that are part of, and incident to, the services 
#provided.  However, Halliburton cannot and does not warrant the accuracy 
#or correctness of such information and interpretations.  Under no circumstances should any 
#such information or interpretation be relied upon as the sole basis for any drilling, 
#completion, production, or financial decision or any procedure involving any risk to the 
#safety of any drilling venture, drilling rig or its crew or any other third party.  The 
#Customer has full responsibility for all drilling, completion and production operation.  
#Halliburton makes no representations or warranties, either expressed or 
#implied, including, but not limited to, the implied warranties of merchantability or fitness 
#for a particular purpose, with respect to the services rendered.  In no event will 
#Halliburton be liable for failure to obtain any particular results or for 
#any damages, including, but not limited to, indirect, special or consequential damages, 
#resulting from the use of any information or interpretation provided by Halliburton.
#
~A           TIME           GTDEPTH  GTPQH  GTTQ  GTTN  GTET   GTTVD  
# ...
   15:07:02.322.03-May-2020 4553.48 4124.32 81.14 2.00 321.90 2472.52
   15:07:02.522.03-May-2020 4553.48 4124.32 81.14 2.00 322.10 2472.52
   15:07:02.722.03-May-2020 4553.48 4124.16 81.14 2.00 322.30 2472.52
   15:07:02.921.03-May-2020 4553.48 4124.61 81.14 2.00 322.50 2472.52
   15:07:03.121.03-May-2020 4553.48 4124.24 81.14 2.00 322.69 2472.52
   15:07:03.321.03-May-2020 4553.48 4124.05 81.14 2.00 322.89 2472.52
   15:07:03.521.03-May-2020 4553.48 4124.05 81.14 2.00 323.09 2472.52
   15:07:03.721.03-May-2020 4553.48 4124.30 81.14 2.00 323.29 2472.52
   15:07:03.921.03-May-2020 4553.48 4124.00 81.13 2.00 323.49 2472.52
   15:07:04.121.03-May-2020 4553.48 4124.28 81.13 2.00 323.69 2472.52
   15:07:04.321.03-May-2020 4553.48 4124.25 81.13 2.00 323.89 2472.52
   15:07:04.521.03-May-2020 4553.48 4124.25 81.13 2.00 324.09 2472.52
   15:07:04.721.03-May-2020 4553.48 4124.18 81.13 2.00 324.29 2472.52
   15:07:04.921.03-May-2020 4553.48 4124.32 81.13 2.00 324.49 2472.52
   15:07:05.121.03-May-2020 4553.48 4124.19 81.13 2.00 324.69 2472.52
   15:07:05.321.03-May-2020 4553.48 4124.13 81.13 2.00 324.89 2472.52
   15:07:05.521.03-May-2020 4553.48 4124.13 81.13 2.00 325.09 2472.52
   15:07:05.721.03-May-2020 4553.48 4124.22 81.13 2.00 325.29 2472.52
   15:07:05.920.03-May-2020 4553.48 4124.26 81.13 2.00 325.49 2472.52
   15:07:06.120.03-May-2020 4553.48 4124.21 81.12 2.00 325.69 2472.52
   15:07:06.320.03-May-2020 4553.48 4124.67 81.12 2.00 325.89 2472.52
   15:07:06.520.03-May-2020 4553.48 4124.67 81.12 2.00 326.09 2472.52
   15:07:06.720.03-May-2020 4553.48 4124.38 81.12 2.00 326.29 2472.52
   15:07:06.920.03-May-2020 4553.48 4124.24 81.12 2.00 326.49 2472.52
   15:07:07.120.03-May-2020 4553.48 4124.24 81.12 2.00 326.69 2472.52
   15:07:07.320.03-May-2020 4553.48 4124.18 81.12 2.00 326.89 2472.52
   15:07:07.520.03-May-2020 4553.48 4124.18 81.12 2.00 327.09 2472.52
   15:07:07.720.03-May-2020 4553.48 4124.29 81.12 2.00 327.29 2472.52
   15:07:07.920.03-May-2020 4553.48 4124.19 81.12 2.00 327.49 2472.52
   15:07:08.120.03-May-2020 4553.48 4124.16 81.12 2.00 327.69 2472.52
   15:07:08.320.03-May-2020 4553.48 4124.11 81.11 2.00 327.89 2472.52
   15:07:08.520.03-May-2020 4553.48 4124.11 81.11 2.00 328.09 2472.52
   15:07:08.720.03-May-2020 4553.48 4124.14 81.11 2.00 328.29 2472.52
   15:07:08.920.03-May-2020 4553.48 4124.42 81.11 2.00 328.49 2472.52
   15:07:09.119.03-May-2020 4553.48 4124.37 81.11 2.00 328.69 2472.52
   15:07:09.319.03-May-2020 4553.48 4124.31 81.11 2.00 328.89 2472.52
   15:07:09.519.03-May-2020 4553.48 4124.31 81.11 2.00 329.09 2472.52
   15:07:09.719.03-May-2020 4553.48 4124.19 81.11 2.00 329.29 2472.52
   15:07:09.919.03-May-2020 4553.48 4123.94 81.11 2.00 329.49 2472.52
   15:07:10.119.03-May-2020 4553.48 4124.26 81.11 2.00 329.69 2472.52
   15:07:10.319.03-May-2020 4553.48 4124.26 81.10 2.00 329.89 2472.52
   15:07:10.519.03-May-2020 4553.48 4124.26 81.10 2.00 330.09 2472.52
   15:07:10.719.03-May-2020 4553.48 4124.76 81.10 2.00 330.29 2472.52
   15:07:10.919.03-May-2020 4553.48 4124.10 81.10 2.00 330.49 2472.52
   15:07:11.119.03-May-2020 4553.48 4123.99 81.10 2.00 330.69 2472.52
   15:07:11.319.03-May-2020 4553.48 4124.64 81.10 2.00 330.89 2472.52
   15:07:11.519.03-May-2020 4553.48 4124.64 81.10 2.00 331.09 2472.52
   15:07:11.719.03-May-2020 4553.48 4124.05 81.10 2.00 331.29 2472.52
   15:07:11.919.03-May-2020 4553.48 4124.14 81.10 2.00 331.49 2472.52
   15:07:12.118.03-May-2020 4553.48 4124.45 81.10 2.00 331.69 2472.52
   15:07:12.318.03-May-2020 4553.48 4124.12 81.10 2.00 331.89 2472.52
   15:07:12.518.03-May-2020 4553.48 4124.12 81.10 2.00 332.09 2472.52
   15:07:12.718.03-May-2020 4553.48 4124.27 81.09 2.00 332.29 2472.52
   15:07:12.918.03-May-2020 4553.48 4124.23 81.09 2.00 332.49 2472.52
   15:07:13.118.03-May-2020 4553.48 4124.13 81.09 2.00 332.69 2472.52
   15:07:13.318.03-May-2020 4553.48 4124.23 81.09 2.00 332.89 2472.52
   15:07:13.518.03-May-2020 4553.48 4124.23 81.09 2.00 333.09 2472.52
   15:07:13.718.03-May-2020 4553.48 4124.25 81.09 2.00 333.29 2472.52
   15:07:13.918.03-May-2020 4553.48 4124.25 81.09 2.00 333.49 2472.52
   15:07:14.118.03-May-2020 4553.48 4124.55 81.09 2.00 333.69 2472.52
   15:07:14.318.03-May-2020 4553.48 4124.43 81.09 2.00 333.89 2472.52
   15:07:14.518.03-May-2020 4553.48 4124.43 81.09 2.00 334.09 2472.52
   15:07:14.718.03-May-2020 4553.48 4124.33 81.08 2.00 334.29 2472.52
   15:07:14.918.03-May-2020 4553.48 4124.29 81.08 2.00 334.49 2472.52
   15:07:15.117.03-May-2020 4553.48 4124.27 81.08 2.00 334.69 2472.52
   15:07:15.317.03-May-2020 4553.48 4124.25 81.08 2.00 334.89 2472.52
   15:07:15.517.03-May-2020 4553.48 4124.25 81.08 2.00 335.09 2472.52
   15:07:15.717.03-May-2020 4553.48 4124.24 81.08 2.00 335.29 2472.52
   15:07:15.917.03-May-2020 4553.48 4124.16 81.08 2.00 335.49 2472.52
   15:07:16.117.03-May-2020 4553.48 4124.20 81.08 2.00 335.69 2472.52
   15:07:16.317.03-May-2020 4553.48 4124.08 81.08 2.00 335.89 2472.52
   15:07:16.517.03-May-2020 4553.48 4124.08 81.08 2.00 336.09 2472.52
   15:07:16.717.03-May-2020 4553.48 4124.34 81.07 2.00 336.29 2472.52
   15:07:16.917.03-May-2020 4553.48 4124.45 81.07 2.00 336.49 2472.52
   15:07:17.117.03-May-2020 4553.48 4123.96 81.07 2.00 336.69 2472.52
   15:07:17.317.03-May-2020 4553.48 4124.69 81.07 2.00 336.89 2472.52
   15:07:17.517.03-May-2020 4553.48 4124.69 81.07 2.00 337.09 2472.52
   15:07:17.717.03-May-2020 4553.48 4124.18 81.07 2.00 337.29 2472.52
   15:07:17.917.03-May-2020 4553.48 4124.76 81.07 2.00 337.49 2472.52
   15:07:18.117.03-May-2020 4553.48 4124.03 81.07 2.00 337.69 2472.52
   15:07:18.316.03-May-2020 4553.48 4124.35 81.07 2.00 337.89 2472.52
   15:07:18.516.03-May-2020 4553.48 4124.35 81.07 2.00 338.09 2472.52
   15:07:18.716.03-May-2020 4553.48 4124.81 81.07 2.00 338.29 2472.52
   15:07:18.916.03-May-2020 4553.48 4124.21 81.06 2.00 338.49 2472.52
   15:07:19.116.03-May-2020 4553.48 4124.07 81.06 2.00 338.69 2472.52
   15:07:19.316.03-May-2020 4553.48 4124.37 81.06 2.00 338.89 2472.52
   15:07:19.516.03-May-2020 4553.48 4124.37 81.06 2.00 339.09 2472.52
   15:07:19.716.03-May-2020 4553.48 4124.11 81.06 2.00 339.29 2472.52
   15:07:19.916.03-May-2020 4553.48 4124.40 81.06 2.00 339.49 2472.52
   15:07:20.116.03-May-2020 4553.48 4124.34 81.06 2.00 339.69 2472.52
   15:07:20.316.03-May-2020 4553.48 4124.19 81.06 2.00 339.89 2472.52
   15:07:20.516.03-May-2020 4553.48 4124.19 81.06 2.00 340.09 2472.52
   15:07:20.716.03-May-2020 4553.48 4124.27 81.06 2.00 340.29 2472.52
   15:07:20.916.03-May-2020 4553.48 4124.21 81.05 2.00 340.49 2472.52
   15:07:21.116.03-May-2020 4553.48 4124.20 81.05 2.00 340.69 2472.52
   15:07:21.315.03-May-2020 4553.48 4124.26 81.05 2.00 340.89 2472.52
   15:07:21.515.03-May-2020 4553.48 4124.26 81.05 2.00 341.09 2472.52
   15:07:21.715.03-May-2020 4553.48 4124.23 81.05 2.00 341.29 2472.52
   15:07:21.915.03-May-2020 4553.48 4124.74 81.05 2.00 341.49 2472.52
   15:07:22.115.03-May-2020 4553.48 4124.21 81.05 2.00 341.69 2472.52
   15:07:22.315.03-May-2020 4553.48 4124.30 81.05 2.00 341.89 2472.52
   15:07:22.515.03-May-2020 4553.48 4124.30 81.05 2.00 342.09 2472.52
   15:07:22.715.03-May-2020 4553.48 4124.56 81.05 2.00 342.29 2472.52
   15:07:22.915.03-May-2020 4553.48 4124.13 81.05 2.00 342.49 2472.52
   15:07:23.115.03-May-2020 4553.48 4124.27 81.04 2.00 342.69 2472.52
   15:07:23.315.03-May-2020 4553.48 4124.25 81.04 2.00 342.89 2472.52
   15:07:23.515.03-May-2020 4553.48 4124.25 81.04 2.00 343.09 2472.52
   15:07:23.715.03-May-2020 4553.48 4124.22 81.04 2.00 343.29 2472.52
   15:07:23.915.03-May-2020 4553.48 4124.18 81.04 2.00 343.49 2472.52
   15:07:24.115.03-May-2020 4553.48 4124.11 81.04 2.00 343.69 2472.52
   15:07:24.315.03-May-2020 4553.48 4124.14 81.04 2.00 343.89 2472.52
   15:07:24.514.03-May-2020 4553.48 4124.14 81.04 2.00 344.09 2472.52
   15:07:24.714.03-May-2020 4553.48 4124.45 81.04 2.00 344.29 2472.52
   15:07:24.914.03-May-2020 4553.48 4124.36 81.04 2.00 344.49 2472.52
   15:07:25.114.03-May-2020 4553.48 4124.56 81.03 2.00 344.69 2472.52
