~Version Information
 VERS.                  2.0:   CWLS log ASCII Standard -VERSION 2.0
 WRAP.                   NO:   One line per depth step
~Well Information Block
#MNEM.UNIT     VALUE/NAME     DESCRIPTION
#---------     -----------    ---------------------------
 STRT.S             10:50:58 04-May-20: START TIME 10:50:58 04-May-20
 STOP.S             10:57:32 04-May-20: STOP TIME  10:57:32 04-May-20
 STEP.S                   0.00: STEP TIME
 NULL.                 -999.25: NULL VALUE
 DFWT.                        :  DIST FWL TEXT
 DFST.                        :  DIST FSL TEXT
 DMF .             Drill Floor:  DRILL MEAS FROM
 STIM.      03.00.00 25-Mar-20:  START TIME
 DATE.      00.00.00 19-May-20:  END TIME
 SPUD.               27-Aug-20:  SPUD DATE
 NREF.                    Grid:  NORTH REFERENCE
 HPTY.       Minimum Curvature:  HOLE POS TYPE
 DMOD.             Drill Model:  DRILL MOD DESC
 SVYD.                  Survey:  SURVEY DESC
 ILTD.               Lithology:  INTERP LTH DESC
 FTOP.          Formation Tops:  FORM TOPS DESC
 SON .        AZ-XX-0906252240:  JOB NUMBER
 RIG .             West Chirag:  RIG NAME
 PDAT.          Mean Sea Level:  PERMANENT DATUM
 FLD .                     ACG:  FIELD NAME
 CTRY.              Azerbaijan:  COUNTRY NAME
 WELL.                     J23:  WELL NAME
 SRVC.          Turan Drilling:  CONTRACTOR
 COMP.     BP Exploration (Caspian Sea) Ltd.:  COMPANY
 WTYP.                Deviated:  WELL TYPE
 MDS .        Operator Entered:  MAG DATA SOURCE
 UWI .                     N/A:  UNIQUE WELL IDENTIFIER
 API .                     N/A:  API NUMBER
 BASE.              Azerbaijan:  LOGGING EQUIPMENT BASE LOCATION
 REGN.                   EESSA:  REGION
 PROV.                    Baku:  PROVINCE
 STAT.                    Baku:  STATE NAME
 MWDS.                     N/A:  MWD SHOP
 JOBN.        AZ-XX-0906252240:  JOB TICKET NUMB
 DOE .                     N/A:  DOE NUMBER
 DCON.         Sperry Drilling:  DIRECTNL CONTR
 UNIT.                     N/A:  LOGGING EQUIPMENT ID
 CNTY.                        :  COUNTY
 LOC .                        :  LOCATION
 LMF .             Drill Floor:  LOG MEASURED FROM
 TVDS.m                  43.00:  TVDSS CORRECTN
 LATI.deg                40.13:  LATITUDE
 LONG.deg                51.22:  LONGITUDE
 WHNS.m                   9.43:  WELL HEAD N/S
 WHEW.m                  -8.91:  WELL HEAD E/W
 UTMX.m              519005.06:  UTM X
 UTMY.m             4443793.85:  UTM Y
 DFWL.m                   0.00:  DISTANCE FWL
 DFSL.m                   0.00:  DISTANCE FSL
 SDEP.m                 363.00:  START DEPTH
 TDD .m                5150.01:  TOTAL DEPTH (DRILLER)
 VSDR.deg               179.88:  VERT SEC DIRECT
 GVFD.g                   1.00:  GRAVITY FIELD
 MFLD.nT              50295.00:  MAGNETIC FIELD
 MDIP.deg                59.56:  MAGNETIC DIP
 MDEC.deg                 6.45:  MAGNETIC DECL
 GRDC.deg                 0.14:  GRID CORRECTION
 AZTC.deg                 6.31:  AZM TOTAL CORR
 EPD .m                   0.00:  ELEVATION
 EGL .m                   0.00:  GROUND ELEVATION
 WDMS.m                 169.80:  WD ELEV
 APD .m                  43.00:  DEPTH ABOVE PD
 DEP .m                 354.17:  DEPTH
 AGAP.m                  43.00:  AIR GAP
 VSEW.m                  -8.91:  VERT SEC E/W
 VSNS.m                   9.43:  VERT SEC N/S
 EKB .m                   0.00:  KB ELEVATION
 EDF .m                  43.00:  DF ELEVATION
 TDL .m                1351.00:  TOTAL DEPTH (LOGGER)
 VSC .                       0:  VS TO CLOSURE
 MAGU.                 1850802:  MAGUTM CHECKSUM
~Parameter Information Block
#MNEM.UNIT       Value        Description
#---------     -----------    ---------------------------
 AV  .mps                 1.00:  Ann Velocity 
 AVMX.mps                 2.40:  Max Ann Veloc 
 AZIF.deg               148.96:  Azm, Final 
 BHAT.        Rotary Steerable:  BHA Type 
 BROT.°/30m               0.04:  Build Rotating 
 BS  .in                 12.25:  Bit Size 
 BSZ .in                 12.25:  Bit Size 
 BTPL.psig              814.00:  Bit Press Loss 
 TCS .hr                106.00:  Time Ciculation Ended 
 CV  .mps                 2.47:  Crit Velocity 
 CVMX.mps                 2.64:  Max Crit Veloc 
 DD1 .          Rashad Habibov:  Direct Drillr 1 
 DD2 .         Rasim Ibrahimov:  Direct Drillr 2 
 DDSV.                 iCruise:  DD Service 
 DEFF.%                 100.00:  % Det Eff 
 DLRX.°/30m               0.70:  Dogleg Rot Max 
 DLSO.°/30m               3.00:  Dogleg Oriented 
 DLSX.°/30m               4.55:  Dogleg Str Max 
 DRET.      08.08.32 02-May-20:  Drill End Time 
 DRST.      08.08.32 28-Apr-20:  Drill Start Tim 
 DTIM.hr                 60.00:  Time Drilling 
 EDEP.m                4761.01:  End Depth 
 ENG1.           Eldar Hajiyev:  Engineer 1 
 ENG2.        Marcelo Sandoval:  Engineer 2 
 ETIM.      23.23.07 05-May-20:  End Time 
 FLOI.gpm              1200.00:  Flow In 
 FLON.gpm               900.00:  Flow In Min 
 FLOS.cptm                0.00:  Fluid Loss 
 FLOX.gpm              1200.00:  Flow In Max 
 HFLO.                      No:  High Flow 
 HPRE.                      No:  High Pressure 
 HTEM.                      No:  High Temp 
 HYDO.m                   1.80:  Hydro Offset 
 IFIN.deg                68.17:  Inc, Final 
 IMAX.deg                74.61:  Inc Max 
 IMIN.deg                68.15:  Inc Min 
 IMND.m                4317.87:  Inc Min Depth 
 IMXD.m                4714.01:  Inc Max Depth 
 LETM.      08.08.32 02-May-20:  Log End Time 
 LOST.hr                     2:  Lost Rig Time 
 LSTM.      08.08.32 28-Apr-20:  Log Start Time 
 MDCL.ppm             41000.00:  Mud Chlorides 
 MDES.     Inversion Oil/Synthetic:  Mud Desc 
 DFD .sg                  1.58:  Mud Density 
 MDMN.sg                  1.58:  Dens Mud Min 
 MDMX.sg                  1.58:  Dens Mud Max 
 MOIL.                      71:  Run Mud Oil % 
 MOWR.                   71:29:  Run Mud OWR 
 MSND.                     0.1:  Run Mud Sand % 
 MSOL.                      23:  Run Mud Solids% 
 DFV .spqt               82.00:  Mud Viscosity 
 MWOD.in                  8.00:  MWD Tool OD 
 MWSI.                     Yes:  Serv Intrp, MWD 
 OTIM.hr                125.00:  Time Operating 
 PMAX.psia             6129.00:  Press Op, Max 
 PV  .cP                 32.00:  Mud PV 
 RUN .                     800:  Run Number 
 ROPA.m/hr               30.00:  ROP Avg 
 ROPN.m/hr               10.00:  ROP Min 
 ROPX.m/hr               40.00:  ROP Max 
 RPMA.rpm               140.00:  RPM Surface Avg 
 RPMN.rpm                80.00:  RPM Surface Min 
 RPMX.rpm               140.00:  RPM Surface Max 
 RRUN.                    L503:  Rig Run Number 
 RTIM.hr                  2.00:  Time Reaming 
 SAZI.deg               184.23:  Azm, Start 
 SDEP.m                3410.01:  Start Depth 
 SIDD.                      No:  Serv Intrp, DD 
 SINC.deg                68.29:  Inc, Start 
 SPPA.psig             6000.00:  SPP Avg 
 SPPN.psig             4000.00:  SPP Min 
 SPPX.psig             6100.00:  SPP Max 
 STIM.      08.08.32 28-Apr-20:  Start Time 
 SVCS.                 DD, MWD:  Services 
 SVER.                    9.20:  Sperry Version 
 TDAT.m                1351.00:  Tot Depth Attmp 
 TDDF.                      No:  Trip for DD 
 TDLG.m                1351.00:  Tot Depth Loggd 
 TFF .                      No:  Trip for Fail 
 TQAA.f-kp               27.00:  Torque Abs Avg 
 TQAN.f-kp               20.00:  Torque Abs Min 
 TQAX.f-kp               30.00:  Torque Abs Max 
 TRRT.°/30m               0.60:  Turn Rotating 
 MRT .                    EWER:  Maximum Recorded Temperature 
 TTMX.degC               83.00:  Max Tool Temp 
 VS01.                90511138:  Virtual Str1 SN 
 VS02.                90524876:  Virtual Str2 SN 
 VS03.                90524872:  Virtual Str3 SN 
 VS04.                90502750:  Virtual Str4 SN 
 VS05.                12330984:  Virtual Str5 SN 
 WBMN.klb                 0.00:  WOB Min 
 WOBA.klb                15.00:  WOB Avg 
 WOBX.klb                20.00:  WOB Max 
 YP  .lhf2               31.00:  Yield Point 
~Curve Information Block
#MNEM.UNIT                 API CODE     Curve Description
#---------               -----------    ---------------------------
 TIME.HHMMSS            00 000 000 000:  GT Time & Date
 GTDEPTH.m              00 000 000 000:  GT Depth
 GTPQH.psia             00 000 000 000:  GT HR Quartz Pressure
 GTTQ.degC              00 000 000 000:  GT Quartz Temperature
 GTTN.NONE              00 000 000 000:  GT Test Number
 GTET.sec               00 000 000 000:  GT Elapsed Test Time
 GTTVD.m                00 000 000 000:  GT True Vertical Depth
#Other Information
#
#WARRANTY: Halliburton will use its best efforts to furnish customers with 
#accurate information and interpretations that are part of, and incident to, the services 
#provided.  However, Halliburton cannot and does not warrant the accuracy 
#or correctness of such information and interpretations.  Under no circumstances should any 
#such information or interpretation be relied upon as the sole basis for any drilling, 
#completion, production, or financial decision or any procedure involving any risk to the 
#safety of any drilling venture, drilling rig or its crew or any other third party.  The 
#Customer has full responsibility for all drilling, completion and production operation.  
#Halliburton makes no representations or warranties, either expressed or 
#implied, including, but not limited to, the implied warranties of merchantability or fitness 
#for a particular purpose, with respect to the services rendered.  In no event will 
#Halliburton be liable for failure to obtain any particular results or for 
#any damages, including, but not limited to, indirect, special or consequential damages, 
#resulting from the use of any information or interpretation provided by Halliburton.
#
~A           TIME           GTDEPTH  GTPQH  GTTQ  GTTN  GTET   GTTVD  
# ...
   10:55:57.293.04-May-2020 4718.46 4250.70 81.24 6.00 299.05 2519.85
   10:55:57.493.04-May-2020 4718.46 4250.70 81.24 6.00 299.25 2519.85
   10:55:57.694.04-May-2020 4718.46 4250.65 81.24 6.00 299.45 2519.85
   10:55:57.894.04-May-2020 4718.46 4250.46 81.24 6.00 299.65 2519.85
   10:55:58.094.04-May-2020 4718.46 4250.49 81.24 6.00 299.85 2519.85
   10:55:58.294.04-May-2020 4718.46 4250.55 81.24 6.00 300.05 2519.85
   10:55:58.494.04-May-2020 4718.46 4250.55 81.24 6.00 300.25 2519.85
   10:55:58.694.04-May-2020 4718.46 4250.48 81.24 6.00 300.45 2519.85
   10:55:58.894.04-May-2020 4718.46 4250.34 81.23 6.00 300.65 2519.85
   10:55:59.094.04-May-2020 4718.46 4250.18 81.23 6.00 300.85 2519.85
   10:55:59.294.04-May-2020 4718.46 4250.28 81.23 6.00 301.05 2519.85
   10:55:59.494.04-May-2020 4718.46 4250.28 81.23 6.00 301.25 2519.85
   10:55:59.694.04-May-2020 4718.46 4250.68 81.23 6.00 301.45 2519.85
   10:55:59.894.04-May-2020 4718.46 4250.57 81.23 6.00 301.65 2519.85
   10:56:00.094.04-May-2020 4718.46 4250.67 81.23 6.00 301.85 2519.85
   10:56:00.294.04-May-2020 4718.46 4250.52 81.23 6.00 302.05 2519.85
   10:56:00.494.04-May-2020 4718.46 4250.43 81.23 6.00 302.25 2519.85
   10:56:00.694.04-May-2020 4718.46 4250.44 81.23 6.00 302.45 2519.85
   10:56:00.894.04-May-2020 4718.46 4250.83 81.23 6.00 302.65 2519.85
   10:56:01.094.04-May-2020 4718.46 4250.53 81.23 6.00 302.85 2519.85
   10:56:01.294.04-May-2020 4718.46 4250.51 81.22 6.00 303.05 2519.85
   10:56:01.494.04-May-2020 4718.46 4250.35 81.22 6.00 303.25 2519.85
   10:56:01.694.04-May-2020 4718.46 4250.33 81.22 6.00 303.45 2519.85
   10:56:01.894.04-May-2020 4718.46 4250.58 81.22 6.00 303.65 2519.85
   10:56:02.094.04-May-2020 4718.46 4250.17 81.22 6.00 303.85 2519.85
   10:56:02.294.04-May-2020 4718.46 4250.35 81.22 6.00 304.05 2519.85
   10:56:02.494.04-May-2020 4718.46 4250.35 81.22 6.00 304.25 2519.85
   10:56:02.694.04-May-2020 4718.46 4250.36 81.22 6.00 304.45 2519.85
   10:56:02.894.04-May-2020 4718.46 4250.40 81.22 6.00 304.65 2519.85
   10:56:03.094.04-May-2020 4718.46 4250.32 81.22 6.00 304.85 2519.85
   10:56:03.294.04-May-2020 4718.46 4250.35 81.22 6.00 305.05 2519.85
   10:56:03.494.04-May-2020 4718.46 4250.35 81.22 6.00 305.25 2519.85
   10:56:03.694.04-May-2020 4718.46 4250.28 81.22 6.00 305.45 2519.85
   10:56:03.894.04-May-2020 4718.46 4250.24 81.21 6.00 305.65 2519.85
   10:56:04.094.04-May-2020 4718.46 4250.37 81.21 6.00 305.85 2519.85
   10:56:04.295.04-May-2020 4718.46 4250.44 81.21 6.00 306.05 2519.85
   10:56:04.495.04-May-2020 4718.46 4250.44 81.21 6.00 306.25 2519.85
   10:56:04.695.04-May-2020 4718.46 4250.43 81.21 6.00 306.45 2519.85
   10:56:04.895.04-May-2020 4718.46 4250.54 81.21 6.00 306.65 2519.85
   10:56:05.095.04-May-2020 4718.46 4250.87 81.21 6.00 306.85 2519.85
   10:56:05.295.04-May-2020 4718.46 4250.41 81.21 6.00 307.05 2519.85
   10:56:05.495.04-May-2020 4718.46 4250.41 81.21 6.00 307.25 2519.85
   10:56:05.695.04-May-2020 4718.46 4250.98 81.21 6.00 307.45 2519.85
   10:56:05.895.04-May-2020 4718.46 4250.78 81.21 6.00 307.65 2519.85
   10:56:06.095.04-May-2020 4718.46 4250.81 81.21 6.00 307.85 2519.85
   10:56:06.295.04-May-2020 4718.46 4250.68 81.20 6.00 308.05 2519.85
   10:56:06.495.04-May-2020 4718.46 4250.68 81.20 6.00 308.25 2519.85
   10:56:06.695.04-May-2020 4718.46 4250.58 81.20 6.00 308.45 2519.85
   10:56:06.895.04-May-2020 4718.46 4250.61 81.20 6.00 308.65 2519.85
   10:56:07.095.04-May-2020 4718.46 4250.52 81.20 6.00 308.85 2519.85
   10:56:07.295.04-May-2020 4718.46 4250.40 81.20 6.00 309.05 2519.85
   10:56:07.495.04-May-2020 4718.46 4250.40 81.20 6.00 309.25 2519.85
   10:56:07.695.04-May-2020 4718.46 4250.77 81.20 6.00 309.45 2519.85
   10:56:07.895.04-May-2020 4718.46 4250.41 81.20 6.00 309.65 2519.85
   10:56:08.095.04-May-2020 4718.46 4250.43 81.20 6.00 309.85 2519.85
   10:56:08.295.04-May-2020 4718.46 4250.77 81.20 6.00 310.05 2519.85
   10:56:08.495.04-May-2020 4718.46 4250.77 81.20 6.00 310.25 2519.85
   10:56:08.695.04-May-2020 4718.46 4250.84 81.19 6.00 310.45 2519.85
   10:56:08.895.04-May-2020 4718.46 4250.58 81.19 6.00 310.65 2519.85
   10:56:09.095.04-May-2020 4718.46 4250.80 81.19 6.00 310.85 2519.85
   10:56:09.295.04-May-2020 4718.46 4250.62 81.19 6.00 311.05 2519.85
   10:56:09.495.04-May-2020 4718.46 4250.62 81.19 6.00 311.25 2519.85
   10:56:09.695.04-May-2020 4718.46 4250.50 81.19 6.00 311.45 2519.85
   10:56:09.895.04-May-2020 4718.46 4250.75 81.19 6.00 311.65 2519.85
   10:56:10.095.04-May-2020 4718.46 4250.69 81.19 6.00 311.85 2519.85
   10:56:10.295.04-May-2020 4718.46 4250.39 81.19 6.00 312.05 2519.85
   10:56:10.495.04-May-2020 4718.46 4250.39 81.19 6.00 312.25 2519.85
   10:56:10.696.04-May-2020 4718.46 4250.37 81.19 6.00 312.45 2519.85
   10:56:10.896.04-May-2020 4718.46 4250.53 81.19 6.00 312.65 2519.85
   10:56:11.096.04-May-2020 4718.46 4250.62 81.18 6.00 312.85 2519.85
   10:56:11.296.04-May-2020 4718.46 4250.68 81.18 6.00 313.05 2519.85
   10:56:11.496.04-May-2020 4718.46 4250.68 81.18 6.00 313.25 2519.85
   10:56:11.696.04-May-2020 4718.46 4250.53 81.18 6.00 313.45 2519.85
   10:56:11.896.04-May-2020 4718.46 4250.43 81.18 6.00 313.65 2519.85
   10:56:12.096.04-May-2020 4718.46 4250.48 81.18 6.00 313.85 2519.85
   10:56:12.296.04-May-2020 4718.46 4250.54 81.18 6.00 314.05 2519.85
   10:56:12.496.04-May-2020 4718.46 4250.54 81.18 6.00 314.25 2519.85
   10:56:12.696.04-May-2020 4718.46 4250.58 81.18 6.00 314.45 2519.85
   10:56:12.896.04-May-2020 4718.46 4250.53 81.18 6.00 314.65 2519.85
   10:56:13.096.04-May-2020 4718.46 4250.63 81.18 6.00 314.85 2519.85
   10:56:13.296.04-May-2020 4718.46 4251.07 81.18 6.00 315.05 2519.85
   10:56:13.496.04-May-2020 4718.46 4251.07 81.18 6.00 315.25 2519.85
   10:56:13.696.04-May-2020 4718.46 4250.69 81.17 6.00 315.45 2519.85
   10:56:13.896.04-May-2020 4718.46 4250.75 81.17 6.00 315.65 2519.85
   10:56:14.096.04-May-2020 4718.46 4250.68 81.17 6.00 315.85 2519.85
   10:56:14.296.04-May-2020 4718.46 4250.77 81.17 6.00 316.05 2519.85
   10:56:14.496.04-May-2020 4718.46 4250.77 81.17 6.00 316.25 2519.85
   10:56:14.696.04-May-2020 4718.46 4250.64 81.17 6.00 316.45 2519.85
   10:56:14.896.04-May-2020 4718.46 4250.63 81.17 6.00 316.65 2519.85
   10:56:15.096.04-May-2020 4718.46 4250.66 81.17 6.00 316.85 2519.85
   10:56:15.296.04-May-2020 4718.46 4250.62 81.17 6.00 317.05 2519.85
   10:56:15.496.04-May-2020 4718.46 4250.62 81.17 6.00 317.25 2519.85
   10:56:15.696.04-May-2020 4718.46 4250.54 81.17 6.00 317.45 2519.85
   10:56:15.896.04-May-2020 4718.46 4250.77 81.16 6.00 317.65 2519.85
   10:56:16.096.04-May-2020 4718.46 4250.52 81.16 6.00 317.85 2519.85
   10:56:16.296.04-May-2020 4718.46 4250.96 81.16 6.00 318.05 2519.85
   10:56:16.496.04-May-2020 4718.46 4250.96 81.16 6.00 318.25 2519.85
   10:56:16.696.04-May-2020 4718.46 4250.82 81.16 6.00 318.45 2519.85
   10:56:16.896.04-May-2020 4718.46 4250.69 81.16 6.00 318.65 2519.85
   10:56:17.097.04-May-2020 4718.46 4250.73 81.16 6.00 318.85 2519.85
   10:56:17.297.04-May-2020 4718.46 4250.69 81.16 6.00 319.05 2519.85
   10:56:17.497.04-May-2020 4718.46 4250.69 81.16 6.00 319.25 2519.85
   10:56:17.697.04-May-2020 4718.46 4250.80 81.16 6.00 319.45 2519.85
   10:56:17.897.04-May-2020 4718.46 4250.63 81.16 6.00 319.65 2519.85
   10:56:18.097.04-May-2020 4718.46 4250.71 81.16 6.00 319.85 2519.85
   10:56:18.297.04-May-2020 4718.46 4250.43 81.15 6.00 320.05 2519.85
   10:56:18.497.04-May-2020 4718.46 4250.43 81.15 6.00 320.25 2519.85
   10:56:18.697.04-May-2020 4718.46 4250.71 81.15 6.00 320.45 2519.85
   10:56:18.897.04-May-2020 4718.46 4250.59 81.15 6.00 320.65 2519.85
   10:56:19.097.04-May-2020 4718.46 4250.46 81.15 6.00 320.85 2519.85
   10:56:19.297.04-May-2020 4718.46 4250.67 81.15 6.00 321.05 2519.85
   10:56:19.497.04-May-2020 4718.46 4250.56 81.15 6.00 321.25 2519.85
   10:56:19.697.04-May-2020 4718.46 4250.58 81.15 6.00 321.45 2519.85
   10:56:19.897.04-May-2020 4718.46 4250.54 81.15 6.00 321.65 2519.85
   10:56:20.097.04-May-2020 4718.46 4250.49 81.15 6.00 321.85 2519.85
