~Version Information
 VERS.                  2.0:   CWLS log ASCII Standard -VERSION 2.0
 WRAP.                   NO:   One line per depth step
~Well Information Block
#MNEM.UNIT     VALUE/NAME     DESCRIPTION
#---------     -----------    ---------------------------
 STRT.S             01:13:00 04-May-20: START TIME 01:13:00 04-May-20
 STOP.S             01:19:30 04-May-20: STOP TIME  01:19:30 04-May-20
 STEP.S                   0.00: STEP TIME
 NULL.                 -999.25: NULL VALUE
 DFWT.                        :  DIST FWL TEXT
 DFST.                        :  DIST FSL TEXT
 DMF .             Drill Floor:  DRILL MEAS FROM
 STIM.      03.00.00 25-Mar-20:  START TIME
 DATE.      00.00.00 19-May-20:  END TIME
 SPUD.               27-Aug-20:  SPUD DATE
 NREF.                    Grid:  NORTH REFERENCE
 HPTY.       Minimum Curvature:  HOLE POS TYPE
 DMOD.             Drill Model:  DRILL MOD DESC
 SVYD.                  Survey:  SURVEY DESC
 ILTD.               Lithology:  INTERP LTH DESC
 FTOP.          Formation Tops:  FORM TOPS DESC
 SON .        AZ-XX-0906252240:  JOB NUMBER
 RIG .             West Chirag:  RIG NAME
 PDAT.          Mean Sea Level:  PERMANENT DATUM
 FLD .                     ACG:  FIELD NAME
 CTRY.              Azerbaijan:  COUNTRY NAME
 WELL.                     J23:  WELL NAME
 SRVC.          Turan Drilling:  CONTRACTOR
 COMP.     BP Exploration (Caspian Sea) Ltd.:  COMPANY
 WTYP.                Deviated:  WELL TYPE
 MDS .        Operator Entered:  MAG DATA SOURCE
 UWI .                     N/A:  UNIQUE WELL IDENTIFIER
 API .                     N/A:  API NUMBER
 BASE.              Azerbaijan:  LOGGING EQUIPMENT BASE LOCATION
 REGN.                   EESSA:  REGION
 PROV.                    Baku:  PROVINCE
 STAT.                    Baku:  STATE NAME
 MWDS.                     N/A:  MWD SHOP
 JOBN.        AZ-XX-0906252240:  JOB TICKET NUMB
 DOE .                     N/A:  DOE NUMBER
 DCON.         Sperry Drilling:  DIRECTNL CONTR
 UNIT.                     N/A:  LOGGING EQUIPMENT ID
 CNTY.                        :  COUNTY
 LOC .                        :  LOCATION
 LMF .             Drill Floor:  LOG MEASURED FROM
 TVDS.m                  43.00:  TVDSS CORRECTN
 LATI.deg                40.13:  LATITUDE
 LONG.deg                51.22:  LONGITUDE
 WHNS.m                   9.43:  WELL HEAD N/S
 WHEW.m                  -8.91:  WELL HEAD E/W
 UTMX.m              519005.06:  UTM X
 UTMY.m             4443793.85:  UTM Y
 DFWL.m                   0.00:  DISTANCE FWL
 DFSL.m                   0.00:  DISTANCE FSL
 SDEP.m                 363.00:  START DEPTH
 TDD .m                5150.01:  TOTAL DEPTH (DRILLER)
 VSDR.deg               179.88:  VERT SEC DIRECT
 GVFD.g                   1.00:  GRAVITY FIELD
 MFLD.nT              50295.00:  MAGNETIC FIELD
 MDIP.deg                59.56:  MAGNETIC DIP
 MDEC.deg                 6.45:  MAGNETIC DECL
 GRDC.deg                 0.14:  GRID CORRECTION
 AZTC.deg                 6.31:  AZM TOTAL CORR
 EPD .m                   0.00:  ELEVATION
 EGL .m                   0.00:  GROUND ELEVATION
 WDMS.m                 169.80:  WD ELEV
 APD .m                  43.00:  DEPTH ABOVE PD
 DEP .m                 354.17:  DEPTH
 AGAP.m                  43.00:  AIR GAP
 VSEW.m                  -8.91:  VERT SEC E/W
 VSNS.m                   9.43:  VERT SEC N/S
 EKB .m                   0.00:  KB ELEVATION
 EDF .m                  43.00:  DF ELEVATION
 TDL .m                1351.00:  TOTAL DEPTH (LOGGER)
 VSC .                       0:  VS TO CLOSURE
 MAGU.                 1850802:  MAGUTM CHECKSUM
~Parameter Information Block
#MNEM.UNIT       Value        Description
#---------     -----------    ---------------------------
 AV  .mps                 1.00:  Ann Velocity 
 AVMX.mps                 2.40:  Max Ann Veloc 
 AZIF.deg               148.96:  Azm, Final 
 BHAT.        Rotary Steerable:  BHA Type 
 BROT.°/30m               0.04:  Build Rotating 
 BS  .in                 12.25:  Bit Size 
 BSZ .in                 12.25:  Bit Size 
 BTPL.psig              814.00:  Bit Press Loss 
 TCS .hr                106.00:  Time Ciculation Ended 
 CV  .mps                 2.47:  Crit Velocity 
 CVMX.mps                 2.64:  Max Crit Veloc 
 DD1 .          Rashad Habibov:  Direct Drillr 1 
 DD2 .         Rasim Ibrahimov:  Direct Drillr 2 
 DDSV.                 iCruise:  DD Service 
 DEFF.%                 100.00:  % Det Eff 
 DLRX.°/30m               0.70:  Dogleg Rot Max 
 DLSO.°/30m               3.00:  Dogleg Oriented 
 DLSX.°/30m               4.55:  Dogleg Str Max 
 DRET.      08.08.32 02-May-20:  Drill End Time 
 DRST.      08.08.32 28-Apr-20:  Drill Start Tim 
 DTIM.hr                 60.00:  Time Drilling 
 EDEP.m                4761.01:  End Depth 
 ENG1.           Eldar Hajiyev:  Engineer 1 
 ENG2.        Marcelo Sandoval:  Engineer 2 
 ETIM.      23.23.07 05-May-20:  End Time 
 FLOI.gpm              1200.00:  Flow In 
 FLON.gpm               900.00:  Flow In Min 
 FLOS.cptm                0.00:  Fluid Loss 
 FLOX.gpm              1200.00:  Flow In Max 
 HFLO.                      No:  High Flow 
 HPRE.                      No:  High Pressure 
 HTEM.                      No:  High Temp 
 HYDO.m                   1.80:  Hydro Offset 
 IFIN.deg                68.17:  Inc, Final 
 IMAX.deg                74.61:  Inc Max 
 IMIN.deg                68.15:  Inc Min 
 IMND.m                4317.87:  Inc Min Depth 
 IMXD.m                4714.01:  Inc Max Depth 
 LETM.      08.08.32 02-May-20:  Log End Time 
 LOST.hr                     2:  Lost Rig Time 
 LSTM.      08.08.32 28-Apr-20:  Log Start Time 
 MDCL.ppm             41000.00:  Mud Chlorides 
 MDES.     Inversion Oil/Synthetic:  Mud Desc 
 DFD .sg                  1.58:  Mud Density 
 MDMN.sg                  1.58:  Dens Mud Min 
 MDMX.sg                  1.58:  Dens Mud Max 
 MOIL.                      71:  Run Mud Oil % 
 MOWR.                   71:29:  Run Mud OWR 
 MSND.                     0.1:  Run Mud Sand % 
 MSOL.                      23:  Run Mud Solids% 
 DFV .spqt               82.00:  Mud Viscosity 
 MWOD.in                  8.00:  MWD Tool OD 
 MWSI.                     Yes:  Serv Intrp, MWD 
 OTIM.hr                125.00:  Time Operating 
 PMAX.psia             6129.00:  Press Op, Max 
 PV  .cP                 32.00:  Mud PV 
 RUN .                     800:  Run Number 
 ROPA.m/hr               30.00:  ROP Avg 
 ROPN.m/hr               10.00:  ROP Min 
 ROPX.m/hr               40.00:  ROP Max 
 RPMA.rpm               140.00:  RPM Surface Avg 
 RPMN.rpm                80.00:  RPM Surface Min 
 RPMX.rpm               140.00:  RPM Surface Max 
 RRUN.                    L503:  Rig Run Number 
 RTIM.hr                  2.00:  Time Reaming 
 SAZI.deg               184.23:  Azm, Start 
 SDEP.m                3410.01:  Start Depth 
 SIDD.                      No:  Serv Intrp, DD 
 SINC.deg                68.29:  Inc, Start 
 SPPA.psig             6000.00:  SPP Avg 
 SPPN.psig             4000.00:  SPP Min 
 SPPX.psig             6100.00:  SPP Max 
 STIM.      08.08.32 28-Apr-20:  Start Time 
 SVCS.                 DD, MWD:  Services 
 SVER.                    9.20:  Sperry Version 
 TDAT.m                1351.00:  Tot Depth Attmp 
 TDDF.                      No:  Trip for DD 
 TDLG.m                1351.00:  Tot Depth Loggd 
 TFF .                      No:  Trip for Fail 
 TQAA.f-kp               27.00:  Torque Abs Avg 
 TQAN.f-kp               20.00:  Torque Abs Min 
 TQAX.f-kp               30.00:  Torque Abs Max 
 TRRT.°/30m               0.60:  Turn Rotating 
 MRT .                    EWER:  Maximum Recorded Temperature 
 TTMX.degC               83.00:  Max Tool Temp 
 VS01.                90511138:  Virtual Str1 SN 
 VS02.                90524876:  Virtual Str2 SN 
 VS03.                90524872:  Virtual Str3 SN 
 VS04.                90502750:  Virtual Str4 SN 
 VS05.                12330984:  Virtual Str5 SN 
 WBMN.klb                 0.00:  WOB Min 
 WOBA.klb                15.00:  WOB Avg 
 WOBX.klb                20.00:  WOB Max 
 YP  .lhf2               31.00:  Yield Point 
~Curve Information Block
#MNEM.UNIT                 API CODE     Curve Description
#---------               -----------    ---------------------------
 TIME.HHMMSS            00 000 000 000:  GT Time & Date
 GTDEPTH.m              00 000 000 000:  GT Depth
 GTPQH.psia             00 000 000 000:  GT HR Quartz Pressure
 GTTQ.degC              00 000 000 000:  GT Quartz Temperature
 GTTN.NONE              00 000 000 000:  GT Test Number
 GTET.sec               00 000 000 000:  GT Elapsed Test Time
 GTTVD.m                00 000 000 000:  GT True Vertical Depth
#Other Information
#
#WARRANTY: Halliburton will use its best efforts to furnish customers with 
#accurate information and interpretations that are part of, and incident to, the services 
#provided.  However, Halliburton cannot and does not warrant the accuracy 
#or correctness of such information and interpretations.  Under no circumstances should any 
#such information or interpretation be relied upon as the sole basis for any drilling, 
#completion, production, or financial decision or any procedure involving any risk to the 
#safety of any drilling venture, drilling rig or its crew or any other third party.  The 
#Customer has full responsibility for all drilling, completion and production operation.  
#Halliburton makes no representations or warranties, either expressed or 
#implied, including, but not limited to, the implied warranties of merchantability or fitness 
#for a particular purpose, with respect to the services rendered.  In no event will 
#Halliburton be liable for failure to obtain any particular results or for 
#any damages, including, but not limited to, indirect, special or consequential damages, 
#resulting from the use of any information or interpretation provided by Halliburton.
#
~A           TIME           GTDEPTH  GTPQH  GTTQ  GTTN  GTET   GTTVD  
# ...
   01:13:23.531.04-May-2020 4660.50 5806.69 76.54 5.00  23.00 2503.99
   01:13:23.731.04-May-2020 4660.50 5806.69 76.54 5.00  23.20 2503.99
   01:13:23.931.04-May-2020 4660.50 5809.34 76.54 5.00  23.40 2503.99
   01:13:24.131.04-May-2020 4660.50 5805.47 76.53 5.00  23.60 2503.99
   01:13:24.331.04-May-2020 4660.50 5806.65 76.53 5.00  23.80 2503.99
   01:13:24.531.04-May-2020 4660.50 5808.03 76.53 5.00  24.00 2503.99
   01:13:24.731.04-May-2020 4660.50 5808.03 76.53 5.00  24.20 2503.99
   01:13:24.932.04-May-2020 4660.50 5806.44 76.53 5.00  24.40 2503.99
   01:13:25.132.04-May-2020 4660.50 5806.99 76.53 5.00  24.60 2503.99
   01:13:25.332.04-May-2020 4660.50 5807.57 76.53 5.00  24.80 2503.99
   01:13:25.532.04-May-2020 4660.50 5806.62 76.53 5.00  25.00 2503.99
   01:13:25.732.04-May-2020 4660.50 5806.62 76.53 5.00  25.20 2503.99
   01:13:25.932.04-May-2020 4660.50 5807.45 76.53 5.00  25.40 2503.99
   01:13:26.132.04-May-2020 4660.50 5808.02 76.53 5.00  25.60 2503.99
   01:13:26.332.04-May-2020 4660.50 5807.54 76.53 5.00  25.80 2503.99
   01:13:26.532.04-May-2020 4660.50 5807.73 76.53 5.00  26.00 2503.99
   01:13:26.732.04-May-2020 4660.50 5807.73 76.53 5.00  26.20 2503.99
   01:13:26.932.04-May-2020 4660.50 5809.27 76.53 5.00  26.40 2503.99
   01:13:27.132.04-May-2020 4660.50 5808.64 76.53 5.00  26.60 2503.99
   01:13:27.332.04-May-2020 4660.50 5808.37 76.52 5.00  26.80 2503.99
   01:13:27.532.04-May-2020 4660.50 5815.46 76.52 5.00  27.00 2503.99
   01:13:27.732.04-May-2020 4660.50 5815.46 76.52 5.00  27.20 2503.99
   01:13:27.932.04-May-2020 4660.50 5809.87 76.52 5.00  27.40 2503.99
   01:13:28.132.04-May-2020 4660.50 5809.91 76.52 5.00  27.60 2503.99
   01:13:28.332.04-May-2020 4660.50 5809.47 76.52 5.00  27.80 2503.99
   01:13:28.532.04-May-2020 4660.50 5810.00 76.52 5.00  28.00 2503.99
   01:13:28.732.04-May-2020 4660.50 5810.00 76.52 5.00  28.20 2503.99
   01:13:28.932.04-May-2020 4660.50 5809.32 76.52 5.00  28.40 2503.99
   01:13:29.132.04-May-2020 4660.50 5808.99 76.52 5.00  28.60 2503.99
   01:13:29.332.04-May-2020 4660.50 5809.38 76.52 5.00  28.80 2503.99
   01:13:29.532.04-May-2020 4660.50 5809.52 76.52 5.00  29.00 2503.99
   01:13:29.732.04-May-2020 4660.50 5809.52 76.52 5.00  29.20 2503.99
   01:13:29.932.04-May-2020 4660.50 5810.31 76.52 5.00  29.40 2503.99
   01:13:30.132.04-May-2020 4660.50 5811.89 76.52 5.00  29.60 2503.99
   01:13:30.332.04-May-2020 4660.50 5815.65 76.52 5.00  29.80 2503.99
   01:13:30.532.04-May-2020 4660.50 5811.28 76.51 5.00  30.00 2503.99
   01:13:30.732.04-May-2020 4660.50 5811.28 76.51 5.00  30.20 2503.99
   01:13:30.932.04-May-2020 4660.50 5810.73 76.51 5.00  30.40 2503.99
   01:13:31.132.04-May-2020 4660.50 5812.75 76.51 5.00  30.60 2503.99
   01:13:31.332.04-May-2020 4660.50 5811.62 76.51 5.00  30.80 2503.99
   01:13:31.532.04-May-2020 4660.50 5811.41 76.51 5.00  31.00 2503.99
   01:13:31.732.04-May-2020 4660.50 5811.41 76.51 5.00  31.20 2503.99
   01:13:31.932.04-May-2020 4660.50 5815.27 76.51 5.00  31.40 2503.99
   01:13:32.132.04-May-2020 4660.50 5809.97 76.51 5.00  31.60 2503.99
   01:13:32.332.04-May-2020 4660.50 5809.60 76.51 5.00  31.80 2503.99
   01:13:32.532.04-May-2020 4660.50 5813.90 76.51 5.00  32.00 2503.99
   01:13:32.732.04-May-2020 4660.50 5813.90 76.51 5.00  32.20 2503.99
   01:13:32.932.04-May-2020 4660.50 5809.69 76.51 5.00  32.40 2503.99
   01:13:33.132.04-May-2020 4660.50 5809.59 76.51 5.00  32.60 2503.99
   01:13:33.332.04-May-2020 4660.50 5812.72 76.51 5.00  32.80 2503.99
   01:13:33.532.04-May-2020 4660.50 5813.81 76.51 5.00  33.00 2503.99
   01:13:33.732.04-May-2020 4660.50 5813.81 76.51 5.00  33.20 2503.99
   01:13:33.932.04-May-2020 4660.50 5810.30 76.50 5.00  33.40 2503.99
   01:13:34.132.04-May-2020 4660.50 5809.80 76.50 5.00  33.60 2503.99
   01:13:34.332.04-May-2020 4660.50 5811.64 76.50 5.00  33.80 2503.99
   01:13:34.532.04-May-2020 4660.50 5809.62 76.50 5.00  34.00 2503.99
   01:13:34.732.04-May-2020 4660.50 5809.62 76.50 5.00  34.20 2503.99
   01:13:34.932.04-May-2020 4660.50 5810.15 76.50 5.00  34.40 2503.99
   01:13:35.132.04-May-2020 4660.50 5780.21 76.50 5.00  34.60 2503.99
   01:13:35.332.04-May-2020 4660.50 5709.36 76.50 5.00  34.80 2503.99
   01:13:35.532.04-May-2020 4660.50 5678.00 76.50 5.00  35.00 2503.99
   01:13:35.732.04-May-2020 4660.50 5678.00 76.50 5.00  35.20 2503.99
   01:13:35.933.04-May-2020 4660.50 5623.54 76.50 5.00  35.40 2503.99
   01:13:36.133.04-May-2020 4660.50 5577.41 76.50 5.00  35.60 2503.99
   01:13:36.333.04-May-2020 4660.50 5545.50 76.50 5.00  35.80 2503.99
   01:13:36.533.04-May-2020 4660.50 5499.71 76.50 5.00  36.00 2503.99
   01:13:36.733.04-May-2020 4660.50 5499.71 76.50 5.00  36.20 2503.99
   01:13:36.933.04-May-2020 4660.50 5460.95 76.49 5.00  36.40 2503.99
   01:13:37.133.04-May-2020 4660.50 5555.29 76.49 5.00  36.60 2503.99
   01:13:37.333.04-May-2020 4660.50 5849.33 76.49 5.00  36.80 2503.99
   01:13:37.533.04-May-2020 4660.50 5923.13 76.49 5.00  37.00 2503.99
   01:13:37.733.04-May-2020 4660.50 5923.13 76.49 5.00  37.20 2503.99
   01:13:37.933.04-May-2020 4660.50 5905.26 76.49 5.00  37.40 2503.99
   01:13:38.133.04-May-2020 4660.50 5897.14 76.49 5.00  37.60 2503.99
   01:13:38.333.04-May-2020 4660.50 5889.90 76.49 5.00  37.80 2503.99
   01:13:38.533.04-May-2020 4660.50 5887.04 76.49 5.00  38.00 2503.99
   01:13:38.733.04-May-2020 4660.50 5887.04 76.49 5.00  38.20 2503.99
   01:13:38.933.04-May-2020 4660.50 5895.44 76.49 5.00  38.40 2503.99
   01:13:39.133.04-May-2020 4660.50 5888.04 76.49 5.00  38.60 2503.99
   01:13:39.333.04-May-2020 4660.50 5873.83 76.49 5.00  38.80 2503.99
   01:13:39.533.04-May-2020 4660.50 5865.41 76.49 5.00  39.00 2503.99
   01:13:39.733.04-May-2020 4660.50 5865.41 76.49 5.00  39.20 2503.99
   01:13:39.933.04-May-2020 4660.50 5872.34 76.48 5.00  39.40 2503.99
   01:13:40.133.04-May-2020 4660.50 5865.24 76.48 5.00  39.60 2503.99
   01:13:40.333.04-May-2020 4660.50 5860.66 76.48 5.00  39.80 2503.99
   01:13:40.533.04-May-2020 4660.50 5860.73 76.48 5.00  40.00 2503.99
   01:13:40.733.04-May-2020 4660.50 5860.73 76.48 5.00  40.20 2503.99
   01:13:40.933.04-May-2020 4660.50 5867.30 76.48 5.00  40.40 2503.99
   01:13:41.133.04-May-2020 4660.50 5864.06 76.48 5.00  40.60 2503.99
   01:13:41.333.04-May-2020 4660.50 5863.62 76.48 5.00  40.80 2503.99
   01:13:41.533.04-May-2020 4660.50 5864.11 76.48 5.00  41.00 2503.99
   01:13:41.733.04-May-2020 4660.50 5864.11 76.48 5.00  41.20 2503.99
   01:13:41.933.04-May-2020 4660.50 5867.10 76.48 5.00  41.40 2503.99
   01:13:42.133.04-May-2020 4660.50 5868.85 76.48 5.00  41.60 2503.99
   01:13:42.333.04-May-2020 4660.50 5870.29 76.48 5.00  41.80 2503.99
   01:13:42.533.04-May-2020 4660.50 5870.11 76.48 5.00  42.00 2503.99
   01:13:42.733.04-May-2020 4660.50 5870.11 76.48 5.00  42.20 2503.99
   01:13:42.933.04-May-2020 4660.50 5870.67 76.48 5.00  42.40 2503.99
   01:13:43.133.04-May-2020 4660.50 5873.88 76.48 5.00  42.60 2503.99
   01:13:43.333.04-May-2020 4660.50 5871.14 76.47 5.00  42.80 2503.99
   01:13:43.533.04-May-2020 4660.50 5871.83 76.47 5.00  43.00 2503.99
   01:13:43.733.04-May-2020 4660.50 5871.83 76.47 5.00  43.20 2503.99
   01:13:43.933.04-May-2020 4660.50 5872.70 76.47 5.00  43.40 2503.99
   01:13:44.133.04-May-2020 4660.50 5870.39 76.47 5.00  43.60 2503.99
   01:13:44.333.04-May-2020 4660.50 5868.31 76.47 5.00  43.80 2503.99
   01:13:44.533.04-May-2020 4660.50 5868.68 76.47 5.00  44.00 2503.99
   01:13:44.733.04-May-2020 4660.50 5868.68 76.47 5.00  44.20 2503.99
   01:13:44.933.04-May-2020 4660.50 5869.53 76.47 5.00  44.40 2503.99
   01:13:45.133.04-May-2020 4660.50 5869.59 76.47 5.00  44.60 2503.99
   01:13:45.333.04-May-2020 4660.50 5869.54 76.47 5.00  44.80 2503.99
   01:13:45.533.04-May-2020 4660.50 5866.31 76.47 5.00  45.00 2503.99
   01:13:45.733.04-May-2020 4660.50 5866.31 76.47 5.00  45.20 2503.99
   01:13:45.933.04-May-2020 4660.50 5865.35 76.47 5.00  45.40 2503.99
   01:13:46.133.04-May-2020 4660.50 5862.21 76.47 5.00  45.60 2503.99
   01:13:46.333.04-May-2020 4660.50 5861.67 76.47 5.00  45.80 2503.99
