~Version Information
 VERS.                  2.0:   CWLS log ASCII Standard -VERSION 2.0
 WRAP.                   NO:   One line per depth step
~Well Information Block
#MNEM.UNIT     VALUE/NAME     DESCRIPTION
#---------     -----------    ---------------------------
 STRT.S             19:38:29 03-May-20: START TIME 19:38:29 03-May-20
 STOP.S             19:45:06 03-May-20: STOP TIME  19:45:06 03-May-20
 STEP.S                   0.00: STEP TIME
 NULL.                 -999.25: NULL VALUE
 DFWT.                        :  DIST FWL TEXT
 DFST.                        :  DIST FSL TEXT
 DMF .             Drill Floor:  DRILL MEAS FROM
 STIM.      03.00.00 25-Mar-20:  START TIME
 DATE.      00.00.00 19-May-20:  END TIME
 SPUD.               27-Aug-20:  SPUD DATE
 NREF.                    Grid:  NORTH REFERENCE
 HPTY.       Minimum Curvature:  HOLE POS TYPE
 DMOD.             Drill Model:  DRILL MOD DESC
 SVYD.                  Survey:  SURVEY DESC
 ILTD.               Lithology:  INTERP LTH DESC
 FTOP.          Formation Tops:  FORM TOPS DESC
 SON .        AZ-XX-0906252240:  JOB NUMBER
 RIG .             West Chirag:  RIG NAME
 PDAT.          Mean Sea Level:  PERMANENT DATUM
 FLD .                     ACG:  FIELD NAME
 CTRY.              Azerbaijan:  COUNTRY NAME
 WELL.                     J23:  WELL NAME
 SRVC.          Turan Drilling:  CONTRACTOR
 COMP.     BP Exploration (Caspian Sea) Ltd.:  COMPANY
 WTYP.                Deviated:  WELL TYPE
 MDS .        Operator Entered:  MAG DATA SOURCE
 UWI .                     N/A:  UNIQUE WELL IDENTIFIER
 API .                     N/A:  API NUMBER
 BASE.              Azerbaijan:  LOGGING EQUIPMENT BASE LOCATION
 REGN.                   EESSA:  REGION
 PROV.                    Baku:  PROVINCE
 STAT.                    Baku:  STATE NAME
 MWDS.                     N/A:  MWD SHOP
 JOBN.        AZ-XX-0906252240:  JOB TICKET NUMB
 DOE .                     N/A:  DOE NUMBER
 DCON.         Sperry Drilling:  DIRECTNL CONTR
 UNIT.                     N/A:  LOGGING EQUIPMENT ID
 CNTY.                        :  COUNTY
 LOC .                        :  LOCATION
 LMF .             Drill Floor:  LOG MEASURED FROM
 TVDS.m                  43.00:  TVDSS CORRECTN
 LATI.deg                40.13:  LATITUDE
 LONG.deg                51.22:  LONGITUDE
 WHNS.m                   9.43:  WELL HEAD N/S
 WHEW.m                  -8.91:  WELL HEAD E/W
 UTMX.m              519005.06:  UTM X
 UTMY.m             4443793.85:  UTM Y
 DFWL.m                   0.00:  DISTANCE FWL
 DFSL.m                   0.00:  DISTANCE FSL
 SDEP.m                 363.00:  START DEPTH
 TDD .m                5150.01:  TOTAL DEPTH (DRILLER)
 VSDR.deg               179.88:  VERT SEC DIRECT
 GVFD.g                   1.00:  GRAVITY FIELD
 MFLD.nT              50295.00:  MAGNETIC FIELD
 MDIP.deg                59.56:  MAGNETIC DIP
 MDEC.deg                 6.45:  MAGNETIC DECL
 GRDC.deg                 0.14:  GRID CORRECTION
 AZTC.deg                 6.31:  AZM TOTAL CORR
 EPD .m                   0.00:  ELEVATION
 EGL .m                   0.00:  GROUND ELEVATION
 WDMS.m                 169.80:  WD ELEV
 APD .m                  43.00:  DEPTH ABOVE PD
 DEP .m                 354.17:  DEPTH
 AGAP.m                  43.00:  AIR GAP
 VSEW.m                  -8.91:  VERT SEC E/W
 VSNS.m                   9.43:  VERT SEC N/S
 EKB .m                   0.00:  KB ELEVATION
 EDF .m                  43.00:  DF ELEVATION
 TDL .m                1351.00:  TOTAL DEPTH (LOGGER)
 VSC .                       0:  VS TO CLOSURE
 MAGU.                 1850802:  MAGUTM CHECKSUM
~Parameter Information Block
#MNEM.UNIT       Value        Description
#---------     -----------    ---------------------------
 AV  .mps                 1.00:  Ann Velocity 
 AVMX.mps                 2.40:  Max Ann Veloc 
 AZIF.deg               148.96:  Azm, Final 
 BHAT.        Rotary Steerable:  BHA Type 
 BROT.°/30m               0.04:  Build Rotating 
 BS  .in                 12.25:  Bit Size 
 BSZ .in                 12.25:  Bit Size 
 BTPL.psig              814.00:  Bit Press Loss 
 TCS .hr                106.00:  Time Ciculation Ended 
 CV  .mps                 2.47:  Crit Velocity 
 CVMX.mps                 2.64:  Max Crit Veloc 
 DD1 .          Rashad Habibov:  Direct Drillr 1 
 DD2 .         Rasim Ibrahimov:  Direct Drillr 2 
 DDSV.                 iCruise:  DD Service 
 DEFF.%                 100.00:  % Det Eff 
 DLRX.°/30m               0.70:  Dogleg Rot Max 
 DLSO.°/30m               3.00:  Dogleg Oriented 
 DLSX.°/30m               4.55:  Dogleg Str Max 
 DRET.      08.08.32 02-May-20:  Drill End Time 
 DRST.      08.08.32 28-Apr-20:  Drill Start Tim 
 DTIM.hr                 60.00:  Time Drilling 
 EDEP.m                4761.01:  End Depth 
 ENG1.           Eldar Hajiyev:  Engineer 1 
 ENG2.        Marcelo Sandoval:  Engineer 2 
 ETIM.      23.23.07 05-May-20:  End Time 
 FLOI.gpm              1200.00:  Flow In 
 FLON.gpm               900.00:  Flow In Min 
 FLOS.cptm                0.00:  Fluid Loss 
 FLOX.gpm              1200.00:  Flow In Max 
 HFLO.                      No:  High Flow 
 HPRE.                      No:  High Pressure 
 HTEM.                      No:  High Temp 
 HYDO.m                   1.80:  Hydro Offset 
 IFIN.deg                68.17:  Inc, Final 
 IMAX.deg                74.61:  Inc Max 
 IMIN.deg                68.15:  Inc Min 
 IMND.m                4317.87:  Inc Min Depth 
 IMXD.m                4714.01:  Inc Max Depth 
 LETM.      08.08.32 02-May-20:  Log End Time 
 LOST.hr                     2:  Lost Rig Time 
 LSTM.      08.08.32 28-Apr-20:  Log Start Time 
 MDCL.ppm             41000.00:  Mud Chlorides 
 MDES.     Inversion Oil/Synthetic:  Mud Desc 
 DFD .sg                  1.58:  Mud Density 
 MDMN.sg                  1.58:  Dens Mud Min 
 MDMX.sg                  1.58:  Dens Mud Max 
 MOIL.                      71:  Run Mud Oil % 
 MOWR.                   71:29:  Run Mud OWR 
 MSND.                     0.1:  Run Mud Sand % 
 MSOL.                      23:  Run Mud Solids% 
 DFV .spqt               82.00:  Mud Viscosity 
 MWOD.in                  8.00:  MWD Tool OD 
 MWSI.                     Yes:  Serv Intrp, MWD 
 OTIM.hr                125.00:  Time Operating 
 PMAX.psia             6129.00:  Press Op, Max 
 PV  .cP                 32.00:  Mud PV 
 RUN .                     800:  Run Number 
 ROPA.m/hr               30.00:  ROP Avg 
 ROPN.m/hr               10.00:  ROP Min 
 ROPX.m/hr               40.00:  ROP Max 
 RPMA.rpm               140.00:  RPM Surface Avg 
 RPMN.rpm                80.00:  RPM Surface Min 
 RPMX.rpm               140.00:  RPM Surface Max 
 RRUN.                    L503:  Rig Run Number 
 RTIM.hr                  2.00:  Time Reaming 
 SAZI.deg               184.23:  Azm, Start 
 SDEP.m                3410.01:  Start Depth 
 SIDD.                      No:  Serv Intrp, DD 
 SINC.deg                68.29:  Inc, Start 
 SPPA.psig             6000.00:  SPP Avg 
 SPPN.psig             4000.00:  SPP Min 
 SPPX.psig             6100.00:  SPP Max 
 STIM.      08.08.32 28-Apr-20:  Start Time 
 SVCS.                 DD, MWD:  Services 
 SVER.                    9.20:  Sperry Version 
 TDAT.m                1351.00:  Tot Depth Attmp 
 TDDF.                      No:  Trip for DD 
 TDLG.m                1351.00:  Tot Depth Loggd 
 TFF .                      No:  Trip for Fail 
 TQAA.f-kp               27.00:  Torque Abs Avg 
 TQAN.f-kp               20.00:  Torque Abs Min 
 TQAX.f-kp               30.00:  Torque Abs Max 
 TRRT.°/30m               0.60:  Turn Rotating 
 MRT .                    EWER:  Maximum Recorded Temperature 
 TTMX.degC               83.00:  Max Tool Temp 
 VS01.                90511138:  Virtual Str1 SN 
 VS02.                90524876:  Virtual Str2 SN 
 VS03.                90524872:  Virtual Str3 SN 
 VS04.                90502750:  Virtual Str4 SN 
 VS05.                12330984:  Virtual Str5 SN 
 WBMN.klb                 0.00:  WOB Min 
 WOBA.klb                15.00:  WOB Avg 
 WOBX.klb                20.00:  WOB Max 
 YP  .lhf2               31.00:  Yield Point 
~Curve Information Block
#MNEM.UNIT                 API CODE     Curve Description
#---------               -----------    ---------------------------
 TIME.HHMMSS            00 000 000 000:  GT Time & Date
 GTDEPTH.m              00 000 000 000:  GT Depth
 GTPQH.psia             00 000 000 000:  GT HR Quartz Pressure
 GTTQ.degC              00 000 000 000:  GT Quartz Temperature
 GTTN.NONE              00 000 000 000:  GT Test Number
 GTET.sec               00 000 000 000:  GT Elapsed Test Time
 GTTVD.m                00 000 000 000:  GT True Vertical Depth
#Other Information
#
#WARRANTY: Halliburton will use its best efforts to furnish customers with 
#accurate information and interpretations that are part of, and incident to, the services 
#provided.  However, Halliburton cannot and does not warrant the accuracy 
#or correctness of such information and interpretations.  Under no circumstances should any 
#such information or interpretation be relied upon as the sole basis for any drilling, 
#completion, production, or financial decision or any procedure involving any risk to the 
#safety of any drilling venture, drilling rig or its crew or any other third party.  The 
#Customer has full responsibility for all drilling, completion and production operation.  
#Halliburton makes no representations or warranties, either expressed or 
#implied, including, but not limited to, the implied warranties of merchantability or fitness 
#for a particular purpose, with respect to the services rendered.  In no event will 
#Halliburton be liable for failure to obtain any particular results or for 
#any damages, including, but not limited to, indirect, special or consequential damages, 
#resulting from the use of any information or interpretation provided by Halliburton.
#
~A           TIME           GTDEPTH  GTPQH  GTTQ  GTTN  GTET   GTTVD  
   19:38:29.486.03-May-2020 4608.48 5785.56 80.57 3.00   0.00 2489.14
   19:38:29.686.03-May-2020 4608.48 5785.56 80.57 3.00   0.20 2489.14
   19:38:29.886.03-May-2020 4608.48 5790.56 80.57 3.00   0.40 2489.14
   19:38:30.086.03-May-2020 4608.48 5791.83 80.57 3.00   0.60 2489.14
   19:38:30.286.03-May-2020 4608.48 5793.96 80.56 3.00   0.80 2489.14
   19:38:30.486.03-May-2020 4608.48 5796.35 80.56 3.00   1.00 2489.14
   19:38:30.686.03-May-2020 4608.48 5796.35 80.56 3.00   1.20 2489.14
   19:38:30.886.03-May-2020 4608.48 5804.04 80.56 3.00   1.40 2489.14
   19:38:31.086.03-May-2020 4608.48 5799.74 80.56 3.00   1.60 2489.14
   19:38:31.286.03-May-2020 4608.48 5801.33 80.56 3.00   1.80 2489.14
   19:38:31.486.03-May-2020 4608.48 5799.70 80.56 3.00   2.00 2489.14
   19:38:31.686.03-May-2020 4608.48 5805.13 80.56 3.00   2.20 2489.14
   19:38:31.886.03-May-2020 4608.48 5795.77 80.56 3.00   2.40 2489.14
   19:38:32.086.03-May-2020 4608.48 5796.77 80.56 3.00   2.60 2489.14
   19:38:32.286.03-May-2020 4608.48 5793.95 80.56 3.00   2.80 2489.14
   19:38:32.486.03-May-2020 4608.48 5800.52 80.56 3.00   3.00 2489.14
   19:38:32.686.03-May-2020 4608.48 5800.52 80.55 3.00   3.20 2489.14
   19:38:32.886.03-May-2020 4608.48 5793.04 80.55 3.00   3.40 2489.14
   19:38:33.086.03-May-2020 4608.48 5793.23 80.55 3.00   3.60 2489.14
   19:38:33.286.03-May-2020 4608.48 5799.13 80.55 3.00   3.80 2489.14
   19:38:33.486.03-May-2020 4608.48 5794.30 80.55 3.00   4.00 2489.14
   19:38:33.686.03-May-2020 4608.48 5794.30 80.55 3.00   4.20 2489.14
   19:38:33.886.03-May-2020 4608.48 5797.10 80.55 3.00   4.40 2489.14
   19:38:34.086.03-May-2020 4608.48 5802.67 80.55 3.00   4.60 2489.14
   19:38:34.286.03-May-2020 4608.48 5797.97 80.55 3.00   4.80 2489.14
   19:38:34.486.03-May-2020 4608.48 5797.61 80.55 3.00   5.00 2489.14
   19:38:34.686.03-May-2020 4608.48 5797.61 80.55 3.00   5.20 2489.14
   19:38:34.886.03-May-2020 4608.48 5798.06 80.54 3.00   5.40 2489.14
   19:38:35.086.03-May-2020 4608.48 5797.67 80.54 3.00   5.60 2489.14
   19:38:35.286.03-May-2020 4608.48 5797.18 80.54 3.00   5.80 2489.14
   19:38:35.486.03-May-2020 4608.48 5803.34 80.54 3.00   6.00 2489.14
   19:38:35.686.03-May-2020 4608.48 5796.56 80.54 3.00   6.20 2489.14
   19:38:35.886.03-May-2020 4608.48 5797.69 80.54 3.00   6.40 2489.14
   19:38:36.086.03-May-2020 4608.48 5797.27 80.54 3.00   6.60 2489.14
   19:38:36.286.03-May-2020 4608.48 5799.17 80.54 3.00   6.80 2489.14
   19:38:36.487.03-May-2020 4608.48 5797.59 80.54 3.00   7.00 2489.14
   19:38:36.687.03-May-2020 4608.48 5797.59 80.54 3.00   7.20 2489.14
   19:38:36.887.03-May-2020 4608.48 5799.67 80.54 3.00   7.40 2489.14
   19:38:37.087.03-May-2020 4608.48 5801.39 80.54 3.00   7.60 2489.14
   19:38:37.287.03-May-2020 4608.48 5801.31 80.53 3.00   7.80 2489.14
   19:38:37.487.03-May-2020 4608.48 5801.77 80.53 3.00   8.00 2489.14
   19:38:37.687.03-May-2020 4608.48 5801.61 80.53 3.00   8.20 2489.14
   19:38:37.887.03-May-2020 4608.48 5801.47 80.53 3.00   8.40 2489.14
   19:38:38.087.03-May-2020 4608.48 5801.84 80.53 3.00   8.60 2489.14
   19:38:38.287.03-May-2020 4608.48 5807.54 80.53 3.00   8.80 2489.14
   19:38:38.487.03-May-2020 4608.48 5801.19 80.53 3.00   9.00 2489.14
   19:38:38.687.03-May-2020 4608.48 5801.19 80.53 3.00   9.20 2489.14
   19:38:38.887.03-May-2020 4608.48 5801.04 80.53 3.00   9.40 2489.14
   19:38:39.087.03-May-2020 4608.48 5802.39 80.53 3.00   9.60 2489.14
   19:38:39.287.03-May-2020 4608.48 5800.26 80.53 3.00   9.80 2489.14
   19:38:39.487.03-May-2020 4608.48 5800.49 80.53 3.00  10.00 2489.14
   19:38:39.687.03-May-2020 4608.48 5800.27 80.52 3.00  10.20 2489.14
   19:38:39.887.03-May-2020 4608.48 5799.77 80.52 3.00  10.40 2489.14
   19:38:40.087.03-May-2020 4608.48 5799.02 80.52 3.00  10.60 2489.14
   19:38:40.287.03-May-2020 4608.48 5798.37 80.52 3.00  10.80 2489.14
   19:38:40.487.03-May-2020 4608.48 5797.18 80.52 3.00  11.00 2489.14
   19:38:40.687.03-May-2020 4608.48 5797.18 80.52 3.00  11.20 2489.14
   19:38:40.887.03-May-2020 4608.48 5797.80 80.52 3.00  11.40 2489.14
   19:38:41.087.03-May-2020 4608.48 5796.86 80.52 3.00  11.60 2489.14
   19:38:41.287.03-May-2020 4608.48 5794.29 80.52 3.00  11.80 2489.14
   19:38:41.487.03-May-2020 4608.48 5793.23 80.52 3.00  12.00 2489.14
   19:38:41.687.03-May-2020 4608.48 5793.23 80.52 3.00  12.20 2489.14
   19:38:41.887.03-May-2020 4608.48 5797.07 80.51 3.00  12.40 2489.14
   19:38:42.087.03-May-2020 4608.48 5793.36 80.51 3.00  12.60 2489.14
   19:38:42.287.03-May-2020 4608.48 5793.02 80.51 3.00  12.80 2489.14
   19:38:42.487.03-May-2020 4608.48 5793.49 80.51 3.00  13.00 2489.14
   19:38:42.687.03-May-2020 4608.48 5793.49 80.51 3.00  13.20 2489.14
   19:38:42.887.03-May-2020 4608.48 5795.75 80.51 3.00  13.40 2489.14
   19:38:43.087.03-May-2020 4608.48 5793.32 80.51 3.00  13.60 2489.14
   19:38:43.287.03-May-2020 4608.48 5793.61 80.51 3.00  13.80 2489.14
   19:38:43.487.03-May-2020 4608.48 5792.99 80.51 3.00  14.00 2489.14
   19:38:43.687.03-May-2020 4608.48 5799.93 80.51 3.00  14.20 2489.14
   19:38:43.887.03-May-2020 4608.48 5793.19 80.51 3.00  14.40 2489.14
   19:38:44.087.03-May-2020 4608.48 5796.19 80.51 3.00  14.60 2489.14
   19:38:44.287.03-May-2020 4608.48 5793.87 80.50 3.00  14.80 2489.14
   19:38:44.487.03-May-2020 4608.48 5792.96 80.50 3.00  15.00 2489.14
   19:38:44.687.03-May-2020 4608.48 5792.96 80.50 3.00  15.20 2489.14
   19:38:44.887.03-May-2020 4608.48 5795.49 80.50 3.00  15.40 2489.14
   19:38:45.087.03-May-2020 4608.48 5795.27 80.50 3.00  15.60 2489.14
   19:38:45.287.03-May-2020 4608.48 5791.15 80.50 3.00  15.80 2489.14
   19:38:45.487.03-May-2020 4608.48 5790.86 80.50 3.00  16.00 2489.14
   19:38:45.688.03-May-2020 4608.48 5790.86 80.50 3.00  16.20 2489.14
   19:38:45.888.03-May-2020 4608.48 5790.86 80.50 3.00  16.40 2489.14
   19:38:46.088.03-May-2020 4608.48 5790.72 80.50 3.00  16.60 2489.14
   19:38:46.288.03-May-2020 4608.48 5791.62 80.50 3.00  16.80 2489.14
   19:38:46.488.03-May-2020 4608.48 5792.37 80.50 3.00  17.00 2489.14
   19:38:46.688.03-May-2020 4608.48 5792.37 80.49 3.00  17.20 2489.14
   19:38:46.888.03-May-2020 4608.48 5791.55 80.49 3.00  17.40 2489.14
   19:38:47.088.03-May-2020 4608.48 5792.52 80.49 3.00  17.60 2489.14
   19:38:47.288.03-May-2020 4608.48 5791.53 80.49 3.00  17.80 2489.14
   19:38:47.488.03-May-2020 4608.48 5790.44 80.49 3.00  18.00 2489.14
   19:38:47.688.03-May-2020 4608.48 5793.04 80.49 3.00  18.20 2489.14
   19:38:47.888.03-May-2020 4608.48 5793.53 80.49 3.00  18.40 2489.14
   19:38:48.088.03-May-2020 4608.48 5789.66 80.49 3.00  18.60 2489.14
   19:38:48.288.03-May-2020 4608.48 5788.45 80.49 3.00  18.80 2489.14
   19:38:48.488.03-May-2020 4608.48 5787.56 80.49 3.00  19.00 2489.14
   19:38:48.688.03-May-2020 4608.48 5787.56 80.49 3.00  19.20 2489.14
   19:38:48.888.03-May-2020 4608.48 5787.93 80.48 3.00  19.40 2489.14
   19:38:49.088.03-May-2020 4608.48 5787.94 80.48 3.00  19.60 2489.14
   19:38:49.288.03-May-2020 4608.48 5788.54 80.48 3.00  19.80 2489.14
   19:38:49.488.03-May-2020 4608.48 5788.57 80.48 3.00  20.00 2489.14
   19:38:49.688.03-May-2020 4608.48 5788.57 80.48 3.00  20.20 2489.14
   19:38:49.888.03-May-2020 4608.48 5789.06 80.48 3.00  20.40 2489.14
   19:38:50.088.03-May-2020 4608.48 5789.32 80.48 3.00  20.60 2489.14
   19:38:50.288.03-May-2020 4608.48 5789.44 80.48 3.00  20.80 2489.14
   19:38:50.488.03-May-2020 4608.48 5793.47 80.48 3.00  21.00 2489.14
   19:38:50.688.03-May-2020 4608.48 5793.47 80.48 3.00  21.20 2489.14
   19:38:50.888.03-May-2020 4608.48 5794.03 80.48 3.00  21.40 2489.14
   19:38:51.088.03-May-2020 4608.48 5792.27 80.48 3.00  21.60 2489.14
   19:38:51.288.03-May-2020 4608.48 5789.94 80.47 3.00  21.80 2489.14
   19:38:51.488.03-May-2020 4608.48 5789.98 80.47 3.00  22.00 2489.14
   19:38:51.688.03-May-2020 4608.48 5790.34 80.47 3.00  22.20 2489.14
   19:38:51.888.03-May-2020 4608.48 5798.11 80.47 3.00  22.40 2489.14
   19:38:52.088.03-May-2020 4608.48 5789.30 80.47 3.00  22.60 2489.14
   19:38:52.288.03-May-2020 4608.48 5790.54 80.47 3.00  22.80 2489.14
