~Version Information
 VERS.                  2.0:   CWLS log ASCII Standard -VERSION 2.0
 WRAP.                   NO:   One line per depth step
~Well Information Block
#MNEM.UNIT     VALUE/NAME     DESCRIPTION
#---------     -----------    ---------------------------
 STRT.S             13:13:41 03-May-20: START TIME 13:13:41 03-May-20
 STOP.S             13:20:16 03-May-20: STOP TIME  13:20:16 03-May-20
 STEP.S                   0.00: STEP TIME
 NULL.                 -999.25: NULL VALUE
 DFWT.                        :  DIST FWL TEXT
 DFST.                        :  DIST FSL TEXT
 DMF .             Drill Floor:  DRILL MEAS FROM
 STIM.      03.00.00 25-Mar-20:  START TIME
 DATE.      00.00.00 19-May-20:  END TIME
 SPUD.               27-Aug-20:  SPUD DATE
 NREF.                    Grid:  NORTH REFERENCE
 HPTY.       Minimum Curvature:  HOLE POS TYPE
 DMOD.             Drill Model:  DRILL MOD DESC
 SVYD.                  Survey:  SURVEY DESC
 ILTD.               Lithology:  INTERP LTH DESC
 FTOP.          Formation Tops:  FORM TOPS DESC
 SON .        AZ-XX-0906252240:  JOB NUMBER
 RIG .             West Chirag:  RIG NAME
 PDAT.          Mean Sea Level:  PERMANENT DATUM
 FLD .                     ACG:  FIELD NAME
 CTRY.              Azerbaijan:  COUNTRY NAME
 WELL.                     J23:  WELL NAME
 SRVC.          Turan Drilling:  CONTRACTOR
 COMP.     BP Exploration (Caspian Sea) Ltd.:  COMPANY
 WTYP.                Deviated:  WELL TYPE
 MDS .        Operator Entered:  MAG DATA SOURCE
 UWI .                     N/A:  UNIQUE WELL IDENTIFIER
 API .                     N/A:  API NUMBER
 BASE.              Azerbaijan:  LOGGING EQUIPMENT BASE LOCATION
 REGN.                   EESSA:  REGION
 PROV.                    Baku:  PROVINCE
 STAT.                    Baku:  STATE NAME
 MWDS.                     N/A:  MWD SHOP
 JOBN.        AZ-XX-0906252240:  JOB TICKET NUMB
 DOE .                     N/A:  DOE NUMBER
 DCON.         Sperry Drilling:  DIRECTNL CONTR
 UNIT.                     N/A:  LOGGING EQUIPMENT ID
 CNTY.                        :  COUNTY
 LOC .                        :  LOCATION
 LMF .             Drill Floor:  LOG MEASURED FROM
 TVDS.m                  43.00:  TVDSS CORRECTN
 LATI.deg                40.13:  LATITUDE
 LONG.deg                51.22:  LONGITUDE
 WHNS.m                   9.43:  WELL HEAD N/S
 WHEW.m                  -8.91:  WELL HEAD E/W
 UTMX.m              519005.06:  UTM X
 UTMY.m             4443793.85:  UTM Y
 DFWL.m                   0.00:  DISTANCE FWL
 DFSL.m                   0.00:  DISTANCE FSL
 SDEP.m                 363.00:  START DEPTH
 TDD .m                5150.01:  TOTAL DEPTH (DRILLER)
 VSDR.deg               179.88:  VERT SEC DIRECT
 GVFD.g                   1.00:  GRAVITY FIELD
 MFLD.nT              50295.00:  MAGNETIC FIELD
 MDIP.deg                59.56:  MAGNETIC DIP
 MDEC.deg                 6.45:  MAGNETIC DECL
 GRDC.deg                 0.14:  GRID CORRECTION
 AZTC.deg                 6.31:  AZM TOTAL CORR
 EPD .m                   0.00:  ELEVATION
 EGL .m                   0.00:  GROUND ELEVATION
 WDMS.m                 169.80:  WD ELEV
 APD .m                  43.00:  DEPTH ABOVE PD
 DEP .m                 354.17:  DEPTH
 AGAP.m                  43.00:  AIR GAP
 VSEW.m                  -8.91:  VERT SEC E/W
 VSNS.m                   9.43:  VERT SEC N/S
 EKB .m                   0.00:  KB ELEVATION
 EDF .m                  43.00:  DF ELEVATION
 TDL .m                1351.00:  TOTAL DEPTH (LOGGER)
 VSC .                       0:  VS TO CLOSURE
 MAGU.                 1850802:  MAGUTM CHECKSUM
~Parameter Information Block
#MNEM.UNIT       Value        Description
#---------     -----------    ---------------------------
 AV  .mps                 1.00:  Ann Velocity 
 AVMX.mps                 2.40:  Max Ann Veloc 
 AZIF.deg               148.96:  Azm, Final 
 BHAT.        Rotary Steerable:  BHA Type 
 BROT.°/30m               0.04:  Build Rotating 
 BS  .in                 12.25:  Bit Size 
 BSZ .in                 12.25:  Bit Size 
 BTPL.psig              814.00:  Bit Press Loss 
 TCS .hr                106.00:  Time Ciculation Ended 
 CV  .mps                 2.47:  Crit Velocity 
 CVMX.mps                 2.64:  Max Crit Veloc 
 DD1 .          Rashad Habibov:  Direct Drillr 1 
 DD2 .         Rasim Ibrahimov:  Direct Drillr 2 
 DDSV.                 iCruise:  DD Service 
 DEFF.%                 100.00:  % Det Eff 
 DLRX.°/30m               0.70:  Dogleg Rot Max 
 DLSO.°/30m               3.00:  Dogleg Oriented 
 DLSX.°/30m               4.55:  Dogleg Str Max 
 DRET.      08.08.32 02-May-20:  Drill End Time 
 DRST.      08.08.32 28-Apr-20:  Drill Start Tim 
 DTIM.hr                 60.00:  Time Drilling 
 EDEP.m                4761.01:  End Depth 
 ENG1.           Eldar Hajiyev:  Engineer 1 
 ENG2.        Marcelo Sandoval:  Engineer 2 
 ETIM.      23.23.07 05-May-20:  End Time 
 FLOI.gpm              1200.00:  Flow In 
 FLON.gpm               900.00:  Flow In Min 
 FLOS.cptm                0.00:  Fluid Loss 
 FLOX.gpm              1200.00:  Flow In Max 
 HFLO.                      No:  High Flow 
 HPRE.                      No:  High Pressure 
 HTEM.                      No:  High Temp 
 HYDO.m                   1.80:  Hydro Offset 
 IFIN.deg                68.17:  Inc, Final 
 IMAX.deg                74.61:  Inc Max 
 IMIN.deg                68.15:  Inc Min 
 IMND.m                4317.87:  Inc Min Depth 
 IMXD.m                4714.01:  Inc Max Depth 
 LETM.      08.08.32 02-May-20:  Log End Time 
 LOST.hr                     2:  Lost Rig Time 
 LSTM.      08.08.32 28-Apr-20:  Log Start Time 
 MDCL.ppm             41000.00:  Mud Chlorides 
 MDES.     Inversion Oil/Synthetic:  Mud Desc 
 DFD .sg                  1.58:  Mud Density 
 MDMN.sg                  1.58:  Dens Mud Min 
 MDMX.sg                  1.58:  Dens Mud Max 
 MOIL.                      71:  Run Mud Oil % 
 MOWR.                   71:29:  Run Mud OWR 
 MSND.                     0.1:  Run Mud Sand % 
 MSOL.                      23:  Run Mud Solids% 
 DFV .spqt               82.00:  Mud Viscosity 
 MWOD.in                  8.00:  MWD Tool OD 
 MWSI.                     Yes:  Serv Intrp, MWD 
 OTIM.hr                125.00:  Time Operating 
 PMAX.psia             6129.00:  Press Op, Max 
 PV  .cP                 32.00:  Mud PV 
 RUN .                     800:  Run Number 
 ROPA.m/hr               30.00:  ROP Avg 
 ROPN.m/hr               10.00:  ROP Min 
 ROPX.m/hr               40.00:  ROP Max 
 RPMA.rpm               140.00:  RPM Surface Avg 
 RPMN.rpm                80.00:  RPM Surface Min 
 RPMX.rpm               140.00:  RPM Surface Max 
 RRUN.                    L503:  Rig Run Number 
 RTIM.hr                  2.00:  Time Reaming 
 SAZI.deg               184.23:  Azm, Start 
 SDEP.m                3410.01:  Start Depth 
 SIDD.                      No:  Serv Intrp, DD 
 SINC.deg                68.29:  Inc, Start 
 SPPA.psig             6000.00:  SPP Avg 
 SPPN.psig             4000.00:  SPP Min 
 SPPX.psig             6100.00:  SPP Max 
 STIM.      08.08.32 28-Apr-20:  Start Time 
 SVCS.                 DD, MWD:  Services 
 SVER.                    9.20:  Sperry Version 
 TDAT.m                1351.00:  Tot Depth Attmp 
 TDDF.                      No:  Trip for DD 
 TDLG.m                1351.00:  Tot Depth Loggd 
 TFF .                      No:  Trip for Fail 
 TQAA.f-kp               27.00:  Torque Abs Avg 
 TQAN.f-kp               20.00:  Torque Abs Min 
 TQAX.f-kp               30.00:  Torque Abs Max 
 TRRT.°/30m               0.60:  Turn Rotating 
 MRT .                    EWER:  Maximum Recorded Temperature 
 TTMX.degC               83.00:  Max Tool Temp 
 VS01.                90511138:  Virtual Str1 SN 
 VS02.                90524876:  Virtual Str2 SN 
 VS03.                90524872:  Virtual Str3 SN 
 VS04.                90502750:  Virtual Str4 SN 
 VS05.                12330984:  Virtual Str5 SN 
 WBMN.klb                 0.00:  WOB Min 
 WOBA.klb                15.00:  WOB Avg 
 WOBX.klb                20.00:  WOB Max 
 YP  .lhf2               31.00:  Yield Point 
~Curve Information Block
#MNEM.UNIT                 API CODE     Curve Description
#---------               -----------    ---------------------------
 TIME.HHMMSS            00 000 000 000:  GT Time & Date
 GTDEPTH.m              00 000 000 000:  GT Depth
 GTPQH.psia             00 000 000 000:  GT HR Quartz Pressure
 GTTQ.degC              00 000 000 000:  GT Quartz Temperature
 GTTN.NONE              00 000 000 000:  GT Test Number
 GTET.sec               00 000 000 000:  GT Elapsed Test Time
 GTTVD.m                00 000 000 000:  GT True Vertical Depth
#Other Information
#
#WARRANTY: Halliburton will use its best efforts to furnish customers with 
#accurate information and interpretations that are part of, and incident to, the services 
#provided.  However, Halliburton cannot and does not warrant the accuracy 
#or correctness of such information and interpretations.  Under no circumstances should any 
#such information or interpretation be relied upon as the sole basis for any drilling, 
#completion, production, or financial decision or any procedure involving any risk to the 
#safety of any drilling venture, drilling rig or its crew or any other third party.  The 
#Customer has full responsibility for all drilling, completion and production operation.  
#Halliburton makes no representations or warranties, either expressed or 
#implied, including, but not limited to, the implied warranties of merchantability or fitness 
#for a particular purpose, with respect to the services rendered.  In no event will 
#Halliburton be liable for failure to obtain any particular results or for 
#any damages, including, but not limited to, indirect, special or consequential damages, 
#resulting from the use of any information or interpretation provided by Halliburton.
#
~A           TIME           GTDEPTH  GTPQH  GTTQ  GTTN  GTET   GTTVD  
# ...
   13:14:50.519.03-May-2020 4532.80 4119.85 80.55 1.00  69.11 2465.99
   13:14:50.720.03-May-2020 4532.80 4119.85 80.55 1.00  69.31 2465.99
   13:14:50.920.03-May-2020 4532.80 4119.99 80.55 1.00  69.51 2465.99
   13:14:51.120.03-May-2020 4532.80 4119.83 80.55 1.00  69.71 2465.99
   13:14:51.320.03-May-2020 4532.80 4119.56 80.55 1.00  69.91 2465.99
   13:14:51.521.03-May-2020 4532.80 4119.66 80.55 1.00  70.11 2465.99
   13:14:51.721.03-May-2020 4532.80 4119.71 80.55 1.00  70.31 2465.99
   13:14:51.921.03-May-2020 4532.80 4119.93 80.55 1.00  70.51 2465.99
   13:14:52.122.03-May-2020 4532.80 4119.98 80.55 1.00  70.71 2465.99
   13:14:52.322.03-May-2020 4532.80 4119.94 80.55 1.00  70.91 2465.99
   13:14:52.522.03-May-2020 4532.80 4120.01 80.55 1.00  71.11 2465.99
   13:14:52.723.03-May-2020 4532.80 4120.01 80.55 1.00  71.31 2465.99
   13:14:52.923.03-May-2020 4532.80 4120.21 80.55 1.00  71.51 2465.99
   13:14:53.123.03-May-2020 4532.80 4120.50 80.55 1.00  71.71 2465.99
   13:14:53.324.03-May-2020 4532.80 4120.64 80.54 1.00  71.91 2465.99
   13:14:53.524.03-May-2020 4532.80 4120.28 80.54 1.00  72.11 2465.99
   13:14:53.724.03-May-2020 4532.80 4120.28 80.54 1.00  72.31 2465.99
   13:14:53.925.03-May-2020 4532.80 4120.55 80.54 1.00  72.51 2465.99
   13:14:54.125.03-May-2020 4532.80 4120.41 80.54 1.00  72.71 2465.99
   13:14:54.325.03-May-2020 4532.80 4120.39 80.54 1.00  72.91 2465.99
   13:14:54.525.03-May-2020 4532.80 4120.44 80.54 1.00  73.11 2465.99
   13:14:54.726.03-May-2020 4532.80 4120.44 80.54 1.00  73.32 2465.99
   13:14:54.926.03-May-2020 4532.80 4120.59 80.54 1.00  73.52 2465.99
   13:14:55.126.03-May-2020 4532.80 4120.52 80.54 1.00  73.72 2465.99
   13:14:55.327.03-May-2020 4532.80 4120.62 80.54 1.00  73.92 2465.99
   13:14:55.527.03-May-2020 4532.80 4120.85 80.54 1.00  74.12 2465.99
   13:14:55.727.03-May-2020 4532.80 4120.85 80.54 1.00  74.32 2465.99
   13:14:55.928.03-May-2020 4532.80 4121.11 80.54 1.00  74.52 2465.99
   13:14:56.128.03-May-2020 4532.80 4120.64 80.54 1.00  74.72 2465.99
   13:14:56.328.03-May-2020 4532.80 4121.42 80.54 1.00  74.92 2465.99
   13:14:56.529.03-May-2020 4532.80 4121.65 80.54 1.00  75.12 2465.99
   13:14:56.729.03-May-2020 4532.80 4121.65 80.54 1.00  75.32 2465.99
   13:14:56.929.03-May-2020 4532.80 4121.28 80.54 1.00  75.52 2465.99
   13:14:57.130.03-May-2020 4532.80 4121.18 80.54 1.00  75.72 2465.99
   13:14:57.330.03-May-2020 4532.80 4121.82 80.54 1.00  75.92 2465.99
   13:14:57.530.03-May-2020 4532.80 4121.27 80.54 1.00  76.12 2465.99
   13:14:57.731.03-May-2020 4532.80 4121.27 80.54 1.00  76.32 2465.99
   13:14:57.931.03-May-2020 4532.80 4121.26 80.53 1.00  76.52 2465.99
   13:14:58.131.03-May-2020 4532.80 4121.70 80.53 1.00  76.72 2465.99
   13:14:58.331.03-May-2020 4532.80 4121.06 80.53 1.00  76.92 2465.99
   13:14:58.532.03-May-2020 4532.80 4121.50 80.53 1.00  77.12 2465.99
   13:14:58.732.03-May-2020 4532.80 4121.50 80.53 1.00  77.32 2465.99
   13:14:58.932.03-May-2020 4532.80 4121.62 80.53 1.00  77.52 2465.99
   13:14:59.133.03-May-2020 4532.80 4121.26 80.53 1.00  77.72 2465.99
   13:14:59.333.03-May-2020 4532.80 4121.37 80.53 1.00  77.92 2465.99
   13:14:59.533.03-May-2020 4532.80 4121.25 80.53 1.00  78.12 2465.99
   13:14:59.734.03-May-2020 4532.80 4121.37 80.53 1.00  78.32 2465.99
   13:14:59.934.03-May-2020 4532.80 4121.19 80.53 1.00  78.52 2465.99
   13:15:00.134.03-May-2020 4532.80 4121.15 80.53 1.00  78.72 2465.99
   13:15:00.335.03-May-2020 4532.80 4121.19 80.53 1.00  78.92 2465.99
   13:15:00.535.03-May-2020 4532.80 4121.21 80.53 1.00  79.12 2465.99
   13:15:00.735.03-May-2020 4532.80 4121.21 80.53 1.00  79.32 2465.99
   13:15:00.936.03-May-2020 4532.80 4121.60 80.53 1.00  79.53 2465.99
   13:15:01.136.03-May-2020 4532.80 4121.94 80.53 1.00  79.73 2465.99
   13:15:01.336.03-May-2020 4532.80 4121.99 80.53 1.00  79.93 2465.99
   13:15:01.537.03-May-2020 4532.80 4121.68 80.53 1.00  80.13 2465.99
   13:15:01.737.03-May-2020 4532.80 4121.68 80.53 1.00  80.33 2465.99
   13:15:01.937.03-May-2020 4532.80 4121.58 80.53 1.00  80.53 2465.99
   13:15:02.137.03-May-2020 4532.80 4121.43 80.52 1.00  80.73 2465.99
   13:15:02.338.03-May-2020 4532.80 4121.50 80.52 1.00  80.93 2465.99
   13:15:02.538.03-May-2020 4532.80 4121.50 80.52 1.00  81.13 2465.99
   13:15:02.738.03-May-2020 4532.80 4121.50 80.52 1.00  81.33 2465.99
   13:15:02.939.03-May-2020 4532.80 4121.30 80.52 1.00  81.53 2465.99
   13:15:03.139.03-May-2020 4532.80 4121.23 80.52 1.00  81.73 2465.99
   13:15:03.339.03-May-2020 4532.80 4121.30 80.52 1.00  81.93 2465.99
   13:15:03.540.03-May-2020 4532.80 4121.97 80.52 1.00  82.13 2465.99
   13:15:03.740.03-May-2020 4532.80 4122.41 80.52 1.00  82.33 2465.99
   13:15:03.940.03-May-2020 4532.80 4122.50 80.52 1.00  82.53 2465.99
   13:15:04.141.03-May-2020 4532.80 4122.03 80.52 1.00  82.73 2465.99
   13:15:04.341.03-May-2020 4532.80 4123.35 80.52 1.00  82.93 2465.99
   13:15:04.541.03-May-2020 4532.80 4122.67 80.52 1.00  83.13 2465.99
   13:15:04.742.03-May-2020 4532.80 4122.67 80.52 1.00  83.33 2465.99
   13:15:04.942.03-May-2020 4532.80 4123.74 80.52 1.00  83.53 2465.99
   13:15:05.142.03-May-2020 4532.80 4123.08 80.52 1.00  83.73 2465.99
   13:15:05.342.03-May-2020 4532.80 4123.14 80.52 1.00  83.93 2465.99
   13:15:05.543.03-May-2020 4532.80 4123.00 80.52 1.00  84.13 2465.99
   13:15:05.743.03-May-2020 4532.80 4123.00 80.52 1.00  84.33 2465.99
   13:15:05.943.03-May-2020 4532.80 4121.90 80.52 1.00  84.53 2465.99
   13:15:06.144.03-May-2020 4532.80 4122.78 80.52 1.00  84.73 2465.99
   13:15:06.344.03-May-2020 4532.80 4123.92 80.52 1.00  84.93 2465.99
   13:15:06.544.03-May-2020 4532.80 4123.46 80.51 1.00  85.13 2465.99
   13:15:06.745.03-May-2020 4532.80 4123.46 80.51 1.00  85.33 2465.99
   13:15:06.945.03-May-2020 4532.80 4122.77 80.51 1.00  85.53 2465.99
   13:15:07.145.03-May-2020 4532.80 4122.40 80.51 1.00  85.73 2465.99
   13:15:07.346.03-May-2020 4532.80 4122.20 80.51 1.00  85.94 2465.99
   13:15:07.546.03-May-2020 4532.80 4122.10 80.51 1.00  86.14 2465.99
   13:15:07.746.03-May-2020 4532.80 4122.11 80.51 1.00  86.34 2465.99
   13:15:07.947.03-May-2020 4532.80 4122.02 80.51 1.00  86.54 2465.99
   13:15:08.147.03-May-2020 4532.80 4122.02 80.51 1.00  86.74 2465.99
   13:15:08.347.03-May-2020 4532.80 4121.92 80.51 1.00  86.94 2465.99
   13:15:08.548.03-May-2020 4532.80 4121.83 80.51 1.00  87.14 2465.99
   13:15:08.748.03-May-2020 4532.80 4121.83 80.51 1.00  87.34 2465.99
   13:15:08.948.03-May-2020 4532.80 4122.18 80.51 1.00  87.54 2465.99
   13:15:09.148.03-May-2020 4532.80 4123.26 80.51 1.00  87.74 2465.99
   13:15:09.349.03-May-2020 4532.80 4122.74 80.51 1.00  87.94 2465.99
   13:15:09.549.03-May-2020 4532.80 4122.47 80.51 1.00  88.14 2465.99
   13:15:09.749.03-May-2020 4532.80 4122.47 80.51 1.00  88.34 2465.99
   13:15:09.950.03-May-2020 4532.80 4122.30 80.51 1.00  88.54 2465.99
   13:15:10.150.03-May-2020 4532.80 4122.32 80.51 1.00  88.74 2465.99
   13:15:10.350.03-May-2020 4532.80 4122.07 80.51 1.00  88.94 2465.99
   13:15:10.551.03-May-2020 4532.80 4122.06 80.51 1.00  89.14 2465.99
   13:15:10.751.03-May-2020 4532.80 4122.06 80.51 1.00  89.34 2465.99
   13:15:10.951.03-May-2020 4532.80 4121.92 80.50 1.00  89.54 2465.99
   13:15:11.152.03-May-2020 4532.80 4121.96 80.50 1.00  89.74 2465.99
   13:15:11.352.03-May-2020 4532.80 4121.92 80.50 1.00  89.94 2465.99
   13:15:11.552.03-May-2020 4532.80 4122.07 80.50 1.00  90.14 2465.99
   13:15:11.753.03-May-2020 4532.80 4123.19 80.50 1.00  90.34 2465.99
   13:15:11.953.03-May-2020 4532.80 4122.76 80.50 1.00  90.54 2465.99
   13:15:12.153.03-May-2020 4532.80 4122.48 80.50 1.00  90.74 2465.99
   13:15:12.354.03-May-2020 4532.80 4123.59 80.50 1.00  90.94 2465.99
   13:15:12.554.03-May-2020 4532.80 4123.25 80.50 1.00  91.14 2465.99
   13:15:12.754.03-May-2020 4532.80 4123.20 80.50 1.00  91.34 2465.99
   13:15:12.954.03-May-2020 4532.80 4124.20 80.50 1.00  91.54 2465.99
   13:15:13.155.03-May-2020 4532.80 4123.83 80.50 1.00  91.74 2465.99
   13:15:13.355.03-May-2020 4532.80 4123.72 80.50 1.00  91.94 2465.99
