~Version Information
 VERS.                  2.0:   CWLS log ASCII Standard -VERSION 2.0
 WRAP.                   NO:   One line per depth step
~Well Information Block
#MNEM.UNIT     VALUE/NAME     DESCRIPTION
#---------     -----------    ---------------------------
 STRT.S             10:50:58 04-May-20: START TIME 10:50:58 04-May-20
 STOP.S             10:57:32 04-May-20: STOP TIME  10:57:32 04-May-20
 STEP.S                   0.00: STEP TIME
 NULL.                 -999.25: NULL VALUE
 DFWT.                        :  DIST FWL TEXT
 DFST.                        :  DIST FSL TEXT
 DMF .             Drill Floor:  DRILL MEAS FROM
 STIM.      03.00.00 25-Mar-20:  START TIME
 DATE.      00.00.00 19-May-20:  END TIME
 SPUD.               27-Aug-20:  SPUD DATE
 NREF.                    Grid:  NORTH REFERENCE
 HPTY.       Minimum Curvature:  HOLE POS TYPE
 DMOD.             Drill Model:  DRILL MOD DESC
 SVYD.                  Survey:  SURVEY DESC
 ILTD.               Lithology:  INTERP LTH DESC
 FTOP.          Formation Tops:  FORM TOPS DESC
 SON .        AZ-XX-0906252240:  JOB NUMBER
 RIG .             West Chirag:  RIG NAME
 PDAT.          Mean Sea Level:  PERMANENT DATUM
 FLD .                     ACG:  FIELD NAME
 CTRY.              Azerbaijan:  COUNTRY NAME
 WELL.                     J23:  WELL NAME
 SRVC.          Turan Drilling:  CONTRACTOR
 COMP.     BP Exploration (Caspian Sea) Ltd.:  COMPANY
 WTYP.                Deviated:  WELL TYPE
 MDS .        Operator Entered:  MAG DATA SOURCE
 UWI .                     N/A:  UNIQUE WELL IDENTIFIER
 API .                     N/A:  API NUMBER
 BASE.              Azerbaijan:  LOGGING EQUIPMENT BASE LOCATION
 REGN.                   EESSA:  REGION
 PROV.                    Baku:  PROVINCE
 STAT.                    Baku:  STATE NAME
 MWDS.                     N/A:  MWD SHOP
 JOBN.        AZ-XX-0906252240:  JOB TICKET NUMB
 DOE .                     N/A:  DOE NUMBER
 DCON.         Sperry Drilling:  DIRECTNL CONTR
 UNIT.                     N/A:  LOGGING EQUIPMENT ID
 CNTY.                        :  COUNTY
 LOC .                        :  LOCATION
 LMF .             Drill Floor:  LOG MEASURED FROM
 TVDS.m                  43.00:  TVDSS CORRECTN
 LATI.deg                40.13:  LATITUDE
 LONG.deg                51.22:  LONGITUDE
 WHNS.m                   9.43:  WELL HEAD N/S
 WHEW.m                  -8.91:  WELL HEAD E/W
 UTMX.m              519005.06:  UTM X
 UTMY.m             4443793.85:  UTM Y
 DFWL.m                   0.00:  DISTANCE FWL
 DFSL.m                   0.00:  DISTANCE FSL
 SDEP.m                 363.00:  START DEPTH
 TDD .m                5150.01:  TOTAL DEPTH (DRILLER)
 VSDR.deg               179.88:  VERT SEC DIRECT
 GVFD.g                   1.00:  GRAVITY FIELD
 MFLD.nT              50295.00:  MAGNETIC FIELD
 MDIP.deg                59.56:  MAGNETIC DIP
 MDEC.deg                 6.45:  MAGNETIC DECL
 GRDC.deg                 0.14:  GRID CORRECTION
 AZTC.deg                 6.31:  AZM TOTAL CORR
 EPD .m                   0.00:  ELEVATION
 EGL .m                   0.00:  GROUND ELEVATION
 WDMS.m                 169.80:  WD ELEV
 APD .m                  43.00:  DEPTH ABOVE PD
 DEP .m                 354.17:  DEPTH
 AGAP.m                  43.00:  AIR GAP
 VSEW.m                  -8.91:  VERT SEC E/W
 VSNS.m                   9.43:  VERT SEC N/S
 EKB .m                   0.00:  KB ELEVATION
 EDF .m                  43.00:  DF ELEVATION
 TDL .m                1351.00:  TOTAL DEPTH (LOGGER)
 VSC .                       0:  VS TO CLOSURE
 MAGU.                 1850802:  MAGUTM CHECKSUM
~Parameter Information Block
#MNEM.UNIT       Value        Description
#---------     -----------    ---------------------------
 AV  .mps                 1.00:  Ann Velocity 
 AVMX.mps                 2.40:  Max Ann Veloc 
 AZIF.deg               148.96:  Azm, Final 
 BHAT.        Rotary Steerable:  BHA Type 
 BROT.°/30m               0.04:  Build Rotating 
 BS  .in                 12.25:  Bit Size 
 BSZ .in                 12.25:  Bit Size 
 BTPL.psig              814.00:  Bit Press Loss 
 TCS .hr                106.00:  Time Ciculation Ended 
 CV  .mps                 2.47:  Crit Velocity 
 CVMX.mps                 2.64:  Max Crit Veloc 
 DD1 .          Rashad Habibov:  Direct Drillr 1 
 DD2 .         Rasim Ibrahimov:  Direct Drillr 2 
 DDSV.                 iCruise:  DD Service 
 DEFF.%                 100.00:  % Det Eff 
 DLRX.°/30m               0.70:  Dogleg Rot Max 
 DLSO.°/30m               3.00:  Dogleg Oriented 
 DLSX.°/30m               4.55:  Dogleg Str Max 
 DRET.      08.08.32 02-May-20:  Drill End Time 
 DRST.      08.08.32 28-Apr-20:  Drill Start Tim 
 DTIM.hr                 60.00:  Time Drilling 
 EDEP.m                4761.01:  End Depth 
 ENG1.           Eldar Hajiyev:  Engineer 1 
 ENG2.        Marcelo Sandoval:  Engineer 2 
 ETIM.      23.23.07 05-May-20:  End Time 
 FLOI.gpm              1200.00:  Flow In 
 FLON.gpm               900.00:  Flow In Min 
 FLOS.cptm                0.00:  Fluid Loss 
 FLOX.gpm              1200.00:  Flow In Max 
 HFLO.                      No:  High Flow 
 HPRE.                      No:  High Pressure 
 HTEM.                      No:  High Temp 
 HYDO.m                   1.80:  Hydro Offset 
 IFIN.deg                68.17:  Inc, Final 
 IMAX.deg                74.61:  Inc Max 
 IMIN.deg                68.15:  Inc Min 
 IMND.m                4317.87:  Inc Min Depth 
 IMXD.m                4714.01:  Inc Max Depth 
 LETM.      08.08.32 02-May-20:  Log End Time 
 LOST.hr                     2:  Lost Rig Time 
 LSTM.      08.08.32 28-Apr-20:  Log Start Time 
 MDCL.ppm             41000.00:  Mud Chlorides 
 MDES.     Inversion Oil/Synthetic:  Mud Desc 
 DFD .sg                  1.58:  Mud Density 
 MDMN.sg                  1.58:  Dens Mud Min 
 MDMX.sg                  1.58:  Dens Mud Max 
 MOIL.                      71:  Run Mud Oil % 
 MOWR.                   71:29:  Run Mud OWR 
 MSND.                     0.1:  Run Mud Sand % 
 MSOL.                      23:  Run Mud Solids% 
 DFV .spqt               82.00:  Mud Viscosity 
 MWOD.in                  8.00:  MWD Tool OD 
 MWSI.                     Yes:  Serv Intrp, MWD 
 OTIM.hr                125.00:  Time Operating 
 PMAX.psia             6129.00:  Press Op, Max 
 PV  .cP                 32.00:  Mud PV 
 RUN .                     800:  Run Number 
 ROPA.m/hr               30.00:  ROP Avg 
 ROPN.m/hr               10.00:  ROP Min 
 ROPX.m/hr               40.00:  ROP Max 
 RPMA.rpm               140.00:  RPM Surface Avg 
 RPMN.rpm                80.00:  RPM Surface Min 
 RPMX.rpm               140.00:  RPM Surface Max 
 RRUN.                    L503:  Rig Run Number 
 RTIM.hr                  2.00:  Time Reaming 
 SAZI.deg               184.23:  Azm, Start 
 SDEP.m                3410.01:  Start Depth 
 SIDD.                      No:  Serv Intrp, DD 
 SINC.deg                68.29:  Inc, Start 
 SPPA.psig             6000.00:  SPP Avg 
 SPPN.psig             4000.00:  SPP Min 
 SPPX.psig             6100.00:  SPP Max 
 STIM.      08.08.32 28-Apr-20:  Start Time 
 SVCS.                 DD, MWD:  Services 
 SVER.                    9.20:  Sperry Version 
 TDAT.m                1351.00:  Tot Depth Attmp 
 TDDF.                      No:  Trip for DD 
 TDLG.m                1351.00:  Tot Depth Loggd 
 TFF .                      No:  Trip for Fail 
 TQAA.f-kp               27.00:  Torque Abs Avg 
 TQAN.f-kp               20.00:  Torque Abs Min 
 TQAX.f-kp               30.00:  Torque Abs Max 
 TRRT.°/30m               0.60:  Turn Rotating 
 MRT .                    EWER:  Maximum Recorded Temperature 
 TTMX.degC               83.00:  Max Tool Temp 
 VS01.                90511138:  Virtual Str1 SN 
 VS02.                90524876:  Virtual Str2 SN 
 VS03.                90524872:  Virtual Str3 SN 
 VS04.                90502750:  Virtual Str4 SN 
 VS05.                12330984:  Virtual Str5 SN 
 WBMN.klb                 0.00:  WOB Min 
 WOBA.klb                15.00:  WOB Avg 
 WOBX.klb                20.00:  WOB Max 
 YP  .lhf2               31.00:  Yield Point 
~Curve Information Block
#MNEM.UNIT                 API CODE     Curve Description
#---------               -----------    ---------------------------
 TIME.HHMMSS            00 000 000 000:  GT Time & Date
 GTDEPTH.m              00 000 000 000:  GT Depth
 GTPQH.psia             00 000 000 000:  GT HR Quartz Pressure
 GTTQ.degC              00 000 000 000:  GT Quartz Temperature
 GTTN.NONE              00 000 000 000:  GT Test Number
 GTET.sec               00 000 000 000:  GT Elapsed Test Time
 GTTVD.m                00 000 000 000:  GT True Vertical Depth
#Other Information
#
#WARRANTY: Halliburton will use its best efforts to furnish customers with 
#accurate information and interpretations that are part of, and incident to, the services 
#provided.  However, Halliburton cannot and does not warrant the accuracy 
#or correctness of such information and interpretations.  Under no circumstances should any 
#such information or interpretation be relied upon as the sole basis for any drilling, 
#completion, production, or financial decision or any procedure involving any risk to the 
#safety of any drilling venture, drilling rig or its crew or any other third party.  The 
#Customer has full responsibility for all drilling, completion and production operation.  
#Halliburton makes no representations or warranties, either expressed or 
#implied, including, but not limited to, the implied warranties of merchantability or fitness 
#for a particular purpose, with respect to the services rendered.  In no event will 
#Halliburton be liable for failure to obtain any particular results or for 
#any damages, including, but not limited to, indirect, special or consequential damages, 
#resulting from the use of any information or interpretation provided by Halliburton.
#
~A           TIME           GTDEPTH  GTPQH  GTTQ  GTTN  GTET   GTTVD  
# ...
   10:54:48.283.04-May-2020 4718.46 4251.67 81.51 6.00 230.04 2519.85
   10:54:48.483.04-May-2020 4718.46 4251.67 81.51 6.00 230.24 2519.85
   10:54:48.683.04-May-2020 4718.46 4251.15 81.51 6.00 230.44 2519.85
   10:54:48.883.04-May-2020 4718.46 4251.54 81.51 6.00 230.64 2519.85
   10:54:49.083.04-May-2020 4718.46 4251.12 81.51 6.00 230.84 2519.85
   10:54:49.283.04-May-2020 4718.46 4251.11 81.51 6.00 231.04 2519.85
   10:54:49.483.04-May-2020 4718.46 4251.11 81.51 6.00 231.24 2519.85
   10:54:49.683.04-May-2020 4718.46 4251.12 81.51 6.00 231.44 2519.85
   10:54:49.883.04-May-2020 4718.46 4251.25 81.51 6.00 231.64 2519.85
   10:54:50.083.04-May-2020 4718.46 4251.20 81.50 6.00 231.84 2519.85
   10:54:50.283.04-May-2020 4718.46 4251.14 81.50 6.00 232.04 2519.85
   10:54:50.483.04-May-2020 4718.46 4251.14 81.50 6.00 232.24 2519.85
   10:54:50.683.04-May-2020 4718.46 4251.33 81.50 6.00 232.44 2519.85
   10:54:50.883.04-May-2020 4718.46 4251.98 81.50 6.00 232.64 2519.85
   10:54:51.083.04-May-2020 4718.46 4251.73 81.50 6.00 232.84 2519.85
   10:54:51.283.04-May-2020 4718.46 4251.54 81.50 6.00 233.04 2519.85
   10:54:51.483.04-May-2020 4718.46 4251.54 81.50 6.00 233.24 2519.85
   10:54:51.683.04-May-2020 4718.46 4251.76 81.50 6.00 233.44 2519.85
   10:54:51.883.04-May-2020 4718.46 4251.57 81.50 6.00 233.64 2519.85
   10:54:52.083.04-May-2020 4718.46 4251.51 81.50 6.00 233.84 2519.85
   10:54:52.283.04-May-2020 4718.46 4251.36 81.50 6.00 234.04 2519.85
   10:54:52.483.04-May-2020 4718.46 4251.36 81.50 6.00 234.24 2519.85
   10:54:52.683.04-May-2020 4718.46 4251.35 81.49 6.00 234.44 2519.85
   10:54:52.883.04-May-2020 4718.46 4251.29 81.49 6.00 234.64 2519.85
   10:54:53.084.04-May-2020 4718.46 4251.26 81.49 6.00 234.84 2519.85
   10:54:53.284.04-May-2020 4718.46 4251.24 81.49 6.00 235.04 2519.85
   10:54:53.484.04-May-2020 4718.46 4251.24 81.49 6.00 235.24 2519.85
   10:54:53.684.04-May-2020 4718.46 4251.66 81.49 6.00 235.44 2519.85
   10:54:53.884.04-May-2020 4718.46 4251.76 81.49 6.00 235.64 2519.85
   10:54:54.084.04-May-2020 4718.46 4252.13 81.49 6.00 235.84 2519.85
   10:54:54.284.04-May-2020 4718.46 4252.03 81.49 6.00 236.04 2519.85
   10:54:54.484.04-May-2020 4718.46 4251.83 81.49 6.00 236.24 2519.85
   10:54:54.684.04-May-2020 4718.46 4251.57 81.49 6.00 236.44 2519.85
   10:54:54.884.04-May-2020 4718.46 4251.78 81.49 6.00 236.64 2519.85
   10:54:55.084.04-May-2020 4718.46 4251.84 81.49 6.00 236.84 2519.85
   10:54:55.284.04-May-2020 4718.46 4251.56 81.48 6.00 237.04 2519.85
   10:54:55.484.04-May-2020 4718.46 4251.56 81.48 6.00 237.24 2519.85
   10:54:55.684.04-May-2020 4718.46 4251.63 81.48 6.00 237.44 2519.85
   10:54:55.884.04-May-2020 4718.46 4251.56 81.48 6.00 237.64 2519.85
   10:54:56.084.04-May-2020 4718.46 4251.00 81.48 6.00 237.84 2519.85
   10:54:56.284.04-May-2020 4718.46 4251.42 81.48 6.00 238.04 2519.85
   10:54:56.484.04-May-2020 4718.46 4251.42 81.48 6.00 238.24 2519.85
   10:54:56.684.04-May-2020 4718.46 4251.21 81.48 6.00 238.44 2519.85
   10:54:56.884.04-May-2020 4718.46 4251.27 81.48 6.00 238.64 2519.85
   10:54:57.084.04-May-2020 4718.46 4251.45 81.48 6.00 238.84 2519.85
   10:54:57.284.04-May-2020 4718.46 4251.22 81.48 6.00 239.04 2519.85
   10:54:57.484.04-May-2020 4718.46 4251.22 81.48 6.00 239.24 2519.85
   10:54:57.684.04-May-2020 4718.46 4251.19 81.48 6.00 239.44 2519.85
   10:54:57.884.04-May-2020 4718.46 4251.20 81.47 6.00 239.64 2519.85
   10:54:58.084.04-May-2020 4718.46 4251.36 81.47 6.00 239.84 2519.85
   10:54:58.284.04-May-2020 4718.46 4251.32 81.47 6.00 240.04 2519.85
   10:54:58.484.04-May-2020 4718.46 4251.32 81.47 6.00 240.24 2519.85
   10:54:58.684.04-May-2020 4718.46 4251.35 81.47 6.00 240.44 2519.85
   10:54:58.884.04-May-2020 4718.46 4251.37 81.47 6.00 240.64 2519.85
   10:54:59.084.04-May-2020 4718.46 4252.25 81.47 6.00 240.84 2519.85
   10:54:59.284.04-May-2020 4718.46 4251.67 81.47 6.00 241.04 2519.85
   10:54:59.484.04-May-2020 4718.46 4251.84 81.47 6.00 241.24 2519.85
   10:54:59.685.04-May-2020 4718.46 4251.67 81.47 6.00 241.44 2519.85
   10:54:59.885.04-May-2020 4718.46 4251.53 81.47 6.00 241.64 2519.85
   10:55:00.085.04-May-2020 4718.46 4251.57 81.47 6.00 241.84 2519.85
   10:55:00.285.04-May-2020 4718.46 4251.44 81.46 6.00 242.04 2519.85
   10:55:00.485.04-May-2020 4718.46 4251.45 81.46 6.00 242.24 2519.85
   10:55:00.685.04-May-2020 4718.46 4251.51 81.46 6.00 242.44 2519.85
   10:55:00.885.04-May-2020 4718.46 4251.39 81.46 6.00 242.64 2519.85
   10:55:01.085.04-May-2020 4718.46 4251.26 81.46 6.00 242.84 2519.85
   10:55:01.285.04-May-2020 4718.46 4251.18 81.46 6.00 243.04 2519.85
   10:55:01.485.04-May-2020 4718.46 4251.08 81.46 6.00 243.24 2519.85
   10:55:01.685.04-May-2020 4718.46 4251.82 81.46 6.00 243.44 2519.85
   10:55:01.885.04-May-2020 4718.46 4251.29 81.46 6.00 243.64 2519.85
   10:55:02.085.04-May-2020 4718.46 4251.84 81.46 6.00 243.84 2519.85
   10:55:02.285.04-May-2020 4718.46 4252.27 81.46 6.00 244.04 2519.85
   10:55:02.485.04-May-2020 4718.46 4252.27 81.46 6.00 244.24 2519.85
   10:55:02.685.04-May-2020 4718.46 4251.48 81.46 6.00 244.44 2519.85
   10:55:02.885.04-May-2020 4718.46 4251.60 81.45 6.00 244.64 2519.85
   10:55:03.085.04-May-2020 4718.46 4251.46 81.45 6.00 244.84 2519.85
   10:55:03.285.04-May-2020 4718.46 4252.09 81.45 6.00 245.04 2519.85
   10:55:03.485.04-May-2020 4718.46 4252.09 81.45 6.00 245.24 2519.85
   10:55:03.685.04-May-2020 4718.46 4251.08 81.45 6.00 245.44 2519.85
   10:55:03.885.04-May-2020 4718.46 4252.11 81.45 6.00 245.64 2519.85
   10:55:04.085.04-May-2020 4718.46 4251.13 81.45 6.00 245.84 2519.85
   10:55:04.285.04-May-2020 4718.46 4251.10 81.45 6.00 246.04 2519.85
   10:55:04.485.04-May-2020 4718.46 4251.10 81.45 6.00 246.24 2519.85
   10:55:04.685.04-May-2020 4718.46 4251.09 81.45 6.00 246.44 2519.85
   10:55:04.885.04-May-2020 4718.46 4251.38 81.45 6.00 246.64 2519.85
   10:55:05.085.04-May-2020 4718.46 4251.30 81.45 6.00 246.84 2519.85
   10:55:05.285.04-May-2020 4718.46 4251.27 81.45 6.00 247.04 2519.85
   10:55:05.485.04-May-2020 4718.46 4251.27 81.45 6.00 247.24 2519.85
   10:55:05.685.04-May-2020 4718.46 4251.33 81.44 6.00 247.44 2519.85
   10:55:05.885.04-May-2020 4718.46 4251.26 81.44 6.00 247.64 2519.85
   10:55:06.086.04-May-2020 4718.46 4251.33 81.44 6.00 247.84 2519.85
   10:55:06.286.04-May-2020 4718.46 4251.42 81.44 6.00 248.04 2519.85
   10:55:06.486.04-May-2020 4718.46 4251.42 81.44 6.00 248.24 2519.85
   10:55:06.686.04-May-2020 4718.46 4251.32 81.44 6.00 248.44 2519.85
   10:55:06.886.04-May-2020 4718.46 4251.37 81.44 6.00 248.64 2519.85
   10:55:07.086.04-May-2020 4718.46 4251.78 81.44 6.00 248.84 2519.85
   10:55:07.286.04-May-2020 4718.46 4251.82 81.44 6.00 249.04 2519.85
   10:55:07.486.04-May-2020 4718.46 4251.82 81.44 6.00 249.24 2519.85
   10:55:07.686.04-May-2020 4718.46 4251.97 81.44 6.00 249.44 2519.85
   10:55:07.886.04-May-2020 4718.46 4251.72 81.44 6.00 249.64 2519.85
   10:55:08.086.04-May-2020 4718.46 4251.74 81.43 6.00 249.84 2519.85
   10:55:08.286.04-May-2020 4718.46 4251.60 81.43 6.00 250.04 2519.85
   10:55:08.486.04-May-2020 4718.46 4251.60 81.43 6.00 250.24 2519.85
   10:55:08.686.04-May-2020 4718.46 4251.39 81.43 6.00 250.44 2519.85
   10:55:08.886.04-May-2020 4718.46 4251.43 81.43 6.00 250.64 2519.85
   10:55:09.086.04-May-2020 4718.46 4251.42 81.43 6.00 250.84 2519.85
   10:55:09.286.04-May-2020 4718.46 4251.34 81.43 6.00 251.04 2519.85
   10:55:09.486.04-May-2020 4718.46 4251.34 81.43 6.00 251.24 2519.85
   10:55:09.686.04-May-2020 4718.46 4251.48 81.43 6.00 251.44 2519.85
   10:55:09.886.04-May-2020 4718.46 4251.37 81.43 6.00 251.64 2519.85
   10:55:10.086.04-May-2020 4718.46 4251.29 81.43 6.00 251.84 2519.85
   10:55:10.286.04-May-2020 4718.46 4251.78 81.43 6.00 252.04 2519.85
   10:55:10.486.04-May-2020 4718.46 4251.78 81.43 6.00 252.24 2519.85
   10:55:10.686.04-May-2020 4718.46 4251.87 81.42 6.00 252.44 2519.85
   10:55:10.886.04-May-2020 4718.46 4251.50 81.42 6.00 252.64 2519.85
   10:55:11.086.04-May-2020 4718.46 4251.79 81.42 6.00 252.84 2519.85
