~Version Information
 VERS.                  2.0:   CWLS log ASCII Standard -VERSION 2.0
 WRAP.                   NO:   One line per depth step
~Well Information Block
#MNEM.UNIT     VALUE/NAME     DESCRIPTION
#---------     -----------    ---------------------------
 STRT.S             10:50:58 04-May-20: START TIME 10:50:58 04-May-20
 STOP.S             10:57:32 04-May-20: STOP TIME  10:57:32 04-May-20
 STEP.S                   0.00: STEP TIME
 NULL.                 -999.25: NULL VALUE
 DFWT.                        :  DIST FWL TEXT
 DFST.                        :  DIST FSL TEXT
 DMF .             Drill Floor:  DRILL MEAS FROM
 STIM.      03.00.00 25-Mar-20:  START TIME
 DATE.      00.00.00 19-May-20:  END TIME
 SPUD.               27-Aug-20:  SPUD DATE
 NREF.                    Grid:  NORTH REFERENCE
 HPTY.       Minimum Curvature:  HOLE POS TYPE
 DMOD.             Drill Model:  DRILL MOD DESC
 SVYD.                  Survey:  SURVEY DESC
 ILTD.               Lithology:  INTERP LTH DESC
 FTOP.          Formation Tops:  FORM TOPS DESC
 SON .        AZ-XX-0906252240:  JOB NUMBER
 RIG .             West Chirag:  RIG NAME
 PDAT.          Mean Sea Level:  PERMANENT DATUM
 FLD .                     ACG:  FIELD NAME
 CTRY.              Azerbaijan:  COUNTRY NAME
 WELL.                     J23:  WELL NAME
 SRVC.          Turan Drilling:  CONTRACTOR
 COMP.     BP Exploration (Caspian Sea) Ltd.:  COMPANY
 WTYP.                Deviated:  WELL TYPE
 MDS .        Operator Entered:  MAG DATA SOURCE
 UWI .                     N/A:  UNIQUE WELL IDENTIFIER
 API .                     N/A:  API NUMBER
 BASE.              Azerbaijan:  LOGGING EQUIPMENT BASE LOCATION
 REGN.                   EESSA:  REGION
 PROV.                    Baku:  PROVINCE
 STAT.                    Baku:  STATE NAME
 MWDS.                     N/A:  MWD SHOP
 JOBN.        AZ-XX-0906252240:  JOB TICKET NUMB
 DOE .                     N/A:  DOE NUMBER
 DCON.         Sperry Drilling:  DIRECTNL CONTR
 UNIT.                     N/A:  LOGGING EQUIPMENT ID
 CNTY.                        :  COUNTY
 LOC .                        :  LOCATION
 LMF .             Drill Floor:  LOG MEASURED FROM
 TVDS.m                  43.00:  TVDSS CORRECTN
 LATI.deg                40.13:  LATITUDE
 LONG.deg                51.22:  LONGITUDE
 WHNS.m                   9.43:  WELL HEAD N/S
 WHEW.m                  -8.91:  WELL HEAD E/W
 UTMX.m              519005.06:  UTM X
 UTMY.m             4443793.85:  UTM Y
 DFWL.m                   0.00:  DISTANCE FWL
 DFSL.m                   0.00:  DISTANCE FSL
 SDEP.m                 363.00:  START DEPTH
 TDD .m                5150.01:  TOTAL DEPTH (DRILLER)
 VSDR.deg               179.88:  VERT SEC DIRECT
 GVFD.g                   1.00:  GRAVITY FIELD
 MFLD.nT              50295.00:  MAGNETIC FIELD
 MDIP.deg                59.56:  MAGNETIC DIP
 MDEC.deg                 6.45:  MAGNETIC DECL
 GRDC.deg                 0.14:  GRID CORRECTION
 AZTC.deg                 6.31:  AZM TOTAL CORR
 EPD .m                   0.00:  ELEVATION
 EGL .m                   0.00:  GROUND ELEVATION
 WDMS.m                 169.80:  WD ELEV
 APD .m                  43.00:  DEPTH ABOVE PD
 DEP .m                 354.17:  DEPTH
 AGAP.m                  43.00:  AIR GAP
 VSEW.m                  -8.91:  VERT SEC E/W
 VSNS.m                   9.43:  VERT SEC N/S
 EKB .m                   0.00:  KB ELEVATION
 EDF .m                  43.00:  DF ELEVATION
 TDL .m                1351.00:  TOTAL DEPTH (LOGGER)
 VSC .                       0:  VS TO CLOSURE
 MAGU.                 1850802:  MAGUTM CHECKSUM
~Parameter Information Block
#MNEM.UNIT       Value        Description
#---------     -----------    ---------------------------
 AV  .mps                 1.00:  Ann Velocity 
 AVMX.mps                 2.40:  Max Ann Veloc 
 AZIF.deg               148.96:  Azm, Final 
 BHAT.        Rotary Steerable:  BHA Type 
 BROT.°/30m               0.04:  Build Rotating 
 BS  .in                 12.25:  Bit Size 
 BSZ .in                 12.25:  Bit Size 
 BTPL.psig              814.00:  Bit Press Loss 
 TCS .hr                106.00:  Time Ciculation Ended 
 CV  .mps                 2.47:  Crit Velocity 
 CVMX.mps                 2.64:  Max Crit Veloc 
 DD1 .          Rashad Habibov:  Direct Drillr 1 
 DD2 .         Rasim Ibrahimov:  Direct Drillr 2 
 DDSV.                 iCruise:  DD Service 
 DEFF.%                 100.00:  % Det Eff 
 DLRX.°/30m               0.70:  Dogleg Rot Max 
 DLSO.°/30m               3.00:  Dogleg Oriented 
 DLSX.°/30m               4.55:  Dogleg Str Max 
 DRET.      08.08.32 02-May-20:  Drill End Time 
 DRST.      08.08.32 28-Apr-20:  Drill Start Tim 
 DTIM.hr                 60.00:  Time Drilling 
 EDEP.m                4761.01:  End Depth 
 ENG1.           Eldar Hajiyev:  Engineer 1 
 ENG2.        Marcelo Sandoval:  Engineer 2 
 ETIM.      23.23.07 05-May-20:  End Time 
 FLOI.gpm              1200.00:  Flow In 
 FLON.gpm               900.00:  Flow In Min 
 FLOS.cptm                0.00:  Fluid Loss 
 FLOX.gpm              1200.00:  Flow In Max 
 HFLO.                      No:  High Flow 
 HPRE.                      No:  High Pressure 
 HTEM.                      No:  High Temp 
 HYDO.m                   1.80:  Hydro Offset 
 IFIN.deg                68.17:  Inc, Final 
 IMAX.deg                74.61:  Inc Max 
 IMIN.deg                68.15:  Inc Min 
 IMND.m                4317.87:  Inc Min Depth 
 IMXD.m                4714.01:  Inc Max Depth 
 LETM.      08.08.32 02-May-20:  Log End Time 
 LOST.hr                     2:  Lost Rig Time 
 LSTM.      08.08.32 28-Apr-20:  Log Start Time 
 MDCL.ppm             41000.00:  Mud Chlorides 
 MDES.     Inversion Oil/Synthetic:  Mud Desc 
 DFD .sg                  1.58:  Mud Density 
 MDMN.sg                  1.58:  Dens Mud Min 
 MDMX.sg                  1.58:  Dens Mud Max 
 MOIL.                      71:  Run Mud Oil % 
 MOWR.                   71:29:  Run Mud OWR 
 MSND.                     0.1:  Run Mud Sand % 
 MSOL.                      23:  Run Mud Solids% 
 DFV .spqt               82.00:  Mud Viscosity 
 MWOD.in                  8.00:  MWD Tool OD 
 MWSI.                     Yes:  Serv Intrp, MWD 
 OTIM.hr                125.00:  Time Operating 
 PMAX.psia             6129.00:  Press Op, Max 
 PV  .cP                 32.00:  Mud PV 
 RUN .                     800:  Run Number 
 ROPA.m/hr               30.00:  ROP Avg 
 ROPN.m/hr               10.00:  ROP Min 
 ROPX.m/hr               40.00:  ROP Max 
 RPMA.rpm               140.00:  RPM Surface Avg 
 RPMN.rpm                80.00:  RPM Surface Min 
 RPMX.rpm               140.00:  RPM Surface Max 
 RRUN.                    L503:  Rig Run Number 
 RTIM.hr                  2.00:  Time Reaming 
 SAZI.deg               184.23:  Azm, Start 
 SDEP.m                3410.01:  Start Depth 
 SIDD.                      No:  Serv Intrp, DD 
 SINC.deg                68.29:  Inc, Start 
 SPPA.psig             6000.00:  SPP Avg 
 SPPN.psig             4000.00:  SPP Min 
 SPPX.psig             6100.00:  SPP Max 
 STIM.      08.08.32 28-Apr-20:  Start Time 
 SVCS.                 DD, MWD:  Services 
 SVER.                    9.20:  Sperry Version 
 TDAT.m                1351.00:  Tot Depth Attmp 
 TDDF.                      No:  Trip for DD 
 TDLG.m                1351.00:  Tot Depth Loggd 
 TFF .                      No:  Trip for Fail 
 TQAA.f-kp               27.00:  Torque Abs Avg 
 TQAN.f-kp               20.00:  Torque Abs Min 
 TQAX.f-kp               30.00:  Torque Abs Max 
 TRRT.°/30m               0.60:  Turn Rotating 
 MRT .                    EWER:  Maximum Recorded Temperature 
 TTMX.degC               83.00:  Max Tool Temp 
 VS01.                90511138:  Virtual Str1 SN 
 VS02.                90524876:  Virtual Str2 SN 
 VS03.                90524872:  Virtual Str3 SN 
 VS04.                90502750:  Virtual Str4 SN 
 VS05.                12330984:  Virtual Str5 SN 
 WBMN.klb                 0.00:  WOB Min 
 WOBA.klb                15.00:  WOB Avg 
 WOBX.klb                20.00:  WOB Max 
 YP  .lhf2               31.00:  Yield Point 
~Curve Information Block
#MNEM.UNIT                 API CODE     Curve Description
#---------               -----------    ---------------------------
 TIME.HHMMSS            00 000 000 000:  GT Time & Date
 GTDEPTH.m              00 000 000 000:  GT Depth
 GTPQH.psia             00 000 000 000:  GT HR Quartz Pressure
 GTTQ.degC              00 000 000 000:  GT Quartz Temperature
 GTTN.NONE              00 000 000 000:  GT Test Number
 GTET.sec               00 000 000 000:  GT Elapsed Test Time
 GTTVD.m                00 000 000 000:  GT True Vertical Depth
#Other Information
#
#WARRANTY: Halliburton will use its best efforts to furnish customers with 
#accurate information and interpretations that are part of, and incident to, the services 
#provided.  However, Halliburton cannot and does not warrant the accuracy 
#or correctness of such information and interpretations.  Under no circumstances should any 
#such information or interpretation be relied upon as the sole basis for any drilling, 
#completion, production, or financial decision or any procedure involving any risk to the 
#safety of any drilling venture, drilling rig or its crew or any other third party.  The 
#Customer has full responsibility for all drilling, completion and production operation.  
#Halliburton makes no representations or warranties, either expressed or 
#implied, including, but not limited to, the implied warranties of merchantability or fitness 
#for a particular purpose, with respect to the services rendered.  In no event will 
#Halliburton be liable for failure to obtain any particular results or for 
#any damages, including, but not limited to, indirect, special or consequential damages, 
#resulting from the use of any information or interpretation provided by Halliburton.
#
~A           TIME           GTDEPTH  GTPQH  GTTQ  GTTN  GTET   GTTVD  
# ...
   10:55:11.286.04-May-2020 4718.46 4251.90 81.42 6.00 253.04 2519.85
   10:55:11.486.04-May-2020 4718.46 4251.90 81.42 6.00 253.24 2519.85
   10:55:11.686.04-May-2020 4718.46 4251.46 81.42 6.00 253.44 2519.85
   10:55:11.886.04-May-2020 4718.46 4251.67 81.42 6.00 253.64 2519.85
   10:55:12.086.04-May-2020 4718.46 4251.78 81.42 6.00 253.84 2519.85
   10:55:12.286.04-May-2020 4718.46 4251.22 81.42 6.00 254.04 2519.85
   10:55:12.487.04-May-2020 4718.46 4251.22 81.42 6.00 254.24 2519.85
   10:55:12.687.04-May-2020 4718.46 4251.07 81.42 6.00 254.44 2519.85
   10:55:12.887.04-May-2020 4718.46 4251.07 81.42 6.00 254.64 2519.85
   10:55:13.087.04-May-2020 4718.46 4251.62 81.41 6.00 254.84 2519.85
   10:55:13.287.04-May-2020 4718.46 4251.37 81.41 6.00 255.04 2519.85
   10:55:13.487.04-May-2020 4718.46 4251.37 81.41 6.00 255.24 2519.85
   10:55:13.687.04-May-2020 4718.46 4251.16 81.41 6.00 255.44 2519.85
   10:55:13.887.04-May-2020 4718.46 4251.15 81.41 6.00 255.64 2519.85
   10:55:14.087.04-May-2020 4718.46 4251.12 81.41 6.00 255.84 2519.85
   10:55:14.287.04-May-2020 4718.46 4251.21 81.41 6.00 256.04 2519.85
   10:55:14.487.04-May-2020 4718.46 4251.21 81.41 6.00 256.24 2519.85
   10:55:14.687.04-May-2020 4718.46 4251.20 81.41 6.00 256.44 2519.85
   10:55:14.887.04-May-2020 4718.46 4251.22 81.41 6.00 256.64 2519.85
   10:55:15.087.04-May-2020 4718.46 4251.38 81.41 6.00 256.84 2519.85
   10:55:15.287.04-May-2020 4718.46 4251.85 81.41 6.00 257.04 2519.85
   10:55:15.487.04-May-2020 4718.46 4251.85 81.41 6.00 257.24 2519.85
   10:55:15.687.04-May-2020 4718.46 4251.88 81.40 6.00 257.44 2519.85
   10:55:15.887.04-May-2020 4718.46 4251.65 81.40 6.00 257.64 2519.85
   10:55:16.087.04-May-2020 4718.46 4251.81 81.40 6.00 257.84 2519.85
   10:55:16.287.04-May-2020 4718.46 4251.83 81.40 6.00 258.04 2519.85
   10:55:16.487.04-May-2020 4718.46 4251.83 81.40 6.00 258.24 2519.85
   10:55:16.687.04-May-2020 4718.46 4251.58 81.40 6.00 258.44 2519.85
   10:55:16.887.04-May-2020 4718.46 4251.48 81.40 6.00 258.64 2519.85
   10:55:17.087.04-May-2020 4718.46 4251.46 81.40 6.00 258.84 2519.85
   10:55:17.287.04-May-2020 4718.46 4064.39 81.40 6.00 259.04 2519.85
   10:55:17.487.04-May-2020 4718.46 4064.39 81.40 6.00 259.24 2519.85
   10:55:17.687.04-May-2020 4718.46 3502.17 81.40 6.00 259.44 2519.85
   10:55:17.887.04-May-2020 4718.46 3340.38 81.40 6.00 259.64 2519.85
   10:55:18.087.04-May-2020 4718.46 3211.91 81.39 6.00 259.84 2519.85
   10:55:18.287.04-May-2020 4718.46 3107.44 81.39 6.00 260.04 2519.85
   10:55:18.487.04-May-2020 4718.46 3107.44 81.39 6.00 260.24 2519.85
   10:55:18.687.04-May-2020 4718.46 2955.35 81.39 6.00 260.44 2519.85
   10:55:18.887.04-May-2020 4718.46 2899.48 81.39 6.00 260.64 2519.85
   10:55:19.088.04-May-2020 4718.46 2853.59 81.39 6.00 260.84 2519.85
   10:55:19.288.04-May-2020 4718.46 2815.39 81.39 6.00 261.04 2519.85
   10:55:19.488.04-May-2020 4718.46 2815.39 81.39 6.00 261.24 2519.85
   10:55:19.688.04-May-2020 4718.46 2759.96 81.38 6.00 261.44 2519.85
   10:55:19.888.04-May-2020 4718.46 2736.52 81.38 6.00 261.64 2519.85
   10:55:20.088.04-May-2020 4718.46 2716.17 81.38 6.00 261.84 2519.85
   10:55:20.288.04-May-2020 4718.46 2695.47 81.38 6.00 262.04 2519.85
   10:55:20.488.04-May-2020 4718.46 2695.47 81.38 6.00 262.24 2519.85
   10:55:20.688.04-May-2020 4718.46 2675.74 81.37 6.00 262.44 2519.85
   10:55:20.888.04-May-2020 4718.46 2662.50 81.37 6.00 262.64 2519.85
   10:55:21.088.04-May-2020 4718.46 2655.56 81.37 6.00 262.84 2519.85
   10:55:21.288.04-May-2020 4718.46 2649.03 81.37 6.00 263.04 2519.85
   10:55:21.488.04-May-2020 4718.46 2649.03 81.37 6.00 263.24 2519.85
   10:55:21.688.04-May-2020 4718.46 2632.68 81.36 6.00 263.44 2519.85
   10:55:21.888.04-May-2020 4718.46 2627.42 81.36 6.00 263.64 2519.85
   10:55:22.088.04-May-2020 4718.46 2622.70 81.36 6.00 263.84 2519.85
   10:55:22.288.04-May-2020 4718.46 2616.74 81.36 6.00 264.04 2519.85
   10:55:22.488.04-May-2020 4718.46 2616.74 81.36 6.00 264.24 2519.85
   10:55:22.688.04-May-2020 4718.46 2612.29 81.35 6.00 264.44 2519.85
   10:55:22.888.04-May-2020 4718.46 2611.16 81.35 6.00 264.64 2519.85
   10:55:23.088.04-May-2020 4718.46 2608.02 81.35 6.00 264.84 2519.85
   10:55:23.288.04-May-2020 4718.46 2608.62 81.35 6.00 265.04 2519.85
   10:55:23.488.04-May-2020 4718.46 2608.62 81.35 6.00 265.24 2519.85
   10:55:23.688.04-May-2020 4718.46 3066.00 81.35 6.00 265.44 2519.85
   10:55:23.888.04-May-2020 4718.46 3286.63 81.34 6.00 265.64 2519.85
   10:55:24.088.04-May-2020 4718.46 3460.68 81.34 6.00 265.84 2519.85
   10:55:24.288.04-May-2020 4718.46 3598.74 81.34 6.00 266.04 2519.85
   10:55:24.488.04-May-2020 4718.46 3709.43 81.34 6.00 266.24 2519.85
   10:55:24.688.04-May-2020 4718.46 3798.75 81.34 6.00 266.44 2519.85
   10:55:24.888.04-May-2020 4718.46 3871.55 81.34 6.00 266.64 2519.85
   10:55:25.088.04-May-2020 4718.46 3930.68 81.34 6.00 266.84 2519.85
   10:55:25.288.04-May-2020 4718.46 3979.53 81.33 6.00 267.04 2519.85
   10:55:25.489.04-May-2020 4718.46 3979.53 81.33 6.00 267.24 2519.85
   10:55:25.689.04-May-2020 4718.46 4053.27 81.33 6.00 267.44 2519.85
   10:55:25.889.04-May-2020 4718.46 4080.96 81.33 6.00 267.64 2519.85
   10:55:26.089.04-May-2020 4718.46 4103.67 81.33 6.00 267.84 2519.85
   10:55:26.289.04-May-2020 4718.46 4122.93 81.33 6.00 268.04 2519.85
   10:55:26.489.04-May-2020 4718.46 4122.93 81.33 6.00 268.24 2519.85
   10:55:26.689.04-May-2020 4718.46 4153.79 81.33 6.00 268.44 2519.85
   10:55:26.889.04-May-2020 4718.46 4165.52 81.33 6.00 268.64 2519.85
   10:55:27.089.04-May-2020 4718.46 4175.74 81.33 6.00 268.84 2519.85
   10:55:27.289.04-May-2020 4718.46 4184.50 81.33 6.00 269.04 2519.85
   10:55:27.489.04-May-2020 4718.46 4184.50 81.33 6.00 269.24 2519.85
   10:55:27.689.04-May-2020 4718.46 4198.44 81.33 6.00 269.44 2519.85
   10:55:27.889.04-May-2020 4718.46 4203.70 81.33 6.00 269.64 2519.85
   10:55:28.089.04-May-2020 4718.46 4209.23 81.33 6.00 269.84 2519.85
   10:55:28.289.04-May-2020 4718.46 4213.01 81.33 6.00 270.04 2519.85
   10:55:28.489.04-May-2020 4718.46 4213.01 81.33 6.00 270.24 2519.85
   10:55:28.689.04-May-2020 4718.46 4219.70 81.33 6.00 270.44 2519.85
   10:55:28.889.04-May-2020 4718.46 4222.86 81.33 6.00 270.64 2519.85
   10:55:29.089.04-May-2020 4718.46 4225.12 81.33 6.00 270.84 2519.85
   10:55:29.289.04-May-2020 4718.46 4227.36 81.33 6.00 271.04 2519.85
   10:55:29.489.04-May-2020 4718.46 4227.36 81.33 6.00 271.24 2519.85
   10:55:29.689.04-May-2020 4718.46 4231.06 81.33 6.00 271.44 2519.85
   10:55:29.889.04-May-2020 4718.46 4232.73 81.33 6.00 271.64 2519.85
   10:55:30.089.04-May-2020 4718.46 4233.92 81.33 6.00 271.84 2519.85
   10:55:30.289.04-May-2020 4718.46 4235.06 81.33 6.00 272.04 2519.85
   10:55:30.489.04-May-2020 4718.46 4235.06 81.33 6.00 272.24 2519.85
   10:55:30.689.04-May-2020 4718.46 4237.28 81.33 6.00 272.44 2519.85
   10:55:30.889.04-May-2020 4718.46 4238.25 81.33 6.00 272.64 2519.85
   10:55:31.089.04-May-2020 4718.46 4238.93 81.33 6.00 272.84 2519.85
   10:55:31.289.04-May-2020 4718.46 4239.72 81.33 6.00 273.04 2519.85
   10:55:31.489.04-May-2020 4718.46 4240.39 81.33 6.00 273.24 2519.85
   10:55:31.689.04-May-2020 4718.46 4240.99 81.33 6.00 273.44 2519.85
   10:55:31.890.04-May-2020 4718.46 4241.95 81.33 6.00 273.64 2519.85
   10:55:32.090.04-May-2020 4718.46 4242.55 81.33 6.00 273.84 2519.85
   10:55:32.290.04-May-2020 4718.46 4242.90 81.33 6.00 274.04 2519.85
   10:55:32.490.04-May-2020 4718.46 4242.90 81.33 6.00 274.24 2519.85
   10:55:32.690.04-May-2020 4718.46 4243.90 81.33 6.00 274.44 2519.85
   10:55:32.890.04-May-2020 4718.46 4244.03 81.33 6.00 274.64 2519.85
   10:55:33.090.04-May-2020 4718.46 4244.35 81.33 6.00 274.84 2519.85
   10:55:33.290.04-May-2020 4718.46 4244.63 81.33 6.00 275.04 2519.85
   10:55:33.490.04-May-2020 4718.46 4244.63 81.33 6.00 275.24 2519.85
   10:55:33.690.04-May-2020 4718.46 4245.16 81.33 6.00 275.44 2519.85
   10:55:33.890.04-May-2020 4718.46 4245.27 81.33 6.00 275.64 2519.85
   10:55:34.090.04-May-2020 4718.46 4245.38 81.33 6.00 275.84 2519.85
