~Version Information
 VERS.                  2.0:   CWLS log ASCII Standard -VERSION 2.0
 WRAP.                   NO:   One line per depth step
~Well Information Block
#MNEM.UNIT     VALUE/NAME     DESCRIPTION
#---------     -----------    ---------------------------
 STRT.S             16:15:55 30-Jun-20: START TIME 16:15:55 30-Jun-20
 STOP.S             16:24:50 30-Jun-20: STOP TIME  16:24:50 30-Jun-20
 STEP.S                   0.00: STEP TIME
 NULL.                 -999.25: NULL VALUE
 DFWT.                        :  DIST FWL TEXT
 DFST.                        :  DIST FSL TEXT
 DMF .             Drill Floor:  DRILL MEAS FROM
 STIM.      09.59.28 01-Jun-20:  START TIME
 DATE.      09.59.28 01-Jun-20:  END TIME
 SPUD.               01-Jun-20:  SPUD DATE
 NREF.                    Grid:  NORTH REFERENCE
 HPTY.       Minimum Curvature:  HOLE POS TYPE
 DMOD.             Drill Model:  DRILL MOD DESC
 SVYD.                  Survey:  SURVEY DESC
 ILTD.               Lithology:  INTERP LTH DESC
 FTOP.          Formation Tops:  FORM TOPS DESC
 SON .        AZ-XX-0905455768:  JOB NUMBER
 WTYP.                Deviated:  WELL TYPE
 COMP.     BP Exploration(Caspian Sea):  COMPANY
 BASE.              Azerbaijan:  LOGGING EQUIPMENT BASE LOCATION
 REGN.                   EESSA:  REGION
 CTRY.              Azerbaijan:  COUNTRY NAME
 FLD .                     ACG:  FIELD NAME
 SRVC.          Turan Drilling:  CONTRACTOR
 WELL.                     B41:  WELL NAME
 RIG .           Central Azeri:  RIG NAME
 DCON.         Sperry Drilling:  DIRECTNL CONTR
 PDAT.          Mean Sea Level:  PERMANENT DATUM
 MDS .        Operator Entered:  MAG DATA SOURCE
 API .                        :  API NUMBER
 CNTY.                        :  COUNTY
 PROV.                        :  PROVINCE
 STAT.                        :  STATE
 UWI .                        :  UNIQUE WELL IDENTIFIER
 LOC .                        :  LOCATION
 LMF .             Drill Floor:  LOG MEASURED FROM
 TVDS.m                  43.29:  TVDSS CORRECTN
 LATI.deg                40.03:  LATITUDE
 LONG.deg                51.35:  LONGITUDE
 WHNS.m                  12.98:  WELL HEAD N/S
 WHEW.m                  -6.62:  WELL HEAD E/W
 UTMX.m              530128.28:  UTM X
 UTMY.m             4433192.49:  UTM Y
 DFWL.m                   0.00:  DISTANCE FWL
 DFSL.m                   0.00:  DISTANCE FSL
 SDEP.m                 378.00:  START DEPTH
 TDD .m                   0.00:  TOTAL DEPTH (DRILLER)
 VSDR.deg               296.18:  VERT SEC DIRECT
 GVFD.g                   1.00:  GRAVITY FIELD
 MFLD.nT              50253.00:  MAGNETIC FIELD
 MDIP.deg                59.49:  MAGNETIC DIP
 MDEC.deg                 6.44:  MAGNETIC DECL
 GRDC.deg                 0.22:  GRID CORRECTION
 AZTC.deg                 6.22:  AZM TOTAL CORR
 EPD .m                   0.00:  ELEVATION
 EGL .m                   0.00:  GROUND ELEVATION
 WDMS.m                 128.20:  WD ELEV
 APD .m                  43.29:  DEPTH ABOVE PD
 AGAP.m                  43.29:  AIR GAP
 VSEW.m                  -6.62:  VERT SEC E/W
 VSNS.m                  12.98:  VERT SEC N/S
 EKB .m                  43.29:  KB ELEVATION
 EDF .m                  43.29:  DF ELEVATION
 TDL .m                1152.00:  TOTAL DEPTH (LOGGER)
 VSC .                       0:  VS TO CLOSURE
 MAGU.                 1848525:  MAGUTM CHECKSUM
~Parameter Information Block
#MNEM.UNIT       Value        Description
#---------     -----------    ---------------------------
 AV  .mps                 0.40:  Ann Velocity 
 AVMX.mps                 1.56:  Max Ann Veloc 
 AZIF.deg               300.46:  Azm, Final 
 BHAT.        Rotary Steerable:  BHA Type 
 BROT.°/30m               0.40:  Build Rotating 
 BS  .in                 17.50:  Bit Size 
 BSZ .in                 17.50:  Bit Size 
 BTPL.psig              300.00:  Bit Press Loss 
 CABU.                      No:  Customer Abuse 
 CGEO.          Parviz Guliyev:  Customer Geo 
 COMM.                     D„w:  Run Comments 1 
 TCS .hr                108.13:  Time Ciculation Ended 
 CV  .mps                 0.50:  Crit Velocity 
 CVMX.mps                 2.01:  Max Crit Veloc 
 DD1 .          Fariz Nahmatov:  Direct Drillr 1 
 DD2 .             Ehab Radwan:  Direct Drillr 2 
 DDSV.               Geo-Pilot:  DD Service 
 DEFF.%                  99.00:  % Det Eff 
 DLRX.°/30m               0.50:  Dogleg Rot Max 
 DLSO.°/30m               2.80:  Dogleg Oriented 
 DLSX.°/30m               3.90:  Dogleg Str Max 
 DRET.      09.30.04 03-Jul-20:  Drill End Time 
 DRST.      18.33.04 28-Jun-20:  Drill Start Tim 
 DTIM.hr                 55.83:  Time Drilling 
 EDEP.m                1952.00:  End Depth 
 ENG1.      Bakhtiyar Jabbarli:  Engineer 1 
 ENG2.         Farhad Orujzade:  Engineer 2 
 ENG3.          Rustam Safarov:  Engineer 3 
 ETIM.      01.33.04 04-Jul-20:  End Time 
 FLOI.gpm              1050.00:  Flow In 
 FLON.gpm               950.00:  Flow In Min 
 FLOS.cptm                0.10:  Fluid Loss 
 FLOX.gpm              1150.00:  Flow In Max 
 HFLO.                      No:  High Flow 
 HPRE.                      No:  High Pressure 
 HTEM.                      No:  High Temp 
 HYDO.m                   1.80:  Hydro Offset 
 IFIN.deg                75.26:  Inc, Final 
 IMAX.deg                75.38:  Inc Max 
 IMIN.deg                22.84:  Inc Min 
 IMND.m                 832.38:  Inc Min Depth 
 IMXD.m                1936.55:  Inc Max Depth 
 JARR.                      No:  Jarring 
 LETM.      17.40.00 04-Jul-20:  Log End Time 
 LOST.hr                     0:  Lost Rig Time 
 LSTM.      12.33.04 28-Jun-20:  Log Start Time 
 MDCL.ppm             49500.00:  Mud Chlorides 
 MDES.     Inversion Oil/Synthetic:  Mud Desc 
 DFD .sg                  1.46:  Mud Density 
 MDMN.sg                  1.46:  Dens Mud Min 
 MDMX.sg                  1.46:  Dens Mud Max 
 MOIL.                      70:  Run Mud Oil % 
 MOWR.                   70:30:  Run Mud OWR 
 MSND.                     0.5:  Run Mud Sand % 
 MSOL.                   19.89:  Run Mud Solids% 
 DFV .spqt               72.00:  Mud Viscosity 
 MWOD.in                  9.50:  MWD Tool OD 
 MWSI.                      No:  Serv Intrp, MWD 
 OTIM.hr                146.53:  Time Operating 
 PCON.           Look Like New:  Pad Condition 
 PMAX.psia             2900.00:  Press Op, Max 
 PV  .cP                 38.00:  Mud PV 
 RUN .                     600:  Run Number 
 ROPA.m/hr               22.00:  ROP Avg 
 ROPN.m/hr               10.00:  ROP Min 
 ROPX.m/hr              263.00:  ROP Max 
 RPMA.rpm               155.00:  RPM Surface Avg 
 RPMN.rpm               140.00:  RPM Surface Min 
 RPMX.rpm               160.00:  RPM Surface Max 
 RRUN.                    0600:  Rig Run Number 
 RTIM.hr                  5.00:  Time Reaming 
 SAZI.deg               300.08:  Azm, Start 
 SDEP.m                 800.00:  Start Depth 
 SIDD.                      No:  Serv Intrp, DD 
 SINC.deg                22.84:  Inc, Start 
 SPPA.psig             3000.00:  SPP Avg 
 SPPN.psig             1900.00:  SPP Min 
 SPPX.psig             3200.00:  SPP Max 
 STIM.      12.30.04 28-Jun-20:  Start Time 
 SVCS.                 DD, MWD:  Services 
 SVER.                    9.20:  Sperry Version 
 TDAT.m                1952.00:  Tot Depth Attmp 
 TDDF.                      No:  Trip for DD 
 TDLG.m                1152.00:  Tot Depth Loggd 
 TFF .                      No:  Trip for Fail 
 TQAA.f-kp                8.00:  Torque Abs Avg 
 TQAN.f-kp                5.00:  Torque Abs Min 
 TQAX.f-kp               14.00:  Torque Abs Max 
 TRRT.°/30m               0.50:  Turn Rotating 
 MRT .                  EWR-M5:  Maximum Recorded Temperature 
 TTMX.degC               69.00:  Max Tool Temp 
 VS01.                90610313:  Virtual Str1 SN 
 VS02.                90613431:  Virtual Str2 SN 
 VS03.                90615410:  Virtual Str3 SN 
 WBMN.klb                 6.00:  WOB Min 
 WITN.            Bruce Cheyne:  Customer Rep 
 WITN.             Ayaz Aliyev:  Customer Rep 2 
 WOBA.klb                 6.00:  WOB Avg 
 WOBX.klb                10.00:  WOB Max 
 YP  .lhf2               36.00:  Yield Point 
~Curve Information Block
#MNEM.UNIT                 API CODE     Curve Description
#---------               -----------    ---------------------------
 TIME.HHMMSS            00 000 000 000:  GT Time & Date
 GTET.sec               00 000 000 000:  GT Elapsed Test Time
 GTPQH.psia             00 000 000 000:  GT HR Quartz Pressure
 GTDEPTH.m              00 000 000 000:  GT Depth
 GTTVD.m                00 000 000 000:  GT True Vertical Depth
 GTTQ.degC              00 000 000 000:  GT Quartz Temperature
 GTTN.NONE              00 000 000 000:  GT Test Number
#Other Information
#
#WARRANTY: Halliburton will use its best efforts to furnish customers with 
#accurate information and interpretations that are part of, and incident to, the services 
#provided.  However, Halliburton cannot and does not warrant the accuracy 
#or correctness of such information and interpretations.  Under no circumstances should any 
#such information or interpretation be relied upon as the sole basis for any drilling, 
#completion, production, or financial decision or any procedure involving any risk to the 
#safety of any drilling venture, drilling rig or its crew or any other third party.  The 
#Customer has full responsibility for all drilling, completion and production operation.  
#Halliburton makes no representations or warranties, either expressed or 
#implied, including, but not limited to, the implied warranties of merchantability or fitness 
#for a particular purpose, with respect to the services rendered.  In no event will 
#Halliburton be liable for failure to obtain any particular results or for 
#any damages, including, but not limited to, indirect, special or consequential damages, 
#resulting from the use of any information or interpretation provided by Halliburton.
#
~A           TIME            GTET   GTPQH  GTDEPTH  GTTVD  GTTQ  GTTN 
# ...
   16:17:27.000.30-Jun-2020  92.00  413.53 1103.02 1054.26 68.68 2.00
   16:17:27.200.30-Jun-2020  92.20  413.53 1103.02 1054.26 68.68 2.00
   16:17:27.400.30-Jun-2020  92.40  493.72 1103.02 1054.26 68.68 2.00
   16:17:27.600.30-Jun-2020  92.60  528.41 1103.02 1054.26 68.68 2.00
   16:17:27.800.30-Jun-2020  92.80  560.68 1103.02 1054.26 68.67 2.00
   16:17:28.000.30-Jun-2020  93.00  591.47 1103.02 1054.26 68.67 2.00
   16:17:28.200.30-Jun-2020  93.20  591.47 1103.02 1054.26 68.67 2.00
   16:17:28.400.30-Jun-2020  93.40  613.54 1103.02 1054.26 68.67 2.00
   16:17:28.600.30-Jun-2020  93.60  614.89 1103.02 1054.26 68.67 2.00
   16:17:28.800.30-Jun-2020  93.80  621.19 1103.02 1054.26 68.67 2.00
   16:17:29.000.30-Jun-2020  94.00  631.67 1103.02 1054.26 68.67 2.00
   16:17:29.200.30-Jun-2020  94.20  643.17 1103.02 1054.26 68.67 2.00
   16:17:29.400.30-Jun-2020  94.40  654.00 1103.02 1054.26 68.67 2.00
   16:17:29.600.30-Jun-2020  94.60  665.27 1103.02 1054.26 68.67 2.00
   16:17:29.800.30-Jun-2020  94.80  673.79 1103.02 1054.26 68.67 2.00
   16:17:30.000.30-Jun-2020  95.00  682.73 1103.02 1054.26 68.67 2.00
   16:17:30.200.30-Jun-2020  95.20  682.73 1103.02 1054.26 68.67 2.00
   16:17:30.400.30-Jun-2020  95.40  698.83 1103.02 1054.26 68.67 2.00
   16:17:30.600.30-Jun-2020  95.60  706.54 1103.02 1054.26 68.67 2.00
   16:17:30.800.30-Jun-2020  95.80  713.94 1103.02 1054.26 68.67 2.00
   16:17:31.000.30-Jun-2020  96.00  720.72 1103.02 1054.26 68.67 2.00
   16:17:31.200.30-Jun-2020  96.20  720.72 1103.02 1054.26 68.67 2.00
   16:17:31.400.30-Jun-2020  96.40  732.89 1103.02 1054.26 68.67 2.00
   16:17:31.600.30-Jun-2020  96.60  738.63 1103.02 1054.26 68.67 2.00
   16:17:31.800.30-Jun-2020  96.80  744.43 1103.02 1054.26 68.67 2.00
   16:17:32.000.30-Jun-2020  97.00  751.03 1103.02 1054.26 68.67 2.00
   16:17:32.200.30-Jun-2020  97.20  751.03 1103.02 1054.26 68.67 2.00
   16:17:32.400.30-Jun-2020  97.40  760.60 1103.02 1054.26 68.67 2.00
   16:17:32.600.30-Jun-2020  97.60  765.63 1103.02 1054.26 68.67 2.00
   16:17:32.800.30-Jun-2020  97.80  770.32 1103.02 1054.26 68.67 2.00
   16:17:33.000.30-Jun-2020  98.00  774.56 1103.02 1054.26 68.67 2.00
   16:17:33.200.30-Jun-2020  98.20  774.56 1103.02 1054.26 68.67 2.00
   16:17:33.400.30-Jun-2020  98.40  783.47 1103.02 1054.26 68.67 2.00
   16:17:33.600.30-Jun-2020  98.60  788.14 1103.02 1054.26 68.67 2.00
   16:17:33.800.30-Jun-2020  98.80  792.03 1103.02 1054.26 68.67 2.00
   16:17:34.000.30-Jun-2020  99.00  795.78 1103.02 1054.26 68.67 2.00
   16:17:34.200.30-Jun-2020  99.20  795.78 1103.02 1054.26 68.67 2.00
   16:17:34.400.30-Jun-2020  99.40  803.76 1103.02 1054.26 68.67 2.00
   16:17:34.600.30-Jun-2020  99.60  806.57 1103.02 1054.26 68.67 2.00
   16:17:34.800.30-Jun-2020  99.80  809.74 1103.02 1054.26 68.67 2.00
   16:17:35.000.30-Jun-2020 100.00  812.87 1103.02 1054.26 68.67 2.00
   16:17:35.200.30-Jun-2020 100.20  812.87 1103.02 1054.26 68.67 2.00
   16:17:35.400.30-Jun-2020 100.40  819.47 1103.02 1054.26 68.67 2.00
   16:17:35.600.30-Jun-2020 100.60  822.53 1103.02 1054.26 68.67 2.00
   16:17:35.800.30-Jun-2020 100.80  825.32 1103.02 1054.26 68.67 2.00
   16:17:36.000.30-Jun-2020 101.00  827.95 1103.02 1054.26 68.67 2.00
   16:17:36.200.30-Jun-2020 101.20  827.95 1103.02 1054.26 68.67 2.00
   16:17:36.400.30-Jun-2020 101.40  833.28 1103.02 1054.26 68.67 2.00
   16:17:36.600.30-Jun-2020 101.60  835.81 1103.02 1054.26 68.67 2.00
   16:17:36.800.30-Jun-2020 101.80  838.45 1103.02 1054.26 68.67 2.00
   16:17:37.000.30-Jun-2020 102.00  840.82 1103.02 1054.26 68.67 2.00
   16:17:37.200.30-Jun-2020 102.20  842.63 1103.02 1054.26 68.67 2.00
   16:17:37.400.30-Jun-2020 102.40  844.75 1103.02 1054.26 68.68 2.00
   16:17:37.600.30-Jun-2020 102.60  847.03 1103.02 1054.26 68.68 2.00
   16:17:37.800.30-Jun-2020 102.80  849.23 1103.02 1054.26 68.68 2.00
   16:17:38.000.30-Jun-2020 103.00  851.26 1103.02 1054.26 68.68 2.00
   16:17:38.200.30-Jun-2020 103.20  851.26 1103.02 1054.26 68.68 2.00
   16:17:38.400.30-Jun-2020 103.40  855.52 1103.02 1054.26 68.68 2.00
   16:17:38.600.30-Jun-2020 103.60  857.65 1103.02 1054.26 68.68 2.00
   16:17:38.800.30-Jun-2020 103.80  860.39 1103.02 1054.26 68.68 2.00
   16:17:39.000.30-Jun-2020 104.00  862.31 1103.02 1054.26 68.68 2.00
   16:17:39.200.30-Jun-2020 104.20  864.18 1103.02 1054.26 68.68 2.00
   16:17:39.400.30-Jun-2020 104.40  866.06 1103.02 1054.26 68.68 2.00
   16:17:39.600.30-Jun-2020 104.60  867.84 1103.02 1054.26 68.68 2.00
   16:17:39.800.30-Jun-2020 104.80  869.56 1103.02 1054.26 68.68 2.00
   16:17:40.000.30-Jun-2020 105.00  871.38 1103.02 1054.26 68.68 2.00
   16:17:40.200.30-Jun-2020 105.20  873.06 1103.02 1054.26 68.68 2.00
   16:17:40.400.30-Jun-2020 105.40  874.62 1103.02 1054.26 68.68 2.00
   16:17:40.600.30-Jun-2020 105.60  876.31 1103.02 1054.26 68.68 2.00
   16:17:40.800.30-Jun-2020 105.80  878.00 1103.02 1054.26 68.68 2.00
   16:17:41.000.30-Jun-2020 106.00  879.55 1103.02 1054.26 68.68 2.00
   16:17:41.200.30-Jun-2020 106.20  881.73 1103.02 1054.26 68.68 2.00
   16:17:41.400.30-Jun-2020 106.40  883.17 1103.02 1054.26 68.68 2.00
   16:17:41.600.30-Jun-2020 106.60  884.41 1103.02 1054.26 68.68 2.00
   16:17:41.800.30-Jun-2020 106.80  885.76 1103.02 1054.26 68.68 2.00
   16:17:42.000.30-Jun-2020 107.00  887.18 1103.02 1054.26 68.68 2.00
   16:17:42.200.30-Jun-2020 107.20  887.18 1103.02 1054.26 68.68 2.00
   16:17:42.400.30-Jun-2020 107.40  890.38 1103.02 1054.26 68.68 2.00
   16:17:42.600.30-Jun-2020 107.60  892.20 1103.02 1054.26 68.69 2.00
   16:17:42.800.30-Jun-2020 107.80  893.40 1103.02 1054.26 68.69 2.00
   16:17:43.000.30-Jun-2020 108.00  894.83 1103.02 1054.26 68.69 2.00
   16:17:43.200.30-Jun-2020 108.20  894.83 1103.02 1054.26 68.69 2.00
   16:17:43.400.30-Jun-2020 108.40  897.46 1103.02 1054.26 68.69 2.00
   16:17:43.600.30-Jun-2020 108.60  899.11 1103.02 1054.26 68.69 2.00
   16:17:43.800.30-Jun-2020 108.80  901.11 1103.02 1054.26 68.69 2.00
   16:17:44.000.30-Jun-2020 109.00  901.11 1103.02 1054.26 68.69 2.00
   16:17:44.200.30-Jun-2020 109.20  902.13 1103.02 1054.26 68.69 2.00
   16:17:44.400.30-Jun-2020 109.40  904.86 1103.02 1054.26 68.69 2.00
   16:17:44.600.30-Jun-2020 109.60  906.15 1103.02 1054.26 68.69 2.00
   16:17:44.800.30-Jun-2020 109.80  907.44 1103.02 1054.26 68.69 2.00
   16:17:45.000.30-Jun-2020 110.00  908.73 1103.02 1054.26 68.69 2.00
   16:17:45.200.30-Jun-2020 110.20  910.40 1103.02 1054.26 68.69 2.00
   16:17:45.400.30-Jun-2020 110.40  911.63 1103.02 1054.26 68.69 2.00
   16:17:45.600.30-Jun-2020 110.60  912.78 1103.02 1054.26 68.69 2.00
   16:17:45.800.30-Jun-2020 110.80  913.81 1103.02 1054.26 68.69 2.00
   16:17:46.000.30-Jun-2020 111.00  914.87 1103.02 1054.26 68.69 2.00
   16:17:46.200.30-Jun-2020 111.20  914.87 1103.02 1054.26 68.69 2.00
   16:17:46.400.30-Jun-2020 111.40  916.67 1103.02 1054.26 68.69 2.00
   16:17:46.600.30-Jun-2020 111.60  917.51 1103.02 1054.26 68.69 2.00
   16:17:46.800.30-Jun-2020 111.80  918.38 1103.02 1054.26 68.69 2.00
   16:17:47.000.30-Jun-2020 112.00  919.24 1103.02 1054.26 68.69 2.00
   16:17:47.200.30-Jun-2020 112.20  919.24 1103.02 1054.26 68.69 2.00
   16:17:47.400.30-Jun-2020 112.40  920.93 1103.02 1054.26 68.69 2.00
   16:17:47.600.30-Jun-2020 112.60  921.73 1103.02 1054.26 68.69 2.00
   16:17:47.800.30-Jun-2020 112.80  922.56 1103.02 1054.26 68.69 2.00
   16:17:48.000.30-Jun-2020 113.00  923.33 1103.02 1054.26 68.69 2.00
   16:17:48.200.30-Jun-2020 113.20  923.33 1103.02 1054.26 68.69 2.00
   16:17:48.400.30-Jun-2020 113.40  924.99 1103.02 1054.26 68.69 2.00
   16:17:48.600.30-Jun-2020 113.60  925.81 1103.02 1054.26 68.70 2.00
   16:17:48.800.30-Jun-2020 113.80  926.81 1103.02 1054.26 68.70 2.00
   16:17:49.000.30-Jun-2020 114.00  928.06 1103.02 1054.26 68.70 2.00
   16:17:49.200.30-Jun-2020 114.20  928.74 1103.02 1054.26 68.70 2.00
   16:17:49.400.30-Jun-2020 114.40  929.51 1103.02 1054.26 68.70 2.00
   16:17:49.600.30-Jun-2020 114.60  930.38 1103.02 1054.26 68.70 2.00
   16:17:49.800.30-Jun-2020 114.80  931.22 1103.02 1054.26 68.70 2.00
