~Version Information
 VERS.                  2.0:   CWLS log ASCII Standard -VERSION 2.0
 WRAP.                   NO:   One line per depth step
~Well Information Block
#MNEM.UNIT     VALUE/NAME     DESCRIPTION
#---------     -----------    ---------------------------
 STRT.S             04:11:34 02-Jul-20: START TIME 04:11:34 02-Jul-20
 STOP.S             04:20:35 02-Jul-20: STOP TIME  04:20:35 02-Jul-20
 STEP.S                   0.00: STEP TIME
 NULL.                 -999.25: NULL VALUE
 DFWT.                        :  DIST FWL TEXT
 DFST.                        :  DIST FSL TEXT
 DMF .             Drill Floor:  DRILL MEAS FROM
 STIM.      09.59.28 01-Jun-20:  START TIME
 DATE.      09.59.28 01-Jun-20:  END TIME
 SPUD.               01-Jun-20:  SPUD DATE
 NREF.                    Grid:  NORTH REFERENCE
 HPTY.       Minimum Curvature:  HOLE POS TYPE
 DMOD.             Drill Model:  DRILL MOD DESC
 SVYD.                  Survey:  SURVEY DESC
 ILTD.               Lithology:  INTERP LTH DESC
 FTOP.          Formation Tops:  FORM TOPS DESC
 SON .        AZ-XX-0905455768:  JOB NUMBER
 WTYP.                Deviated:  WELL TYPE
 COMP.     BP Exploration(Caspian Sea):  COMPANY
 BASE.              Azerbaijan:  LOGGING EQUIPMENT BASE LOCATION
 REGN.                   EESSA:  REGION
 CTRY.              Azerbaijan:  COUNTRY NAME
 FLD .                     ACG:  FIELD NAME
 SRVC.          Turan Drilling:  CONTRACTOR
 WELL.                     B41:  WELL NAME
 RIG .           Central Azeri:  RIG NAME
 DCON.         Sperry Drilling:  DIRECTNL CONTR
 PDAT.          Mean Sea Level:  PERMANENT DATUM
 MDS .        Operator Entered:  MAG DATA SOURCE
 API .                        :  API NUMBER
 CNTY.                        :  COUNTY
 PROV.                        :  PROVINCE
 STAT.                        :  STATE
 UWI .                        :  UNIQUE WELL IDENTIFIER
 LOC .                        :  LOCATION
 LMF .             Drill Floor:  LOG MEASURED FROM
 TVDS.m                  43.29:  TVDSS CORRECTN
 LATI.deg                40.03:  LATITUDE
 LONG.deg                51.35:  LONGITUDE
 WHNS.m                  12.98:  WELL HEAD N/S
 WHEW.m                  -6.62:  WELL HEAD E/W
 UTMX.m              530128.28:  UTM X
 UTMY.m             4433192.49:  UTM Y
 DFWL.m                   0.00:  DISTANCE FWL
 DFSL.m                   0.00:  DISTANCE FSL
 SDEP.m                 378.00:  START DEPTH
 TDD .m                   0.00:  TOTAL DEPTH (DRILLER)
 VSDR.deg               296.18:  VERT SEC DIRECT
 GVFD.g                   1.00:  GRAVITY FIELD
 MFLD.nT              50253.00:  MAGNETIC FIELD
 MDIP.deg                59.49:  MAGNETIC DIP
 MDEC.deg                 6.44:  MAGNETIC DECL
 GRDC.deg                 0.22:  GRID CORRECTION
 AZTC.deg                 6.22:  AZM TOTAL CORR
 EPD .m                   0.00:  ELEVATION
 EGL .m                   0.00:  GROUND ELEVATION
 WDMS.m                 128.20:  WD ELEV
 APD .m                  43.29:  DEPTH ABOVE PD
 AGAP.m                  43.29:  AIR GAP
 VSEW.m                  -6.62:  VERT SEC E/W
 VSNS.m                  12.98:  VERT SEC N/S
 EKB .m                  43.29:  KB ELEVATION
 EDF .m                  43.29:  DF ELEVATION
 TDL .m                1152.00:  TOTAL DEPTH (LOGGER)
 VSC .                       0:  VS TO CLOSURE
 MAGU.                 1848525:  MAGUTM CHECKSUM
~Parameter Information Block
#MNEM.UNIT       Value        Description
#---------     -----------    ---------------------------
 AV  .mps                 0.40:  Ann Velocity 
 AVMX.mps                 1.56:  Max Ann Veloc 
 AZIF.deg               300.46:  Azm, Final 
 BHAT.        Rotary Steerable:  BHA Type 
 BROT.°/30m               0.40:  Build Rotating 
 BS  .in                 17.50:  Bit Size 
 BSZ .in                 17.50:  Bit Size 
 BTPL.psig              300.00:  Bit Press Loss 
 CABU.                      No:  Customer Abuse 
 CGEO.          Parviz Guliyev:  Customer Geo 
 TCS .hr                108.13:  Time Ciculation Ended 
 CV  .mps                 0.50:  Crit Velocity 
 CVMX.mps                 2.01:  Max Crit Veloc 
 DD1 .          Fariz Nahmatov:  Direct Drillr 1 
 DD2 .             Ehab Radwan:  Direct Drillr 2 
 DDSV.               Geo-Pilot:  DD Service 
 DEFF.%                  99.00:  % Det Eff 
 DLRX.°/30m               0.50:  Dogleg Rot Max 
 DLSO.°/30m               2.80:  Dogleg Oriented 
 DLSX.°/30m               3.90:  Dogleg Str Max 
 DRET.      09.30.04 03-Jul-20:  Drill End Time 
 DRST.      18.33.04 28-Jun-20:  Drill Start Tim 
 DTIM.hr                 55.83:  Time Drilling 
 EDEP.m                1952.00:  End Depth 
 ENG1.      Bakhtiyar Jabbarli:  Engineer 1 
 ENG2.         Farhad Orujzade:  Engineer 2 
 ENG3.          Rustam Safarov:  Engineer 3 
 ETIM.      01.33.04 04-Jul-20:  End Time 
 FLOI.gpm              1050.00:  Flow In 
 FLON.gpm               950.00:  Flow In Min 
 FLOS.cptm                0.10:  Fluid Loss 
 FLOX.gpm              1150.00:  Flow In Max 
 HFLO.                      No:  High Flow 
 HPRE.                      No:  High Pressure 
 HTEM.                      No:  High Temp 
 HYDO.m                   1.80:  Hydro Offset 
 IFIN.deg                75.26:  Inc, Final 
 IMAX.deg                75.38:  Inc Max 
 IMIN.deg                22.84:  Inc Min 
 IMND.m                 832.38:  Inc Min Depth 
 IMXD.m                1936.55:  Inc Max Depth 
 JARR.                      No:  Jarring 
 LETM.      17.40.00 04-Jul-20:  Log End Time 
 LOST.hr                     0:  Lost Rig Time 
 LSTM.      12.33.04 28-Jun-20:  Log Start Time 
 MDCL.ppm             49500.00:  Mud Chlorides 
 MDES.     Inversion Oil/Synthetic:  Mud Desc 
 DFD .sg                  1.46:  Mud Density 
 MDMN.sg                  1.46:  Dens Mud Min 
 MDMX.sg                  1.46:  Dens Mud Max 
 MOIL.                      70:  Run Mud Oil % 
 MOWR.                   70:30:  Run Mud OWR 
 MSND.                     0.5:  Run Mud Sand % 
 MSOL.                   19.89:  Run Mud Solids% 
 DFV .spqt               72.00:  Mud Viscosity 
 MWOD.in                  9.50:  MWD Tool OD 
 MWSI.                      No:  Serv Intrp, MWD 
 OTIM.hr                146.53:  Time Operating 
 PCON.           Look Like New:  Pad Condition 
 PMAX.psia             2900.00:  Press Op, Max 
 PV  .cP                 38.00:  Mud PV 
 RUN .                     600:  Run Number 
 ROPA.m/hr               22.00:  ROP Avg 
 ROPN.m/hr               10.00:  ROP Min 
 ROPX.m/hr              263.00:  ROP Max 
 RPMA.rpm               155.00:  RPM Surface Avg 
 RPMN.rpm               140.00:  RPM Surface Min 
 RPMX.rpm               160.00:  RPM Surface Max 
 RRUN.                    0600:  Rig Run Number 
 RTIM.hr                  5.00:  Time Reaming 
 SAZI.deg               300.08:  Azm, Start 
 SDEP.m                 800.00:  Start Depth 
 SIDD.                      No:  Serv Intrp, DD 
 SINC.deg                22.84:  Inc, Start 
 SPPA.psig             3000.00:  SPP Avg 
 SPPN.psig             1900.00:  SPP Min 
 SPPX.psig             3200.00:  SPP Max 
 STIM.      12.30.04 28-Jun-20:  Start Time 
 SVCS.                 DD, MWD:  Services 
 SVER.                    9.20:  Sperry Version 
 TDAT.m                1952.00:  Tot Depth Attmp 
 TDDF.                      No:  Trip for DD 
 TDLG.m                1152.00:  Tot Depth Loggd 
 TFF .                      No:  Trip for Fail 
 TQAA.f-kp                8.00:  Torque Abs Avg 
 TQAN.f-kp                5.00:  Torque Abs Min 
 TQAX.f-kp               14.00:  Torque Abs Max 
 TRRT.°/30m               0.50:  Turn Rotating 
 MRT .                  EWR-M5:  Maximum Recorded Temperature 
 TTMX.degC               69.00:  Max Tool Temp 
 VS01.                90610313:  Virtual Str1 SN 
 VS02.                90613431:  Virtual Str2 SN 
 VS03.                90615410:  Virtual Str3 SN 
 WBMN.klb                 6.00:  WOB Min 
 WITN.            Bruce Cheyne:  Customer Rep 
 WITN.             Ayaz Aliyev:  Customer Rep 2 
 WOBA.klb                 6.00:  WOB Avg 
 WOBX.klb                10.00:  WOB Max 
 YP  .lhf2               36.00:  Yield Point 
~Curve Information Block
#MNEM.UNIT                 API CODE     Curve Description
#---------               -----------    ---------------------------
 TIME.HHMMSS            00 000 000 000:  GT Time & Date
 GTET.sec               00 000 000 000:  GT Elapsed Test Time
 GTPQH.psia             00 000 000 000:  GT HR Quartz Pressure
 GTDEPTH.m              00 000 000 000:  GT Depth
 GTTVD.m                00 000 000 000:  GT True Vertical Depth
 GTTQ.degC              00 000 000 000:  GT Quartz Temperature
 GTTN.NONE              00 000 000 000:  GT Test Number
#Other Information
#
#WARRANTY: Halliburton will use its best efforts to furnish customers with 
#accurate information and interpretations that are part of, and incident to, the services 
#provided.  However, Halliburton cannot and does not warrant the accuracy 
#or correctness of such information and interpretations.  Under no circumstances should any 
#such information or interpretation be relied upon as the sole basis for any drilling, 
#completion, production, or financial decision or any procedure involving any risk to the 
#safety of any drilling venture, drilling rig or its crew or any other third party.  The 
#Customer has full responsibility for all drilling, completion and production operation.  
#Halliburton makes no representations or warranties, either expressed or 
#implied, including, but not limited to, the implied warranties of merchantability or fitness 
#for a particular purpose, with respect to the services rendered.  In no event will 
#Halliburton be liable for failure to obtain any particular results or for 
#any damages, including, but not limited to, indirect, special or consequential damages, 
#resulting from the use of any information or interpretation provided by Halliburton.
#
~A           TIME            GTET   GTPQH  GTDEPTH  GTTVD  GTTQ  GTTN 
# ...
   04:12:20.379.02-Jul-2020  46.01 2696.40 1565.98 1276.49 57.54 6.00
   04:12:20.579.02-Jul-2020  46.21 2696.40 1565.98 1276.49 57.54 6.00
   04:12:20.779.02-Jul-2020  46.41 2696.86 1565.98 1276.49 57.54 6.00
   04:12:20.979.02-Jul-2020  46.61 2695.48 1565.98 1276.49 57.54 6.00
   04:12:21.179.02-Jul-2020  46.81 2696.59 1565.98 1276.49 57.54 6.00
   04:12:21.379.02-Jul-2020  47.01 2697.37 1565.98 1276.49 57.54 6.00
   04:12:21.579.02-Jul-2020  47.21 2697.37 1565.98 1276.49 57.54 6.00
   04:12:21.779.02-Jul-2020  47.41 2696.57 1565.98 1276.49 57.54 6.00
   04:12:21.979.02-Jul-2020  47.61 2696.07 1565.98 1276.49 57.54 6.00
   04:12:22.179.02-Jul-2020  47.81 2697.19 1565.98 1276.49 57.54 6.00
   04:12:22.379.02-Jul-2020  48.01 2697.89 1565.98 1276.49 57.54 6.00
   04:12:22.579.02-Jul-2020  48.21 2697.89 1565.98 1276.49 57.54 6.00
   04:12:22.779.02-Jul-2020  48.41 2697.44 1565.98 1276.49 57.55 6.00
   04:12:22.979.02-Jul-2020  48.61 2696.21 1565.98 1276.49 57.55 6.00
   04:12:23.179.02-Jul-2020  48.81 2697.42 1565.98 1276.49 57.55 6.00
   04:12:23.379.02-Jul-2020  49.01 2698.18 1565.98 1276.49 57.55 6.00
   04:12:23.579.02-Jul-2020  49.21 2698.18 1565.98 1276.49 57.55 6.00
   04:12:23.779.02-Jul-2020  49.41 2697.99 1565.98 1276.49 57.55 6.00
   04:12:23.979.02-Jul-2020  49.61 2698.55 1565.98 1276.49 57.55 6.00
   04:12:24.179.02-Jul-2020  49.81 2698.55 1565.98 1276.49 57.55 6.00
   04:12:24.380.02-Jul-2020  50.01 2698.14 1565.98 1276.49 57.55 6.00
   04:12:24.580.02-Jul-2020  50.21 2698.14 1565.98 1276.49 57.55 6.00
   04:12:24.780.02-Jul-2020  50.41 2698.61 1565.98 1276.49 57.55 6.00
   04:12:24.980.02-Jul-2020  50.61 2698.24 1565.98 1276.49 57.55 6.00
   04:12:25.180.02-Jul-2020  50.81 2699.01 1565.98 1276.49 57.55 6.00
   04:12:25.380.02-Jul-2020  51.01 2698.69 1565.98 1276.49 57.55 6.00
   04:12:25.580.02-Jul-2020  51.21 2698.69 1565.98 1276.49 57.55 6.00
   04:12:25.780.02-Jul-2020  51.41 2698.34 1565.98 1276.49 57.55 6.00
   04:12:25.980.02-Jul-2020  51.61 2698.58 1565.98 1276.49 57.55 6.00
   04:12:26.180.02-Jul-2020  51.81 2698.99 1565.98 1276.49 57.55 6.00
   04:12:26.380.02-Jul-2020  52.01 2698.54 1565.98 1276.49 57.55 6.00
   04:12:26.580.02-Jul-2020  52.21 2698.54 1565.98 1276.49 57.55 6.00
   04:12:26.780.02-Jul-2020  52.41 2697.03 1565.98 1276.49 57.55 6.00
   04:12:26.980.02-Jul-2020  52.61 2698.34 1565.98 1276.49 57.56 6.00
   04:12:27.180.02-Jul-2020  52.81 2698.46 1565.98 1276.49 57.56 6.00
   04:12:27.380.02-Jul-2020  53.01 2698.41 1565.98 1276.49 57.56 6.00
   04:12:27.580.02-Jul-2020  53.21 2698.41 1565.98 1276.49 57.56 6.00
   04:12:27.780.02-Jul-2020  53.41 2698.09 1565.98 1276.49 57.56 6.00
   04:12:27.980.02-Jul-2020  53.61 2697.94 1565.98 1276.49 57.56 6.00
   04:12:28.180.02-Jul-2020  53.81 2697.94 1565.98 1276.49 57.56 6.00
   04:12:28.380.02-Jul-2020  54.01 2697.73 1565.98 1276.49 57.56 6.00
   04:12:28.580.02-Jul-2020  54.21 2697.41 1565.98 1276.49 57.56 6.00
   04:12:28.780.02-Jul-2020  54.41 2697.52 1565.98 1276.49 57.56 6.00
   04:12:28.980.02-Jul-2020  54.61 2696.90 1565.98 1276.49 57.56 6.00
   04:12:29.180.02-Jul-2020  54.81 2695.79 1565.98 1276.49 57.56 6.00
   04:12:29.380.02-Jul-2020  55.01 2696.34 1565.98 1276.49 57.56 6.00
   04:12:29.580.02-Jul-2020  55.21 2696.55 1565.98 1276.49 57.56 6.00
   04:12:29.780.02-Jul-2020  55.41 2696.67 1565.98 1276.49 57.56 6.00
   04:12:29.980.02-Jul-2020  55.61 2696.74 1565.98 1276.49 57.56 6.00
   04:12:30.180.02-Jul-2020  55.81 2696.74 1565.98 1276.49 57.56 6.00
   04:12:30.380.02-Jul-2020  56.01 2695.41 1565.98 1276.49 57.56 6.00
   04:12:30.580.02-Jul-2020  56.21 2695.41 1565.98 1276.49 57.56 6.00
   04:12:30.781.02-Jul-2020  56.41 2697.17 1565.98 1276.49 57.56 6.00
   04:12:30.981.02-Jul-2020  56.61 2697.35 1565.98 1276.49 57.56 6.00
   04:12:31.181.02-Jul-2020  56.81 2695.66 1565.98 1276.49 57.57 6.00
   04:12:31.381.02-Jul-2020  57.01 2696.40 1565.98 1276.49 57.57 6.00
   04:12:31.581.02-Jul-2020  57.21 2696.40 1565.98 1276.49 57.57 6.00
   04:12:31.781.02-Jul-2020  57.41 2696.09 1565.98 1276.49 57.57 6.00
   04:12:31.981.02-Jul-2020  57.61 2696.33 1565.98 1276.49 57.57 6.00
   04:12:32.181.02-Jul-2020  57.81 2695.03 1565.98 1276.49 57.57 6.00
   04:12:32.381.02-Jul-2020  58.01 2696.64 1565.98 1276.49 57.57 6.00
   04:12:32.581.02-Jul-2020  58.21 2697.01 1565.98 1276.49 57.57 6.00
   04:12:32.781.02-Jul-2020  58.41 2697.12 1565.98 1276.49 57.57 6.00
   04:12:32.981.02-Jul-2020  58.61 2696.95 1565.98 1276.49 57.57 6.00
   04:12:33.181.02-Jul-2020  58.81 2697.58 1565.98 1276.49 57.57 6.00
   04:12:33.381.02-Jul-2020  59.01 2697.59 1565.98 1276.49 57.57 6.00
   04:12:33.581.02-Jul-2020  59.21 2698.08 1565.98 1276.49 57.57 6.00
   04:12:33.781.02-Jul-2020  59.41 2697.42 1565.98 1276.49 57.57 6.00
   04:12:33.981.02-Jul-2020  59.61 2697.45 1565.98 1276.49 57.57 6.00
   04:12:34.181.02-Jul-2020  59.81 2697.60 1565.98 1276.49 57.57 6.00
   04:12:34.381.02-Jul-2020  60.01 2697.74 1565.98 1276.49 57.57 6.00
   04:12:34.581.02-Jul-2020  60.21 2697.78 1565.98 1276.49 57.57 6.00
   04:12:34.781.02-Jul-2020  60.41 2697.71 1565.98 1276.49 57.57 6.00
   04:12:34.981.02-Jul-2020  60.61 2698.09 1565.98 1276.49 57.57 6.00
   04:12:35.181.02-Jul-2020  60.81 2697.66 1565.98 1276.49 57.58 6.00
   04:12:35.381.02-Jul-2020  61.01 2698.43 1565.98 1276.49 57.58 6.00
   04:12:35.581.02-Jul-2020  61.21 2698.43 1565.98 1276.49 57.58 6.00
   04:12:35.781.02-Jul-2020  61.41 2698.01 1565.98 1276.49 57.58 6.00
   04:12:35.981.02-Jul-2020  61.61 2697.42 1565.98 1276.49 57.58 6.00
   04:12:36.181.02-Jul-2020  61.81 2698.63 1565.98 1276.49 57.58 6.00
   04:12:36.381.02-Jul-2020  62.01 2698.98 1565.98 1276.49 57.58 6.00
   04:12:36.581.02-Jul-2020  62.21 2698.82 1565.98 1276.49 57.58 6.00
   04:12:36.781.02-Jul-2020  62.41 2698.40 1565.98 1276.49 57.58 6.00
   04:12:36.981.02-Jul-2020  62.61 2698.45 1565.98 1276.49 57.58 6.00
   04:12:37.182.02-Jul-2020  62.81 2698.39 1565.98 1276.49 57.58 6.00
   04:12:37.382.02-Jul-2020  63.01 2697.95 1565.98 1276.49 57.58 6.00
   04:12:37.582.02-Jul-2020  63.21 2697.95 1565.98 1276.49 57.58 6.00
   04:12:37.782.02-Jul-2020  63.41 2697.93 1565.98 1276.49 57.58 6.00
   04:12:37.982.02-Jul-2020  63.61 2697.78 1565.98 1276.49 57.58 6.00
   04:12:38.182.02-Jul-2020  63.81 2697.46 1565.98 1276.49 57.58 6.00
   04:12:38.382.02-Jul-2020  64.01 2696.28 1565.98 1276.49 57.58 6.00
   04:12:38.582.02-Jul-2020  64.21 2696.28 1565.98 1276.49 57.58 6.00
   04:12:38.782.02-Jul-2020  64.41 2697.33 1565.98 1276.49 57.58 6.00
   04:12:38.982.02-Jul-2020  64.61 2697.11 1565.98 1276.49 57.58 6.00
   04:12:39.182.02-Jul-2020  64.81 2697.31 1565.98 1276.49 57.58 6.00
   04:12:39.382.02-Jul-2020  65.01 2697.30 1565.98 1276.49 57.59 6.00
   04:12:39.582.02-Jul-2020  65.21 2697.30 1565.98 1276.49 57.59 6.00
   04:12:39.782.02-Jul-2020  65.41 2696.97 1565.98 1276.49 57.59 6.00
   04:12:39.982.02-Jul-2020  65.61 2697.53 1565.98 1276.49 57.59 6.00
   04:12:40.182.02-Jul-2020  65.81 2697.28 1565.98 1276.49 57.59 6.00
   04:12:40.382.02-Jul-2020  66.01 2695.72 1565.98 1276.49 57.59 6.00
   04:12:40.582.02-Jul-2020  66.21 2695.72 1565.98 1276.49 57.59 6.00
   04:12:40.782.02-Jul-2020  66.41 2696.11 1565.98 1276.49 57.59 6.00
   04:12:40.982.02-Jul-2020  66.61 2696.02 1565.98 1276.49 57.59 6.00
   04:12:41.182.02-Jul-2020  66.81 2696.06 1565.98 1276.49 57.59 6.00
   04:12:41.382.02-Jul-2020  67.01 2694.68 1565.98 1276.49 57.59 6.00
   04:12:41.582.02-Jul-2020  67.21 2694.68 1565.98 1276.49 57.59 6.00
   04:12:41.782.02-Jul-2020  67.41 2696.51 1565.98 1276.49 57.59 6.00
   04:12:41.982.02-Jul-2020  67.61 2696.70 1565.98 1276.49 57.59 6.00
   04:12:42.182.02-Jul-2020  67.81 2696.56 1565.98 1276.49 57.59 6.00
   04:12:42.382.02-Jul-2020  68.01 2696.87 1565.98 1276.49 57.59 6.00
   04:12:42.582.02-Jul-2020  68.21 2696.87 1565.98 1276.49 57.59 6.00
   04:12:42.782.02-Jul-2020  68.41 2697.55 1565.98 1276.49 57.59 6.00
   04:12:42.982.02-Jul-2020  68.61 2696.49 1565.98 1276.49 57.59 6.00
   04:12:43.182.02-Jul-2020  68.81 2696.83 1565.98 1276.49 57.60 6.00
