~Version Information
 VERS.                  2.0:   CWLS log ASCII Standard -VERSION 2.0
 WRAP.                   NO:   One line per depth step
~Well Information Block
#MNEM.UNIT     VALUE/NAME     DESCRIPTION
#---------     -----------    ---------------------------
 STRT.S             20:59:46 30-Jun-20: START TIME 20:59:46 30-Jun-20
 STOP.S             21:08:48 30-Jun-20: STOP TIME  21:08:48 30-Jun-20
 STEP.S                   0.00: STEP TIME
 NULL.                 -999.25: NULL VALUE
 DFWT.                        :  DIST FWL TEXT
 DFST.                        :  DIST FSL TEXT
 DMF .             Drill Floor:  DRILL MEAS FROM
 STIM.      09.59.28 01-Jun-20:  START TIME
 DATE.      09.59.28 01-Jun-20:  END TIME
 SPUD.               01-Jun-20:  SPUD DATE
 NREF.                    Grid:  NORTH REFERENCE
 HPTY.       Minimum Curvature:  HOLE POS TYPE
 DMOD.             Drill Model:  DRILL MOD DESC
 SVYD.                  Survey:  SURVEY DESC
 ILTD.               Lithology:  INTERP LTH DESC
 FTOP.          Formation Tops:  FORM TOPS DESC
 SON .        AZ-XX-0905455768:  JOB NUMBER
 WTYP.                Deviated:  WELL TYPE
 COMP.     BP Exploration(Caspian Sea):  COMPANY
 BASE.              Azerbaijan:  LOGGING EQUIPMENT BASE LOCATION
 REGN.                   EESSA:  REGION
 CTRY.              Azerbaijan:  COUNTRY NAME
 FLD .                     ACG:  FIELD NAME
 SRVC.          Turan Drilling:  CONTRACTOR
 WELL.                     B41:  WELL NAME
 RIG .           Central Azeri:  RIG NAME
 DCON.         Sperry Drilling:  DIRECTNL CONTR
 PDAT.          Mean Sea Level:  PERMANENT DATUM
 MDS .        Operator Entered:  MAG DATA SOURCE
 API .                        :  API NUMBER
 CNTY.                        :  COUNTY
 PROV.                        :  PROVINCE
 STAT.                        :  STATE
 UWI .                        :  UNIQUE WELL IDENTIFIER
 LOC .                        :  LOCATION
 LMF .             Drill Floor:  LOG MEASURED FROM
 TVDS.m                  43.29:  TVDSS CORRECTN
 LATI.deg                40.03:  LATITUDE
 LONG.deg                51.35:  LONGITUDE
 WHNS.m                  12.98:  WELL HEAD N/S
 WHEW.m                  -6.62:  WELL HEAD E/W
 UTMX.m              530128.28:  UTM X
 UTMY.m             4433192.49:  UTM Y
 DFWL.m                   0.00:  DISTANCE FWL
 DFSL.m                   0.00:  DISTANCE FSL
 SDEP.m                 378.00:  START DEPTH
 TDD .m                   0.00:  TOTAL DEPTH (DRILLER)
 VSDR.deg               296.18:  VERT SEC DIRECT
 GVFD.g                   1.00:  GRAVITY FIELD
 MFLD.nT              50253.00:  MAGNETIC FIELD
 MDIP.deg                59.49:  MAGNETIC DIP
 MDEC.deg                 6.44:  MAGNETIC DECL
 GRDC.deg                 0.22:  GRID CORRECTION
 AZTC.deg                 6.22:  AZM TOTAL CORR
 EPD .m                   0.00:  ELEVATION
 EGL .m                   0.00:  GROUND ELEVATION
 WDMS.m                 128.20:  WD ELEV
 APD .m                  43.29:  DEPTH ABOVE PD
 AGAP.m                  43.29:  AIR GAP
 VSEW.m                  -6.62:  VERT SEC E/W
 VSNS.m                  12.98:  VERT SEC N/S
 EKB .m                  43.29:  KB ELEVATION
 EDF .m                  43.29:  DF ELEVATION
 TDL .m                1152.00:  TOTAL DEPTH (LOGGER)
 VSC .                       0:  VS TO CLOSURE
 MAGU.                 1848525:  MAGUTM CHECKSUM
~Parameter Information Block
#MNEM.UNIT       Value        Description
#---------     -----------    ---------------------------
 AV  .mps                 0.40:  Ann Velocity 
 AVMX.mps                 1.56:  Max Ann Veloc 
 AZIF.deg               300.46:  Azm, Final 
 BHAT.        Rotary Steerable:  BHA Type 
 BROT.°/30m               0.40:  Build Rotating 
 BS  .in                 17.50:  Bit Size 
 BSZ .in                 17.50:  Bit Size 
 BTPL.psig              300.00:  Bit Press Loss 
 CABU.                      No:  Customer Abuse 
 CGEO.          Parviz Guliyev:  Customer Geo 
 COMM.                     ÜRt:  Run Comments 1 
 TCS .hr                108.13:  Time Ciculation Ended 
 CV  .mps                 0.50:  Crit Velocity 
 CVMX.mps                 2.01:  Max Crit Veloc 
 DD1 .          Fariz Nahmatov:  Direct Drillr 1 
 DD2 .             Ehab Radwan:  Direct Drillr 2 
 DDSV.               Geo-Pilot:  DD Service 
 DEFF.%                  99.00:  % Det Eff 
 DLRX.°/30m               0.50:  Dogleg Rot Max 
 DLSO.°/30m               2.80:  Dogleg Oriented 
 DLSX.°/30m               3.90:  Dogleg Str Max 
 DRET.      09.30.04 03-Jul-20:  Drill End Time 
 DRST.      18.33.04 28-Jun-20:  Drill Start Tim 
 DTIM.hr                 55.83:  Time Drilling 
 EDEP.m                1952.00:  End Depth 
 ENG1.      Bakhtiyar Jabbarli:  Engineer 1 
 ENG2.         Farhad Orujzade:  Engineer 2 
 ENG3.          Rustam Safarov:  Engineer 3 
 ETIM.      01.33.04 04-Jul-20:  End Time 
 FLOI.gpm              1050.00:  Flow In 
 FLON.gpm               950.00:  Flow In Min 
 FLOS.cptm                0.10:  Fluid Loss 
 FLOX.gpm              1150.00:  Flow In Max 
 HFLO.                      No:  High Flow 
 HPRE.                      No:  High Pressure 
 HTEM.                      No:  High Temp 
 HYDO.m                   1.80:  Hydro Offset 
 IFIN.deg                75.26:  Inc, Final 
 IMAX.deg                75.38:  Inc Max 
 IMIN.deg                22.84:  Inc Min 
 IMND.m                 832.38:  Inc Min Depth 
 IMXD.m                1936.55:  Inc Max Depth 
 JARR.                      No:  Jarring 
 LETM.      17.40.00 04-Jul-20:  Log End Time 
 LOST.hr                     0:  Lost Rig Time 
 LSTM.      12.33.04 28-Jun-20:  Log Start Time 
 MDCL.ppm             49500.00:  Mud Chlorides 
 MDES.     Inversion Oil/Synthetic:  Mud Desc 
 DFD .sg                  1.46:  Mud Density 
 MDMN.sg                  1.46:  Dens Mud Min 
 MDMX.sg                  1.46:  Dens Mud Max 
 MOIL.                      70:  Run Mud Oil % 
 MOWR.                   70:30:  Run Mud OWR 
 MSND.                     0.5:  Run Mud Sand % 
 MSOL.                   19.89:  Run Mud Solids% 
 DFV .spqt               72.00:  Mud Viscosity 
 MWOD.in                  9.50:  MWD Tool OD 
 MWSI.                      No:  Serv Intrp, MWD 
 OTIM.hr                146.53:  Time Operating 
 PCON.           Look Like New:  Pad Condition 
 PMAX.psia             2900.00:  Press Op, Max 
 PV  .cP                 38.00:  Mud PV 
 RUN .                     600:  Run Number 
 ROPA.m/hr               22.00:  ROP Avg 
 ROPN.m/hr               10.00:  ROP Min 
 ROPX.m/hr              263.00:  ROP Max 
 RPMA.rpm               155.00:  RPM Surface Avg 
 RPMN.rpm               140.00:  RPM Surface Min 
 RPMX.rpm               160.00:  RPM Surface Max 
 RRUN.                    0600:  Rig Run Number 
 RTIM.hr                  5.00:  Time Reaming 
 SAZI.deg               300.08:  Azm, Start 
 SDEP.m                 800.00:  Start Depth 
 SIDD.                      No:  Serv Intrp, DD 
 SINC.deg                22.84:  Inc, Start 
 SPPA.psig             3000.00:  SPP Avg 
 SPPN.psig             1900.00:  SPP Min 
 SPPX.psig             3200.00:  SPP Max 
 STIM.      12.30.04 28-Jun-20:  Start Time 
 SVCS.                 DD, MWD:  Services 
 SVER.                    9.20:  Sperry Version 
 TDAT.m                1952.00:  Tot Depth Attmp 
 TDDF.                      No:  Trip for DD 
 TDLG.m                1152.00:  Tot Depth Loggd 
 TFF .                      No:  Trip for Fail 
 TQAA.f-kp                8.00:  Torque Abs Avg 
 TQAN.f-kp                5.00:  Torque Abs Min 
 TQAX.f-kp               14.00:  Torque Abs Max 
 TRRT.°/30m               0.50:  Turn Rotating 
 MRT .                  EWR-M5:  Maximum Recorded Temperature 
 TTMX.degC               69.00:  Max Tool Temp 
 VS01.                90610313:  Virtual Str1 SN 
 VS02.                90613431:  Virtual Str2 SN 
 VS03.                90615410:  Virtual Str3 SN 
 WBMN.klb                 6.00:  WOB Min 
 WITN.            Bruce Cheyne:  Customer Rep 
 WITN.             Ayaz Aliyev:  Customer Rep 2 
 WOBA.klb                 6.00:  WOB Avg 
 WOBX.klb                10.00:  WOB Max 
 YP  .lhf2               36.00:  Yield Point 
~Curve Information Block
#MNEM.UNIT                 API CODE     Curve Description
#---------               -----------    ---------------------------
 TIME.HHMMSS            00 000 000 000:  GT Time & Date
 GTET.sec               00 000 000 000:  GT Elapsed Test Time
 GTPQH.psia             00 000 000 000:  GT HR Quartz Pressure
 GTDEPTH.m              00 000 000 000:  GT Depth
 GTTVD.m                00 000 000 000:  GT True Vertical Depth
 GTTQ.degC              00 000 000 000:  GT Quartz Temperature
 GTTN.NONE              00 000 000 000:  GT Test Number
#Other Information
#
#WARRANTY: Halliburton will use its best efforts to furnish customers with 
#accurate information and interpretations that are part of, and incident to, the services 
#provided.  However, Halliburton cannot and does not warrant the accuracy 
#or correctness of such information and interpretations.  Under no circumstances should any 
#such information or interpretation be relied upon as the sole basis for any drilling, 
#completion, production, or financial decision or any procedure involving any risk to the 
#safety of any drilling venture, drilling rig or its crew or any other third party.  The 
#Customer has full responsibility for all drilling, completion and production operation.  
#Halliburton makes no representations or warranties, either expressed or 
#implied, including, but not limited to, the implied warranties of merchantability or fitness 
#for a particular purpose, with respect to the services rendered.  In no event will 
#Halliburton be liable for failure to obtain any particular results or for 
#any damages, including, but not limited to, indirect, special or consequential damages, 
#resulting from the use of any information or interpretation provided by Halliburton.
#
~A           TIME            GTET   GTPQH  GTDEPTH  GTTVD  GTTQ  GTTN 
# ...
   21:05:08.822.30-Jun-2020 322.06 2105.10 1143.02 1083.79 62.41 3.00
   21:05:09.022.30-Jun-2020 322.26 2105.10 1143.02 1083.79 62.41 3.00
   21:05:09.222.30-Jun-2020 322.46 2105.18 1143.02 1083.79 62.40 3.00
   21:05:09.422.30-Jun-2020 322.66 2105.16 1143.02 1083.79 62.40 3.00
   21:05:09.622.30-Jun-2020 322.86 2105.15 1143.02 1083.79 62.40 3.00
   21:05:09.823.30-Jun-2020 323.06 2105.15 1143.02 1083.79 62.40 3.00
   21:05:10.023.30-Jun-2020 323.26 2105.15 1143.02 1083.79 62.40 3.00
   21:05:10.223.30-Jun-2020 323.46 2105.13 1143.02 1083.79 62.40 3.00
   21:05:10.423.30-Jun-2020 323.66 2105.12 1143.02 1083.79 62.40 3.00
   21:05:10.623.30-Jun-2020 323.86 2105.13 1143.02 1083.79 62.40 3.00
   21:05:10.823.30-Jun-2020 324.06 2105.12 1143.02 1083.79 62.40 3.00
   21:05:11.023.30-Jun-2020 324.26 2105.12 1143.02 1083.79 62.40 3.00
   21:05:11.223.30-Jun-2020 324.46 2105.10 1143.02 1083.79 62.40 3.00
   21:05:11.423.30-Jun-2020 324.66 2105.12 1143.02 1083.79 62.40 3.00
   21:05:11.623.30-Jun-2020 324.86 2105.19 1143.02 1083.79 62.40 3.00
   21:05:11.823.30-Jun-2020 325.06 2105.19 1143.02 1083.79 62.40 3.00
   21:05:12.023.30-Jun-2020 325.26 2105.19 1143.02 1083.79 62.40 3.00
   21:05:12.223.30-Jun-2020 325.46 2105.16 1143.02 1083.79 62.40 3.00
   21:05:12.423.30-Jun-2020 325.66 2105.10 1143.02 1083.79 62.40 3.00
   21:05:12.623.30-Jun-2020 325.86 2105.20 1143.02 1083.79 62.40 3.00
   21:05:12.823.30-Jun-2020 326.06 2105.18 1143.02 1083.79 62.40 3.00
   21:05:13.023.30-Jun-2020 326.26 2105.18 1143.02 1083.79 62.40 3.00
   21:05:13.223.30-Jun-2020 326.46 2105.15 1143.02 1083.79 62.40 3.00
   21:05:13.423.30-Jun-2020 326.66 2105.11 1143.02 1083.79 62.40 3.00
   21:05:13.623.30-Jun-2020 326.86 2105.19 1143.02 1083.79 62.40 3.00
   21:05:13.823.30-Jun-2020 327.06 2105.20 1143.02 1083.79 62.40 3.00
   21:05:14.023.30-Jun-2020 327.26 2105.20 1143.02 1083.79 62.40 3.00
   21:05:14.223.30-Jun-2020 327.46 2105.16 1143.02 1083.79 62.40 3.00
   21:05:14.423.30-Jun-2020 327.66 2105.15 1143.02 1083.79 62.39 3.00
   21:05:14.623.30-Jun-2020 327.86 2105.11 1143.02 1083.79 62.39 3.00
   21:05:14.823.30-Jun-2020 328.06 2105.12 1143.02 1083.79 62.39 3.00
   21:05:15.023.30-Jun-2020 328.26 2105.16 1143.02 1083.79 62.39 3.00
   21:05:15.223.30-Jun-2020 328.46 2105.14 1143.02 1083.79 62.39 3.00
   21:05:15.424.30-Jun-2020 328.66 2105.13 1143.02 1083.79 62.39 3.00
   21:05:15.624.30-Jun-2020 328.86 2105.14 1143.02 1083.79 62.39 3.00
   21:05:15.824.30-Jun-2020 329.06 2105.13 1143.02 1083.79 62.39 3.00
   21:05:16.024.30-Jun-2020 329.26 2105.13 1143.02 1083.79 62.39 3.00
   21:05:16.224.30-Jun-2020 329.46 2105.13 1143.02 1083.79 62.39 3.00
   21:05:16.424.30-Jun-2020 329.66 2105.12 1143.02 1083.79 62.39 3.00
   21:05:16.624.30-Jun-2020 329.86 2105.13 1143.02 1083.79 62.39 3.00
   21:05:16.824.30-Jun-2020 330.06 2105.13 1143.02 1083.79 62.39 3.00
   21:05:17.024.30-Jun-2020 330.26 2105.13 1143.02 1083.79 62.39 3.00
   21:05:17.224.30-Jun-2020 330.46 2105.13 1143.02 1083.79 62.39 3.00
   21:05:17.424.30-Jun-2020 330.66 2105.11 1143.02 1083.79 62.39 3.00
   21:05:17.624.30-Jun-2020 330.86 2105.13 1143.02 1083.79 62.39 3.00
   21:05:17.824.30-Jun-2020 331.06 2105.12 1143.02 1083.79 62.39 3.00
   21:05:18.024.30-Jun-2020 331.26 2105.12 1143.02 1083.79 62.39 3.00
   21:05:18.224.30-Jun-2020 331.46 2105.12 1143.02 1083.79 62.39 3.00
   21:05:18.424.30-Jun-2020 331.66 2105.11 1143.02 1083.79 62.39 3.00
   21:05:18.624.30-Jun-2020 331.86 2105.20 1143.02 1083.79 62.39 3.00
   21:05:18.824.30-Jun-2020 332.06 2105.19 1143.02 1083.79 62.39 3.00
   21:05:19.024.30-Jun-2020 332.26 2105.19 1143.02 1083.79 62.39 3.00
   21:05:19.224.30-Jun-2020 332.46 2105.17 1143.02 1083.79 62.39 3.00
   21:05:19.424.30-Jun-2020 332.66 2105.16 1143.02 1083.79 62.38 3.00
   21:05:19.624.30-Jun-2020 332.86 2105.16 1143.02 1083.79 62.38 3.00
   21:05:19.824.30-Jun-2020 333.06 2105.14 1143.02 1083.79 62.38 3.00
   21:05:20.024.30-Jun-2020 333.26 2105.14 1143.02 1083.79 62.38 3.00
   21:05:20.224.30-Jun-2020 333.46 2105.15 1143.02 1083.79 62.38 3.00
   21:05:20.424.30-Jun-2020 333.66 2105.14 1143.02 1083.79 62.38 3.00
   21:05:20.624.30-Jun-2020 333.86 2105.13 1143.02 1083.79 62.38 3.00
   21:05:20.824.30-Jun-2020 334.06 2105.11 1143.02 1083.79 62.38 3.00
   21:05:21.025.30-Jun-2020 334.26 2105.11 1143.02 1083.79 62.38 3.00
   21:05:21.225.30-Jun-2020 334.46 2105.19 1143.02 1083.79 62.38 3.00
   21:05:21.425.30-Jun-2020 334.66 2105.17 1143.02 1083.79 62.38 3.00
   21:05:21.625.30-Jun-2020 334.86 2105.16 1143.02 1083.79 62.38 3.00
   21:05:21.825.30-Jun-2020 335.06 2105.11 1143.02 1083.79 62.38 3.00
   21:05:22.025.30-Jun-2020 335.26 2105.11 1143.02 1083.79 62.38 3.00
   21:05:22.225.30-Jun-2020 335.46 2105.21 1143.02 1083.79 62.38 3.00
   21:05:22.425.30-Jun-2020 335.66 2105.18 1143.02 1083.79 62.38 3.00
   21:05:22.625.30-Jun-2020 335.86 2105.17 1143.02 1083.79 62.38 3.00
   21:05:22.825.30-Jun-2020 336.06 2105.14 1143.02 1083.79 62.38 3.00
   21:05:23.025.30-Jun-2020 336.26 2105.14 1143.02 1083.79 62.38 3.00
   21:05:23.225.30-Jun-2020 336.46 2105.18 1143.02 1083.79 62.38 3.00
   21:05:23.425.30-Jun-2020 336.66 2105.18 1143.02 1083.79 62.38 3.00
   21:05:23.625.30-Jun-2020 336.86 2105.16 1143.02 1083.79 62.38 3.00
   21:05:23.825.30-Jun-2020 337.06 2105.15 1143.02 1083.79 62.38 3.00
   21:05:24.025.30-Jun-2020 337.26 2105.15 1143.02 1083.79 62.38 3.00
   21:05:24.225.30-Jun-2020 337.46 2105.11 1143.02 1083.79 62.38 3.00
   21:05:24.425.30-Jun-2020 337.66 2105.15 1143.02 1083.79 62.38 3.00
   21:05:24.625.30-Jun-2020 337.86 2105.16 1143.02 1083.79 62.37 3.00
   21:05:24.825.30-Jun-2020 338.06 2105.16 1143.02 1083.79 62.37 3.00
   21:05:25.025.30-Jun-2020 338.26 2105.16 1143.02 1083.79 62.37 3.00
   21:05:25.225.30-Jun-2020 338.46 2105.14 1143.02 1083.79 62.37 3.00
   21:05:25.425.30-Jun-2020 338.66 2105.14 1143.02 1083.79 62.37 3.00
   21:05:25.625.30-Jun-2020 338.86 2105.13 1143.02 1083.79 62.37 3.00
   21:05:25.825.30-Jun-2020 339.06 2105.14 1143.02 1083.79 62.37 3.00
   21:05:26.025.30-Jun-2020 339.26 2105.14 1143.02 1083.79 62.37 3.00
   21:05:26.225.30-Jun-2020 339.46 2105.13 1143.02 1083.79 62.37 3.00
   21:05:26.425.30-Jun-2020 339.66 2105.14 1143.02 1083.79 62.37 3.00
   21:05:26.626.30-Jun-2020 339.86 2105.13 1143.02 1083.79 62.37 3.00
   21:05:26.826.30-Jun-2020 340.06 2105.14 1143.02 1083.79 62.37 3.00
   21:05:27.026.30-Jun-2020 340.26 2105.14 1143.02 1083.79 62.37 3.00
   21:05:27.226.30-Jun-2020 340.46 2105.15 1143.02 1083.79 62.37 3.00
   21:05:27.426.30-Jun-2020 340.66 2105.15 1143.02 1083.79 62.37 3.00
   21:05:27.626.30-Jun-2020 340.86 2105.13 1143.02 1083.79 62.37 3.00
   21:05:27.826.30-Jun-2020 341.06 2105.07 1143.02 1083.79 62.37 3.00
   21:05:28.026.30-Jun-2020 341.26 2105.07 1143.02 1083.79 62.37 3.00
   21:05:28.226.30-Jun-2020 341.46 2105.21 1143.02 1083.79 62.37 3.00
   21:05:28.426.30-Jun-2020 341.66 2105.18 1143.02 1083.79 62.37 3.00
   21:05:28.626.30-Jun-2020 341.86 2105.17 1143.02 1083.79 62.37 3.00
   21:05:28.826.30-Jun-2020 342.06 2105.16 1143.02 1083.79 62.37 3.00
   21:05:29.026.30-Jun-2020 342.26 2105.16 1143.02 1083.79 62.37 3.00
   21:05:29.226.30-Jun-2020 342.46 2105.14 1143.02 1083.79 62.37 3.00
   21:05:29.426.30-Jun-2020 342.66 2105.15 1143.02 1083.79 62.37 3.00
   21:05:29.626.30-Jun-2020 342.86 2105.13 1143.02 1083.79 62.37 3.00
   21:05:29.826.30-Jun-2020 343.06 2105.14 1143.02 1083.79 62.36 3.00
   21:05:30.026.30-Jun-2020 343.26 2105.14 1143.02 1083.79 62.36 3.00
   21:05:30.226.30-Jun-2020 343.46 2105.07 1143.02 1083.79 62.36 3.00
   21:05:30.426.30-Jun-2020 343.66 2105.20 1143.02 1083.79 62.36 3.00
   21:05:30.626.30-Jun-2020 343.86 2105.19 1143.02 1083.79 62.36 3.00
   21:05:30.826.30-Jun-2020 344.06 2105.17 1143.02 1083.79 62.36 3.00
   21:05:31.026.30-Jun-2020 344.26 2105.17 1143.02 1083.79 62.36 3.00
   21:05:31.226.30-Jun-2020 344.46 2105.15 1143.02 1083.79 62.36 3.00
   21:05:31.426.30-Jun-2020 344.66 2105.17 1143.02 1083.79 62.36 3.00
   21:05:31.626.30-Jun-2020 344.86 2105.22 1143.02 1083.79 62.36 3.00
