~Version Information
 VERS.                  2.0:   CWLS log ASCII Standard -VERSION 2.0
 WRAP.                   NO:   One line per depth step
~Well Information Block
#MNEM.UNIT     VALUE/NAME     DESCRIPTION
#---------     -----------    ---------------------------
 STRT.S             23:54:17 02-Jul-20: START TIME 23:54:17 02-Jul-20
 STOP.S             00:03:12 03-Jul-20: STOP TIME  00:03:12 03-Jul-20
 STEP.S                   0.00: STEP TIME
 NULL.                 -999.25: NULL VALUE
 DFWT.                        :  DIST FWL TEXT
 DFST.                        :  DIST FSL TEXT
 DMF .             Drill Floor:  DRILL MEAS FROM
 STIM.      09.59.28 01-Jun-20:  START TIME
 DATE.      09.59.28 01-Jun-20:  END TIME
 SPUD.               01-Jun-20:  SPUD DATE
 NREF.                    Grid:  NORTH REFERENCE
 HPTY.       Minimum Curvature:  HOLE POS TYPE
 DMOD.             Drill Model:  DRILL MOD DESC
 SVYD.                  Survey:  SURVEY DESC
 ILTD.               Lithology:  INTERP LTH DESC
 FTOP.          Formation Tops:  FORM TOPS DESC
 SON .        AZ-XX-0905455768:  JOB NUMBER
 WTYP.                Deviated:  WELL TYPE
 COMP.     BP Exploration(Caspian Sea):  COMPANY
 BASE.              Azerbaijan:  LOGGING EQUIPMENT BASE LOCATION
 REGN.                   EESSA:  REGION
 CTRY.              Azerbaijan:  COUNTRY NAME
 FLD .                     ACG:  FIELD NAME
 SRVC.          Turan Drilling:  CONTRACTOR
 WELL.                     B41:  WELL NAME
 RIG .           Central Azeri:  RIG NAME
 DCON.         Sperry Drilling:  DIRECTNL CONTR
 PDAT.          Mean Sea Level:  PERMANENT DATUM
 MDS .        Operator Entered:  MAG DATA SOURCE
 API .                        :  API NUMBER
 CNTY.                        :  COUNTY
 PROV.                        :  PROVINCE
 STAT.                        :  STATE
 UWI .                        :  UNIQUE WELL IDENTIFIER
 LOC .                        :  LOCATION
 LMF .             Drill Floor:  LOG MEASURED FROM
 TVDS.m                  43.29:  TVDSS CORRECTN
 LATI.deg                40.03:  LATITUDE
 LONG.deg                51.35:  LONGITUDE
 WHNS.m                  12.98:  WELL HEAD N/S
 WHEW.m                  -6.62:  WELL HEAD E/W
 UTMX.m              530128.28:  UTM X
 UTMY.m             4433192.49:  UTM Y
 DFWL.m                   0.00:  DISTANCE FWL
 DFSL.m                   0.00:  DISTANCE FSL
 SDEP.m                 378.00:  START DEPTH
 TDD .m                   0.00:  TOTAL DEPTH (DRILLER)
 VSDR.deg               296.18:  VERT SEC DIRECT
 GVFD.g                   1.00:  GRAVITY FIELD
 MFLD.nT              50253.00:  MAGNETIC FIELD
 MDIP.deg                59.49:  MAGNETIC DIP
 MDEC.deg                 6.44:  MAGNETIC DECL
 GRDC.deg                 0.22:  GRID CORRECTION
 AZTC.deg                 6.22:  AZM TOTAL CORR
 EPD .m                   0.00:  ELEVATION
 EGL .m                   0.00:  GROUND ELEVATION
 WDMS.m                 128.20:  WD ELEV
 APD .m                  43.29:  DEPTH ABOVE PD
 AGAP.m                  43.29:  AIR GAP
 VSEW.m                  -6.62:  VERT SEC E/W
 VSNS.m                  12.98:  VERT SEC N/S
 EKB .m                  43.29:  KB ELEVATION
 EDF .m                  43.29:  DF ELEVATION
 TDL .m                1152.00:  TOTAL DEPTH (LOGGER)
 VSC .                       0:  VS TO CLOSURE
 MAGU.                 1848525:  MAGUTM CHECKSUM
~Parameter Information Block
#MNEM.UNIT       Value        Description
#---------     -----------    ---------------------------
 AV  .mps                 0.40:  Ann Velocity 
 AVMX.mps                 1.56:  Max Ann Veloc 
 AZIF.deg               300.46:  Azm, Final 
 BHAT.        Rotary Steerable:  BHA Type 
 BROT.°/30m               0.40:  Build Rotating 
 BS  .in                 17.50:  Bit Size 
 BSZ .in                 17.50:  Bit Size 
 BTPL.psig              300.00:  Bit Press Loss 
 CABU.                      No:  Customer Abuse 
 CGEO.          Parviz Guliyev:  Customer Geo 
 COMM.                     ägu:  Run Comments 1 
 TCS .hr                108.13:  Time Ciculation Ended 
 CV  .mps                 0.50:  Crit Velocity 
 CVMX.mps                 2.01:  Max Crit Veloc 
 DD1 .          Fariz Nahmatov:  Direct Drillr 1 
 DD2 .             Ehab Radwan:  Direct Drillr 2 
 DDSV.               Geo-Pilot:  DD Service 
 DEFF.%                  99.00:  % Det Eff 
 DLRX.°/30m               0.50:  Dogleg Rot Max 
 DLSO.°/30m               2.80:  Dogleg Oriented 
 DLSX.°/30m               3.90:  Dogleg Str Max 
 DRET.      09.30.04 03-Jul-20:  Drill End Time 
 DRST.      18.33.04 28-Jun-20:  Drill Start Tim 
 DTIM.hr                 55.83:  Time Drilling 
 EDEP.m                1952.00:  End Depth 
 ENG1.      Bakhtiyar Jabbarli:  Engineer 1 
 ENG2.         Farhad Orujzade:  Engineer 2 
 ENG3.          Rustam Safarov:  Engineer 3 
 ETIM.      01.33.04 04-Jul-20:  End Time 
 FLOI.gpm              1050.00:  Flow In 
 FLON.gpm               950.00:  Flow In Min 
 FLOS.cptm                0.10:  Fluid Loss 
 FLOX.gpm              1150.00:  Flow In Max 
 HFLO.                      No:  High Flow 
 HPRE.                      No:  High Pressure 
 HTEM.                      No:  High Temp 
 HYDO.m                   1.80:  Hydro Offset 
 IFIN.deg                75.26:  Inc, Final 
 IMAX.deg                75.38:  Inc Max 
 IMIN.deg                22.84:  Inc Min 
 IMND.m                 832.38:  Inc Min Depth 
 IMXD.m                1936.55:  Inc Max Depth 
 JARR.                      No:  Jarring 
 LETM.      17.40.00 04-Jul-20:  Log End Time 
 LOST.hr                     0:  Lost Rig Time 
 LSTM.      12.33.04 28-Jun-20:  Log Start Time 
 MDCL.ppm             49500.00:  Mud Chlorides 
 MDES.     Inversion Oil/Synthetic:  Mud Desc 
 DFD .sg                  1.46:  Mud Density 
 MDMN.sg                  1.46:  Dens Mud Min 
 MDMX.sg                  1.46:  Dens Mud Max 
 MOIL.                      70:  Run Mud Oil % 
 MOWR.                   70:30:  Run Mud OWR 
 MSND.                     0.5:  Run Mud Sand % 
 MSOL.                   19.89:  Run Mud Solids% 
 DFV .spqt               72.00:  Mud Viscosity 
 MWOD.in                  9.50:  MWD Tool OD 
 MWSI.                      No:  Serv Intrp, MWD 
 OTIM.hr                146.53:  Time Operating 
 PCON.           Look Like New:  Pad Condition 
 PMAX.psia             2900.00:  Press Op, Max 
 PV  .cP                 38.00:  Mud PV 
 RUN .                     600:  Run Number 
 ROPA.m/hr               22.00:  ROP Avg 
 ROPN.m/hr               10.00:  ROP Min 
 ROPX.m/hr              263.00:  ROP Max 
 RPMA.rpm               155.00:  RPM Surface Avg 
 RPMN.rpm               140.00:  RPM Surface Min 
 RPMX.rpm               160.00:  RPM Surface Max 
 RRUN.                    0600:  Rig Run Number 
 RTIM.hr                  5.00:  Time Reaming 
 SAZI.deg               300.08:  Azm, Start 
 SDEP.m                 800.00:  Start Depth 
 SIDD.                      No:  Serv Intrp, DD 
 SINC.deg                22.84:  Inc, Start 
 SPPA.psig             3000.00:  SPP Avg 
 SPPN.psig             1900.00:  SPP Min 
 SPPX.psig             3200.00:  SPP Max 
 STIM.      12.30.04 28-Jun-20:  Start Time 
 SVCS.                 DD, MWD:  Services 
 SVER.                    9.20:  Sperry Version 
 TDAT.m                1952.00:  Tot Depth Attmp 
 TDDF.                      No:  Trip for DD 
 TDLG.m                1152.00:  Tot Depth Loggd 
 TFF .                      No:  Trip for Fail 
 TQAA.f-kp                8.00:  Torque Abs Avg 
 TQAN.f-kp                5.00:  Torque Abs Min 
 TQAX.f-kp               14.00:  Torque Abs Max 
 TRRT.°/30m               0.50:  Turn Rotating 
 MRT .                  EWR-M5:  Maximum Recorded Temperature 
 TTMX.degC               69.00:  Max Tool Temp 
 VS01.                90610313:  Virtual Str1 SN 
 VS02.                90613431:  Virtual Str2 SN 
 VS03.                90615410:  Virtual Str3 SN 
 WBMN.klb                 6.00:  WOB Min 
 WITN.            Bruce Cheyne:  Customer Rep 
 WITN.             Ayaz Aliyev:  Customer Rep 2 
 WOBA.klb                 6.00:  WOB Avg 
 WOBX.klb                10.00:  WOB Max 
 YP  .lhf2               36.00:  Yield Point 
~Curve Information Block
#MNEM.UNIT                 API CODE     Curve Description
#---------               -----------    ---------------------------
 TIME.HHMMSS            00 000 000 000:  GT Time & Date
 GTET.sec               00 000 000 000:  GT Elapsed Test Time
 GTPQH.psia             00 000 000 000:  GT HR Quartz Pressure
 GTDEPTH.m              00 000 000 000:  GT Depth
 GTTVD.m                00 000 000 000:  GT True Vertical Depth
 GTTQ.degC              00 000 000 000:  GT Quartz Temperature
 GTTN.NONE              00 000 000 000:  GT Test Number
#Other Information
#
#WARRANTY: Halliburton will use its best efforts to furnish customers with 
#accurate information and interpretations that are part of, and incident to, the services 
#provided.  However, Halliburton cannot and does not warrant the accuracy 
#or correctness of such information and interpretations.  Under no circumstances should any 
#such information or interpretation be relied upon as the sole basis for any drilling, 
#completion, production, or financial decision or any procedure involving any risk to the 
#safety of any drilling venture, drilling rig or its crew or any other third party.  The 
#Customer has full responsibility for all drilling, completion and production operation.  
#Halliburton makes no representations or warranties, either expressed or 
#implied, including, but not limited to, the implied warranties of merchantability or fitness 
#for a particular purpose, with respect to the services rendered.  In no event will 
#Halliburton be liable for failure to obtain any particular results or for 
#any damages, including, but not limited to, indirect, special or consequential damages, 
#resulting from the use of any information or interpretation provided by Halliburton.
#
~A           TIME            GTET   GTPQH  GTDEPTH  GTTVD  GTTQ  GTTN 
# ...
   23:56:58.611.02-Jul-2020 161.02 2504.31 1828.92 1344.71 59.07 7.00
   23:56:58.811.02-Jul-2020 161.22 2504.31 1828.92 1344.71 59.07 7.00
   23:56:59.011.02-Jul-2020 161.42 2504.30 1828.92 1344.71 59.07 7.00
   23:56:59.211.02-Jul-2020 161.62 2504.31 1828.92 1344.71 59.07 7.00
   23:56:59.411.02-Jul-2020 161.82 2504.30 1828.92 1344.71 59.07 7.00
   23:56:59.611.02-Jul-2020 162.02 2504.30 1828.92 1344.71 59.07 7.00
   23:56:59.811.02-Jul-2020 162.22 2504.30 1828.92 1344.71 59.07 7.00
   23:57:00.011.02-Jul-2020 162.42 2504.32 1828.92 1344.71 59.07 7.00
   23:57:00.211.02-Jul-2020 162.62 2504.33 1828.92 1344.71 59.07 7.00
   23:57:00.411.02-Jul-2020 162.82 2504.32 1828.92 1344.71 59.07 7.00
   23:57:00.611.02-Jul-2020 163.02 2504.29 1828.92 1344.71 59.07 7.00
   23:57:00.811.02-Jul-2020 163.22 2504.29 1828.92 1344.71 59.07 7.00
   23:57:01.011.02-Jul-2020 163.42 2504.29 1828.92 1344.71 59.07 7.00
   23:57:01.211.02-Jul-2020 163.62 2504.31 1828.92 1344.71 59.07 7.00
   23:57:01.411.02-Jul-2020 163.82 2504.30 1828.92 1344.71 59.07 7.00
   23:57:01.611.02-Jul-2020 164.02 2504.32 1828.92 1344.71 59.07 7.00
   23:57:01.811.02-Jul-2020 164.22 2504.32 1828.92 1344.71 59.07 7.00
   23:57:02.011.02-Jul-2020 164.42 2504.31 1828.92 1344.71 59.07 7.00
   23:57:02.211.02-Jul-2020 164.62 2504.31 1828.92 1344.71 59.07 7.00
   23:57:02.411.02-Jul-2020 164.82 2504.31 1828.92 1344.71 59.07 7.00
   23:57:02.611.02-Jul-2020 165.02 2504.32 1828.92 1344.71 59.07 7.00
   23:57:02.811.02-Jul-2020 165.22 2504.32 1828.92 1344.71 59.07 7.00
   23:57:03.011.02-Jul-2020 165.42 2504.30 1828.92 1344.71 59.07 7.00
   23:57:03.211.02-Jul-2020 165.62 2504.24 1828.92 1344.71 59.07 7.00
   23:57:03.411.02-Jul-2020 165.82 2504.24 1828.92 1344.71 59.07 7.00
   23:57:03.611.02-Jul-2020 166.02 2504.30 1828.92 1344.71 59.07 7.00
   23:57:03.811.02-Jul-2020 166.22 2504.30 1828.92 1344.71 59.07 7.00
   23:57:04.011.02-Jul-2020 166.42 2504.30 1828.92 1344.71 59.07 7.00
   23:57:04.211.02-Jul-2020 166.62 2504.29 1828.92 1344.71 59.07 7.00
   23:57:04.411.02-Jul-2020 166.82 2504.30 1828.92 1344.71 59.07 7.00
   23:57:04.611.02-Jul-2020 167.02 2504.21 1828.92 1344.71 59.07 7.00
   23:57:04.811.02-Jul-2020 167.22 2504.21 1828.92 1344.71 59.07 7.00
   23:57:05.011.02-Jul-2020 167.42 2504.28 1828.92 1344.71 59.07 7.00
   23:57:05.212.02-Jul-2020 167.62 2504.29 1828.92 1344.71 59.07 7.00
   23:57:05.412.02-Jul-2020 167.82 2504.28 1828.92 1344.71 59.07 7.00
   23:57:05.612.02-Jul-2020 168.02 2504.29 1828.92 1344.71 59.07 7.00
   23:57:05.812.02-Jul-2020 168.22 2504.29 1828.92 1344.71 59.07 7.00
   23:57:06.012.02-Jul-2020 168.42 2504.26 1828.92 1344.71 59.07 7.00
   23:57:06.212.02-Jul-2020 168.62 2504.31 1828.92 1344.71 59.07 7.00
   23:57:06.412.02-Jul-2020 168.82 2504.27 1828.92 1344.71 59.07 7.00
   23:57:06.612.02-Jul-2020 169.02 2504.27 1828.92 1344.71 59.07 7.00
   23:57:06.812.02-Jul-2020 169.22 2504.27 1828.92 1344.71 59.07 7.00
   23:57:07.012.02-Jul-2020 169.42 2504.18 1828.92 1344.71 59.07 7.00
   23:57:07.212.02-Jul-2020 169.62 2504.24 1828.92 1344.71 59.07 7.00
   23:57:07.412.02-Jul-2020 169.82 2504.28 1828.92 1344.71 59.07 7.00
   23:57:07.612.02-Jul-2020 170.02 2504.27 1828.92 1344.71 59.07 7.00
   23:57:07.812.02-Jul-2020 170.22 2504.27 1828.92 1344.71 59.07 7.00
   23:57:08.012.02-Jul-2020 170.42 2504.27 1828.92 1344.71 59.07 7.00
   23:57:08.212.02-Jul-2020 170.62 2504.26 1828.92 1344.71 59.07 7.00
   23:57:08.412.02-Jul-2020 170.82 2504.27 1828.92 1344.71 59.07 7.00
   23:57:08.612.02-Jul-2020 171.02 2504.29 1828.92 1344.71 59.07 7.00
   23:57:08.812.02-Jul-2020 171.22 2504.29 1828.92 1344.71 59.07 7.00
   23:57:09.012.02-Jul-2020 171.42 2504.27 1828.92 1344.71 59.07 7.00
   23:57:09.212.02-Jul-2020 171.62 2504.27 1828.92 1344.71 59.07 7.00
   23:57:09.412.02-Jul-2020 171.82 2504.26 1828.92 1344.71 59.07 7.00
   23:57:09.612.02-Jul-2020 172.02 2504.27 1828.92 1344.71 59.07 7.00
   23:57:09.812.02-Jul-2020 172.22 2504.27 1828.92 1344.71 59.07 7.00
   23:57:10.012.02-Jul-2020 172.42 2504.29 1828.92 1344.71 59.07 7.00
   23:57:10.212.02-Jul-2020 172.62 2504.29 1828.92 1344.71 59.07 7.00
   23:57:10.412.02-Jul-2020 172.82 2504.59 1828.92 1344.71 59.07 7.00
   23:57:10.612.02-Jul-2020 173.02 2504.77 1828.92 1344.71 59.07 7.00
   23:57:10.812.02-Jul-2020 173.22 2504.77 1828.92 1344.71 59.07 7.00
   23:57:11.012.02-Jul-2020 173.42 2504.32 1828.92 1344.71 59.07 7.00
   23:57:11.212.02-Jul-2020 173.62 2504.29 1828.92 1344.71 59.07 7.00
   23:57:11.412.02-Jul-2020 173.82 2504.30 1828.92 1344.71 59.07 7.00
   23:57:11.612.02-Jul-2020 174.02 2504.29 1828.92 1344.71 59.07 7.00
   23:57:11.812.02-Jul-2020 174.22 2504.29 1828.92 1344.71 59.07 7.00
   23:57:12.012.02-Jul-2020 174.42 2504.29 1828.92 1344.71 59.07 7.00
   23:57:12.212.02-Jul-2020 174.62 2504.29 1828.92 1344.71 59.07 7.00
   23:57:12.412.02-Jul-2020 174.82 2504.31 1828.92 1344.71 59.07 7.00
   23:57:12.613.02-Jul-2020 175.02 2504.30 1828.92 1344.71 59.07 7.00
   23:57:12.813.02-Jul-2020 175.22 2504.28 1828.92 1344.71 59.07 7.00
   23:57:13.013.02-Jul-2020 175.42 2504.26 1828.92 1344.71 59.07 7.00
   23:57:13.213.02-Jul-2020 175.62 2504.17 1828.92 1344.71 59.07 7.00
   23:57:13.413.02-Jul-2020 175.82 2504.29 1828.92 1344.71 59.07 7.00
   23:57:13.613.02-Jul-2020 176.02 2504.28 1828.92 1344.71 59.07 7.00
   23:57:13.813.02-Jul-2020 176.22 2504.28 1828.92 1344.71 59.07 7.00
   23:57:14.013.02-Jul-2020 176.42 2504.29 1828.92 1344.71 59.07 7.00
   23:57:14.213.02-Jul-2020 176.62 2504.26 1828.92 1344.71 59.07 7.00
   23:57:14.413.02-Jul-2020 176.82 2504.18 1828.92 1344.71 59.07 7.00
   23:57:14.613.02-Jul-2020 177.02 2504.26 1828.92 1344.71 59.07 7.00
   23:57:14.813.02-Jul-2020 177.22 2504.27 1828.92 1344.71 59.07 7.00
   23:57:15.013.02-Jul-2020 177.42 2504.27 1828.92 1344.71 59.07 7.00
   23:57:15.213.02-Jul-2020 177.62 2504.27 1828.92 1344.71 59.07 7.00
   23:57:15.413.02-Jul-2020 177.82 2504.27 1828.92 1344.71 59.07 7.00
   23:57:15.613.02-Jul-2020 178.02 2504.17 1828.92 1344.71 59.07 7.00
   23:57:15.813.02-Jul-2020 178.22 2504.29 1828.92 1344.71 59.07 7.00
   23:57:16.013.02-Jul-2020 178.42 2504.29 1828.92 1344.71 59.07 7.00
   23:57:16.213.02-Jul-2020 178.62 2504.28 1828.92 1344.71 59.07 7.00
   23:57:16.413.02-Jul-2020 178.82 2504.27 1828.92 1344.71 59.07 7.00
   23:57:16.613.02-Jul-2020 179.02 2504.27 1828.92 1344.71 59.07 7.00
   23:57:16.813.02-Jul-2020 179.22 2504.27 1828.92 1344.71 59.07 7.00
   23:57:17.013.02-Jul-2020 179.42 2504.25 1828.92 1344.71 59.07 7.00
   23:57:17.213.02-Jul-2020 179.62 2504.26 1828.92 1344.71 59.07 7.00
   23:57:17.413.02-Jul-2020 179.82 2504.26 1828.92 1344.71 59.07 7.00
   23:57:17.613.02-Jul-2020 180.02 2504.27 1828.92 1344.71 59.07 7.00
   23:57:17.813.02-Jul-2020 180.22 2504.27 1828.92 1344.71 59.07 7.00
   23:57:18.013.02-Jul-2020 180.42 2504.25 1828.92 1344.71 59.07 7.00
   23:57:18.213.02-Jul-2020 180.62 2504.25 1828.92 1344.71 59.06 7.00
   23:57:18.413.02-Jul-2020 180.82 2504.27 1828.92 1344.71 59.07 7.00
   23:57:18.613.02-Jul-2020 181.02 2504.26 1828.92 1344.71 59.07 7.00
   23:57:18.813.02-Jul-2020 181.22 2504.26 1828.92 1344.71 59.06 7.00
   23:57:19.013.02-Jul-2020 181.42 2504.26 1828.92 1344.71 59.07 7.00
   23:57:19.213.02-Jul-2020 181.62 2504.25 1828.92 1344.71 59.07 7.00
   23:57:19.413.02-Jul-2020 181.82 2504.26 1828.92 1344.71 59.07 7.00
   23:57:19.613.02-Jul-2020 182.02 2504.27 1828.92 1344.71 59.06 7.00
   23:57:19.813.02-Jul-2020 182.22 2504.27 1828.92 1344.71 59.06 7.00
   23:57:20.014.02-Jul-2020 182.42 2504.29 1828.92 1344.71 59.06 7.00
   23:57:20.214.02-Jul-2020 182.62 2504.26 1828.92 1344.71 59.07 7.00
   23:57:20.414.02-Jul-2020 182.82 2504.23 1828.92 1344.71 59.06 7.00
   23:57:20.614.02-Jul-2020 183.02 2504.15 1828.92 1344.71 59.07 7.00
   23:57:20.814.02-Jul-2020 183.22 2504.15 1828.92 1344.71 59.07 7.00
   23:57:21.014.02-Jul-2020 183.43 2504.26 1828.92 1344.71 59.06 7.00
   23:57:21.214.02-Jul-2020 183.63 2504.26 1828.92 1344.71 59.06 7.00
   23:57:21.414.02-Jul-2020 183.83 2504.26 1828.92 1344.71 59.07 7.00
