~Version Information
 VERS.                  2.0:   CWLS log ASCII Standard -VERSION 2.0
 WRAP.                   NO:   One line per depth step
~Well Information Block
#MNEM.UNIT     VALUE/NAME     DESCRIPTION
#---------     -----------    ---------------------------
 STRT.S             23:54:17 02-Jul-20: START TIME 23:54:17 02-Jul-20
 STOP.S             00:03:12 03-Jul-20: STOP TIME  00:03:12 03-Jul-20
 STEP.S                   0.00: STEP TIME
 NULL.                 -999.25: NULL VALUE
 DFWT.                        :  DIST FWL TEXT
 DFST.                        :  DIST FSL TEXT
 DMF .             Drill Floor:  DRILL MEAS FROM
 STIM.      09.59.28 01-Jun-20:  START TIME
 DATE.      09.59.28 01-Jun-20:  END TIME
 SPUD.               01-Jun-20:  SPUD DATE
 NREF.                    Grid:  NORTH REFERENCE
 HPTY.       Minimum Curvature:  HOLE POS TYPE
 DMOD.             Drill Model:  DRILL MOD DESC
 SVYD.                  Survey:  SURVEY DESC
 ILTD.               Lithology:  INTERP LTH DESC
 FTOP.          Formation Tops:  FORM TOPS DESC
 SON .        AZ-XX-0905455768:  JOB NUMBER
 WTYP.                Deviated:  WELL TYPE
 COMP.     BP Exploration(Caspian Sea):  COMPANY
 BASE.              Azerbaijan:  LOGGING EQUIPMENT BASE LOCATION
 REGN.                   EESSA:  REGION
 CTRY.              Azerbaijan:  COUNTRY NAME
 FLD .                     ACG:  FIELD NAME
 SRVC.          Turan Drilling:  CONTRACTOR
 WELL.                     B41:  WELL NAME
 RIG .           Central Azeri:  RIG NAME
 DCON.         Sperry Drilling:  DIRECTNL CONTR
 PDAT.          Mean Sea Level:  PERMANENT DATUM
 MDS .        Operator Entered:  MAG DATA SOURCE
 API .                        :  API NUMBER
 CNTY.                        :  COUNTY
 PROV.                        :  PROVINCE
 STAT.                        :  STATE
 UWI .                        :  UNIQUE WELL IDENTIFIER
 LOC .                        :  LOCATION
 LMF .             Drill Floor:  LOG MEASURED FROM
 TVDS.m                  43.29:  TVDSS CORRECTN
 LATI.deg                40.03:  LATITUDE
 LONG.deg                51.35:  LONGITUDE
 WHNS.m                  12.98:  WELL HEAD N/S
 WHEW.m                  -6.62:  WELL HEAD E/W
 UTMX.m              530128.28:  UTM X
 UTMY.m             4433192.49:  UTM Y
 DFWL.m                   0.00:  DISTANCE FWL
 DFSL.m                   0.00:  DISTANCE FSL
 SDEP.m                 378.00:  START DEPTH
 TDD .m                   0.00:  TOTAL DEPTH (DRILLER)
 VSDR.deg               296.18:  VERT SEC DIRECT
 GVFD.g                   1.00:  GRAVITY FIELD
 MFLD.nT              50253.00:  MAGNETIC FIELD
 MDIP.deg                59.49:  MAGNETIC DIP
 MDEC.deg                 6.44:  MAGNETIC DECL
 GRDC.deg                 0.22:  GRID CORRECTION
 AZTC.deg                 6.22:  AZM TOTAL CORR
 EPD .m                   0.00:  ELEVATION
 EGL .m                   0.00:  GROUND ELEVATION
 WDMS.m                 128.20:  WD ELEV
 APD .m                  43.29:  DEPTH ABOVE PD
 AGAP.m                  43.29:  AIR GAP
 VSEW.m                  -6.62:  VERT SEC E/W
 VSNS.m                  12.98:  VERT SEC N/S
 EKB .m                  43.29:  KB ELEVATION
 EDF .m                  43.29:  DF ELEVATION
 TDL .m                1152.00:  TOTAL DEPTH (LOGGER)
 VSC .                       0:  VS TO CLOSURE
 MAGU.                 1848525:  MAGUTM CHECKSUM
~Parameter Information Block
#MNEM.UNIT       Value        Description
#---------     -----------    ---------------------------
 AV  .mps                 0.40:  Ann Velocity 
 AVMX.mps                 1.56:  Max Ann Veloc 
 AZIF.deg               300.46:  Azm, Final 
 BHAT.        Rotary Steerable:  BHA Type 
 BROT.°/30m               0.40:  Build Rotating 
 BS  .in                 17.50:  Bit Size 
 BSZ .in                 17.50:  Bit Size 
 BTPL.psig              300.00:  Bit Press Loss 
 CABU.                      No:  Customer Abuse 
 CGEO.          Parviz Guliyev:  Customer Geo 
 COMM.                     ägu:  Run Comments 1 
 TCS .hr                108.13:  Time Ciculation Ended 
 CV  .mps                 0.50:  Crit Velocity 
 CVMX.mps                 2.01:  Max Crit Veloc 
 DD1 .          Fariz Nahmatov:  Direct Drillr 1 
 DD2 .             Ehab Radwan:  Direct Drillr 2 
 DDSV.               Geo-Pilot:  DD Service 
 DEFF.%                  99.00:  % Det Eff 
 DLRX.°/30m               0.50:  Dogleg Rot Max 
 DLSO.°/30m               2.80:  Dogleg Oriented 
 DLSX.°/30m               3.90:  Dogleg Str Max 
 DRET.      09.30.04 03-Jul-20:  Drill End Time 
 DRST.      18.33.04 28-Jun-20:  Drill Start Tim 
 DTIM.hr                 55.83:  Time Drilling 
 EDEP.m                1952.00:  End Depth 
 ENG1.      Bakhtiyar Jabbarli:  Engineer 1 
 ENG2.         Farhad Orujzade:  Engineer 2 
 ENG3.          Rustam Safarov:  Engineer 3 
 ETIM.      01.33.04 04-Jul-20:  End Time 
 FLOI.gpm              1050.00:  Flow In 
 FLON.gpm               950.00:  Flow In Min 
 FLOS.cptm                0.10:  Fluid Loss 
 FLOX.gpm              1150.00:  Flow In Max 
 HFLO.                      No:  High Flow 
 HPRE.                      No:  High Pressure 
 HTEM.                      No:  High Temp 
 HYDO.m                   1.80:  Hydro Offset 
 IFIN.deg                75.26:  Inc, Final 
 IMAX.deg                75.38:  Inc Max 
 IMIN.deg                22.84:  Inc Min 
 IMND.m                 832.38:  Inc Min Depth 
 IMXD.m                1936.55:  Inc Max Depth 
 JARR.                      No:  Jarring 
 LETM.      17.40.00 04-Jul-20:  Log End Time 
 LOST.hr                     0:  Lost Rig Time 
 LSTM.      12.33.04 28-Jun-20:  Log Start Time 
 MDCL.ppm             49500.00:  Mud Chlorides 
 MDES.     Inversion Oil/Synthetic:  Mud Desc 
 DFD .sg                  1.46:  Mud Density 
 MDMN.sg                  1.46:  Dens Mud Min 
 MDMX.sg                  1.46:  Dens Mud Max 
 MOIL.                      70:  Run Mud Oil % 
 MOWR.                   70:30:  Run Mud OWR 
 MSND.                     0.5:  Run Mud Sand % 
 MSOL.                   19.89:  Run Mud Solids% 
 DFV .spqt               72.00:  Mud Viscosity 
 MWOD.in                  9.50:  MWD Tool OD 
 MWSI.                      No:  Serv Intrp, MWD 
 OTIM.hr                146.53:  Time Operating 
 PCON.           Look Like New:  Pad Condition 
 PMAX.psia             2900.00:  Press Op, Max 
 PV  .cP                 38.00:  Mud PV 
 RUN .                     600:  Run Number 
 ROPA.m/hr               22.00:  ROP Avg 
 ROPN.m/hr               10.00:  ROP Min 
 ROPX.m/hr              263.00:  ROP Max 
 RPMA.rpm               155.00:  RPM Surface Avg 
 RPMN.rpm               140.00:  RPM Surface Min 
 RPMX.rpm               160.00:  RPM Surface Max 
 RRUN.                    0600:  Rig Run Number 
 RTIM.hr                  5.00:  Time Reaming 
 SAZI.deg               300.08:  Azm, Start 
 SDEP.m                 800.00:  Start Depth 
 SIDD.                      No:  Serv Intrp, DD 
 SINC.deg                22.84:  Inc, Start 
 SPPA.psig             3000.00:  SPP Avg 
 SPPN.psig             1900.00:  SPP Min 
 SPPX.psig             3200.00:  SPP Max 
 STIM.      12.30.04 28-Jun-20:  Start Time 
 SVCS.                 DD, MWD:  Services 
 SVER.                    9.20:  Sperry Version 
 TDAT.m                1952.00:  Tot Depth Attmp 
 TDDF.                      No:  Trip for DD 
 TDLG.m                1152.00:  Tot Depth Loggd 
 TFF .                      No:  Trip for Fail 
 TQAA.f-kp                8.00:  Torque Abs Avg 
 TQAN.f-kp                5.00:  Torque Abs Min 
 TQAX.f-kp               14.00:  Torque Abs Max 
 TRRT.°/30m               0.50:  Turn Rotating 
 MRT .                  EWR-M5:  Maximum Recorded Temperature 
 TTMX.degC               69.00:  Max Tool Temp 
 VS01.                90610313:  Virtual Str1 SN 
 VS02.                90613431:  Virtual Str2 SN 
 VS03.                90615410:  Virtual Str3 SN 
 WBMN.klb                 6.00:  WOB Min 
 WITN.            Bruce Cheyne:  Customer Rep 
 WITN.             Ayaz Aliyev:  Customer Rep 2 
 WOBA.klb                 6.00:  WOB Avg 
 WOBX.klb                10.00:  WOB Max 
 YP  .lhf2               36.00:  Yield Point 
~Curve Information Block
#MNEM.UNIT                 API CODE     Curve Description
#---------               -----------    ---------------------------
 TIME.HHMMSS            00 000 000 000:  GT Time & Date
 GTET.sec               00 000 000 000:  GT Elapsed Test Time
 GTPQH.psia             00 000 000 000:  GT HR Quartz Pressure
 GTDEPTH.m              00 000 000 000:  GT Depth
 GTTVD.m                00 000 000 000:  GT True Vertical Depth
 GTTQ.degC              00 000 000 000:  GT Quartz Temperature
 GTTN.NONE              00 000 000 000:  GT Test Number
#Other Information
#
#WARRANTY: Halliburton will use its best efforts to furnish customers with 
#accurate information and interpretations that are part of, and incident to, the services 
#provided.  However, Halliburton cannot and does not warrant the accuracy 
#or correctness of such information and interpretations.  Under no circumstances should any 
#such information or interpretation be relied upon as the sole basis for any drilling, 
#completion, production, or financial decision or any procedure involving any risk to the 
#safety of any drilling venture, drilling rig or its crew or any other third party.  The 
#Customer has full responsibility for all drilling, completion and production operation.  
#Halliburton makes no representations or warranties, either expressed or 
#implied, including, but not limited to, the implied warranties of merchantability or fitness 
#for a particular purpose, with respect to the services rendered.  In no event will 
#Halliburton be liable for failure to obtain any particular results or for 
#any damages, including, but not limited to, indirect, special or consequential damages, 
#resulting from the use of any information or interpretation provided by Halliburton.
#
~A           TIME            GTET   GTPQH  GTDEPTH  GTTVD  GTTQ  GTTN 
# ...
   23:55:26.598.02-Jul-2020  69.01 2840.19 1828.92 1344.71 59.09 7.00
   23:55:26.798.02-Jul-2020  69.21 2840.19 1828.92 1344.71 59.09 7.00
   23:55:26.998.02-Jul-2020  69.41 2841.11 1828.92 1344.71 59.09 7.00
   23:55:27.198.02-Jul-2020  69.61 2841.26 1828.92 1344.71 59.09 7.00
   23:55:27.398.02-Jul-2020  69.81 2840.09 1828.92 1344.71 59.09 7.00
   23:55:27.598.02-Jul-2020  70.01 2840.77 1828.92 1344.71 59.09 7.00
   23:55:27.798.02-Jul-2020  70.21 2841.08 1828.92 1344.71 59.09 7.00
   23:55:27.998.02-Jul-2020  70.41 2840.94 1828.92 1344.71 59.09 7.00
   23:55:28.198.02-Jul-2020  70.61 2841.09 1828.92 1344.71 59.09 7.00
   23:55:28.398.02-Jul-2020  70.81 2840.44 1828.92 1344.71 59.09 7.00
   23:55:28.598.02-Jul-2020  71.01 2840.79 1828.92 1344.71 59.09 7.00
   23:55:28.798.02-Jul-2020  71.21 2841.52 1828.92 1344.71 59.09 7.00
   23:55:28.998.02-Jul-2020  71.41 2841.52 1828.92 1344.71 59.09 7.00
   23:55:29.198.02-Jul-2020  71.61 2841.07 1828.92 1344.71 59.09 7.00
   23:55:29.398.02-Jul-2020  71.81 2841.59 1828.92 1344.71 59.09 7.00
   23:55:29.598.02-Jul-2020  72.01 2841.84 1828.92 1344.71 59.09 7.00
   23:55:29.798.02-Jul-2020  72.21 2841.84 1828.92 1344.71 59.09 7.00
   23:55:29.999.02-Jul-2020  72.41 2841.34 1828.92 1344.71 59.09 7.00
   23:55:30.199.02-Jul-2020  72.61 2841.72 1828.92 1344.71 59.09 7.00
   23:55:30.399.02-Jul-2020  72.81 2834.35 1828.92 1344.71 59.09 7.00
   23:55:30.599.02-Jul-2020  73.01 2843.43 1828.92 1344.71 59.09 7.00
   23:55:30.799.02-Jul-2020  73.21 2843.43 1828.92 1344.71 59.09 7.00
   23:55:30.999.02-Jul-2020  73.41 2934.14 1828.92 1344.71 59.09 7.00
   23:55:31.199.02-Jul-2020  73.61 2940.32 1828.92 1344.71 59.09 7.00
   23:55:31.399.02-Jul-2020  73.81 2932.67 1828.92 1344.71 59.09 7.00
   23:55:31.599.02-Jul-2020  74.01 2927.01 1828.92 1344.71 59.09 7.00
   23:55:31.799.02-Jul-2020  74.21 2919.39 1828.92 1344.71 59.09 7.00
   23:55:31.999.02-Jul-2020  74.41 2921.69 1828.92 1344.71 59.09 7.00
   23:55:32.199.02-Jul-2020  74.61 2926.12 1828.92 1344.71 59.09 7.00
   23:55:32.399.02-Jul-2020  74.81 2930.61 1828.92 1344.71 59.09 7.00
   23:55:32.599.02-Jul-2020  75.01 2933.77 1828.92 1344.71 59.09 7.00
   23:55:32.799.02-Jul-2020  75.21 2939.45 1828.92 1344.71 59.09 7.00
   23:55:32.999.02-Jul-2020  75.41 2940.19 1828.92 1344.71 59.09 7.00
   23:55:33.199.02-Jul-2020  75.61 2936.38 1828.92 1344.71 59.09 7.00
   23:55:33.399.02-Jul-2020  75.81 2922.60 1828.92 1344.71 59.09 7.00
   23:55:33.599.02-Jul-2020  76.01 2905.19 1828.92 1344.71 59.09 7.00
   23:55:33.799.02-Jul-2020  76.21 2905.19 1828.92 1344.71 59.09 7.00
   23:55:33.999.02-Jul-2020  76.41 2896.84 1828.92 1344.71 59.09 7.00
   23:55:34.199.02-Jul-2020  76.61 2896.07 1828.92 1344.71 59.09 7.00
   23:55:34.399.02-Jul-2020  76.81 2895.08 1828.92 1344.71 59.09 7.00
   23:55:34.599.02-Jul-2020  77.01 2894.67 1828.92 1344.71 59.09 7.00
   23:55:34.799.02-Jul-2020  77.21 2894.67 1828.92 1344.71 59.09 7.00
   23:55:34.999.02-Jul-2020  77.41 2893.13 1828.92 1344.71 59.09 7.00
   23:55:35.199.02-Jul-2020  77.61 2892.78 1828.92 1344.71 59.09 7.00
   23:55:35.399.02-Jul-2020  77.81 2891.85 1828.92 1344.71 59.09 7.00
   23:55:35.599.02-Jul-2020  78.01 2891.46 1828.92 1344.71 59.09 7.00
   23:55:35.799.02-Jul-2020  78.21 2891.66 1828.92 1344.71 59.09 7.00
   23:55:35.999.02-Jul-2020  78.41 2891.47 1828.92 1344.71 59.09 7.00
   23:55:36.199.02-Jul-2020  78.61 2890.83 1828.92 1344.71 59.09 7.00
   23:55:36.399.02-Jul-2020  78.81 2890.80 1828.92 1344.71 59.09 7.00
   23:55:36.599.02-Jul-2020  79.01 2890.67 1828.92 1344.71 59.09 7.00
   23:55:36.799.02-Jul-2020  79.21 2890.45 1828.92 1344.71 59.09 7.00
   23:55:36.999.02-Jul-2020  79.41 2890.17 1828.92 1344.71 59.09 7.00
   23:55:37.200.02-Jul-2020  79.61 2889.87 1828.92 1344.71 59.09 7.00
   23:55:37.400.02-Jul-2020  79.81 2889.27 1828.92 1344.71 59.09 7.00
   23:55:37.600.02-Jul-2020  80.01 2888.87 1828.92 1344.71 59.09 7.00
   23:55:37.800.02-Jul-2020  80.21 2888.87 1828.92 1344.71 59.09 7.00
   23:55:38.000.02-Jul-2020  80.41 2882.30 1828.92 1344.71 59.09 7.00
   23:55:38.200.02-Jul-2020  80.61 2879.82 1828.92 1344.71 59.09 7.00
   23:55:38.400.02-Jul-2020  80.81 2887.60 1828.92 1344.71 59.09 7.00
   23:55:38.600.02-Jul-2020  81.01 3010.52 1828.92 1344.71 59.09 7.00
   23:55:38.800.02-Jul-2020  81.21 3010.52 1828.92 1344.71 59.09 7.00
   23:55:39.000.02-Jul-2020  81.41 2863.16 1828.92 1344.71 59.09 7.00
   23:55:39.200.02-Jul-2020  81.61 2861.76 1828.92 1344.71 59.09 7.00
   23:55:39.400.02-Jul-2020  81.81 2860.35 1828.92 1344.71 59.09 7.00
   23:55:39.600.02-Jul-2020  82.01 2859.22 1828.92 1344.71 59.09 7.00
   23:55:39.800.02-Jul-2020  82.21 2859.22 1828.92 1344.71 59.09 7.00
   23:55:40.000.02-Jul-2020  82.41 2858.24 1828.92 1344.71 59.09 7.00
   23:55:40.200.02-Jul-2020  82.61 2857.58 1828.92 1344.71 59.09 7.00
   23:55:40.400.02-Jul-2020  82.81 2857.02 1828.92 1344.71 59.09 7.00
   23:55:40.600.02-Jul-2020  83.01 2856.81 1828.92 1344.71 59.09 7.00
   23:55:40.800.02-Jul-2020  83.21 2856.81 1828.92 1344.71 59.09 7.00
   23:55:41.000.02-Jul-2020  83.41 2856.24 1828.92 1344.71 59.09 7.00
   23:55:41.200.02-Jul-2020  83.61 2855.88 1828.92 1344.71 59.09 7.00
   23:55:41.400.02-Jul-2020  83.81 2855.99 1828.92 1344.71 59.09 7.00
   23:55:41.600.02-Jul-2020  84.01 2856.13 1828.92 1344.71 59.09 7.00
   23:55:41.800.02-Jul-2020  84.21 2856.13 1828.92 1344.71 59.09 7.00
   23:55:42.000.02-Jul-2020  84.41 2855.91 1828.92 1344.71 59.09 7.00
   23:55:42.200.02-Jul-2020  84.61 2856.01 1828.92 1344.71 59.09 7.00
   23:55:42.400.02-Jul-2020  84.81 2855.99 1828.92 1344.71 59.09 7.00
   23:55:42.600.02-Jul-2020  85.01 2856.28 1828.92 1344.71 59.09 7.00
   23:55:42.800.02-Jul-2020  85.21 2856.28 1828.92 1344.71 59.09 7.00
   23:55:43.000.02-Jul-2020  85.41 2855.56 1828.92 1344.71 59.09 7.00
   23:55:43.200.02-Jul-2020  85.61 2854.19 1828.92 1344.71 59.09 7.00
   23:55:43.400.02-Jul-2020  85.81 2842.66 1828.92 1344.71 59.09 7.00
   23:55:43.600.02-Jul-2020  86.01 2795.17 1828.92 1344.71 59.09 7.00
   23:55:43.800.02-Jul-2020  86.21 2795.17 1828.92 1344.71 59.09 7.00
   23:55:44.000.02-Jul-2020  86.41 2697.78 1828.92 1344.71 59.09 7.00
   23:55:44.200.02-Jul-2020  86.61 2660.30 1828.92 1344.71 59.09 7.00
   23:55:44.400.02-Jul-2020  86.81 2614.64 1828.92 1344.71 59.09 7.00
   23:55:44.601.02-Jul-2020  87.01 2561.28 1828.92 1344.71 59.09 7.00
   23:55:44.801.02-Jul-2020  87.21 2561.28 1828.92 1344.71 59.09 7.00
   23:55:45.001.02-Jul-2020  87.41 2393.42 1828.92 1344.71 59.09 7.00
   23:55:45.201.02-Jul-2020  87.61 2311.03 1828.92 1344.71 59.09 7.00
   23:55:45.401.02-Jul-2020  87.81 2332.30 1828.92 1344.71 59.09 7.00
   23:55:45.601.02-Jul-2020  88.01 2412.09 1828.92 1344.71 59.09 7.00
   23:55:45.801.02-Jul-2020  88.21 2412.09 1828.92 1344.71 59.09 7.00
   23:55:46.001.02-Jul-2020  88.41 2443.78 1828.92 1344.71 59.09 7.00
   23:55:46.201.02-Jul-2020  88.61 2446.57 1828.92 1344.71 59.09 7.00
   23:55:46.401.02-Jul-2020  88.81 2449.20 1828.92 1344.71 59.09 7.00
   23:55:46.601.02-Jul-2020  89.01 2452.38 1828.92 1344.71 59.09 7.00
   23:55:46.801.02-Jul-2020  89.21 2452.38 1828.92 1344.71 59.09 7.00
   23:55:47.001.02-Jul-2020  89.41 2454.10 1828.92 1344.71 59.08 7.00
   23:55:47.201.02-Jul-2020  89.61 2454.66 1828.92 1344.71 59.08 7.00
   23:55:47.401.02-Jul-2020  89.81 2456.18 1828.92 1344.71 59.08 7.00
   23:55:47.601.02-Jul-2020  90.01 2495.47 1828.92 1344.71 59.08 7.00
   23:55:47.801.02-Jul-2020  90.21 2495.47 1828.92 1344.71 59.08 7.00
   23:55:48.001.02-Jul-2020  90.41 2501.58 1828.92 1344.71 59.08 7.00
   23:55:48.201.02-Jul-2020  90.61 2501.65 1828.92 1344.71 59.08 7.00
   23:55:48.401.02-Jul-2020  90.81 2501.75 1828.92 1344.71 59.08 7.00
   23:55:48.601.02-Jul-2020  91.01 2502.00 1828.92 1344.71 59.08 7.00
   23:55:48.801.02-Jul-2020  91.21 2502.00 1828.92 1344.71 59.08 7.00
   23:55:49.001.02-Jul-2020  91.41 2502.19 1828.92 1344.71 59.08 7.00
   23:55:49.201.02-Jul-2020  91.61 2502.29 1828.92 1344.71 59.08 7.00
   23:55:49.401.02-Jul-2020  91.81 2502.38 1828.92 1344.71 59.08 7.00
