~Version Information
 VERS.                  2.0:   CWLS log ASCII Standard -VERSION 2.0
 WRAP.                   NO:   One line per depth step
~Well Information Block
#MNEM.UNIT     VALUE/NAME     DESCRIPTION
#---------     -----------    ---------------------------
 STRT.S             06:27:04 01-Jul-20: START TIME 06:27:04 01-Jul-20
 STOP.S             06:36:04 01-Jul-20: STOP TIME  06:36:04 01-Jul-20
 STEP.S                   0.00: STEP TIME
 NULL.                 -999.25: NULL VALUE
 DFWT.                        :  DIST FWL TEXT
 DFST.                        :  DIST FSL TEXT
 DMF .             Drill Floor:  DRILL MEAS FROM
 STIM.      09.59.28 01-Jun-20:  START TIME
 DATE.      09.59.28 01-Jun-20:  END TIME
 SPUD.               01-Jun-20:  SPUD DATE
 NREF.                    Grid:  NORTH REFERENCE
 HPTY.       Minimum Curvature:  HOLE POS TYPE
 DMOD.             Drill Model:  DRILL MOD DESC
 SVYD.                  Survey:  SURVEY DESC
 ILTD.               Lithology:  INTERP LTH DESC
 FTOP.          Formation Tops:  FORM TOPS DESC
 SON .        AZ-XX-0905455768:  JOB NUMBER
 WTYP.                Deviated:  WELL TYPE
 COMP.     BP Exploration(Caspian Sea):  COMPANY
 BASE.              Azerbaijan:  LOGGING EQUIPMENT BASE LOCATION
 REGN.                   EESSA:  REGION
 CTRY.              Azerbaijan:  COUNTRY NAME
 FLD .                     ACG:  FIELD NAME
 SRVC.          Turan Drilling:  CONTRACTOR
 WELL.                     B41:  WELL NAME
 RIG .           Central Azeri:  RIG NAME
 DCON.         Sperry Drilling:  DIRECTNL CONTR
 PDAT.          Mean Sea Level:  PERMANENT DATUM
 MDS .        Operator Entered:  MAG DATA SOURCE
 API .                        :  API NUMBER
 CNTY.                        :  COUNTY
 PROV.                        :  PROVINCE
 STAT.                        :  STATE
 UWI .                        :  UNIQUE WELL IDENTIFIER
 LOC .                        :  LOCATION
 LMF .             Drill Floor:  LOG MEASURED FROM
 TVDS.m                  43.29:  TVDSS CORRECTN
 LATI.deg                40.03:  LATITUDE
 LONG.deg                51.35:  LONGITUDE
 WHNS.m                  12.98:  WELL HEAD N/S
 WHEW.m                  -6.62:  WELL HEAD E/W
 UTMX.m              530128.28:  UTM X
 UTMY.m             4433192.49:  UTM Y
 DFWL.m                   0.00:  DISTANCE FWL
 DFSL.m                   0.00:  DISTANCE FSL
 SDEP.m                 378.00:  START DEPTH
 TDD .m                   0.00:  TOTAL DEPTH (DRILLER)
 VSDR.deg               296.18:  VERT SEC DIRECT
 GVFD.g                   1.00:  GRAVITY FIELD
 MFLD.nT              50253.00:  MAGNETIC FIELD
 MDIP.deg                59.49:  MAGNETIC DIP
 MDEC.deg                 6.44:  MAGNETIC DECL
 GRDC.deg                 0.22:  GRID CORRECTION
 AZTC.deg                 6.22:  AZM TOTAL CORR
 EPD .m                   0.00:  ELEVATION
 EGL .m                   0.00:  GROUND ELEVATION
 WDMS.m                 128.20:  WD ELEV
 APD .m                  43.29:  DEPTH ABOVE PD
 AGAP.m                  43.29:  AIR GAP
 VSEW.m                  -6.62:  VERT SEC E/W
 VSNS.m                  12.98:  VERT SEC N/S
 EKB .m                  43.29:  KB ELEVATION
 EDF .m                  43.29:  DF ELEVATION
 TDL .m                1152.00:  TOTAL DEPTH (LOGGER)
 VSC .                       0:  VS TO CLOSURE
 MAGU.                 1848525:  MAGUTM CHECKSUM
~Parameter Information Block
#MNEM.UNIT       Value        Description
#---------     -----------    ---------------------------
 AV  .mps                 0.40:  Ann Velocity 
 AVMX.mps                 1.56:  Max Ann Veloc 
 AZIF.deg               300.46:  Azm, Final 
 BHAT.        Rotary Steerable:  BHA Type 
 BROT.°/30m               0.40:  Build Rotating 
 BS  .in                 17.50:  Bit Size 
 BSZ .in                 17.50:  Bit Size 
 BTPL.psig              300.00:  Bit Press Loss 
 CABU.                      No:  Customer Abuse 
 CGEO.          Parviz Guliyev:  Customer Geo 
 TCS .hr                108.13:  Time Ciculation Ended 
 CV  .mps                 0.50:  Crit Velocity 
 CVMX.mps                 2.01:  Max Crit Veloc 
 DD1 .          Fariz Nahmatov:  Direct Drillr 1 
 DD2 .             Ehab Radwan:  Direct Drillr 2 
 DDSV.               Geo-Pilot:  DD Service 
 DEFF.%                  99.00:  % Det Eff 
 DLRX.°/30m               0.50:  Dogleg Rot Max 
 DLSO.°/30m               2.80:  Dogleg Oriented 
 DLSX.°/30m               3.90:  Dogleg Str Max 
 DRET.      09.30.04 03-Jul-20:  Drill End Time 
 DRST.      18.33.04 28-Jun-20:  Drill Start Tim 
 DTIM.hr                 55.83:  Time Drilling 
 EDEP.m                1952.00:  End Depth 
 ENG1.      Bakhtiyar Jabbarli:  Engineer 1 
 ENG2.         Farhad Orujzade:  Engineer 2 
 ENG3.          Rustam Safarov:  Engineer 3 
 ETIM.      01.33.04 04-Jul-20:  End Time 
 FLOI.gpm              1050.00:  Flow In 
 FLON.gpm               950.00:  Flow In Min 
 FLOS.cptm                0.10:  Fluid Loss 
 FLOX.gpm              1150.00:  Flow In Max 
 HFLO.                      No:  High Flow 
 HPRE.                      No:  High Pressure 
 HTEM.                      No:  High Temp 
 HYDO.m                   1.80:  Hydro Offset 
 IFIN.deg                75.26:  Inc, Final 
 IMAX.deg                75.38:  Inc Max 
 IMIN.deg                22.84:  Inc Min 
 IMND.m                 832.38:  Inc Min Depth 
 IMXD.m                1936.55:  Inc Max Depth 
 JARR.                      No:  Jarring 
 LETM.      17.40.00 04-Jul-20:  Log End Time 
 LOST.hr                     0:  Lost Rig Time 
 LSTM.      12.33.04 28-Jun-20:  Log Start Time 
 MDCL.ppm             49500.00:  Mud Chlorides 
 MDES.     Inversion Oil/Synthetic:  Mud Desc 
 DFD .sg                  1.46:  Mud Density 
 MDMN.sg                  1.46:  Dens Mud Min 
 MDMX.sg                  1.46:  Dens Mud Max 
 MOIL.                      70:  Run Mud Oil % 
 MOWR.                   70:30:  Run Mud OWR 
 MSND.                     0.5:  Run Mud Sand % 
 MSOL.                   19.89:  Run Mud Solids% 
 DFV .spqt               72.00:  Mud Viscosity 
 MWOD.in                  9.50:  MWD Tool OD 
 MWSI.                      No:  Serv Intrp, MWD 
 OTIM.hr                146.53:  Time Operating 
 PCON.           Look Like New:  Pad Condition 
 PMAX.psia             2900.00:  Press Op, Max 
 PV  .cP                 38.00:  Mud PV 
 RUN .                     600:  Run Number 
 ROPA.m/hr               22.00:  ROP Avg 
 ROPN.m/hr               10.00:  ROP Min 
 ROPX.m/hr              263.00:  ROP Max 
 RPMA.rpm               155.00:  RPM Surface Avg 
 RPMN.rpm               140.00:  RPM Surface Min 
 RPMX.rpm               160.00:  RPM Surface Max 
 RRUN.                    0600:  Rig Run Number 
 RTIM.hr                  5.00:  Time Reaming 
 SAZI.deg               300.08:  Azm, Start 
 SDEP.m                 800.00:  Start Depth 
 SIDD.                      No:  Serv Intrp, DD 
 SINC.deg                22.84:  Inc, Start 
 SPPA.psig             3000.00:  SPP Avg 
 SPPN.psig             1900.00:  SPP Min 
 SPPX.psig             3200.00:  SPP Max 
 STIM.      12.30.04 28-Jun-20:  Start Time 
 SVCS.                 DD, MWD:  Services 
 SVER.                    9.20:  Sperry Version 
 TDAT.m                1952.00:  Tot Depth Attmp 
 TDDF.                      No:  Trip for DD 
 TDLG.m                1152.00:  Tot Depth Loggd 
 TFF .                      No:  Trip for Fail 
 TQAA.f-kp                8.00:  Torque Abs Avg 
 TQAN.f-kp                5.00:  Torque Abs Min 
 TQAX.f-kp               14.00:  Torque Abs Max 
 TRRT.°/30m               0.50:  Turn Rotating 
 MRT .                  EWR-M5:  Maximum Recorded Temperature 
 TTMX.degC               69.00:  Max Tool Temp 
 VS01.                90610313:  Virtual Str1 SN 
 VS02.                90613431:  Virtual Str2 SN 
 VS03.                90615410:  Virtual Str3 SN 
 WBMN.klb                 6.00:  WOB Min 
 WITN.            Bruce Cheyne:  Customer Rep 
 WITN.             Ayaz Aliyev:  Customer Rep 2 
 WOBA.klb                 6.00:  WOB Avg 
 WOBX.klb                10.00:  WOB Max 
 YP  .lhf2               36.00:  Yield Point 
~Curve Information Block
#MNEM.UNIT                 API CODE     Curve Description
#---------               -----------    ---------------------------
 TIME.HHMMSS            00 000 000 000:  GT Time & Date
 GTET.sec               00 000 000 000:  GT Elapsed Test Time
 GTPQH.psia             00 000 000 000:  GT HR Quartz Pressure
 GTDEPTH.m              00 000 000 000:  GT Depth
 GTTVD.m                00 000 000 000:  GT True Vertical Depth
 GTTQ.degC              00 000 000 000:  GT Quartz Temperature
 GTTN.NONE              00 000 000 000:  GT Test Number
#Other Information
#
#WARRANTY: Halliburton will use its best efforts to furnish customers with 
#accurate information and interpretations that are part of, and incident to, the services 
#provided.  However, Halliburton cannot and does not warrant the accuracy 
#or correctness of such information and interpretations.  Under no circumstances should any 
#such information or interpretation be relied upon as the sole basis for any drilling, 
#completion, production, or financial decision or any procedure involving any risk to the 
#safety of any drilling venture, drilling rig or its crew or any other third party.  The 
#Customer has full responsibility for all drilling, completion and production operation.  
#Halliburton makes no representations or warranties, either expressed or 
#implied, including, but not limited to, the implied warranties of merchantability or fitness 
#for a particular purpose, with respect to the services rendered.  In no event will 
#Halliburton be liable for failure to obtain any particular results or for 
#any damages, including, but not limited to, indirect, special or consequential damages, 
#resulting from the use of any information or interpretation provided by Halliburton.
#
~A           TIME            GTET   GTPQH  GTDEPTH  GTTVD  GTTQ  GTTN 
# ...
   06:30:31.000.01-Jul-2020 207.00 2169.39 1257.48 1159.06 54.79 5.00
   06:30:31.200.01-Jul-2020 207.20 2169.39 1257.48 1159.06 54.79 5.00
   06:30:31.400.01-Jul-2020 207.40 2169.39 1257.48 1159.06 54.79 5.00
   06:30:31.600.01-Jul-2020 207.60 2169.40 1257.48 1159.06 54.79 5.00
   06:30:31.800.01-Jul-2020 207.80 2169.39 1257.48 1159.06 54.79 5.00
   06:30:32.000.01-Jul-2020 208.00 2169.39 1257.48 1159.06 54.79 5.00
   06:30:32.200.01-Jul-2020 208.20 2169.39 1257.48 1159.06 54.79 5.00
   06:30:32.400.01-Jul-2020 208.40 2169.38 1257.48 1159.06 54.79 5.00
   06:30:32.600.01-Jul-2020 208.60 2169.39 1257.48 1159.06 54.79 5.00
   06:30:32.800.01-Jul-2020 208.80 2169.39 1257.48 1159.06 54.79 5.00
   06:30:33.000.01-Jul-2020 209.00 2169.39 1257.48 1159.06 54.79 5.00
   06:30:33.200.01-Jul-2020 209.20 2169.39 1257.48 1159.06 54.79 5.00
   06:30:33.400.01-Jul-2020 209.40 2169.40 1257.48 1159.06 54.79 5.00
   06:30:33.600.01-Jul-2020 209.60 2169.37 1257.48 1159.06 54.79 5.00
   06:30:33.800.01-Jul-2020 209.80 2169.37 1257.48 1159.06 54.79 5.00
   06:30:34.000.01-Jul-2020 210.00 2169.37 1257.48 1159.06 54.79 5.00
   06:30:34.200.01-Jul-2020 210.20 2169.37 1257.48 1159.06 54.79 5.00
   06:30:34.400.01-Jul-2020 210.40 2169.38 1257.48 1159.06 54.79 5.00
   06:30:34.600.01-Jul-2020 210.60 2169.38 1257.48 1159.06 54.79 5.00
   06:30:34.800.01-Jul-2020 210.80 2169.37 1257.48 1159.06 54.79 5.00
   06:30:35.000.01-Jul-2020 211.00 2169.38 1257.48 1159.06 54.79 5.00
   06:30:35.200.01-Jul-2020 211.20 2169.37 1257.48 1159.06 54.79 5.00
   06:30:35.400.01-Jul-2020 211.40 2169.37 1257.48 1159.06 54.79 5.00
   06:30:35.600.01-Jul-2020 211.60 2169.31 1257.48 1159.06 54.79 5.00
   06:30:35.800.01-Jul-2020 211.80 2169.39 1257.48 1159.06 54.79 5.00
   06:30:36.000.01-Jul-2020 212.00 2169.37 1257.48 1159.06 54.79 5.00
   06:30:36.200.01-Jul-2020 212.20 2169.37 1257.48 1159.06 54.79 5.00
   06:30:36.400.01-Jul-2020 212.40 2169.37 1257.48 1159.06 54.79 5.00
   06:30:36.600.01-Jul-2020 212.60 2169.36 1257.48 1159.06 54.79 5.00
   06:30:36.800.01-Jul-2020 212.80 2169.33 1257.48 1159.06 54.79 5.00
   06:30:37.000.01-Jul-2020 213.00 2169.36 1257.48 1159.06 54.79 5.00
   06:30:37.200.01-Jul-2020 213.20 2169.36 1257.48 1159.06 54.79 5.00
   06:30:37.400.01-Jul-2020 213.40 2169.35 1257.48 1159.06 54.79 5.00
   06:30:37.600.01-Jul-2020 213.60 2169.35 1257.48 1159.06 54.79 5.00
   06:30:37.800.01-Jul-2020 213.80 2169.35 1257.48 1159.06 54.79 5.00
   06:30:38.000.01-Jul-2020 214.00 2169.35 1257.48 1159.06 54.79 5.00
   06:30:38.200.01-Jul-2020 214.20 2169.35 1257.48 1159.06 54.79 5.00
   06:30:38.400.01-Jul-2020 214.40 2169.36 1257.48 1159.06 54.79 5.00
   06:30:38.600.01-Jul-2020 214.60 2169.37 1257.48 1159.06 54.79 5.00
   06:30:38.800.01-Jul-2020 214.80 2169.35 1257.48 1159.06 54.79 5.00
   06:30:39.000.01-Jul-2020 215.00 2169.35 1257.48 1159.06 54.79 5.00
   06:30:39.200.01-Jul-2020 215.20 2169.34 1257.48 1159.06 54.79 5.00
   06:30:39.400.01-Jul-2020 215.40 2169.29 1257.48 1159.06 54.79 5.00
   06:30:39.600.01-Jul-2020 215.60 2169.37 1257.48 1159.06 54.79 5.00
   06:30:39.800.01-Jul-2020 215.80 2169.34 1257.48 1159.06 54.79 5.00
   06:30:40.000.01-Jul-2020 216.00 2169.34 1257.48 1159.06 54.79 5.00
   06:30:40.200.01-Jul-2020 216.20 2169.34 1257.48 1159.06 54.79 5.00
   06:30:40.400.01-Jul-2020 216.40 2169.34 1257.48 1159.06 54.79 5.00
   06:30:40.600.01-Jul-2020 216.60 2169.34 1257.48 1159.06 54.79 5.00
   06:30:40.800.01-Jul-2020 216.80 2169.35 1257.48 1159.06 54.79 5.00
   06:30:41.000.01-Jul-2020 217.00 2169.33 1257.48 1159.06 54.79 5.00
   06:30:41.200.01-Jul-2020 217.20 2169.33 1257.48 1159.06 54.79 5.00
   06:30:41.400.01-Jul-2020 217.40 2169.34 1257.48 1159.06 54.78 5.00
   06:30:41.600.01-Jul-2020 217.60 2169.34 1257.48 1159.06 54.78 5.00
   06:30:41.800.01-Jul-2020 217.80 2169.34 1257.48 1159.06 54.78 5.00
   06:30:42.000.01-Jul-2020 218.00 2169.32 1257.48 1159.06 54.78 5.00
   06:30:42.200.01-Jul-2020 218.20 2169.32 1257.48 1159.06 54.78 5.00
   06:30:42.400.01-Jul-2020 218.40 2169.33 1257.48 1159.06 54.78 5.00
   06:30:42.600.01-Jul-2020 218.60 2169.33 1257.48 1159.06 54.78 5.00
   06:30:42.800.01-Jul-2020 218.80 2169.33 1257.48 1159.06 54.78 5.00
   06:30:43.000.01-Jul-2020 219.00 2169.32 1257.48 1159.06 54.78 5.00
   06:30:43.200.01-Jul-2020 219.20 2169.29 1257.48 1159.06 54.78 5.00
   06:30:43.400.01-Jul-2020 219.40 2169.33 1257.48 1159.06 54.78 5.00
   06:30:43.600.01-Jul-2020 219.60 2169.31 1257.48 1159.06 54.78 5.00
   06:30:43.800.01-Jul-2020 219.80 2169.30 1257.48 1159.06 54.78 5.00
   06:30:44.000.01-Jul-2020 220.00 2169.31 1257.48 1159.06 54.78 5.00
   06:30:44.200.01-Jul-2020 220.20 2169.31 1257.48 1159.06 54.78 5.00
   06:30:44.400.01-Jul-2020 220.40 2169.31 1257.48 1159.06 54.78 5.00
   06:30:44.600.01-Jul-2020 220.60 2169.31 1257.48 1159.06 54.78 5.00
   06:30:44.800.01-Jul-2020 220.80 2169.31 1257.48 1159.06 54.78 5.00
   06:30:45.000.01-Jul-2020 221.00 2169.30 1257.48 1159.06 54.78 5.00
   06:30:45.200.01-Jul-2020 221.20 2169.30 1257.48 1159.06 54.78 5.00
   06:30:45.400.01-Jul-2020 221.40 2169.30 1257.48 1159.06 54.78 5.00
   06:30:45.600.01-Jul-2020 221.60 2169.27 1257.48 1159.06 54.78 5.00
   06:30:45.800.01-Jul-2020 221.80 2167.81 1257.48 1159.06 54.78 5.00
   06:30:46.000.01-Jul-2020 222.00 2167.85 1257.48 1159.06 54.78 5.00
   06:30:46.200.01-Jul-2020 222.20 2167.85 1257.48 1159.06 54.78 5.00
   06:30:46.400.01-Jul-2020 222.40 2167.96 1257.48 1159.06 54.78 5.00
   06:30:46.600.01-Jul-2020 222.60 2167.95 1257.48 1159.06 54.78 5.00
   06:30:46.800.01-Jul-2020 222.80 2168.02 1257.48 1159.06 54.78 5.00
   06:30:47.000.01-Jul-2020 223.00 2168.03 1257.48 1159.06 54.78 5.00
   06:30:47.200.01-Jul-2020 223.20 2168.03 1257.48 1159.06 54.78 5.00
   06:30:47.400.01-Jul-2020 223.40 2168.05 1257.48 1159.06 54.78 5.00
   06:30:47.600.01-Jul-2020 223.60 2168.07 1257.48 1159.06 54.78 5.00
   06:30:47.800.01-Jul-2020 223.80 2168.06 1257.48 1159.06 54.78 5.00
   06:30:48.000.01-Jul-2020 224.00 2168.06 1257.48 1159.06 54.78 5.00
   06:30:48.200.01-Jul-2020 224.20 2168.06 1257.48 1159.06 54.78 5.00
   06:30:48.400.01-Jul-2020 224.40 2168.10 1257.48 1159.06 54.78 5.00
   06:30:48.600.01-Jul-2020 224.60 2168.09 1257.48 1159.06 54.78 5.00
   06:30:48.800.01-Jul-2020 224.80 2168.10 1257.48 1159.06 54.78 5.00
   06:30:49.000.01-Jul-2020 225.00 2168.10 1257.48 1159.06 54.78 5.00
   06:30:49.200.01-Jul-2020 225.20 2168.10 1257.48 1159.06 54.78 5.00
   06:30:49.400.01-Jul-2020 225.40 2168.10 1257.48 1159.06 54.78 5.00
   06:30:49.600.01-Jul-2020 225.60 2168.12 1257.48 1159.06 54.78 5.00
   06:30:49.800.01-Jul-2020 225.80 2168.13 1257.48 1159.06 54.78 5.00
   06:30:50.000.01-Jul-2020 226.00 2168.13 1257.48 1159.06 54.78 5.00
   06:30:50.200.01-Jul-2020 226.20 2168.13 1257.48 1159.06 54.78 5.00
   06:30:50.400.01-Jul-2020 226.40 2168.14 1257.48 1159.06 54.78 5.00
   06:30:50.600.01-Jul-2020 226.60 2168.12 1257.48 1159.06 54.78 5.00
   06:30:50.800.01-Jul-2020 226.80 2168.14 1257.48 1159.06 54.78 5.00
   06:30:51.000.01-Jul-2020 227.00 2168.12 1257.48 1159.06 54.78 5.00
   06:30:51.200.01-Jul-2020 227.20 2168.14 1257.48 1159.06 54.78 5.00
   06:30:51.400.01-Jul-2020 227.40 2168.15 1257.48 1159.06 54.78 5.00
   06:30:51.600.01-Jul-2020 227.60 2168.13 1257.48 1159.06 54.78 5.00
   06:30:51.800.01-Jul-2020 227.80 2168.14 1257.48 1159.06 54.78 5.00
   06:30:52.000.01-Jul-2020 228.00 2168.13 1257.48 1159.06 54.78 5.00
   06:30:52.200.01-Jul-2020 228.20 2168.13 1257.48 1159.06 54.78 5.00
   06:30:52.400.01-Jul-2020 228.40 2168.14 1257.48 1159.06 54.78 5.00
   06:30:52.600.01-Jul-2020 228.60 2168.15 1257.48 1159.06 54.78 5.00
   06:30:52.800.01-Jul-2020 228.80 2168.15 1257.48 1159.06 54.78 5.00
   06:30:53.000.01-Jul-2020 229.00 2168.12 1257.48 1159.06 54.78 5.00
   06:30:53.200.01-Jul-2020 229.20 2168.12 1257.48 1159.06 54.78 5.00
   06:30:53.400.01-Jul-2020 229.40 2168.16 1257.48 1159.06 54.78 5.00
   06:30:53.600.01-Jul-2020 229.60 2168.14 1257.48 1159.06 54.78 5.00
   06:30:53.800.01-Jul-2020 229.80 2168.15 1257.48 1159.06 54.78 5.00
