~Version Information
 VERS.                  2.0:   CWLS log ASCII Standard -VERSION 2.0
 WRAP.                   NO:   One line per depth step
~Well Information Block
#MNEM.UNIT     VALUE/NAME     DESCRIPTION
#---------     -----------    ---------------------------
 STRT.S             23:54:17 02-Jul-20: START TIME 23:54:17 02-Jul-20
 STOP.S             00:03:12 03-Jul-20: STOP TIME  00:03:12 03-Jul-20
 STEP.S                   0.00: STEP TIME
 NULL.                 -999.25: NULL VALUE
 DFWT.                        :  DIST FWL TEXT
 DFST.                        :  DIST FSL TEXT
 DMF .             Drill Floor:  DRILL MEAS FROM
 STIM.      09.59.28 01-Jun-20:  START TIME
 DATE.      09.59.28 01-Jun-20:  END TIME
 SPUD.               01-Jun-20:  SPUD DATE
 NREF.                    Grid:  NORTH REFERENCE
 HPTY.       Minimum Curvature:  HOLE POS TYPE
 DMOD.             Drill Model:  DRILL MOD DESC
 SVYD.                  Survey:  SURVEY DESC
 ILTD.               Lithology:  INTERP LTH DESC
 FTOP.          Formation Tops:  FORM TOPS DESC
 SON .        AZ-XX-0905455768:  JOB NUMBER
 WTYP.                Deviated:  WELL TYPE
 COMP.     BP Exploration(Caspian Sea):  COMPANY
 BASE.              Azerbaijan:  LOGGING EQUIPMENT BASE LOCATION
 REGN.                   EESSA:  REGION
 CTRY.              Azerbaijan:  COUNTRY NAME
 FLD .                     ACG:  FIELD NAME
 SRVC.          Turan Drilling:  CONTRACTOR
 WELL.                     B41:  WELL NAME
 RIG .           Central Azeri:  RIG NAME
 DCON.         Sperry Drilling:  DIRECTNL CONTR
 PDAT.          Mean Sea Level:  PERMANENT DATUM
 MDS .        Operator Entered:  MAG DATA SOURCE
 API .                        :  API NUMBER
 CNTY.                        :  COUNTY
 PROV.                        :  PROVINCE
 STAT.                        :  STATE
 UWI .                        :  UNIQUE WELL IDENTIFIER
 LOC .                        :  LOCATION
 LMF .             Drill Floor:  LOG MEASURED FROM
 TVDS.m                  43.29:  TVDSS CORRECTN
 LATI.deg                40.03:  LATITUDE
 LONG.deg                51.35:  LONGITUDE
 WHNS.m                  12.98:  WELL HEAD N/S
 WHEW.m                  -6.62:  WELL HEAD E/W
 UTMX.m              530128.28:  UTM X
 UTMY.m             4433192.49:  UTM Y
 DFWL.m                   0.00:  DISTANCE FWL
 DFSL.m                   0.00:  DISTANCE FSL
 SDEP.m                 378.00:  START DEPTH
 TDD .m                   0.00:  TOTAL DEPTH (DRILLER)
 VSDR.deg               296.18:  VERT SEC DIRECT
 GVFD.g                   1.00:  GRAVITY FIELD
 MFLD.nT              50253.00:  MAGNETIC FIELD
 MDIP.deg                59.49:  MAGNETIC DIP
 MDEC.deg                 6.44:  MAGNETIC DECL
 GRDC.deg                 0.22:  GRID CORRECTION
 AZTC.deg                 6.22:  AZM TOTAL CORR
 EPD .m                   0.00:  ELEVATION
 EGL .m                   0.00:  GROUND ELEVATION
 WDMS.m                 128.20:  WD ELEV
 APD .m                  43.29:  DEPTH ABOVE PD
 AGAP.m                  43.29:  AIR GAP
 VSEW.m                  -6.62:  VERT SEC E/W
 VSNS.m                  12.98:  VERT SEC N/S
 EKB .m                  43.29:  KB ELEVATION
 EDF .m                  43.29:  DF ELEVATION
 TDL .m                1152.00:  TOTAL DEPTH (LOGGER)
 VSC .                       0:  VS TO CLOSURE
 MAGU.                 1848525:  MAGUTM CHECKSUM
~Parameter Information Block
#MNEM.UNIT       Value        Description
#---------     -----------    ---------------------------
 AV  .mps                 0.40:  Ann Velocity 
 AVMX.mps                 1.56:  Max Ann Veloc 
 AZIF.deg               300.46:  Azm, Final 
 BHAT.        Rotary Steerable:  BHA Type 
 BROT.°/30m               0.40:  Build Rotating 
 BS  .in                 17.50:  Bit Size 
 BSZ .in                 17.50:  Bit Size 
 BTPL.psig              300.00:  Bit Press Loss 
 CABU.                      No:  Customer Abuse 
 CGEO.          Parviz Guliyev:  Customer Geo 
 COMM.                     ägu:  Run Comments 1 
 TCS .hr                108.13:  Time Ciculation Ended 
 CV  .mps                 0.50:  Crit Velocity 
 CVMX.mps                 2.01:  Max Crit Veloc 
 DD1 .          Fariz Nahmatov:  Direct Drillr 1 
 DD2 .             Ehab Radwan:  Direct Drillr 2 
 DDSV.               Geo-Pilot:  DD Service 
 DEFF.%                  99.00:  % Det Eff 
 DLRX.°/30m               0.50:  Dogleg Rot Max 
 DLSO.°/30m               2.80:  Dogleg Oriented 
 DLSX.°/30m               3.90:  Dogleg Str Max 
 DRET.      09.30.04 03-Jul-20:  Drill End Time 
 DRST.      18.33.04 28-Jun-20:  Drill Start Tim 
 DTIM.hr                 55.83:  Time Drilling 
 EDEP.m                1952.00:  End Depth 
 ENG1.      Bakhtiyar Jabbarli:  Engineer 1 
 ENG2.         Farhad Orujzade:  Engineer 2 
 ENG3.          Rustam Safarov:  Engineer 3 
 ETIM.      01.33.04 04-Jul-20:  End Time 
 FLOI.gpm              1050.00:  Flow In 
 FLON.gpm               950.00:  Flow In Min 
 FLOS.cptm                0.10:  Fluid Loss 
 FLOX.gpm              1150.00:  Flow In Max 
 HFLO.                      No:  High Flow 
 HPRE.                      No:  High Pressure 
 HTEM.                      No:  High Temp 
 HYDO.m                   1.80:  Hydro Offset 
 IFIN.deg                75.26:  Inc, Final 
 IMAX.deg                75.38:  Inc Max 
 IMIN.deg                22.84:  Inc Min 
 IMND.m                 832.38:  Inc Min Depth 
 IMXD.m                1936.55:  Inc Max Depth 
 JARR.                      No:  Jarring 
 LETM.      17.40.00 04-Jul-20:  Log End Time 
 LOST.hr                     0:  Lost Rig Time 
 LSTM.      12.33.04 28-Jun-20:  Log Start Time 
 MDCL.ppm             49500.00:  Mud Chlorides 
 MDES.     Inversion Oil/Synthetic:  Mud Desc 
 DFD .sg                  1.46:  Mud Density 
 MDMN.sg                  1.46:  Dens Mud Min 
 MDMX.sg                  1.46:  Dens Mud Max 
 MOIL.                      70:  Run Mud Oil % 
 MOWR.                   70:30:  Run Mud OWR 
 MSND.                     0.5:  Run Mud Sand % 
 MSOL.                   19.89:  Run Mud Solids% 
 DFV .spqt               72.00:  Mud Viscosity 
 MWOD.in                  9.50:  MWD Tool OD 
 MWSI.                      No:  Serv Intrp, MWD 
 OTIM.hr                146.53:  Time Operating 
 PCON.           Look Like New:  Pad Condition 
 PMAX.psia             2900.00:  Press Op, Max 
 PV  .cP                 38.00:  Mud PV 
 RUN .                     600:  Run Number 
 ROPA.m/hr               22.00:  ROP Avg 
 ROPN.m/hr               10.00:  ROP Min 
 ROPX.m/hr              263.00:  ROP Max 
 RPMA.rpm               155.00:  RPM Surface Avg 
 RPMN.rpm               140.00:  RPM Surface Min 
 RPMX.rpm               160.00:  RPM Surface Max 
 RRUN.                    0600:  Rig Run Number 
 RTIM.hr                  5.00:  Time Reaming 
 SAZI.deg               300.08:  Azm, Start 
 SDEP.m                 800.00:  Start Depth 
 SIDD.                      No:  Serv Intrp, DD 
 SINC.deg                22.84:  Inc, Start 
 SPPA.psig             3000.00:  SPP Avg 
 SPPN.psig             1900.00:  SPP Min 
 SPPX.psig             3200.00:  SPP Max 
 STIM.      12.30.04 28-Jun-20:  Start Time 
 SVCS.                 DD, MWD:  Services 
 SVER.                    9.20:  Sperry Version 
 TDAT.m                1952.00:  Tot Depth Attmp 
 TDDF.                      No:  Trip for DD 
 TDLG.m                1152.00:  Tot Depth Loggd 
 TFF .                      No:  Trip for Fail 
 TQAA.f-kp                8.00:  Torque Abs Avg 
 TQAN.f-kp                5.00:  Torque Abs Min 
 TQAX.f-kp               14.00:  Torque Abs Max 
 TRRT.°/30m               0.50:  Turn Rotating 
 MRT .                  EWR-M5:  Maximum Recorded Temperature 
 TTMX.degC               69.00:  Max Tool Temp 
 VS01.                90610313:  Virtual Str1 SN 
 VS02.                90613431:  Virtual Str2 SN 
 VS03.                90615410:  Virtual Str3 SN 
 WBMN.klb                 6.00:  WOB Min 
 WITN.            Bruce Cheyne:  Customer Rep 
 WITN.             Ayaz Aliyev:  Customer Rep 2 
 WOBA.klb                 6.00:  WOB Avg 
 WOBX.klb                10.00:  WOB Max 
 YP  .lhf2               36.00:  Yield Point 
~Curve Information Block
#MNEM.UNIT                 API CODE     Curve Description
#---------               -----------    ---------------------------
 TIME.HHMMSS            00 000 000 000:  GT Time & Date
 GTET.sec               00 000 000 000:  GT Elapsed Test Time
 GTPQH.psia             00 000 000 000:  GT HR Quartz Pressure
 GTDEPTH.m              00 000 000 000:  GT Depth
 GTTVD.m                00 000 000 000:  GT True Vertical Depth
 GTTQ.degC              00 000 000 000:  GT Quartz Temperature
 GTTN.NONE              00 000 000 000:  GT Test Number
#Other Information
#
#WARRANTY: Halliburton will use its best efforts to furnish customers with 
#accurate information and interpretations that are part of, and incident to, the services 
#provided.  However, Halliburton cannot and does not warrant the accuracy 
#or correctness of such information and interpretations.  Under no circumstances should any 
#such information or interpretation be relied upon as the sole basis for any drilling, 
#completion, production, or financial decision or any procedure involving any risk to the 
#safety of any drilling venture, drilling rig or its crew or any other third party.  The 
#Customer has full responsibility for all drilling, completion and production operation.  
#Halliburton makes no representations or warranties, either expressed or 
#implied, including, but not limited to, the implied warranties of merchantability or fitness 
#for a particular purpose, with respect to the services rendered.  In no event will 
#Halliburton be liable for failure to obtain any particular results or for 
#any damages, including, but not limited to, indirect, special or consequential damages, 
#resulting from the use of any information or interpretation provided by Halliburton.
#
~A           TIME            GTET   GTPQH  GTDEPTH  GTTVD  GTTQ  GTTN 
# ...
   00:02:43.658.03-Jul-2020 506.07 2839.47 1828.92 1344.71 59.06 7.00
   00:02:43.858.03-Jul-2020 506.27 2839.47 1828.92 1344.71 59.06 7.00
   00:02:44.058.03-Jul-2020 506.47 2838.94 1828.92 1344.71 59.06 7.00
   00:02:44.258.03-Jul-2020 506.67 2839.21 1828.92 1344.71 59.06 7.00
   00:02:44.458.03-Jul-2020 506.87 2839.38 1828.92 1344.71 59.06 7.00
   00:02:44.658.03-Jul-2020 507.07 2839.58 1828.92 1344.71 59.06 7.00
   00:02:44.858.03-Jul-2020 507.27 2839.58 1828.92 1344.71 59.06 7.00
   00:02:45.058.03-Jul-2020 507.47 2838.89 1828.92 1344.71 59.06 7.00
   00:02:45.258.03-Jul-2020 507.67 2838.69 1828.92 1344.71 59.06 7.00
   00:02:45.458.03-Jul-2020 507.87 2839.76 1828.92 1344.71 59.06 7.00
   00:02:45.658.03-Jul-2020 508.07 2839.92 1828.92 1344.71 59.06 7.00
   00:02:45.858.03-Jul-2020 508.27 2839.92 1828.92 1344.71 59.06 7.00
   00:02:46.058.03-Jul-2020 508.47 2839.61 1828.92 1344.71 59.06 7.00
   00:02:46.258.03-Jul-2020 508.67 2838.08 1828.92 1344.71 59.06 7.00
   00:02:46.458.03-Jul-2020 508.87 2839.06 1828.92 1344.71 59.06 7.00
   00:02:46.658.03-Jul-2020 509.07 2839.21 1828.92 1344.71 59.06 7.00
   00:02:46.858.03-Jul-2020 509.27 2839.21 1828.92 1344.71 59.06 7.00
   00:02:47.058.03-Jul-2020 509.47 2839.64 1828.92 1344.71 59.06 7.00
   00:02:47.258.03-Jul-2020 509.67 2839.42 1828.92 1344.71 59.06 7.00
   00:02:47.458.03-Jul-2020 509.87 2839.14 1828.92 1344.71 59.06 7.00
   00:02:47.658.03-Jul-2020 510.07 2839.16 1828.92 1344.71 59.06 7.00
   00:02:47.858.03-Jul-2020 510.27 2839.16 1828.92 1344.71 59.06 7.00
   00:02:48.058.03-Jul-2020 510.47 2839.43 1828.92 1344.71 59.06 7.00
   00:02:48.258.03-Jul-2020 510.67 2839.49 1828.92 1344.71 59.06 7.00
   00:02:48.458.03-Jul-2020 510.87 2839.48 1828.92 1344.71 59.06 7.00
   00:02:48.658.03-Jul-2020 511.07 2839.18 1828.92 1344.71 59.06 7.00
   00:02:48.858.03-Jul-2020 511.27 2839.39 1828.92 1344.71 59.06 7.00
   00:02:49.058.03-Jul-2020 511.47 2839.70 1828.92 1344.71 59.06 7.00
   00:02:49.258.03-Jul-2020 511.67 2839.70 1828.92 1344.71 59.06 7.00
   00:02:49.458.03-Jul-2020 511.87 2839.96 1828.92 1344.71 59.06 7.00
   00:02:49.658.03-Jul-2020 512.07 2839.74 1828.92 1344.71 59.06 7.00
   00:02:49.859.03-Jul-2020 512.27 2839.74 1828.92 1344.71 59.06 7.00
   00:02:50.059.03-Jul-2020 512.47 2838.16 1828.92 1344.71 59.06 7.00
   00:02:50.259.03-Jul-2020 512.67 2839.39 1828.92 1344.71 59.06 7.00
   00:02:50.459.03-Jul-2020 512.87 2839.63 1828.92 1344.71 59.06 7.00
   00:02:50.659.03-Jul-2020 513.07 2839.83 1828.92 1344.71 59.06 7.00
   00:02:50.859.03-Jul-2020 513.27 2839.71 1828.92 1344.71 59.06 7.00
   00:02:51.059.03-Jul-2020 513.47 2839.57 1828.92 1344.71 59.06 7.00
   00:02:51.259.03-Jul-2020 513.67 2839.64 1828.92 1344.71 59.06 7.00
   00:02:51.459.03-Jul-2020 513.87 2839.81 1828.92 1344.71 59.06 7.00
   00:02:51.659.03-Jul-2020 514.07 2839.98 1828.92 1344.71 59.06 7.00
   00:02:51.859.03-Jul-2020 514.27 2839.98 1828.92 1344.71 59.06 7.00
   00:02:52.059.03-Jul-2020 514.47 2839.87 1828.92 1344.71 59.06 7.00
   00:02:52.259.03-Jul-2020 514.67 2839.78 1828.92 1344.71 59.06 7.00
   00:02:52.459.03-Jul-2020 514.87 2838.38 1828.92 1344.71 59.06 7.00
   00:02:52.659.03-Jul-2020 515.07 2839.47 1828.92 1344.71 59.06 7.00
   00:02:52.859.03-Jul-2020 515.27 2839.61 1828.92 1344.71 59.06 7.00
   00:02:53.059.03-Jul-2020 515.47 2839.63 1828.92 1344.71 59.06 7.00
   00:02:53.259.03-Jul-2020 515.67 2838.58 1828.92 1344.71 59.06 7.00
   00:02:53.459.03-Jul-2020 515.87 2839.06 1828.92 1344.71 59.06 7.00
   00:02:53.659.03-Jul-2020 516.07 2839.38 1828.92 1344.71 59.06 7.00
   00:02:53.859.03-Jul-2020 516.27 2839.38 1828.92 1344.71 59.06 7.00
   00:02:54.059.03-Jul-2020 516.47 2839.29 1828.92 1344.71 59.06 7.00
   00:02:54.259.03-Jul-2020 516.67 2839.44 1828.92 1344.71 59.06 7.00
   00:02:54.459.03-Jul-2020 516.87 2838.19 1828.92 1344.71 59.06 7.00
   00:02:54.659.03-Jul-2020 517.07 2839.04 1828.92 1344.71 59.06 7.00
   00:02:54.859.03-Jul-2020 517.27 2839.26 1828.92 1344.71 59.06 7.00
   00:02:55.059.03-Jul-2020 517.47 2839.70 1828.92 1344.71 59.06 7.00
   00:02:55.259.03-Jul-2020 517.67 2840.05 1828.92 1344.71 59.06 7.00
   00:02:55.459.03-Jul-2020 517.87 2839.98 1828.92 1344.71 59.06 7.00
   00:02:55.659.03-Jul-2020 518.07 2838.60 1828.92 1344.71 59.06 7.00
   00:02:55.859.03-Jul-2020 518.27 2838.60 1828.92 1344.71 59.06 7.00
   00:02:56.059.03-Jul-2020 518.47 2839.33 1828.92 1344.71 59.06 7.00
   00:02:56.259.03-Jul-2020 518.67 2839.26 1828.92 1344.71 59.06 7.00
   00:02:56.459.03-Jul-2020 518.87 2839.28 1828.92 1344.71 59.06 7.00
   00:02:56.659.03-Jul-2020 519.07 2839.29 1828.92 1344.71 59.06 7.00
   00:02:56.859.03-Jul-2020 519.27 2839.29 1828.92 1344.71 59.06 7.00
   00:02:57.059.03-Jul-2020 519.47 2839.15 1828.92 1344.71 59.06 7.00
   00:02:57.260.03-Jul-2020 519.67 2839.13 1828.92 1344.71 59.06 7.00
   00:02:57.460.03-Jul-2020 519.87 2839.14 1828.92 1344.71 59.05 7.00
   00:02:57.660.03-Jul-2020 520.07 2839.63 1828.92 1344.71 59.05 7.00
   00:02:57.860.03-Jul-2020 520.27 2839.54 1828.92 1344.71 59.05 7.00
   00:02:58.060.03-Jul-2020 520.47 2839.33 1828.92 1344.71 59.05 7.00
   00:02:58.260.03-Jul-2020 520.67 2839.40 1828.92 1344.71 59.05 7.00
   00:02:58.460.03-Jul-2020 520.87 2839.57 1828.92 1344.71 59.05 7.00
   00:02:58.660.03-Jul-2020 521.07 2839.50 1828.92 1344.71 59.05 7.00
   00:02:58.860.03-Jul-2020 521.27 2839.65 1828.92 1344.71 59.05 7.00
   00:02:59.060.03-Jul-2020 521.47 2839.45 1828.92 1344.71 59.05 7.00
   00:02:59.260.03-Jul-2020 521.67 2839.35 1828.92 1344.71 59.05 7.00
   00:02:59.460.03-Jul-2020 521.87 2838.38 1828.92 1344.71 59.05 7.00
   00:02:59.660.03-Jul-2020 522.07 2839.50 1828.92 1344.71 59.05 7.00
   00:02:59.860.03-Jul-2020 522.27 2839.50 1828.92 1344.71 59.05 7.00
   00:03:00.060.03-Jul-2020 522.47 2839.74 1828.92 1344.71 59.05 7.00
   00:03:00.260.03-Jul-2020 522.67 2839.57 1828.92 1344.71 59.05 7.00
   00:03:00.460.03-Jul-2020 522.87 2839.36 1828.92 1344.71 59.05 7.00
   00:03:00.660.03-Jul-2020 523.07 2839.37 1828.92 1344.71 59.05 7.00
   00:03:00.860.03-Jul-2020 523.27 2839.37 1828.92 1344.71 59.05 7.00
   00:03:01.060.03-Jul-2020 523.47 2839.69 1828.92 1344.71 59.05 7.00
   00:03:01.260.03-Jul-2020 523.67 2839.74 1828.92 1344.71 59.05 7.00
   00:03:01.460.03-Jul-2020 523.87 2839.61 1828.92 1344.71 59.05 7.00
   00:03:01.660.03-Jul-2020 524.07 2839.60 1828.92 1344.71 59.05 7.00
   00:03:01.860.03-Jul-2020 524.27 2839.60 1828.92 1344.71 59.05 7.00
   00:03:02.060.03-Jul-2020 524.47 2839.22 1828.92 1344.71 59.05 7.00
   00:03:02.260.03-Jul-2020 524.67 2839.33 1828.92 1344.71 59.05 7.00
   00:03:02.460.03-Jul-2020 524.87 2839.39 1828.92 1344.71 59.05 7.00
   00:03:02.660.03-Jul-2020 525.07 2838.42 1828.92 1344.71 59.05 7.00
   00:03:02.860.03-Jul-2020 525.27 2838.42 1828.92 1344.71 59.05 7.00
   00:03:03.060.03-Jul-2020 525.47 2839.15 1828.92 1344.71 59.05 7.00
   00:03:03.260.03-Jul-2020 525.67 2838.97 1828.92 1344.71 59.05 7.00
   00:03:03.460.03-Jul-2020 525.87 2839.08 1828.92 1344.71 59.05 7.00
   00:03:03.660.03-Jul-2020 526.07 2839.27 1828.92 1344.71 59.05 7.00
   00:03:03.860.03-Jul-2020 526.27 2839.27 1828.92 1344.71 59.05 7.00
   00:03:04.060.03-Jul-2020 526.47 2838.96 1828.92 1344.71 59.05 7.00
   00:03:04.260.03-Jul-2020 526.67 2839.23 1828.92 1344.71 59.05 7.00
   00:03:04.461.03-Jul-2020 526.87 2839.51 1828.92 1344.71 59.05 7.00
   00:03:04.661.03-Jul-2020 527.07 2839.81 1828.92 1344.71 59.05 7.00
   00:03:04.861.03-Jul-2020 527.27 2839.81 1828.92 1344.71 59.05 7.00
   00:03:05.061.03-Jul-2020 527.47 2838.96 1828.92 1344.71 59.05 7.00
   00:03:05.261.03-Jul-2020 527.67 2839.51 1828.92 1344.71 59.05 7.00
   00:03:05.461.03-Jul-2020 527.87 2839.80 1828.92 1344.71 59.05 7.00
   00:03:05.661.03-Jul-2020 528.07 2839.72 1828.92 1344.71 59.05 7.00
   00:03:05.861.03-Jul-2020 528.27 2839.72 1828.92 1344.71 59.05 7.00
   00:03:06.061.03-Jul-2020 528.47 2839.71 1828.92 1344.71 59.05 7.00
   00:03:06.261.03-Jul-2020 528.67 2839.70 1828.92 1344.71 59.05 7.00
   00:03:06.461.03-Jul-2020 528.87 2839.57 1828.92 1344.71 59.05 7.00
