~Version Information
 VERS.                  2.0:   CWLS log ASCII Standard -VERSION 2.0
 WRAP.                   NO:   One line per depth step
~Well Information Block
#MNEM.UNIT     VALUE/NAME     DESCRIPTION
#---------     -----------    ---------------------------
 STRT.S             20:59:46 30-Jun-20: START TIME 20:59:46 30-Jun-20
 STOP.S             21:08:48 30-Jun-20: STOP TIME  21:08:48 30-Jun-20
 STEP.S                   0.00: STEP TIME
 NULL.                 -999.25: NULL VALUE
 DFWT.                        :  DIST FWL TEXT
 DFST.                        :  DIST FSL TEXT
 DMF .             Drill Floor:  DRILL MEAS FROM
 STIM.      09.59.28 01-Jun-20:  START TIME
 DATE.      09.59.28 01-Jun-20:  END TIME
 SPUD.               01-Jun-20:  SPUD DATE
 NREF.                    Grid:  NORTH REFERENCE
 HPTY.       Minimum Curvature:  HOLE POS TYPE
 DMOD.             Drill Model:  DRILL MOD DESC
 SVYD.                  Survey:  SURVEY DESC
 ILTD.               Lithology:  INTERP LTH DESC
 FTOP.          Formation Tops:  FORM TOPS DESC
 SON .        AZ-XX-0905455768:  JOB NUMBER
 WTYP.                Deviated:  WELL TYPE
 COMP.     BP Exploration(Caspian Sea):  COMPANY
 BASE.              Azerbaijan:  LOGGING EQUIPMENT BASE LOCATION
 REGN.                   EESSA:  REGION
 CTRY.              Azerbaijan:  COUNTRY NAME
 FLD .                     ACG:  FIELD NAME
 SRVC.          Turan Drilling:  CONTRACTOR
 WELL.                     B41:  WELL NAME
 RIG .           Central Azeri:  RIG NAME
 DCON.         Sperry Drilling:  DIRECTNL CONTR
 PDAT.          Mean Sea Level:  PERMANENT DATUM
 MDS .        Operator Entered:  MAG DATA SOURCE
 API .                        :  API NUMBER
 CNTY.                        :  COUNTY
 PROV.                        :  PROVINCE
 STAT.                        :  STATE
 UWI .                        :  UNIQUE WELL IDENTIFIER
 LOC .                        :  LOCATION
 LMF .             Drill Floor:  LOG MEASURED FROM
 TVDS.m                  43.29:  TVDSS CORRECTN
 LATI.deg                40.03:  LATITUDE
 LONG.deg                51.35:  LONGITUDE
 WHNS.m                  12.98:  WELL HEAD N/S
 WHEW.m                  -6.62:  WELL HEAD E/W
 UTMX.m              530128.28:  UTM X
 UTMY.m             4433192.49:  UTM Y
 DFWL.m                   0.00:  DISTANCE FWL
 DFSL.m                   0.00:  DISTANCE FSL
 SDEP.m                 378.00:  START DEPTH
 TDD .m                   0.00:  TOTAL DEPTH (DRILLER)
 VSDR.deg               296.18:  VERT SEC DIRECT
 GVFD.g                   1.00:  GRAVITY FIELD
 MFLD.nT              50253.00:  MAGNETIC FIELD
 MDIP.deg                59.49:  MAGNETIC DIP
 MDEC.deg                 6.44:  MAGNETIC DECL
 GRDC.deg                 0.22:  GRID CORRECTION
 AZTC.deg                 6.22:  AZM TOTAL CORR
 EPD .m                   0.00:  ELEVATION
 EGL .m                   0.00:  GROUND ELEVATION
 WDMS.m                 128.20:  WD ELEV
 APD .m                  43.29:  DEPTH ABOVE PD
 AGAP.m                  43.29:  AIR GAP
 VSEW.m                  -6.62:  VERT SEC E/W
 VSNS.m                  12.98:  VERT SEC N/S
 EKB .m                  43.29:  KB ELEVATION
 EDF .m                  43.29:  DF ELEVATION
 TDL .m                1152.00:  TOTAL DEPTH (LOGGER)
 VSC .                       0:  VS TO CLOSURE
 MAGU.                 1848525:  MAGUTM CHECKSUM
~Parameter Information Block
#MNEM.UNIT       Value        Description
#---------     -----------    ---------------------------
 AV  .mps                 0.40:  Ann Velocity 
 AVMX.mps                 1.56:  Max Ann Veloc 
 AZIF.deg               300.46:  Azm, Final 
 BHAT.        Rotary Steerable:  BHA Type 
 BROT.°/30m               0.40:  Build Rotating 
 BS  .in                 17.50:  Bit Size 
 BSZ .in                 17.50:  Bit Size 
 BTPL.psig              300.00:  Bit Press Loss 
 CABU.                      No:  Customer Abuse 
 CGEO.          Parviz Guliyev:  Customer Geo 
 COMM.                     ÜRt:  Run Comments 1 
 TCS .hr                108.13:  Time Ciculation Ended 
 CV  .mps                 0.50:  Crit Velocity 
 CVMX.mps                 2.01:  Max Crit Veloc 
 DD1 .          Fariz Nahmatov:  Direct Drillr 1 
 DD2 .             Ehab Radwan:  Direct Drillr 2 
 DDSV.               Geo-Pilot:  DD Service 
 DEFF.%                  99.00:  % Det Eff 
 DLRX.°/30m               0.50:  Dogleg Rot Max 
 DLSO.°/30m               2.80:  Dogleg Oriented 
 DLSX.°/30m               3.90:  Dogleg Str Max 
 DRET.      09.30.04 03-Jul-20:  Drill End Time 
 DRST.      18.33.04 28-Jun-20:  Drill Start Tim 
 DTIM.hr                 55.83:  Time Drilling 
 EDEP.m                1952.00:  End Depth 
 ENG1.      Bakhtiyar Jabbarli:  Engineer 1 
 ENG2.         Farhad Orujzade:  Engineer 2 
 ENG3.          Rustam Safarov:  Engineer 3 
 ETIM.      01.33.04 04-Jul-20:  End Time 
 FLOI.gpm              1050.00:  Flow In 
 FLON.gpm               950.00:  Flow In Min 
 FLOS.cptm                0.10:  Fluid Loss 
 FLOX.gpm              1150.00:  Flow In Max 
 HFLO.                      No:  High Flow 
 HPRE.                      No:  High Pressure 
 HTEM.                      No:  High Temp 
 HYDO.m                   1.80:  Hydro Offset 
 IFIN.deg                75.26:  Inc, Final 
 IMAX.deg                75.38:  Inc Max 
 IMIN.deg                22.84:  Inc Min 
 IMND.m                 832.38:  Inc Min Depth 
 IMXD.m                1936.55:  Inc Max Depth 
 JARR.                      No:  Jarring 
 LETM.      17.40.00 04-Jul-20:  Log End Time 
 LOST.hr                     0:  Lost Rig Time 
 LSTM.      12.33.04 28-Jun-20:  Log Start Time 
 MDCL.ppm             49500.00:  Mud Chlorides 
 MDES.     Inversion Oil/Synthetic:  Mud Desc 
 DFD .sg                  1.46:  Mud Density 
 MDMN.sg                  1.46:  Dens Mud Min 
 MDMX.sg                  1.46:  Dens Mud Max 
 MOIL.                      70:  Run Mud Oil % 
 MOWR.                   70:30:  Run Mud OWR 
 MSND.                     0.5:  Run Mud Sand % 
 MSOL.                   19.89:  Run Mud Solids% 
 DFV .spqt               72.00:  Mud Viscosity 
 MWOD.in                  9.50:  MWD Tool OD 
 MWSI.                      No:  Serv Intrp, MWD 
 OTIM.hr                146.53:  Time Operating 
 PCON.           Look Like New:  Pad Condition 
 PMAX.psia             2900.00:  Press Op, Max 
 PV  .cP                 38.00:  Mud PV 
 RUN .                     600:  Run Number 
 ROPA.m/hr               22.00:  ROP Avg 
 ROPN.m/hr               10.00:  ROP Min 
 ROPX.m/hr              263.00:  ROP Max 
 RPMA.rpm               155.00:  RPM Surface Avg 
 RPMN.rpm               140.00:  RPM Surface Min 
 RPMX.rpm               160.00:  RPM Surface Max 
 RRUN.                    0600:  Rig Run Number 
 RTIM.hr                  5.00:  Time Reaming 
 SAZI.deg               300.08:  Azm, Start 
 SDEP.m                 800.00:  Start Depth 
 SIDD.                      No:  Serv Intrp, DD 
 SINC.deg                22.84:  Inc, Start 
 SPPA.psig             3000.00:  SPP Avg 
 SPPN.psig             1900.00:  SPP Min 
 SPPX.psig             3200.00:  SPP Max 
 STIM.      12.30.04 28-Jun-20:  Start Time 
 SVCS.                 DD, MWD:  Services 
 SVER.                    9.20:  Sperry Version 
 TDAT.m                1952.00:  Tot Depth Attmp 
 TDDF.                      No:  Trip for DD 
 TDLG.m                1152.00:  Tot Depth Loggd 
 TFF .                      No:  Trip for Fail 
 TQAA.f-kp                8.00:  Torque Abs Avg 
 TQAN.f-kp                5.00:  Torque Abs Min 
 TQAX.f-kp               14.00:  Torque Abs Max 
 TRRT.°/30m               0.50:  Turn Rotating 
 MRT .                  EWR-M5:  Maximum Recorded Temperature 
 TTMX.degC               69.00:  Max Tool Temp 
 VS01.                90610313:  Virtual Str1 SN 
 VS02.                90613431:  Virtual Str2 SN 
 VS03.                90615410:  Virtual Str3 SN 
 WBMN.klb                 6.00:  WOB Min 
 WITN.            Bruce Cheyne:  Customer Rep 
 WITN.             Ayaz Aliyev:  Customer Rep 2 
 WOBA.klb                 6.00:  WOB Avg 
 WOBX.klb                10.00:  WOB Max 
 YP  .lhf2               36.00:  Yield Point 
~Curve Information Block
#MNEM.UNIT                 API CODE     Curve Description
#---------               -----------    ---------------------------
 TIME.HHMMSS            00 000 000 000:  GT Time & Date
 GTET.sec               00 000 000 000:  GT Elapsed Test Time
 GTPQH.psia             00 000 000 000:  GT HR Quartz Pressure
 GTDEPTH.m              00 000 000 000:  GT Depth
 GTTVD.m                00 000 000 000:  GT True Vertical Depth
 GTTQ.degC              00 000 000 000:  GT Quartz Temperature
 GTTN.NONE              00 000 000 000:  GT Test Number
#Other Information
#
#WARRANTY: Halliburton will use its best efforts to furnish customers with 
#accurate information and interpretations that are part of, and incident to, the services 
#provided.  However, Halliburton cannot and does not warrant the accuracy 
#or correctness of such information and interpretations.  Under no circumstances should any 
#such information or interpretation be relied upon as the sole basis for any drilling, 
#completion, production, or financial decision or any procedure involving any risk to the 
#safety of any drilling venture, drilling rig or its crew or any other third party.  The 
#Customer has full responsibility for all drilling, completion and production operation.  
#Halliburton makes no representations or warranties, either expressed or 
#implied, including, but not limited to, the implied warranties of merchantability or fitness 
#for a particular purpose, with respect to the services rendered.  In no event will 
#Halliburton be liable for failure to obtain any particular results or for 
#any damages, including, but not limited to, indirect, special or consequential damages, 
#resulting from the use of any information or interpretation provided by Halliburton.
#
~A           TIME            GTET   GTPQH  GTDEPTH  GTTVD  GTTQ  GTTN 
# ...
   21:00:32.773.30-Jun-2020  46.01 2289.98 1143.02 1083.79 62.87 3.00
   21:00:32.973.30-Jun-2020  46.21 2289.98 1143.02 1083.79 62.87 3.00
   21:00:33.173.30-Jun-2020  46.41 2290.02 1143.02 1083.79 62.87 3.00
   21:00:33.373.30-Jun-2020  46.61 2290.08 1143.02 1083.79 62.87 3.00
   21:00:33.573.30-Jun-2020  46.81 2290.59 1143.02 1083.79 62.87 3.00
   21:00:33.773.30-Jun-2020  47.01 2291.09 1143.02 1083.79 62.87 3.00
   21:00:33.973.30-Jun-2020  47.21 2291.09 1143.02 1083.79 62.87 3.00
   21:00:34.173.30-Jun-2020  47.41 2290.42 1143.02 1083.79 62.87 3.00
   21:00:34.373.30-Jun-2020  47.61 2290.46 1143.02 1083.79 62.87 3.00
   21:00:34.573.30-Jun-2020  47.81 2290.48 1143.02 1083.79 62.87 3.00
   21:00:34.773.30-Jun-2020  48.01 2289.30 1143.02 1083.79 62.87 3.00
   21:00:34.973.30-Jun-2020  48.21 2289.30 1143.02 1083.79 62.87 3.00
   21:00:35.173.30-Jun-2020  48.41 2291.32 1143.02 1083.79 62.86 3.00
   21:00:35.374.30-Jun-2020  48.61 2290.63 1143.02 1083.79 62.86 3.00
   21:00:35.574.30-Jun-2020  48.81 2290.84 1143.02 1083.79 62.86 3.00
   21:00:35.774.30-Jun-2020  49.01 2289.81 1143.02 1083.79 62.86 3.00
   21:00:35.974.30-Jun-2020  49.21 2290.46 1143.02 1083.79 62.86 3.00
   21:00:36.174.30-Jun-2020  49.41 2291.04 1143.02 1083.79 62.86 3.00
   21:00:36.374.30-Jun-2020  49.61 2290.71 1143.02 1083.79 62.86 3.00
   21:00:36.574.30-Jun-2020  49.81 2290.49 1143.02 1083.79 62.86 3.00
   21:00:36.774.30-Jun-2020  50.01 2289.24 1143.02 1083.79 62.86 3.00
   21:00:36.974.30-Jun-2020  50.21 2289.24 1143.02 1083.79 62.86 3.00
   21:00:37.174.30-Jun-2020  50.41 2290.58 1143.02 1083.79 62.86 3.00
   21:00:37.374.30-Jun-2020  50.61 2290.59 1143.02 1083.79 62.86 3.00
   21:00:37.574.30-Jun-2020  50.81 2290.05 1143.02 1083.79 62.86 3.00
   21:00:37.774.30-Jun-2020  51.01 2291.15 1143.02 1083.79 62.86 3.00
   21:00:37.974.30-Jun-2020  51.21 2291.15 1143.02 1083.79 62.86 3.00
   21:00:38.174.30-Jun-2020  51.41 2289.53 1143.02 1083.79 62.86 3.00
   21:00:38.374.30-Jun-2020  51.61 2289.39 1143.02 1083.79 62.86 3.00
   21:00:38.574.30-Jun-2020  51.81 2291.25 1143.02 1083.79 62.86 3.00
   21:00:38.774.30-Jun-2020  52.01 2290.81 1143.02 1083.79 62.86 3.00
   21:00:38.974.30-Jun-2020  52.21 2290.81 1143.02 1083.79 62.86 3.00
   21:00:39.174.30-Jun-2020  52.41 2290.53 1143.02 1083.79 62.86 3.00
   21:00:39.374.30-Jun-2020  52.61 2290.10 1143.02 1083.79 62.86 3.00
   21:00:39.574.30-Jun-2020  52.81 2290.60 1143.02 1083.79 62.86 3.00
   21:00:39.774.30-Jun-2020  53.01 2291.07 1143.02 1083.79 62.86 3.00
   21:00:39.974.30-Jun-2020  53.21 2290.77 1143.02 1083.79 62.86 3.00
   21:00:40.174.30-Jun-2020  53.41 2290.83 1143.02 1083.79 62.86 3.00
   21:00:40.374.30-Jun-2020  53.61 2291.23 1143.02 1083.79 62.86 3.00
   21:00:40.574.30-Jun-2020  53.81 2290.89 1143.02 1083.79 62.85 3.00
   21:00:40.774.30-Jun-2020  54.01 2290.10 1143.02 1083.79 62.85 3.00
   21:00:40.975.30-Jun-2020  54.21 2290.10 1143.02 1083.79 62.85 3.00
   21:00:41.175.30-Jun-2020  54.41 2291.88 1143.02 1083.79 62.85 3.00
   21:00:41.375.30-Jun-2020  54.61 2291.27 1143.02 1083.79 62.85 3.00
   21:00:41.575.30-Jun-2020  54.81 2290.96 1143.02 1083.79 62.85 3.00
   21:00:41.775.30-Jun-2020  55.01 2290.90 1143.02 1083.79 62.85 3.00
   21:00:41.975.30-Jun-2020  55.21 2290.90 1143.02 1083.79 62.85 3.00
   21:00:42.175.30-Jun-2020  55.41 2291.33 1143.02 1083.79 62.85 3.00
   21:00:42.375.30-Jun-2020  55.61 2291.34 1143.02 1083.79 62.85 3.00
   21:00:42.575.30-Jun-2020  55.81 2291.21 1143.02 1083.79 62.85 3.00
   21:00:42.775.30-Jun-2020  56.01 2290.90 1143.02 1083.79 62.85 3.00
   21:00:42.975.30-Jun-2020  56.21 2290.90 1143.02 1083.79 62.85 3.00
   21:00:43.175.30-Jun-2020  56.41 2289.39 1143.02 1083.79 62.85 3.00
   21:00:43.375.30-Jun-2020  56.61 2290.73 1143.02 1083.79 62.85 3.00
   21:00:43.575.30-Jun-2020  56.81 2291.08 1143.02 1083.79 62.85 3.00
   21:00:43.775.30-Jun-2020  57.01 2290.50 1143.02 1083.79 62.85 3.00
   21:00:43.975.30-Jun-2020  57.21 2290.49 1143.02 1083.79 62.85 3.00
   21:00:44.175.30-Jun-2020  57.41 2290.38 1143.02 1083.79 62.85 3.00
   21:00:44.375.30-Jun-2020  57.61 2289.69 1143.02 1083.79 62.85 3.00
   21:00:44.575.30-Jun-2020  57.81 2290.14 1143.02 1083.79 62.85 3.00
   21:00:44.775.30-Jun-2020  58.01 2290.27 1143.02 1083.79 62.85 3.00
   21:00:44.975.30-Jun-2020  58.21 2290.27 1143.02 1083.79 62.85 3.00
   21:00:45.175.30-Jun-2020  58.41 2289.91 1143.02 1083.79 62.85 3.00
   21:00:45.375.30-Jun-2020  58.61 2289.68 1143.02 1083.79 62.85 3.00
   21:00:45.575.30-Jun-2020  58.81 2288.20 1143.02 1083.79 62.85 3.00
   21:00:45.775.30-Jun-2020  59.01 2290.26 1143.02 1083.79 62.85 3.00
   21:00:45.975.30-Jun-2020  59.21 2290.26 1143.02 1083.79 62.85 3.00
   21:00:46.175.30-Jun-2020  59.41 2290.06 1143.02 1083.79 62.85 3.00
   21:00:46.375.30-Jun-2020  59.61 2290.07 1143.02 1083.79 62.84 3.00
   21:00:46.576.30-Jun-2020  59.81 2290.18 1143.02 1083.79 62.84 3.00
   21:00:46.776.30-Jun-2020  60.01 2289.36 1143.02 1083.79 62.84 3.00
   21:00:46.976.30-Jun-2020  60.21 2289.36 1143.02 1083.79 62.84 3.00
   21:00:47.176.30-Jun-2020  60.41 2290.48 1143.02 1083.79 62.84 3.00
   21:00:47.376.30-Jun-2020  60.61 2290.80 1143.02 1083.79 62.84 3.00
   21:00:47.576.30-Jun-2020  60.81 2290.25 1143.02 1083.79 62.84 3.00
   21:00:47.776.30-Jun-2020  61.01 2290.42 1143.02 1083.79 62.84 3.00
   21:00:47.976.30-Jun-2020  61.21 2290.57 1143.02 1083.79 62.84 3.00
   21:00:48.176.30-Jun-2020  61.41 2290.54 1143.02 1083.79 62.84 3.00
   21:00:48.376.30-Jun-2020  61.61 2289.89 1143.02 1083.79 62.84 3.00
   21:00:48.576.30-Jun-2020  61.81 2291.08 1143.02 1083.79 62.84 3.00
   21:00:48.776.30-Jun-2020  62.01 2290.96 1143.02 1083.79 62.84 3.00
   21:00:48.976.30-Jun-2020  62.21 2290.96 1143.02 1083.79 62.84 3.00
   21:00:49.176.30-Jun-2020  62.41 2290.61 1143.02 1083.79 62.84 3.00
   21:00:49.376.30-Jun-2020  62.61 2289.74 1143.02 1083.79 62.84 3.00
   21:00:49.576.30-Jun-2020  62.81 2290.44 1143.02 1083.79 62.84 3.00
   21:00:49.776.30-Jun-2020  63.01 2291.92 1143.02 1083.79 62.84 3.00
   21:00:49.976.30-Jun-2020  63.21 2291.85 1143.02 1083.79 62.84 3.00
   21:00:50.176.30-Jun-2020  63.41 2290.91 1143.02 1083.79 62.84 3.00
   21:00:50.376.30-Jun-2020  63.61 2290.90 1143.02 1083.79 62.84 3.00
   21:00:50.576.30-Jun-2020  63.81 2290.84 1143.02 1083.79 62.84 3.00
   21:00:50.776.30-Jun-2020  64.01 2290.10 1143.02 1083.79 62.84 3.00
   21:00:50.976.30-Jun-2020  64.21 2290.10 1143.02 1083.79 62.84 3.00
   21:00:51.176.30-Jun-2020  64.41 2291.62 1143.02 1083.79 62.84 3.00
   21:00:51.376.30-Jun-2020  64.61 2291.09 1143.02 1083.79 62.84 3.00
   21:00:51.576.30-Jun-2020  64.81 2290.77 1143.02 1083.79 62.84 3.00
   21:00:51.776.30-Jun-2020  65.01 2290.62 1143.02 1083.79 62.84 3.00
   21:00:51.976.30-Jun-2020  65.21 2290.91 1143.02 1083.79 62.84 3.00
   21:00:52.177.30-Jun-2020  65.41 2291.12 1143.02 1083.79 62.83 3.00
   21:00:52.377.30-Jun-2020  65.61 2290.99 1143.02 1083.79 62.83 3.00
   21:00:52.577.30-Jun-2020  65.81 2290.61 1143.02 1083.79 62.83 3.00
   21:00:52.777.30-Jun-2020  66.01 2290.05 1143.02 1083.79 62.83 3.00
   21:00:52.977.30-Jun-2020  66.21 2290.05 1143.02 1083.79 62.83 3.00
   21:00:53.177.30-Jun-2020  66.41 2289.05 1143.02 1083.79 62.83 3.00
   21:00:53.377.30-Jun-2020  66.61 2290.50 1143.02 1083.79 62.83 3.00
   21:00:53.577.30-Jun-2020  66.81 2290.81 1143.02 1083.79 62.83 3.00
   21:00:53.777.30-Jun-2020  67.01 2290.19 1143.02 1083.79 62.83 3.00
   21:00:53.977.30-Jun-2020  67.21 2290.18 1143.02 1083.79 62.83 3.00
   21:00:54.177.30-Jun-2020  67.41 2289.99 1143.02 1083.79 62.83 3.00
   21:00:54.377.30-Jun-2020  67.61 2289.26 1143.02 1083.79 62.83 3.00
   21:00:54.577.30-Jun-2020  67.81 2289.83 1143.02 1083.79 62.83 3.00
   21:00:54.777.30-Jun-2020  68.01 2290.00 1143.02 1083.79 62.83 3.00
   21:00:54.977.30-Jun-2020  68.21 2290.00 1143.02 1083.79 62.83 3.00
   21:00:55.177.30-Jun-2020  68.41 2289.81 1143.02 1083.79 62.83 3.00
   21:00:55.377.30-Jun-2020  68.61 2289.70 1143.02 1083.79 62.83 3.00
   21:00:55.577.30-Jun-2020  68.81 2288.47 1143.02 1083.79 62.83 3.00
