~Version Information
 VERS.                  2.0:   CWLS log ASCII Standard -VERSION 2.0
 WRAP.                   NO:   One line per depth step
~Well Information Block
#MNEM.UNIT     VALUE/NAME     DESCRIPTION
#---------     -----------    ---------------------------
 STRT.S             23:30:34 30-Jun-20: START TIME 23:30:34 30-Jun-20
 STOP.S             23:39:34 30-Jun-20: STOP TIME  23:39:34 30-Jun-20
 STEP.S                   0.00: STEP TIME
 NULL.                 -999.25: NULL VALUE
 DFWT.                        :  DIST FWL TEXT
 DFST.                        :  DIST FSL TEXT
 DMF .             Drill Floor:  DRILL MEAS FROM
 STIM.      09.59.28 01-Jun-20:  START TIME
 DATE.      09.59.28 01-Jun-20:  END TIME
 SPUD.               01-Jun-20:  SPUD DATE
 NREF.                    Grid:  NORTH REFERENCE
 HPTY.       Minimum Curvature:  HOLE POS TYPE
 DMOD.             Drill Model:  DRILL MOD DESC
 SVYD.                  Survey:  SURVEY DESC
 ILTD.               Lithology:  INTERP LTH DESC
 FTOP.          Formation Tops:  FORM TOPS DESC
 SON .        AZ-XX-0905455768:  JOB NUMBER
 WTYP.                Deviated:  WELL TYPE
 COMP.     BP Exploration(Caspian Sea):  COMPANY
 BASE.              Azerbaijan:  LOGGING EQUIPMENT BASE LOCATION
 REGN.                   EESSA:  REGION
 CTRY.              Azerbaijan:  COUNTRY NAME
 FLD .                     ACG:  FIELD NAME
 SRVC.          Turan Drilling:  CONTRACTOR
 WELL.                     B41:  WELL NAME
 RIG .           Central Azeri:  RIG NAME
 DCON.         Sperry Drilling:  DIRECTNL CONTR
 PDAT.          Mean Sea Level:  PERMANENT DATUM
 MDS .        Operator Entered:  MAG DATA SOURCE
 API .                        :  API NUMBER
 CNTY.                        :  COUNTY
 PROV.                        :  PROVINCE
 STAT.                        :  STATE
 UWI .                        :  UNIQUE WELL IDENTIFIER
 LOC .                        :  LOCATION
 LMF .             Drill Floor:  LOG MEASURED FROM
 TVDS.m                  43.29:  TVDSS CORRECTN
 LATI.deg                40.03:  LATITUDE
 LONG.deg                51.35:  LONGITUDE
 WHNS.m                  12.98:  WELL HEAD N/S
 WHEW.m                  -6.62:  WELL HEAD E/W
 UTMX.m              530128.28:  UTM X
 UTMY.m             4433192.49:  UTM Y
 DFWL.m                   0.00:  DISTANCE FWL
 DFSL.m                   0.00:  DISTANCE FSL
 SDEP.m                 378.00:  START DEPTH
 TDD .m                   0.00:  TOTAL DEPTH (DRILLER)
 VSDR.deg               296.18:  VERT SEC DIRECT
 GVFD.g                   1.00:  GRAVITY FIELD
 MFLD.nT              50253.00:  MAGNETIC FIELD
 MDIP.deg                59.49:  MAGNETIC DIP
 MDEC.deg                 6.44:  MAGNETIC DECL
 GRDC.deg                 0.22:  GRID CORRECTION
 AZTC.deg                 6.22:  AZM TOTAL CORR
 EPD .m                   0.00:  ELEVATION
 EGL .m                   0.00:  GROUND ELEVATION
 WDMS.m                 128.20:  WD ELEV
 APD .m                  43.29:  DEPTH ABOVE PD
 AGAP.m                  43.29:  AIR GAP
 VSEW.m                  -6.62:  VERT SEC E/W
 VSNS.m                  12.98:  VERT SEC N/S
 EKB .m                  43.29:  KB ELEVATION
 EDF .m                  43.29:  DF ELEVATION
 TDL .m                1152.00:  TOTAL DEPTH (LOGGER)
 VSC .                       0:  VS TO CLOSURE
 MAGU.                 1848525:  MAGUTM CHECKSUM
~Parameter Information Block
#MNEM.UNIT       Value        Description
#---------     -----------    ---------------------------
 AV  .mps                 0.40:  Ann Velocity 
 AVMX.mps                 1.56:  Max Ann Veloc 
 AZIF.deg               300.46:  Azm, Final 
 BHAT.        Rotary Steerable:  BHA Type 
 BROT.°/30m               0.40:  Build Rotating 
 BS  .in                 17.50:  Bit Size 
 BSZ .in                 17.50:  Bit Size 
 BTPL.psig              300.00:  Bit Press Loss 
 CABU.                      No:  Customer Abuse 
 CGEO.          Parviz Guliyev:  Customer Geo 
 COMM.                     œº_:  Run Comments 1 
 TCS .hr                108.13:  Time Ciculation Ended 
 CV  .mps                 0.50:  Crit Velocity 
 CVMX.mps                 2.01:  Max Crit Veloc 
 DD1 .          Fariz Nahmatov:  Direct Drillr 1 
 DD2 .             Ehab Radwan:  Direct Drillr 2 
 DDSV.               Geo-Pilot:  DD Service 
 DEFF.%                  99.00:  % Det Eff 
 DLRX.°/30m               0.50:  Dogleg Rot Max 
 DLSO.°/30m               2.80:  Dogleg Oriented 
 DLSX.°/30m               3.90:  Dogleg Str Max 
 DRET.      09.30.04 03-Jul-20:  Drill End Time 
 DRST.      18.33.04 28-Jun-20:  Drill Start Tim 
 DTIM.hr                 55.83:  Time Drilling 
 EDEP.m                1952.00:  End Depth 
 ENG1.      Bakhtiyar Jabbarli:  Engineer 1 
 ENG2.         Farhad Orujzade:  Engineer 2 
 ENG3.          Rustam Safarov:  Engineer 3 
 ETIM.      01.33.04 04-Jul-20:  End Time 
 FLOI.gpm              1050.00:  Flow In 
 FLON.gpm               950.00:  Flow In Min 
 FLOS.cptm                0.10:  Fluid Loss 
 FLOX.gpm              1150.00:  Flow In Max 
 HFLO.                      No:  High Flow 
 HPRE.                      No:  High Pressure 
 HTEM.                      No:  High Temp 
 HYDO.m                   1.80:  Hydro Offset 
 IFIN.deg                75.26:  Inc, Final 
 IMAX.deg                75.38:  Inc Max 
 IMIN.deg                22.84:  Inc Min 
 IMND.m                 832.38:  Inc Min Depth 
 IMXD.m                1936.55:  Inc Max Depth 
 JARR.                      No:  Jarring 
 LETM.      17.40.00 04-Jul-20:  Log End Time 
 LOST.hr                     0:  Lost Rig Time 
 LSTM.      12.33.04 28-Jun-20:  Log Start Time 
 MDCL.ppm             49500.00:  Mud Chlorides 
 MDES.     Inversion Oil/Synthetic:  Mud Desc 
 DFD .sg                  1.46:  Mud Density 
 MDMN.sg                  1.46:  Dens Mud Min 
 MDMX.sg                  1.46:  Dens Mud Max 
 MOIL.                      70:  Run Mud Oil % 
 MOWR.                   70:30:  Run Mud OWR 
 MSND.                     0.5:  Run Mud Sand % 
 MSOL.                   19.89:  Run Mud Solids% 
 DFV .spqt               72.00:  Mud Viscosity 
 MWOD.in                  9.50:  MWD Tool OD 
 MWSI.                      No:  Serv Intrp, MWD 
 OTIM.hr                146.53:  Time Operating 
 PCON.           Look Like New:  Pad Condition 
 PMAX.psia             2900.00:  Press Op, Max 
 PV  .cP                 38.00:  Mud PV 
 RUN .                     600:  Run Number 
 ROPA.m/hr               22.00:  ROP Avg 
 ROPN.m/hr               10.00:  ROP Min 
 ROPX.m/hr              263.00:  ROP Max 
 RPMA.rpm               155.00:  RPM Surface Avg 
 RPMN.rpm               140.00:  RPM Surface Min 
 RPMX.rpm               160.00:  RPM Surface Max 
 RRUN.                    0600:  Rig Run Number 
 RTIM.hr                  5.00:  Time Reaming 
 SAZI.deg               300.08:  Azm, Start 
 SDEP.m                 800.00:  Start Depth 
 SIDD.                      No:  Serv Intrp, DD 
 SINC.deg                22.84:  Inc, Start 
 SPPA.psig             3000.00:  SPP Avg 
 SPPN.psig             1900.00:  SPP Min 
 SPPX.psig             3200.00:  SPP Max 
 STIM.      12.30.04 28-Jun-20:  Start Time 
 SVCS.                 DD, MWD:  Services 
 SVER.                    9.20:  Sperry Version 
 TDAT.m                1952.00:  Tot Depth Attmp 
 TDDF.                      No:  Trip for DD 
 TDLG.m                1152.00:  Tot Depth Loggd 
 TFF .                      No:  Trip for Fail 
 TQAA.f-kp                8.00:  Torque Abs Avg 
 TQAN.f-kp                5.00:  Torque Abs Min 
 TQAX.f-kp               14.00:  Torque Abs Max 
 TRRT.°/30m               0.50:  Turn Rotating 
 MRT .                  EWR-M5:  Maximum Recorded Temperature 
 TTMX.degC               69.00:  Max Tool Temp 
 VS01.                90610313:  Virtual Str1 SN 
 VS02.                90613431:  Virtual Str2 SN 
 VS03.                90615410:  Virtual Str3 SN 
 WBMN.klb                 6.00:  WOB Min 
 WITN.            Bruce Cheyne:  Customer Rep 
 WITN.             Ayaz Aliyev:  Customer Rep 2 
 WOBA.klb                 6.00:  WOB Avg 
 WOBX.klb                10.00:  WOB Max 
 YP  .lhf2               36.00:  Yield Point 
~Curve Information Block
#MNEM.UNIT                 API CODE     Curve Description
#---------               -----------    ---------------------------
 TIME.HHMMSS            00 000 000 000:  GT Time & Date
 GTET.sec               00 000 000 000:  GT Elapsed Test Time
 GTPQH.psia             00 000 000 000:  GT HR Quartz Pressure
 GTDEPTH.m              00 000 000 000:  GT Depth
 GTTVD.m                00 000 000 000:  GT True Vertical Depth
 GTTQ.degC              00 000 000 000:  GT Quartz Temperature
 GTTN.NONE              00 000 000 000:  GT Test Number
#Other Information
#
#WARRANTY: Halliburton will use its best efforts to furnish customers with 
#accurate information and interpretations that are part of, and incident to, the services 
#provided.  However, Halliburton cannot and does not warrant the accuracy 
#or correctness of such information and interpretations.  Under no circumstances should any 
#such information or interpretation be relied upon as the sole basis for any drilling, 
#completion, production, or financial decision or any procedure involving any risk to the 
#safety of any drilling venture, drilling rig or its crew or any other third party.  The 
#Customer has full responsibility for all drilling, completion and production operation.  
#Halliburton makes no representations or warranties, either expressed or 
#implied, including, but not limited to, the implied warranties of merchantability or fitness 
#for a particular purpose, with respect to the services rendered.  In no event will 
#Halliburton be liable for failure to obtain any particular results or for 
#any damages, including, but not limited to, indirect, special or consequential damages, 
#resulting from the use of any information or interpretation provided by Halliburton.
#
~A           TIME            GTET   GTPQH  GTDEPTH  GTTVD  GTTQ  GTTN 
# ...
   23:34:24.552.30-Jun-2020 230.07 2106.77 1161.05 1096.50 59.67 4.00
   23:34:24.752.30-Jun-2020 230.27 2106.77 1161.05 1096.50 59.67 4.00
   23:34:24.952.30-Jun-2020 230.47 2106.82 1161.05 1096.50 59.67 4.00
   23:34:25.152.30-Jun-2020 230.67 2106.76 1161.05 1096.50 59.67 4.00
   23:34:25.352.30-Jun-2020 230.87 2106.80 1161.05 1096.50 59.67 4.00
   23:34:25.552.30-Jun-2020 231.07 2106.80 1161.05 1096.50 59.67 4.00
   23:34:25.752.30-Jun-2020 231.27 2106.80 1161.05 1096.50 59.67 4.00
   23:34:25.952.30-Jun-2020 231.47 2107.42 1161.05 1096.50 59.67 4.00
   23:34:26.152.30-Jun-2020 231.67 2109.38 1161.05 1096.50 59.67 4.00
   23:34:26.352.30-Jun-2020 231.87 2109.46 1161.05 1096.50 59.67 4.00
   23:34:26.553.30-Jun-2020 232.07 2109.51 1161.05 1096.50 59.67 4.00
   23:34:26.753.30-Jun-2020 232.27 2109.51 1161.05 1096.50 59.67 4.00
   23:34:26.953.30-Jun-2020 232.47 2109.56 1161.05 1096.50 59.67 4.00
   23:34:27.153.30-Jun-2020 232.67 2109.58 1161.05 1096.50 59.67 4.00
   23:34:27.353.30-Jun-2020 232.87 2109.59 1161.05 1096.50 59.67 4.00
   23:34:27.553.30-Jun-2020 233.07 2109.58 1161.05 1096.50 59.67 4.00
   23:34:27.753.30-Jun-2020 233.27 2109.58 1161.05 1096.50 59.67 4.00
   23:34:27.953.30-Jun-2020 233.47 2109.65 1161.05 1096.50 59.67 4.00
   23:34:28.153.30-Jun-2020 233.67 2109.64 1161.05 1096.50 59.67 4.00
   23:34:28.353.30-Jun-2020 233.87 2109.66 1161.05 1096.50 59.67 4.00
   23:34:28.553.30-Jun-2020 234.07 2109.66 1161.05 1096.50 59.67 4.00
   23:34:28.753.30-Jun-2020 234.27 2109.66 1161.05 1096.50 59.67 4.00
   23:34:28.953.30-Jun-2020 234.47 2109.67 1161.05 1096.50 59.67 4.00
   23:34:29.153.30-Jun-2020 234.67 2109.68 1161.05 1096.50 59.67 4.00
   23:34:29.353.30-Jun-2020 234.87 2109.69 1161.05 1096.50 59.67 4.00
   23:34:29.553.30-Jun-2020 235.07 2109.69 1161.05 1096.50 59.67 4.00
   23:34:29.753.30-Jun-2020 235.27 2109.69 1161.05 1096.50 59.67 4.00
   23:34:29.954.30-Jun-2020 235.47 2109.68 1161.05 1096.50 59.67 4.00
   23:34:30.154.30-Jun-2020 235.67 2109.72 1161.05 1096.50 59.67 4.00
   23:34:30.354.30-Jun-2020 235.87 2109.72 1161.05 1096.50 59.67 4.00
   23:34:30.554.30-Jun-2020 236.07 2109.73 1161.05 1096.50 59.67 4.00
   23:34:30.754.30-Jun-2020 236.27 2109.73 1161.05 1096.50 59.67 4.00
   23:34:30.954.30-Jun-2020 236.47 2109.73 1161.05 1096.50 59.67 4.00
   23:34:31.154.30-Jun-2020 236.67 2109.70 1161.05 1096.50 59.67 4.00
   23:34:31.354.30-Jun-2020 236.87 2109.75 1161.05 1096.50 59.67 4.00
   23:34:31.554.30-Jun-2020 237.07 2109.75 1161.05 1096.50 59.67 4.00
   23:34:31.754.30-Jun-2020 237.27 2109.75 1161.05 1096.50 59.67 4.00
   23:34:31.954.30-Jun-2020 237.47 2109.75 1161.05 1096.50 59.67 4.00
   23:34:32.154.30-Jun-2020 237.67 2109.73 1161.05 1096.50 59.67 4.00
   23:34:32.354.30-Jun-2020 237.87 2109.77 1161.05 1096.50 59.67 4.00
   23:34:32.554.30-Jun-2020 238.07 2109.77 1161.05 1096.50 59.67 4.00
   23:34:32.754.30-Jun-2020 238.27 2109.78 1161.05 1096.50 59.67 4.00
   23:34:32.954.30-Jun-2020 238.47 2109.77 1161.05 1096.50 59.67 4.00
   23:34:33.154.30-Jun-2020 238.67 2109.77 1161.05 1096.50 59.67 4.00
   23:34:33.355.30-Jun-2020 238.87 2109.78 1161.05 1096.50 59.67 4.00
   23:34:33.555.30-Jun-2020 239.07 2109.76 1161.05 1096.50 59.67 4.00
   23:34:33.755.30-Jun-2020 239.27 2109.80 1161.05 1096.50 59.67 4.00
   23:34:33.955.30-Jun-2020 239.47 2109.79 1161.05 1096.50 59.67 4.00
   23:34:34.155.30-Jun-2020 239.67 2109.78 1161.05 1096.50 59.67 4.00
   23:34:34.355.30-Jun-2020 239.87 2109.78 1161.05 1096.50 59.67 4.00
   23:34:34.555.30-Jun-2020 240.07 2109.78 1161.05 1096.50 59.67 4.00
   23:34:34.755.30-Jun-2020 240.27 2109.80 1161.05 1096.50 59.67 4.00
   23:34:34.955.30-Jun-2020 240.47 2109.79 1161.05 1096.50 59.67 4.00
   23:34:35.155.30-Jun-2020 240.67 2109.79 1161.05 1096.50 59.67 4.00
   23:34:35.355.30-Jun-2020 240.87 2109.79 1161.05 1096.50 59.67 4.00
   23:34:35.555.30-Jun-2020 241.07 2109.80 1161.05 1096.50 59.67 4.00
   23:34:35.755.30-Jun-2020 241.27 2109.80 1161.05 1096.50 59.67 4.00
   23:34:35.955.30-Jun-2020 241.47 2109.79 1161.05 1096.50 59.67 4.00
   23:34:36.155.30-Jun-2020 241.67 2109.81 1161.05 1096.50 59.67 4.00
   23:34:36.355.30-Jun-2020 241.87 2109.81 1161.05 1096.50 59.67 4.00
   23:34:36.555.30-Jun-2020 242.07 2109.81 1161.05 1096.50 59.67 4.00
   23:34:36.756.30-Jun-2020 242.27 2109.81 1161.05 1096.50 59.67 4.00
   23:34:36.956.30-Jun-2020 242.47 2109.81 1161.05 1096.50 59.67 4.00
   23:34:37.156.30-Jun-2020 242.67 2109.80 1161.05 1096.50 59.67 4.00
   23:34:37.356.30-Jun-2020 242.87 2109.78 1161.05 1096.50 59.67 4.00
   23:34:37.556.30-Jun-2020 243.07 2109.83 1161.05 1096.50 59.67 4.00
   23:34:37.756.30-Jun-2020 243.27 2109.81 1161.05 1096.50 59.67 4.00
   23:34:37.956.30-Jun-2020 243.47 2109.82 1161.05 1096.50 59.67 4.00
   23:34:38.156.30-Jun-2020 243.67 2109.81 1161.05 1096.50 59.67 4.00
   23:34:38.356.30-Jun-2020 243.87 2109.81 1161.05 1096.50 59.67 4.00
   23:34:38.556.30-Jun-2020 244.07 2109.82 1161.05 1096.50 59.67 4.00
   23:34:38.756.30-Jun-2020 244.27 2109.82 1161.05 1096.50 59.67 4.00
   23:34:38.956.30-Jun-2020 244.47 2109.83 1161.05 1096.50 59.67 4.00
   23:34:39.156.30-Jun-2020 244.67 2109.83 1161.05 1096.50 59.67 4.00
   23:34:39.356.30-Jun-2020 244.87 2109.82 1161.05 1096.50 59.67 4.00
   23:34:39.556.30-Jun-2020 245.07 2109.83 1161.05 1096.50 59.67 4.00
   23:34:39.756.30-Jun-2020 245.27 2109.83 1161.05 1096.50 59.67 4.00
   23:34:39.956.30-Jun-2020 245.47 2109.86 1161.05 1096.50 59.67 4.00
   23:34:40.156.30-Jun-2020 245.67 2109.85 1161.05 1096.50 59.67 4.00
   23:34:40.357.30-Jun-2020 245.87 2109.84 1161.05 1096.50 59.67 4.00
   23:34:40.557.30-Jun-2020 246.07 2109.83 1161.05 1096.50 59.67 4.00
   23:34:40.757.30-Jun-2020 246.27 2109.83 1161.05 1096.50 59.67 4.00
   23:34:40.957.30-Jun-2020 246.47 2109.87 1161.05 1096.50 59.67 4.00
   23:34:41.157.30-Jun-2020 246.67 2109.84 1161.05 1096.50 59.67 4.00
   23:34:41.357.30-Jun-2020 246.87 2109.84 1161.05 1096.50 59.67 4.00
   23:34:41.557.30-Jun-2020 247.07 2109.85 1161.05 1096.50 59.67 4.00
   23:34:41.757.30-Jun-2020 247.27 2109.85 1161.05 1096.50 59.67 4.00
   23:34:41.957.30-Jun-2020 247.47 2109.83 1161.05 1096.50 59.67 4.00
   23:34:42.157.30-Jun-2020 247.67 2109.86 1161.05 1096.50 59.67 4.00
   23:34:42.357.30-Jun-2020 247.87 2109.87 1161.05 1096.50 59.67 4.00
   23:34:42.557.30-Jun-2020 248.07 2109.86 1161.05 1096.50 59.67 4.00
   23:34:42.757.30-Jun-2020 248.27 2109.86 1161.05 1096.50 59.67 4.00
   23:34:42.957.30-Jun-2020 248.47 2109.87 1161.05 1096.50 59.67 4.00
   23:34:43.157.30-Jun-2020 248.67 2109.86 1161.05 1096.50 59.67 4.00
   23:34:43.357.30-Jun-2020 248.87 2109.85 1161.05 1096.50 59.67 4.00
   23:34:43.557.30-Jun-2020 249.07 2109.87 1161.05 1096.50 59.67 4.00
   23:34:43.758.30-Jun-2020 249.27 2109.87 1161.05 1096.50 59.67 4.00
   23:34:43.958.30-Jun-2020 249.47 2109.87 1161.05 1096.50 59.67 4.00
   23:34:44.158.30-Jun-2020 249.67 2109.87 1161.05 1096.50 59.67 4.00
   23:34:44.358.30-Jun-2020 249.87 2109.87 1161.05 1096.50 59.67 4.00
   23:34:44.558.30-Jun-2020 250.07 2109.87 1161.05 1096.50 59.67 4.00
   23:34:44.758.30-Jun-2020 250.27 2109.87 1161.05 1096.50 59.67 4.00
   23:34:44.958.30-Jun-2020 250.47 2109.88 1161.05 1096.50 59.67 4.00
   23:34:45.158.30-Jun-2020 250.67 2109.88 1161.05 1096.50 59.67 4.00
   23:34:45.358.30-Jun-2020 250.87 2109.87 1161.05 1096.50 59.67 4.00
   23:34:45.558.30-Jun-2020 251.07 2109.87 1161.05 1096.50 59.67 4.00
   23:34:45.758.30-Jun-2020 251.27 2109.88 1161.05 1096.50 59.67 4.00
   23:34:45.958.30-Jun-2020 251.47 2109.89 1161.05 1096.50 59.67 4.00
   23:34:46.158.30-Jun-2020 251.67 2109.89 1161.05 1096.50 59.67 4.00
   23:34:46.358.30-Jun-2020 251.87 2109.89 1161.05 1096.50 59.67 4.00
   23:34:46.558.30-Jun-2020 252.07 2109.88 1161.05 1096.50 59.67 4.00
   23:34:46.758.30-Jun-2020 252.27 2109.88 1161.05 1096.50 59.67 4.00
   23:34:46.958.30-Jun-2020 252.47 2109.88 1161.05 1096.50 59.67 4.00
   23:34:47.159.30-Jun-2020 252.67 2109.88 1161.05 1096.50 59.67 4.00
   23:34:47.359.30-Jun-2020 252.87 2109.92 1161.05 1096.50 59.67 4.00
