~Version Information
 VERS.                  2.0:   CWLS log ASCII Standard -VERSION 2.0
 WRAP.                   NO:   One line per depth step
~Well Information Block
#MNEM.UNIT     VALUE/NAME     DESCRIPTION
#---------     -----------    ---------------------------
 STRT.S             16:00:06 29-Jun-20: START TIME 16:00:06 29-Jun-20
 STOP.S             16:09:07 29-Jun-20: STOP TIME  16:09:07 29-Jun-20
 STEP.S                   0.00: STEP TIME
 NULL.                 -999.25: NULL VALUE
 DFWT.                        :  DIST FWL TEXT
 DFST.                        :  DIST FSL TEXT
 DMF .             Drill Floor:  DRILL MEAS FROM
 STIM.      09.59.28 01-Jun-20:  START TIME
 DATE.      09.59.28 01-Jun-20:  END TIME
 SPUD.               01-Jun-20:  SPUD DATE
 NREF.                    Grid:  NORTH REFERENCE
 HPTY.       Minimum Curvature:  HOLE POS TYPE
 DMOD.             Drill Model:  DRILL MOD DESC
 SVYD.                  Survey:  SURVEY DESC
 ILTD.               Lithology:  INTERP LTH DESC
 FTOP.          Formation Tops:  FORM TOPS DESC
 SON .        AZ-XX-0905455768:  JOB NUMBER
 WTYP.                Deviated:  WELL TYPE
 COMP.     BP Exploration(Caspian Sea):  COMPANY
 BASE.              Azerbaijan:  LOGGING EQUIPMENT BASE LOCATION
 REGN.                   EESSA:  REGION
 CTRY.              Azerbaijan:  COUNTRY NAME
 FLD .                     ACG:  FIELD NAME
 SRVC.          Turan Drilling:  CONTRACTOR
 WELL.                     B41:  WELL NAME
 RIG .           Central Azeri:  RIG NAME
 DCON.         Sperry Drilling:  DIRECTNL CONTR
 PDAT.          Mean Sea Level:  PERMANENT DATUM
 MDS .        Operator Entered:  MAG DATA SOURCE
 API .                        :  API NUMBER
 CNTY.                        :  COUNTY
 PROV.                        :  PROVINCE
 STAT.                        :  STATE
 UWI .                        :  UNIQUE WELL IDENTIFIER
 LOC .                        :  LOCATION
 LMF .             Drill Floor:  LOG MEASURED FROM
 TVDS.m                  43.29:  TVDSS CORRECTN
 LATI.deg                40.03:  LATITUDE
 LONG.deg                51.35:  LONGITUDE
 WHNS.m                  12.98:  WELL HEAD N/S
 WHEW.m                  -6.62:  WELL HEAD E/W
 UTMX.m              530128.28:  UTM X
 UTMY.m             4433192.49:  UTM Y
 DFWL.m                   0.00:  DISTANCE FWL
 DFSL.m                   0.00:  DISTANCE FSL
 SDEP.m                 378.00:  START DEPTH
 TDD .m                   0.00:  TOTAL DEPTH (DRILLER)
 VSDR.deg               296.18:  VERT SEC DIRECT
 GVFD.g                   1.00:  GRAVITY FIELD
 MFLD.nT              50253.00:  MAGNETIC FIELD
 MDIP.deg                59.49:  MAGNETIC DIP
 MDEC.deg                 6.44:  MAGNETIC DECL
 GRDC.deg                 0.22:  GRID CORRECTION
 AZTC.deg                 6.22:  AZM TOTAL CORR
 EPD .m                   0.00:  ELEVATION
 EGL .m                   0.00:  GROUND ELEVATION
 WDMS.m                 128.20:  WD ELEV
 APD .m                  43.29:  DEPTH ABOVE PD
 AGAP.m                  43.29:  AIR GAP
 VSEW.m                  -6.62:  VERT SEC E/W
 VSNS.m                  12.98:  VERT SEC N/S
 EKB .m                  43.29:  KB ELEVATION
 EDF .m                  43.29:  DF ELEVATION
 TDL .m                1152.00:  TOTAL DEPTH (LOGGER)
 VSC .                       0:  VS TO CLOSURE
 MAGU.                 1848525:  MAGUTM CHECKSUM
~Parameter Information Block
#MNEM.UNIT       Value        Description
#---------     -----------    ---------------------------
 AV  .mps                 0.40:  Ann Velocity 
 AVMX.mps                 1.56:  Max Ann Veloc 
 AZIF.deg               300.46:  Azm, Final 
 BHAT.        Rotary Steerable:  BHA Type 
 BROT.∞/30m               0.40:  Build Rotating 
 BS  .in                 17.50:  Bit Size 
 BSZ .in                 17.50:  Bit Size 
 BTPL.psig              300.00:  Bit Press Loss 
 CABU.                      No:  Customer Abuse 
 CGEO.          Parviz Guliyev:  Customer Geo 
 COMM.                     ,‘Å:  Run Comments 1 
 TCS .hr                108.13:  Time Ciculation Ended 
 CV  .mps                 0.50:  Crit Velocity 
 CVMX.mps                 2.01:  Max Crit Veloc 
 DD1 .          Fariz Nahmatov:  Direct Drillr 1 
 DD2 .             Ehab Radwan:  Direct Drillr 2 
 DDSV.               Geo-Pilot:  DD Service 
 DEFF.%                  99.00:  % Det Eff 
 DLRX.∞/30m               0.50:  Dogleg Rot Max 
 DLSO.∞/30m               2.80:  Dogleg Oriented 
 DLSX.∞/30m               3.90:  Dogleg Str Max 
 DRET.      09.30.04 03-Jul-20:  Drill End Time 
 DRST.      18.33.04 28-Jun-20:  Drill Start Tim 
 DTIM.hr                 55.83:  Time Drilling 
 EDEP.m                1952.00:  End Depth 
 ENG1.      Bakhtiyar Jabbarli:  Engineer 1 
 ENG2.         Farhad Orujzade:  Engineer 2 
 ENG3.          Rustam Safarov:  Engineer 3 
 ETIM.      01.33.04 04-Jul-20:  End Time 
 FLOI.gpm              1050.00:  Flow In 
 FLON.gpm               950.00:  Flow In Min 
 FLOS.cptm                0.10:  Fluid Loss 
 FLOX.gpm              1150.00:  Flow In Max 
 HFLO.                      No:  High Flow 
 HPRE.                      No:  High Pressure 
 HTEM.                      No:  High Temp 
 HYDO.m                   1.80:  Hydro Offset 
 IFIN.deg                75.26:  Inc, Final 
 IMAX.deg                75.38:  Inc Max 
 IMIN.deg                22.84:  Inc Min 
 IMND.m                 832.38:  Inc Min Depth 
 IMXD.m                1936.55:  Inc Max Depth 
 JARR.                      No:  Jarring 
 LETM.      17.40.00 04-Jul-20:  Log End Time 
 LOST.hr                     0:  Lost Rig Time 
 LSTM.      12.33.04 28-Jun-20:  Log Start Time 
 MDCL.ppm             49500.00:  Mud Chlorides 
 MDES.     Inversion Oil/Synthetic:  Mud Desc 
 DFD .sg                  1.46:  Mud Density 
 MDMN.sg                  1.46:  Dens Mud Min 
 MDMX.sg                  1.46:  Dens Mud Max 
 MOIL.                      70:  Run Mud Oil % 
 MOWR.                   70:30:  Run Mud OWR 
 MSND.                     0.5:  Run Mud Sand % 
 MSOL.                   19.89:  Run Mud Solids% 
 DFV .spqt               72.00:  Mud Viscosity 
 MWOD.in                  9.50:  MWD Tool OD 
 MWSI.                      No:  Serv Intrp, MWD 
 OTIM.hr                146.53:  Time Operating 
 PCON.           Look Like New:  Pad Condition 
 PMAX.psia             2900.00:  Press Op, Max 
 PV  .cP                 38.00:  Mud PV 
 RUN .                     600:  Run Number 
 ROPA.m/hr               22.00:  ROP Avg 
 ROPN.m/hr               10.00:  ROP Min 
 ROPX.m/hr              263.00:  ROP Max 
 RPMA.rpm               155.00:  RPM Surface Avg 
 RPMN.rpm               140.00:  RPM Surface Min 
 RPMX.rpm               160.00:  RPM Surface Max 
 RRUN.                    0600:  Rig Run Number 
 RTIM.hr                  5.00:  Time Reaming 
 SAZI.deg               300.08:  Azm, Start 
 SDEP.m                 800.00:  Start Depth 
 SIDD.                      No:  Serv Intrp, DD 
 SINC.deg                22.84:  Inc, Start 
 SPPA.psig             3000.00:  SPP Avg 
 SPPN.psig             1900.00:  SPP Min 
 SPPX.psig             3200.00:  SPP Max 
 STIM.      12.30.04 28-Jun-20:  Start Time 
 SVCS.                 DD, MWD:  Services 
 SVER.                    9.20:  Sperry Version 
 TDAT.m                1952.00:  Tot Depth Attmp 
 TDDF.                      No:  Trip for DD 
 TDLG.m                1152.00:  Tot Depth Loggd 
 TFF .                      No:  Trip for Fail 
 TQAA.f-kp                8.00:  Torque Abs Avg 
 TQAN.f-kp                5.00:  Torque Abs Min 
 TQAX.f-kp               14.00:  Torque Abs Max 
 TRRT.∞/30m               0.50:  Turn Rotating 
 MRT .                  EWR-M5:  Maximum Recorded Temperature 
 TTMX.degC               69.00:  Max Tool Temp 
 VS01.                90610313:  Virtual Str1 SN 
 VS02.                90613431:  Virtual Str2 SN 
 VS03.                90615410:  Virtual Str3 SN 
 WBMN.klb                 6.00:  WOB Min 
 WITN.            Bruce Cheyne:  Customer Rep 
 WITN.             Ayaz Aliyev:  Customer Rep 2 
 WOBA.klb                 6.00:  WOB Avg 
 WOBX.klb                10.00:  WOB Max 
 YP  .lhf2               36.00:  Yield Point 
~Curve Information Block
#MNEM.UNIT                 API CODE     Curve Description
#---------               -----------    ---------------------------
 TIME.HHMMSS            00 000 000 000:  GT Time & Date
 GTET.sec               00 000 000 000:  GT Elapsed Test Time
 GTPQH.psia             00 000 000 000:  GT HR Quartz Pressure
 GTDEPTH.m              00 000 000 000:  GT Depth
 GTTVD.m                00 000 000 000:  GT True Vertical Depth
 GTTQ.degC              00 000 000 000:  GT Quartz Temperature
 GTTN.NONE              00 000 000 000:  GT Test Number
#Other Information
#
#WARRANTY: Halliburton will use its best efforts to furnish customers with 
#accurate information and interpretations that are part of, and incident to, the services 
#provided.  However, Halliburton cannot and does not warrant the accuracy 
#or correctness of such information and interpretations.  Under no circumstances should any 
#such information or interpretation be relied upon as the sole basis for any drilling, 
#completion, production, or financial decision or any procedure involving any risk to the 
#safety of any drilling venture, drilling rig or its crew or any other third party.  The 
#Customer has full responsibility for all drilling, completion and production operation.  
#Halliburton makes no representations or warranties, either expressed or 
#implied, including, but not limited to, the implied warranties of merchantability or fitness 
#for a particular purpose, with respect to the services rendered.  In no event will 
#Halliburton be liable for failure to obtain any particular results or for 
#any damages, including, but not limited to, indirect, special or consequential damages, 
#resulting from the use of any information or interpretation provided by Halliburton.
#
~A           TIME            GTET   GTPQH  GTDEPTH GTTVD  GTTQ  GTTN 
# ...
   16:00:29.660.29-Jun-2020  23.21 1798.22  873.30 856.96 65.75 1.00
   16:00:29.860.29-Jun-2020  23.41 1797.88  873.30 856.96 65.75 1.00
   16:00:30.061.29-Jun-2020  23.61 1795.79  873.30 856.96 65.75 1.00
   16:00:30.261.29-Jun-2020  23.81 1797.11  873.30 856.96 65.75 1.00
   16:00:30.461.29-Jun-2020  24.01 1799.50  873.30 856.96 65.75 1.00
   16:00:30.661.29-Jun-2020  24.21 1799.50  873.30 856.96 65.75 1.00
   16:00:30.861.29-Jun-2020  24.41 1799.06  873.30 856.96 65.75 1.00
   16:00:31.061.29-Jun-2020  24.61 1798.65  873.30 856.96 65.75 1.00
   16:00:31.261.29-Jun-2020  24.81 1799.21  873.30 856.96 65.75 1.00
   16:00:31.461.29-Jun-2020  25.01 1799.47  873.30 856.96 65.75 1.00
   16:00:31.661.29-Jun-2020  25.21 1798.62  873.30 856.96 65.75 1.00
   16:00:31.861.29-Jun-2020  25.41 1798.32  873.30 856.96 65.75 1.00
   16:00:32.061.29-Jun-2020  25.61 1800.84  873.30 856.96 65.75 1.00
   16:00:32.261.29-Jun-2020  25.81 1800.46  873.30 856.96 65.75 1.00
   16:00:32.461.29-Jun-2020  26.01 1798.79  873.30 856.96 65.75 1.00
   16:00:32.661.29-Jun-2020  26.21 1798.79  873.30 856.96 65.75 1.00
   16:00:32.862.29-Jun-2020  26.41 1798.51  873.30 856.96 65.75 1.00
   16:00:33.062.29-Jun-2020  26.61 1798.35  873.30 856.96 65.75 1.00
   16:00:33.262.29-Jun-2020  26.81 1798.60  873.30 856.96 65.75 1.00
   16:00:33.462.29-Jun-2020  27.01 1798.44  873.30 856.96 65.75 1.00
   16:00:33.662.29-Jun-2020  27.21 1798.44  873.30 856.96 65.75 1.00
   16:00:33.862.29-Jun-2020  27.41 1798.56  873.30 856.96 65.75 1.00
   16:00:34.062.29-Jun-2020  27.61 1797.13  873.30 856.96 65.75 1.00
   16:00:34.262.29-Jun-2020  27.81 1797.10  873.30 856.96 65.75 1.00
   16:00:34.462.29-Jun-2020  28.01 1796.59  873.30 856.96 65.75 1.00
   16:00:34.662.29-Jun-2020  28.21 1796.59  873.30 856.96 65.75 1.00
   16:00:34.862.29-Jun-2020  28.41 1796.53  873.30 856.96 65.75 1.00
   16:00:35.062.29-Jun-2020  28.61 1796.42  873.30 856.96 65.75 1.00
   16:00:35.262.29-Jun-2020  28.81 1797.51  873.30 856.96 65.75 1.00
   16:00:35.463.29-Jun-2020  29.01 1796.85  873.30 856.96 65.75 1.00
   16:00:35.663.29-Jun-2020  29.21 1797.25  873.30 856.96 65.75 1.00
   16:00:35.863.29-Jun-2020  29.41 1797.15  873.30 856.96 65.75 1.00
   16:00:36.063.29-Jun-2020  29.61 1797.59  873.30 856.96 65.75 1.00
   16:00:36.263.29-Jun-2020  29.81 1798.19  873.30 856.96 65.75 1.00
   16:00:36.463.29-Jun-2020  30.01 1798.83  873.30 856.96 65.75 1.00
   16:00:36.663.29-Jun-2020  30.21 1798.83  873.30 856.96 65.75 1.00
   16:00:36.863.29-Jun-2020  30.41 1799.86  873.30 856.96 65.75 1.00
   16:00:37.063.29-Jun-2020  30.61 1800.57  873.30 856.96 65.75 1.00
   16:00:37.263.29-Jun-2020  30.81 1798.97  873.30 856.96 65.75 1.00
   16:00:37.463.29-Jun-2020  31.01 1798.33  873.30 856.96 65.75 1.00
   16:00:37.663.29-Jun-2020  31.21 1798.33  873.30 856.96 65.75 1.00
   16:00:37.863.29-Jun-2020  31.41 1798.67  873.30 856.96 65.75 1.00
   16:00:38.064.29-Jun-2020  31.61 1799.30  873.30 856.96 65.75 1.00
   16:00:38.264.29-Jun-2020  31.81 1796.64  873.30 856.96 65.75 1.00
   16:00:38.464.29-Jun-2020  32.01 1799.03  873.30 856.96 65.75 1.00
   16:00:38.664.29-Jun-2020  32.21 1799.03  873.30 856.96 65.75 1.00
   16:00:38.864.29-Jun-2020  32.41 1797.50  873.30 856.96 65.75 1.00
   16:00:39.064.29-Jun-2020  32.61 1797.00  873.30 856.96 65.75 1.00
   16:00:39.264.29-Jun-2020  32.81 1794.76  873.30 856.96 65.75 1.00
   16:00:39.464.29-Jun-2020  33.01 1798.71  873.30 856.96 65.75 1.00
   16:00:39.664.29-Jun-2020  33.21 1798.71  873.30 856.96 65.75 1.00
   16:00:39.864.29-Jun-2020  33.41 1797.45  873.30 856.96 65.75 1.00
   16:00:40.064.29-Jun-2020  33.61 1797.07  873.30 856.96 65.75 1.00
   16:00:40.264.29-Jun-2020  33.81 1799.04  873.30 856.96 65.75 1.00
   16:00:40.464.29-Jun-2020  34.01 1796.94  873.30 856.96 65.75 1.00
   16:00:40.665.29-Jun-2020  34.21 1796.94  873.30 856.96 65.75 1.00
   16:00:40.865.29-Jun-2020  34.41 1797.59  873.30 856.96 65.75 1.00
   16:00:41.065.29-Jun-2020  34.61 1798.52  873.30 856.96 65.75 1.00
   16:00:41.265.29-Jun-2020  34.81 1800.98  873.30 856.96 65.75 1.00
   16:00:41.465.29-Jun-2020  35.01 1799.05  873.30 856.96 65.75 1.00
   16:00:41.665.29-Jun-2020  35.21 1799.05  873.30 856.96 65.75 1.00
   16:00:41.865.29-Jun-2020  35.41 1799.49  873.30 856.96 65.75 1.00
   16:00:42.065.29-Jun-2020  35.61 1798.69  873.30 856.96 65.75 1.00
   16:00:42.265.29-Jun-2020  35.81 1798.65  873.30 856.96 65.75 1.00
   16:00:42.465.29-Jun-2020  36.01 1799.99  873.30 856.96 65.75 1.00
   16:00:42.665.29-Jun-2020  36.21 1799.99  873.30 856.96 65.75 1.00
   16:00:42.865.29-Jun-2020  36.41 1799.97  873.30 856.96 65.75 1.00
   16:00:43.065.29-Jun-2020  36.61 1798.42  873.30 856.96 65.75 1.00
   16:00:43.266.29-Jun-2020  36.81 1797.23  873.30 856.96 65.75 1.00
   16:00:43.466.29-Jun-2020  37.01 1797.40  873.30 856.96 65.75 1.00
   16:00:43.666.29-Jun-2020  37.21 1797.40  873.30 856.96 65.75 1.00
   16:00:43.866.29-Jun-2020  37.41 1796.88  873.30 856.96 65.75 1.00
   16:00:44.066.29-Jun-2020  37.61 1795.78  873.30 856.96 65.75 1.00
   16:00:44.266.29-Jun-2020  37.81 1797.60  873.30 856.96 65.75 1.00
   16:00:44.466.29-Jun-2020  38.01 1795.90  873.30 856.96 65.75 1.00
   16:00:44.666.29-Jun-2020  38.21 1797.29  873.30 856.96 65.75 1.00
   16:00:44.866.29-Jun-2020  38.41 1795.93  873.30 856.96 65.75 1.00
   16:00:45.066.29-Jun-2020  38.61 1796.83  873.30 856.96 65.75 1.00
   16:00:45.266.29-Jun-2020  38.81 1797.32  873.30 856.96 65.75 1.00
   16:00:45.466.29-Jun-2020  39.01 1797.46  873.30 856.96 65.75 1.00
   16:00:45.666.29-Jun-2020  39.21 1797.46  873.30 856.96 65.75 1.00
   16:00:45.866.29-Jun-2020  39.41 1797.97  873.30 856.96 65.75 1.00
   16:00:46.067.29-Jun-2020  39.62 1800.06  873.30 856.96 65.75 1.00
   16:00:46.267.29-Jun-2020  39.82 1799.49  873.30 856.96 65.75 1.00
   16:00:46.467.29-Jun-2020  40.02 1799.18  873.30 856.96 65.75 1.00
   16:00:46.667.29-Jun-2020  40.22 1799.14  873.30 856.96 65.75 1.00
   16:00:46.867.29-Jun-2020  40.42 1799.77  873.30 856.96 65.75 1.00
   16:00:47.067.29-Jun-2020  40.62 1799.29  873.30 856.96 65.75 1.00
   16:00:47.267.29-Jun-2020  40.82 1799.40  873.30 856.96 65.75 1.00
   16:00:47.467.29-Jun-2020  41.02 1799.05  873.30 856.96 65.75 1.00
   16:00:47.667.29-Jun-2020  41.22 1799.05  873.30 856.96 65.75 1.00
   16:00:47.867.29-Jun-2020  41.42 1797.31  873.30 856.96 65.75 1.00
   16:00:48.067.29-Jun-2020  41.62 1797.87  873.30 856.96 65.75 1.00
   16:00:48.267.29-Jun-2020  41.82 1796.42  873.30 856.96 65.75 1.00
   16:00:48.467.29-Jun-2020  42.02 1797.50  873.30 856.96 65.75 1.00
   16:00:48.668.29-Jun-2020  42.22 1797.50  873.30 856.96 65.75 1.00
   16:00:48.868.29-Jun-2020  42.42 1796.19  873.30 856.96 65.75 1.00
   16:00:49.068.29-Jun-2020  42.62 1796.12  873.30 856.96 65.75 1.00
   16:00:49.268.29-Jun-2020  42.82 1796.34  873.30 856.96 65.75 1.00
   16:00:49.468.29-Jun-2020  43.02 1796.51  873.30 856.96 65.75 1.00
   16:00:49.668.29-Jun-2020  43.22 1796.51  873.30 856.96 65.75 1.00
   16:00:49.868.29-Jun-2020  43.42 1796.00  873.30 856.96 65.75 1.00
   16:00:50.068.29-Jun-2020  43.62 1799.15  873.30 856.96 65.75 1.00
   16:00:50.268.29-Jun-2020  43.82 1797.09  873.30 856.96 65.75 1.00
   16:00:50.468.29-Jun-2020  44.02 1798.73  873.30 856.96 65.75 1.00
   16:00:50.668.29-Jun-2020  44.22 1798.73  873.30 856.96 65.75 1.00
   16:00:50.868.29-Jun-2020  44.42 1799.82  873.30 856.96 65.75 1.00
   16:00:51.068.29-Jun-2020  44.62 1799.33  873.30 856.96 65.75 1.00
   16:00:51.269.29-Jun-2020  44.82 1799.19  873.30 856.96 65.75 1.00
   16:00:51.469.29-Jun-2020  45.02 1798.99  873.30 856.96 65.75 1.00
   16:00:51.669.29-Jun-2020  45.22 1798.73  873.30 856.96 65.75 1.00
   16:00:51.869.29-Jun-2020  45.42 1800.61  873.30 856.96 65.75 1.00
   16:00:52.069.29-Jun-2020  45.62 1799.15  873.30 856.96 65.75 1.00
   16:00:52.269.29-Jun-2020  45.82 1799.34  873.30 856.96 65.75 1.00
   16:00:52.469.29-Jun-2020  46.02 1797.99  873.30 856.96 65.75 1.00
   16:00:52.669.29-Jun-2020  46.22 1797.99  873.30 856.96 65.75 1.00
