~Version Information
 VERS.                  2.0:   CWLS log ASCII Standard -VERSION 2.0
 WRAP.                   NO:   One line per depth step
~Well Information Block
#MNEM.UNIT     VALUE/NAME     DESCRIPTION
#---------     -----------    ---------------------------
 STRT.S             23:30:34 30-Jun-20: START TIME 23:30:34 30-Jun-20
 STOP.S             23:39:34 30-Jun-20: STOP TIME  23:39:34 30-Jun-20
 STEP.S                   0.00: STEP TIME
 NULL.                 -999.25: NULL VALUE
 DFWT.                        :  DIST FWL TEXT
 DFST.                        :  DIST FSL TEXT
 DMF .             Drill Floor:  DRILL MEAS FROM
 STIM.      09.59.28 01-Jun-20:  START TIME
 DATE.      09.59.28 01-Jun-20:  END TIME
 SPUD.               01-Jun-20:  SPUD DATE
 NREF.                    Grid:  NORTH REFERENCE
 HPTY.       Minimum Curvature:  HOLE POS TYPE
 DMOD.             Drill Model:  DRILL MOD DESC
 SVYD.                  Survey:  SURVEY DESC
 ILTD.               Lithology:  INTERP LTH DESC
 FTOP.          Formation Tops:  FORM TOPS DESC
 SON .        AZ-XX-0905455768:  JOB NUMBER
 WTYP.                Deviated:  WELL TYPE
 COMP.     BP Exploration(Caspian Sea):  COMPANY
 BASE.              Azerbaijan:  LOGGING EQUIPMENT BASE LOCATION
 REGN.                   EESSA:  REGION
 CTRY.              Azerbaijan:  COUNTRY NAME
 FLD .                     ACG:  FIELD NAME
 SRVC.          Turan Drilling:  CONTRACTOR
 WELL.                     B41:  WELL NAME
 RIG .           Central Azeri:  RIG NAME
 DCON.         Sperry Drilling:  DIRECTNL CONTR
 PDAT.          Mean Sea Level:  PERMANENT DATUM
 MDS .        Operator Entered:  MAG DATA SOURCE
 API .                        :  API NUMBER
 CNTY.                        :  COUNTY
 PROV.                        :  PROVINCE
 STAT.                        :  STATE
 UWI .                        :  UNIQUE WELL IDENTIFIER
 LOC .                        :  LOCATION
 LMF .             Drill Floor:  LOG MEASURED FROM
 TVDS.m                  43.29:  TVDSS CORRECTN
 LATI.deg                40.03:  LATITUDE
 LONG.deg                51.35:  LONGITUDE
 WHNS.m                  12.98:  WELL HEAD N/S
 WHEW.m                  -6.62:  WELL HEAD E/W
 UTMX.m              530128.28:  UTM X
 UTMY.m             4433192.49:  UTM Y
 DFWL.m                   0.00:  DISTANCE FWL
 DFSL.m                   0.00:  DISTANCE FSL
 SDEP.m                 378.00:  START DEPTH
 TDD .m                   0.00:  TOTAL DEPTH (DRILLER)
 VSDR.deg               296.18:  VERT SEC DIRECT
 GVFD.g                   1.00:  GRAVITY FIELD
 MFLD.nT              50253.00:  MAGNETIC FIELD
 MDIP.deg                59.49:  MAGNETIC DIP
 MDEC.deg                 6.44:  MAGNETIC DECL
 GRDC.deg                 0.22:  GRID CORRECTION
 AZTC.deg                 6.22:  AZM TOTAL CORR
 EPD .m                   0.00:  ELEVATION
 EGL .m                   0.00:  GROUND ELEVATION
 WDMS.m                 128.20:  WD ELEV
 APD .m                  43.29:  DEPTH ABOVE PD
 AGAP.m                  43.29:  AIR GAP
 VSEW.m                  -6.62:  VERT SEC E/W
 VSNS.m                  12.98:  VERT SEC N/S
 EKB .m                  43.29:  KB ELEVATION
 EDF .m                  43.29:  DF ELEVATION
 TDL .m                1152.00:  TOTAL DEPTH (LOGGER)
 VSC .                       0:  VS TO CLOSURE
 MAGU.                 1848525:  MAGUTM CHECKSUM
~Parameter Information Block
#MNEM.UNIT       Value        Description
#---------     -----------    ---------------------------
 AV  .mps                 0.40:  Ann Velocity 
 AVMX.mps                 1.56:  Max Ann Veloc 
 AZIF.deg               300.46:  Azm, Final 
 BHAT.        Rotary Steerable:  BHA Type 
 BROT.°/30m               0.40:  Build Rotating 
 BS  .in                 17.50:  Bit Size 
 BSZ .in                 17.50:  Bit Size 
 BTPL.psig              300.00:  Bit Press Loss 
 CABU.                      No:  Customer Abuse 
 CGEO.          Parviz Guliyev:  Customer Geo 
 COMM.                     œº_:  Run Comments 1 
 TCS .hr                108.13:  Time Ciculation Ended 
 CV  .mps                 0.50:  Crit Velocity 
 CVMX.mps                 2.01:  Max Crit Veloc 
 DD1 .          Fariz Nahmatov:  Direct Drillr 1 
 DD2 .             Ehab Radwan:  Direct Drillr 2 
 DDSV.               Geo-Pilot:  DD Service 
 DEFF.%                  99.00:  % Det Eff 
 DLRX.°/30m               0.50:  Dogleg Rot Max 
 DLSO.°/30m               2.80:  Dogleg Oriented 
 DLSX.°/30m               3.90:  Dogleg Str Max 
 DRET.      09.30.04 03-Jul-20:  Drill End Time 
 DRST.      18.33.04 28-Jun-20:  Drill Start Tim 
 DTIM.hr                 55.83:  Time Drilling 
 EDEP.m                1952.00:  End Depth 
 ENG1.      Bakhtiyar Jabbarli:  Engineer 1 
 ENG2.         Farhad Orujzade:  Engineer 2 
 ENG3.          Rustam Safarov:  Engineer 3 
 ETIM.      01.33.04 04-Jul-20:  End Time 
 FLOI.gpm              1050.00:  Flow In 
 FLON.gpm               950.00:  Flow In Min 
 FLOS.cptm                0.10:  Fluid Loss 
 FLOX.gpm              1150.00:  Flow In Max 
 HFLO.                      No:  High Flow 
 HPRE.                      No:  High Pressure 
 HTEM.                      No:  High Temp 
 HYDO.m                   1.80:  Hydro Offset 
 IFIN.deg                75.26:  Inc, Final 
 IMAX.deg                75.38:  Inc Max 
 IMIN.deg                22.84:  Inc Min 
 IMND.m                 832.38:  Inc Min Depth 
 IMXD.m                1936.55:  Inc Max Depth 
 JARR.                      No:  Jarring 
 LETM.      17.40.00 04-Jul-20:  Log End Time 
 LOST.hr                     0:  Lost Rig Time 
 LSTM.      12.33.04 28-Jun-20:  Log Start Time 
 MDCL.ppm             49500.00:  Mud Chlorides 
 MDES.     Inversion Oil/Synthetic:  Mud Desc 
 DFD .sg                  1.46:  Mud Density 
 MDMN.sg                  1.46:  Dens Mud Min 
 MDMX.sg                  1.46:  Dens Mud Max 
 MOIL.                      70:  Run Mud Oil % 
 MOWR.                   70:30:  Run Mud OWR 
 MSND.                     0.5:  Run Mud Sand % 
 MSOL.                   19.89:  Run Mud Solids% 
 DFV .spqt               72.00:  Mud Viscosity 
 MWOD.in                  9.50:  MWD Tool OD 
 MWSI.                      No:  Serv Intrp, MWD 
 OTIM.hr                146.53:  Time Operating 
 PCON.           Look Like New:  Pad Condition 
 PMAX.psia             2900.00:  Press Op, Max 
 PV  .cP                 38.00:  Mud PV 
 RUN .                     600:  Run Number 
 ROPA.m/hr               22.00:  ROP Avg 
 ROPN.m/hr               10.00:  ROP Min 
 ROPX.m/hr              263.00:  ROP Max 
 RPMA.rpm               155.00:  RPM Surface Avg 
 RPMN.rpm               140.00:  RPM Surface Min 
 RPMX.rpm               160.00:  RPM Surface Max 
 RRUN.                    0600:  Rig Run Number 
 RTIM.hr                  5.00:  Time Reaming 
 SAZI.deg               300.08:  Azm, Start 
 SDEP.m                 800.00:  Start Depth 
 SIDD.                      No:  Serv Intrp, DD 
 SINC.deg                22.84:  Inc, Start 
 SPPA.psig             3000.00:  SPP Avg 
 SPPN.psig             1900.00:  SPP Min 
 SPPX.psig             3200.00:  SPP Max 
 STIM.      12.30.04 28-Jun-20:  Start Time 
 SVCS.                 DD, MWD:  Services 
 SVER.                    9.20:  Sperry Version 
 TDAT.m                1952.00:  Tot Depth Attmp 
 TDDF.                      No:  Trip for DD 
 TDLG.m                1152.00:  Tot Depth Loggd 
 TFF .                      No:  Trip for Fail 
 TQAA.f-kp                8.00:  Torque Abs Avg 
 TQAN.f-kp                5.00:  Torque Abs Min 
 TQAX.f-kp               14.00:  Torque Abs Max 
 TRRT.°/30m               0.50:  Turn Rotating 
 MRT .                  EWR-M5:  Maximum Recorded Temperature 
 TTMX.degC               69.00:  Max Tool Temp 
 VS01.                90610313:  Virtual Str1 SN 
 VS02.                90613431:  Virtual Str2 SN 
 VS03.                90615410:  Virtual Str3 SN 
 WBMN.klb                 6.00:  WOB Min 
 WITN.            Bruce Cheyne:  Customer Rep 
 WITN.             Ayaz Aliyev:  Customer Rep 2 
 WOBA.klb                 6.00:  WOB Avg 
 WOBX.klb                10.00:  WOB Max 
 YP  .lhf2               36.00:  Yield Point 
~Curve Information Block
#MNEM.UNIT                 API CODE     Curve Description
#---------               -----------    ---------------------------
 TIME.HHMMSS            00 000 000 000:  GT Time & Date
 GTET.sec               00 000 000 000:  GT Elapsed Test Time
 GTPQH.psia             00 000 000 000:  GT HR Quartz Pressure
 GTDEPTH.m              00 000 000 000:  GT Depth
 GTTVD.m                00 000 000 000:  GT True Vertical Depth
 GTTQ.degC              00 000 000 000:  GT Quartz Temperature
 GTTN.NONE              00 000 000 000:  GT Test Number
#Other Information
#
#WARRANTY: Halliburton will use its best efforts to furnish customers with 
#accurate information and interpretations that are part of, and incident to, the services 
#provided.  However, Halliburton cannot and does not warrant the accuracy 
#or correctness of such information and interpretations.  Under no circumstances should any 
#such information or interpretation be relied upon as the sole basis for any drilling, 
#completion, production, or financial decision or any procedure involving any risk to the 
#safety of any drilling venture, drilling rig or its crew or any other third party.  The 
#Customer has full responsibility for all drilling, completion and production operation.  
#Halliburton makes no representations or warranties, either expressed or 
#implied, including, but not limited to, the implied warranties of merchantability or fitness 
#for a particular purpose, with respect to the services rendered.  In no event will 
#Halliburton be liable for failure to obtain any particular results or for 
#any damages, including, but not limited to, indirect, special or consequential damages, 
#resulting from the use of any information or interpretation provided by Halliburton.
#
~A           TIME            GTET   GTPQH  GTDEPTH  GTTVD  GTTQ  GTTN 
# ...
   23:35:33.572.30-Jun-2020 299.09 2110.12 1161.05 1096.50 59.68 4.00
   23:35:33.772.30-Jun-2020 299.29 2110.12 1161.05 1096.50 59.68 4.00
   23:35:33.972.30-Jun-2020 299.49 2110.11 1161.05 1096.50 59.68 4.00
   23:35:34.172.30-Jun-2020 299.69 2110.11 1161.05 1096.50 59.68 4.00
   23:35:34.372.30-Jun-2020 299.89 2110.12 1161.05 1096.50 59.68 4.00
   23:35:34.572.30-Jun-2020 300.09 2110.12 1161.05 1096.50 59.68 4.00
   23:35:34.772.30-Jun-2020 300.29 2110.12 1161.05 1096.50 59.68 4.00
   23:35:34.972.30-Jun-2020 300.49 2110.12 1161.05 1096.50 59.68 4.00
   23:35:35.172.30-Jun-2020 300.69 2110.12 1161.05 1096.50 59.68 4.00
   23:35:35.373.30-Jun-2020 300.89 2110.12 1161.05 1096.50 59.68 4.00
   23:35:35.573.30-Jun-2020 301.09 2110.09 1161.05 1096.50 59.68 4.00
   23:35:35.773.30-Jun-2020 301.29 2110.14 1161.05 1096.50 59.68 4.00
   23:35:35.973.30-Jun-2020 301.49 2110.14 1161.05 1096.50 59.68 4.00
   23:35:36.173.30-Jun-2020 301.69 2110.12 1161.05 1096.50 59.68 4.00
   23:35:36.373.30-Jun-2020 301.89 2110.13 1161.05 1096.50 59.68 4.00
   23:35:36.573.30-Jun-2020 302.09 2110.13 1161.05 1096.50 59.68 4.00
   23:35:36.773.30-Jun-2020 302.29 2110.13 1161.05 1096.50 59.68 4.00
   23:35:36.973.30-Jun-2020 302.49 2110.13 1161.05 1096.50 59.68 4.00
   23:35:37.173.30-Jun-2020 302.69 2110.12 1161.05 1096.50 59.68 4.00
   23:35:37.373.30-Jun-2020 302.89 2110.13 1161.05 1096.50 59.68 4.00
   23:35:37.573.30-Jun-2020 303.09 2110.13 1161.05 1096.50 59.68 4.00
   23:35:37.773.30-Jun-2020 303.29 2110.13 1161.05 1096.50 59.68 4.00
   23:35:37.973.30-Jun-2020 303.49 2110.10 1161.05 1096.50 59.68 4.00
   23:35:38.173.30-Jun-2020 303.69 2110.15 1161.05 1096.50 59.68 4.00
   23:35:38.373.30-Jun-2020 303.89 2110.15 1161.05 1096.50 59.68 4.00
   23:35:38.573.30-Jun-2020 304.09 2110.13 1161.05 1096.50 59.68 4.00
   23:35:38.774.30-Jun-2020 304.29 2110.13 1161.05 1096.50 59.68 4.00
   23:35:38.974.30-Jun-2020 304.49 2110.14 1161.05 1096.50 59.68 4.00
   23:35:39.174.30-Jun-2020 304.69 2110.13 1161.05 1096.50 59.68 4.00
   23:35:39.374.30-Jun-2020 304.89 2110.15 1161.05 1096.50 59.68 4.00
   23:35:39.574.30-Jun-2020 305.09 2110.15 1161.05 1096.50 59.68 4.00
   23:35:39.774.30-Jun-2020 305.29 2110.15 1161.05 1096.50 59.68 4.00
   23:35:39.974.30-Jun-2020 305.49 2110.15 1161.05 1096.50 59.68 4.00
   23:35:40.174.30-Jun-2020 305.69 2110.12 1161.05 1096.50 59.68 4.00
   23:35:40.374.30-Jun-2020 305.89 2110.13 1161.05 1096.50 59.68 4.00
   23:35:40.574.30-Jun-2020 306.09 2110.16 1161.05 1096.50 59.68 4.00
   23:35:40.774.30-Jun-2020 306.29 2110.15 1161.05 1096.50 59.68 4.00
   23:35:40.974.30-Jun-2020 306.49 2110.14 1161.05 1096.50 59.68 4.00
   23:35:41.174.30-Jun-2020 306.69 2110.15 1161.05 1096.50 59.68 4.00
   23:35:41.374.30-Jun-2020 306.89 2110.14 1161.05 1096.50 59.68 4.00
   23:35:41.574.30-Jun-2020 307.09 2110.13 1161.05 1096.50 59.68 4.00
   23:35:41.774.30-Jun-2020 307.29 2110.13 1161.05 1096.50 59.68 4.00
   23:35:41.974.30-Jun-2020 307.49 2110.16 1161.05 1096.50 59.68 4.00
   23:35:42.175.30-Jun-2020 307.69 2110.15 1161.05 1096.50 59.68 4.00
   23:35:42.375.30-Jun-2020 307.89 2110.15 1161.05 1096.50 59.68 4.00
   23:35:42.575.30-Jun-2020 308.09 2110.15 1161.05 1096.50 59.68 4.00
   23:35:42.775.30-Jun-2020 308.29 2110.15 1161.05 1096.50 59.68 4.00
   23:35:42.975.30-Jun-2020 308.49 2110.15 1161.05 1096.50 59.68 4.00
   23:35:43.175.30-Jun-2020 308.69 2110.14 1161.05 1096.50 59.68 4.00
   23:35:43.375.30-Jun-2020 308.89 2110.15 1161.05 1096.50 59.68 4.00
   23:35:43.575.30-Jun-2020 309.09 2110.15 1161.05 1096.50 59.68 4.00
   23:35:43.775.30-Jun-2020 309.29 2110.15 1161.05 1096.50 59.68 4.00
   23:35:43.975.30-Jun-2020 309.49 2110.15 1161.05 1096.50 59.68 4.00
   23:35:44.175.30-Jun-2020 309.69 2110.15 1161.05 1096.50 59.68 4.00
   23:35:44.375.30-Jun-2020 309.89 2110.14 1161.05 1096.50 59.68 4.00
   23:35:44.575.30-Jun-2020 310.09 2110.15 1161.05 1096.50 59.68 4.00
   23:35:44.775.30-Jun-2020 310.29 2110.15 1161.05 1096.50 59.68 4.00
   23:35:44.975.30-Jun-2020 310.49 2110.14 1161.05 1096.50 59.68 4.00
   23:35:45.175.30-Jun-2020 310.69 2110.12 1161.05 1096.50 59.68 4.00
   23:35:45.375.30-Jun-2020 310.89 2110.14 1161.05 1096.50 59.68 4.00
   23:35:45.575.30-Jun-2020 311.09 2110.17 1161.05 1096.50 59.68 4.00
   23:35:45.776.30-Jun-2020 311.29 2110.15 1161.05 1096.50 59.68 4.00
   23:35:45.976.30-Jun-2020 311.49 2110.15 1161.05 1096.50 59.68 4.00
   23:35:46.176.30-Jun-2020 311.69 2110.15 1161.05 1096.50 59.68 4.00
   23:35:46.376.30-Jun-2020 311.89 2110.16 1161.05 1096.50 59.68 4.00
   23:35:46.576.30-Jun-2020 312.09 2110.15 1161.05 1096.50 59.68 4.00
   23:35:46.776.30-Jun-2020 312.29 2110.15 1161.05 1096.50 59.68 4.00
   23:35:46.976.30-Jun-2020 312.49 2110.15 1161.05 1096.50 59.68 4.00
   23:35:47.176.30-Jun-2020 312.69 2110.16 1161.05 1096.50 59.68 4.00
   23:35:47.376.30-Jun-2020 312.89 2110.16 1161.05 1096.50 59.68 4.00
   23:35:47.576.30-Jun-2020 313.09 2110.14 1161.05 1096.50 59.68 4.00
   23:35:47.776.30-Jun-2020 313.29 2110.14 1161.05 1096.50 59.68 4.00
   23:35:47.976.30-Jun-2020 313.49 2110.18 1161.05 1096.50 59.68 4.00
   23:35:48.176.30-Jun-2020 313.69 2110.16 1161.05 1096.50 59.68 4.00
   23:35:48.376.30-Jun-2020 313.89 2110.16 1161.05 1096.50 59.68 4.00
   23:35:48.576.30-Jun-2020 314.09 2110.16 1161.05 1096.50 59.68 4.00
   23:35:48.776.30-Jun-2020 314.29 2110.16 1161.05 1096.50 59.68 4.00
   23:35:48.976.30-Jun-2020 314.49 2110.17 1161.05 1096.50 59.68 4.00
   23:35:49.177.30-Jun-2020 314.69 2110.16 1161.05 1096.50 59.68 4.00
   23:35:49.377.30-Jun-2020 314.89 2110.16 1161.05 1096.50 59.68 4.00
   23:35:49.577.30-Jun-2020 315.09 2110.16 1161.05 1096.50 59.68 4.00
   23:35:49.777.30-Jun-2020 315.29 2110.16 1161.05 1096.50 59.68 4.00
   23:35:49.977.30-Jun-2020 315.49 2110.13 1161.05 1096.50 59.68 4.00
   23:35:50.177.30-Jun-2020 315.69 2110.18 1161.05 1096.50 59.68 4.00
   23:35:50.377.30-Jun-2020 315.89 2110.17 1161.05 1096.50 59.68 4.00
   23:35:50.577.30-Jun-2020 316.09 2110.17 1161.05 1096.50 59.68 4.00
   23:35:50.777.30-Jun-2020 316.29 2110.17 1161.05 1096.50 59.68 4.00
   23:35:50.977.30-Jun-2020 316.49 2110.17 1161.05 1096.50 59.68 4.00
   23:35:51.177.30-Jun-2020 316.69 2110.14 1161.05 1096.50 59.68 4.00
   23:35:51.377.30-Jun-2020 316.89 2110.18 1161.05 1096.50 59.68 4.00
   23:35:51.577.30-Jun-2020 317.09 2110.18 1161.05 1096.50 59.68 4.00
   23:35:51.777.30-Jun-2020 317.29 2110.18 1161.05 1096.50 59.68 4.00
   23:35:51.977.30-Jun-2020 317.49 2110.17 1161.05 1096.50 59.68 4.00
   23:35:52.177.30-Jun-2020 317.69 2110.18 1161.05 1096.50 59.68 4.00
   23:35:52.377.30-Jun-2020 317.89 2110.17 1161.05 1096.50 59.68 4.00
   23:35:52.578.30-Jun-2020 318.09 2110.17 1161.05 1096.50 59.68 4.00
   23:35:52.778.30-Jun-2020 318.29 2110.17 1161.05 1096.50 59.68 4.00
   23:35:52.978.30-Jun-2020 318.49 2110.18 1161.05 1096.50 59.68 4.00
   23:35:53.178.30-Jun-2020 318.69 2110.17 1161.05 1096.50 59.68 4.00
   23:35:53.378.30-Jun-2020 318.89 2110.17 1161.05 1096.50 59.68 4.00
   23:35:53.578.30-Jun-2020 319.09 2110.17 1161.05 1096.50 59.68 4.00
   23:35:53.778.30-Jun-2020 319.29 2110.18 1161.05 1096.50 59.68 4.00
   23:35:53.978.30-Jun-2020 319.49 2110.17 1161.05 1096.50 59.68 4.00
   23:35:54.178.30-Jun-2020 319.69 2110.18 1161.05 1096.50 59.68 4.00
   23:35:54.378.30-Jun-2020 319.89 2110.17 1161.05 1096.50 59.68 4.00
   23:35:54.578.30-Jun-2020 320.09 2110.17 1161.05 1096.50 59.68 4.00
   23:35:54.778.30-Jun-2020 320.29 2110.17 1161.05 1096.50 59.68 4.00
   23:35:54.978.30-Jun-2020 320.49 2110.15 1161.05 1096.50 59.68 4.00
   23:35:55.178.30-Jun-2020 320.69 2110.19 1161.05 1096.50 59.68 4.00
   23:35:55.378.30-Jun-2020 320.89 2110.19 1161.05 1096.50 59.68 4.00
   23:35:55.578.30-Jun-2020 321.09 2110.17 1161.05 1096.50 59.68 4.00
   23:35:55.778.30-Jun-2020 321.29 2110.17 1161.05 1096.50 59.68 4.00
   23:35:55.979.30-Jun-2020 321.49 2110.18 1161.05 1096.50 59.68 4.00
   23:35:56.179.30-Jun-2020 321.69 2110.17 1161.05 1096.50 59.68 4.00
   23:35:56.379.30-Jun-2020 321.89 2110.17 1161.05 1096.50 59.68 4.00
