~Version Information
 VERS.                  2.0:   CWLS log ASCII Standard -VERSION 2.0
 WRAP.                   NO:   One line per depth step
~Well Information Block
#MNEM.UNIT     VALUE/NAME     DESCRIPTION
#---------     -----------    ---------------------------
 STRT.S             16:00:06 29-Jun-20: START TIME 16:00:06 29-Jun-20
 STOP.S             16:09:07 29-Jun-20: STOP TIME  16:09:07 29-Jun-20
 STEP.S                   0.00: STEP TIME
 NULL.                 -999.25: NULL VALUE
 DFWT.                        :  DIST FWL TEXT
 DFST.                        :  DIST FSL TEXT
 DMF .             Drill Floor:  DRILL MEAS FROM
 STIM.      09.59.28 01-Jun-20:  START TIME
 DATE.      09.59.28 01-Jun-20:  END TIME
 SPUD.               01-Jun-20:  SPUD DATE
 NREF.                    Grid:  NORTH REFERENCE
 HPTY.       Minimum Curvature:  HOLE POS TYPE
 DMOD.             Drill Model:  DRILL MOD DESC
 SVYD.                  Survey:  SURVEY DESC
 ILTD.               Lithology:  INTERP LTH DESC
 FTOP.          Formation Tops:  FORM TOPS DESC
 SON .        AZ-XX-0905455768:  JOB NUMBER
 WTYP.                Deviated:  WELL TYPE
 COMP.     BP Exploration(Caspian Sea):  COMPANY
 BASE.              Azerbaijan:  LOGGING EQUIPMENT BASE LOCATION
 REGN.                   EESSA:  REGION
 CTRY.              Azerbaijan:  COUNTRY NAME
 FLD .                     ACG:  FIELD NAME
 SRVC.          Turan Drilling:  CONTRACTOR
 WELL.                     B41:  WELL NAME
 RIG .           Central Azeri:  RIG NAME
 DCON.         Sperry Drilling:  DIRECTNL CONTR
 PDAT.          Mean Sea Level:  PERMANENT DATUM
 MDS .        Operator Entered:  MAG DATA SOURCE
 API .                        :  API NUMBER
 CNTY.                        :  COUNTY
 PROV.                        :  PROVINCE
 STAT.                        :  STATE
 UWI .                        :  UNIQUE WELL IDENTIFIER
 LOC .                        :  LOCATION
 LMF .             Drill Floor:  LOG MEASURED FROM
 TVDS.m                  43.29:  TVDSS CORRECTN
 LATI.deg                40.03:  LATITUDE
 LONG.deg                51.35:  LONGITUDE
 WHNS.m                  12.98:  WELL HEAD N/S
 WHEW.m                  -6.62:  WELL HEAD E/W
 UTMX.m              530128.28:  UTM X
 UTMY.m             4433192.49:  UTM Y
 DFWL.m                   0.00:  DISTANCE FWL
 DFSL.m                   0.00:  DISTANCE FSL
 SDEP.m                 378.00:  START DEPTH
 TDD .m                   0.00:  TOTAL DEPTH (DRILLER)
 VSDR.deg               296.18:  VERT SEC DIRECT
 GVFD.g                   1.00:  GRAVITY FIELD
 MFLD.nT              50253.00:  MAGNETIC FIELD
 MDIP.deg                59.49:  MAGNETIC DIP
 MDEC.deg                 6.44:  MAGNETIC DECL
 GRDC.deg                 0.22:  GRID CORRECTION
 AZTC.deg                 6.22:  AZM TOTAL CORR
 EPD .m                   0.00:  ELEVATION
 EGL .m                   0.00:  GROUND ELEVATION
 WDMS.m                 128.20:  WD ELEV
 APD .m                  43.29:  DEPTH ABOVE PD
 AGAP.m                  43.29:  AIR GAP
 VSEW.m                  -6.62:  VERT SEC E/W
 VSNS.m                  12.98:  VERT SEC N/S
 EKB .m                  43.29:  KB ELEVATION
 EDF .m                  43.29:  DF ELEVATION
 TDL .m                1152.00:  TOTAL DEPTH (LOGGER)
 VSC .                       0:  VS TO CLOSURE
 MAGU.                 1848525:  MAGUTM CHECKSUM
~Parameter Information Block
#MNEM.UNIT       Value        Description
#---------     -----------    ---------------------------
 AV  .mps                 0.40:  Ann Velocity 
 AVMX.mps                 1.56:  Max Ann Veloc 
 AZIF.deg               300.46:  Azm, Final 
 BHAT.        Rotary Steerable:  BHA Type 
 BROT.∞/30m               0.40:  Build Rotating 
 BS  .in                 17.50:  Bit Size 
 BSZ .in                 17.50:  Bit Size 
 BTPL.psig              300.00:  Bit Press Loss 
 CABU.                      No:  Customer Abuse 
 CGEO.          Parviz Guliyev:  Customer Geo 
 COMM.                     ,‘Å:  Run Comments 1 
 TCS .hr                108.13:  Time Ciculation Ended 
 CV  .mps                 0.50:  Crit Velocity 
 CVMX.mps                 2.01:  Max Crit Veloc 
 DD1 .          Fariz Nahmatov:  Direct Drillr 1 
 DD2 .             Ehab Radwan:  Direct Drillr 2 
 DDSV.               Geo-Pilot:  DD Service 
 DEFF.%                  99.00:  % Det Eff 
 DLRX.∞/30m               0.50:  Dogleg Rot Max 
 DLSO.∞/30m               2.80:  Dogleg Oriented 
 DLSX.∞/30m               3.90:  Dogleg Str Max 
 DRET.      09.30.04 03-Jul-20:  Drill End Time 
 DRST.      18.33.04 28-Jun-20:  Drill Start Tim 
 DTIM.hr                 55.83:  Time Drilling 
 EDEP.m                1952.00:  End Depth 
 ENG1.      Bakhtiyar Jabbarli:  Engineer 1 
 ENG2.         Farhad Orujzade:  Engineer 2 
 ENG3.          Rustam Safarov:  Engineer 3 
 ETIM.      01.33.04 04-Jul-20:  End Time 
 FLOI.gpm              1050.00:  Flow In 
 FLON.gpm               950.00:  Flow In Min 
 FLOS.cptm                0.10:  Fluid Loss 
 FLOX.gpm              1150.00:  Flow In Max 
 HFLO.                      No:  High Flow 
 HPRE.                      No:  High Pressure 
 HTEM.                      No:  High Temp 
 HYDO.m                   1.80:  Hydro Offset 
 IFIN.deg                75.26:  Inc, Final 
 IMAX.deg                75.38:  Inc Max 
 IMIN.deg                22.84:  Inc Min 
 IMND.m                 832.38:  Inc Min Depth 
 IMXD.m                1936.55:  Inc Max Depth 
 JARR.                      No:  Jarring 
 LETM.      17.40.00 04-Jul-20:  Log End Time 
 LOST.hr                     0:  Lost Rig Time 
 LSTM.      12.33.04 28-Jun-20:  Log Start Time 
 MDCL.ppm             49500.00:  Mud Chlorides 
 MDES.     Inversion Oil/Synthetic:  Mud Desc 
 DFD .sg                  1.46:  Mud Density 
 MDMN.sg                  1.46:  Dens Mud Min 
 MDMX.sg                  1.46:  Dens Mud Max 
 MOIL.                      70:  Run Mud Oil % 
 MOWR.                   70:30:  Run Mud OWR 
 MSND.                     0.5:  Run Mud Sand % 
 MSOL.                   19.89:  Run Mud Solids% 
 DFV .spqt               72.00:  Mud Viscosity 
 MWOD.in                  9.50:  MWD Tool OD 
 MWSI.                      No:  Serv Intrp, MWD 
 OTIM.hr                146.53:  Time Operating 
 PCON.           Look Like New:  Pad Condition 
 PMAX.psia             2900.00:  Press Op, Max 
 PV  .cP                 38.00:  Mud PV 
 RUN .                     600:  Run Number 
 ROPA.m/hr               22.00:  ROP Avg 
 ROPN.m/hr               10.00:  ROP Min 
 ROPX.m/hr              263.00:  ROP Max 
 RPMA.rpm               155.00:  RPM Surface Avg 
 RPMN.rpm               140.00:  RPM Surface Min 
 RPMX.rpm               160.00:  RPM Surface Max 
 RRUN.                    0600:  Rig Run Number 
 RTIM.hr                  5.00:  Time Reaming 
 SAZI.deg               300.08:  Azm, Start 
 SDEP.m                 800.00:  Start Depth 
 SIDD.                      No:  Serv Intrp, DD 
 SINC.deg                22.84:  Inc, Start 
 SPPA.psig             3000.00:  SPP Avg 
 SPPN.psig             1900.00:  SPP Min 
 SPPX.psig             3200.00:  SPP Max 
 STIM.      12.30.04 28-Jun-20:  Start Time 
 SVCS.                 DD, MWD:  Services 
 SVER.                    9.20:  Sperry Version 
 TDAT.m                1952.00:  Tot Depth Attmp 
 TDDF.                      No:  Trip for DD 
 TDLG.m                1152.00:  Tot Depth Loggd 
 TFF .                      No:  Trip for Fail 
 TQAA.f-kp                8.00:  Torque Abs Avg 
 TQAN.f-kp                5.00:  Torque Abs Min 
 TQAX.f-kp               14.00:  Torque Abs Max 
 TRRT.∞/30m               0.50:  Turn Rotating 
 MRT .                  EWR-M5:  Maximum Recorded Temperature 
 TTMX.degC               69.00:  Max Tool Temp 
 VS01.                90610313:  Virtual Str1 SN 
 VS02.                90613431:  Virtual Str2 SN 
 VS03.                90615410:  Virtual Str3 SN 
 WBMN.klb                 6.00:  WOB Min 
 WITN.            Bruce Cheyne:  Customer Rep 
 WITN.             Ayaz Aliyev:  Customer Rep 2 
 WOBA.klb                 6.00:  WOB Avg 
 WOBX.klb                10.00:  WOB Max 
 YP  .lhf2               36.00:  Yield Point 
~Curve Information Block
#MNEM.UNIT                 API CODE     Curve Description
#---------               -----------    ---------------------------
 TIME.HHMMSS            00 000 000 000:  GT Time & Date
 GTET.sec               00 000 000 000:  GT Elapsed Test Time
 GTPQH.psia             00 000 000 000:  GT HR Quartz Pressure
 GTDEPTH.m              00 000 000 000:  GT Depth
 GTTVD.m                00 000 000 000:  GT True Vertical Depth
 GTTQ.degC              00 000 000 000:  GT Quartz Temperature
 GTTN.NONE              00 000 000 000:  GT Test Number
#Other Information
#
#WARRANTY: Halliburton will use its best efforts to furnish customers with 
#accurate information and interpretations that are part of, and incident to, the services 
#provided.  However, Halliburton cannot and does not warrant the accuracy 
#or correctness of such information and interpretations.  Under no circumstances should any 
#such information or interpretation be relied upon as the sole basis for any drilling, 
#completion, production, or financial decision or any procedure involving any risk to the 
#safety of any drilling venture, drilling rig or its crew or any other third party.  The 
#Customer has full responsibility for all drilling, completion and production operation.  
#Halliburton makes no representations or warranties, either expressed or 
#implied, including, but not limited to, the implied warranties of merchantability or fitness 
#for a particular purpose, with respect to the services rendered.  In no event will 
#Halliburton be liable for failure to obtain any particular results or for 
#any damages, including, but not limited to, indirect, special or consequential damages, 
#resulting from the use of any information or interpretation provided by Halliburton.
#
~A           TIME            GTET   GTPQH  GTDEPTH GTTVD  GTTQ  GTTN 
# ...
   16:06:17.792.29-Jun-2020 371.34 1574.69  873.30 856.96 65.94 1.00
   16:06:17.992.29-Jun-2020 371.54 1574.75  873.30 856.96 65.94 1.00
   16:06:18.192.29-Jun-2020 371.74 1574.61  873.30 856.96 65.94 1.00
   16:06:18.392.29-Jun-2020 371.94 1574.61  873.30 856.96 65.94 1.00
   16:06:18.593.29-Jun-2020 372.14 1574.56  873.30 856.96 65.95 1.00
   16:06:18.793.29-Jun-2020 372.34 1574.56  873.30 856.96 65.95 1.00
   16:06:18.993.29-Jun-2020 372.54 1574.80  873.30 856.96 65.95 1.00
   16:06:19.193.29-Jun-2020 372.74 1574.53  873.30 856.96 65.95 1.00
   16:06:19.393.29-Jun-2020 372.94 1574.66  873.30 856.96 65.95 1.00
   16:06:19.593.29-Jun-2020 373.14 1574.61  873.30 856.96 65.95 1.00
   16:06:19.793.29-Jun-2020 373.34 1574.66  873.30 856.96 65.95 1.00
   16:06:19.993.29-Jun-2020 373.54 1574.55  873.30 856.96 65.95 1.00
   16:06:20.193.29-Jun-2020 373.74 1574.76  873.30 856.96 65.95 1.00
   16:06:20.393.29-Jun-2020 373.94 1574.58  873.30 856.96 65.95 1.00
   16:06:20.593.29-Jun-2020 374.14 1574.72  873.30 856.96 65.95 1.00
   16:06:20.793.29-Jun-2020 374.34 1574.72  873.30 856.96 65.95 1.00
   16:06:20.993.29-Jun-2020 374.54 1574.63  873.30 856.96 65.95 1.00
   16:06:21.194.29-Jun-2020 374.74 1574.72  873.30 856.96 65.95 1.00
   16:06:21.394.29-Jun-2020 374.94 1574.61  873.30 856.96 65.95 1.00
   16:06:21.594.29-Jun-2020 375.14 1574.70  873.30 856.96 65.95 1.00
   16:06:21.794.29-Jun-2020 375.34 1574.70  873.30 856.96 65.95 1.00
   16:06:21.994.29-Jun-2020 375.54 1574.74  873.30 856.96 65.95 1.00
   16:06:22.194.29-Jun-2020 375.74 1574.68  873.30 856.96 65.95 1.00
   16:06:22.394.29-Jun-2020 375.94 1574.69  873.30 856.96 65.95 1.00
   16:06:22.594.29-Jun-2020 376.14 1574.61  873.30 856.96 65.95 1.00
   16:06:22.794.29-Jun-2020 376.34 1574.61  873.30 856.96 65.95 1.00
   16:06:22.994.29-Jun-2020 376.54 1574.61  873.30 856.96 65.95 1.00
   16:06:23.194.29-Jun-2020 376.74 1574.65  873.30 856.96 65.95 1.00
   16:06:23.394.29-Jun-2020 376.94 1574.64  873.30 856.96 65.95 1.00
   16:06:23.594.29-Jun-2020 377.14 1574.56  873.30 856.96 65.95 1.00
   16:06:23.794.29-Jun-2020 377.34 1574.74  873.30 856.96 65.95 1.00
   16:06:23.995.29-Jun-2020 377.54 1574.60  873.30 856.96 65.95 1.00
   16:06:24.195.29-Jun-2020 377.74 1574.62  873.30 856.96 65.95 1.00
   16:06:24.395.29-Jun-2020 377.94 1574.66  873.30 856.96 65.95 1.00
   16:06:24.595.29-Jun-2020 378.14 1574.65  873.30 856.96 65.95 1.00
   16:06:24.795.29-Jun-2020 378.34 1574.65  873.30 856.96 65.95 1.00
   16:06:24.995.29-Jun-2020 378.54 1574.74  873.30 856.96 65.95 1.00
   16:06:25.195.29-Jun-2020 378.74 1574.69  873.30 856.96 65.95 1.00
   16:06:25.395.29-Jun-2020 378.94 1574.68  873.30 856.96 65.95 1.00
   16:06:25.595.29-Jun-2020 379.14 1574.80  873.30 856.96 65.95 1.00
   16:06:25.795.29-Jun-2020 379.34 1574.80  873.30 856.96 65.95 1.00
   16:06:25.995.29-Jun-2020 379.54 1574.70  873.30 856.96 65.95 1.00
   16:06:26.195.29-Jun-2020 379.74 1574.70  873.30 856.96 65.95 1.00
   16:06:26.395.29-Jun-2020 379.94 1574.75  873.30 856.96 65.95 1.00
   16:06:26.596.29-Jun-2020 380.14 1574.71  873.30 856.96 65.95 1.00
   16:06:26.796.29-Jun-2020 380.34 1574.71  873.30 856.96 65.95 1.00
   16:06:26.996.29-Jun-2020 380.54 1574.62  873.30 856.96 65.95 1.00
   16:06:27.196.29-Jun-2020 380.74 1574.69  873.30 856.96 65.95 1.00
   16:06:27.396.29-Jun-2020 380.94 1574.72  873.30 856.96 65.95 1.00
   16:06:27.596.29-Jun-2020 381.14 1574.63  873.30 856.96 65.95 1.00
   16:06:27.796.29-Jun-2020 381.34 1574.61  873.30 856.96 65.95 1.00
   16:06:27.996.29-Jun-2020 381.54 1574.62  873.30 856.96 65.95 1.00
   16:06:28.196.29-Jun-2020 381.74 1574.82  873.30 856.96 65.95 1.00
   16:06:28.396.29-Jun-2020 381.94 1574.59  873.30 856.96 65.95 1.00
   16:06:28.596.29-Jun-2020 382.14 1574.72  873.30 856.96 65.95 1.00
   16:06:28.796.29-Jun-2020 382.34 1574.72  873.30 856.96 65.95 1.00
   16:06:28.996.29-Jun-2020 382.54 1574.66  873.30 856.96 65.95 1.00
   16:06:29.197.29-Jun-2020 382.74 1574.70  873.30 856.96 65.95 1.00
   16:06:29.397.29-Jun-2020 382.95 1574.71  873.30 856.96 65.95 1.00
   16:06:29.597.29-Jun-2020 383.15 1574.66  873.30 856.96 65.95 1.00
   16:06:29.797.29-Jun-2020 383.35 1574.66  873.30 856.96 65.95 1.00
   16:06:29.997.29-Jun-2020 383.55 1574.81  873.30 856.96 65.95 1.00
   16:06:30.197.29-Jun-2020 383.75 1574.64  873.30 856.96 65.95 1.00
   16:06:30.397.29-Jun-2020 383.95 1574.71  873.30 856.96 65.95 1.00
   16:06:30.597.29-Jun-2020 384.15 1574.68  873.30 856.96 65.95 1.00
   16:06:30.797.29-Jun-2020 384.35 1574.68  873.30 856.96 65.95 1.00
   16:06:30.997.29-Jun-2020 384.55 1574.71  873.30 856.96 65.95 1.00
   16:06:31.197.29-Jun-2020 384.75 1574.76  873.30 856.96 65.95 1.00
   16:06:31.397.29-Jun-2020 384.95 1574.66  873.30 856.96 65.95 1.00
   16:06:31.597.29-Jun-2020 385.15 1574.75  873.30 856.96 65.95 1.00
   16:06:31.798.29-Jun-2020 385.35 1574.63  873.30 856.96 65.95 1.00
   16:06:31.998.29-Jun-2020 385.55 1574.63  873.30 856.96 65.95 1.00
   16:06:32.198.29-Jun-2020 385.75 1574.63  873.30 856.96 65.95 1.00
   16:06:32.398.29-Jun-2020 385.95 1574.64  873.30 856.96 65.96 1.00
   16:06:32.598.29-Jun-2020 386.15 1574.62  873.30 856.96 65.96 1.00
   16:06:32.798.29-Jun-2020 386.35 1574.62  873.30 856.96 65.96 1.00
   16:06:32.998.29-Jun-2020 386.55 1574.78  873.30 856.96 65.96 1.00
   16:06:33.198.29-Jun-2020 386.75 1574.59  873.30 856.96 65.96 1.00
   16:06:33.398.29-Jun-2020 386.95 1574.66  873.30 856.96 65.96 1.00
   16:06:33.598.29-Jun-2020 387.15 1574.63  873.30 856.96 65.96 1.00
   16:06:33.798.29-Jun-2020 387.35 1574.63  873.30 856.96 65.96 1.00
   16:06:33.998.29-Jun-2020 387.55 1574.66  873.30 856.96 65.96 1.00
   16:06:34.198.29-Jun-2020 387.75 1574.71  873.30 856.96 65.96 1.00
   16:06:34.399.29-Jun-2020 387.95 1574.68  873.30 856.96 65.96 1.00
   16:06:34.599.29-Jun-2020 388.15 1574.70  873.30 856.96 65.96 1.00
   16:06:34.799.29-Jun-2020 388.35 1574.70  873.30 856.96 65.96 1.00
   16:06:34.999.29-Jun-2020 388.55 1574.70  873.30 856.96 65.96 1.00
   16:06:35.199.29-Jun-2020 388.75 1574.69  873.30 856.96 65.96 1.00
   16:06:35.399.29-Jun-2020 388.95 1574.72  873.30 856.96 65.96 1.00
   16:06:35.599.29-Jun-2020 389.15 1574.68  873.30 856.96 65.96 1.00
   16:06:35.799.29-Jun-2020 389.35 1574.68  873.30 856.96 65.96 1.00
   16:06:35.999.29-Jun-2020 389.55 1574.71  873.30 856.96 65.96 1.00
   16:06:36.199.29-Jun-2020 389.75 1574.63  873.30 856.96 65.96 1.00
   16:06:36.399.29-Jun-2020 389.95 1574.63  873.30 856.96 65.96 1.00
   16:06:36.599.29-Jun-2020 390.15 1574.72  873.30 856.96 65.96 1.00
   16:06:36.799.29-Jun-2020 390.35 1574.72  873.30 856.96 65.96 1.00
   16:06:37.000.29-Jun-2020 390.55 1574.60  873.30 856.96 65.96 1.00
   16:06:37.200.29-Jun-2020 390.75 1574.56  873.30 856.96 65.96 1.00
   16:06:37.400.29-Jun-2020 390.95 1574.78  873.30 856.96 65.96 1.00
   16:06:37.600.29-Jun-2020 391.15 1574.58  873.30 856.96 65.96 1.00
   16:06:37.800.29-Jun-2020 391.35 1574.69  873.30 856.96 65.96 1.00
   16:06:38.000.29-Jun-2020 391.55 1574.60  873.30 856.96 65.96 1.00
   16:06:38.200.29-Jun-2020 391.75 1574.71  873.30 856.96 65.96 1.00
   16:06:38.400.29-Jun-2020 391.95 1574.63  873.30 856.96 65.96 1.00
   16:06:38.600.29-Jun-2020 392.15 1574.67  873.30 856.96 65.96 1.00
   16:06:38.800.29-Jun-2020 392.35 1574.67  873.30 856.96 65.96 1.00
   16:06:39.000.29-Jun-2020 392.55 1574.66  873.30 856.96 65.96 1.00
   16:06:39.200.29-Jun-2020 392.75 1574.78  873.30 856.96 65.96 1.00
   16:06:39.400.29-Jun-2020 392.95 1574.69  873.30 856.96 65.96 1.00
   16:06:39.600.29-Jun-2020 393.15 1574.68  873.30 856.96 65.96 1.00
   16:06:39.801.29-Jun-2020 393.35 1574.71  873.30 856.96 65.96 1.00
   16:06:40.001.29-Jun-2020 393.55 1574.68  873.30 856.96 65.96 1.00
   16:06:40.201.29-Jun-2020 393.75 1574.64  873.30 856.96 65.96 1.00
   16:06:40.401.29-Jun-2020 393.95 1574.73  873.30 856.96 65.96 1.00
   16:06:40.601.29-Jun-2020 394.15 1574.72  873.30 856.96 65.96 1.00
   16:06:40.801.29-Jun-2020 394.35 1574.69  873.30 856.96 65.96 1.00
