~Version Information
 VERS.                  2.0:   CWLS log ASCII Standard -VERSION 2.0
 WRAP.                   NO:   One line per depth step
~Well Information Block
#MNEM.UNIT     VALUE/NAME     DESCRIPTION
#---------     -----------    ---------------------------
 STRT.S             23:30:34 30-Jun-20: START TIME 23:30:34 30-Jun-20
 STOP.S             23:39:34 30-Jun-20: STOP TIME  23:39:34 30-Jun-20
 STEP.S                   0.00: STEP TIME
 NULL.                 -999.25: NULL VALUE
 DFWT.                        :  DIST FWL TEXT
 DFST.                        :  DIST FSL TEXT
 DMF .             Drill Floor:  DRILL MEAS FROM
 STIM.      09.59.28 01-Jun-20:  START TIME
 DATE.      09.59.28 01-Jun-20:  END TIME
 SPUD.               01-Jun-20:  SPUD DATE
 NREF.                    Grid:  NORTH REFERENCE
 HPTY.       Minimum Curvature:  HOLE POS TYPE
 DMOD.             Drill Model:  DRILL MOD DESC
 SVYD.                  Survey:  SURVEY DESC
 ILTD.               Lithology:  INTERP LTH DESC
 FTOP.          Formation Tops:  FORM TOPS DESC
 SON .        AZ-XX-0905455768:  JOB NUMBER
 WTYP.                Deviated:  WELL TYPE
 COMP.     BP Exploration(Caspian Sea):  COMPANY
 BASE.              Azerbaijan:  LOGGING EQUIPMENT BASE LOCATION
 REGN.                   EESSA:  REGION
 CTRY.              Azerbaijan:  COUNTRY NAME
 FLD .                     ACG:  FIELD NAME
 SRVC.          Turan Drilling:  CONTRACTOR
 WELL.                     B41:  WELL NAME
 RIG .           Central Azeri:  RIG NAME
 DCON.         Sperry Drilling:  DIRECTNL CONTR
 PDAT.          Mean Sea Level:  PERMANENT DATUM
 MDS .        Operator Entered:  MAG DATA SOURCE
 API .                        :  API NUMBER
 CNTY.                        :  COUNTY
 PROV.                        :  PROVINCE
 STAT.                        :  STATE
 UWI .                        :  UNIQUE WELL IDENTIFIER
 LOC .                        :  LOCATION
 LMF .             Drill Floor:  LOG MEASURED FROM
 TVDS.m                  43.29:  TVDSS CORRECTN
 LATI.deg                40.03:  LATITUDE
 LONG.deg                51.35:  LONGITUDE
 WHNS.m                  12.98:  WELL HEAD N/S
 WHEW.m                  -6.62:  WELL HEAD E/W
 UTMX.m              530128.28:  UTM X
 UTMY.m             4433192.49:  UTM Y
 DFWL.m                   0.00:  DISTANCE FWL
 DFSL.m                   0.00:  DISTANCE FSL
 SDEP.m                 378.00:  START DEPTH
 TDD .m                   0.00:  TOTAL DEPTH (DRILLER)
 VSDR.deg               296.18:  VERT SEC DIRECT
 GVFD.g                   1.00:  GRAVITY FIELD
 MFLD.nT              50253.00:  MAGNETIC FIELD
 MDIP.deg                59.49:  MAGNETIC DIP
 MDEC.deg                 6.44:  MAGNETIC DECL
 GRDC.deg                 0.22:  GRID CORRECTION
 AZTC.deg                 6.22:  AZM TOTAL CORR
 EPD .m                   0.00:  ELEVATION
 EGL .m                   0.00:  GROUND ELEVATION
 WDMS.m                 128.20:  WD ELEV
 APD .m                  43.29:  DEPTH ABOVE PD
 AGAP.m                  43.29:  AIR GAP
 VSEW.m                  -6.62:  VERT SEC E/W
 VSNS.m                  12.98:  VERT SEC N/S
 EKB .m                  43.29:  KB ELEVATION
 EDF .m                  43.29:  DF ELEVATION
 TDL .m                1152.00:  TOTAL DEPTH (LOGGER)
 VSC .                       0:  VS TO CLOSURE
 MAGU.                 1848525:  MAGUTM CHECKSUM
~Parameter Information Block
#MNEM.UNIT       Value        Description
#---------     -----------    ---------------------------
 AV  .mps                 0.40:  Ann Velocity 
 AVMX.mps                 1.56:  Max Ann Veloc 
 AZIF.deg               300.46:  Azm, Final 
 BHAT.        Rotary Steerable:  BHA Type 
 BROT.°/30m               0.40:  Build Rotating 
 BS  .in                 17.50:  Bit Size 
 BSZ .in                 17.50:  Bit Size 
 BTPL.psig              300.00:  Bit Press Loss 
 CABU.                      No:  Customer Abuse 
 CGEO.          Parviz Guliyev:  Customer Geo 
 COMM.                     œº_:  Run Comments 1 
 TCS .hr                108.13:  Time Ciculation Ended 
 CV  .mps                 0.50:  Crit Velocity 
 CVMX.mps                 2.01:  Max Crit Veloc 
 DD1 .          Fariz Nahmatov:  Direct Drillr 1 
 DD2 .             Ehab Radwan:  Direct Drillr 2 
 DDSV.               Geo-Pilot:  DD Service 
 DEFF.%                  99.00:  % Det Eff 
 DLRX.°/30m               0.50:  Dogleg Rot Max 
 DLSO.°/30m               2.80:  Dogleg Oriented 
 DLSX.°/30m               3.90:  Dogleg Str Max 
 DRET.      09.30.04 03-Jul-20:  Drill End Time 
 DRST.      18.33.04 28-Jun-20:  Drill Start Tim 
 DTIM.hr                 55.83:  Time Drilling 
 EDEP.m                1952.00:  End Depth 
 ENG1.      Bakhtiyar Jabbarli:  Engineer 1 
 ENG2.         Farhad Orujzade:  Engineer 2 
 ENG3.          Rustam Safarov:  Engineer 3 
 ETIM.      01.33.04 04-Jul-20:  End Time 
 FLOI.gpm              1050.00:  Flow In 
 FLON.gpm               950.00:  Flow In Min 
 FLOS.cptm                0.10:  Fluid Loss 
 FLOX.gpm              1150.00:  Flow In Max 
 HFLO.                      No:  High Flow 
 HPRE.                      No:  High Pressure 
 HTEM.                      No:  High Temp 
 HYDO.m                   1.80:  Hydro Offset 
 IFIN.deg                75.26:  Inc, Final 
 IMAX.deg                75.38:  Inc Max 
 IMIN.deg                22.84:  Inc Min 
 IMND.m                 832.38:  Inc Min Depth 
 IMXD.m                1936.55:  Inc Max Depth 
 JARR.                      No:  Jarring 
 LETM.      17.40.00 04-Jul-20:  Log End Time 
 LOST.hr                     0:  Lost Rig Time 
 LSTM.      12.33.04 28-Jun-20:  Log Start Time 
 MDCL.ppm             49500.00:  Mud Chlorides 
 MDES.     Inversion Oil/Synthetic:  Mud Desc 
 DFD .sg                  1.46:  Mud Density 
 MDMN.sg                  1.46:  Dens Mud Min 
 MDMX.sg                  1.46:  Dens Mud Max 
 MOIL.                      70:  Run Mud Oil % 
 MOWR.                   70:30:  Run Mud OWR 
 MSND.                     0.5:  Run Mud Sand % 
 MSOL.                   19.89:  Run Mud Solids% 
 DFV .spqt               72.00:  Mud Viscosity 
 MWOD.in                  9.50:  MWD Tool OD 
 MWSI.                      No:  Serv Intrp, MWD 
 OTIM.hr                146.53:  Time Operating 
 PCON.           Look Like New:  Pad Condition 
 PMAX.psia             2900.00:  Press Op, Max 
 PV  .cP                 38.00:  Mud PV 
 RUN .                     600:  Run Number 
 ROPA.m/hr               22.00:  ROP Avg 
 ROPN.m/hr               10.00:  ROP Min 
 ROPX.m/hr              263.00:  ROP Max 
 RPMA.rpm               155.00:  RPM Surface Avg 
 RPMN.rpm               140.00:  RPM Surface Min 
 RPMX.rpm               160.00:  RPM Surface Max 
 RRUN.                    0600:  Rig Run Number 
 RTIM.hr                  5.00:  Time Reaming 
 SAZI.deg               300.08:  Azm, Start 
 SDEP.m                 800.00:  Start Depth 
 SIDD.                      No:  Serv Intrp, DD 
 SINC.deg                22.84:  Inc, Start 
 SPPA.psig             3000.00:  SPP Avg 
 SPPN.psig             1900.00:  SPP Min 
 SPPX.psig             3200.00:  SPP Max 
 STIM.      12.30.04 28-Jun-20:  Start Time 
 SVCS.                 DD, MWD:  Services 
 SVER.                    9.20:  Sperry Version 
 TDAT.m                1952.00:  Tot Depth Attmp 
 TDDF.                      No:  Trip for DD 
 TDLG.m                1152.00:  Tot Depth Loggd 
 TFF .                      No:  Trip for Fail 
 TQAA.f-kp                8.00:  Torque Abs Avg 
 TQAN.f-kp                5.00:  Torque Abs Min 
 TQAX.f-kp               14.00:  Torque Abs Max 
 TRRT.°/30m               0.50:  Turn Rotating 
 MRT .                  EWR-M5:  Maximum Recorded Temperature 
 TTMX.degC               69.00:  Max Tool Temp 
 VS01.                90610313:  Virtual Str1 SN 
 VS02.                90613431:  Virtual Str2 SN 
 VS03.                90615410:  Virtual Str3 SN 
 WBMN.klb                 6.00:  WOB Min 
 WITN.            Bruce Cheyne:  Customer Rep 
 WITN.             Ayaz Aliyev:  Customer Rep 2 
 WOBA.klb                 6.00:  WOB Avg 
 WOBX.klb                10.00:  WOB Max 
 YP  .lhf2               36.00:  Yield Point 
~Curve Information Block
#MNEM.UNIT                 API CODE     Curve Description
#---------               -----------    ---------------------------
 TIME.HHMMSS            00 000 000 000:  GT Time & Date
 GTET.sec               00 000 000 000:  GT Elapsed Test Time
 GTPQH.psia             00 000 000 000:  GT HR Quartz Pressure
 GTDEPTH.m              00 000 000 000:  GT Depth
 GTTVD.m                00 000 000 000:  GT True Vertical Depth
 GTTQ.degC              00 000 000 000:  GT Quartz Temperature
 GTTN.NONE              00 000 000 000:  GT Test Number
#Other Information
#
#WARRANTY: Halliburton will use its best efforts to furnish customers with 
#accurate information and interpretations that are part of, and incident to, the services 
#provided.  However, Halliburton cannot and does not warrant the accuracy 
#or correctness of such information and interpretations.  Under no circumstances should any 
#such information or interpretation be relied upon as the sole basis for any drilling, 
#completion, production, or financial decision or any procedure involving any risk to the 
#safety of any drilling venture, drilling rig or its crew or any other third party.  The 
#Customer has full responsibility for all drilling, completion and production operation.  
#Halliburton makes no representations or warranties, either expressed or 
#implied, including, but not limited to, the implied warranties of merchantability or fitness 
#for a particular purpose, with respect to the services rendered.  In no event will 
#Halliburton be liable for failure to obtain any particular results or for 
#any damages, including, but not limited to, indirect, special or consequential damages, 
#resulting from the use of any information or interpretation provided by Halliburton.
#
~A           TIME            GTET   GTPQH  GTDEPTH  GTTVD  GTTQ  GTTN 
# ...
   23:37:51.612.30-Jun-2020 437.13 2109.98 1161.05 1096.50 59.68 4.00
   23:37:51.812.30-Jun-2020 437.33 2109.98 1161.05 1096.50 59.68 4.00
   23:37:52.012.30-Jun-2020 437.53 2109.96 1161.05 1096.50 59.68 4.00
   23:37:52.212.30-Jun-2020 437.73 2109.97 1161.05 1096.50 59.68 4.00
   23:37:52.412.30-Jun-2020 437.93 2109.98 1161.05 1096.50 59.68 4.00
   23:37:52.612.30-Jun-2020 438.13 2109.97 1161.05 1096.50 59.68 4.00
   23:37:52.812.30-Jun-2020 438.33 2109.97 1161.05 1096.50 59.68 4.00
   23:37:53.013.30-Jun-2020 438.53 2109.97 1161.05 1096.50 59.68 4.00
   23:37:53.213.30-Jun-2020 438.73 2109.98 1161.05 1096.50 59.68 4.00
   23:37:53.413.30-Jun-2020 438.93 2109.99 1161.05 1096.50 59.68 4.00
   23:37:53.613.30-Jun-2020 439.13 2109.97 1161.05 1096.50 59.68 4.00
   23:37:53.813.30-Jun-2020 439.33 2109.97 1161.05 1096.50 59.68 4.00
   23:37:54.013.30-Jun-2020 439.53 2110.00 1161.05 1096.50 59.68 4.00
   23:37:54.213.30-Jun-2020 439.73 2109.99 1161.05 1096.50 59.68 4.00
   23:37:54.413.30-Jun-2020 439.93 2109.98 1161.05 1096.50 59.68 4.00
   23:37:54.613.30-Jun-2020 440.13 2109.99 1161.05 1096.50 59.68 4.00
   23:37:54.813.30-Jun-2020 440.33 2109.99 1161.05 1096.50 59.68 4.00
   23:37:55.013.30-Jun-2020 440.53 2109.95 1161.05 1096.50 59.68 4.00
   23:37:55.213.30-Jun-2020 440.73 2109.99 1161.05 1096.50 59.68 4.00
   23:37:55.413.30-Jun-2020 440.93 2109.97 1161.05 1096.50 59.68 4.00
   23:37:55.613.30-Jun-2020 441.13 2109.98 1161.05 1096.50 59.68 4.00
   23:37:55.813.30-Jun-2020 441.33 2109.98 1161.05 1096.50 59.68 4.00
   23:37:56.013.30-Jun-2020 441.53 2109.96 1161.05 1096.50 59.68 4.00
   23:37:56.213.30-Jun-2020 441.73 2109.97 1161.05 1096.50 59.68 4.00
   23:37:56.414.30-Jun-2020 441.93 2110.00 1161.05 1096.50 59.68 4.00
   23:37:56.614.30-Jun-2020 442.13 2109.97 1161.05 1096.50 59.68 4.00
   23:37:56.814.30-Jun-2020 442.33 2109.97 1161.05 1096.50 59.68 4.00
   23:37:57.014.30-Jun-2020 442.53 2109.98 1161.05 1096.50 59.68 4.00
   23:37:57.214.30-Jun-2020 442.73 2109.97 1161.05 1096.50 59.68 4.00
   23:37:57.414.30-Jun-2020 442.93 2109.96 1161.05 1096.50 59.68 4.00
   23:37:57.614.30-Jun-2020 443.13 2109.97 1161.05 1096.50 59.68 4.00
   23:37:57.814.30-Jun-2020 443.33 2110.00 1161.05 1096.50 59.68 4.00
   23:37:58.014.30-Jun-2020 443.53 2109.98 1161.05 1096.50 59.68 4.00
   23:37:58.214.30-Jun-2020 443.73 2109.98 1161.05 1096.50 59.68 4.00
   23:37:58.414.30-Jun-2020 443.93 2109.97 1161.05 1096.50 59.68 4.00
   23:37:58.614.30-Jun-2020 444.13 2109.98 1161.05 1096.50 59.68 4.00
   23:37:58.814.30-Jun-2020 444.33 2109.98 1161.05 1096.50 59.68 4.00
   23:37:59.014.30-Jun-2020 444.53 2109.97 1161.05 1096.50 59.68 4.00
   23:37:59.214.30-Jun-2020 444.73 2109.99 1161.05 1096.50 59.68 4.00
   23:37:59.414.30-Jun-2020 444.93 2109.97 1161.05 1096.50 59.68 4.00
   23:37:59.614.30-Jun-2020 445.13 2109.97 1161.05 1096.50 59.68 4.00
   23:37:59.814.30-Jun-2020 445.33 2109.97 1161.05 1096.50 59.68 4.00
   23:38:00.015.30-Jun-2020 445.53 2109.98 1161.05 1096.50 59.68 4.00
   23:38:00.215.30-Jun-2020 445.73 2109.99 1161.05 1096.50 59.68 4.00
   23:38:00.415.30-Jun-2020 445.93 2109.98 1161.05 1096.50 59.68 4.00
   23:38:00.615.30-Jun-2020 446.13 2109.97 1161.05 1096.50 59.68 4.00
   23:38:00.815.30-Jun-2020 446.33 2109.98 1161.05 1096.50 59.68 4.00
   23:38:01.015.30-Jun-2020 446.53 2109.97 1161.05 1096.50 59.68 4.00
   23:38:01.215.30-Jun-2020 446.73 2109.95 1161.05 1096.50 59.68 4.00
   23:38:01.415.30-Jun-2020 446.93 2109.98 1161.05 1096.50 59.68 4.00
   23:38:01.615.30-Jun-2020 447.13 2109.99 1161.05 1096.50 59.68 4.00
   23:38:01.815.30-Jun-2020 447.33 2109.99 1161.05 1096.50 59.68 4.00
   23:38:02.015.30-Jun-2020 447.53 2109.98 1161.05 1096.50 59.68 4.00
   23:38:02.215.30-Jun-2020 447.73 2109.97 1161.05 1096.50 59.68 4.00
   23:38:02.415.30-Jun-2020 447.93 2109.98 1161.05 1096.50 59.68 4.00
   23:38:02.615.30-Jun-2020 448.13 2109.97 1161.05 1096.50 59.68 4.00
   23:38:02.815.30-Jun-2020 448.33 2109.97 1161.05 1096.50 59.68 4.00
   23:38:03.015.30-Jun-2020 448.53 2109.98 1161.05 1096.50 59.68 4.00
   23:38:03.215.30-Jun-2020 448.73 2109.98 1161.05 1096.50 59.68 4.00
   23:38:03.416.30-Jun-2020 448.93 2109.97 1161.05 1096.50 59.68 4.00
   23:38:03.616.30-Jun-2020 449.13 2109.97 1161.05 1096.50 59.68 4.00
   23:38:03.816.30-Jun-2020 449.33 2109.97 1161.05 1096.50 59.68 4.00
   23:38:04.016.30-Jun-2020 449.53 2109.99 1161.05 1096.50 59.68 4.00
   23:38:04.216.30-Jun-2020 449.73 2109.99 1161.05 1096.50 59.68 4.00
   23:38:04.416.30-Jun-2020 449.93 2110.00 1161.05 1096.50 59.68 4.00
   23:38:04.616.30-Jun-2020 450.13 2109.95 1161.05 1096.50 59.68 4.00
   23:38:04.816.30-Jun-2020 450.33 2109.98 1161.05 1096.50 59.68 4.00
   23:38:05.016.30-Jun-2020 450.53 2110.00 1161.05 1096.50 59.68 4.00
   23:38:05.216.30-Jun-2020 450.73 2109.99 1161.05 1096.50 59.68 4.00
   23:38:05.416.30-Jun-2020 450.93 2109.98 1161.05 1096.50 59.68 4.00
   23:38:05.616.30-Jun-2020 451.13 2110.00 1161.05 1096.50 59.68 4.00
   23:38:05.816.30-Jun-2020 451.33 2109.95 1161.05 1096.50 59.68 4.00
   23:38:06.016.30-Jun-2020 451.53 2109.98 1161.05 1096.50 59.68 4.00
   23:38:06.216.30-Jun-2020 451.73 2110.00 1161.05 1096.50 59.68 4.00
   23:38:06.416.30-Jun-2020 451.93 2109.98 1161.05 1096.50 59.68 4.00
   23:38:06.616.30-Jun-2020 452.13 2109.99 1161.05 1096.50 59.68 4.00
   23:38:06.817.30-Jun-2020 452.33 2109.99 1161.05 1096.50 59.68 4.00
   23:38:07.017.30-Jun-2020 452.53 2109.99 1161.05 1096.50 59.68 4.00
   23:38:07.217.30-Jun-2020 452.73 2109.95 1161.05 1096.50 59.68 4.00
   23:38:07.417.30-Jun-2020 452.93 2109.99 1161.05 1096.50 59.68 4.00
   23:38:07.617.30-Jun-2020 453.13 2110.01 1161.05 1096.50 59.68 4.00
   23:38:07.817.30-Jun-2020 453.33 2110.01 1161.05 1096.50 59.68 4.00
   23:38:08.017.30-Jun-2020 453.53 2109.97 1161.05 1096.50 59.68 4.00
   23:38:08.217.30-Jun-2020 453.73 2109.98 1161.05 1096.50 59.68 4.00
   23:38:08.417.30-Jun-2020 453.93 2109.99 1161.05 1096.50 59.68 4.00
   23:38:08.617.30-Jun-2020 454.13 2109.99 1161.05 1096.50 59.68 4.00
   23:38:08.817.30-Jun-2020 454.33 2109.99 1161.05 1096.50 59.68 4.00
   23:38:09.017.30-Jun-2020 454.53 2109.98 1161.05 1096.50 59.68 4.00
   23:38:09.217.30-Jun-2020 454.73 2109.99 1161.05 1096.50 59.68 4.00
   23:38:09.417.30-Jun-2020 454.93 2109.99 1161.05 1096.50 59.68 4.00
   23:38:09.617.30-Jun-2020 455.13 2109.97 1161.05 1096.50 59.68 4.00
   23:38:09.817.30-Jun-2020 455.33 2109.99 1161.05 1096.50 59.68 4.00
   23:38:10.017.30-Jun-2020 455.53 2109.99 1161.05 1096.50 59.68 4.00
   23:38:10.218.30-Jun-2020 455.73 2109.98 1161.05 1096.50 59.68 4.00
   23:38:10.418.30-Jun-2020 455.93 2110.00 1161.05 1096.50 59.68 4.00
   23:38:10.618.30-Jun-2020 456.13 2109.98 1161.05 1096.50 59.68 4.00
   23:38:10.818.30-Jun-2020 456.33 2109.98 1161.05 1096.50 59.68 4.00
   23:38:11.018.30-Jun-2020 456.53 2109.96 1161.05 1096.50 59.68 4.00
   23:38:11.218.30-Jun-2020 456.73 2110.01 1161.05 1096.50 59.68 4.00
   23:38:11.418.30-Jun-2020 456.93 2109.98 1161.05 1096.50 59.68 4.00
   23:38:11.618.30-Jun-2020 457.13 2109.98 1161.05 1096.50 59.68 4.00
   23:38:11.818.30-Jun-2020 457.33 2109.98 1161.05 1096.50 59.68 4.00
   23:38:12.018.30-Jun-2020 457.53 2109.99 1161.05 1096.50 59.68 4.00
   23:38:12.218.30-Jun-2020 457.73 2109.99 1161.05 1096.50 59.68 4.00
   23:38:12.418.30-Jun-2020 457.93 2109.98 1161.05 1096.50 59.68 4.00
   23:38:12.618.30-Jun-2020 458.13 2109.98 1161.05 1096.50 59.68 4.00
   23:38:12.818.30-Jun-2020 458.33 2109.98 1161.05 1096.50 59.68 4.00
   23:38:13.018.30-Jun-2020 458.53 2109.99 1161.05 1096.50 59.68 4.00
   23:38:13.218.30-Jun-2020 458.73 2109.98 1161.05 1096.50 59.68 4.00
   23:38:13.418.30-Jun-2020 458.93 2109.97 1161.05 1096.50 59.68 4.00
   23:38:13.619.30-Jun-2020 459.13 2110.01 1161.05 1096.50 59.68 4.00
   23:38:13.819.30-Jun-2020 459.33 2110.01 1161.05 1096.50 59.68 4.00
   23:38:14.019.30-Jun-2020 459.53 2110.00 1161.05 1096.50 59.68 4.00
   23:38:14.219.30-Jun-2020 459.73 2109.99 1161.05 1096.50 59.68 4.00
   23:38:14.419.30-Jun-2020 459.93 2109.96 1161.05 1096.50 59.68 4.00
