~Version Information
 VERS.                  2.0:   CWLS log ASCII Standard -VERSION 2.0
 WRAP.                   NO:   One line per depth step
~Well Information Block
#MNEM.UNIT     VALUE/NAME     DESCRIPTION
#---------     -----------    ---------------------------
 STRT.S             20:59:46 30-Jun-20: START TIME 20:59:46 30-Jun-20
 STOP.S             21:08:48 30-Jun-20: STOP TIME  21:08:48 30-Jun-20
 STEP.S                   0.00: STEP TIME
 NULL.                 -999.25: NULL VALUE
 DFWT.                        :  DIST FWL TEXT
 DFST.                        :  DIST FSL TEXT
 DMF .             Drill Floor:  DRILL MEAS FROM
 STIM.      09.59.28 01-Jun-20:  START TIME
 DATE.      09.59.28 01-Jun-20:  END TIME
 SPUD.               01-Jun-20:  SPUD DATE
 NREF.                    Grid:  NORTH REFERENCE
 HPTY.       Minimum Curvature:  HOLE POS TYPE
 DMOD.             Drill Model:  DRILL MOD DESC
 SVYD.                  Survey:  SURVEY DESC
 ILTD.               Lithology:  INTERP LTH DESC
 FTOP.          Formation Tops:  FORM TOPS DESC
 SON .        AZ-XX-0905455768:  JOB NUMBER
 WTYP.                Deviated:  WELL TYPE
 COMP.     BP Exploration(Caspian Sea):  COMPANY
 BASE.              Azerbaijan:  LOGGING EQUIPMENT BASE LOCATION
 REGN.                   EESSA:  REGION
 CTRY.              Azerbaijan:  COUNTRY NAME
 FLD .                     ACG:  FIELD NAME
 SRVC.          Turan Drilling:  CONTRACTOR
 WELL.                     B41:  WELL NAME
 RIG .           Central Azeri:  RIG NAME
 DCON.         Sperry Drilling:  DIRECTNL CONTR
 PDAT.          Mean Sea Level:  PERMANENT DATUM
 MDS .        Operator Entered:  MAG DATA SOURCE
 API .                        :  API NUMBER
 CNTY.                        :  COUNTY
 PROV.                        :  PROVINCE
 STAT.                        :  STATE
 UWI .                        :  UNIQUE WELL IDENTIFIER
 LOC .                        :  LOCATION
 LMF .             Drill Floor:  LOG MEASURED FROM
 TVDS.m                  43.29:  TVDSS CORRECTN
 LATI.deg                40.03:  LATITUDE
 LONG.deg                51.35:  LONGITUDE
 WHNS.m                  12.98:  WELL HEAD N/S
 WHEW.m                  -6.62:  WELL HEAD E/W
 UTMX.m              530128.28:  UTM X
 UTMY.m             4433192.49:  UTM Y
 DFWL.m                   0.00:  DISTANCE FWL
 DFSL.m                   0.00:  DISTANCE FSL
 SDEP.m                 378.00:  START DEPTH
 TDD .m                   0.00:  TOTAL DEPTH (DRILLER)
 VSDR.deg               296.18:  VERT SEC DIRECT
 GVFD.g                   1.00:  GRAVITY FIELD
 MFLD.nT              50253.00:  MAGNETIC FIELD
 MDIP.deg                59.49:  MAGNETIC DIP
 MDEC.deg                 6.44:  MAGNETIC DECL
 GRDC.deg                 0.22:  GRID CORRECTION
 AZTC.deg                 6.22:  AZM TOTAL CORR
 EPD .m                   0.00:  ELEVATION
 EGL .m                   0.00:  GROUND ELEVATION
 WDMS.m                 128.20:  WD ELEV
 APD .m                  43.29:  DEPTH ABOVE PD
 AGAP.m                  43.29:  AIR GAP
 VSEW.m                  -6.62:  VERT SEC E/W
 VSNS.m                  12.98:  VERT SEC N/S
 EKB .m                  43.29:  KB ELEVATION
 EDF .m                  43.29:  DF ELEVATION
 TDL .m                1152.00:  TOTAL DEPTH (LOGGER)
 VSC .                       0:  VS TO CLOSURE
 MAGU.                 1848525:  MAGUTM CHECKSUM
~Parameter Information Block
#MNEM.UNIT       Value        Description
#---------     -----------    ---------------------------
 AV  .mps                 0.40:  Ann Velocity 
 AVMX.mps                 1.56:  Max Ann Veloc 
 AZIF.deg               300.46:  Azm, Final 
 BHAT.        Rotary Steerable:  BHA Type 
 BROT.°/30m               0.40:  Build Rotating 
 BS  .in                 17.50:  Bit Size 
 BSZ .in                 17.50:  Bit Size 
 BTPL.psig              300.00:  Bit Press Loss 
 CABU.                      No:  Customer Abuse 
 CGEO.          Parviz Guliyev:  Customer Geo 
 COMM.                     ÜRt:  Run Comments 1 
 TCS .hr                108.13:  Time Ciculation Ended 
 CV  .mps                 0.50:  Crit Velocity 
 CVMX.mps                 2.01:  Max Crit Veloc 
 DD1 .          Fariz Nahmatov:  Direct Drillr 1 
 DD2 .             Ehab Radwan:  Direct Drillr 2 
 DDSV.               Geo-Pilot:  DD Service 
 DEFF.%                  99.00:  % Det Eff 
 DLRX.°/30m               0.50:  Dogleg Rot Max 
 DLSO.°/30m               2.80:  Dogleg Oriented 
 DLSX.°/30m               3.90:  Dogleg Str Max 
 DRET.      09.30.04 03-Jul-20:  Drill End Time 
 DRST.      18.33.04 28-Jun-20:  Drill Start Tim 
 DTIM.hr                 55.83:  Time Drilling 
 EDEP.m                1952.00:  End Depth 
 ENG1.      Bakhtiyar Jabbarli:  Engineer 1 
 ENG2.         Farhad Orujzade:  Engineer 2 
 ENG3.          Rustam Safarov:  Engineer 3 
 ETIM.      01.33.04 04-Jul-20:  End Time 
 FLOI.gpm              1050.00:  Flow In 
 FLON.gpm               950.00:  Flow In Min 
 FLOS.cptm                0.10:  Fluid Loss 
 FLOX.gpm              1150.00:  Flow In Max 
 HFLO.                      No:  High Flow 
 HPRE.                      No:  High Pressure 
 HTEM.                      No:  High Temp 
 HYDO.m                   1.80:  Hydro Offset 
 IFIN.deg                75.26:  Inc, Final 
 IMAX.deg                75.38:  Inc Max 
 IMIN.deg                22.84:  Inc Min 
 IMND.m                 832.38:  Inc Min Depth 
 IMXD.m                1936.55:  Inc Max Depth 
 JARR.                      No:  Jarring 
 LETM.      17.40.00 04-Jul-20:  Log End Time 
 LOST.hr                     0:  Lost Rig Time 
 LSTM.      12.33.04 28-Jun-20:  Log Start Time 
 MDCL.ppm             49500.00:  Mud Chlorides 
 MDES.     Inversion Oil/Synthetic:  Mud Desc 
 DFD .sg                  1.46:  Mud Density 
 MDMN.sg                  1.46:  Dens Mud Min 
 MDMX.sg                  1.46:  Dens Mud Max 
 MOIL.                      70:  Run Mud Oil % 
 MOWR.                   70:30:  Run Mud OWR 
 MSND.                     0.5:  Run Mud Sand % 
 MSOL.                   19.89:  Run Mud Solids% 
 DFV .spqt               72.00:  Mud Viscosity 
 MWOD.in                  9.50:  MWD Tool OD 
 MWSI.                      No:  Serv Intrp, MWD 
 OTIM.hr                146.53:  Time Operating 
 PCON.           Look Like New:  Pad Condition 
 PMAX.psia             2900.00:  Press Op, Max 
 PV  .cP                 38.00:  Mud PV 
 RUN .                     600:  Run Number 
 ROPA.m/hr               22.00:  ROP Avg 
 ROPN.m/hr               10.00:  ROP Min 
 ROPX.m/hr              263.00:  ROP Max 
 RPMA.rpm               155.00:  RPM Surface Avg 
 RPMN.rpm               140.00:  RPM Surface Min 
 RPMX.rpm               160.00:  RPM Surface Max 
 RRUN.                    0600:  Rig Run Number 
 RTIM.hr                  5.00:  Time Reaming 
 SAZI.deg               300.08:  Azm, Start 
 SDEP.m                 800.00:  Start Depth 
 SIDD.                      No:  Serv Intrp, DD 
 SINC.deg                22.84:  Inc, Start 
 SPPA.psig             3000.00:  SPP Avg 
 SPPN.psig             1900.00:  SPP Min 
 SPPX.psig             3200.00:  SPP Max 
 STIM.      12.30.04 28-Jun-20:  Start Time 
 SVCS.                 DD, MWD:  Services 
 SVER.                    9.20:  Sperry Version 
 TDAT.m                1952.00:  Tot Depth Attmp 
 TDDF.                      No:  Trip for DD 
 TDLG.m                1152.00:  Tot Depth Loggd 
 TFF .                      No:  Trip for Fail 
 TQAA.f-kp                8.00:  Torque Abs Avg 
 TQAN.f-kp                5.00:  Torque Abs Min 
 TQAX.f-kp               14.00:  Torque Abs Max 
 TRRT.°/30m               0.50:  Turn Rotating 
 MRT .                  EWR-M5:  Maximum Recorded Temperature 
 TTMX.degC               69.00:  Max Tool Temp 
 VS01.                90610313:  Virtual Str1 SN 
 VS02.                90613431:  Virtual Str2 SN 
 VS03.                90615410:  Virtual Str3 SN 
 WBMN.klb                 6.00:  WOB Min 
 WITN.            Bruce Cheyne:  Customer Rep 
 WITN.             Ayaz Aliyev:  Customer Rep 2 
 WOBA.klb                 6.00:  WOB Avg 
 WOBX.klb                10.00:  WOB Max 
 YP  .lhf2               36.00:  Yield Point 
~Curve Information Block
#MNEM.UNIT                 API CODE     Curve Description
#---------               -----------    ---------------------------
 TIME.HHMMSS            00 000 000 000:  GT Time & Date
 GTET.sec               00 000 000 000:  GT Elapsed Test Time
 GTPQH.psia             00 000 000 000:  GT HR Quartz Pressure
 GTDEPTH.m              00 000 000 000:  GT Depth
 GTTVD.m                00 000 000 000:  GT True Vertical Depth
 GTTQ.degC              00 000 000 000:  GT Quartz Temperature
 GTTN.NONE              00 000 000 000:  GT Test Number
#Other Information
#
#WARRANTY: Halliburton will use its best efforts to furnish customers with 
#accurate information and interpretations that are part of, and incident to, the services 
#provided.  However, Halliburton cannot and does not warrant the accuracy 
#or correctness of such information and interpretations.  Under no circumstances should any 
#such information or interpretation be relied upon as the sole basis for any drilling, 
#completion, production, or financial decision or any procedure involving any risk to the 
#safety of any drilling venture, drilling rig or its crew or any other third party.  The 
#Customer has full responsibility for all drilling, completion and production operation.  
#Halliburton makes no representations or warranties, either expressed or 
#implied, including, but not limited to, the implied warranties of merchantability or fitness 
#for a particular purpose, with respect to the services rendered.  In no event will 
#Halliburton be liable for failure to obtain any particular results or for 
#any damages, including, but not limited to, indirect, special or consequential damages, 
#resulting from the use of any information or interpretation provided by Halliburton.
#
~A           TIME            GTET   GTPQH  GTDEPTH  GTTVD  GTTQ  GTTN 
# ...
   21:02:04.789.30-Jun-2020 138.02 2105.44 1143.02 1083.79 62.72 3.00
   21:02:04.990.30-Jun-2020 138.22 2105.44 1143.02 1083.79 62.72 3.00
   21:02:05.190.30-Jun-2020 138.42 2105.43 1143.02 1083.79 62.71 3.00
   21:02:05.390.30-Jun-2020 138.62 2105.42 1143.02 1083.79 62.71 3.00
   21:02:05.590.30-Jun-2020 138.82 2105.36 1143.02 1083.79 62.71 3.00
   21:02:05.790.30-Jun-2020 139.02 2105.40 1143.02 1083.79 62.71 3.00
   21:02:05.990.30-Jun-2020 139.22 2105.40 1143.02 1083.79 62.71 3.00
   21:02:06.190.30-Jun-2020 139.42 2105.43 1143.02 1083.79 62.71 3.00
   21:02:06.390.30-Jun-2020 139.62 2105.41 1143.02 1083.79 62.71 3.00
   21:02:06.590.30-Jun-2020 139.82 2105.41 1143.02 1083.79 62.71 3.00
   21:02:06.790.30-Jun-2020 140.03 2105.39 1143.02 1083.79 62.71 3.00
   21:02:06.990.30-Jun-2020 140.23 2105.39 1143.02 1083.79 62.71 3.00
   21:02:07.190.30-Jun-2020 140.43 2105.39 1143.02 1083.79 62.71 3.00
   21:02:07.390.30-Jun-2020 140.63 2105.38 1143.02 1083.79 62.71 3.00
   21:02:07.590.30-Jun-2020 140.83 2105.38 1143.02 1083.79 62.71 3.00
   21:02:07.790.30-Jun-2020 141.03 2105.37 1143.02 1083.79 62.71 3.00
   21:02:07.990.30-Jun-2020 141.23 2105.37 1143.02 1083.79 62.71 3.00
   21:02:08.190.30-Jun-2020 141.43 2105.38 1143.02 1083.79 62.71 3.00
   21:02:08.390.30-Jun-2020 141.63 2105.38 1143.02 1083.79 62.71 3.00
   21:02:08.590.30-Jun-2020 141.83 2105.39 1143.02 1083.79 62.71 3.00
   21:02:08.790.30-Jun-2020 142.03 2105.39 1143.02 1083.79 62.71 3.00
   21:02:08.990.30-Jun-2020 142.23 2105.39 1143.02 1083.79 62.71 3.00
   21:02:09.190.30-Jun-2020 142.43 2105.30 1143.02 1083.79 62.71 3.00
   21:02:09.390.30-Jun-2020 142.63 2105.37 1143.02 1083.79 62.71 3.00
   21:02:09.590.30-Jun-2020 142.83 2105.39 1143.02 1083.79 62.71 3.00
   21:02:09.790.30-Jun-2020 143.03 2105.37 1143.02 1083.79 62.71 3.00
   21:02:09.990.30-Jun-2020 143.23 2105.37 1143.02 1083.79 62.71 3.00
   21:02:10.190.30-Jun-2020 143.43 2105.38 1143.02 1083.79 62.71 3.00
   21:02:10.390.30-Jun-2020 143.63 2105.38 1143.02 1083.79 62.71 3.00
   21:02:10.591.30-Jun-2020 143.83 2105.36 1143.02 1083.79 62.71 3.00
   21:02:10.791.30-Jun-2020 144.03 2105.37 1143.02 1083.79 62.71 3.00
   21:02:10.991.30-Jun-2020 144.23 2105.37 1143.02 1083.79 62.71 3.00
   21:02:11.191.30-Jun-2020 144.43 2105.36 1143.02 1083.79 62.71 3.00
   21:02:11.391.30-Jun-2020 144.63 2105.36 1143.02 1083.79 62.71 3.00
   21:02:11.591.30-Jun-2020 144.83 2105.30 1143.02 1083.79 62.71 3.00
   21:02:11.791.30-Jun-2020 145.03 2105.41 1143.02 1083.79 62.70 3.00
   21:02:11.991.30-Jun-2020 145.23 2105.42 1143.02 1083.79 62.70 3.00
   21:02:12.191.30-Jun-2020 145.43 2105.41 1143.02 1083.79 62.70 3.00
   21:02:12.391.30-Jun-2020 145.63 2105.38 1143.02 1083.79 62.70 3.00
   21:02:12.591.30-Jun-2020 145.83 2105.39 1143.02 1083.79 62.70 3.00
   21:02:12.791.30-Jun-2020 146.03 2105.35 1143.02 1083.79 62.70 3.00
   21:02:12.991.30-Jun-2020 146.23 2105.35 1143.02 1083.79 62.70 3.00
   21:02:13.191.30-Jun-2020 146.43 2105.40 1143.02 1083.79 62.70 3.00
   21:02:13.391.30-Jun-2020 146.63 2105.39 1143.02 1083.79 62.70 3.00
   21:02:13.591.30-Jun-2020 146.83 2105.39 1143.02 1083.79 62.70 3.00
   21:02:13.791.30-Jun-2020 147.03 2105.33 1143.02 1083.79 62.70 3.00
   21:02:13.991.30-Jun-2020 147.23 2105.33 1143.02 1083.79 62.70 3.00
   21:02:14.191.30-Jun-2020 147.43 2105.45 1143.02 1083.79 62.70 3.00
   21:02:14.391.30-Jun-2020 147.63 2105.40 1143.02 1083.79 62.70 3.00
   21:02:14.591.30-Jun-2020 147.83 2105.43 1143.02 1083.79 62.70 3.00
   21:02:14.791.30-Jun-2020 148.03 2105.41 1143.02 1083.79 62.70 3.00
   21:02:14.991.30-Jun-2020 148.23 2105.41 1143.02 1083.79 62.70 3.00
   21:02:15.191.30-Jun-2020 148.43 2105.40 1143.02 1083.79 62.70 3.00
   21:02:15.391.30-Jun-2020 148.63 2105.43 1143.02 1083.79 62.70 3.00
   21:02:15.591.30-Jun-2020 148.83 2105.40 1143.02 1083.79 62.70 3.00
   21:02:15.791.30-Jun-2020 149.03 2105.39 1143.02 1083.79 62.70 3.00
   21:02:15.991.30-Jun-2020 149.23 2105.39 1143.02 1083.79 62.70 3.00
   21:02:16.192.30-Jun-2020 149.43 2105.39 1143.02 1083.79 62.70 3.00
   21:02:16.392.30-Jun-2020 149.63 2105.38 1143.02 1083.79 62.70 3.00
   21:02:16.592.30-Jun-2020 149.83 2105.39 1143.02 1083.79 62.70 3.00
   21:02:16.792.30-Jun-2020 150.03 2105.38 1143.02 1083.79 62.70 3.00
   21:02:16.992.30-Jun-2020 150.23 2105.38 1143.02 1083.79 62.70 3.00
   21:02:17.192.30-Jun-2020 150.43 2105.36 1143.02 1083.79 62.70 3.00
   21:02:17.392.30-Jun-2020 150.63 2105.36 1143.02 1083.79 62.70 3.00
   21:02:17.592.30-Jun-2020 150.83 2105.36 1143.02 1083.79 62.70 3.00
   21:02:17.792.30-Jun-2020 151.03 2105.36 1143.02 1083.79 62.70 3.00
   21:02:17.992.30-Jun-2020 151.23 2105.36 1143.02 1083.79 62.70 3.00
   21:02:18.192.30-Jun-2020 151.43 2105.37 1143.02 1083.79 62.70 3.00
   21:02:18.392.30-Jun-2020 151.63 2105.37 1143.02 1083.79 62.70 3.00
   21:02:18.592.30-Jun-2020 151.83 2105.33 1143.02 1083.79 62.69 3.00
   21:02:18.792.30-Jun-2020 152.03 2105.35 1143.02 1083.79 62.69 3.00
   21:02:18.992.30-Jun-2020 152.23 2105.39 1143.02 1083.79 62.69 3.00
   21:02:19.192.30-Jun-2020 152.43 2105.40 1143.02 1083.79 62.69 3.00
   21:02:19.392.30-Jun-2020 152.63 2105.38 1143.02 1083.79 62.69 3.00
   21:02:19.592.30-Jun-2020 152.83 2105.37 1143.02 1083.79 62.69 3.00
   21:02:19.792.30-Jun-2020 153.03 2105.38 1143.02 1083.79 62.69 3.00
   21:02:19.992.30-Jun-2020 153.23 2105.35 1143.02 1083.79 62.69 3.00
   21:02:20.192.30-Jun-2020 153.43 2105.36 1143.02 1083.79 62.69 3.00
   21:02:20.392.30-Jun-2020 153.63 2105.35 1143.02 1083.79 62.69 3.00
   21:02:20.592.30-Jun-2020 153.83 2105.37 1143.02 1083.79 62.69 3.00
   21:02:20.792.30-Jun-2020 154.03 2105.36 1143.02 1083.79 62.69 3.00
   21:02:20.992.30-Jun-2020 154.23 2105.36 1143.02 1083.79 62.69 3.00
   21:02:21.192.30-Jun-2020 154.43 2105.36 1143.02 1083.79 62.69 3.00
   21:02:21.392.30-Jun-2020 154.63 2105.41 1143.02 1083.79 62.69 3.00
   21:02:21.592.30-Jun-2020 154.83 2105.43 1143.02 1083.79 62.69 3.00
   21:02:21.793.30-Jun-2020 155.03 2105.39 1143.02 1083.79 62.69 3.00
   21:02:21.993.30-Jun-2020 155.23 2105.39 1143.02 1083.79 62.69 3.00
   21:02:22.193.30-Jun-2020 155.43 2105.32 1143.02 1083.79 62.69 3.00
   21:02:22.393.30-Jun-2020 155.63 2105.37 1143.02 1083.79 62.69 3.00
   21:02:22.593.30-Jun-2020 155.83 2105.37 1143.02 1083.79 62.69 3.00
   21:02:22.793.30-Jun-2020 156.03 2105.39 1143.02 1083.79 62.69 3.00
   21:02:22.993.30-Jun-2020 156.23 2105.39 1143.02 1083.79 62.69 3.00
   21:02:23.193.30-Jun-2020 156.43 2105.31 1143.02 1083.79 62.69 3.00
   21:02:23.393.30-Jun-2020 156.63 2105.40 1143.02 1083.79 62.69 3.00
   21:02:23.593.30-Jun-2020 156.83 2105.42 1143.02 1083.79 62.69 3.00
   21:02:23.793.30-Jun-2020 157.03 2105.41 1143.02 1083.79 62.69 3.00
   21:02:23.993.30-Jun-2020 157.23 2105.41 1143.02 1083.79 62.69 3.00
   21:02:24.193.30-Jun-2020 157.43 2105.39 1143.02 1083.79 62.69 3.00
   21:02:24.393.30-Jun-2020 157.63 2105.31 1143.02 1083.79 62.69 3.00
   21:02:24.593.30-Jun-2020 157.83 2105.39 1143.02 1083.79 62.69 3.00
   21:02:24.793.30-Jun-2020 158.03 2105.44 1143.02 1083.79 62.69 3.00
   21:02:24.993.30-Jun-2020 158.23 2105.44 1143.02 1083.79 62.69 3.00
   21:02:25.193.30-Jun-2020 158.43 2105.39 1143.02 1083.79 62.69 3.00
   21:02:25.393.30-Jun-2020 158.63 2105.40 1143.02 1083.79 62.68 3.00
   21:02:25.593.30-Jun-2020 158.83 2105.38 1143.02 1083.79 62.68 3.00
   21:02:25.793.30-Jun-2020 159.03 2105.37 1143.02 1083.79 62.68 3.00
   21:02:25.993.30-Jun-2020 159.23 2105.37 1143.02 1083.79 62.68 3.00
   21:02:26.193.30-Jun-2020 159.43 2105.37 1143.02 1083.79 62.68 3.00
   21:02:26.393.30-Jun-2020 159.63 2105.35 1143.02 1083.79 62.68 3.00
   21:02:26.593.30-Jun-2020 159.83 2105.35 1143.02 1083.79 62.68 3.00
   21:02:26.793.30-Jun-2020 160.03 2105.34 1143.02 1083.79 62.68 3.00
   21:02:26.993.30-Jun-2020 160.23 2105.34 1143.02 1083.79 62.68 3.00
   21:02:27.193.30-Jun-2020 160.43 2105.35 1143.02 1083.79 62.68 3.00
   21:02:27.394.30-Jun-2020 160.63 2105.37 1143.02 1083.79 62.68 3.00
   21:02:27.594.30-Jun-2020 160.83 2105.37 1143.02 1083.79 62.68 3.00
