~Version Information
 VERS.                  2.0:   CWLS log ASCII Standard -VERSION 2.0
 WRAP.                   NO:   One line per depth step
~Well Information Block
#MNEM.UNIT     VALUE/NAME     DESCRIPTION
#---------     -----------    ---------------------------
 STRT.S             06:27:04 01-Jul-20: START TIME 06:27:04 01-Jul-20
 STOP.S             06:36:04 01-Jul-20: STOP TIME  06:36:04 01-Jul-20
 STEP.S                   0.00: STEP TIME
 NULL.                 -999.25: NULL VALUE
 DFWT.                        :  DIST FWL TEXT
 DFST.                        :  DIST FSL TEXT
 DMF .             Drill Floor:  DRILL MEAS FROM
 STIM.      09.59.28 01-Jun-20:  START TIME
 DATE.      09.59.28 01-Jun-20:  END TIME
 SPUD.               01-Jun-20:  SPUD DATE
 NREF.                    Grid:  NORTH REFERENCE
 HPTY.       Minimum Curvature:  HOLE POS TYPE
 DMOD.             Drill Model:  DRILL MOD DESC
 SVYD.                  Survey:  SURVEY DESC
 ILTD.               Lithology:  INTERP LTH DESC
 FTOP.          Formation Tops:  FORM TOPS DESC
 SON .        AZ-XX-0905455768:  JOB NUMBER
 WTYP.                Deviated:  WELL TYPE
 COMP.     BP Exploration(Caspian Sea):  COMPANY
 BASE.              Azerbaijan:  LOGGING EQUIPMENT BASE LOCATION
 REGN.                   EESSA:  REGION
 CTRY.              Azerbaijan:  COUNTRY NAME
 FLD .                     ACG:  FIELD NAME
 SRVC.          Turan Drilling:  CONTRACTOR
 WELL.                     B41:  WELL NAME
 RIG .           Central Azeri:  RIG NAME
 DCON.         Sperry Drilling:  DIRECTNL CONTR
 PDAT.          Mean Sea Level:  PERMANENT DATUM
 MDS .        Operator Entered:  MAG DATA SOURCE
 API .                        :  API NUMBER
 CNTY.                        :  COUNTY
 PROV.                        :  PROVINCE
 STAT.                        :  STATE
 UWI .                        :  UNIQUE WELL IDENTIFIER
 LOC .                        :  LOCATION
 LMF .             Drill Floor:  LOG MEASURED FROM
 TVDS.m                  43.29:  TVDSS CORRECTN
 LATI.deg                40.03:  LATITUDE
 LONG.deg                51.35:  LONGITUDE
 WHNS.m                  12.98:  WELL HEAD N/S
 WHEW.m                  -6.62:  WELL HEAD E/W
 UTMX.m              530128.28:  UTM X
 UTMY.m             4433192.49:  UTM Y
 DFWL.m                   0.00:  DISTANCE FWL
 DFSL.m                   0.00:  DISTANCE FSL
 SDEP.m                 378.00:  START DEPTH
 TDD .m                   0.00:  TOTAL DEPTH (DRILLER)
 VSDR.deg               296.18:  VERT SEC DIRECT
 GVFD.g                   1.00:  GRAVITY FIELD
 MFLD.nT              50253.00:  MAGNETIC FIELD
 MDIP.deg                59.49:  MAGNETIC DIP
 MDEC.deg                 6.44:  MAGNETIC DECL
 GRDC.deg                 0.22:  GRID CORRECTION
 AZTC.deg                 6.22:  AZM TOTAL CORR
 EPD .m                   0.00:  ELEVATION
 EGL .m                   0.00:  GROUND ELEVATION
 WDMS.m                 128.20:  WD ELEV
 APD .m                  43.29:  DEPTH ABOVE PD
 AGAP.m                  43.29:  AIR GAP
 VSEW.m                  -6.62:  VERT SEC E/W
 VSNS.m                  12.98:  VERT SEC N/S
 EKB .m                  43.29:  KB ELEVATION
 EDF .m                  43.29:  DF ELEVATION
 TDL .m                1152.00:  TOTAL DEPTH (LOGGER)
 VSC .                       0:  VS TO CLOSURE
 MAGU.                 1848525:  MAGUTM CHECKSUM
~Parameter Information Block
#MNEM.UNIT       Value        Description
#---------     -----------    ---------------------------
 AV  .mps                 0.40:  Ann Velocity 
 AVMX.mps                 1.56:  Max Ann Veloc 
 AZIF.deg               300.46:  Azm, Final 
 BHAT.        Rotary Steerable:  BHA Type 
 BROT.°/30m               0.40:  Build Rotating 
 BS  .in                 17.50:  Bit Size 
 BSZ .in                 17.50:  Bit Size 
 BTPL.psig              300.00:  Bit Press Loss 
 CABU.                      No:  Customer Abuse 
 CGEO.          Parviz Guliyev:  Customer Geo 
 TCS .hr                108.13:  Time Ciculation Ended 
 CV  .mps                 0.50:  Crit Velocity 
 CVMX.mps                 2.01:  Max Crit Veloc 
 DD1 .          Fariz Nahmatov:  Direct Drillr 1 
 DD2 .             Ehab Radwan:  Direct Drillr 2 
 DDSV.               Geo-Pilot:  DD Service 
 DEFF.%                  99.00:  % Det Eff 
 DLRX.°/30m               0.50:  Dogleg Rot Max 
 DLSO.°/30m               2.80:  Dogleg Oriented 
 DLSX.°/30m               3.90:  Dogleg Str Max 
 DRET.      09.30.04 03-Jul-20:  Drill End Time 
 DRST.      18.33.04 28-Jun-20:  Drill Start Tim 
 DTIM.hr                 55.83:  Time Drilling 
 EDEP.m                1952.00:  End Depth 
 ENG1.      Bakhtiyar Jabbarli:  Engineer 1 
 ENG2.         Farhad Orujzade:  Engineer 2 
 ENG3.          Rustam Safarov:  Engineer 3 
 ETIM.      01.33.04 04-Jul-20:  End Time 
 FLOI.gpm              1050.00:  Flow In 
 FLON.gpm               950.00:  Flow In Min 
 FLOS.cptm                0.10:  Fluid Loss 
 FLOX.gpm              1150.00:  Flow In Max 
 HFLO.                      No:  High Flow 
 HPRE.                      No:  High Pressure 
 HTEM.                      No:  High Temp 
 HYDO.m                   1.80:  Hydro Offset 
 IFIN.deg                75.26:  Inc, Final 
 IMAX.deg                75.38:  Inc Max 
 IMIN.deg                22.84:  Inc Min 
 IMND.m                 832.38:  Inc Min Depth 
 IMXD.m                1936.55:  Inc Max Depth 
 JARR.                      No:  Jarring 
 LETM.      17.40.00 04-Jul-20:  Log End Time 
 LOST.hr                     0:  Lost Rig Time 
 LSTM.      12.33.04 28-Jun-20:  Log Start Time 
 MDCL.ppm             49500.00:  Mud Chlorides 
 MDES.     Inversion Oil/Synthetic:  Mud Desc 
 DFD .sg                  1.46:  Mud Density 
 MDMN.sg                  1.46:  Dens Mud Min 
 MDMX.sg                  1.46:  Dens Mud Max 
 MOIL.                      70:  Run Mud Oil % 
 MOWR.                   70:30:  Run Mud OWR 
 MSND.                     0.5:  Run Mud Sand % 
 MSOL.                   19.89:  Run Mud Solids% 
 DFV .spqt               72.00:  Mud Viscosity 
 MWOD.in                  9.50:  MWD Tool OD 
 MWSI.                      No:  Serv Intrp, MWD 
 OTIM.hr                146.53:  Time Operating 
 PCON.           Look Like New:  Pad Condition 
 PMAX.psia             2900.00:  Press Op, Max 
 PV  .cP                 38.00:  Mud PV 
 RUN .                     600:  Run Number 
 ROPA.m/hr               22.00:  ROP Avg 
 ROPN.m/hr               10.00:  ROP Min 
 ROPX.m/hr              263.00:  ROP Max 
 RPMA.rpm               155.00:  RPM Surface Avg 
 RPMN.rpm               140.00:  RPM Surface Min 
 RPMX.rpm               160.00:  RPM Surface Max 
 RRUN.                    0600:  Rig Run Number 
 RTIM.hr                  5.00:  Time Reaming 
 SAZI.deg               300.08:  Azm, Start 
 SDEP.m                 800.00:  Start Depth 
 SIDD.                      No:  Serv Intrp, DD 
 SINC.deg                22.84:  Inc, Start 
 SPPA.psig             3000.00:  SPP Avg 
 SPPN.psig             1900.00:  SPP Min 
 SPPX.psig             3200.00:  SPP Max 
 STIM.      12.30.04 28-Jun-20:  Start Time 
 SVCS.                 DD, MWD:  Services 
 SVER.                    9.20:  Sperry Version 
 TDAT.m                1952.00:  Tot Depth Attmp 
 TDDF.                      No:  Trip for DD 
 TDLG.m                1152.00:  Tot Depth Loggd 
 TFF .                      No:  Trip for Fail 
 TQAA.f-kp                8.00:  Torque Abs Avg 
 TQAN.f-kp                5.00:  Torque Abs Min 
 TQAX.f-kp               14.00:  Torque Abs Max 
 TRRT.°/30m               0.50:  Turn Rotating 
 MRT .                  EWR-M5:  Maximum Recorded Temperature 
 TTMX.degC               69.00:  Max Tool Temp 
 VS01.                90610313:  Virtual Str1 SN 
 VS02.                90613431:  Virtual Str2 SN 
 VS03.                90615410:  Virtual Str3 SN 
 WBMN.klb                 6.00:  WOB Min 
 WITN.            Bruce Cheyne:  Customer Rep 
 WITN.             Ayaz Aliyev:  Customer Rep 2 
 WOBA.klb                 6.00:  WOB Avg 
 WOBX.klb                10.00:  WOB Max 
 YP  .lhf2               36.00:  Yield Point 
~Curve Information Block
#MNEM.UNIT                 API CODE     Curve Description
#---------               -----------    ---------------------------
 TIME.HHMMSS            00 000 000 000:  GT Time & Date
 GTET.sec               00 000 000 000:  GT Elapsed Test Time
 GTPQH.psia             00 000 000 000:  GT HR Quartz Pressure
 GTDEPTH.m              00 000 000 000:  GT Depth
 GTTVD.m                00 000 000 000:  GT True Vertical Depth
 GTTQ.degC              00 000 000 000:  GT Quartz Temperature
 GTTN.NONE              00 000 000 000:  GT Test Number
#Other Information
#
#WARRANTY: Halliburton will use its best efforts to furnish customers with 
#accurate information and interpretations that are part of, and incident to, the services 
#provided.  However, Halliburton cannot and does not warrant the accuracy 
#or correctness of such information and interpretations.  Under no circumstances should any 
#such information or interpretation be relied upon as the sole basis for any drilling, 
#completion, production, or financial decision or any procedure involving any risk to the 
#safety of any drilling venture, drilling rig or its crew or any other third party.  The 
#Customer has full responsibility for all drilling, completion and production operation.  
#Halliburton makes no representations or warranties, either expressed or 
#implied, including, but not limited to, the implied warranties of merchantability or fitness 
#for a particular purpose, with respect to the services rendered.  In no event will 
#Halliburton be liable for failure to obtain any particular results or for 
#any damages, including, but not limited to, indirect, special or consequential damages, 
#resulting from the use of any information or interpretation provided by Halliburton.
#
~A           TIME            GTET   GTPQH  GTDEPTH  GTTVD  GTTQ  GTTN 
# ...
   06:33:35.000.01-Jul-2020 391.00 2168.52 1257.48 1159.06 54.75 5.00
   06:33:35.200.01-Jul-2020 391.20 2168.52 1257.48 1159.06 54.75 5.00
   06:33:35.400.01-Jul-2020 391.40 2168.51 1257.48 1159.06 54.75 5.00
   06:33:35.600.01-Jul-2020 391.60 2168.49 1257.48 1159.06 54.75 5.00
   06:33:35.800.01-Jul-2020 391.80 2168.49 1257.48 1159.06 54.75 5.00
   06:33:36.000.01-Jul-2020 392.00 2168.52 1257.48 1159.06 54.75 5.00
   06:33:36.200.01-Jul-2020 392.20 2168.52 1257.48 1159.06 54.75 5.00
   06:33:36.400.01-Jul-2020 392.40 2168.50 1257.48 1159.06 54.75 5.00
   06:33:36.600.01-Jul-2020 392.60 2168.51 1257.48 1159.06 54.75 5.00
   06:33:36.800.01-Jul-2020 392.80 2168.50 1257.48 1159.06 54.75 5.00
   06:33:37.000.01-Jul-2020 393.00 2168.48 1257.48 1159.06 54.75 5.00
   06:33:37.200.01-Jul-2020 393.20 2168.48 1257.48 1159.06 54.75 5.00
   06:33:37.400.01-Jul-2020 393.40 2168.51 1257.48 1159.06 54.75 5.00
   06:33:37.600.01-Jul-2020 393.60 2168.51 1257.48 1159.06 54.75 5.00
   06:33:37.800.01-Jul-2020 393.80 2168.51 1257.48 1159.06 54.75 5.00
   06:33:38.000.01-Jul-2020 394.00 2168.50 1257.48 1159.06 54.75 5.00
   06:33:38.200.01-Jul-2020 394.20 2168.50 1257.48 1159.06 54.75 5.00
   06:33:38.400.01-Jul-2020 394.40 2168.46 1257.48 1159.06 54.75 5.00
   06:33:38.600.01-Jul-2020 394.60 2168.52 1257.48 1159.06 54.75 5.00
   06:33:38.800.01-Jul-2020 394.80 2168.51 1257.48 1159.06 54.75 5.00
   06:33:39.000.01-Jul-2020 395.00 2168.50 1257.48 1159.06 54.75 5.00
   06:33:39.200.01-Jul-2020 395.20 2168.50 1257.48 1159.06 54.75 5.00
   06:33:39.400.01-Jul-2020 395.40 2168.50 1257.48 1159.06 54.75 5.00
   06:33:39.600.01-Jul-2020 395.60 2168.50 1257.48 1159.06 54.75 5.00
   06:33:39.800.01-Jul-2020 395.80 2168.50 1257.48 1159.06 54.75 5.00
   06:33:40.000.01-Jul-2020 396.00 2168.49 1257.48 1159.06 54.75 5.00
   06:33:40.200.01-Jul-2020 396.20 2168.49 1257.48 1159.06 54.75 5.00
   06:33:40.400.01-Jul-2020 396.40 2168.49 1257.48 1159.06 54.75 5.00
   06:33:40.600.01-Jul-2020 396.60 2168.50 1257.48 1159.06 54.75 5.00
   06:33:40.800.01-Jul-2020 396.80 2168.49 1257.48 1159.06 54.75 5.00
   06:33:41.000.01-Jul-2020 397.00 2168.49 1257.48 1159.06 54.75 5.00
   06:33:41.200.01-Jul-2020 397.20 2168.49 1257.48 1159.06 54.75 5.00
   06:33:41.400.01-Jul-2020 397.40 2168.50 1257.48 1159.06 54.75 5.00
   06:33:41.600.01-Jul-2020 397.60 2168.49 1257.48 1159.06 54.75 5.00
   06:33:41.800.01-Jul-2020 397.80 2168.50 1257.48 1159.06 54.75 5.00
   06:33:42.000.01-Jul-2020 398.00 2168.49 1257.48 1159.06 54.75 5.00
   06:33:42.200.01-Jul-2020 398.20 2168.49 1257.48 1159.06 54.75 5.00
   06:33:42.400.01-Jul-2020 398.40 2168.49 1257.48 1159.06 54.75 5.00
   06:33:42.600.01-Jul-2020 398.60 2168.49 1257.48 1159.06 54.75 5.00
   06:33:42.800.01-Jul-2020 398.80 2168.49 1257.48 1159.06 54.75 5.00
   06:33:43.000.01-Jul-2020 399.00 2168.49 1257.48 1159.06 54.75 5.00
   06:33:43.200.01-Jul-2020 399.20 2168.49 1257.48 1159.06 54.75 5.00
   06:33:43.400.01-Jul-2020 399.40 2168.49 1257.48 1159.06 54.75 5.00
   06:33:43.600.01-Jul-2020 399.60 2168.48 1257.48 1159.06 54.75 5.00
   06:33:43.800.01-Jul-2020 399.80 2168.48 1257.48 1159.06 54.75 5.00
   06:33:44.000.01-Jul-2020 400.00 2168.49 1257.48 1159.06 54.75 5.00
   06:33:44.200.01-Jul-2020 400.20 2168.49 1257.48 1159.06 54.75 5.00
   06:33:44.400.01-Jul-2020 400.40 2168.48 1257.48 1159.06 54.75 5.00
   06:33:44.600.01-Jul-2020 400.60 2168.47 1257.48 1159.06 54.75 5.00
   06:33:44.800.01-Jul-2020 400.80 2168.50 1257.48 1159.06 54.75 5.00
   06:33:45.000.01-Jul-2020 401.00 2168.48 1257.48 1159.06 54.74 5.00
   06:33:45.200.01-Jul-2020 401.20 2168.48 1257.48 1159.06 54.74 5.00
   06:33:45.400.01-Jul-2020 401.40 2168.49 1257.48 1159.06 54.75 5.00
   06:33:45.600.01-Jul-2020 401.60 2168.44 1257.48 1159.06 54.74 5.00
   06:33:45.800.01-Jul-2020 401.80 2168.51 1257.48 1159.06 54.74 5.00
   06:33:46.000.01-Jul-2020 402.00 2168.50 1257.48 1159.06 54.74 5.00
   06:33:46.200.01-Jul-2020 402.20 2168.50 1257.48 1159.06 54.74 5.00
   06:33:46.400.01-Jul-2020 402.40 2168.48 1257.48 1159.06 54.74 5.00
   06:33:46.600.01-Jul-2020 402.60 2168.49 1257.48 1159.06 54.74 5.00
   06:33:46.800.01-Jul-2020 402.80 2168.48 1257.48 1159.06 54.74 5.00
   06:33:47.000.01-Jul-2020 403.00 2168.45 1257.48 1159.06 54.74 5.00
   06:33:47.200.01-Jul-2020 403.20 2168.45 1257.48 1159.06 54.74 5.00
   06:33:47.400.01-Jul-2020 403.40 2168.49 1257.48 1159.06 54.74 5.00
   06:33:47.600.01-Jul-2020 403.60 2168.49 1257.48 1159.06 54.74 5.00
   06:33:47.800.01-Jul-2020 403.80 2168.49 1257.48 1159.06 54.74 5.00
   06:33:48.000.01-Jul-2020 404.00 2168.48 1257.48 1159.06 54.74 5.00
   06:33:48.200.01-Jul-2020 404.20 2168.48 1257.48 1159.06 54.74 5.00
   06:33:48.400.01-Jul-2020 404.40 2168.45 1257.48 1159.06 54.74 5.00
   06:33:48.600.01-Jul-2020 404.60 2168.49 1257.48 1159.06 54.74 5.00
   06:33:48.800.01-Jul-2020 404.80 2168.48 1257.48 1159.06 54.74 5.00
   06:33:49.000.01-Jul-2020 405.00 2168.48 1257.48 1159.06 54.74 5.00
   06:33:49.200.01-Jul-2020 405.20 2168.48 1257.48 1159.06 54.74 5.00
   06:33:49.400.01-Jul-2020 405.40 2168.48 1257.48 1159.06 54.74 5.00
   06:33:49.600.01-Jul-2020 405.60 2168.47 1257.48 1159.06 54.74 5.00
   06:33:49.800.01-Jul-2020 405.80 2168.48 1257.48 1159.06 54.74 5.00
   06:33:50.000.01-Jul-2020 406.00 2168.47 1257.48 1159.06 54.74 5.00
   06:33:50.200.01-Jul-2020 406.20 2168.47 1257.48 1159.06 54.74 5.00
   06:33:50.400.01-Jul-2020 406.40 2168.48 1257.48 1159.06 54.74 5.00
   06:33:50.600.01-Jul-2020 406.60 2168.48 1257.48 1159.06 54.74 5.00
   06:33:50.800.01-Jul-2020 406.80 2168.47 1257.48 1159.06 54.74 5.00
   06:33:51.000.01-Jul-2020 407.00 2168.48 1257.48 1159.06 54.74 5.00
   06:33:51.200.01-Jul-2020 407.20 2168.47 1257.48 1159.06 54.74 5.00
   06:33:51.400.01-Jul-2020 407.40 2168.48 1257.48 1159.06 54.74 5.00
   06:33:51.600.01-Jul-2020 407.60 2168.47 1257.48 1159.06 54.74 5.00
   06:33:51.800.01-Jul-2020 407.80 2168.47 1257.48 1159.06 54.74 5.00
   06:33:52.000.01-Jul-2020 408.00 2168.46 1257.48 1159.06 54.74 5.00
   06:33:52.200.01-Jul-2020 408.20 2168.46 1257.48 1159.06 54.74 5.00
   06:33:52.400.01-Jul-2020 408.40 2168.48 1257.48 1159.06 54.74 5.00
   06:33:52.600.01-Jul-2020 408.60 2168.48 1257.48 1159.06 54.74 5.00
   06:33:52.800.01-Jul-2020 408.80 2168.46 1257.48 1159.06 54.74 5.00
   06:33:53.000.01-Jul-2020 409.00 2168.47 1257.48 1159.06 54.74 5.00
   06:33:53.200.01-Jul-2020 409.20 2168.47 1257.48 1159.06 54.74 5.00
   06:33:53.400.01-Jul-2020 409.40 2168.48 1257.48 1159.06 54.74 5.00
   06:33:53.600.01-Jul-2020 409.60 2168.47 1257.48 1159.06 54.74 5.00
   06:33:53.800.01-Jul-2020 409.80 2168.47 1257.48 1159.06 54.74 5.00
   06:33:54.000.01-Jul-2020 410.00 2168.46 1257.48 1159.06 54.74 5.00
   06:33:54.200.01-Jul-2020 410.20 2168.47 1257.48 1159.06 54.74 5.00
   06:33:54.400.01-Jul-2020 410.40 2168.45 1257.48 1159.06 54.74 5.00
   06:33:54.600.01-Jul-2020 410.60 2168.46 1257.48 1159.06 54.74 5.00
   06:33:54.800.01-Jul-2020 410.80 2168.48 1257.48 1159.06 54.74 5.00
   06:33:55.000.01-Jul-2020 411.00 2168.47 1257.48 1159.06 54.74 5.00
   06:33:55.200.01-Jul-2020 411.20 2168.47 1257.48 1159.06 54.74 5.00
   06:33:55.400.01-Jul-2020 411.40 2168.46 1257.48 1159.06 54.74 5.00
   06:33:55.600.01-Jul-2020 411.60 2168.44 1257.48 1159.06 54.74 5.00
   06:33:55.800.01-Jul-2020 411.80 2168.47 1257.48 1159.06 54.74 5.00
   06:33:56.000.01-Jul-2020 412.00 2168.47 1257.48 1159.06 54.74 5.00
   06:33:56.200.01-Jul-2020 412.20 2168.47 1257.48 1159.06 54.74 5.00
   06:33:56.400.01-Jul-2020 412.40 2168.46 1257.48 1159.06 54.74 5.00
   06:33:56.600.01-Jul-2020 412.60 2168.47 1257.48 1159.06 54.74 5.00
   06:33:56.800.01-Jul-2020 412.80 2168.46 1257.48 1159.06 54.74 5.00
   06:33:57.000.01-Jul-2020 413.00 2168.44 1257.48 1159.06 54.74 5.00
   06:33:57.200.01-Jul-2020 413.20 2168.44 1257.48 1159.06 54.74 5.00
   06:33:57.400.01-Jul-2020 413.40 2168.48 1257.48 1159.06 54.74 5.00
   06:33:57.600.01-Jul-2020 413.60 2168.46 1257.48 1159.06 54.74 5.00
   06:33:57.800.01-Jul-2020 413.80 2168.47 1257.48 1159.06 54.74 5.00
