~Version Information
 VERS.                  2.0:   CWLS log ASCII Standard -VERSION 2.0
 WRAP.                   NO:   One line per depth step
~Well Information Block
#MNEM.UNIT     VALUE/NAME     DESCRIPTION
#---------     -----------    ---------------------------
 STRT.S             04:53:08 03-Jul-20: START TIME 04:53:08 03-Jul-20
 STOP.S             05:02:09 03-Jul-20: STOP TIME  05:02:09 03-Jul-20
 STEP.S                   0.00: STEP TIME
 NULL.                 -999.25: NULL VALUE
 DFWT.                        :  DIST FWL TEXT
 DFST.                        :  DIST FSL TEXT
 DMF .             Drill Floor:  DRILL MEAS FROM
 STIM.      09.59.28 01-Jun-20:  START TIME
 DATE.      09.59.28 01-Jun-20:  END TIME
 SPUD.               01-Jun-20:  SPUD DATE
 NREF.                    Grid:  NORTH REFERENCE
 HPTY.       Minimum Curvature:  HOLE POS TYPE
 DMOD.             Drill Model:  DRILL MOD DESC
 SVYD.                  Survey:  SURVEY DESC
 ILTD.               Lithology:  INTERP LTH DESC
 FTOP.          Formation Tops:  FORM TOPS DESC
 SON .        AZ-XX-0905455768:  JOB NUMBER
 WTYP.                Deviated:  WELL TYPE
 COMP.     BP Exploration(Caspian Sea):  COMPANY
 BASE.              Azerbaijan:  LOGGING EQUIPMENT BASE LOCATION
 REGN.                   EESSA:  REGION
 CTRY.              Azerbaijan:  COUNTRY NAME
 FLD .                     ACG:  FIELD NAME
 SRVC.          Turan Drilling:  CONTRACTOR
 WELL.                     B41:  WELL NAME
 RIG .           Central Azeri:  RIG NAME
 DCON.         Sperry Drilling:  DIRECTNL CONTR
 PDAT.          Mean Sea Level:  PERMANENT DATUM
 MDS .        Operator Entered:  MAG DATA SOURCE
 API .                        :  API NUMBER
 CNTY.                        :  COUNTY
 PROV.                        :  PROVINCE
 STAT.                        :  STATE
 UWI .                        :  UNIQUE WELL IDENTIFIER
 LOC .                        :  LOCATION
 LMF .             Drill Floor:  LOG MEASURED FROM
 TVDS.m                  43.29:  TVDSS CORRECTN
 LATI.deg                40.03:  LATITUDE
 LONG.deg                51.35:  LONGITUDE
 WHNS.m                  12.98:  WELL HEAD N/S
 WHEW.m                  -6.62:  WELL HEAD E/W
 UTMX.m              530128.28:  UTM X
 UTMY.m             4433192.49:  UTM Y
 DFWL.m                   0.00:  DISTANCE FWL
 DFSL.m                   0.00:  DISTANCE FSL
 SDEP.m                 378.00:  START DEPTH
 TDD .m                   0.00:  TOTAL DEPTH (DRILLER)
 VSDR.deg               296.18:  VERT SEC DIRECT
 GVFD.g                   1.00:  GRAVITY FIELD
 MFLD.nT              50253.00:  MAGNETIC FIELD
 MDIP.deg                59.49:  MAGNETIC DIP
 MDEC.deg                 6.44:  MAGNETIC DECL
 GRDC.deg                 0.22:  GRID CORRECTION
 AZTC.deg                 6.22:  AZM TOTAL CORR
 EPD .m                   0.00:  ELEVATION
 EGL .m                   0.00:  GROUND ELEVATION
 WDMS.m                 128.20:  WD ELEV
 APD .m                  43.29:  DEPTH ABOVE PD
 AGAP.m                  43.29:  AIR GAP
 VSEW.m                  -6.62:  VERT SEC E/W
 VSNS.m                  12.98:  VERT SEC N/S
 EKB .m                  43.29:  KB ELEVATION
 EDF .m                  43.29:  DF ELEVATION
 TDL .m                1152.00:  TOTAL DEPTH (LOGGER)
 VSC .                       0:  VS TO CLOSURE
 MAGU.                 1848525:  MAGUTM CHECKSUM
~Parameter Information Block
#MNEM.UNIT       Value        Description
#---------     -----------    ---------------------------
 AV  .mps                 0.40:  Ann Velocity 
 AVMX.mps                 1.56:  Max Ann Veloc 
 AZIF.deg               300.46:  Azm, Final 
 BHAT.        Rotary Steerable:  BHA Type 
 BROT.°/30m               0.40:  Build Rotating 
 BS  .in                 17.50:  Bit Size 
 BSZ .in                 17.50:  Bit Size 
 BTPL.psig              300.00:  Bit Press Loss 
 CABU.                      No:  Customer Abuse 
 CGEO.          Parviz Guliyev:  Customer Geo 
 COMM.                     D‘]:  Run Comments 1 
 TCS .hr                108.13:  Time Ciculation Ended 
 CV  .mps                 0.50:  Crit Velocity 
 CVMX.mps                 2.01:  Max Crit Veloc 
 DD1 .          Fariz Nahmatov:  Direct Drillr 1 
 DD2 .             Ehab Radwan:  Direct Drillr 2 
 DDSV.               Geo-Pilot:  DD Service 
 DEFF.%                  99.00:  % Det Eff 
 DLRX.°/30m               0.50:  Dogleg Rot Max 
 DLSO.°/30m               2.80:  Dogleg Oriented 
 DLSX.°/30m               3.90:  Dogleg Str Max 
 DRET.      09.30.04 03-Jul-20:  Drill End Time 
 DRST.      18.33.04 28-Jun-20:  Drill Start Tim 
 DTIM.hr                 55.83:  Time Drilling 
 EDEP.m                1952.00:  End Depth 
 ENG1.      Bakhtiyar Jabbarli:  Engineer 1 
 ENG2.         Farhad Orujzade:  Engineer 2 
 ENG3.          Rustam Safarov:  Engineer 3 
 ETIM.      01.33.04 04-Jul-20:  End Time 
 FLOI.gpm              1050.00:  Flow In 
 FLON.gpm               950.00:  Flow In Min 
 FLOS.cptm                0.10:  Fluid Loss 
 FLOX.gpm              1150.00:  Flow In Max 
 HFLO.                      No:  High Flow 
 HPRE.                      No:  High Pressure 
 HTEM.                      No:  High Temp 
 HYDO.m                   1.80:  Hydro Offset 
 IFIN.deg                75.26:  Inc, Final 
 IMAX.deg                75.38:  Inc Max 
 IMIN.deg                22.84:  Inc Min 
 IMND.m                 832.38:  Inc Min Depth 
 IMXD.m                1936.55:  Inc Max Depth 
 JARR.                      No:  Jarring 
 LETM.      17.40.00 04-Jul-20:  Log End Time 
 LOST.hr                     0:  Lost Rig Time 
 LSTM.      12.33.04 28-Jun-20:  Log Start Time 
 MDCL.ppm             49500.00:  Mud Chlorides 
 MDES.     Inversion Oil/Synthetic:  Mud Desc 
 DFD .sg                  1.46:  Mud Density 
 MDMN.sg                  1.46:  Dens Mud Min 
 MDMX.sg                  1.46:  Dens Mud Max 
 MOIL.                      70:  Run Mud Oil % 
 MOWR.                   70:30:  Run Mud OWR 
 MSND.                     0.5:  Run Mud Sand % 
 MSOL.                   19.89:  Run Mud Solids% 
 DFV .spqt               72.00:  Mud Viscosity 
 MWOD.in                  9.50:  MWD Tool OD 
 MWSI.                      No:  Serv Intrp, MWD 
 OTIM.hr                146.53:  Time Operating 
 PCON.           Look Like New:  Pad Condition 
 PMAX.psia             2900.00:  Press Op, Max 
 PV  .cP                 38.00:  Mud PV 
 RUN .                     600:  Run Number 
 ROPA.m/hr               22.00:  ROP Avg 
 ROPN.m/hr               10.00:  ROP Min 
 ROPX.m/hr              263.00:  ROP Max 
 RPMA.rpm               155.00:  RPM Surface Avg 
 RPMN.rpm               140.00:  RPM Surface Min 
 RPMX.rpm               160.00:  RPM Surface Max 
 RRUN.                    0600:  Rig Run Number 
 RTIM.hr                  5.00:  Time Reaming 
 SAZI.deg               300.08:  Azm, Start 
 SDEP.m                 800.00:  Start Depth 
 SIDD.                      No:  Serv Intrp, DD 
 SINC.deg                22.84:  Inc, Start 
 SPPA.psig             3000.00:  SPP Avg 
 SPPN.psig             1900.00:  SPP Min 
 SPPX.psig             3200.00:  SPP Max 
 STIM.      12.30.04 28-Jun-20:  Start Time 
 SVCS.                 DD, MWD:  Services 
 SVER.                    9.20:  Sperry Version 
 TDAT.m                1952.00:  Tot Depth Attmp 
 TDDF.                      No:  Trip for DD 
 TDLG.m                1152.00:  Tot Depth Loggd 
 TFF .                      No:  Trip for Fail 
 TQAA.f-kp                8.00:  Torque Abs Avg 
 TQAN.f-kp                5.00:  Torque Abs Min 
 TQAX.f-kp               14.00:  Torque Abs Max 
 TRRT.°/30m               0.50:  Turn Rotating 
 MRT .                  EWR-M5:  Maximum Recorded Temperature 
 TTMX.degC               69.00:  Max Tool Temp 
 VS01.                90610313:  Virtual Str1 SN 
 VS02.                90613431:  Virtual Str2 SN 
 VS03.                90615410:  Virtual Str3 SN 
 WBMN.klb                 6.00:  WOB Min 
 WITN.            Bruce Cheyne:  Customer Rep 
 WITN.             Ayaz Aliyev:  Customer Rep 2 
 WOBA.klb                 6.00:  WOB Avg 
 WOBX.klb                10.00:  WOB Max 
 YP  .lhf2               36.00:  Yield Point 
~Curve Information Block
#MNEM.UNIT                 API CODE     Curve Description
#---------               -----------    ---------------------------
 TIME.HHMMSS            00 000 000 000:  GT Time & Date
 GTET.sec               00 000 000 000:  GT Elapsed Test Time
 GTPQH.psia             00 000 000 000:  GT HR Quartz Pressure
 GTDEPTH.m              00 000 000 000:  GT Depth
 GTTVD.m                00 000 000 000:  GT True Vertical Depth
 GTTQ.degC              00 000 000 000:  GT Quartz Temperature
 GTTN.NONE              00 000 000 000:  GT Test Number
#Other Information
#
#WARRANTY: Halliburton will use its best efforts to furnish customers with 
#accurate information and interpretations that are part of, and incident to, the services 
#provided.  However, Halliburton cannot and does not warrant the accuracy 
#or correctness of such information and interpretations.  Under no circumstances should any 
#such information or interpretation be relied upon as the sole basis for any drilling, 
#completion, production, or financial decision or any procedure involving any risk to the 
#safety of any drilling venture, drilling rig or its crew or any other third party.  The 
#Customer has full responsibility for all drilling, completion and production operation.  
#Halliburton makes no representations or warranties, either expressed or 
#implied, including, but not limited to, the implied warranties of merchantability or fitness 
#for a particular purpose, with respect to the services rendered.  In no event will 
#Halliburton be liable for failure to obtain any particular results or for 
#any damages, including, but not limited to, indirect, special or consequential damages, 
#resulting from the use of any information or interpretation provided by Halliburton.
#
~A           TIME            GTET   GTPQH  GTDEPTH  GTTVD  GTTQ  GTTN 
# ...
   05:01:11.000.03-Jul-2020 483.00 2525.81 1886.00 1359.43 58.99 8.00
   05:01:11.200.03-Jul-2020 483.20 2525.81 1886.00 1359.43 58.99 8.00
   05:01:11.400.03-Jul-2020 483.40 2525.81 1886.00 1359.43 58.99 8.00
   05:01:11.600.03-Jul-2020 483.60 2525.84 1886.00 1359.43 58.99 8.00
   05:01:11.800.03-Jul-2020 483.80 2525.83 1886.00 1359.43 58.99 8.00
   05:01:12.000.03-Jul-2020 484.00 2525.84 1886.00 1359.43 58.99 8.00
   05:01:12.200.03-Jul-2020 484.20 2525.84 1886.00 1359.43 58.99 8.00
   05:01:12.400.03-Jul-2020 484.40 2525.83 1886.00 1359.43 58.99 8.00
   05:01:12.600.03-Jul-2020 484.60 2525.85 1886.00 1359.43 58.99 8.00
   05:01:12.800.03-Jul-2020 484.80 2525.85 1886.00 1359.43 58.99 8.00
   05:01:13.000.03-Jul-2020 485.00 2525.82 1886.00 1359.43 58.99 8.00
   05:01:13.200.03-Jul-2020 485.20 2525.82 1886.00 1359.43 58.99 8.00
   05:01:13.400.03-Jul-2020 485.40 2525.84 1886.00 1359.43 58.99 8.00
   05:01:13.600.03-Jul-2020 485.60 2525.71 1886.00 1359.43 58.99 8.00
   05:01:13.800.03-Jul-2020 485.80 2525.83 1886.00 1359.43 58.99 8.00
   05:01:14.000.03-Jul-2020 486.00 2525.87 1886.00 1359.43 58.99 8.00
   05:01:14.200.03-Jul-2020 486.20 2525.87 1886.00 1359.43 58.99 8.00
   05:01:14.400.03-Jul-2020 486.40 2525.85 1886.00 1359.43 58.99 8.00
   05:01:14.600.03-Jul-2020 486.60 2525.83 1886.00 1359.43 58.99 8.00
   05:01:14.800.03-Jul-2020 486.80 2525.83 1886.00 1359.43 58.99 8.00
   05:01:15.000.03-Jul-2020 487.00 2525.82 1886.00 1359.43 58.99 8.00
   05:01:15.200.03-Jul-2020 487.20 2525.82 1886.00 1359.43 58.99 8.00
   05:01:15.400.03-Jul-2020 487.40 2525.85 1886.00 1359.43 58.99 8.00
   05:01:15.600.03-Jul-2020 487.60 2525.85 1886.00 1359.43 58.99 8.00
   05:01:15.800.03-Jul-2020 487.80 2525.84 1886.00 1359.43 58.99 8.00
   05:01:16.000.03-Jul-2020 488.00 2525.70 1886.00 1359.43 58.99 8.00
   05:01:16.200.03-Jul-2020 488.20 2525.70 1886.00 1359.43 58.99 8.00
   05:01:16.400.03-Jul-2020 488.40 2525.88 1886.00 1359.43 58.99 8.00
   05:01:16.600.03-Jul-2020 488.60 2525.83 1886.00 1359.43 58.99 8.00
   05:01:16.800.03-Jul-2020 488.80 2525.84 1886.00 1359.43 58.99 8.00
   05:01:17.000.03-Jul-2020 489.00 2525.83 1886.00 1359.43 58.99 8.00
   05:01:17.200.03-Jul-2020 489.20 2525.83 1886.00 1359.43 58.99 8.00
   05:01:17.400.03-Jul-2020 489.40 2525.76 1886.00 1359.43 58.99 8.00
   05:01:17.600.03-Jul-2020 489.60 2525.79 1886.00 1359.43 58.99 8.00
   05:01:17.800.03-Jul-2020 489.80 2525.82 1886.00 1359.43 58.99 8.00
   05:01:18.000.03-Jul-2020 490.00 2525.84 1886.00 1359.43 58.99 8.00
   05:01:18.200.03-Jul-2020 490.20 2525.84 1886.00 1359.43 58.99 8.00
   05:01:18.400.03-Jul-2020 490.40 2525.85 1886.00 1359.43 58.99 8.00
   05:01:18.600.03-Jul-2020 490.60 2525.84 1886.00 1359.43 58.99 8.00
   05:01:18.800.03-Jul-2020 490.80 2525.77 1886.00 1359.43 58.99 8.00
   05:01:19.000.03-Jul-2020 491.00 2525.84 1886.00 1359.43 58.99 8.00
   05:01:19.200.03-Jul-2020 491.20 2525.84 1886.00 1359.43 58.99 8.00
   05:01:19.400.03-Jul-2020 491.40 2525.85 1886.00 1359.43 58.99 8.00
   05:01:19.600.03-Jul-2020 491.60 2525.84 1886.00 1359.43 58.99 8.00
   05:01:19.800.03-Jul-2020 491.80 2525.83 1886.00 1359.43 58.99 8.00
   05:01:20.000.03-Jul-2020 492.00 2525.73 1886.00 1359.43 58.99 8.00
   05:01:20.200.03-Jul-2020 492.20 2525.73 1886.00 1359.43 58.99 8.00
   05:01:20.400.03-Jul-2020 492.40 2525.88 1886.00 1359.43 58.99 8.00
   05:01:20.600.03-Jul-2020 492.60 2525.84 1886.00 1359.43 58.99 8.00
   05:01:20.800.03-Jul-2020 492.80 2525.85 1886.00 1359.43 58.99 8.00
   05:01:21.000.03-Jul-2020 493.00 2525.85 1886.00 1359.43 58.99 8.00
   05:01:21.200.03-Jul-2020 493.20 2525.85 1886.00 1359.43 58.99 8.00
   05:01:21.400.03-Jul-2020 493.40 2525.85 1886.00 1359.43 58.99 8.00
   05:01:21.600.03-Jul-2020 493.60 2525.83 1886.00 1359.43 58.99 8.00
   05:01:21.800.03-Jul-2020 493.80 2525.85 1886.00 1359.43 58.99 8.00
   05:01:22.000.03-Jul-2020 494.00 2525.85 1886.00 1359.43 58.99 8.00
   05:01:22.200.03-Jul-2020 494.20 2525.85 1886.00 1359.43 58.99 8.00
   05:01:22.400.03-Jul-2020 494.40 2525.85 1886.00 1359.43 58.99 8.00
   05:01:22.600.03-Jul-2020 494.60 2525.86 1886.00 1359.43 58.99 8.00
   05:01:22.800.03-Jul-2020 494.80 2525.87 1886.00 1359.43 58.99 8.00
   05:01:23.000.03-Jul-2020 495.00 2525.86 1886.00 1359.43 58.99 8.00
   05:01:23.200.03-Jul-2020 495.20 2525.86 1886.00 1359.43 58.99 8.00
   05:01:23.400.03-Jul-2020 495.40 2525.85 1886.00 1359.43 58.99 8.00
   05:01:23.600.03-Jul-2020 495.60 2525.76 1886.00 1359.43 58.99 8.00
   05:01:23.800.03-Jul-2020 495.80 2525.81 1886.00 1359.43 58.99 8.00
   05:01:24.000.03-Jul-2020 496.00 2525.85 1886.00 1359.43 58.99 8.00
   05:01:24.200.03-Jul-2020 496.20 2525.85 1886.00 1359.43 58.99 8.00
   05:01:24.400.03-Jul-2020 496.40 2525.89 1886.00 1359.43 58.99 8.00
   05:01:24.600.03-Jul-2020 496.60 2525.86 1886.00 1359.43 58.99 8.00
   05:01:24.800.03-Jul-2020 496.80 2525.84 1886.00 1359.43 58.99 8.00
   05:01:25.000.03-Jul-2020 497.00 2525.85 1886.00 1359.43 58.99 8.00
   05:01:25.200.03-Jul-2020 497.20 2525.85 1886.00 1359.43 58.99 8.00
   05:01:25.400.03-Jul-2020 497.40 2525.86 1886.00 1359.43 58.99 8.00
   05:01:25.600.03-Jul-2020 497.60 2525.86 1886.00 1359.43 58.99 8.00
   05:01:25.800.03-Jul-2020 497.80 2525.85 1886.00 1359.43 58.99 8.00
   05:01:26.000.03-Jul-2020 498.00 2525.85 1886.00 1359.43 58.99 8.00
   05:01:26.200.03-Jul-2020 498.20 2525.85 1886.00 1359.43 58.99 8.00
   05:01:26.400.03-Jul-2020 498.40 2525.83 1886.00 1359.43 58.99 8.00
   05:01:26.600.03-Jul-2020 498.60 2524.28 1886.00 1359.43 58.99 8.00
   05:01:26.800.03-Jul-2020 498.80 2421.12 1886.00 1359.43 58.99 8.00
   05:01:27.000.03-Jul-2020 499.00 2349.67 1886.00 1359.43 58.99 8.00
   05:01:27.200.03-Jul-2020 499.20 2349.67 1886.00 1359.43 58.99 8.00
   05:01:27.400.03-Jul-2020 499.40 2543.88 1886.00 1359.43 58.99 8.00
   05:01:27.600.03-Jul-2020 499.60 2799.90 1886.00 1359.43 58.99 8.00
   05:01:27.800.03-Jul-2020 499.80 2877.07 1886.00 1359.43 58.99 8.00
   05:01:28.000.03-Jul-2020 500.00 2877.03 1886.00 1359.43 58.99 8.00
   05:01:28.200.03-Jul-2020 500.20 2877.03 1886.00 1359.43 58.99 8.00
   05:01:28.400.03-Jul-2020 500.40 2877.25 1886.00 1359.43 58.99 8.00
   05:01:28.600.03-Jul-2020 500.60 2877.41 1886.00 1359.43 58.99 8.00
   05:01:28.800.03-Jul-2020 500.80 2877.30 1886.00 1359.43 58.99 8.00
   05:01:29.000.03-Jul-2020 501.00 2876.73 1886.00 1359.43 58.99 8.00
   05:01:29.200.03-Jul-2020 501.20 2876.73 1886.00 1359.43 58.99 8.00
   05:01:29.400.03-Jul-2020 501.40 2878.23 1886.00 1359.43 58.99 8.00
   05:01:29.600.03-Jul-2020 501.60 2877.91 1886.00 1359.43 58.99 8.00
   05:01:29.800.03-Jul-2020 501.80 2877.76 1886.00 1359.43 58.99 8.00
   05:01:30.000.03-Jul-2020 502.00 2877.05 1886.00 1359.43 58.99 8.00
   05:01:30.200.03-Jul-2020 502.20 2876.88 1886.00 1359.43 58.99 8.00
   05:01:30.400.03-Jul-2020 502.40 2877.26 1886.00 1359.43 58.99 8.00
   05:01:30.600.03-Jul-2020 502.60 2877.74 1886.00 1359.43 58.99 8.00
   05:01:30.800.03-Jul-2020 502.80 2877.83 1886.00 1359.43 58.99 8.00
   05:01:31.000.03-Jul-2020 503.00 2877.84 1886.00 1359.43 58.99 8.00
   05:01:31.200.03-Jul-2020 503.20 2877.84 1886.00 1359.43 58.99 8.00
   05:01:31.400.03-Jul-2020 503.40 2877.77 1886.00 1359.43 58.99 8.00
   05:01:31.600.03-Jul-2020 503.60 2877.68 1886.00 1359.43 58.99 8.00
   05:01:31.800.03-Jul-2020 503.80 2877.77 1886.00 1359.43 58.99 8.00
   05:01:32.000.03-Jul-2020 504.00 2877.90 1886.00 1359.43 58.99 8.00
   05:01:32.200.03-Jul-2020 504.20 2877.90 1886.00 1359.43 58.99 8.00
   05:01:32.400.03-Jul-2020 504.40 2877.87 1886.00 1359.43 59.00 8.00
   05:01:32.600.03-Jul-2020 504.60 2877.84 1886.00 1359.43 59.00 8.00
   05:01:32.800.03-Jul-2020 504.80 2878.09 1886.00 1359.43 59.00 8.00
   05:01:33.000.03-Jul-2020 505.00 2878.54 1886.00 1359.43 59.00 8.00
   05:01:33.200.03-Jul-2020 505.20 2878.54 1886.00 1359.43 59.00 8.00
   05:01:33.400.03-Jul-2020 505.40 2878.40 1886.00 1359.43 59.00 8.00
   05:01:33.600.03-Jul-2020 505.60 2878.37 1886.00 1359.43 59.00 8.00
   05:01:33.800.03-Jul-2020 505.80 2876.94 1886.00 1359.43 59.00 8.00
