~Version Information
 VERS.                  2.0:   CWLS log ASCII Standard -VERSION 2.0
 WRAP.                   NO:   One line per depth step
~Well Information Block
#MNEM.UNIT     VALUE/NAME     DESCRIPTION
#---------     -----------    ---------------------------
 STRT.S             20:59:46 30-Jun-20: START TIME 20:59:46 30-Jun-20
 STOP.S             21:08:48 30-Jun-20: STOP TIME  21:08:48 30-Jun-20
 STEP.S                   0.00: STEP TIME
 NULL.                 -999.25: NULL VALUE
 DFWT.                        :  DIST FWL TEXT
 DFST.                        :  DIST FSL TEXT
 DMF .             Drill Floor:  DRILL MEAS FROM
 STIM.      09.59.28 01-Jun-20:  START TIME
 DATE.      09.59.28 01-Jun-20:  END TIME
 SPUD.               01-Jun-20:  SPUD DATE
 NREF.                    Grid:  NORTH REFERENCE
 HPTY.       Minimum Curvature:  HOLE POS TYPE
 DMOD.             Drill Model:  DRILL MOD DESC
 SVYD.                  Survey:  SURVEY DESC
 ILTD.               Lithology:  INTERP LTH DESC
 FTOP.          Formation Tops:  FORM TOPS DESC
 SON .        AZ-XX-0905455768:  JOB NUMBER
 WTYP.                Deviated:  WELL TYPE
 COMP.     BP Exploration(Caspian Sea):  COMPANY
 BASE.              Azerbaijan:  LOGGING EQUIPMENT BASE LOCATION
 REGN.                   EESSA:  REGION
 CTRY.              Azerbaijan:  COUNTRY NAME
 FLD .                     ACG:  FIELD NAME
 SRVC.          Turan Drilling:  CONTRACTOR
 WELL.                     B41:  WELL NAME
 RIG .           Central Azeri:  RIG NAME
 DCON.         Sperry Drilling:  DIRECTNL CONTR
 PDAT.          Mean Sea Level:  PERMANENT DATUM
 MDS .        Operator Entered:  MAG DATA SOURCE
 API .                        :  API NUMBER
 CNTY.                        :  COUNTY
 PROV.                        :  PROVINCE
 STAT.                        :  STATE
 UWI .                        :  UNIQUE WELL IDENTIFIER
 LOC .                        :  LOCATION
 LMF .             Drill Floor:  LOG MEASURED FROM
 TVDS.m                  43.29:  TVDSS CORRECTN
 LATI.deg                40.03:  LATITUDE
 LONG.deg                51.35:  LONGITUDE
 WHNS.m                  12.98:  WELL HEAD N/S
 WHEW.m                  -6.62:  WELL HEAD E/W
 UTMX.m              530128.28:  UTM X
 UTMY.m             4433192.49:  UTM Y
 DFWL.m                   0.00:  DISTANCE FWL
 DFSL.m                   0.00:  DISTANCE FSL
 SDEP.m                 378.00:  START DEPTH
 TDD .m                   0.00:  TOTAL DEPTH (DRILLER)
 VSDR.deg               296.18:  VERT SEC DIRECT
 GVFD.g                   1.00:  GRAVITY FIELD
 MFLD.nT              50253.00:  MAGNETIC FIELD
 MDIP.deg                59.49:  MAGNETIC DIP
 MDEC.deg                 6.44:  MAGNETIC DECL
 GRDC.deg                 0.22:  GRID CORRECTION
 AZTC.deg                 6.22:  AZM TOTAL CORR
 EPD .m                   0.00:  ELEVATION
 EGL .m                   0.00:  GROUND ELEVATION
 WDMS.m                 128.20:  WD ELEV
 APD .m                  43.29:  DEPTH ABOVE PD
 AGAP.m                  43.29:  AIR GAP
 VSEW.m                  -6.62:  VERT SEC E/W
 VSNS.m                  12.98:  VERT SEC N/S
 EKB .m                  43.29:  KB ELEVATION
 EDF .m                  43.29:  DF ELEVATION
 TDL .m                1152.00:  TOTAL DEPTH (LOGGER)
 VSC .                       0:  VS TO CLOSURE
 MAGU.                 1848525:  MAGUTM CHECKSUM
~Parameter Information Block
#MNEM.UNIT       Value        Description
#---------     -----------    ---------------------------
 AV  .mps                 0.40:  Ann Velocity 
 AVMX.mps                 1.56:  Max Ann Veloc 
 AZIF.deg               300.46:  Azm, Final 
 BHAT.        Rotary Steerable:  BHA Type 
 BROT.°/30m               0.40:  Build Rotating 
 BS  .in                 17.50:  Bit Size 
 BSZ .in                 17.50:  Bit Size 
 BTPL.psig              300.00:  Bit Press Loss 
 CABU.                      No:  Customer Abuse 
 CGEO.          Parviz Guliyev:  Customer Geo 
 COMM.                     ÜRt:  Run Comments 1 
 TCS .hr                108.13:  Time Ciculation Ended 
 CV  .mps                 0.50:  Crit Velocity 
 CVMX.mps                 2.01:  Max Crit Veloc 
 DD1 .          Fariz Nahmatov:  Direct Drillr 1 
 DD2 .             Ehab Radwan:  Direct Drillr 2 
 DDSV.               Geo-Pilot:  DD Service 
 DEFF.%                  99.00:  % Det Eff 
 DLRX.°/30m               0.50:  Dogleg Rot Max 
 DLSO.°/30m               2.80:  Dogleg Oriented 
 DLSX.°/30m               3.90:  Dogleg Str Max 
 DRET.      09.30.04 03-Jul-20:  Drill End Time 
 DRST.      18.33.04 28-Jun-20:  Drill Start Tim 
 DTIM.hr                 55.83:  Time Drilling 
 EDEP.m                1952.00:  End Depth 
 ENG1.      Bakhtiyar Jabbarli:  Engineer 1 
 ENG2.         Farhad Orujzade:  Engineer 2 
 ENG3.          Rustam Safarov:  Engineer 3 
 ETIM.      01.33.04 04-Jul-20:  End Time 
 FLOI.gpm              1050.00:  Flow In 
 FLON.gpm               950.00:  Flow In Min 
 FLOS.cptm                0.10:  Fluid Loss 
 FLOX.gpm              1150.00:  Flow In Max 
 HFLO.                      No:  High Flow 
 HPRE.                      No:  High Pressure 
 HTEM.                      No:  High Temp 
 HYDO.m                   1.80:  Hydro Offset 
 IFIN.deg                75.26:  Inc, Final 
 IMAX.deg                75.38:  Inc Max 
 IMIN.deg                22.84:  Inc Min 
 IMND.m                 832.38:  Inc Min Depth 
 IMXD.m                1936.55:  Inc Max Depth 
 JARR.                      No:  Jarring 
 LETM.      17.40.00 04-Jul-20:  Log End Time 
 LOST.hr                     0:  Lost Rig Time 
 LSTM.      12.33.04 28-Jun-20:  Log Start Time 
 MDCL.ppm             49500.00:  Mud Chlorides 
 MDES.     Inversion Oil/Synthetic:  Mud Desc 
 DFD .sg                  1.46:  Mud Density 
 MDMN.sg                  1.46:  Dens Mud Min 
 MDMX.sg                  1.46:  Dens Mud Max 
 MOIL.                      70:  Run Mud Oil % 
 MOWR.                   70:30:  Run Mud OWR 
 MSND.                     0.5:  Run Mud Sand % 
 MSOL.                   19.89:  Run Mud Solids% 
 DFV .spqt               72.00:  Mud Viscosity 
 MWOD.in                  9.50:  MWD Tool OD 
 MWSI.                      No:  Serv Intrp, MWD 
 OTIM.hr                146.53:  Time Operating 
 PCON.           Look Like New:  Pad Condition 
 PMAX.psia             2900.00:  Press Op, Max 
 PV  .cP                 38.00:  Mud PV 
 RUN .                     600:  Run Number 
 ROPA.m/hr               22.00:  ROP Avg 
 ROPN.m/hr               10.00:  ROP Min 
 ROPX.m/hr              263.00:  ROP Max 
 RPMA.rpm               155.00:  RPM Surface Avg 
 RPMN.rpm               140.00:  RPM Surface Min 
 RPMX.rpm               160.00:  RPM Surface Max 
 RRUN.                    0600:  Rig Run Number 
 RTIM.hr                  5.00:  Time Reaming 
 SAZI.deg               300.08:  Azm, Start 
 SDEP.m                 800.00:  Start Depth 
 SIDD.                      No:  Serv Intrp, DD 
 SINC.deg                22.84:  Inc, Start 
 SPPA.psig             3000.00:  SPP Avg 
 SPPN.psig             1900.00:  SPP Min 
 SPPX.psig             3200.00:  SPP Max 
 STIM.      12.30.04 28-Jun-20:  Start Time 
 SVCS.                 DD, MWD:  Services 
 SVER.                    9.20:  Sperry Version 
 TDAT.m                1952.00:  Tot Depth Attmp 
 TDDF.                      No:  Trip for DD 
 TDLG.m                1152.00:  Tot Depth Loggd 
 TFF .                      No:  Trip for Fail 
 TQAA.f-kp                8.00:  Torque Abs Avg 
 TQAN.f-kp                5.00:  Torque Abs Min 
 TQAX.f-kp               14.00:  Torque Abs Max 
 TRRT.°/30m               0.50:  Turn Rotating 
 MRT .                  EWR-M5:  Maximum Recorded Temperature 
 TTMX.degC               69.00:  Max Tool Temp 
 VS01.                90610313:  Virtual Str1 SN 
 VS02.                90613431:  Virtual Str2 SN 
 VS03.                90615410:  Virtual Str3 SN 
 WBMN.klb                 6.00:  WOB Min 
 WITN.            Bruce Cheyne:  Customer Rep 
 WITN.             Ayaz Aliyev:  Customer Rep 2 
 WOBA.klb                 6.00:  WOB Avg 
 WOBX.klb                10.00:  WOB Max 
 YP  .lhf2               36.00:  Yield Point 
~Curve Information Block
#MNEM.UNIT                 API CODE     Curve Description
#---------               -----------    ---------------------------
 TIME.HHMMSS            00 000 000 000:  GT Time & Date
 GTET.sec               00 000 000 000:  GT Elapsed Test Time
 GTPQH.psia             00 000 000 000:  GT HR Quartz Pressure
 GTDEPTH.m              00 000 000 000:  GT Depth
 GTTVD.m                00 000 000 000:  GT True Vertical Depth
 GTTQ.degC              00 000 000 000:  GT Quartz Temperature
 GTTN.NONE              00 000 000 000:  GT Test Number
#Other Information
#
#WARRANTY: Halliburton will use its best efforts to furnish customers with 
#accurate information and interpretations that are part of, and incident to, the services 
#provided.  However, Halliburton cannot and does not warrant the accuracy 
#or correctness of such information and interpretations.  Under no circumstances should any 
#such information or interpretation be relied upon as the sole basis for any drilling, 
#completion, production, or financial decision or any procedure involving any risk to the 
#safety of any drilling venture, drilling rig or its crew or any other third party.  The 
#Customer has full responsibility for all drilling, completion and production operation.  
#Halliburton makes no representations or warranties, either expressed or 
#implied, including, but not limited to, the implied warranties of merchantability or fitness 
#for a particular purpose, with respect to the services rendered.  In no event will 
#Halliburton be liable for failure to obtain any particular results or for 
#any damages, including, but not limited to, indirect, special or consequential damages, 
#resulting from the use of any information or interpretation provided by Halliburton.
#
~A           TIME            GTET   GTPQH  GTDEPTH  GTTVD  GTTQ  GTTN 
# ...
   21:01:41.785.30-Jun-2020 115.02 2105.62 1143.02 1083.79 62.75 3.00
   21:01:41.985.30-Jun-2020 115.22 2105.62 1143.02 1083.79 62.75 3.00
   21:01:42.185.30-Jun-2020 115.42 2105.59 1143.02 1083.79 62.75 3.00
   21:01:42.385.30-Jun-2020 115.62 2105.59 1143.02 1083.79 62.75 3.00
   21:01:42.586.30-Jun-2020 115.82 2105.61 1143.02 1083.79 62.75 3.00
   21:01:42.786.30-Jun-2020 116.02 2105.60 1143.02 1083.79 62.75 3.00
   21:01:42.986.30-Jun-2020 116.22 2105.60 1143.02 1083.79 62.75 3.00
   21:01:43.186.30-Jun-2020 116.42 2105.57 1143.02 1083.79 62.75 3.00
   21:01:43.386.30-Jun-2020 116.62 2105.59 1143.02 1083.79 62.75 3.00
   21:01:43.586.30-Jun-2020 116.82 2105.60 1143.02 1083.79 62.75 3.00
   21:01:43.786.30-Jun-2020 117.02 2105.61 1143.02 1083.79 62.75 3.00
   21:01:43.986.30-Jun-2020 117.22 2105.61 1143.02 1083.79 62.75 3.00
   21:01:44.186.30-Jun-2020 117.42 2105.57 1143.02 1083.79 62.75 3.00
   21:01:44.386.30-Jun-2020 117.62 2105.52 1143.02 1083.79 62.75 3.00
   21:01:44.586.30-Jun-2020 117.82 2105.65 1143.02 1083.79 62.74 3.00
   21:01:44.786.30-Jun-2020 118.02 2105.59 1143.02 1083.79 62.74 3.00
   21:01:44.986.30-Jun-2020 118.22 2105.59 1143.02 1083.79 62.74 3.00
   21:01:45.186.30-Jun-2020 118.42 2105.59 1143.02 1083.79 62.74 3.00
   21:01:45.386.30-Jun-2020 118.62 2105.53 1143.02 1083.79 62.74 3.00
   21:01:45.586.30-Jun-2020 118.82 2105.60 1143.02 1083.79 62.74 3.00
   21:01:45.786.30-Jun-2020 119.02 2105.59 1143.02 1083.79 62.74 3.00
   21:01:45.986.30-Jun-2020 119.22 2105.59 1143.02 1083.79 62.74 3.00
   21:01:46.186.30-Jun-2020 119.42 2105.56 1143.02 1083.79 62.74 3.00
   21:01:46.386.30-Jun-2020 119.62 2105.57 1143.02 1083.79 62.74 3.00
   21:01:46.586.30-Jun-2020 119.82 2105.50 1143.02 1083.79 62.74 3.00
   21:01:46.786.30-Jun-2020 120.02 2105.53 1143.02 1083.79 62.74 3.00
   21:01:46.986.30-Jun-2020 120.22 2105.53 1143.02 1083.79 62.74 3.00
   21:01:47.186.30-Jun-2020 120.42 2105.56 1143.02 1083.79 62.74 3.00
   21:01:47.386.30-Jun-2020 120.62 2105.55 1143.02 1083.79 62.74 3.00
   21:01:47.586.30-Jun-2020 120.82 2105.55 1143.02 1083.79 62.74 3.00
   21:01:47.786.30-Jun-2020 121.02 2105.53 1143.02 1083.79 62.74 3.00
   21:01:47.986.30-Jun-2020 121.22 2105.53 1143.02 1083.79 62.74 3.00
   21:01:48.187.30-Jun-2020 121.42 2105.51 1143.02 1083.79 62.74 3.00
   21:01:48.387.30-Jun-2020 121.62 2105.54 1143.02 1083.79 62.74 3.00
   21:01:48.587.30-Jun-2020 121.82 2105.53 1143.02 1083.79 62.74 3.00
   21:01:48.787.30-Jun-2020 122.02 2105.52 1143.02 1083.79 62.74 3.00
   21:01:48.987.30-Jun-2020 122.22 2105.52 1143.02 1083.79 62.74 3.00
   21:01:49.187.30-Jun-2020 122.42 2105.52 1143.02 1083.79 62.74 3.00
   21:01:49.387.30-Jun-2020 122.62 2105.53 1143.02 1083.79 62.74 3.00
   21:01:49.587.30-Jun-2020 122.82 2105.53 1143.02 1083.79 62.74 3.00
   21:01:49.787.30-Jun-2020 123.02 2105.53 1143.02 1083.79 62.74 3.00
   21:01:49.987.30-Jun-2020 123.22 2105.53 1143.02 1083.79 62.74 3.00
   21:01:50.187.30-Jun-2020 123.42 2105.49 1143.02 1083.79 62.74 3.00
   21:01:50.387.30-Jun-2020 123.62 2105.48 1143.02 1083.79 62.74 3.00
   21:01:50.587.30-Jun-2020 123.82 2105.50 1143.02 1083.79 62.74 3.00
   21:01:50.787.30-Jun-2020 124.02 2105.52 1143.02 1083.79 62.74 3.00
   21:01:50.987.30-Jun-2020 124.22 2105.52 1143.02 1083.79 62.74 3.00
   21:01:51.187.30-Jun-2020 124.42 2105.51 1143.02 1083.79 62.73 3.00
   21:01:51.387.30-Jun-2020 124.62 2105.51 1143.02 1083.79 62.73 3.00
   21:01:51.587.30-Jun-2020 124.82 2105.48 1143.02 1083.79 62.73 3.00
   21:01:51.787.30-Jun-2020 125.02 2105.48 1143.02 1083.79 62.73 3.00
   21:01:51.987.30-Jun-2020 125.22 2105.50 1143.02 1083.79 62.73 3.00
   21:01:52.187.30-Jun-2020 125.42 2105.48 1143.02 1083.79 62.73 3.00
   21:01:52.387.30-Jun-2020 125.62 2105.48 1143.02 1083.79 62.73 3.00
   21:01:52.587.30-Jun-2020 125.82 2105.47 1143.02 1083.79 62.73 3.00
   21:01:52.787.30-Jun-2020 126.02 2105.47 1143.02 1083.79 62.73 3.00
   21:01:52.987.30-Jun-2020 126.22 2105.47 1143.02 1083.79 62.73 3.00
   21:01:53.187.30-Jun-2020 126.42 2105.51 1143.02 1083.79 62.73 3.00
   21:01:53.387.30-Jun-2020 126.62 2105.49 1143.02 1083.79 62.73 3.00
   21:01:53.587.30-Jun-2020 126.82 2105.48 1143.02 1083.79 62.73 3.00
   21:01:53.788.30-Jun-2020 127.02 2105.42 1143.02 1083.79 62.73 3.00
   21:01:53.988.30-Jun-2020 127.22 2105.42 1143.02 1083.79 62.73 3.00
   21:01:54.188.30-Jun-2020 127.42 2105.49 1143.02 1083.79 62.73 3.00
   21:01:54.388.30-Jun-2020 127.62 2105.49 1143.02 1083.79 62.73 3.00
   21:01:54.588.30-Jun-2020 127.82 2105.48 1143.02 1083.79 62.73 3.00
   21:01:54.788.30-Jun-2020 128.02 2105.48 1143.02 1083.79 62.73 3.00
   21:01:54.988.30-Jun-2020 128.22 2105.48 1143.02 1083.79 62.73 3.00
   21:01:55.188.30-Jun-2020 128.42 2105.50 1143.02 1083.79 62.73 3.00
   21:01:55.388.30-Jun-2020 128.62 2105.52 1143.02 1083.79 62.73 3.00
   21:01:55.588.30-Jun-2020 128.82 2105.50 1143.02 1083.79 62.73 3.00
   21:01:55.788.30-Jun-2020 129.02 2105.50 1143.02 1083.79 62.73 3.00
   21:01:55.988.30-Jun-2020 129.22 2105.49 1143.02 1083.79 62.73 3.00
   21:01:56.188.30-Jun-2020 129.42 2105.45 1143.02 1083.79 62.73 3.00
   21:01:56.388.30-Jun-2020 129.62 2105.53 1143.02 1083.79 62.73 3.00
   21:01:56.588.30-Jun-2020 129.82 2105.51 1143.02 1083.79 62.73 3.00
   21:01:56.788.30-Jun-2020 130.02 2105.50 1143.02 1083.79 62.73 3.00
   21:01:56.988.30-Jun-2020 130.22 2105.50 1143.02 1083.79 62.73 3.00
   21:01:57.188.30-Jun-2020 130.42 2105.48 1143.02 1083.79 62.73 3.00
   21:01:57.388.30-Jun-2020 130.62 2105.47 1143.02 1083.79 62.73 3.00
   21:01:57.588.30-Jun-2020 130.82 2105.44 1143.02 1083.79 62.73 3.00
   21:01:57.788.30-Jun-2020 131.02 2105.47 1143.02 1083.79 62.73 3.00
   21:01:57.988.30-Jun-2020 131.22 2105.47 1143.02 1083.79 62.73 3.00
   21:01:58.188.30-Jun-2020 131.42 2105.46 1143.02 1083.79 62.72 3.00
   21:01:58.388.30-Jun-2020 131.62 2105.43 1143.02 1083.79 62.72 3.00
   21:01:58.588.30-Jun-2020 131.82 2105.45 1143.02 1083.79 62.72 3.00
   21:01:58.788.30-Jun-2020 132.02 2105.45 1143.02 1083.79 62.72 3.00
   21:01:58.988.30-Jun-2020 132.22 2105.45 1143.02 1083.79 62.72 3.00
   21:01:59.188.30-Jun-2020 132.42 2105.46 1143.02 1083.79 62.72 3.00
   21:01:59.389.30-Jun-2020 132.62 2105.45 1143.02 1083.79 62.72 3.00
   21:01:59.589.30-Jun-2020 132.82 2105.42 1143.02 1083.79 62.72 3.00
   21:01:59.789.30-Jun-2020 133.02 2105.35 1143.02 1083.79 62.72 3.00
   21:01:59.989.30-Jun-2020 133.22 2105.46 1143.02 1083.79 62.72 3.00
   21:02:00.189.30-Jun-2020 133.42 2105.45 1143.02 1083.79 62.72 3.00
   21:02:00.389.30-Jun-2020 133.62 2105.44 1143.02 1083.79 62.72 3.00
   21:02:00.589.30-Jun-2020 133.82 2105.44 1143.02 1083.79 62.72 3.00
   21:02:00.789.30-Jun-2020 134.02 2105.44 1143.02 1083.79 62.72 3.00
   21:02:00.989.30-Jun-2020 134.22 2105.44 1143.02 1083.79 62.72 3.00
   21:02:01.189.30-Jun-2020 134.42 2105.42 1143.02 1083.79 62.72 3.00
   21:02:01.389.30-Jun-2020 134.62 2105.43 1143.02 1083.79 62.72 3.00
   21:02:01.589.30-Jun-2020 134.82 2105.43 1143.02 1083.79 62.72 3.00
   21:02:01.789.30-Jun-2020 135.02 2105.43 1143.02 1083.79 62.72 3.00
   21:02:01.989.30-Jun-2020 135.22 2105.43 1143.02 1083.79 62.72 3.00
   21:02:02.189.30-Jun-2020 135.42 2105.35 1143.02 1083.79 62.72 3.00
   21:02:02.389.30-Jun-2020 135.62 2105.50 1143.02 1083.79 62.72 3.00
   21:02:02.589.30-Jun-2020 135.82 2105.48 1143.02 1083.79 62.72 3.00
   21:02:02.789.30-Jun-2020 136.02 2105.45 1143.02 1083.79 62.72 3.00
   21:02:02.989.30-Jun-2020 136.22 2105.45 1143.02 1083.79 62.72 3.00
   21:02:03.189.30-Jun-2020 136.42 2105.41 1143.02 1083.79 62.72 3.00
   21:02:03.389.30-Jun-2020 136.62 2105.40 1143.02 1083.79 62.72 3.00
   21:02:03.589.30-Jun-2020 136.82 2105.42 1143.02 1083.79 62.72 3.00
   21:02:03.789.30-Jun-2020 137.02 2105.43 1143.02 1083.79 62.72 3.00
   21:02:03.989.30-Jun-2020 137.22 2105.43 1143.02 1083.79 62.72 3.00
   21:02:04.189.30-Jun-2020 137.42 2105.43 1143.02 1083.79 62.72 3.00
   21:02:04.389.30-Jun-2020 137.62 2105.40 1143.02 1083.79 62.72 3.00
   21:02:04.589.30-Jun-2020 137.82 2105.42 1143.02 1083.79 62.72 3.00
