~Version Information
 VERS.                  2.0:   CWLS log ASCII Standard -VERSION 2.0
 WRAP.                   NO:   One line per depth step
~Well Information Block
#MNEM.UNIT     VALUE/NAME     DESCRIPTION
#---------     -----------    ---------------------------
 STRT.S             23:54:17 02-Jul-20: START TIME 23:54:17 02-Jul-20
 STOP.S             00:03:12 03-Jul-20: STOP TIME  00:03:12 03-Jul-20
 STEP.S                   0.00: STEP TIME
 NULL.                 -999.25: NULL VALUE
 DFWT.                        :  DIST FWL TEXT
 DFST.                        :  DIST FSL TEXT
 DMF .             Drill Floor:  DRILL MEAS FROM
 STIM.      09.59.28 01-Jun-20:  START TIME
 DATE.      09.59.28 01-Jun-20:  END TIME
 SPUD.               01-Jun-20:  SPUD DATE
 NREF.                    Grid:  NORTH REFERENCE
 HPTY.       Minimum Curvature:  HOLE POS TYPE
 DMOD.             Drill Model:  DRILL MOD DESC
 SVYD.                  Survey:  SURVEY DESC
 ILTD.               Lithology:  INTERP LTH DESC
 FTOP.          Formation Tops:  FORM TOPS DESC
 SON .        AZ-XX-0905455768:  JOB NUMBER
 WTYP.                Deviated:  WELL TYPE
 COMP.     BP Exploration(Caspian Sea):  COMPANY
 BASE.              Azerbaijan:  LOGGING EQUIPMENT BASE LOCATION
 REGN.                   EESSA:  REGION
 CTRY.              Azerbaijan:  COUNTRY NAME
 FLD .                     ACG:  FIELD NAME
 SRVC.          Turan Drilling:  CONTRACTOR
 WELL.                     B41:  WELL NAME
 RIG .           Central Azeri:  RIG NAME
 DCON.         Sperry Drilling:  DIRECTNL CONTR
 PDAT.          Mean Sea Level:  PERMANENT DATUM
 MDS .        Operator Entered:  MAG DATA SOURCE
 API .                        :  API NUMBER
 CNTY.                        :  COUNTY
 PROV.                        :  PROVINCE
 STAT.                        :  STATE
 UWI .                        :  UNIQUE WELL IDENTIFIER
 LOC .                        :  LOCATION
 LMF .             Drill Floor:  LOG MEASURED FROM
 TVDS.m                  43.29:  TVDSS CORRECTN
 LATI.deg                40.03:  LATITUDE
 LONG.deg                51.35:  LONGITUDE
 WHNS.m                  12.98:  WELL HEAD N/S
 WHEW.m                  -6.62:  WELL HEAD E/W
 UTMX.m              530128.28:  UTM X
 UTMY.m             4433192.49:  UTM Y
 DFWL.m                   0.00:  DISTANCE FWL
 DFSL.m                   0.00:  DISTANCE FSL
 SDEP.m                 378.00:  START DEPTH
 TDD .m                   0.00:  TOTAL DEPTH (DRILLER)
 VSDR.deg               296.18:  VERT SEC DIRECT
 GVFD.g                   1.00:  GRAVITY FIELD
 MFLD.nT              50253.00:  MAGNETIC FIELD
 MDIP.deg                59.49:  MAGNETIC DIP
 MDEC.deg                 6.44:  MAGNETIC DECL
 GRDC.deg                 0.22:  GRID CORRECTION
 AZTC.deg                 6.22:  AZM TOTAL CORR
 EPD .m                   0.00:  ELEVATION
 EGL .m                   0.00:  GROUND ELEVATION
 WDMS.m                 128.20:  WD ELEV
 APD .m                  43.29:  DEPTH ABOVE PD
 AGAP.m                  43.29:  AIR GAP
 VSEW.m                  -6.62:  VERT SEC E/W
 VSNS.m                  12.98:  VERT SEC N/S
 EKB .m                  43.29:  KB ELEVATION
 EDF .m                  43.29:  DF ELEVATION
 TDL .m                1152.00:  TOTAL DEPTH (LOGGER)
 VSC .                       0:  VS TO CLOSURE
 MAGU.                 1848525:  MAGUTM CHECKSUM
~Parameter Information Block
#MNEM.UNIT       Value        Description
#---------     -----------    ---------------------------
 AV  .mps                 0.40:  Ann Velocity 
 AVMX.mps                 1.56:  Max Ann Veloc 
 AZIF.deg               300.46:  Azm, Final 
 BHAT.        Rotary Steerable:  BHA Type 
 BROT.°/30m               0.40:  Build Rotating 
 BS  .in                 17.50:  Bit Size 
 BSZ .in                 17.50:  Bit Size 
 BTPL.psig              300.00:  Bit Press Loss 
 CABU.                      No:  Customer Abuse 
 CGEO.          Parviz Guliyev:  Customer Geo 
 COMM.                     ägu:  Run Comments 1 
 TCS .hr                108.13:  Time Ciculation Ended 
 CV  .mps                 0.50:  Crit Velocity 
 CVMX.mps                 2.01:  Max Crit Veloc 
 DD1 .          Fariz Nahmatov:  Direct Drillr 1 
 DD2 .             Ehab Radwan:  Direct Drillr 2 
 DDSV.               Geo-Pilot:  DD Service 
 DEFF.%                  99.00:  % Det Eff 
 DLRX.°/30m               0.50:  Dogleg Rot Max 
 DLSO.°/30m               2.80:  Dogleg Oriented 
 DLSX.°/30m               3.90:  Dogleg Str Max 
 DRET.      09.30.04 03-Jul-20:  Drill End Time 
 DRST.      18.33.04 28-Jun-20:  Drill Start Tim 
 DTIM.hr                 55.83:  Time Drilling 
 EDEP.m                1952.00:  End Depth 
 ENG1.      Bakhtiyar Jabbarli:  Engineer 1 
 ENG2.         Farhad Orujzade:  Engineer 2 
 ENG3.          Rustam Safarov:  Engineer 3 
 ETIM.      01.33.04 04-Jul-20:  End Time 
 FLOI.gpm              1050.00:  Flow In 
 FLON.gpm               950.00:  Flow In Min 
 FLOS.cptm                0.10:  Fluid Loss 
 FLOX.gpm              1150.00:  Flow In Max 
 HFLO.                      No:  High Flow 
 HPRE.                      No:  High Pressure 
 HTEM.                      No:  High Temp 
 HYDO.m                   1.80:  Hydro Offset 
 IFIN.deg                75.26:  Inc, Final 
 IMAX.deg                75.38:  Inc Max 
 IMIN.deg                22.84:  Inc Min 
 IMND.m                 832.38:  Inc Min Depth 
 IMXD.m                1936.55:  Inc Max Depth 
 JARR.                      No:  Jarring 
 LETM.      17.40.00 04-Jul-20:  Log End Time 
 LOST.hr                     0:  Lost Rig Time 
 LSTM.      12.33.04 28-Jun-20:  Log Start Time 
 MDCL.ppm             49500.00:  Mud Chlorides 
 MDES.     Inversion Oil/Synthetic:  Mud Desc 
 DFD .sg                  1.46:  Mud Density 
 MDMN.sg                  1.46:  Dens Mud Min 
 MDMX.sg                  1.46:  Dens Mud Max 
 MOIL.                      70:  Run Mud Oil % 
 MOWR.                   70:30:  Run Mud OWR 
 MSND.                     0.5:  Run Mud Sand % 
 MSOL.                   19.89:  Run Mud Solids% 
 DFV .spqt               72.00:  Mud Viscosity 
 MWOD.in                  9.50:  MWD Tool OD 
 MWSI.                      No:  Serv Intrp, MWD 
 OTIM.hr                146.53:  Time Operating 
 PCON.           Look Like New:  Pad Condition 
 PMAX.psia             2900.00:  Press Op, Max 
 PV  .cP                 38.00:  Mud PV 
 RUN .                     600:  Run Number 
 ROPA.m/hr               22.00:  ROP Avg 
 ROPN.m/hr               10.00:  ROP Min 
 ROPX.m/hr              263.00:  ROP Max 
 RPMA.rpm               155.00:  RPM Surface Avg 
 RPMN.rpm               140.00:  RPM Surface Min 
 RPMX.rpm               160.00:  RPM Surface Max 
 RRUN.                    0600:  Rig Run Number 
 RTIM.hr                  5.00:  Time Reaming 
 SAZI.deg               300.08:  Azm, Start 
 SDEP.m                 800.00:  Start Depth 
 SIDD.                      No:  Serv Intrp, DD 
 SINC.deg                22.84:  Inc, Start 
 SPPA.psig             3000.00:  SPP Avg 
 SPPN.psig             1900.00:  SPP Min 
 SPPX.psig             3200.00:  SPP Max 
 STIM.      12.30.04 28-Jun-20:  Start Time 
 SVCS.                 DD, MWD:  Services 
 SVER.                    9.20:  Sperry Version 
 TDAT.m                1952.00:  Tot Depth Attmp 
 TDDF.                      No:  Trip for DD 
 TDLG.m                1152.00:  Tot Depth Loggd 
 TFF .                      No:  Trip for Fail 
 TQAA.f-kp                8.00:  Torque Abs Avg 
 TQAN.f-kp                5.00:  Torque Abs Min 
 TQAX.f-kp               14.00:  Torque Abs Max 
 TRRT.°/30m               0.50:  Turn Rotating 
 MRT .                  EWR-M5:  Maximum Recorded Temperature 
 TTMX.degC               69.00:  Max Tool Temp 
 VS01.                90610313:  Virtual Str1 SN 
 VS02.                90613431:  Virtual Str2 SN 
 VS03.                90615410:  Virtual Str3 SN 
 WBMN.klb                 6.00:  WOB Min 
 WITN.            Bruce Cheyne:  Customer Rep 
 WITN.             Ayaz Aliyev:  Customer Rep 2 
 WOBA.klb                 6.00:  WOB Avg 
 WOBX.klb                10.00:  WOB Max 
 YP  .lhf2               36.00:  Yield Point 
~Curve Information Block
#MNEM.UNIT                 API CODE     Curve Description
#---------               -----------    ---------------------------
 TIME.HHMMSS            00 000 000 000:  GT Time & Date
 GTET.sec               00 000 000 000:  GT Elapsed Test Time
 GTPQH.psia             00 000 000 000:  GT HR Quartz Pressure
 GTDEPTH.m              00 000 000 000:  GT Depth
 GTTVD.m                00 000 000 000:  GT True Vertical Depth
 GTTQ.degC              00 000 000 000:  GT Quartz Temperature
 GTTN.NONE              00 000 000 000:  GT Test Number
#Other Information
#
#WARRANTY: Halliburton will use its best efforts to furnish customers with 
#accurate information and interpretations that are part of, and incident to, the services 
#provided.  However, Halliburton cannot and does not warrant the accuracy 
#or correctness of such information and interpretations.  Under no circumstances should any 
#such information or interpretation be relied upon as the sole basis for any drilling, 
#completion, production, or financial decision or any procedure involving any risk to the 
#safety of any drilling venture, drilling rig or its crew or any other third party.  The 
#Customer has full responsibility for all drilling, completion and production operation.  
#Halliburton makes no representations or warranties, either expressed or 
#implied, including, but not limited to, the implied warranties of merchantability or fitness 
#for a particular purpose, with respect to the services rendered.  In no event will 
#Halliburton be liable for failure to obtain any particular results or for 
#any damages, including, but not limited to, indirect, special or consequential damages, 
#resulting from the use of any information or interpretation provided by Halliburton.
#
~A           TIME            GTET   GTPQH  GTDEPTH  GTTVD  GTTQ  GTTN 
# ...
   23:55:49.601.02-Jul-2020  92.01 2502.45 1828.92 1344.71 59.08 7.00
   23:55:49.801.02-Jul-2020  92.21 2502.45 1828.92 1344.71 59.08 7.00
   23:55:50.001.02-Jul-2020  92.41 2502.61 1828.92 1344.71 59.08 7.00
   23:55:50.201.02-Jul-2020  92.61 2502.63 1828.92 1344.71 59.08 7.00
   23:55:50.401.02-Jul-2020  92.81 2502.72 1828.92 1344.71 59.08 7.00
   23:55:50.601.02-Jul-2020  93.01 2502.80 1828.92 1344.71 59.08 7.00
   23:55:50.801.02-Jul-2020  93.21 2502.80 1828.92 1344.71 59.08 7.00
   23:55:51.001.02-Jul-2020  93.41 2502.91 1828.92 1344.71 59.08 7.00
   23:55:51.201.02-Jul-2020  93.61 2502.97 1828.92 1344.71 59.08 7.00
   23:55:51.401.02-Jul-2020  93.81 2503.00 1828.92 1344.71 59.08 7.00
   23:55:51.601.02-Jul-2020  94.01 2503.05 1828.92 1344.71 59.08 7.00
   23:55:51.801.02-Jul-2020  94.21 2503.05 1828.92 1344.71 59.08 7.00
   23:55:52.002.02-Jul-2020  94.41 2503.00 1828.92 1344.71 59.08 7.00
   23:55:52.202.02-Jul-2020  94.61 2503.17 1828.92 1344.71 59.08 7.00
   23:55:52.402.02-Jul-2020  94.81 2503.22 1828.92 1344.71 59.08 7.00
   23:55:52.602.02-Jul-2020  95.01 2503.27 1828.92 1344.71 59.08 7.00
   23:55:52.802.02-Jul-2020  95.21 2503.31 1828.92 1344.71 59.08 7.00
   23:55:53.002.02-Jul-2020  95.41 2503.34 1828.92 1344.71 59.08 7.00
   23:55:53.202.02-Jul-2020  95.61 2503.39 1828.92 1344.71 59.08 7.00
   23:55:53.402.02-Jul-2020  95.81 2503.45 1828.92 1344.71 59.08 7.00
   23:55:53.602.02-Jul-2020  96.01 2503.48 1828.92 1344.71 59.08 7.00
   23:55:53.802.02-Jul-2020  96.21 2503.52 1828.92 1344.71 59.08 7.00
   23:55:54.002.02-Jul-2020  96.41 2503.52 1828.92 1344.71 59.08 7.00
   23:55:54.202.02-Jul-2020  96.61 2503.54 1828.92 1344.71 59.08 7.00
   23:55:54.402.02-Jul-2020  96.81 2503.43 1828.92 1344.71 59.07 7.00
   23:55:54.602.02-Jul-2020  97.01 2503.61 1828.92 1344.71 59.07 7.00
   23:55:54.802.02-Jul-2020  97.21 2503.61 1828.92 1344.71 59.07 7.00
   23:55:55.002.02-Jul-2020  97.41 2503.63 1828.92 1344.71 59.07 7.00
   23:55:55.202.02-Jul-2020  97.61 2503.68 1828.92 1344.71 59.07 7.00
   23:55:55.402.02-Jul-2020  97.81 2503.68 1828.92 1344.71 59.07 7.00
   23:55:55.602.02-Jul-2020  98.01 2503.69 1828.92 1344.71 59.07 7.00
   23:55:55.802.02-Jul-2020  98.21 2503.68 1828.92 1344.71 59.07 7.00
   23:55:56.002.02-Jul-2020  98.41 2503.67 1828.92 1344.71 59.07 7.00
   23:55:56.202.02-Jul-2020  98.61 2503.75 1828.92 1344.71 59.07 7.00
   23:55:56.402.02-Jul-2020  98.81 2503.79 1828.92 1344.71 59.07 7.00
   23:55:56.602.02-Jul-2020  99.01 2503.78 1828.92 1344.71 59.07 7.00
   23:55:56.802.02-Jul-2020  99.21 2503.78 1828.92 1344.71 59.07 7.00
   23:55:57.002.02-Jul-2020  99.41 2503.82 1828.92 1344.71 59.07 7.00
   23:55:57.202.02-Jul-2020  99.61 2503.72 1828.92 1344.71 59.07 7.00
   23:55:57.402.02-Jul-2020  99.81 2503.85 1828.92 1344.71 59.07 7.00
   23:55:57.602.02-Jul-2020 100.01 2503.86 1828.92 1344.71 59.07 7.00
   23:55:57.802.02-Jul-2020 100.21 2503.86 1828.92 1344.71 59.07 7.00
   23:55:58.002.02-Jul-2020 100.41 2503.88 1828.92 1344.71 59.07 7.00
   23:55:58.202.02-Jul-2020 100.61 2503.80 1828.92 1344.71 59.07 7.00
   23:55:58.402.02-Jul-2020 100.81 2503.83 1828.92 1344.71 59.07 7.00
   23:55:58.602.02-Jul-2020 101.01 2503.88 1828.92 1344.71 59.07 7.00
   23:55:58.802.02-Jul-2020 101.21 2503.88 1828.92 1344.71 59.07 7.00
   23:55:59.002.02-Jul-2020 101.41 2503.93 1828.92 1344.71 59.07 7.00
   23:55:59.203.02-Jul-2020 101.61 2503.99 1828.92 1344.71 59.07 7.00
   23:55:59.403.02-Jul-2020 101.81 2503.97 1828.92 1344.71 59.07 7.00
   23:55:59.603.02-Jul-2020 102.01 2504.03 1828.92 1344.71 59.07 7.00
   23:55:59.803.02-Jul-2020 102.21 2504.03 1828.92 1344.71 59.07 7.00
   23:56:00.003.02-Jul-2020 102.41 2504.02 1828.92 1344.71 59.07 7.00
   23:56:00.203.02-Jul-2020 102.61 2504.01 1828.92 1344.71 59.07 7.00
   23:56:00.403.02-Jul-2020 102.81 2504.05 1828.92 1344.71 59.07 7.00
   23:56:00.603.02-Jul-2020 103.01 2504.04 1828.92 1344.71 59.07 7.00
   23:56:00.803.02-Jul-2020 103.21 2504.04 1828.92 1344.71 59.07 7.00
   23:56:01.003.02-Jul-2020 103.41 2504.11 1828.92 1344.71 59.07 7.00
   23:56:01.203.02-Jul-2020 103.61 2504.10 1828.92 1344.71 59.07 7.00
   23:56:01.403.02-Jul-2020 103.81 2504.09 1828.92 1344.71 59.07 7.00
   23:56:01.603.02-Jul-2020 104.01 2504.11 1828.92 1344.71 59.07 7.00
   23:56:01.803.02-Jul-2020 104.21 2504.11 1828.92 1344.71 59.07 7.00
   23:56:02.003.02-Jul-2020 104.41 2503.96 1828.92 1344.71 59.07 7.00
   23:56:02.203.02-Jul-2020 104.61 2504.12 1828.92 1344.71 59.07 7.00
   23:56:02.403.02-Jul-2020 104.81 2504.33 1828.92 1344.71 59.07 7.00
   23:56:02.603.02-Jul-2020 105.01 2504.29 1828.92 1344.71 59.07 7.00
   23:56:02.803.02-Jul-2020 105.21 2504.29 1828.92 1344.71 59.07 7.00
   23:56:03.003.02-Jul-2020 105.41 2504.13 1828.92 1344.71 59.07 7.00
   23:56:03.203.02-Jul-2020 105.61 2504.14 1828.92 1344.71 59.07 7.00
   23:56:03.403.02-Jul-2020 105.81 2504.15 1828.92 1344.71 59.07 7.00
   23:56:03.603.02-Jul-2020 106.01 2504.36 1828.92 1344.71 59.07 7.00
   23:56:03.803.02-Jul-2020 106.21 2504.36 1828.92 1344.71 59.07 7.00
   23:56:04.003.02-Jul-2020 106.41 2504.36 1828.92 1344.71 59.07 7.00
   23:56:04.203.02-Jul-2020 106.61 2504.21 1828.92 1344.71 59.07 7.00
   23:56:04.403.02-Jul-2020 106.81 2504.08 1828.92 1344.71 59.07 7.00
   23:56:04.603.02-Jul-2020 107.01 2504.11 1828.92 1344.71 59.07 7.00
   23:56:04.803.02-Jul-2020 107.21 2504.17 1828.92 1344.71 59.07 7.00
   23:56:05.003.02-Jul-2020 107.41 2504.16 1828.92 1344.71 59.07 7.00
   23:56:05.203.02-Jul-2020 107.61 2504.17 1828.92 1344.71 59.07 7.00
   23:56:05.403.02-Jul-2020 107.81 2504.20 1828.92 1344.71 59.07 7.00
   23:56:05.603.02-Jul-2020 108.01 2504.08 1828.92 1344.71 59.07 7.00
   23:56:05.803.02-Jul-2020 108.21 2504.08 1828.92 1344.71 59.07 7.00
   23:56:06.003.02-Jul-2020 108.41 2504.16 1828.92 1344.71 59.07 7.00
   23:56:06.203.02-Jul-2020 108.61 2504.16 1828.92 1344.71 59.07 7.00
   23:56:06.403.02-Jul-2020 108.81 2504.18 1828.92 1344.71 59.07 7.00
   23:56:06.604.02-Jul-2020 109.01 2504.18 1828.92 1344.71 59.07 7.00
   23:56:06.804.02-Jul-2020 109.21 2504.18 1828.92 1344.71 59.07 7.00
   23:56:07.004.02-Jul-2020 109.41 2504.11 1828.92 1344.71 59.07 7.00
   23:56:07.204.02-Jul-2020 109.61 2504.17 1828.92 1344.71 59.07 7.00
   23:56:07.404.02-Jul-2020 109.81 2504.24 1828.92 1344.71 59.07 7.00
   23:56:07.604.02-Jul-2020 110.02 2504.20 1828.92 1344.71 59.07 7.00
   23:56:07.804.02-Jul-2020 110.22 2504.20 1828.92 1344.71 59.07 7.00
   23:56:08.004.02-Jul-2020 110.42 2504.14 1828.92 1344.71 59.07 7.00
   23:56:08.204.02-Jul-2020 110.62 2504.24 1828.92 1344.71 59.07 7.00
   23:56:08.404.02-Jul-2020 110.82 2504.55 1828.92 1344.71 59.07 7.00
   23:56:08.604.02-Jul-2020 111.02 2504.28 1828.92 1344.71 59.07 7.00
   23:56:08.804.02-Jul-2020 111.22 2504.27 1828.92 1344.71 59.07 7.00
   23:56:09.004.02-Jul-2020 111.42 2504.24 1828.92 1344.71 59.07 7.00
   23:56:09.204.02-Jul-2020 111.62 2504.24 1828.92 1344.71 59.07 7.00
   23:56:09.404.02-Jul-2020 111.82 2504.25 1828.92 1344.71 59.07 7.00
   23:56:09.604.02-Jul-2020 112.02 2504.28 1828.92 1344.71 59.07 7.00
   23:56:09.804.02-Jul-2020 112.22 2504.28 1828.92 1344.71 59.07 7.00
   23:56:10.004.02-Jul-2020 112.42 2504.25 1828.92 1344.71 59.07 7.00
   23:56:10.204.02-Jul-2020 112.62 2504.28 1828.92 1344.71 59.07 7.00
   23:56:10.404.02-Jul-2020 112.82 2504.26 1828.92 1344.71 59.07 7.00
   23:56:10.604.02-Jul-2020 113.02 2504.28 1828.92 1344.71 59.07 7.00
   23:56:10.804.02-Jul-2020 113.22 2504.28 1828.92 1344.71 59.07 7.00
   23:56:11.004.02-Jul-2020 113.42 2504.30 1828.92 1344.71 59.07 7.00
   23:56:11.204.02-Jul-2020 113.62 2504.30 1828.92 1344.71 59.07 7.00
   23:56:11.404.02-Jul-2020 113.82 2504.29 1828.92 1344.71 59.07 7.00
   23:56:11.604.02-Jul-2020 114.02 2504.20 1828.92 1344.71 59.07 7.00
   23:56:11.804.02-Jul-2020 114.22 2504.20 1828.92 1344.71 59.07 7.00
   23:56:12.004.02-Jul-2020 114.42 2504.28 1828.92 1344.71 59.07 7.00
   23:56:12.204.02-Jul-2020 114.62 2504.36 1828.92 1344.71 59.07 7.00
   23:56:12.404.02-Jul-2020 114.82 2504.34 1828.92 1344.71 59.07 7.00
