~Version Information
 VERS.                  2.0:   CWLS log ASCII Standard -VERSION 2.0
 WRAP.                   NO:   One line per depth step
~Well Information Block
#MNEM.UNIT     VALUE/NAME     DESCRIPTION
#---------     -----------    ---------------------------
 STRT.S             23:54:17 02-Jul-20: START TIME 23:54:17 02-Jul-20
 STOP.S             00:03:12 03-Jul-20: STOP TIME  00:03:12 03-Jul-20
 STEP.S                   0.00: STEP TIME
 NULL.                 -999.25: NULL VALUE
 DFWT.                        :  DIST FWL TEXT
 DFST.                        :  DIST FSL TEXT
 DMF .             Drill Floor:  DRILL MEAS FROM
 STIM.      09.59.28 01-Jun-20:  START TIME
 DATE.      09.59.28 01-Jun-20:  END TIME
 SPUD.               01-Jun-20:  SPUD DATE
 NREF.                    Grid:  NORTH REFERENCE
 HPTY.       Minimum Curvature:  HOLE POS TYPE
 DMOD.             Drill Model:  DRILL MOD DESC
 SVYD.                  Survey:  SURVEY DESC
 ILTD.               Lithology:  INTERP LTH DESC
 FTOP.          Formation Tops:  FORM TOPS DESC
 SON .        AZ-XX-0905455768:  JOB NUMBER
 WTYP.                Deviated:  WELL TYPE
 COMP.     BP Exploration(Caspian Sea):  COMPANY
 BASE.              Azerbaijan:  LOGGING EQUIPMENT BASE LOCATION
 REGN.                   EESSA:  REGION
 CTRY.              Azerbaijan:  COUNTRY NAME
 FLD .                     ACG:  FIELD NAME
 SRVC.          Turan Drilling:  CONTRACTOR
 WELL.                     B41:  WELL NAME
 RIG .           Central Azeri:  RIG NAME
 DCON.         Sperry Drilling:  DIRECTNL CONTR
 PDAT.          Mean Sea Level:  PERMANENT DATUM
 MDS .        Operator Entered:  MAG DATA SOURCE
 API .                        :  API NUMBER
 CNTY.                        :  COUNTY
 PROV.                        :  PROVINCE
 STAT.                        :  STATE
 UWI .                        :  UNIQUE WELL IDENTIFIER
 LOC .                        :  LOCATION
 LMF .             Drill Floor:  LOG MEASURED FROM
 TVDS.m                  43.29:  TVDSS CORRECTN
 LATI.deg                40.03:  LATITUDE
 LONG.deg                51.35:  LONGITUDE
 WHNS.m                  12.98:  WELL HEAD N/S
 WHEW.m                  -6.62:  WELL HEAD E/W
 UTMX.m              530128.28:  UTM X
 UTMY.m             4433192.49:  UTM Y
 DFWL.m                   0.00:  DISTANCE FWL
 DFSL.m                   0.00:  DISTANCE FSL
 SDEP.m                 378.00:  START DEPTH
 TDD .m                   0.00:  TOTAL DEPTH (DRILLER)
 VSDR.deg               296.18:  VERT SEC DIRECT
 GVFD.g                   1.00:  GRAVITY FIELD
 MFLD.nT              50253.00:  MAGNETIC FIELD
 MDIP.deg                59.49:  MAGNETIC DIP
 MDEC.deg                 6.44:  MAGNETIC DECL
 GRDC.deg                 0.22:  GRID CORRECTION
 AZTC.deg                 6.22:  AZM TOTAL CORR
 EPD .m                   0.00:  ELEVATION
 EGL .m                   0.00:  GROUND ELEVATION
 WDMS.m                 128.20:  WD ELEV
 APD .m                  43.29:  DEPTH ABOVE PD
 AGAP.m                  43.29:  AIR GAP
 VSEW.m                  -6.62:  VERT SEC E/W
 VSNS.m                  12.98:  VERT SEC N/S
 EKB .m                  43.29:  KB ELEVATION
 EDF .m                  43.29:  DF ELEVATION
 TDL .m                1152.00:  TOTAL DEPTH (LOGGER)
 VSC .                       0:  VS TO CLOSURE
 MAGU.                 1848525:  MAGUTM CHECKSUM
~Parameter Information Block
#MNEM.UNIT       Value        Description
#---------     -----------    ---------------------------
 AV  .mps                 0.40:  Ann Velocity 
 AVMX.mps                 1.56:  Max Ann Veloc 
 AZIF.deg               300.46:  Azm, Final 
 BHAT.        Rotary Steerable:  BHA Type 
 BROT.°/30m               0.40:  Build Rotating 
 BS  .in                 17.50:  Bit Size 
 BSZ .in                 17.50:  Bit Size 
 BTPL.psig              300.00:  Bit Press Loss 
 CABU.                      No:  Customer Abuse 
 CGEO.          Parviz Guliyev:  Customer Geo 
 COMM.                     ägu:  Run Comments 1 
 TCS .hr                108.13:  Time Ciculation Ended 
 CV  .mps                 0.50:  Crit Velocity 
 CVMX.mps                 2.01:  Max Crit Veloc 
 DD1 .          Fariz Nahmatov:  Direct Drillr 1 
 DD2 .             Ehab Radwan:  Direct Drillr 2 
 DDSV.               Geo-Pilot:  DD Service 
 DEFF.%                  99.00:  % Det Eff 
 DLRX.°/30m               0.50:  Dogleg Rot Max 
 DLSO.°/30m               2.80:  Dogleg Oriented 
 DLSX.°/30m               3.90:  Dogleg Str Max 
 DRET.      09.30.04 03-Jul-20:  Drill End Time 
 DRST.      18.33.04 28-Jun-20:  Drill Start Tim 
 DTIM.hr                 55.83:  Time Drilling 
 EDEP.m                1952.00:  End Depth 
 ENG1.      Bakhtiyar Jabbarli:  Engineer 1 
 ENG2.         Farhad Orujzade:  Engineer 2 
 ENG3.          Rustam Safarov:  Engineer 3 
 ETIM.      01.33.04 04-Jul-20:  End Time 
 FLOI.gpm              1050.00:  Flow In 
 FLON.gpm               950.00:  Flow In Min 
 FLOS.cptm                0.10:  Fluid Loss 
 FLOX.gpm              1150.00:  Flow In Max 
 HFLO.                      No:  High Flow 
 HPRE.                      No:  High Pressure 
 HTEM.                      No:  High Temp 
 HYDO.m                   1.80:  Hydro Offset 
 IFIN.deg                75.26:  Inc, Final 
 IMAX.deg                75.38:  Inc Max 
 IMIN.deg                22.84:  Inc Min 
 IMND.m                 832.38:  Inc Min Depth 
 IMXD.m                1936.55:  Inc Max Depth 
 JARR.                      No:  Jarring 
 LETM.      17.40.00 04-Jul-20:  Log End Time 
 LOST.hr                     0:  Lost Rig Time 
 LSTM.      12.33.04 28-Jun-20:  Log Start Time 
 MDCL.ppm             49500.00:  Mud Chlorides 
 MDES.     Inversion Oil/Synthetic:  Mud Desc 
 DFD .sg                  1.46:  Mud Density 
 MDMN.sg                  1.46:  Dens Mud Min 
 MDMX.sg                  1.46:  Dens Mud Max 
 MOIL.                      70:  Run Mud Oil % 
 MOWR.                   70:30:  Run Mud OWR 
 MSND.                     0.5:  Run Mud Sand % 
 MSOL.                   19.89:  Run Mud Solids% 
 DFV .spqt               72.00:  Mud Viscosity 
 MWOD.in                  9.50:  MWD Tool OD 
 MWSI.                      No:  Serv Intrp, MWD 
 OTIM.hr                146.53:  Time Operating 
 PCON.           Look Like New:  Pad Condition 
 PMAX.psia             2900.00:  Press Op, Max 
 PV  .cP                 38.00:  Mud PV 
 RUN .                     600:  Run Number 
 ROPA.m/hr               22.00:  ROP Avg 
 ROPN.m/hr               10.00:  ROP Min 
 ROPX.m/hr              263.00:  ROP Max 
 RPMA.rpm               155.00:  RPM Surface Avg 
 RPMN.rpm               140.00:  RPM Surface Min 
 RPMX.rpm               160.00:  RPM Surface Max 
 RRUN.                    0600:  Rig Run Number 
 RTIM.hr                  5.00:  Time Reaming 
 SAZI.deg               300.08:  Azm, Start 
 SDEP.m                 800.00:  Start Depth 
 SIDD.                      No:  Serv Intrp, DD 
 SINC.deg                22.84:  Inc, Start 
 SPPA.psig             3000.00:  SPP Avg 
 SPPN.psig             1900.00:  SPP Min 
 SPPX.psig             3200.00:  SPP Max 
 STIM.      12.30.04 28-Jun-20:  Start Time 
 SVCS.                 DD, MWD:  Services 
 SVER.                    9.20:  Sperry Version 
 TDAT.m                1952.00:  Tot Depth Attmp 
 TDDF.                      No:  Trip for DD 
 TDLG.m                1152.00:  Tot Depth Loggd 
 TFF .                      No:  Trip for Fail 
 TQAA.f-kp                8.00:  Torque Abs Avg 
 TQAN.f-kp                5.00:  Torque Abs Min 
 TQAX.f-kp               14.00:  Torque Abs Max 
 TRRT.°/30m               0.50:  Turn Rotating 
 MRT .                  EWR-M5:  Maximum Recorded Temperature 
 TTMX.degC               69.00:  Max Tool Temp 
 VS01.                90610313:  Virtual Str1 SN 
 VS02.                90613431:  Virtual Str2 SN 
 VS03.                90615410:  Virtual Str3 SN 
 WBMN.klb                 6.00:  WOB Min 
 WITN.            Bruce Cheyne:  Customer Rep 
 WITN.             Ayaz Aliyev:  Customer Rep 2 
 WOBA.klb                 6.00:  WOB Avg 
 WOBX.klb                10.00:  WOB Max 
 YP  .lhf2               36.00:  Yield Point 
~Curve Information Block
#MNEM.UNIT                 API CODE     Curve Description
#---------               -----------    ---------------------------
 TIME.HHMMSS            00 000 000 000:  GT Time & Date
 GTET.sec               00 000 000 000:  GT Elapsed Test Time
 GTPQH.psia             00 000 000 000:  GT HR Quartz Pressure
 GTDEPTH.m              00 000 000 000:  GT Depth
 GTTVD.m                00 000 000 000:  GT True Vertical Depth
 GTTQ.degC              00 000 000 000:  GT Quartz Temperature
 GTTN.NONE              00 000 000 000:  GT Test Number
#Other Information
#
#WARRANTY: Halliburton will use its best efforts to furnish customers with 
#accurate information and interpretations that are part of, and incident to, the services 
#provided.  However, Halliburton cannot and does not warrant the accuracy 
#or correctness of such information and interpretations.  Under no circumstances should any 
#such information or interpretation be relied upon as the sole basis for any drilling, 
#completion, production, or financial decision or any procedure involving any risk to the 
#safety of any drilling venture, drilling rig or its crew or any other third party.  The 
#Customer has full responsibility for all drilling, completion and production operation.  
#Halliburton makes no representations or warranties, either expressed or 
#implied, including, but not limited to, the implied warranties of merchantability or fitness 
#for a particular purpose, with respect to the services rendered.  In no event will 
#Halliburton be liable for failure to obtain any particular results or for 
#any damages, including, but not limited to, indirect, special or consequential damages, 
#resulting from the use of any information or interpretation provided by Halliburton.
#
~A           TIME            GTET   GTPQH  GTDEPTH  GTTVD  GTTQ  GTTN 
# ...
   23:58:53.626.02-Jul-2020 276.04 2503.53 1828.92 1344.71 59.06 7.00
   23:58:53.826.02-Jul-2020 276.24 2503.53 1828.92 1344.71 59.06 7.00
   23:58:54.026.02-Jul-2020 276.44 2503.53 1828.92 1344.71 59.06 7.00
   23:58:54.226.02-Jul-2020 276.64 2503.48 1828.92 1344.71 59.06 7.00
   23:58:54.426.02-Jul-2020 276.84 2503.49 1828.92 1344.71 59.06 7.00
   23:58:54.626.02-Jul-2020 277.04 2503.53 1828.92 1344.71 59.06 7.00
   23:58:54.826.02-Jul-2020 277.24 2503.53 1828.92 1344.71 59.06 7.00
   23:58:55.026.02-Jul-2020 277.44 2503.52 1828.92 1344.71 59.06 7.00
   23:58:55.227.02-Jul-2020 277.64 2503.55 1828.92 1344.71 59.06 7.00
   23:58:55.427.02-Jul-2020 277.84 2503.52 1828.92 1344.71 59.06 7.00
   23:58:55.627.02-Jul-2020 278.04 2503.52 1828.92 1344.71 59.06 7.00
   23:58:55.827.02-Jul-2020 278.24 2503.52 1828.92 1344.71 59.06 7.00
   23:58:56.027.02-Jul-2020 278.44 2503.54 1828.92 1344.71 59.06 7.00
   23:58:56.227.02-Jul-2020 278.64 2503.54 1828.92 1344.71 59.06 7.00
   23:58:56.427.02-Jul-2020 278.84 2503.53 1828.92 1344.71 59.06 7.00
   23:58:56.627.02-Jul-2020 279.04 2503.54 1828.92 1344.71 59.06 7.00
   23:58:56.827.02-Jul-2020 279.24 2503.54 1828.92 1344.71 59.06 7.00
   23:58:57.027.02-Jul-2020 279.44 2503.52 1828.92 1344.71 59.06 7.00
   23:58:57.227.02-Jul-2020 279.64 2503.54 1828.92 1344.71 59.06 7.00
   23:58:57.427.02-Jul-2020 279.84 2503.55 1828.92 1344.71 59.06 7.00
   23:58:57.627.02-Jul-2020 280.04 2503.55 1828.92 1344.71 59.06 7.00
   23:58:57.827.02-Jul-2020 280.24 2503.55 1828.92 1344.71 59.06 7.00
   23:58:58.027.02-Jul-2020 280.44 2503.46 1828.92 1344.71 59.06 7.00
   23:58:58.227.02-Jul-2020 280.64 2503.53 1828.92 1344.71 59.06 7.00
   23:58:58.427.02-Jul-2020 280.84 2503.54 1828.92 1344.71 59.06 7.00
   23:58:58.627.02-Jul-2020 281.04 2503.54 1828.92 1344.71 59.06 7.00
   23:58:58.827.02-Jul-2020 281.24 2503.54 1828.92 1344.71 59.06 7.00
   23:58:59.027.02-Jul-2020 281.44 2503.54 1828.92 1344.71 59.06 7.00
   23:58:59.227.02-Jul-2020 281.64 2503.53 1828.92 1344.71 59.06 7.00
   23:58:59.427.02-Jul-2020 281.84 2503.54 1828.92 1344.71 59.06 7.00
   23:58:59.627.02-Jul-2020 282.04 2503.55 1828.92 1344.71 59.06 7.00
   23:58:59.827.02-Jul-2020 282.24 2503.55 1828.92 1344.71 59.06 7.00
   23:59:00.027.02-Jul-2020 282.44 2503.55 1828.92 1344.71 59.06 7.00
   23:59:00.227.02-Jul-2020 282.64 2503.54 1828.92 1344.71 59.06 7.00
   23:59:00.427.02-Jul-2020 282.84 2503.48 1828.92 1344.71 59.06 7.00
   23:59:00.627.02-Jul-2020 283.04 2503.55 1828.92 1344.71 59.06 7.00
   23:59:00.827.02-Jul-2020 283.24 2503.55 1828.92 1344.71 59.06 7.00
   23:59:01.027.02-Jul-2020 283.44 2503.55 1828.92 1344.71 59.06 7.00
   23:59:01.227.02-Jul-2020 283.64 2503.55 1828.92 1344.71 59.06 7.00
   23:59:01.427.02-Jul-2020 283.84 2503.54 1828.92 1344.71 59.06 7.00
   23:59:01.627.02-Jul-2020 284.04 2503.51 1828.92 1344.71 59.06 7.00
   23:59:01.827.02-Jul-2020 284.24 2503.51 1828.92 1344.71 59.06 7.00
   23:59:02.027.02-Jul-2020 284.44 2503.55 1828.92 1344.71 59.06 7.00
   23:59:02.227.02-Jul-2020 284.64 2503.54 1828.92 1344.71 59.06 7.00
   23:59:02.427.02-Jul-2020 284.84 2503.56 1828.92 1344.71 59.06 7.00
   23:59:02.628.02-Jul-2020 285.04 2503.56 1828.92 1344.71 59.06 7.00
   23:59:02.828.02-Jul-2020 285.24 2503.56 1828.92 1344.71 59.06 7.00
   23:59:03.028.02-Jul-2020 285.44 2503.47 1828.92 1344.71 59.06 7.00
   23:59:03.228.02-Jul-2020 285.64 2503.56 1828.92 1344.71 59.06 7.00
   23:59:03.428.02-Jul-2020 285.84 2503.57 1828.92 1344.71 59.06 7.00
   23:59:03.628.02-Jul-2020 286.04 2503.56 1828.92 1344.71 59.06 7.00
   23:59:03.828.02-Jul-2020 286.24 2503.56 1828.92 1344.71 59.06 7.00
   23:59:04.028.02-Jul-2020 286.44 2503.46 1828.92 1344.71 59.06 7.00
   23:59:04.228.02-Jul-2020 286.64 2503.56 1828.92 1344.71 59.06 7.00
   23:59:04.428.02-Jul-2020 286.84 2503.55 1828.92 1344.71 59.06 7.00
   23:59:04.628.02-Jul-2020 287.04 2503.54 1828.92 1344.71 59.06 7.00
   23:59:04.828.02-Jul-2020 287.24 2503.54 1828.92 1344.71 59.06 7.00
   23:59:05.028.02-Jul-2020 287.44 2503.56 1828.92 1344.71 59.06 7.00
   23:59:05.228.02-Jul-2020 287.64 2503.54 1828.92 1344.71 59.06 7.00
   23:59:05.428.02-Jul-2020 287.84 2503.54 1828.92 1344.71 59.06 7.00
   23:59:05.628.02-Jul-2020 288.04 2503.56 1828.92 1344.71 59.06 7.00
   23:59:05.828.02-Jul-2020 288.24 2503.56 1828.92 1344.71 59.06 7.00
   23:59:06.028.02-Jul-2020 288.44 2503.56 1828.92 1344.71 59.06 7.00
   23:59:06.228.02-Jul-2020 288.64 2503.56 1828.92 1344.71 59.06 7.00
   23:59:06.428.02-Jul-2020 288.84 2503.55 1828.92 1344.71 59.06 7.00
   23:59:06.628.02-Jul-2020 289.04 2503.54 1828.92 1344.71 59.06 7.00
   23:59:06.828.02-Jul-2020 289.24 2503.54 1828.92 1344.71 59.06 7.00
   23:59:07.028.02-Jul-2020 289.44 2503.57 1828.92 1344.71 59.06 7.00
   23:59:07.228.02-Jul-2020 289.64 2503.57 1828.92 1344.71 59.06 7.00
   23:59:07.428.02-Jul-2020 289.84 2503.56 1828.92 1344.71 59.06 7.00
   23:59:07.628.02-Jul-2020 290.04 2503.50 1828.92 1344.71 59.06 7.00
   23:59:07.828.02-Jul-2020 290.24 2503.50 1828.92 1344.71 59.06 7.00
   23:59:08.028.02-Jul-2020 290.44 2503.55 1828.92 1344.71 59.06 7.00
   23:59:08.228.02-Jul-2020 290.64 2503.55 1828.92 1344.71 59.06 7.00
   23:59:08.428.02-Jul-2020 290.84 2503.58 1828.92 1344.71 59.06 7.00
   23:59:08.628.02-Jul-2020 291.04 2503.57 1828.92 1344.71 59.06 7.00
   23:59:08.828.02-Jul-2020 291.24 2503.56 1828.92 1344.71 59.06 7.00
   23:59:09.028.02-Jul-2020 291.44 2503.56 1828.92 1344.71 59.06 7.00
   23:59:09.228.02-Jul-2020 291.64 2503.56 1828.92 1344.71 59.06 7.00
   23:59:09.428.02-Jul-2020 291.84 2503.57 1828.92 1344.71 59.06 7.00
   23:59:09.628.02-Jul-2020 292.04 2503.57 1828.92 1344.71 59.06 7.00
   23:59:09.829.02-Jul-2020 292.24 2503.57 1828.92 1344.71 59.06 7.00
   23:59:10.029.02-Jul-2020 292.44 2503.53 1828.92 1344.71 59.06 7.00
   23:59:10.229.02-Jul-2020 292.64 2503.51 1828.92 1344.71 59.06 7.00
   23:59:10.429.02-Jul-2020 292.84 2503.59 1828.92 1344.71 59.06 7.00
   23:59:10.629.02-Jul-2020 293.04 2503.56 1828.92 1344.71 59.06 7.00
   23:59:10.829.02-Jul-2020 293.24 2503.56 1828.92 1344.71 59.06 7.00
   23:59:11.029.02-Jul-2020 293.44 2503.56 1828.92 1344.71 59.06 7.00
   23:59:11.229.02-Jul-2020 293.64 2503.55 1828.92 1344.71 59.06 7.00
   23:59:11.429.02-Jul-2020 293.84 2503.49 1828.92 1344.71 59.06 7.00
   23:59:11.629.02-Jul-2020 294.04 2503.57 1828.92 1344.71 59.06 7.00
   23:59:11.829.02-Jul-2020 294.24 2503.57 1828.92 1344.71 59.06 7.00
   23:59:12.029.02-Jul-2020 294.44 2503.58 1828.92 1344.71 59.06 7.00
   23:59:12.229.02-Jul-2020 294.64 2503.58 1828.92 1344.71 59.06 7.00
   23:59:12.429.02-Jul-2020 294.84 2503.57 1828.92 1344.71 59.06 7.00
   23:59:12.629.02-Jul-2020 295.04 2503.53 1828.92 1344.71 59.06 7.00
   23:59:12.829.02-Jul-2020 295.24 2503.53 1828.92 1344.71 59.06 7.00
   23:59:13.029.02-Jul-2020 295.44 2503.61 1828.92 1344.71 59.06 7.00
   23:59:13.229.02-Jul-2020 295.64 2503.59 1828.92 1344.71 59.06 7.00
   23:59:13.429.02-Jul-2020 295.84 2503.57 1828.92 1344.71 59.06 7.00
   23:59:13.629.02-Jul-2020 296.04 2503.51 1828.92 1344.71 59.06 7.00
   23:59:13.829.02-Jul-2020 296.24 2503.51 1828.92 1344.71 59.06 7.00
   23:59:14.029.02-Jul-2020 296.44 2503.58 1828.92 1344.71 59.06 7.00
   23:59:14.229.02-Jul-2020 296.64 2503.56 1828.92 1344.71 59.06 7.00
   23:59:14.429.02-Jul-2020 296.84 2503.58 1828.92 1344.71 59.06 7.00
   23:59:14.629.02-Jul-2020 297.04 2503.59 1828.92 1344.71 59.06 7.00
   23:59:14.829.02-Jul-2020 297.24 2503.59 1828.92 1344.71 59.06 7.00
   23:59:15.029.02-Jul-2020 297.44 2503.57 1828.92 1344.71 59.06 7.00
   23:59:15.229.02-Jul-2020 297.64 2503.58 1828.92 1344.71 59.06 7.00
   23:59:15.429.02-Jul-2020 297.84 2503.59 1828.92 1344.71 59.06 7.00
   23:59:15.629.02-Jul-2020 298.04 2503.58 1828.92 1344.71 59.06 7.00
   23:59:15.829.02-Jul-2020 298.24 2503.58 1828.92 1344.71 59.06 7.00
   23:59:16.029.02-Jul-2020 298.44 2503.58 1828.92 1344.71 59.06 7.00
   23:59:16.229.02-Jul-2020 298.64 2503.56 1828.92 1344.71 59.06 7.00
   23:59:16.429.02-Jul-2020 298.84 2503.59 1828.92 1344.71 59.06 7.00
