~Version Information
 VERS.                  2.0:   CWLS log ASCII Standard -VERSION 2.0
 WRAP.                   NO:   One line per depth step
~Well Information Block
#MNEM.UNIT     VALUE/NAME     DESCRIPTION
#---------     -----------    ---------------------------
 STRT.S             23:54:17 02-Jul-20: START TIME 23:54:17 02-Jul-20
 STOP.S             00:03:12 03-Jul-20: STOP TIME  00:03:12 03-Jul-20
 STEP.S                   0.00: STEP TIME
 NULL.                 -999.25: NULL VALUE
 DFWT.                        :  DIST FWL TEXT
 DFST.                        :  DIST FSL TEXT
 DMF .             Drill Floor:  DRILL MEAS FROM
 STIM.      09.59.28 01-Jun-20:  START TIME
 DATE.      09.59.28 01-Jun-20:  END TIME
 SPUD.               01-Jun-20:  SPUD DATE
 NREF.                    Grid:  NORTH REFERENCE
 HPTY.       Minimum Curvature:  HOLE POS TYPE
 DMOD.             Drill Model:  DRILL MOD DESC
 SVYD.                  Survey:  SURVEY DESC
 ILTD.               Lithology:  INTERP LTH DESC
 FTOP.          Formation Tops:  FORM TOPS DESC
 SON .        AZ-XX-0905455768:  JOB NUMBER
 WTYP.                Deviated:  WELL TYPE
 COMP.     BP Exploration(Caspian Sea):  COMPANY
 BASE.              Azerbaijan:  LOGGING EQUIPMENT BASE LOCATION
 REGN.                   EESSA:  REGION
 CTRY.              Azerbaijan:  COUNTRY NAME
 FLD .                     ACG:  FIELD NAME
 SRVC.          Turan Drilling:  CONTRACTOR
 WELL.                     B41:  WELL NAME
 RIG .           Central Azeri:  RIG NAME
 DCON.         Sperry Drilling:  DIRECTNL CONTR
 PDAT.          Mean Sea Level:  PERMANENT DATUM
 MDS .        Operator Entered:  MAG DATA SOURCE
 API .                        :  API NUMBER
 CNTY.                        :  COUNTY
 PROV.                        :  PROVINCE
 STAT.                        :  STATE
 UWI .                        :  UNIQUE WELL IDENTIFIER
 LOC .                        :  LOCATION
 LMF .             Drill Floor:  LOG MEASURED FROM
 TVDS.m                  43.29:  TVDSS CORRECTN
 LATI.deg                40.03:  LATITUDE
 LONG.deg                51.35:  LONGITUDE
 WHNS.m                  12.98:  WELL HEAD N/S
 WHEW.m                  -6.62:  WELL HEAD E/W
 UTMX.m              530128.28:  UTM X
 UTMY.m             4433192.49:  UTM Y
 DFWL.m                   0.00:  DISTANCE FWL
 DFSL.m                   0.00:  DISTANCE FSL
 SDEP.m                 378.00:  START DEPTH
 TDD .m                   0.00:  TOTAL DEPTH (DRILLER)
 VSDR.deg               296.18:  VERT SEC DIRECT
 GVFD.g                   1.00:  GRAVITY FIELD
 MFLD.nT              50253.00:  MAGNETIC FIELD
 MDIP.deg                59.49:  MAGNETIC DIP
 MDEC.deg                 6.44:  MAGNETIC DECL
 GRDC.deg                 0.22:  GRID CORRECTION
 AZTC.deg                 6.22:  AZM TOTAL CORR
 EPD .m                   0.00:  ELEVATION
 EGL .m                   0.00:  GROUND ELEVATION
 WDMS.m                 128.20:  WD ELEV
 APD .m                  43.29:  DEPTH ABOVE PD
 AGAP.m                  43.29:  AIR GAP
 VSEW.m                  -6.62:  VERT SEC E/W
 VSNS.m                  12.98:  VERT SEC N/S
 EKB .m                  43.29:  KB ELEVATION
 EDF .m                  43.29:  DF ELEVATION
 TDL .m                1152.00:  TOTAL DEPTH (LOGGER)
 VSC .                       0:  VS TO CLOSURE
 MAGU.                 1848525:  MAGUTM CHECKSUM
~Parameter Information Block
#MNEM.UNIT       Value        Description
#---------     -----------    ---------------------------
 AV  .mps                 0.40:  Ann Velocity 
 AVMX.mps                 1.56:  Max Ann Veloc 
 AZIF.deg               300.46:  Azm, Final 
 BHAT.        Rotary Steerable:  BHA Type 
 BROT.°/30m               0.40:  Build Rotating 
 BS  .in                 17.50:  Bit Size 
 BSZ .in                 17.50:  Bit Size 
 BTPL.psig              300.00:  Bit Press Loss 
 CABU.                      No:  Customer Abuse 
 CGEO.          Parviz Guliyev:  Customer Geo 
 COMM.                     ägu:  Run Comments 1 
 TCS .hr                108.13:  Time Ciculation Ended 
 CV  .mps                 0.50:  Crit Velocity 
 CVMX.mps                 2.01:  Max Crit Veloc 
 DD1 .          Fariz Nahmatov:  Direct Drillr 1 
 DD2 .             Ehab Radwan:  Direct Drillr 2 
 DDSV.               Geo-Pilot:  DD Service 
 DEFF.%                  99.00:  % Det Eff 
 DLRX.°/30m               0.50:  Dogleg Rot Max 
 DLSO.°/30m               2.80:  Dogleg Oriented 
 DLSX.°/30m               3.90:  Dogleg Str Max 
 DRET.      09.30.04 03-Jul-20:  Drill End Time 
 DRST.      18.33.04 28-Jun-20:  Drill Start Tim 
 DTIM.hr                 55.83:  Time Drilling 
 EDEP.m                1952.00:  End Depth 
 ENG1.      Bakhtiyar Jabbarli:  Engineer 1 
 ENG2.         Farhad Orujzade:  Engineer 2 
 ENG3.          Rustam Safarov:  Engineer 3 
 ETIM.      01.33.04 04-Jul-20:  End Time 
 FLOI.gpm              1050.00:  Flow In 
 FLON.gpm               950.00:  Flow In Min 
 FLOS.cptm                0.10:  Fluid Loss 
 FLOX.gpm              1150.00:  Flow In Max 
 HFLO.                      No:  High Flow 
 HPRE.                      No:  High Pressure 
 HTEM.                      No:  High Temp 
 HYDO.m                   1.80:  Hydro Offset 
 IFIN.deg                75.26:  Inc, Final 
 IMAX.deg                75.38:  Inc Max 
 IMIN.deg                22.84:  Inc Min 
 IMND.m                 832.38:  Inc Min Depth 
 IMXD.m                1936.55:  Inc Max Depth 
 JARR.                      No:  Jarring 
 LETM.      17.40.00 04-Jul-20:  Log End Time 
 LOST.hr                     0:  Lost Rig Time 
 LSTM.      12.33.04 28-Jun-20:  Log Start Time 
 MDCL.ppm             49500.00:  Mud Chlorides 
 MDES.     Inversion Oil/Synthetic:  Mud Desc 
 DFD .sg                  1.46:  Mud Density 
 MDMN.sg                  1.46:  Dens Mud Min 
 MDMX.sg                  1.46:  Dens Mud Max 
 MOIL.                      70:  Run Mud Oil % 
 MOWR.                   70:30:  Run Mud OWR 
 MSND.                     0.5:  Run Mud Sand % 
 MSOL.                   19.89:  Run Mud Solids% 
 DFV .spqt               72.00:  Mud Viscosity 
 MWOD.in                  9.50:  MWD Tool OD 
 MWSI.                      No:  Serv Intrp, MWD 
 OTIM.hr                146.53:  Time Operating 
 PCON.           Look Like New:  Pad Condition 
 PMAX.psia             2900.00:  Press Op, Max 
 PV  .cP                 38.00:  Mud PV 
 RUN .                     600:  Run Number 
 ROPA.m/hr               22.00:  ROP Avg 
 ROPN.m/hr               10.00:  ROP Min 
 ROPX.m/hr              263.00:  ROP Max 
 RPMA.rpm               155.00:  RPM Surface Avg 
 RPMN.rpm               140.00:  RPM Surface Min 
 RPMX.rpm               160.00:  RPM Surface Max 
 RRUN.                    0600:  Rig Run Number 
 RTIM.hr                  5.00:  Time Reaming 
 SAZI.deg               300.08:  Azm, Start 
 SDEP.m                 800.00:  Start Depth 
 SIDD.                      No:  Serv Intrp, DD 
 SINC.deg                22.84:  Inc, Start 
 SPPA.psig             3000.00:  SPP Avg 
 SPPN.psig             1900.00:  SPP Min 
 SPPX.psig             3200.00:  SPP Max 
 STIM.      12.30.04 28-Jun-20:  Start Time 
 SVCS.                 DD, MWD:  Services 
 SVER.                    9.20:  Sperry Version 
 TDAT.m                1952.00:  Tot Depth Attmp 
 TDDF.                      No:  Trip for DD 
 TDLG.m                1152.00:  Tot Depth Loggd 
 TFF .                      No:  Trip for Fail 
 TQAA.f-kp                8.00:  Torque Abs Avg 
 TQAN.f-kp                5.00:  Torque Abs Min 
 TQAX.f-kp               14.00:  Torque Abs Max 
 TRRT.°/30m               0.50:  Turn Rotating 
 MRT .                  EWR-M5:  Maximum Recorded Temperature 
 TTMX.degC               69.00:  Max Tool Temp 
 VS01.                90610313:  Virtual Str1 SN 
 VS02.                90613431:  Virtual Str2 SN 
 VS03.                90615410:  Virtual Str3 SN 
 WBMN.klb                 6.00:  WOB Min 
 WITN.            Bruce Cheyne:  Customer Rep 
 WITN.             Ayaz Aliyev:  Customer Rep 2 
 WOBA.klb                 6.00:  WOB Avg 
 WOBX.klb                10.00:  WOB Max 
 YP  .lhf2               36.00:  Yield Point 
~Curve Information Block
#MNEM.UNIT                 API CODE     Curve Description
#---------               -----------    ---------------------------
 TIME.HHMMSS            00 000 000 000:  GT Time & Date
 GTET.sec               00 000 000 000:  GT Elapsed Test Time
 GTPQH.psia             00 000 000 000:  GT HR Quartz Pressure
 GTDEPTH.m              00 000 000 000:  GT Depth
 GTTVD.m                00 000 000 000:  GT True Vertical Depth
 GTTQ.degC              00 000 000 000:  GT Quartz Temperature
 GTTN.NONE              00 000 000 000:  GT Test Number
#Other Information
#
#WARRANTY: Halliburton will use its best efforts to furnish customers with 
#accurate information and interpretations that are part of, and incident to, the services 
#provided.  However, Halliburton cannot and does not warrant the accuracy 
#or correctness of such information and interpretations.  Under no circumstances should any 
#such information or interpretation be relied upon as the sole basis for any drilling, 
#completion, production, or financial decision or any procedure involving any risk to the 
#safety of any drilling venture, drilling rig or its crew or any other third party.  The 
#Customer has full responsibility for all drilling, completion and production operation.  
#Halliburton makes no representations or warranties, either expressed or 
#implied, including, but not limited to, the implied warranties of merchantability or fitness 
#for a particular purpose, with respect to the services rendered.  In no event will 
#Halliburton be liable for failure to obtain any particular results or for 
#any damages, including, but not limited to, indirect, special or consequential damages, 
#resulting from the use of any information or interpretation provided by Halliburton.
#
~A           TIME            GTET   GTPQH  GTDEPTH  GTTVD  GTTQ  GTTN 
# ...
   23:58:07.620.02-Jul-2020 230.03 2502.97 1828.92 1344.71 59.06 7.00
   23:58:07.820.02-Jul-2020 230.23 2502.97 1828.92 1344.71 59.06 7.00
   23:58:08.020.02-Jul-2020 230.43 2503.00 1828.92 1344.71 59.06 7.00
   23:58:08.220.02-Jul-2020 230.63 2503.02 1828.92 1344.71 59.06 7.00
   23:58:08.420.02-Jul-2020 230.83 2503.02 1828.92 1344.71 59.06 7.00
   23:58:08.620.02-Jul-2020 231.03 2503.04 1828.92 1344.71 59.06 7.00
   23:58:08.820.02-Jul-2020 231.23 2503.04 1828.92 1344.71 59.06 7.00
   23:58:09.020.02-Jul-2020 231.43 2503.07 1828.92 1344.71 59.06 7.00
   23:58:09.220.02-Jul-2020 231.63 2503.09 1828.92 1344.71 59.06 7.00
   23:58:09.420.02-Jul-2020 231.83 2503.10 1828.92 1344.71 59.06 7.00
   23:58:09.620.02-Jul-2020 232.03 2503.08 1828.92 1344.71 59.06 7.00
   23:58:09.820.02-Jul-2020 232.23 2503.08 1828.92 1344.71 59.06 7.00
   23:58:10.020.02-Jul-2020 232.43 2503.12 1828.92 1344.71 59.06 7.00
   23:58:10.220.02-Jul-2020 232.63 2503.14 1828.92 1344.71 59.06 7.00
   23:58:10.420.02-Jul-2020 232.83 2503.14 1828.92 1344.71 59.06 7.00
   23:58:10.620.02-Jul-2020 233.03 2503.15 1828.92 1344.71 59.06 7.00
   23:58:10.820.02-Jul-2020 233.23 2503.15 1828.92 1344.71 59.06 7.00
   23:58:11.020.02-Jul-2020 233.43 2503.14 1828.92 1344.71 59.06 7.00
   23:58:11.221.02-Jul-2020 233.63 2503.16 1828.92 1344.71 59.06 7.00
   23:58:11.421.02-Jul-2020 233.83 2503.17 1828.92 1344.71 59.06 7.00
   23:58:11.621.02-Jul-2020 234.03 2503.19 1828.92 1344.71 59.06 7.00
   23:58:11.821.02-Jul-2020 234.23 2503.19 1828.92 1344.71 59.06 7.00
   23:58:12.021.02-Jul-2020 234.43 2503.17 1828.92 1344.71 59.06 7.00
   23:58:12.221.02-Jul-2020 234.63 2503.10 1828.92 1344.71 59.06 7.00
   23:58:12.421.02-Jul-2020 234.83 2503.18 1828.92 1344.71 59.06 7.00
   23:58:12.621.02-Jul-2020 235.03 2503.20 1828.92 1344.71 59.06 7.00
   23:58:12.821.02-Jul-2020 235.23 2503.20 1828.92 1344.71 59.06 7.00
   23:58:13.021.02-Jul-2020 235.43 2503.21 1828.92 1344.71 59.06 7.00
   23:58:13.221.02-Jul-2020 235.63 2503.22 1828.92 1344.71 59.06 7.00
   23:58:13.421.02-Jul-2020 235.83 2503.25 1828.92 1344.71 59.06 7.00
   23:58:13.621.02-Jul-2020 236.03 2503.14 1828.92 1344.71 59.06 7.00
   23:58:13.821.02-Jul-2020 236.23 2503.14 1828.92 1344.71 59.06 7.00
   23:58:14.021.02-Jul-2020 236.43 2503.24 1828.92 1344.71 59.06 7.00
   23:58:14.221.02-Jul-2020 236.63 2503.23 1828.92 1344.71 59.06 7.00
   23:58:14.421.02-Jul-2020 236.83 2503.24 1828.92 1344.71 59.06 7.00
   23:58:14.621.02-Jul-2020 237.03 2503.16 1828.92 1344.71 59.06 7.00
   23:58:14.821.02-Jul-2020 237.23 2503.16 1828.92 1344.71 59.06 7.00
   23:58:15.021.02-Jul-2020 237.43 2503.28 1828.92 1344.71 59.06 7.00
   23:58:15.221.02-Jul-2020 237.63 2503.26 1828.92 1344.71 59.06 7.00
   23:58:15.421.02-Jul-2020 237.83 2503.27 1828.92 1344.71 59.06 7.00
   23:58:15.621.02-Jul-2020 238.03 2503.22 1828.92 1344.71 59.06 7.00
   23:58:15.821.02-Jul-2020 238.23 2503.21 1828.92 1344.71 59.06 7.00
   23:58:16.021.02-Jul-2020 238.43 2503.26 1828.92 1344.71 59.06 7.00
   23:58:16.221.02-Jul-2020 238.63 2503.27 1828.92 1344.71 59.06 7.00
   23:58:16.421.02-Jul-2020 238.83 2503.27 1828.92 1344.71 59.06 7.00
   23:58:16.621.02-Jul-2020 239.03 2503.28 1828.92 1344.71 59.06 7.00
   23:58:16.821.02-Jul-2020 239.23 2503.28 1828.92 1344.71 59.06 7.00
   23:58:17.021.02-Jul-2020 239.43 2503.26 1828.92 1344.71 59.06 7.00
   23:58:17.221.02-Jul-2020 239.63 2503.26 1828.92 1344.71 59.06 7.00
   23:58:17.421.02-Jul-2020 239.83 2503.30 1828.92 1344.71 59.06 7.00
   23:58:17.621.02-Jul-2020 240.03 2503.30 1828.92 1344.71 59.06 7.00
   23:58:17.821.02-Jul-2020 240.23 2503.30 1828.92 1344.71 59.06 7.00
   23:58:18.021.02-Jul-2020 240.43 2503.29 1828.92 1344.71 59.06 7.00
   23:58:18.221.02-Jul-2020 240.63 2503.29 1828.92 1344.71 59.06 7.00
   23:58:18.421.02-Jul-2020 240.83 2503.30 1828.92 1344.71 59.06 7.00
   23:58:18.622.02-Jul-2020 241.03 2503.29 1828.92 1344.71 59.06 7.00
   23:58:18.822.02-Jul-2020 241.23 2503.29 1828.92 1344.71 59.06 7.00
   23:58:19.022.02-Jul-2020 241.43 2503.32 1828.92 1344.71 59.06 7.00
   23:58:19.222.02-Jul-2020 241.63 2503.32 1828.92 1344.71 59.06 7.00
   23:58:19.422.02-Jul-2020 241.83 2503.22 1828.92 1344.71 59.06 7.00
   23:58:19.622.02-Jul-2020 242.03 2503.31 1828.92 1344.71 59.06 7.00
   23:58:19.822.02-Jul-2020 242.23 2503.31 1828.92 1344.71 59.06 7.00
   23:58:20.022.02-Jul-2020 242.43 2503.32 1828.92 1344.71 59.06 7.00
   23:58:20.222.02-Jul-2020 242.63 2503.32 1828.92 1344.71 59.06 7.00
   23:58:20.422.02-Jul-2020 242.83 2503.32 1828.92 1344.71 59.06 7.00
   23:58:20.622.02-Jul-2020 243.03 2503.32 1828.92 1344.71 59.06 7.00
   23:58:20.822.02-Jul-2020 243.23 2503.32 1828.92 1344.71 59.06 7.00
   23:58:21.022.02-Jul-2020 243.43 2503.34 1828.92 1344.71 59.06 7.00
   23:58:21.222.02-Jul-2020 243.63 2503.34 1828.92 1344.71 59.06 7.00
   23:58:21.422.02-Jul-2020 243.83 2503.34 1828.92 1344.71 59.06 7.00
   23:58:21.622.02-Jul-2020 244.03 2503.32 1828.92 1344.71 59.06 7.00
   23:58:21.822.02-Jul-2020 244.23 2503.32 1828.92 1344.71 59.06 7.00
   23:58:22.022.02-Jul-2020 244.43 2503.32 1828.92 1344.71 59.06 7.00
   23:58:22.222.02-Jul-2020 244.63 2503.33 1828.92 1344.71 59.06 7.00
   23:58:22.422.02-Jul-2020 244.83 2503.34 1828.92 1344.71 59.06 7.00
   23:58:22.622.02-Jul-2020 245.03 2503.34 1828.92 1344.71 59.06 7.00
   23:58:22.822.02-Jul-2020 245.23 2503.34 1828.92 1344.71 59.06 7.00
   23:58:23.022.02-Jul-2020 245.43 2503.29 1828.92 1344.71 59.06 7.00
   23:58:23.222.02-Jul-2020 245.63 2503.30 1828.92 1344.71 59.06 7.00
   23:58:23.422.02-Jul-2020 245.83 2503.38 1828.92 1344.71 59.06 7.00
   23:58:23.622.02-Jul-2020 246.03 2503.35 1828.92 1344.71 59.06 7.00
   23:58:23.822.02-Jul-2020 246.23 2503.35 1828.92 1344.71 59.06 7.00
   23:58:24.022.02-Jul-2020 246.43 2503.36 1828.92 1344.71 59.06 7.00
   23:58:24.222.02-Jul-2020 246.63 2503.35 1828.92 1344.71 59.06 7.00
   23:58:24.422.02-Jul-2020 246.83 2503.27 1828.92 1344.71 59.06 7.00
   23:58:24.622.02-Jul-2020 247.03 2503.38 1828.92 1344.71 59.06 7.00
   23:58:24.822.02-Jul-2020 247.23 2503.38 1828.92 1344.71 59.06 7.00
   23:58:25.022.02-Jul-2020 247.43 2503.37 1828.92 1344.71 59.06 7.00
   23:58:25.222.02-Jul-2020 247.63 2503.36 1828.92 1344.71 59.06 7.00
   23:58:25.422.02-Jul-2020 247.83 2503.28 1828.92 1344.71 59.06 7.00
   23:58:25.622.02-Jul-2020 248.03 2503.39 1828.92 1344.71 59.06 7.00
   23:58:25.822.02-Jul-2020 248.23 2503.39 1828.92 1344.71 59.06 7.00
   23:58:26.023.02-Jul-2020 248.43 2503.36 1828.92 1344.71 59.06 7.00
   23:58:26.223.02-Jul-2020 248.63 2503.39 1828.92 1344.71 59.06 7.00
   23:58:26.423.02-Jul-2020 248.83 2503.39 1828.92 1344.71 59.06 7.00
   23:58:26.623.02-Jul-2020 249.03 2503.36 1828.92 1344.71 59.06 7.00
   23:58:26.823.02-Jul-2020 249.23 2503.36 1828.92 1344.71 59.06 7.00
   23:58:27.023.02-Jul-2020 249.43 2503.40 1828.92 1344.71 59.06 7.00
   23:58:27.223.02-Jul-2020 249.63 2503.40 1828.92 1344.71 59.06 7.00
   23:58:27.423.02-Jul-2020 249.83 2503.38 1828.92 1344.71 59.06 7.00
   23:58:27.623.02-Jul-2020 250.03 2503.40 1828.92 1344.71 59.06 7.00
   23:58:27.823.02-Jul-2020 250.23 2503.40 1828.92 1344.71 59.06 7.00
   23:58:28.023.02-Jul-2020 250.43 2503.66 1828.92 1344.71 59.06 7.00
   23:58:28.223.02-Jul-2020 250.63 2503.43 1828.92 1344.71 59.06 7.00
   23:58:28.423.02-Jul-2020 250.83 2503.43 1828.92 1344.71 59.06 7.00
   23:58:28.623.02-Jul-2020 251.03 2503.58 1828.92 1344.71 59.06 7.00
   23:58:28.823.02-Jul-2020 251.23 2503.58 1828.92 1344.71 59.06 7.00
   23:58:29.023.02-Jul-2020 251.43 2503.35 1828.92 1344.71 59.06 7.00
   23:58:29.223.02-Jul-2020 251.63 2503.40 1828.92 1344.71 59.06 7.00
   23:58:29.423.02-Jul-2020 251.83 2503.43 1828.92 1344.71 59.06 7.00
   23:58:29.623.02-Jul-2020 252.03 2503.43 1828.92 1344.71 59.06 7.00
   23:58:29.823.02-Jul-2020 252.23 2503.43 1828.92 1344.71 59.06 7.00
   23:58:30.023.02-Jul-2020 252.43 2503.43 1828.92 1344.71 59.06 7.00
   23:58:30.223.02-Jul-2020 252.63 2503.41 1828.92 1344.71 59.06 7.00
   23:58:30.423.02-Jul-2020 252.83 2503.43 1828.92 1344.71 59.06 7.00
