~Version Information
 VERS.                  2.0:   CWLS log ASCII Standard -VERSION 2.0
 WRAP.                   NO:   One line per depth step
~Well Information Block
#MNEM.UNIT     VALUE/NAME     DESCRIPTION
#---------     -----------    ---------------------------
 STRT.S             04:11:34 02-Jul-20: START TIME 04:11:34 02-Jul-20
 STOP.S             04:20:35 02-Jul-20: STOP TIME  04:20:35 02-Jul-20
 STEP.S                   0.00: STEP TIME
 NULL.                 -999.25: NULL VALUE
 DFWT.                        :  DIST FWL TEXT
 DFST.                        :  DIST FSL TEXT
 DMF .             Drill Floor:  DRILL MEAS FROM
 STIM.      09.59.28 01-Jun-20:  START TIME
 DATE.      09.59.28 01-Jun-20:  END TIME
 SPUD.               01-Jun-20:  SPUD DATE
 NREF.                    Grid:  NORTH REFERENCE
 HPTY.       Minimum Curvature:  HOLE POS TYPE
 DMOD.             Drill Model:  DRILL MOD DESC
 SVYD.                  Survey:  SURVEY DESC
 ILTD.               Lithology:  INTERP LTH DESC
 FTOP.          Formation Tops:  FORM TOPS DESC
 SON .        AZ-XX-0905455768:  JOB NUMBER
 WTYP.                Deviated:  WELL TYPE
 COMP.     BP Exploration(Caspian Sea):  COMPANY
 BASE.              Azerbaijan:  LOGGING EQUIPMENT BASE LOCATION
 REGN.                   EESSA:  REGION
 CTRY.              Azerbaijan:  COUNTRY NAME
 FLD .                     ACG:  FIELD NAME
 SRVC.          Turan Drilling:  CONTRACTOR
 WELL.                     B41:  WELL NAME
 RIG .           Central Azeri:  RIG NAME
 DCON.         Sperry Drilling:  DIRECTNL CONTR
 PDAT.          Mean Sea Level:  PERMANENT DATUM
 MDS .        Operator Entered:  MAG DATA SOURCE
 API .                        :  API NUMBER
 CNTY.                        :  COUNTY
 PROV.                        :  PROVINCE
 STAT.                        :  STATE
 UWI .                        :  UNIQUE WELL IDENTIFIER
 LOC .                        :  LOCATION
 LMF .             Drill Floor:  LOG MEASURED FROM
 TVDS.m                  43.29:  TVDSS CORRECTN
 LATI.deg                40.03:  LATITUDE
 LONG.deg                51.35:  LONGITUDE
 WHNS.m                  12.98:  WELL HEAD N/S
 WHEW.m                  -6.62:  WELL HEAD E/W
 UTMX.m              530128.28:  UTM X
 UTMY.m             4433192.49:  UTM Y
 DFWL.m                   0.00:  DISTANCE FWL
 DFSL.m                   0.00:  DISTANCE FSL
 SDEP.m                 378.00:  START DEPTH
 TDD .m                   0.00:  TOTAL DEPTH (DRILLER)
 VSDR.deg               296.18:  VERT SEC DIRECT
 GVFD.g                   1.00:  GRAVITY FIELD
 MFLD.nT              50253.00:  MAGNETIC FIELD
 MDIP.deg                59.49:  MAGNETIC DIP
 MDEC.deg                 6.44:  MAGNETIC DECL
 GRDC.deg                 0.22:  GRID CORRECTION
 AZTC.deg                 6.22:  AZM TOTAL CORR
 EPD .m                   0.00:  ELEVATION
 EGL .m                   0.00:  GROUND ELEVATION
 WDMS.m                 128.20:  WD ELEV
 APD .m                  43.29:  DEPTH ABOVE PD
 AGAP.m                  43.29:  AIR GAP
 VSEW.m                  -6.62:  VERT SEC E/W
 VSNS.m                  12.98:  VERT SEC N/S
 EKB .m                  43.29:  KB ELEVATION
 EDF .m                  43.29:  DF ELEVATION
 TDL .m                1152.00:  TOTAL DEPTH (LOGGER)
 VSC .                       0:  VS TO CLOSURE
 MAGU.                 1848525:  MAGUTM CHECKSUM
~Parameter Information Block
#MNEM.UNIT       Value        Description
#---------     -----------    ---------------------------
 AV  .mps                 0.40:  Ann Velocity 
 AVMX.mps                 1.56:  Max Ann Veloc 
 AZIF.deg               300.46:  Azm, Final 
 BHAT.        Rotary Steerable:  BHA Type 
 BROT.°/30m               0.40:  Build Rotating 
 BS  .in                 17.50:  Bit Size 
 BSZ .in                 17.50:  Bit Size 
 BTPL.psig              300.00:  Bit Press Loss 
 CABU.                      No:  Customer Abuse 
 CGEO.          Parviz Guliyev:  Customer Geo 
 TCS .hr                108.13:  Time Ciculation Ended 
 CV  .mps                 0.50:  Crit Velocity 
 CVMX.mps                 2.01:  Max Crit Veloc 
 DD1 .          Fariz Nahmatov:  Direct Drillr 1 
 DD2 .             Ehab Radwan:  Direct Drillr 2 
 DDSV.               Geo-Pilot:  DD Service 
 DEFF.%                  99.00:  % Det Eff 
 DLRX.°/30m               0.50:  Dogleg Rot Max 
 DLSO.°/30m               2.80:  Dogleg Oriented 
 DLSX.°/30m               3.90:  Dogleg Str Max 
 DRET.      09.30.04 03-Jul-20:  Drill End Time 
 DRST.      18.33.04 28-Jun-20:  Drill Start Tim 
 DTIM.hr                 55.83:  Time Drilling 
 EDEP.m                1952.00:  End Depth 
 ENG1.      Bakhtiyar Jabbarli:  Engineer 1 
 ENG2.         Farhad Orujzade:  Engineer 2 
 ENG3.          Rustam Safarov:  Engineer 3 
 ETIM.      01.33.04 04-Jul-20:  End Time 
 FLOI.gpm              1050.00:  Flow In 
 FLON.gpm               950.00:  Flow In Min 
 FLOS.cptm                0.10:  Fluid Loss 
 FLOX.gpm              1150.00:  Flow In Max 
 HFLO.                      No:  High Flow 
 HPRE.                      No:  High Pressure 
 HTEM.                      No:  High Temp 
 HYDO.m                   1.80:  Hydro Offset 
 IFIN.deg                75.26:  Inc, Final 
 IMAX.deg                75.38:  Inc Max 
 IMIN.deg                22.84:  Inc Min 
 IMND.m                 832.38:  Inc Min Depth 
 IMXD.m                1936.55:  Inc Max Depth 
 JARR.                      No:  Jarring 
 LETM.      17.40.00 04-Jul-20:  Log End Time 
 LOST.hr                     0:  Lost Rig Time 
 LSTM.      12.33.04 28-Jun-20:  Log Start Time 
 MDCL.ppm             49500.00:  Mud Chlorides 
 MDES.     Inversion Oil/Synthetic:  Mud Desc 
 DFD .sg                  1.46:  Mud Density 
 MDMN.sg                  1.46:  Dens Mud Min 
 MDMX.sg                  1.46:  Dens Mud Max 
 MOIL.                      70:  Run Mud Oil % 
 MOWR.                   70:30:  Run Mud OWR 
 MSND.                     0.5:  Run Mud Sand % 
 MSOL.                   19.89:  Run Mud Solids% 
 DFV .spqt               72.00:  Mud Viscosity 
 MWOD.in                  9.50:  MWD Tool OD 
 MWSI.                      No:  Serv Intrp, MWD 
 OTIM.hr                146.53:  Time Operating 
 PCON.           Look Like New:  Pad Condition 
 PMAX.psia             2900.00:  Press Op, Max 
 PV  .cP                 38.00:  Mud PV 
 RUN .                     600:  Run Number 
 ROPA.m/hr               22.00:  ROP Avg 
 ROPN.m/hr               10.00:  ROP Min 
 ROPX.m/hr              263.00:  ROP Max 
 RPMA.rpm               155.00:  RPM Surface Avg 
 RPMN.rpm               140.00:  RPM Surface Min 
 RPMX.rpm               160.00:  RPM Surface Max 
 RRUN.                    0600:  Rig Run Number 
 RTIM.hr                  5.00:  Time Reaming 
 SAZI.deg               300.08:  Azm, Start 
 SDEP.m                 800.00:  Start Depth 
 SIDD.                      No:  Serv Intrp, DD 
 SINC.deg                22.84:  Inc, Start 
 SPPA.psig             3000.00:  SPP Avg 
 SPPN.psig             1900.00:  SPP Min 
 SPPX.psig             3200.00:  SPP Max 
 STIM.      12.30.04 28-Jun-20:  Start Time 
 SVCS.                 DD, MWD:  Services 
 SVER.                    9.20:  Sperry Version 
 TDAT.m                1952.00:  Tot Depth Attmp 
 TDDF.                      No:  Trip for DD 
 TDLG.m                1152.00:  Tot Depth Loggd 
 TFF .                      No:  Trip for Fail 
 TQAA.f-kp                8.00:  Torque Abs Avg 
 TQAN.f-kp                5.00:  Torque Abs Min 
 TQAX.f-kp               14.00:  Torque Abs Max 
 TRRT.°/30m               0.50:  Turn Rotating 
 MRT .                  EWR-M5:  Maximum Recorded Temperature 
 TTMX.degC               69.00:  Max Tool Temp 
 VS01.                90610313:  Virtual Str1 SN 
 VS02.                90613431:  Virtual Str2 SN 
 VS03.                90615410:  Virtual Str3 SN 
 WBMN.klb                 6.00:  WOB Min 
 WITN.            Bruce Cheyne:  Customer Rep 
 WITN.             Ayaz Aliyev:  Customer Rep 2 
 WOBA.klb                 6.00:  WOB Avg 
 WOBX.klb                10.00:  WOB Max 
 YP  .lhf2               36.00:  Yield Point 
~Curve Information Block
#MNEM.UNIT                 API CODE     Curve Description
#---------               -----------    ---------------------------
 TIME.HHMMSS            00 000 000 000:  GT Time & Date
 GTET.sec               00 000 000 000:  GT Elapsed Test Time
 GTPQH.psia             00 000 000 000:  GT HR Quartz Pressure
 GTDEPTH.m              00 000 000 000:  GT Depth
 GTTVD.m                00 000 000 000:  GT True Vertical Depth
 GTTQ.degC              00 000 000 000:  GT Quartz Temperature
 GTTN.NONE              00 000 000 000:  GT Test Number
#Other Information
#
#WARRANTY: Halliburton will use its best efforts to furnish customers with 
#accurate information and interpretations that are part of, and incident to, the services 
#provided.  However, Halliburton cannot and does not warrant the accuracy 
#or correctness of such information and interpretations.  Under no circumstances should any 
#such information or interpretation be relied upon as the sole basis for any drilling, 
#completion, production, or financial decision or any procedure involving any risk to the 
#safety of any drilling venture, drilling rig or its crew or any other third party.  The 
#Customer has full responsibility for all drilling, completion and production operation.  
#Halliburton makes no representations or warranties, either expressed or 
#implied, including, but not limited to, the implied warranties of merchantability or fitness 
#for a particular purpose, with respect to the services rendered.  In no event will 
#Halliburton be liable for failure to obtain any particular results or for 
#any damages, including, but not limited to, indirect, special or consequential damages, 
#resulting from the use of any information or interpretation provided by Halliburton.
#
~A           TIME            GTET   GTPQH  GTDEPTH  GTTVD  GTTQ  GTTN 
# ...
   04:19:14.444.02-Jul-2020 460.07 2364.19 1565.98 1276.49 58.45 6.00
   04:19:14.644.02-Jul-2020 460.27 2364.19 1565.98 1276.49 58.45 6.00
   04:19:14.844.02-Jul-2020 460.47 2364.21 1565.98 1276.49 58.45 6.00
   04:19:15.044.02-Jul-2020 460.67 2364.21 1565.98 1276.49 58.45 6.00
   04:19:15.244.02-Jul-2020 460.87 2364.19 1565.98 1276.49 58.45 6.00
   04:19:15.444.02-Jul-2020 461.07 2364.17 1565.98 1276.49 58.45 6.00
   04:19:15.644.02-Jul-2020 461.27 2364.17 1565.98 1276.49 58.45 6.00
   04:19:15.845.02-Jul-2020 461.47 2364.21 1565.98 1276.49 58.45 6.00
   04:19:16.045.02-Jul-2020 461.67 2364.22 1565.98 1276.49 58.45 6.00
   04:19:16.245.02-Jul-2020 461.87 2364.20 1565.98 1276.49 58.45 6.00
   04:19:16.445.02-Jul-2020 462.07 2364.20 1565.98 1276.49 58.45 6.00
   04:19:16.645.02-Jul-2020 462.27 2364.20 1565.98 1276.49 58.45 6.00
   04:19:16.845.02-Jul-2020 462.47 2364.18 1565.98 1276.49 58.45 6.00
   04:19:17.045.02-Jul-2020 462.67 2364.23 1565.98 1276.49 58.45 6.00
   04:19:17.245.02-Jul-2020 462.87 2364.22 1565.98 1276.49 58.45 6.00
   04:19:17.445.02-Jul-2020 463.07 2364.20 1565.98 1276.49 58.45 6.00
   04:19:17.645.02-Jul-2020 463.27 2364.20 1565.98 1276.49 58.45 6.00
   04:19:17.845.02-Jul-2020 463.47 2364.25 1565.98 1276.49 58.45 6.00
   04:19:18.045.02-Jul-2020 463.67 2364.21 1565.98 1276.49 58.45 6.00
   04:19:18.245.02-Jul-2020 463.87 2364.23 1565.98 1276.49 58.45 6.00
   04:19:18.445.02-Jul-2020 464.07 2364.22 1565.98 1276.49 58.45 6.00
   04:19:18.645.02-Jul-2020 464.27 2364.23 1565.98 1276.49 58.45 6.00
   04:19:18.845.02-Jul-2020 464.47 2364.25 1565.98 1276.49 58.45 6.00
   04:19:19.045.02-Jul-2020 464.67 2364.21 1565.98 1276.49 58.46 6.00
   04:19:19.245.02-Jul-2020 464.87 2364.23 1565.98 1276.49 58.46 6.00
   04:19:19.445.02-Jul-2020 465.07 2364.24 1565.98 1276.49 58.46 6.00
   04:19:19.645.02-Jul-2020 465.27 2364.24 1565.98 1276.49 58.46 6.00
   04:19:19.845.02-Jul-2020 465.47 2364.24 1565.98 1276.49 58.46 6.00
   04:19:20.045.02-Jul-2020 465.67 2364.24 1565.98 1276.49 58.46 6.00
   04:19:20.245.02-Jul-2020 465.87 2364.23 1565.98 1276.49 58.46 6.00
   04:19:20.445.02-Jul-2020 466.07 2364.26 1565.98 1276.49 58.46 6.00
   04:19:20.645.02-Jul-2020 466.27 2364.26 1565.98 1276.49 58.46 6.00
   04:19:20.845.02-Jul-2020 466.47 2364.25 1565.98 1276.49 58.46 6.00
   04:19:21.045.02-Jul-2020 466.67 2364.27 1565.98 1276.49 58.46 6.00
   04:19:21.245.02-Jul-2020 466.87 2364.23 1565.98 1276.49 58.46 6.00
   04:19:21.445.02-Jul-2020 467.07 2364.22 1565.98 1276.49 58.46 6.00
   04:19:21.645.02-Jul-2020 467.27 2364.25 1565.98 1276.49 58.46 6.00
   04:19:21.845.02-Jul-2020 467.47 2364.23 1565.98 1276.49 58.46 6.00
   04:19:22.046.02-Jul-2020 467.67 2364.25 1565.98 1276.49 58.46 6.00
   04:19:22.246.02-Jul-2020 467.87 2364.25 1565.98 1276.49 58.46 6.00
   04:19:22.446.02-Jul-2020 468.07 2364.22 1565.98 1276.49 58.46 6.00
   04:19:22.646.02-Jul-2020 468.27 2364.24 1565.98 1276.49 58.46 6.00
   04:19:22.846.02-Jul-2020 468.47 2364.26 1565.98 1276.49 58.46 6.00
   04:19:23.046.02-Jul-2020 468.67 2364.23 1565.98 1276.49 58.46 6.00
   04:19:23.246.02-Jul-2020 468.87 2364.25 1565.98 1276.49 58.46 6.00
   04:19:23.446.02-Jul-2020 469.07 2364.25 1565.98 1276.49 58.46 6.00
   04:19:23.646.02-Jul-2020 469.27 2364.25 1565.98 1276.49 58.46 6.00
   04:19:23.846.02-Jul-2020 469.47 2364.27 1565.98 1276.49 58.46 6.00
   04:19:24.046.02-Jul-2020 469.67 2364.23 1565.98 1276.49 58.46 6.00
   04:19:24.246.02-Jul-2020 469.87 2364.21 1565.98 1276.49 58.46 6.00
   04:19:24.446.02-Jul-2020 470.07 2364.27 1565.98 1276.49 58.46 6.00
   04:19:24.646.02-Jul-2020 470.27 2364.27 1565.98 1276.49 58.46 6.00
   04:19:24.846.02-Jul-2020 470.47 2364.18 1565.98 1276.49 58.46 6.00
   04:19:25.046.02-Jul-2020 470.67 2364.26 1565.98 1276.49 58.46 6.00
   04:19:25.246.02-Jul-2020 470.87 2364.24 1565.98 1276.49 58.46 6.00
   04:19:25.446.02-Jul-2020 471.07 2364.22 1565.98 1276.49 58.46 6.00
   04:19:25.646.02-Jul-2020 471.27 2364.22 1565.98 1276.49 58.46 6.00
   04:19:25.846.02-Jul-2020 471.47 2364.18 1565.98 1276.49 58.46 6.00
   04:19:26.046.02-Jul-2020 471.67 2364.25 1565.98 1276.49 58.46 6.00
   04:19:26.246.02-Jul-2020 471.87 2364.25 1565.98 1276.49 58.46 6.00
   04:19:26.446.02-Jul-2020 472.07 2364.20 1565.98 1276.49 58.46 6.00
   04:19:26.646.02-Jul-2020 472.27 2364.25 1565.98 1276.49 58.46 6.00
   04:19:26.846.02-Jul-2020 472.47 2364.24 1565.98 1276.49 58.46 6.00
   04:19:27.046.02-Jul-2020 472.67 2364.18 1565.98 1276.49 58.46 6.00
   04:19:27.246.02-Jul-2020 472.87 2364.26 1565.98 1276.49 58.46 6.00
   04:19:27.446.02-Jul-2020 473.07 2364.25 1565.98 1276.49 58.46 6.00
   04:19:27.646.02-Jul-2020 473.27 2364.25 1565.98 1276.49 58.46 6.00
   04:19:27.846.02-Jul-2020 473.47 2364.25 1565.98 1276.49 58.46 6.00
   04:19:28.046.02-Jul-2020 473.67 2364.24 1565.98 1276.49 58.46 6.00
   04:19:28.246.02-Jul-2020 473.87 2364.24 1565.98 1276.49 58.46 6.00
   04:19:28.447.02-Jul-2020 474.07 2364.26 1565.98 1276.49 58.46 6.00
   04:19:28.647.02-Jul-2020 474.27 2364.26 1565.98 1276.49 58.46 6.00
   04:19:28.847.02-Jul-2020 474.47 2364.24 1565.98 1276.49 58.46 6.00
   04:19:29.047.02-Jul-2020 474.68 2364.28 1565.98 1276.49 58.46 6.00
   04:19:29.247.02-Jul-2020 474.88 2364.23 1565.98 1276.49 58.46 6.00
   04:19:29.447.02-Jul-2020 475.08 2364.26 1565.98 1276.49 58.46 6.00
   04:19:29.647.02-Jul-2020 475.28 2364.26 1565.98 1276.49 58.46 6.00
   04:19:29.847.02-Jul-2020 475.48 2364.24 1565.98 1276.49 58.46 6.00
   04:19:30.047.02-Jul-2020 475.68 2364.27 1565.98 1276.49 58.46 6.00
   04:19:30.247.02-Jul-2020 475.88 2364.27 1565.98 1276.49 58.46 6.00
   04:19:30.447.02-Jul-2020 476.08 2364.25 1565.98 1276.49 58.46 6.00
   04:19:30.647.02-Jul-2020 476.28 2364.26 1565.98 1276.49 58.46 6.00
   04:19:30.847.02-Jul-2020 476.48 2364.25 1565.98 1276.49 58.46 6.00
   04:19:31.047.02-Jul-2020 476.68 2364.26 1565.98 1276.49 58.46 6.00
   04:19:31.247.02-Jul-2020 476.88 2364.27 1565.98 1276.49 58.46 6.00
   04:19:31.447.02-Jul-2020 477.08 2364.25 1565.98 1276.49 58.46 6.00
   04:19:31.647.02-Jul-2020 477.28 2364.25 1565.98 1276.49 58.46 6.00
   04:19:31.847.02-Jul-2020 477.48 2364.28 1565.98 1276.49 58.46 6.00
   04:19:32.047.02-Jul-2020 477.68 2364.24 1565.98 1276.49 58.46 6.00
   04:19:32.247.02-Jul-2020 477.88 2364.27 1565.98 1276.49 58.46 6.00
   04:19:32.447.02-Jul-2020 478.08 2364.28 1565.98 1276.49 58.47 6.00
   04:19:32.647.02-Jul-2020 478.28 2364.28 1565.98 1276.49 58.47 6.00
   04:19:32.847.02-Jul-2020 478.48 2364.27 1565.98 1276.49 58.47 6.00
   04:19:33.047.02-Jul-2020 478.68 2364.27 1565.98 1276.49 58.47 6.00
   04:19:33.247.02-Jul-2020 478.88 2364.19 1565.98 1276.49 58.47 6.00
   04:19:33.447.02-Jul-2020 479.08 2364.30 1565.98 1276.49 58.47 6.00
   04:19:33.647.02-Jul-2020 479.28 2364.30 1565.98 1276.49 58.47 6.00
   04:19:33.847.02-Jul-2020 479.48 2364.23 1565.98 1276.49 58.47 6.00
   04:19:34.047.02-Jul-2020 479.68 2364.27 1565.98 1276.49 58.47 6.00
   04:19:34.247.02-Jul-2020 479.88 2364.24 1565.98 1276.49 58.47 6.00
   04:19:34.447.02-Jul-2020 480.08 2364.23 1565.98 1276.49 58.47 6.00
   04:19:34.647.02-Jul-2020 480.28 2364.26 1565.98 1276.49 58.47 6.00
   04:19:34.848.02-Jul-2020 480.48 2364.24 1565.98 1276.49 58.47 6.00
   04:19:35.048.02-Jul-2020 480.68 2364.26 1565.98 1276.49 58.47 6.00
   04:19:35.248.02-Jul-2020 480.88 2364.26 1565.98 1276.49 58.47 6.00
   04:19:35.448.02-Jul-2020 481.08 2364.18 1565.98 1276.49 58.47 6.00
   04:19:35.648.02-Jul-2020 481.28 2364.18 1565.98 1276.49 58.47 6.00
   04:19:35.848.02-Jul-2020 481.48 2364.25 1565.98 1276.49 58.47 6.00
   04:19:36.048.02-Jul-2020 481.68 2364.22 1565.98 1276.49 58.47 6.00
   04:19:36.248.02-Jul-2020 481.88 2364.25 1565.98 1276.49 58.47 6.00
   04:19:36.448.02-Jul-2020 482.08 2364.25 1565.98 1276.49 58.47 6.00
   04:19:36.648.02-Jul-2020 482.28 2364.21 1565.98 1276.49 58.47 6.00
   04:19:36.848.02-Jul-2020 482.48 2364.25 1565.98 1276.49 58.47 6.00
   04:19:37.048.02-Jul-2020 482.68 2364.25 1565.98 1276.49 58.47 6.00
   04:19:37.248.02-Jul-2020 482.88 2364.24 1565.98 1276.49 58.47 6.00
