~Version Information
 VERS.                  2.0:   CWLS log ASCII Standard -VERSION 2.0
 WRAP.                   NO:   One line per depth step
~Well Information Block
#MNEM.UNIT     VALUE/NAME     DESCRIPTION
#---------     -----------    ---------------------------
 STRT.S             16:00:06 29-Jun-20: START TIME 16:00:06 29-Jun-20
 STOP.S             16:09:07 29-Jun-20: STOP TIME  16:09:07 29-Jun-20
 STEP.S                   0.00: STEP TIME
 NULL.                 -999.25: NULL VALUE
 DFWT.                        :  DIST FWL TEXT
 DFST.                        :  DIST FSL TEXT
 DMF .             Drill Floor:  DRILL MEAS FROM
 STIM.      09.59.28 01-Jun-20:  START TIME
 DATE.      09.59.28 01-Jun-20:  END TIME
 SPUD.               01-Jun-20:  SPUD DATE
 NREF.                    Grid:  NORTH REFERENCE
 HPTY.       Minimum Curvature:  HOLE POS TYPE
 DMOD.             Drill Model:  DRILL MOD DESC
 SVYD.                  Survey:  SURVEY DESC
 ILTD.               Lithology:  INTERP LTH DESC
 FTOP.          Formation Tops:  FORM TOPS DESC
 SON .        AZ-XX-0905455768:  JOB NUMBER
 WTYP.                Deviated:  WELL TYPE
 COMP.     BP Exploration(Caspian Sea):  COMPANY
 BASE.              Azerbaijan:  LOGGING EQUIPMENT BASE LOCATION
 REGN.                   EESSA:  REGION
 CTRY.              Azerbaijan:  COUNTRY NAME
 FLD .                     ACG:  FIELD NAME
 SRVC.          Turan Drilling:  CONTRACTOR
 WELL.                     B41:  WELL NAME
 RIG .           Central Azeri:  RIG NAME
 DCON.         Sperry Drilling:  DIRECTNL CONTR
 PDAT.          Mean Sea Level:  PERMANENT DATUM
 MDS .        Operator Entered:  MAG DATA SOURCE
 API .                        :  API NUMBER
 CNTY.                        :  COUNTY
 PROV.                        :  PROVINCE
 STAT.                        :  STATE
 UWI .                        :  UNIQUE WELL IDENTIFIER
 LOC .                        :  LOCATION
 LMF .             Drill Floor:  LOG MEASURED FROM
 TVDS.m                  43.29:  TVDSS CORRECTN
 LATI.deg                40.03:  LATITUDE
 LONG.deg                51.35:  LONGITUDE
 WHNS.m                  12.98:  WELL HEAD N/S
 WHEW.m                  -6.62:  WELL HEAD E/W
 UTMX.m              530128.28:  UTM X
 UTMY.m             4433192.49:  UTM Y
 DFWL.m                   0.00:  DISTANCE FWL
 DFSL.m                   0.00:  DISTANCE FSL
 SDEP.m                 378.00:  START DEPTH
 TDD .m                   0.00:  TOTAL DEPTH (DRILLER)
 VSDR.deg               296.18:  VERT SEC DIRECT
 GVFD.g                   1.00:  GRAVITY FIELD
 MFLD.nT              50253.00:  MAGNETIC FIELD
 MDIP.deg                59.49:  MAGNETIC DIP
 MDEC.deg                 6.44:  MAGNETIC DECL
 GRDC.deg                 0.22:  GRID CORRECTION
 AZTC.deg                 6.22:  AZM TOTAL CORR
 EPD .m                   0.00:  ELEVATION
 EGL .m                   0.00:  GROUND ELEVATION
 WDMS.m                 128.20:  WD ELEV
 APD .m                  43.29:  DEPTH ABOVE PD
 AGAP.m                  43.29:  AIR GAP
 VSEW.m                  -6.62:  VERT SEC E/W
 VSNS.m                  12.98:  VERT SEC N/S
 EKB .m                  43.29:  KB ELEVATION
 EDF .m                  43.29:  DF ELEVATION
 TDL .m                1152.00:  TOTAL DEPTH (LOGGER)
 VSC .                       0:  VS TO CLOSURE
 MAGU.                 1848525:  MAGUTM CHECKSUM
~Parameter Information Block
#MNEM.UNIT       Value        Description
#---------     -----------    ---------------------------
 AV  .mps                 0.40:  Ann Velocity 
 AVMX.mps                 1.56:  Max Ann Veloc 
 AZIF.deg               300.46:  Azm, Final 
 BHAT.        Rotary Steerable:  BHA Type 
 BROT.∞/30m               0.40:  Build Rotating 
 BS  .in                 17.50:  Bit Size 
 BSZ .in                 17.50:  Bit Size 
 BTPL.psig              300.00:  Bit Press Loss 
 CABU.                      No:  Customer Abuse 
 CGEO.          Parviz Guliyev:  Customer Geo 
 COMM.                     ,‘Å:  Run Comments 1 
 TCS .hr                108.13:  Time Ciculation Ended 
 CV  .mps                 0.50:  Crit Velocity 
 CVMX.mps                 2.01:  Max Crit Veloc 
 DD1 .          Fariz Nahmatov:  Direct Drillr 1 
 DD2 .             Ehab Radwan:  Direct Drillr 2 
 DDSV.               Geo-Pilot:  DD Service 
 DEFF.%                  99.00:  % Det Eff 
 DLRX.∞/30m               0.50:  Dogleg Rot Max 
 DLSO.∞/30m               2.80:  Dogleg Oriented 
 DLSX.∞/30m               3.90:  Dogleg Str Max 
 DRET.      09.30.04 03-Jul-20:  Drill End Time 
 DRST.      18.33.04 28-Jun-20:  Drill Start Tim 
 DTIM.hr                 55.83:  Time Drilling 
 EDEP.m                1952.00:  End Depth 
 ENG1.      Bakhtiyar Jabbarli:  Engineer 1 
 ENG2.         Farhad Orujzade:  Engineer 2 
 ENG3.          Rustam Safarov:  Engineer 3 
 ETIM.      01.33.04 04-Jul-20:  End Time 
 FLOI.gpm              1050.00:  Flow In 
 FLON.gpm               950.00:  Flow In Min 
 FLOS.cptm                0.10:  Fluid Loss 
 FLOX.gpm              1150.00:  Flow In Max 
 HFLO.                      No:  High Flow 
 HPRE.                      No:  High Pressure 
 HTEM.                      No:  High Temp 
 HYDO.m                   1.80:  Hydro Offset 
 IFIN.deg                75.26:  Inc, Final 
 IMAX.deg                75.38:  Inc Max 
 IMIN.deg                22.84:  Inc Min 
 IMND.m                 832.38:  Inc Min Depth 
 IMXD.m                1936.55:  Inc Max Depth 
 JARR.                      No:  Jarring 
 LETM.      17.40.00 04-Jul-20:  Log End Time 
 LOST.hr                     0:  Lost Rig Time 
 LSTM.      12.33.04 28-Jun-20:  Log Start Time 
 MDCL.ppm             49500.00:  Mud Chlorides 
 MDES.     Inversion Oil/Synthetic:  Mud Desc 
 DFD .sg                  1.46:  Mud Density 
 MDMN.sg                  1.46:  Dens Mud Min 
 MDMX.sg                  1.46:  Dens Mud Max 
 MOIL.                      70:  Run Mud Oil % 
 MOWR.                   70:30:  Run Mud OWR 
 MSND.                     0.5:  Run Mud Sand % 
 MSOL.                   19.89:  Run Mud Solids% 
 DFV .spqt               72.00:  Mud Viscosity 
 MWOD.in                  9.50:  MWD Tool OD 
 MWSI.                      No:  Serv Intrp, MWD 
 OTIM.hr                146.53:  Time Operating 
 PCON.           Look Like New:  Pad Condition 
 PMAX.psia             2900.00:  Press Op, Max 
 PV  .cP                 38.00:  Mud PV 
 RUN .                     600:  Run Number 
 ROPA.m/hr               22.00:  ROP Avg 
 ROPN.m/hr               10.00:  ROP Min 
 ROPX.m/hr              263.00:  ROP Max 
 RPMA.rpm               155.00:  RPM Surface Avg 
 RPMN.rpm               140.00:  RPM Surface Min 
 RPMX.rpm               160.00:  RPM Surface Max 
 RRUN.                    0600:  Rig Run Number 
 RTIM.hr                  5.00:  Time Reaming 
 SAZI.deg               300.08:  Azm, Start 
 SDEP.m                 800.00:  Start Depth 
 SIDD.                      No:  Serv Intrp, DD 
 SINC.deg                22.84:  Inc, Start 
 SPPA.psig             3000.00:  SPP Avg 
 SPPN.psig             1900.00:  SPP Min 
 SPPX.psig             3200.00:  SPP Max 
 STIM.      12.30.04 28-Jun-20:  Start Time 
 SVCS.                 DD, MWD:  Services 
 SVER.                    9.20:  Sperry Version 
 TDAT.m                1952.00:  Tot Depth Attmp 
 TDDF.                      No:  Trip for DD 
 TDLG.m                1152.00:  Tot Depth Loggd 
 TFF .                      No:  Trip for Fail 
 TQAA.f-kp                8.00:  Torque Abs Avg 
 TQAN.f-kp                5.00:  Torque Abs Min 
 TQAX.f-kp               14.00:  Torque Abs Max 
 TRRT.∞/30m               0.50:  Turn Rotating 
 MRT .                  EWR-M5:  Maximum Recorded Temperature 
 TTMX.degC               69.00:  Max Tool Temp 
 VS01.                90610313:  Virtual Str1 SN 
 VS02.                90613431:  Virtual Str2 SN 
 VS03.                90615410:  Virtual Str3 SN 
 WBMN.klb                 6.00:  WOB Min 
 WITN.            Bruce Cheyne:  Customer Rep 
 WITN.             Ayaz Aliyev:  Customer Rep 2 
 WOBA.klb                 6.00:  WOB Avg 
 WOBX.klb                10.00:  WOB Max 
 YP  .lhf2               36.00:  Yield Point 
~Curve Information Block
#MNEM.UNIT                 API CODE     Curve Description
#---------               -----------    ---------------------------
 TIME.HHMMSS            00 000 000 000:  GT Time & Date
 GTET.sec               00 000 000 000:  GT Elapsed Test Time
 GTPQH.psia             00 000 000 000:  GT HR Quartz Pressure
 GTDEPTH.m              00 000 000 000:  GT Depth
 GTTVD.m                00 000 000 000:  GT True Vertical Depth
 GTTQ.degC              00 000 000 000:  GT Quartz Temperature
 GTTN.NONE              00 000 000 000:  GT Test Number
#Other Information
#
#WARRANTY: Halliburton will use its best efforts to furnish customers with 
#accurate information and interpretations that are part of, and incident to, the services 
#provided.  However, Halliburton cannot and does not warrant the accuracy 
#or correctness of such information and interpretations.  Under no circumstances should any 
#such information or interpretation be relied upon as the sole basis for any drilling, 
#completion, production, or financial decision or any procedure involving any risk to the 
#safety of any drilling venture, drilling rig or its crew or any other third party.  The 
#Customer has full responsibility for all drilling, completion and production operation.  
#Halliburton makes no representations or warranties, either expressed or 
#implied, including, but not limited to, the implied warranties of merchantability or fitness 
#for a particular purpose, with respect to the services rendered.  In no event will 
#Halliburton be liable for failure to obtain any particular results or for 
#any damages, including, but not limited to, indirect, special or consequential damages, 
#resulting from the use of any information or interpretation provided by Halliburton.
#
~A           TIME            GTET   GTPQH  GTDEPTH GTTVD  GTTQ  GTTN 
# ...
   16:04:44.957.29-Jun-2020 278.51 1574.85  873.30 856.96 65.88 1.00
   16:04:45.157.29-Jun-2020 278.71 1574.75  873.30 856.96 65.88 1.00
   16:04:45.357.29-Jun-2020 278.91 1574.80  873.30 856.96 65.88 1.00
   16:04:45.557.29-Jun-2020 279.11 1574.73  873.30 856.96 65.88 1.00
   16:04:45.757.29-Jun-2020 279.31 1574.73  873.30 856.96 65.88 1.00
   16:04:45.957.29-Jun-2020 279.51 1574.73  873.30 856.96 65.88 1.00
   16:04:46.158.29-Jun-2020 279.71 1574.88  873.30 856.96 65.88 1.00
   16:04:46.358.29-Jun-2020 279.91 1574.77  873.30 856.96 65.88 1.00
   16:04:46.558.29-Jun-2020 280.11 1574.91  873.30 856.96 65.88 1.00
   16:04:46.758.29-Jun-2020 280.31 1574.91  873.30 856.96 65.88 1.00
   16:04:46.958.29-Jun-2020 280.51 1574.89  873.30 856.96 65.88 1.00
   16:04:47.158.29-Jun-2020 280.71 1574.86  873.30 856.96 65.88 1.00
   16:04:47.358.29-Jun-2020 280.91 1574.84  873.30 856.96 65.88 1.00
   16:04:47.558.29-Jun-2020 281.11 1574.97  873.30 856.96 65.88 1.00
   16:04:47.758.29-Jun-2020 281.31 1574.97  873.30 856.96 65.88 1.00
   16:04:47.958.29-Jun-2020 281.51 1574.84  873.30 856.96 65.88 1.00
   16:04:48.158.29-Jun-2020 281.71 1574.88  873.30 856.96 65.88 1.00
   16:04:48.358.29-Jun-2020 281.91 1574.85  873.30 856.96 65.88 1.00
   16:04:48.558.29-Jun-2020 282.11 1574.82  873.30 856.96 65.89 1.00
   16:04:48.759.29-Jun-2020 282.31 1574.82  873.30 856.96 65.89 1.00
   16:04:48.959.29-Jun-2020 282.51 1574.86  873.30 856.96 65.89 1.00
   16:04:49.159.29-Jun-2020 282.71 1574.88  873.30 856.96 65.89 1.00
   16:04:49.359.29-Jun-2020 282.91 1574.85  873.30 856.96 65.89 1.00
   16:04:49.559.29-Jun-2020 283.11 1574.77  873.30 856.96 65.89 1.00
   16:04:49.759.29-Jun-2020 283.31 1574.82  873.30 856.96 65.89 1.00
   16:04:49.959.29-Jun-2020 283.51 1574.82  873.30 856.96 65.89 1.00
   16:04:50.159.29-Jun-2020 283.71 1574.81  873.30 856.96 65.89 1.00
   16:04:50.359.29-Jun-2020 283.91 1574.82  873.30 856.96 65.89 1.00
   16:04:50.559.29-Jun-2020 284.11 1574.85  873.30 856.96 65.89 1.00
   16:04:50.759.29-Jun-2020 284.31 1574.85  873.30 856.96 65.89 1.00
   16:04:50.959.29-Jun-2020 284.51 1574.76  873.30 856.96 65.89 1.00
   16:04:51.159.29-Jun-2020 284.71 1574.79  873.30 856.96 65.89 1.00
   16:04:51.359.29-Jun-2020 284.91 1574.82  873.30 856.96 65.89 1.00
   16:04:51.560.29-Jun-2020 285.11 1574.86  873.30 856.96 65.89 1.00
   16:04:51.760.29-Jun-2020 285.31 1574.85  873.30 856.96 65.89 1.00
   16:04:51.960.29-Jun-2020 285.51 1574.89  873.30 856.96 65.89 1.00
   16:04:52.160.29-Jun-2020 285.71 1574.81  873.30 856.96 65.89 1.00
   16:04:52.360.29-Jun-2020 285.91 1574.96  873.30 856.96 65.89 1.00
   16:04:52.560.29-Jun-2020 286.11 1574.95  873.30 856.96 65.89 1.00
   16:04:52.760.29-Jun-2020 286.31 1574.95  873.30 856.96 65.89 1.00
   16:04:52.960.29-Jun-2020 286.51 1574.79  873.30 856.96 65.89 1.00
   16:04:53.160.29-Jun-2020 286.71 1575.00  873.30 856.96 65.89 1.00
   16:04:53.360.29-Jun-2020 286.91 1574.82  873.30 856.96 65.89 1.00
   16:04:53.560.29-Jun-2020 287.11 1574.93  873.30 856.96 65.89 1.00
   16:04:53.760.29-Jun-2020 287.31 1574.93  873.30 856.96 65.89 1.00
   16:04:53.960.29-Jun-2020 287.51 1574.74  873.30 856.96 65.89 1.00
   16:04:54.161.29-Jun-2020 287.71 1574.95  873.30 856.96 65.89 1.00
   16:04:54.361.29-Jun-2020 287.91 1574.73  873.30 856.96 65.89 1.00
   16:04:54.561.29-Jun-2020 288.11 1574.84  873.30 856.96 65.89 1.00
   16:04:54.761.29-Jun-2020 288.31 1574.84  873.30 856.96 65.89 1.00
   16:04:54.961.29-Jun-2020 288.51 1574.88  873.30 856.96 65.89 1.00
   16:04:55.161.29-Jun-2020 288.71 1574.89  873.30 856.96 65.89 1.00
   16:04:55.361.29-Jun-2020 288.91 1574.84  873.30 856.96 65.89 1.00
   16:04:55.561.29-Jun-2020 289.11 1574.81  873.30 856.96 65.89 1.00
   16:04:55.761.29-Jun-2020 289.31 1574.81  873.30 856.96 65.89 1.00
   16:04:55.961.29-Jun-2020 289.51 1574.88  873.30 856.96 65.89 1.00
   16:04:56.161.29-Jun-2020 289.71 1574.79  873.30 856.96 65.89 1.00
   16:04:56.361.29-Jun-2020 289.91 1574.93  873.30 856.96 65.89 1.00
   16:04:56.561.29-Jun-2020 290.11 1574.82  873.30 856.96 65.89 1.00
   16:04:56.762.29-Jun-2020 290.31 1574.82  873.30 856.96 65.89 1.00
   16:04:56.962.29-Jun-2020 290.51 1574.92  873.30 856.96 65.89 1.00
   16:04:57.162.29-Jun-2020 290.71 1574.78  873.30 856.96 65.89 1.00
   16:04:57.362.29-Jun-2020 290.91 1574.91  873.30 856.96 65.89 1.00
   16:04:57.562.29-Jun-2020 291.11 1574.87  873.30 856.96 65.89 1.00
   16:04:57.762.29-Jun-2020 291.31 1574.87  873.30 856.96 65.89 1.00
   16:04:57.962.29-Jun-2020 291.51 1574.86  873.30 856.96 65.89 1.00
   16:04:58.162.29-Jun-2020 291.71 1574.96  873.30 856.96 65.89 1.00
   16:04:58.362.29-Jun-2020 291.91 1574.83  873.30 856.96 65.89 1.00
   16:04:58.562.29-Jun-2020 292.11 1574.90  873.30 856.96 65.89 1.00
   16:04:58.762.29-Jun-2020 292.31 1574.90  873.30 856.96 65.89 1.00
   16:04:58.962.29-Jun-2020 292.51 1574.81  873.30 856.96 65.89 1.00
   16:04:59.162.29-Jun-2020 292.71 1574.85  873.30 856.96 65.89 1.00
   16:04:59.363.29-Jun-2020 292.91 1574.80  873.30 856.96 65.89 1.00
   16:04:59.563.29-Jun-2020 293.11 1574.79  873.30 856.96 65.89 1.00
   16:04:59.763.29-Jun-2020 293.31 1574.69  873.30 856.96 65.89 1.00
   16:04:59.963.29-Jun-2020 293.51 1574.99  873.30 856.96 65.89 1.00
   16:05:00.163.29-Jun-2020 293.71 1574.74  873.30 856.96 65.89 1.00
   16:05:00.363.29-Jun-2020 293.91 1574.85  873.30 856.96 65.89 1.00
   16:05:00.563.29-Jun-2020 294.11 1574.82  873.30 856.96 65.89 1.00
   16:05:00.763.29-Jun-2020 294.31 1574.82  873.30 856.96 65.89 1.00
   16:05:00.963.29-Jun-2020 294.51 1574.85  873.30 856.96 65.89 1.00
   16:05:01.163.29-Jun-2020 294.71 1574.88  873.30 856.96 65.89 1.00
   16:05:01.363.29-Jun-2020 294.91 1574.87  873.30 856.96 65.89 1.00
   16:05:01.563.29-Jun-2020 295.11 1574.86  873.30 856.96 65.89 1.00
   16:05:01.763.29-Jun-2020 295.31 1574.86  873.30 856.96 65.89 1.00
   16:05:01.964.29-Jun-2020 295.51 1574.87  873.30 856.96 65.89 1.00
   16:05:02.164.29-Jun-2020 295.71 1574.91  873.30 856.96 65.89 1.00
   16:05:02.364.29-Jun-2020 295.91 1574.90  873.30 856.96 65.89 1.00
   16:05:02.564.29-Jun-2020 296.11 1574.85  873.30 856.96 65.89 1.00
   16:05:02.764.29-Jun-2020 296.31 1574.85  873.30 856.96 65.89 1.00
   16:05:02.964.29-Jun-2020 296.51 1574.88  873.30 856.96 65.89 1.00
   16:05:03.164.29-Jun-2020 296.71 1574.81  873.30 856.96 65.89 1.00
   16:05:03.364.29-Jun-2020 296.91 1574.86  873.30 856.96 65.89 1.00
   16:05:03.564.29-Jun-2020 297.11 1574.89  873.30 856.96 65.89 1.00
   16:05:03.764.29-Jun-2020 297.31 1574.77  873.30 856.96 65.90 1.00
   16:05:03.964.29-Jun-2020 297.51 1574.82  873.30 856.96 65.90 1.00
   16:05:04.164.29-Jun-2020 297.71 1574.73  873.30 856.96 65.90 1.00
   16:05:04.364.29-Jun-2020 297.91 1574.97  873.30 856.96 65.90 1.00
   16:05:04.564.29-Jun-2020 298.11 1574.76  873.30 856.96 65.90 1.00
   16:05:04.765.29-Jun-2020 298.31 1574.76  873.30 856.96 65.90 1.00
   16:05:04.965.29-Jun-2020 298.51 1574.79  873.30 856.96 65.90 1.00
   16:05:05.165.29-Jun-2020 298.71 1574.92  873.30 856.96 65.90 1.00
   16:05:05.365.29-Jun-2020 298.91 1574.78  873.30 856.96 65.90 1.00
   16:05:05.565.29-Jun-2020 299.11 1574.90  873.30 856.96 65.90 1.00
   16:05:05.765.29-Jun-2020 299.31 1574.90  873.30 856.96 65.90 1.00
   16:05:05.965.29-Jun-2020 299.51 1574.87  873.30 856.96 65.90 1.00
   16:05:06.165.29-Jun-2020 299.71 1575.00  873.30 856.96 65.90 1.00
   16:05:06.365.29-Jun-2020 299.91 1574.87  873.30 856.96 65.90 1.00
   16:05:06.565.29-Jun-2020 300.11 1574.86  873.30 856.96 65.90 1.00
   16:05:06.765.29-Jun-2020 300.31 1574.86  873.30 856.96 65.90 1.00
   16:05:06.965.29-Jun-2020 300.51 1574.87  873.30 856.96 65.90 1.00
   16:05:07.165.29-Jun-2020 300.71 1574.84  873.30 856.96 65.90 1.00
   16:05:07.366.29-Jun-2020 300.91 1574.97  873.30 856.96 65.90 1.00
   16:05:07.566.29-Jun-2020 301.11 1574.88  873.30 856.96 65.90 1.00
   16:05:07.766.29-Jun-2020 301.31 1574.89  873.30 856.96 65.90 1.00
   16:05:07.966.29-Jun-2020 301.51 1574.85  873.30 856.96 65.90 1.00
