~Version Information
 VERS.                  2.0:   CWLS log ASCII Standard -VERSION 2.0
 WRAP.                   NO:   One line per depth step
~Well Information Block
#MNEM.UNIT     VALUE/NAME     DESCRIPTION
#---------     -----------    ---------------------------
 STRT.S             23:54:17 02-Jul-20: START TIME 23:54:17 02-Jul-20
 STOP.S             00:03:12 03-Jul-20: STOP TIME  00:03:12 03-Jul-20
 STEP.S                   0.00: STEP TIME
 NULL.                 -999.25: NULL VALUE
 DFWT.                        :  DIST FWL TEXT
 DFST.                        :  DIST FSL TEXT
 DMF .             Drill Floor:  DRILL MEAS FROM
 STIM.      09.59.28 01-Jun-20:  START TIME
 DATE.      09.59.28 01-Jun-20:  END TIME
 SPUD.               01-Jun-20:  SPUD DATE
 NREF.                    Grid:  NORTH REFERENCE
 HPTY.       Minimum Curvature:  HOLE POS TYPE
 DMOD.             Drill Model:  DRILL MOD DESC
 SVYD.                  Survey:  SURVEY DESC
 ILTD.               Lithology:  INTERP LTH DESC
 FTOP.          Formation Tops:  FORM TOPS DESC
 SON .        AZ-XX-0905455768:  JOB NUMBER
 WTYP.                Deviated:  WELL TYPE
 COMP.     BP Exploration(Caspian Sea):  COMPANY
 BASE.              Azerbaijan:  LOGGING EQUIPMENT BASE LOCATION
 REGN.                   EESSA:  REGION
 CTRY.              Azerbaijan:  COUNTRY NAME
 FLD .                     ACG:  FIELD NAME
 SRVC.          Turan Drilling:  CONTRACTOR
 WELL.                     B41:  WELL NAME
 RIG .           Central Azeri:  RIG NAME
 DCON.         Sperry Drilling:  DIRECTNL CONTR
 PDAT.          Mean Sea Level:  PERMANENT DATUM
 MDS .        Operator Entered:  MAG DATA SOURCE
 API .                        :  API NUMBER
 CNTY.                        :  COUNTY
 PROV.                        :  PROVINCE
 STAT.                        :  STATE
 UWI .                        :  UNIQUE WELL IDENTIFIER
 LOC .                        :  LOCATION
 LMF .             Drill Floor:  LOG MEASURED FROM
 TVDS.m                  43.29:  TVDSS CORRECTN
 LATI.deg                40.03:  LATITUDE
 LONG.deg                51.35:  LONGITUDE
 WHNS.m                  12.98:  WELL HEAD N/S
 WHEW.m                  -6.62:  WELL HEAD E/W
 UTMX.m              530128.28:  UTM X
 UTMY.m             4433192.49:  UTM Y
 DFWL.m                   0.00:  DISTANCE FWL
 DFSL.m                   0.00:  DISTANCE FSL
 SDEP.m                 378.00:  START DEPTH
 TDD .m                   0.00:  TOTAL DEPTH (DRILLER)
 VSDR.deg               296.18:  VERT SEC DIRECT
 GVFD.g                   1.00:  GRAVITY FIELD
 MFLD.nT              50253.00:  MAGNETIC FIELD
 MDIP.deg                59.49:  MAGNETIC DIP
 MDEC.deg                 6.44:  MAGNETIC DECL
 GRDC.deg                 0.22:  GRID CORRECTION
 AZTC.deg                 6.22:  AZM TOTAL CORR
 EPD .m                   0.00:  ELEVATION
 EGL .m                   0.00:  GROUND ELEVATION
 WDMS.m                 128.20:  WD ELEV
 APD .m                  43.29:  DEPTH ABOVE PD
 AGAP.m                  43.29:  AIR GAP
 VSEW.m                  -6.62:  VERT SEC E/W
 VSNS.m                  12.98:  VERT SEC N/S
 EKB .m                  43.29:  KB ELEVATION
 EDF .m                  43.29:  DF ELEVATION
 TDL .m                1152.00:  TOTAL DEPTH (LOGGER)
 VSC .                       0:  VS TO CLOSURE
 MAGU.                 1848525:  MAGUTM CHECKSUM
~Parameter Information Block
#MNEM.UNIT       Value        Description
#---------     -----------    ---------------------------
 AV  .mps                 0.40:  Ann Velocity 
 AVMX.mps                 1.56:  Max Ann Veloc 
 AZIF.deg               300.46:  Azm, Final 
 BHAT.        Rotary Steerable:  BHA Type 
 BROT.°/30m               0.40:  Build Rotating 
 BS  .in                 17.50:  Bit Size 
 BSZ .in                 17.50:  Bit Size 
 BTPL.psig              300.00:  Bit Press Loss 
 CABU.                      No:  Customer Abuse 
 CGEO.          Parviz Guliyev:  Customer Geo 
 COMM.                     ägu:  Run Comments 1 
 TCS .hr                108.13:  Time Ciculation Ended 
 CV  .mps                 0.50:  Crit Velocity 
 CVMX.mps                 2.01:  Max Crit Veloc 
 DD1 .          Fariz Nahmatov:  Direct Drillr 1 
 DD2 .             Ehab Radwan:  Direct Drillr 2 
 DDSV.               Geo-Pilot:  DD Service 
 DEFF.%                  99.00:  % Det Eff 
 DLRX.°/30m               0.50:  Dogleg Rot Max 
 DLSO.°/30m               2.80:  Dogleg Oriented 
 DLSX.°/30m               3.90:  Dogleg Str Max 
 DRET.      09.30.04 03-Jul-20:  Drill End Time 
 DRST.      18.33.04 28-Jun-20:  Drill Start Tim 
 DTIM.hr                 55.83:  Time Drilling 
 EDEP.m                1952.00:  End Depth 
 ENG1.      Bakhtiyar Jabbarli:  Engineer 1 
 ENG2.         Farhad Orujzade:  Engineer 2 
 ENG3.          Rustam Safarov:  Engineer 3 
 ETIM.      01.33.04 04-Jul-20:  End Time 
 FLOI.gpm              1050.00:  Flow In 
 FLON.gpm               950.00:  Flow In Min 
 FLOS.cptm                0.10:  Fluid Loss 
 FLOX.gpm              1150.00:  Flow In Max 
 HFLO.                      No:  High Flow 
 HPRE.                      No:  High Pressure 
 HTEM.                      No:  High Temp 
 HYDO.m                   1.80:  Hydro Offset 
 IFIN.deg                75.26:  Inc, Final 
 IMAX.deg                75.38:  Inc Max 
 IMIN.deg                22.84:  Inc Min 
 IMND.m                 832.38:  Inc Min Depth 
 IMXD.m                1936.55:  Inc Max Depth 
 JARR.                      No:  Jarring 
 LETM.      17.40.00 04-Jul-20:  Log End Time 
 LOST.hr                     0:  Lost Rig Time 
 LSTM.      12.33.04 28-Jun-20:  Log Start Time 
 MDCL.ppm             49500.00:  Mud Chlorides 
 MDES.     Inversion Oil/Synthetic:  Mud Desc 
 DFD .sg                  1.46:  Mud Density 
 MDMN.sg                  1.46:  Dens Mud Min 
 MDMX.sg                  1.46:  Dens Mud Max 
 MOIL.                      70:  Run Mud Oil % 
 MOWR.                   70:30:  Run Mud OWR 
 MSND.                     0.5:  Run Mud Sand % 
 MSOL.                   19.89:  Run Mud Solids% 
 DFV .spqt               72.00:  Mud Viscosity 
 MWOD.in                  9.50:  MWD Tool OD 
 MWSI.                      No:  Serv Intrp, MWD 
 OTIM.hr                146.53:  Time Operating 
 PCON.           Look Like New:  Pad Condition 
 PMAX.psia             2900.00:  Press Op, Max 
 PV  .cP                 38.00:  Mud PV 
 RUN .                     600:  Run Number 
 ROPA.m/hr               22.00:  ROP Avg 
 ROPN.m/hr               10.00:  ROP Min 
 ROPX.m/hr              263.00:  ROP Max 
 RPMA.rpm               155.00:  RPM Surface Avg 
 RPMN.rpm               140.00:  RPM Surface Min 
 RPMX.rpm               160.00:  RPM Surface Max 
 RRUN.                    0600:  Rig Run Number 
 RTIM.hr                  5.00:  Time Reaming 
 SAZI.deg               300.08:  Azm, Start 
 SDEP.m                 800.00:  Start Depth 
 SIDD.                      No:  Serv Intrp, DD 
 SINC.deg                22.84:  Inc, Start 
 SPPA.psig             3000.00:  SPP Avg 
 SPPN.psig             1900.00:  SPP Min 
 SPPX.psig             3200.00:  SPP Max 
 STIM.      12.30.04 28-Jun-20:  Start Time 
 SVCS.                 DD, MWD:  Services 
 SVER.                    9.20:  Sperry Version 
 TDAT.m                1952.00:  Tot Depth Attmp 
 TDDF.                      No:  Trip for DD 
 TDLG.m                1152.00:  Tot Depth Loggd 
 TFF .                      No:  Trip for Fail 
 TQAA.f-kp                8.00:  Torque Abs Avg 
 TQAN.f-kp                5.00:  Torque Abs Min 
 TQAX.f-kp               14.00:  Torque Abs Max 
 TRRT.°/30m               0.50:  Turn Rotating 
 MRT .                  EWR-M5:  Maximum Recorded Temperature 
 TTMX.degC               69.00:  Max Tool Temp 
 VS01.                90610313:  Virtual Str1 SN 
 VS02.                90613431:  Virtual Str2 SN 
 VS03.                90615410:  Virtual Str3 SN 
 WBMN.klb                 6.00:  WOB Min 
 WITN.            Bruce Cheyne:  Customer Rep 
 WITN.             Ayaz Aliyev:  Customer Rep 2 
 WOBA.klb                 6.00:  WOB Avg 
 WOBX.klb                10.00:  WOB Max 
 YP  .lhf2               36.00:  Yield Point 
~Curve Information Block
#MNEM.UNIT                 API CODE     Curve Description
#---------               -----------    ---------------------------
 TIME.HHMMSS            00 000 000 000:  GT Time & Date
 GTET.sec               00 000 000 000:  GT Elapsed Test Time
 GTPQH.psia             00 000 000 000:  GT HR Quartz Pressure
 GTDEPTH.m              00 000 000 000:  GT Depth
 GTTVD.m                00 000 000 000:  GT True Vertical Depth
 GTTQ.degC              00 000 000 000:  GT Quartz Temperature
 GTTN.NONE              00 000 000 000:  GT Test Number
#Other Information
#
#WARRANTY: Halliburton will use its best efforts to furnish customers with 
#accurate information and interpretations that are part of, and incident to, the services 
#provided.  However, Halliburton cannot and does not warrant the accuracy 
#or correctness of such information and interpretations.  Under no circumstances should any 
#such information or interpretation be relied upon as the sole basis for any drilling, 
#completion, production, or financial decision or any procedure involving any risk to the 
#safety of any drilling venture, drilling rig or its crew or any other third party.  The 
#Customer has full responsibility for all drilling, completion and production operation.  
#Halliburton makes no representations or warranties, either expressed or 
#implied, including, but not limited to, the implied warranties of merchantability or fitness 
#for a particular purpose, with respect to the services rendered.  In no event will 
#Halliburton be liable for failure to obtain any particular results or for 
#any damages, including, but not limited to, indirect, special or consequential damages, 
#resulting from the use of any information or interpretation provided by Halliburton.
#
~A           TIME            GTET   GTPQH  GTDEPTH  GTTVD  GTTQ  GTTN 
# ...
   00:02:20.655.03-Jul-2020 483.07 2503.60 1828.92 1344.71 59.05 7.00
   00:02:20.855.03-Jul-2020 483.27 2503.60 1828.92 1344.71 59.05 7.00
   00:02:21.055.03-Jul-2020 483.47 2503.58 1828.92 1344.71 59.05 7.00
   00:02:21.255.03-Jul-2020 483.67 2503.61 1828.92 1344.71 59.05 7.00
   00:02:21.455.03-Jul-2020 483.87 2503.61 1828.92 1344.71 59.05 7.00
   00:02:21.655.03-Jul-2020 484.07 2503.61 1828.92 1344.71 59.05 7.00
   00:02:21.855.03-Jul-2020 484.27 2503.61 1828.92 1344.71 59.05 7.00
   00:02:22.055.03-Jul-2020 484.47 2503.60 1828.92 1344.71 59.05 7.00
   00:02:22.255.03-Jul-2020 484.67 2503.60 1828.92 1344.71 59.05 7.00
   00:02:22.455.03-Jul-2020 484.87 2503.61 1828.92 1344.71 59.05 7.00
   00:02:22.655.03-Jul-2020 485.07 2503.61 1828.92 1344.71 59.05 7.00
   00:02:22.855.03-Jul-2020 485.27 2503.61 1828.92 1344.71 59.05 7.00
   00:02:23.055.03-Jul-2020 485.47 2503.61 1828.92 1344.71 59.05 7.00
   00:02:23.255.03-Jul-2020 485.67 2503.52 1828.92 1344.71 59.05 7.00
   00:02:23.455.03-Jul-2020 485.87 2503.60 1828.92 1344.71 59.05 7.00
   00:02:23.655.03-Jul-2020 486.07 2503.60 1828.92 1344.71 59.05 7.00
   00:02:23.855.03-Jul-2020 486.27 2503.60 1828.92 1344.71 59.05 7.00
   00:02:24.055.03-Jul-2020 486.47 2503.60 1828.92 1344.71 59.05 7.00
   00:02:24.255.03-Jul-2020 486.67 2503.60 1828.92 1344.71 59.05 7.00
   00:02:24.455.03-Jul-2020 486.87 2503.55 1828.92 1344.71 59.05 7.00
   00:02:24.655.03-Jul-2020 487.07 2503.55 1828.92 1344.71 59.05 7.00
   00:02:24.855.03-Jul-2020 487.27 2503.55 1828.92 1344.71 59.05 7.00
   00:02:25.055.03-Jul-2020 487.47 2503.60 1828.92 1344.71 59.05 7.00
   00:02:25.255.03-Jul-2020 487.67 2503.61 1828.92 1344.71 59.05 7.00
   00:02:25.455.03-Jul-2020 487.87 2503.61 1828.92 1344.71 59.05 7.00
   00:02:25.655.03-Jul-2020 488.07 2503.59 1828.92 1344.71 59.05 7.00
   00:02:25.855.03-Jul-2020 488.27 2503.59 1828.92 1344.71 59.05 7.00
   00:02:26.055.03-Jul-2020 488.47 2503.61 1828.92 1344.71 59.05 7.00
   00:02:26.255.03-Jul-2020 488.67 2503.62 1828.92 1344.71 59.05 7.00
   00:02:26.455.03-Jul-2020 488.87 2503.61 1828.92 1344.71 59.05 7.00
   00:02:26.655.03-Jul-2020 489.07 2503.59 1828.92 1344.71 59.05 7.00
   00:02:26.855.03-Jul-2020 489.27 2503.59 1828.92 1344.71 59.05 7.00
   00:02:27.055.03-Jul-2020 489.47 2503.62 1828.92 1344.71 59.05 7.00
   00:02:27.255.03-Jul-2020 489.67 2503.61 1828.92 1344.71 59.05 7.00
   00:02:27.455.03-Jul-2020 489.87 2503.59 1828.92 1344.71 59.05 7.00
   00:02:27.655.03-Jul-2020 490.07 2503.61 1828.92 1344.71 59.05 7.00
   00:02:27.856.03-Jul-2020 490.27 2503.61 1828.92 1344.71 59.05 7.00
   00:02:28.056.03-Jul-2020 490.47 2503.59 1828.92 1344.71 59.05 7.00
   00:02:28.256.03-Jul-2020 490.67 2503.59 1828.92 1344.71 59.05 7.00
   00:02:28.456.03-Jul-2020 490.87 2503.61 1828.92 1344.71 59.05 7.00
   00:02:28.656.03-Jul-2020 491.07 2503.61 1828.92 1344.71 59.05 7.00
   00:02:28.856.03-Jul-2020 491.27 2503.60 1828.92 1344.71 59.05 7.00
   00:02:29.056.03-Jul-2020 491.47 2503.61 1828.92 1344.71 59.05 7.00
   00:02:29.256.03-Jul-2020 491.67 2503.60 1828.92 1344.71 59.05 7.00
   00:02:29.456.03-Jul-2020 491.87 2503.60 1828.92 1344.71 59.05 7.00
   00:02:29.656.03-Jul-2020 492.07 2503.60 1828.92 1344.71 59.05 7.00
   00:02:29.856.03-Jul-2020 492.27 2503.62 1828.92 1344.71 59.05 7.00
   00:02:30.056.03-Jul-2020 492.47 2503.61 1828.92 1344.71 59.05 7.00
   00:02:30.256.03-Jul-2020 492.67 2503.61 1828.92 1344.71 59.05 7.00
   00:02:30.456.03-Jul-2020 492.87 2504.00 1828.92 1344.71 59.05 7.00
   00:02:30.656.03-Jul-2020 493.07 2519.16 1828.92 1344.71 59.05 7.00
   00:02:30.856.03-Jul-2020 493.27 2519.16 1828.92 1344.71 59.05 7.00
   00:02:31.056.03-Jul-2020 493.47 2384.20 1828.92 1344.71 59.05 7.00
   00:02:31.256.03-Jul-2020 493.67 2490.60 1828.92 1344.71 59.05 7.00
   00:02:31.456.03-Jul-2020 493.87 2499.19 1828.92 1344.71 59.05 7.00
   00:02:31.656.03-Jul-2020 494.07 2506.69 1828.92 1344.71 59.05 7.00
   00:02:31.856.03-Jul-2020 494.27 2506.69 1828.92 1344.71 59.05 7.00
   00:02:32.056.03-Jul-2020 494.47 2839.41 1828.92 1344.71 59.05 7.00
   00:02:32.256.03-Jul-2020 494.67 2846.51 1828.92 1344.71 59.05 7.00
   00:02:32.456.03-Jul-2020 494.87 2855.34 1828.92 1344.71 59.05 7.00
   00:02:32.656.03-Jul-2020 495.07 2867.53 1828.92 1344.71 59.05 7.00
   00:02:32.856.03-Jul-2020 495.27 2867.53 1828.92 1344.71 59.05 7.00
   00:02:33.056.03-Jul-2020 495.47 2903.07 1828.92 1344.71 59.05 7.00
   00:02:33.256.03-Jul-2020 495.67 2859.34 1828.92 1344.71 59.05 7.00
   00:02:33.456.03-Jul-2020 495.87 2841.51 1828.92 1344.71 59.05 7.00
   00:02:33.656.03-Jul-2020 496.07 2840.83 1828.92 1344.71 59.05 7.00
   00:02:33.856.03-Jul-2020 496.27 2840.83 1828.92 1344.71 59.05 7.00
   00:02:34.056.03-Jul-2020 496.47 2840.50 1828.92 1344.71 59.05 7.00
   00:02:34.256.03-Jul-2020 496.67 2839.19 1828.92 1344.71 59.05 7.00
   00:02:34.456.03-Jul-2020 496.87 2839.66 1828.92 1344.71 59.05 7.00
   00:02:34.656.03-Jul-2020 497.07 2839.82 1828.92 1344.71 59.05 7.00
   00:02:34.856.03-Jul-2020 497.27 2839.82 1828.92 1344.71 59.05 7.00
   00:02:35.056.03-Jul-2020 497.47 2840.06 1828.92 1344.71 59.05 7.00
   00:02:35.257.03-Jul-2020 497.67 2839.91 1828.92 1344.71 59.05 7.00
   00:02:35.457.03-Jul-2020 497.87 2839.68 1828.92 1344.71 59.05 7.00
   00:02:35.657.03-Jul-2020 498.07 2838.94 1828.92 1344.71 59.05 7.00
   00:02:35.857.03-Jul-2020 498.27 2838.94 1828.92 1344.71 59.05 7.00
   00:02:36.057.03-Jul-2020 498.47 2840.26 1828.92 1344.71 59.05 7.00
   00:02:36.257.03-Jul-2020 498.67 2840.07 1828.92 1344.71 59.05 7.00
   00:02:36.457.03-Jul-2020 498.87 2838.70 1828.92 1344.71 59.05 7.00
   00:02:36.657.03-Jul-2020 499.07 2839.23 1828.92 1344.71 59.05 7.00
   00:02:36.857.03-Jul-2020 499.27 2839.23 1828.92 1344.71 59.05 7.00
   00:02:37.057.03-Jul-2020 499.47 2839.25 1828.92 1344.71 59.05 7.00
   00:02:37.257.03-Jul-2020 499.67 2839.51 1828.92 1344.71 59.05 7.00
   00:02:37.457.03-Jul-2020 499.87 2839.81 1828.92 1344.71 59.05 7.00
   00:02:37.657.03-Jul-2020 500.07 2839.32 1828.92 1344.71 59.05 7.00
   00:02:37.857.03-Jul-2020 500.27 2839.32 1828.92 1344.71 59.05 7.00
   00:02:38.057.03-Jul-2020 500.47 2839.41 1828.92 1344.71 59.05 7.00
   00:02:38.257.03-Jul-2020 500.67 2839.74 1828.92 1344.71 59.05 7.00
   00:02:38.457.03-Jul-2020 500.87 2839.55 1828.92 1344.71 59.05 7.00
   00:02:38.657.03-Jul-2020 501.07 2839.61 1828.92 1344.71 59.05 7.00
   00:02:38.857.03-Jul-2020 501.27 2839.61 1828.92 1344.71 59.05 7.00
   00:02:39.057.03-Jul-2020 501.47 2839.28 1828.92 1344.71 59.05 7.00
   00:02:39.257.03-Jul-2020 501.67 2839.48 1828.92 1344.71 59.05 7.00
   00:02:39.457.03-Jul-2020 501.87 2839.68 1828.92 1344.71 59.06 7.00
   00:02:39.657.03-Jul-2020 502.07 2839.86 1828.92 1344.71 59.06 7.00
   00:02:39.857.03-Jul-2020 502.27 2839.86 1828.92 1344.71 59.06 7.00
   00:02:40.057.03-Jul-2020 502.47 2839.57 1828.92 1344.71 59.06 7.00
   00:02:40.257.03-Jul-2020 502.67 2838.40 1828.92 1344.71 59.06 7.00
   00:02:40.457.03-Jul-2020 502.87 2839.27 1828.92 1344.71 59.06 7.00
   00:02:40.657.03-Jul-2020 503.07 2839.43 1828.92 1344.71 59.06 7.00
   00:02:40.857.03-Jul-2020 503.27 2839.43 1828.92 1344.71 59.06 7.00
   00:02:41.057.03-Jul-2020 503.47 2839.88 1828.92 1344.71 59.06 7.00
   00:02:41.257.03-Jul-2020 503.67 2839.74 1828.92 1344.71 59.06 7.00
   00:02:41.457.03-Jul-2020 503.87 2839.62 1828.92 1344.71 59.06 7.00
   00:02:41.657.03-Jul-2020 504.07 2839.79 1828.92 1344.71 59.06 7.00
   00:02:41.857.03-Jul-2020 504.27 2839.79 1828.92 1344.71 59.06 7.00
   00:02:42.057.03-Jul-2020 504.47 2839.97 1828.92 1344.71 59.06 7.00
   00:02:42.257.03-Jul-2020 504.67 2839.93 1828.92 1344.71 59.06 7.00
   00:02:42.458.03-Jul-2020 504.87 2839.96 1828.92 1344.71 59.06 7.00
   00:02:42.658.03-Jul-2020 505.07 2838.63 1828.92 1344.71 59.06 7.00
   00:02:42.858.03-Jul-2020 505.27 2838.63 1828.92 1344.71 59.06 7.00
   00:02:43.058.03-Jul-2020 505.47 2839.66 1828.92 1344.71 59.06 7.00
   00:02:43.258.03-Jul-2020 505.67 2839.66 1828.92 1344.71 59.06 7.00
   00:02:43.458.03-Jul-2020 505.87 2839.75 1828.92 1344.71 59.06 7.00
