~Version Information
 VERS.                  2.0:   CWLS log ASCII Standard -VERSION 2.0
 WRAP.                   NO:   One line per depth step
~Well Information Block
#MNEM.UNIT     VALUE/NAME     DESCRIPTION
#---------     -----------    ---------------------------
 STRT.S             16:15:55 30-Jun-20: START TIME 16:15:55 30-Jun-20
 STOP.S             16:24:50 30-Jun-20: STOP TIME  16:24:50 30-Jun-20
 STEP.S                   0.00: STEP TIME
 NULL.                 -999.25: NULL VALUE
 DFWT.                        :  DIST FWL TEXT
 DFST.                        :  DIST FSL TEXT
 DMF .             Drill Floor:  DRILL MEAS FROM
 STIM.      09.59.28 01-Jun-20:  START TIME
 DATE.      09.59.28 01-Jun-20:  END TIME
 SPUD.               01-Jun-20:  SPUD DATE
 NREF.                    Grid:  NORTH REFERENCE
 HPTY.       Minimum Curvature:  HOLE POS TYPE
 DMOD.             Drill Model:  DRILL MOD DESC
 SVYD.                  Survey:  SURVEY DESC
 ILTD.               Lithology:  INTERP LTH DESC
 FTOP.          Formation Tops:  FORM TOPS DESC
 SON .        AZ-XX-0905455768:  JOB NUMBER
 WTYP.                Deviated:  WELL TYPE
 COMP.     BP Exploration(Caspian Sea):  COMPANY
 BASE.              Azerbaijan:  LOGGING EQUIPMENT BASE LOCATION
 REGN.                   EESSA:  REGION
 CTRY.              Azerbaijan:  COUNTRY NAME
 FLD .                     ACG:  FIELD NAME
 SRVC.          Turan Drilling:  CONTRACTOR
 WELL.                     B41:  WELL NAME
 RIG .           Central Azeri:  RIG NAME
 DCON.         Sperry Drilling:  DIRECTNL CONTR
 PDAT.          Mean Sea Level:  PERMANENT DATUM
 MDS .        Operator Entered:  MAG DATA SOURCE
 API .                        :  API NUMBER
 CNTY.                        :  COUNTY
 PROV.                        :  PROVINCE
 STAT.                        :  STATE
 UWI .                        :  UNIQUE WELL IDENTIFIER
 LOC .                        :  LOCATION
 LMF .             Drill Floor:  LOG MEASURED FROM
 TVDS.m                  43.29:  TVDSS CORRECTN
 LATI.deg                40.03:  LATITUDE
 LONG.deg                51.35:  LONGITUDE
 WHNS.m                  12.98:  WELL HEAD N/S
 WHEW.m                  -6.62:  WELL HEAD E/W
 UTMX.m              530128.28:  UTM X
 UTMY.m             4433192.49:  UTM Y
 DFWL.m                   0.00:  DISTANCE FWL
 DFSL.m                   0.00:  DISTANCE FSL
 SDEP.m                 378.00:  START DEPTH
 TDD .m                   0.00:  TOTAL DEPTH (DRILLER)
 VSDR.deg               296.18:  VERT SEC DIRECT
 GVFD.g                   1.00:  GRAVITY FIELD
 MFLD.nT              50253.00:  MAGNETIC FIELD
 MDIP.deg                59.49:  MAGNETIC DIP
 MDEC.deg                 6.44:  MAGNETIC DECL
 GRDC.deg                 0.22:  GRID CORRECTION
 AZTC.deg                 6.22:  AZM TOTAL CORR
 EPD .m                   0.00:  ELEVATION
 EGL .m                   0.00:  GROUND ELEVATION
 WDMS.m                 128.20:  WD ELEV
 APD .m                  43.29:  DEPTH ABOVE PD
 AGAP.m                  43.29:  AIR GAP
 VSEW.m                  -6.62:  VERT SEC E/W
 VSNS.m                  12.98:  VERT SEC N/S
 EKB .m                  43.29:  KB ELEVATION
 EDF .m                  43.29:  DF ELEVATION
 TDL .m                1152.00:  TOTAL DEPTH (LOGGER)
 VSC .                       0:  VS TO CLOSURE
 MAGU.                 1848525:  MAGUTM CHECKSUM
~Parameter Information Block
#MNEM.UNIT       Value        Description
#---------     -----------    ---------------------------
 AV  .mps                 0.40:  Ann Velocity 
 AVMX.mps                 1.56:  Max Ann Veloc 
 AZIF.deg               300.46:  Azm, Final 
 BHAT.        Rotary Steerable:  BHA Type 
 BROT.°/30m               0.40:  Build Rotating 
 BS  .in                 17.50:  Bit Size 
 BSZ .in                 17.50:  Bit Size 
 BTPL.psig              300.00:  Bit Press Loss 
 CABU.                      No:  Customer Abuse 
 CGEO.          Parviz Guliyev:  Customer Geo 
 COMM.                     D„w:  Run Comments 1 
 TCS .hr                108.13:  Time Ciculation Ended 
 CV  .mps                 0.50:  Crit Velocity 
 CVMX.mps                 2.01:  Max Crit Veloc 
 DD1 .          Fariz Nahmatov:  Direct Drillr 1 
 DD2 .             Ehab Radwan:  Direct Drillr 2 
 DDSV.               Geo-Pilot:  DD Service 
 DEFF.%                  99.00:  % Det Eff 
 DLRX.°/30m               0.50:  Dogleg Rot Max 
 DLSO.°/30m               2.80:  Dogleg Oriented 
 DLSX.°/30m               3.90:  Dogleg Str Max 
 DRET.      09.30.04 03-Jul-20:  Drill End Time 
 DRST.      18.33.04 28-Jun-20:  Drill Start Tim 
 DTIM.hr                 55.83:  Time Drilling 
 EDEP.m                1952.00:  End Depth 
 ENG1.      Bakhtiyar Jabbarli:  Engineer 1 
 ENG2.         Farhad Orujzade:  Engineer 2 
 ENG3.          Rustam Safarov:  Engineer 3 
 ETIM.      01.33.04 04-Jul-20:  End Time 
 FLOI.gpm              1050.00:  Flow In 
 FLON.gpm               950.00:  Flow In Min 
 FLOS.cptm                0.10:  Fluid Loss 
 FLOX.gpm              1150.00:  Flow In Max 
 HFLO.                      No:  High Flow 
 HPRE.                      No:  High Pressure 
 HTEM.                      No:  High Temp 
 HYDO.m                   1.80:  Hydro Offset 
 IFIN.deg                75.26:  Inc, Final 
 IMAX.deg                75.38:  Inc Max 
 IMIN.deg                22.84:  Inc Min 
 IMND.m                 832.38:  Inc Min Depth 
 IMXD.m                1936.55:  Inc Max Depth 
 JARR.                      No:  Jarring 
 LETM.      17.40.00 04-Jul-20:  Log End Time 
 LOST.hr                     0:  Lost Rig Time 
 LSTM.      12.33.04 28-Jun-20:  Log Start Time 
 MDCL.ppm             49500.00:  Mud Chlorides 
 MDES.     Inversion Oil/Synthetic:  Mud Desc 
 DFD .sg                  1.46:  Mud Density 
 MDMN.sg                  1.46:  Dens Mud Min 
 MDMX.sg                  1.46:  Dens Mud Max 
 MOIL.                      70:  Run Mud Oil % 
 MOWR.                   70:30:  Run Mud OWR 
 MSND.                     0.5:  Run Mud Sand % 
 MSOL.                   19.89:  Run Mud Solids% 
 DFV .spqt               72.00:  Mud Viscosity 
 MWOD.in                  9.50:  MWD Tool OD 
 MWSI.                      No:  Serv Intrp, MWD 
 OTIM.hr                146.53:  Time Operating 
 PCON.           Look Like New:  Pad Condition 
 PMAX.psia             2900.00:  Press Op, Max 
 PV  .cP                 38.00:  Mud PV 
 RUN .                     600:  Run Number 
 ROPA.m/hr               22.00:  ROP Avg 
 ROPN.m/hr               10.00:  ROP Min 
 ROPX.m/hr              263.00:  ROP Max 
 RPMA.rpm               155.00:  RPM Surface Avg 
 RPMN.rpm               140.00:  RPM Surface Min 
 RPMX.rpm               160.00:  RPM Surface Max 
 RRUN.                    0600:  Rig Run Number 
 RTIM.hr                  5.00:  Time Reaming 
 SAZI.deg               300.08:  Azm, Start 
 SDEP.m                 800.00:  Start Depth 
 SIDD.                      No:  Serv Intrp, DD 
 SINC.deg                22.84:  Inc, Start 
 SPPA.psig             3000.00:  SPP Avg 
 SPPN.psig             1900.00:  SPP Min 
 SPPX.psig             3200.00:  SPP Max 
 STIM.      12.30.04 28-Jun-20:  Start Time 
 SVCS.                 DD, MWD:  Services 
 SVER.                    9.20:  Sperry Version 
 TDAT.m                1952.00:  Tot Depth Attmp 
 TDDF.                      No:  Trip for DD 
 TDLG.m                1152.00:  Tot Depth Loggd 
 TFF .                      No:  Trip for Fail 
 TQAA.f-kp                8.00:  Torque Abs Avg 
 TQAN.f-kp                5.00:  Torque Abs Min 
 TQAX.f-kp               14.00:  Torque Abs Max 
 TRRT.°/30m               0.50:  Turn Rotating 
 MRT .                  EWR-M5:  Maximum Recorded Temperature 
 TTMX.degC               69.00:  Max Tool Temp 
 VS01.                90610313:  Virtual Str1 SN 
 VS02.                90613431:  Virtual Str2 SN 
 VS03.                90615410:  Virtual Str3 SN 
 WBMN.klb                 6.00:  WOB Min 
 WITN.            Bruce Cheyne:  Customer Rep 
 WITN.             Ayaz Aliyev:  Customer Rep 2 
 WOBA.klb                 6.00:  WOB Avg 
 WOBX.klb                10.00:  WOB Max 
 YP  .lhf2               36.00:  Yield Point 
~Curve Information Block
#MNEM.UNIT                 API CODE     Curve Description
#---------               -----------    ---------------------------
 TIME.HHMMSS            00 000 000 000:  GT Time & Date
 GTET.sec               00 000 000 000:  GT Elapsed Test Time
 GTPQH.psia             00 000 000 000:  GT HR Quartz Pressure
 GTDEPTH.m              00 000 000 000:  GT Depth
 GTTVD.m                00 000 000 000:  GT True Vertical Depth
 GTTQ.degC              00 000 000 000:  GT Quartz Temperature
 GTTN.NONE              00 000 000 000:  GT Test Number
#Other Information
#
#WARRANTY: Halliburton will use its best efforts to furnish customers with 
#accurate information and interpretations that are part of, and incident to, the services 
#provided.  However, Halliburton cannot and does not warrant the accuracy 
#or correctness of such information and interpretations.  Under no circumstances should any 
#such information or interpretation be relied upon as the sole basis for any drilling, 
#completion, production, or financial decision or any procedure involving any risk to the 
#safety of any drilling venture, drilling rig or its crew or any other third party.  The 
#Customer has full responsibility for all drilling, completion and production operation.  
#Halliburton makes no representations or warranties, either expressed or 
#implied, including, but not limited to, the implied warranties of merchantability or fitness 
#for a particular purpose, with respect to the services rendered.  In no event will 
#Halliburton be liable for failure to obtain any particular results or for 
#any damages, including, but not limited to, indirect, special or consequential damages, 
#resulting from the use of any information or interpretation provided by Halliburton.
#
~A           TIME            GTET   GTPQH  GTDEPTH  GTTVD  GTTQ  GTTN 
# ...
   16:23:58.000.30-Jun-2020 483.00   36.06 1103.02 1054.26 69.02 2.00
   16:23:58.200.30-Jun-2020 483.20   36.06 1103.02 1054.26 69.02 2.00
   16:23:58.400.30-Jun-2020 483.40   36.08 1103.02 1054.26 69.02 2.00
   16:23:58.600.30-Jun-2020 483.60   36.08 1103.02 1054.26 69.03 2.00
   16:23:58.800.30-Jun-2020 483.80   36.09 1103.02 1054.26 69.03 2.00
   16:23:59.000.30-Jun-2020 484.00   36.09 1103.02 1054.26 69.03 2.00
   16:23:59.200.30-Jun-2020 484.20   36.10 1103.02 1054.26 69.03 2.00
   16:23:59.400.30-Jun-2020 484.40   36.10 1103.02 1054.26 69.03 2.00
   16:23:59.600.30-Jun-2020 484.60   36.10 1103.02 1054.26 69.03 2.00
   16:23:59.800.30-Jun-2020 484.80   36.12 1103.02 1054.26 69.03 2.00
   16:24:00.000.30-Jun-2020 485.00   36.12 1103.02 1054.26 69.03 2.00
   16:24:00.200.30-Jun-2020 485.20   36.13 1103.02 1054.26 69.03 2.00
   16:24:00.400.30-Jun-2020 485.40   36.14 1103.02 1054.26 69.03 2.00
   16:24:00.600.30-Jun-2020 485.60   36.14 1103.02 1054.26 69.03 2.00
   16:24:00.800.30-Jun-2020 485.80   36.15 1103.02 1054.26 69.03 2.00
   16:24:01.000.30-Jun-2020 486.00   36.15 1103.02 1054.26 69.03 2.00
   16:24:01.200.30-Jun-2020 486.20   36.16 1103.02 1054.26 69.03 2.00
   16:24:01.400.30-Jun-2020 486.40   36.17 1103.02 1054.26 69.03 2.00
   16:24:01.600.30-Jun-2020 486.60   36.18 1103.02 1054.26 69.03 2.00
   16:24:01.800.30-Jun-2020 486.80   36.19 1103.02 1054.26 69.03 2.00
   16:24:02.000.30-Jun-2020 487.00   36.19 1103.02 1054.26 69.03 2.00
   16:24:02.200.30-Jun-2020 487.20   36.20 1103.02 1054.26 69.03 2.00
   16:24:02.400.30-Jun-2020 487.40   36.21 1103.02 1054.26 69.03 2.00
   16:24:02.600.30-Jun-2020 487.60   36.22 1103.02 1054.26 69.03 2.00
   16:24:02.800.30-Jun-2020 487.80   36.21 1103.02 1054.26 69.03 2.00
   16:24:03.000.30-Jun-2020 488.00   36.23 1103.02 1054.26 69.03 2.00
   16:24:03.200.30-Jun-2020 488.20   36.23 1103.02 1054.26 69.03 2.00
   16:24:03.400.30-Jun-2020 488.40   36.23 1103.02 1054.26 69.03 2.00
   16:24:03.600.30-Jun-2020 488.60   36.25 1103.02 1054.26 69.03 2.00
   16:24:03.800.30-Jun-2020 488.80   36.26 1103.02 1054.26 69.03 2.00
   16:24:04.000.30-Jun-2020 489.00   36.26 1103.02 1054.26 69.03 2.00
   16:24:04.200.30-Jun-2020 489.20   36.27 1103.02 1054.26 69.03 2.00
   16:24:04.400.30-Jun-2020 489.40   36.26 1103.02 1054.26 69.03 2.00
   16:24:04.600.30-Jun-2020 489.60   36.29 1103.02 1054.26 69.03 2.00
   16:24:04.800.30-Jun-2020 489.80   36.29 1103.02 1054.26 69.03 2.00
   16:24:05.000.30-Jun-2020 490.00   36.29 1103.02 1054.26 69.03 2.00
   16:24:05.200.30-Jun-2020 490.20   36.29 1103.02 1054.26 69.03 2.00
   16:24:05.400.30-Jun-2020 490.40   36.32 1103.02 1054.26 69.03 2.00
   16:24:05.600.30-Jun-2020 490.60   36.31 1103.02 1054.26 69.03 2.00
   16:24:05.800.30-Jun-2020 490.80   36.32 1103.02 1054.26 69.03 2.00
   16:24:06.000.30-Jun-2020 491.00   36.33 1103.02 1054.26 69.03 2.00
   16:24:06.200.30-Jun-2020 491.20   36.33 1103.02 1054.26 69.03 2.00
   16:24:06.400.30-Jun-2020 491.40   36.33 1103.02 1054.26 69.03 2.00
   16:24:06.600.30-Jun-2020 491.60   36.35 1103.02 1054.26 69.03 2.00
   16:24:06.800.30-Jun-2020 491.80   36.34 1103.02 1054.26 69.03 2.00
   16:24:07.000.30-Jun-2020 492.00   36.36 1103.02 1054.26 69.03 2.00
   16:24:07.200.30-Jun-2020 492.20   36.36 1103.02 1054.26 69.03 2.00
   16:24:07.400.30-Jun-2020 492.40   36.37 1103.02 1054.26 69.03 2.00
   16:24:07.600.30-Jun-2020 492.60   36.38 1103.02 1054.26 69.03 2.00
   16:24:07.800.30-Jun-2020 492.80   36.38 1103.02 1054.26 69.03 2.00
   16:24:08.000.30-Jun-2020 493.00   36.39 1103.02 1054.26 69.03 2.00
   16:24:08.200.30-Jun-2020 493.20   36.40 1103.02 1054.26 69.03 2.00
   16:24:08.400.30-Jun-2020 493.40   36.40 1103.02 1054.26 69.03 2.00
   16:24:08.600.30-Jun-2020 493.60   36.41 1103.02 1054.26 69.03 2.00
   16:24:08.800.30-Jun-2020 493.80   36.42 1103.02 1054.26 69.03 2.00
   16:24:09.000.30-Jun-2020 494.00   36.42 1103.02 1054.26 69.04 2.00
   16:24:09.200.30-Jun-2020 494.20   36.43 1103.02 1054.26 69.04 2.00
   16:24:09.400.30-Jun-2020 494.40   36.44 1103.02 1054.26 69.04 2.00
   16:24:09.600.30-Jun-2020 494.60   36.47 1103.02 1054.26 69.04 2.00
   16:24:09.800.30-Jun-2020 494.80   36.77 1103.02 1054.26 69.04 2.00
   16:24:10.000.30-Jun-2020 495.00   37.12 1103.02 1054.26 69.04 2.00
   16:24:10.200.30-Jun-2020 495.20   37.12 1103.02 1054.26 69.04 2.00
   16:24:10.400.30-Jun-2020 495.40   40.15 1103.02 1054.26 69.04 2.00
   16:24:10.600.30-Jun-2020 495.60 1266.56 1103.02 1054.26 69.04 2.00
   16:24:10.800.30-Jun-2020 495.80 2206.17 1103.02 1054.26 69.04 2.00
   16:24:11.000.30-Jun-2020 496.00 2204.81 1103.02 1054.26 69.04 2.00
   16:24:11.200.30-Jun-2020 496.20 2204.81 1103.02 1054.26 69.04 2.00
   16:24:11.400.30-Jun-2020 496.40 2209.93 1103.02 1054.26 69.04 2.00
   16:24:11.600.30-Jun-2020 496.60 2209.16 1103.02 1054.26 69.04 2.00
   16:24:11.800.30-Jun-2020 496.80 2210.85 1103.02 1054.26 69.04 2.00
   16:24:12.000.30-Jun-2020 497.00 2210.95 1103.02 1054.26 69.04 2.00
   16:24:12.200.30-Jun-2020 497.20 2210.37 1103.02 1054.26 69.04 2.00
   16:24:12.400.30-Jun-2020 497.40 2211.19 1103.02 1054.26 69.04 2.00
   16:24:12.600.30-Jun-2020 497.60 2211.71 1103.02 1054.26 69.04 2.00
   16:24:12.800.30-Jun-2020 497.80 2210.27 1103.02 1054.26 69.05 2.00
   16:24:13.000.30-Jun-2020 498.00 2214.33 1103.02 1054.26 69.05 2.00
   16:24:13.200.30-Jun-2020 498.20 2215.38 1103.02 1054.26 69.05 2.00
   16:24:13.400.30-Jun-2020 498.40 2213.76 1103.02 1054.26 69.05 2.00
   16:24:13.600.30-Jun-2020 498.60 2214.32 1103.02 1054.26 69.05 2.00
   16:24:13.800.30-Jun-2020 498.80 2212.70 1103.02 1054.26 69.05 2.00
   16:24:14.000.30-Jun-2020 499.00 2213.79 1103.02 1054.26 69.06 2.00
   16:24:14.200.30-Jun-2020 499.20 2213.79 1103.02 1054.26 69.06 2.00
   16:24:14.400.30-Jun-2020 499.40 2214.68 1103.02 1054.26 69.06 2.00
   16:24:14.600.30-Jun-2020 499.60 2214.60 1103.02 1054.26 69.06 2.00
   16:24:14.800.30-Jun-2020 499.80 2214.21 1103.02 1054.26 69.06 2.00
   16:24:15.000.30-Jun-2020 500.00 2215.51 1103.02 1054.26 69.07 2.00
   16:24:15.200.30-Jun-2020 500.20 2215.51 1103.02 1054.26 69.07 2.00
   16:24:15.400.30-Jun-2020 500.40 2216.53 1103.02 1054.26 69.07 2.00
   16:24:15.600.30-Jun-2020 500.60 2217.38 1103.02 1054.26 69.07 2.00
   16:24:15.800.30-Jun-2020 500.80 2215.31 1103.02 1054.26 69.07 2.00
   16:24:16.000.30-Jun-2020 501.00 2214.86 1103.02 1054.26 69.07 2.00
   16:24:16.200.30-Jun-2020 501.20 2213.74 1103.02 1054.26 69.08 2.00
   16:24:16.400.30-Jun-2020 501.40 2216.94 1103.02 1054.26 69.08 2.00
   16:24:16.600.30-Jun-2020 501.60 2217.17 1103.02 1054.26 69.08 2.00
   16:24:16.800.30-Jun-2020 501.80 2216.56 1103.02 1054.26 69.08 2.00
   16:24:17.000.30-Jun-2020 502.00 2215.96 1103.02 1054.26 69.08 2.00
   16:24:17.200.30-Jun-2020 502.20 2215.43 1103.02 1054.26 69.08 2.00
   16:24:17.400.30-Jun-2020 502.40 2216.57 1103.02 1054.26 69.09 2.00
   16:24:17.600.30-Jun-2020 502.60 2216.77 1103.02 1054.26 69.09 2.00
   16:24:17.800.30-Jun-2020 502.80 2215.95 1103.02 1054.26 69.09 2.00
   16:24:18.000.30-Jun-2020 503.00 2215.70 1103.02 1054.26 69.09 2.00
   16:24:18.200.30-Jun-2020 503.20 2215.70 1103.02 1054.26 69.09 2.00
   16:24:18.400.30-Jun-2020 503.40 2214.68 1103.02 1054.26 69.09 2.00
   16:24:18.600.30-Jun-2020 503.60 2215.66 1103.02 1054.26 69.09 2.00
   16:24:18.800.30-Jun-2020 503.80 2217.01 1103.02 1054.26 69.09 2.00
   16:24:19.000.30-Jun-2020 504.00 2216.69 1103.02 1054.26 69.10 2.00
   16:24:19.200.30-Jun-2020 504.20 2216.69 1103.02 1054.26 69.10 2.00
   16:24:19.400.30-Jun-2020 504.40 2215.20 1103.02 1054.26 69.10 2.00
   16:24:19.600.30-Jun-2020 504.60 2214.83 1103.02 1054.26 69.10 2.00
   16:24:19.800.30-Jun-2020 504.80 2213.57 1103.02 1054.26 69.10 2.00
   16:24:20.000.30-Jun-2020 505.00 2215.59 1103.02 1054.26 69.10 2.00
   16:24:20.200.30-Jun-2020 505.20 2215.45 1103.02 1054.26 69.10 2.00
   16:24:20.400.30-Jun-2020 505.40 2214.50 1103.02 1054.26 69.10 2.00
   16:24:20.600.30-Jun-2020 505.60 2215.27 1103.02 1054.26 69.10 2.00
   16:24:20.800.30-Jun-2020 505.80 2215.35 1103.02 1054.26 69.10 2.00
