~Version Information
 VERS.                  2.0:   CWLS log ASCII Standard -VERSION 2.0
 WRAP.                   NO:   One line per depth step
~Well Information Block
#MNEM.UNIT     VALUE/NAME     DESCRIPTION
#---------     -----------    ---------------------------
 STRT.S             04:11:34 02-Jul-20: START TIME 04:11:34 02-Jul-20
 STOP.S             04:20:35 02-Jul-20: STOP TIME  04:20:35 02-Jul-20
 STEP.S                   0.00: STEP TIME
 NULL.                 -999.25: NULL VALUE
 DFWT.                        :  DIST FWL TEXT
 DFST.                        :  DIST FSL TEXT
 DMF .             Drill Floor:  DRILL MEAS FROM
 STIM.      09.59.28 01-Jun-20:  START TIME
 DATE.      09.59.28 01-Jun-20:  END TIME
 SPUD.               01-Jun-20:  SPUD DATE
 NREF.                    Grid:  NORTH REFERENCE
 HPTY.       Minimum Curvature:  HOLE POS TYPE
 DMOD.             Drill Model:  DRILL MOD DESC
 SVYD.                  Survey:  SURVEY DESC
 ILTD.               Lithology:  INTERP LTH DESC
 FTOP.          Formation Tops:  FORM TOPS DESC
 SON .        AZ-XX-0905455768:  JOB NUMBER
 WTYP.                Deviated:  WELL TYPE
 COMP.     BP Exploration(Caspian Sea):  COMPANY
 BASE.              Azerbaijan:  LOGGING EQUIPMENT BASE LOCATION
 REGN.                   EESSA:  REGION
 CTRY.              Azerbaijan:  COUNTRY NAME
 FLD .                     ACG:  FIELD NAME
 SRVC.          Turan Drilling:  CONTRACTOR
 WELL.                     B41:  WELL NAME
 RIG .           Central Azeri:  RIG NAME
 DCON.         Sperry Drilling:  DIRECTNL CONTR
 PDAT.          Mean Sea Level:  PERMANENT DATUM
 MDS .        Operator Entered:  MAG DATA SOURCE
 API .                        :  API NUMBER
 CNTY.                        :  COUNTY
 PROV.                        :  PROVINCE
 STAT.                        :  STATE
 UWI .                        :  UNIQUE WELL IDENTIFIER
 LOC .                        :  LOCATION
 LMF .             Drill Floor:  LOG MEASURED FROM
 TVDS.m                  43.29:  TVDSS CORRECTN
 LATI.deg                40.03:  LATITUDE
 LONG.deg                51.35:  LONGITUDE
 WHNS.m                  12.98:  WELL HEAD N/S
 WHEW.m                  -6.62:  WELL HEAD E/W
 UTMX.m              530128.28:  UTM X
 UTMY.m             4433192.49:  UTM Y
 DFWL.m                   0.00:  DISTANCE FWL
 DFSL.m                   0.00:  DISTANCE FSL
 SDEP.m                 378.00:  START DEPTH
 TDD .m                   0.00:  TOTAL DEPTH (DRILLER)
 VSDR.deg               296.18:  VERT SEC DIRECT
 GVFD.g                   1.00:  GRAVITY FIELD
 MFLD.nT              50253.00:  MAGNETIC FIELD
 MDIP.deg                59.49:  MAGNETIC DIP
 MDEC.deg                 6.44:  MAGNETIC DECL
 GRDC.deg                 0.22:  GRID CORRECTION
 AZTC.deg                 6.22:  AZM TOTAL CORR
 EPD .m                   0.00:  ELEVATION
 EGL .m                   0.00:  GROUND ELEVATION
 WDMS.m                 128.20:  WD ELEV
 APD .m                  43.29:  DEPTH ABOVE PD
 AGAP.m                  43.29:  AIR GAP
 VSEW.m                  -6.62:  VERT SEC E/W
 VSNS.m                  12.98:  VERT SEC N/S
 EKB .m                  43.29:  KB ELEVATION
 EDF .m                  43.29:  DF ELEVATION
 TDL .m                1152.00:  TOTAL DEPTH (LOGGER)
 VSC .                       0:  VS TO CLOSURE
 MAGU.                 1848525:  MAGUTM CHECKSUM
~Parameter Information Block
#MNEM.UNIT       Value        Description
#---------     -----------    ---------------------------
 AV  .mps                 0.40:  Ann Velocity 
 AVMX.mps                 1.56:  Max Ann Veloc 
 AZIF.deg               300.46:  Azm, Final 
 BHAT.        Rotary Steerable:  BHA Type 
 BROT.°/30m               0.40:  Build Rotating 
 BS  .in                 17.50:  Bit Size 
 BSZ .in                 17.50:  Bit Size 
 BTPL.psig              300.00:  Bit Press Loss 
 CABU.                      No:  Customer Abuse 
 CGEO.          Parviz Guliyev:  Customer Geo 
 TCS .hr                108.13:  Time Ciculation Ended 
 CV  .mps                 0.50:  Crit Velocity 
 CVMX.mps                 2.01:  Max Crit Veloc 
 DD1 .          Fariz Nahmatov:  Direct Drillr 1 
 DD2 .             Ehab Radwan:  Direct Drillr 2 
 DDSV.               Geo-Pilot:  DD Service 
 DEFF.%                  99.00:  % Det Eff 
 DLRX.°/30m               0.50:  Dogleg Rot Max 
 DLSO.°/30m               2.80:  Dogleg Oriented 
 DLSX.°/30m               3.90:  Dogleg Str Max 
 DRET.      09.30.04 03-Jul-20:  Drill End Time 
 DRST.      18.33.04 28-Jun-20:  Drill Start Tim 
 DTIM.hr                 55.83:  Time Drilling 
 EDEP.m                1952.00:  End Depth 
 ENG1.      Bakhtiyar Jabbarli:  Engineer 1 
 ENG2.         Farhad Orujzade:  Engineer 2 
 ENG3.          Rustam Safarov:  Engineer 3 
 ETIM.      01.33.04 04-Jul-20:  End Time 
 FLOI.gpm              1050.00:  Flow In 
 FLON.gpm               950.00:  Flow In Min 
 FLOS.cptm                0.10:  Fluid Loss 
 FLOX.gpm              1150.00:  Flow In Max 
 HFLO.                      No:  High Flow 
 HPRE.                      No:  High Pressure 
 HTEM.                      No:  High Temp 
 HYDO.m                   1.80:  Hydro Offset 
 IFIN.deg                75.26:  Inc, Final 
 IMAX.deg                75.38:  Inc Max 
 IMIN.deg                22.84:  Inc Min 
 IMND.m                 832.38:  Inc Min Depth 
 IMXD.m                1936.55:  Inc Max Depth 
 JARR.                      No:  Jarring 
 LETM.      17.40.00 04-Jul-20:  Log End Time 
 LOST.hr                     0:  Lost Rig Time 
 LSTM.      12.33.04 28-Jun-20:  Log Start Time 
 MDCL.ppm             49500.00:  Mud Chlorides 
 MDES.     Inversion Oil/Synthetic:  Mud Desc 
 DFD .sg                  1.46:  Mud Density 
 MDMN.sg                  1.46:  Dens Mud Min 
 MDMX.sg                  1.46:  Dens Mud Max 
 MOIL.                      70:  Run Mud Oil % 
 MOWR.                   70:30:  Run Mud OWR 
 MSND.                     0.5:  Run Mud Sand % 
 MSOL.                   19.89:  Run Mud Solids% 
 DFV .spqt               72.00:  Mud Viscosity 
 MWOD.in                  9.50:  MWD Tool OD 
 MWSI.                      No:  Serv Intrp, MWD 
 OTIM.hr                146.53:  Time Operating 
 PCON.           Look Like New:  Pad Condition 
 PMAX.psia             2900.00:  Press Op, Max 
 PV  .cP                 38.00:  Mud PV 
 RUN .                     600:  Run Number 
 ROPA.m/hr               22.00:  ROP Avg 
 ROPN.m/hr               10.00:  ROP Min 
 ROPX.m/hr              263.00:  ROP Max 
 RPMA.rpm               155.00:  RPM Surface Avg 
 RPMN.rpm               140.00:  RPM Surface Min 
 RPMX.rpm               160.00:  RPM Surface Max 
 RRUN.                    0600:  Rig Run Number 
 RTIM.hr                  5.00:  Time Reaming 
 SAZI.deg               300.08:  Azm, Start 
 SDEP.m                 800.00:  Start Depth 
 SIDD.                      No:  Serv Intrp, DD 
 SINC.deg                22.84:  Inc, Start 
 SPPA.psig             3000.00:  SPP Avg 
 SPPN.psig             1900.00:  SPP Min 
 SPPX.psig             3200.00:  SPP Max 
 STIM.      12.30.04 28-Jun-20:  Start Time 
 SVCS.                 DD, MWD:  Services 
 SVER.                    9.20:  Sperry Version 
 TDAT.m                1952.00:  Tot Depth Attmp 
 TDDF.                      No:  Trip for DD 
 TDLG.m                1152.00:  Tot Depth Loggd 
 TFF .                      No:  Trip for Fail 
 TQAA.f-kp                8.00:  Torque Abs Avg 
 TQAN.f-kp                5.00:  Torque Abs Min 
 TQAX.f-kp               14.00:  Torque Abs Max 
 TRRT.°/30m               0.50:  Turn Rotating 
 MRT .                  EWR-M5:  Maximum Recorded Temperature 
 TTMX.degC               69.00:  Max Tool Temp 
 VS01.                90610313:  Virtual Str1 SN 
 VS02.                90613431:  Virtual Str2 SN 
 VS03.                90615410:  Virtual Str3 SN 
 WBMN.klb                 6.00:  WOB Min 
 WITN.            Bruce Cheyne:  Customer Rep 
 WITN.             Ayaz Aliyev:  Customer Rep 2 
 WOBA.klb                 6.00:  WOB Avg 
 WOBX.klb                10.00:  WOB Max 
 YP  .lhf2               36.00:  Yield Point 
~Curve Information Block
#MNEM.UNIT                 API CODE     Curve Description
#---------               -----------    ---------------------------
 TIME.HHMMSS            00 000 000 000:  GT Time & Date
 GTET.sec               00 000 000 000:  GT Elapsed Test Time
 GTPQH.psia             00 000 000 000:  GT HR Quartz Pressure
 GTDEPTH.m              00 000 000 000:  GT Depth
 GTTVD.m                00 000 000 000:  GT True Vertical Depth
 GTTQ.degC              00 000 000 000:  GT Quartz Temperature
 GTTN.NONE              00 000 000 000:  GT Test Number
#Other Information
#
#WARRANTY: Halliburton will use its best efforts to furnish customers with 
#accurate information and interpretations that are part of, and incident to, the services 
#provided.  However, Halliburton cannot and does not warrant the accuracy 
#or correctness of such information and interpretations.  Under no circumstances should any 
#such information or interpretation be relied upon as the sole basis for any drilling, 
#completion, production, or financial decision or any procedure involving any risk to the 
#safety of any drilling venture, drilling rig or its crew or any other third party.  The 
#Customer has full responsibility for all drilling, completion and production operation.  
#Halliburton makes no representations or warranties, either expressed or 
#implied, including, but not limited to, the implied warranties of merchantability or fitness 
#for a particular purpose, with respect to the services rendered.  In no event will 
#Halliburton be liable for failure to obtain any particular results or for 
#any damages, including, but not limited to, indirect, special or consequential damages, 
#resulting from the use of any information or interpretation provided by Halliburton.
#
~A           TIME            GTET   GTPQH  GTDEPTH  GTTVD  GTTQ  GTTN 
# ...
   04:15:47.412.02-Jul-2020 253.04 2363.81 1565.98 1276.49 58.10 6.00
   04:15:47.612.02-Jul-2020 253.24 2363.81 1565.98 1276.49 58.10 6.00
   04:15:47.812.02-Jul-2020 253.44 2363.86 1565.98 1276.49 58.10 6.00
   04:15:48.012.02-Jul-2020 253.64 2363.82 1565.98 1276.49 58.10 6.00
   04:15:48.212.02-Jul-2020 253.84 2363.82 1565.98 1276.49 58.10 6.00
   04:15:48.412.02-Jul-2020 254.04 2363.84 1565.98 1276.49 58.10 6.00
   04:15:48.612.02-Jul-2020 254.24 2363.80 1565.98 1276.49 58.10 6.00
   04:15:48.812.02-Jul-2020 254.44 2363.84 1565.98 1276.49 58.10 6.00
   04:15:49.012.02-Jul-2020 254.64 2363.85 1565.98 1276.49 58.10 6.00
   04:15:49.212.02-Jul-2020 254.84 2363.80 1565.98 1276.49 58.10 6.00
   04:15:49.412.02-Jul-2020 255.04 2363.86 1565.98 1276.49 58.10 6.00
   04:15:49.612.02-Jul-2020 255.24 2363.86 1565.98 1276.49 58.10 6.00
   04:15:49.812.02-Jul-2020 255.44 2363.85 1565.98 1276.49 58.10 6.00
   04:15:50.012.02-Jul-2020 255.64 2363.85 1565.98 1276.49 58.10 6.00
   04:15:50.212.02-Jul-2020 255.84 2363.87 1565.98 1276.49 58.10 6.00
   04:15:50.412.02-Jul-2020 256.04 2363.89 1565.98 1276.49 58.10 6.00
   04:15:50.612.02-Jul-2020 256.24 2363.86 1565.98 1276.49 58.10 6.00
   04:15:50.812.02-Jul-2020 256.44 2363.86 1565.98 1276.49 58.11 6.00
   04:15:51.012.02-Jul-2020 256.64 2363.88 1565.98 1276.49 58.11 6.00
   04:15:51.212.02-Jul-2020 256.84 2363.91 1565.98 1276.49 58.11 6.00
   04:15:51.412.02-Jul-2020 257.04 2363.89 1565.98 1276.49 58.11 6.00
   04:15:51.612.02-Jul-2020 257.24 2363.89 1565.98 1276.49 58.11 6.00
   04:15:51.812.02-Jul-2020 257.44 2363.93 1565.98 1276.49 58.11 6.00
   04:15:52.012.02-Jul-2020 257.64 2363.91 1565.98 1276.49 58.11 6.00
   04:15:52.212.02-Jul-2020 257.84 2363.93 1565.98 1276.49 58.11 6.00
   04:15:52.412.02-Jul-2020 258.04 2363.96 1565.98 1276.49 58.11 6.00
   04:15:52.612.02-Jul-2020 258.24 2363.96 1565.98 1276.49 58.11 6.00
   04:15:52.812.02-Jul-2020 258.44 2363.92 1565.98 1276.49 58.11 6.00
   04:15:53.012.02-Jul-2020 258.64 2363.96 1565.98 1276.49 58.11 6.00
   04:15:53.213.02-Jul-2020 258.84 2363.94 1565.98 1276.49 58.11 6.00
   04:15:53.413.02-Jul-2020 259.04 2363.96 1565.98 1276.49 58.11 6.00
   04:15:53.613.02-Jul-2020 259.24 2363.96 1565.98 1276.49 58.11 6.00
   04:15:53.813.02-Jul-2020 259.44 2363.94 1565.98 1276.49 58.11 6.00
   04:15:54.013.02-Jul-2020 259.64 2363.91 1565.98 1276.49 58.11 6.00
   04:15:54.213.02-Jul-2020 259.84 2363.92 1565.98 1276.49 58.11 6.00
   04:15:54.413.02-Jul-2020 260.04 2363.92 1565.98 1276.49 58.11 6.00
   04:15:54.613.02-Jul-2020 260.24 2363.95 1565.98 1276.49 58.11 6.00
   04:15:54.813.02-Jul-2020 260.44 2363.91 1565.98 1276.49 58.12 6.00
   04:15:55.013.02-Jul-2020 260.64 2363.91 1565.98 1276.49 58.12 6.00
   04:15:55.213.02-Jul-2020 260.84 2363.96 1565.98 1276.49 58.12 6.00
   04:15:55.413.02-Jul-2020 261.04 2363.94 1565.98 1276.49 58.12 6.00
   04:15:55.613.02-Jul-2020 261.24 2363.94 1565.98 1276.49 58.12 6.00
   04:15:55.813.02-Jul-2020 261.44 2363.97 1565.98 1276.49 58.12 6.00
   04:15:56.013.02-Jul-2020 261.64 2363.96 1565.98 1276.49 58.12 6.00
   04:15:56.213.02-Jul-2020 261.84 2363.94 1565.98 1276.49 58.12 6.00
   04:15:56.413.02-Jul-2020 262.04 2363.97 1565.98 1276.49 58.12 6.00
   04:15:56.613.02-Jul-2020 262.24 2363.97 1565.98 1276.49 58.12 6.00
   04:15:56.813.02-Jul-2020 262.44 2363.93 1565.98 1276.49 58.12 6.00
   04:15:57.013.02-Jul-2020 262.64 2363.97 1565.98 1276.49 58.12 6.00
   04:15:57.213.02-Jul-2020 262.84 2363.96 1565.98 1276.49 58.12 6.00
   04:15:57.413.02-Jul-2020 263.04 2363.98 1565.98 1276.49 58.12 6.00
   04:15:57.613.02-Jul-2020 263.24 2363.98 1565.98 1276.49 58.12 6.00
   04:15:57.813.02-Jul-2020 263.44 2363.94 1565.98 1276.49 58.12 6.00
   04:15:58.013.02-Jul-2020 263.64 2363.97 1565.98 1276.49 58.12 6.00
   04:15:58.213.02-Jul-2020 263.84 2363.96 1565.98 1276.49 58.12 6.00
   04:15:58.413.02-Jul-2020 264.04 2363.94 1565.98 1276.49 58.12 6.00
   04:15:58.613.02-Jul-2020 264.24 2363.99 1565.98 1276.49 58.12 6.00
   04:15:58.813.02-Jul-2020 264.44 2363.95 1565.98 1276.49 58.12 6.00
   04:15:59.013.02-Jul-2020 264.64 2363.96 1565.98 1276.49 58.13 6.00
   04:15:59.213.02-Jul-2020 264.84 2364.01 1565.98 1276.49 58.13 6.00
   04:15:59.413.02-Jul-2020 265.04 2363.96 1565.98 1276.49 58.13 6.00
   04:15:59.614.02-Jul-2020 265.24 2363.96 1565.98 1276.49 58.13 6.00
   04:15:59.814.02-Jul-2020 265.44 2363.99 1565.98 1276.49 58.13 6.00
   04:16:00.014.02-Jul-2020 265.64 2363.95 1565.98 1276.49 58.13 6.00
   04:16:00.214.02-Jul-2020 265.84 2364.01 1565.98 1276.49 58.13 6.00
   04:16:00.414.02-Jul-2020 266.04 2364.01 1565.98 1276.49 58.13 6.00
   04:16:00.614.02-Jul-2020 266.24 2364.01 1565.98 1276.49 58.13 6.00
   04:16:00.814.02-Jul-2020 266.44 2364.01 1565.98 1276.49 58.13 6.00
   04:16:01.014.02-Jul-2020 266.64 2364.00 1565.98 1276.49 58.13 6.00
   04:16:01.214.02-Jul-2020 266.84 2364.01 1565.98 1276.49 58.13 6.00
   04:16:01.414.02-Jul-2020 267.04 2364.04 1565.98 1276.49 58.13 6.00
   04:16:01.614.02-Jul-2020 267.24 2364.04 1565.98 1276.49 58.13 6.00
   04:16:01.814.02-Jul-2020 267.44 2364.04 1565.98 1276.49 58.13 6.00
   04:16:02.014.02-Jul-2020 267.64 2364.04 1565.98 1276.49 58.13 6.00
   04:16:02.214.02-Jul-2020 267.84 2364.03 1565.98 1276.49 58.13 6.00
   04:16:02.414.02-Jul-2020 268.04 2364.03 1565.98 1276.49 58.13 6.00
   04:16:02.614.02-Jul-2020 268.24 2364.06 1565.98 1276.49 58.13 6.00
   04:16:02.814.02-Jul-2020 268.44 2364.04 1565.98 1276.49 58.13 6.00
   04:16:03.014.02-Jul-2020 268.64 2364.05 1565.98 1276.49 58.14 6.00
   04:16:03.214.02-Jul-2020 268.84 2364.02 1565.98 1276.49 58.14 6.00
   04:16:03.414.02-Jul-2020 269.04 2364.03 1565.98 1276.49 58.14 6.00
   04:16:03.614.02-Jul-2020 269.24 2364.03 1565.98 1276.49 58.14 6.00
   04:16:03.814.02-Jul-2020 269.44 2364.05 1565.98 1276.49 58.14 6.00
   04:16:04.014.02-Jul-2020 269.64 2364.04 1565.98 1276.49 58.14 6.00
   04:16:04.214.02-Jul-2020 269.84 2364.05 1565.98 1276.49 58.14 6.00
   04:16:04.414.02-Jul-2020 270.04 2364.05 1565.98 1276.49 58.14 6.00
   04:16:04.614.02-Jul-2020 270.24 2364.05 1565.98 1276.49 58.14 6.00
   04:16:04.814.02-Jul-2020 270.44 2364.08 1565.98 1276.49 58.14 6.00
   04:16:05.014.02-Jul-2020 270.64 2364.05 1565.98 1276.49 58.14 6.00
   04:16:05.214.02-Jul-2020 270.84 2364.05 1565.98 1276.49 58.14 6.00
   04:16:05.414.02-Jul-2020 271.04 2364.09 1565.98 1276.49 58.14 6.00
   04:16:05.614.02-Jul-2020 271.24 2364.09 1565.98 1276.49 58.14 6.00
   04:16:05.814.02-Jul-2020 271.44 2364.00 1565.98 1276.49 58.14 6.00
   04:16:06.015.02-Jul-2020 271.64 2364.06 1565.98 1276.49 58.14 6.00
   04:16:06.215.02-Jul-2020 271.84 2364.03 1565.98 1276.49 58.14 6.00
   04:16:06.415.02-Jul-2020 272.04 2364.07 1565.98 1276.49 58.14 6.00
   04:16:06.615.02-Jul-2020 272.24 2364.05 1565.98 1276.49 58.14 6.00
   04:16:06.815.02-Jul-2020 272.44 2364.01 1565.98 1276.49 58.14 6.00
   04:16:07.015.02-Jul-2020 272.64 2364.06 1565.98 1276.49 58.14 6.00
   04:16:07.215.02-Jul-2020 272.84 2364.07 1565.98 1276.49 58.15 6.00
   04:16:07.415.02-Jul-2020 273.04 2364.06 1565.98 1276.49 58.15 6.00
   04:16:07.615.02-Jul-2020 273.24 2364.06 1565.98 1276.49 58.15 6.00
   04:16:07.815.02-Jul-2020 273.44 2364.04 1565.98 1276.49 58.15 6.00
   04:16:08.015.02-Jul-2020 273.64 2364.03 1565.98 1276.49 58.15 6.00
   04:16:08.215.02-Jul-2020 273.84 2364.07 1565.98 1276.49 58.15 6.00
   04:16:08.415.02-Jul-2020 274.04 2364.06 1565.98 1276.49 58.15 6.00
   04:16:08.615.02-Jul-2020 274.24 2364.06 1565.98 1276.49 58.15 6.00
   04:16:08.815.02-Jul-2020 274.44 2364.11 1565.98 1276.49 58.15 6.00
   04:16:09.015.02-Jul-2020 274.64 2364.03 1565.98 1276.49 58.15 6.00
   04:16:09.215.02-Jul-2020 274.84 2364.04 1565.98 1276.49 58.15 6.00
   04:16:09.415.02-Jul-2020 275.04 2364.06 1565.98 1276.49 58.15 6.00
   04:16:09.615.02-Jul-2020 275.24 2364.06 1565.98 1276.49 58.15 6.00
   04:16:09.815.02-Jul-2020 275.44 2364.07 1565.98 1276.49 58.15 6.00
   04:16:10.015.02-Jul-2020 275.64 2364.08 1565.98 1276.49 58.15 6.00
   04:16:10.215.02-Jul-2020 275.84 2364.08 1565.98 1276.49 58.15 6.00
