~Version Information
 VERS.                  2.0:   CWLS log ASCII Standard -VERSION 2.0
 WRAP.                   NO:   One line per depth step
~Well Information Block
#MNEM.UNIT     VALUE/NAME     DESCRIPTION
#---------     -----------    ---------------------------
 STRT.S             16:00:06 29-Jun-20: START TIME 16:00:06 29-Jun-20
 STOP.S             16:09:07 29-Jun-20: STOP TIME  16:09:07 29-Jun-20
 STEP.S                   0.00: STEP TIME
 NULL.                 -999.25: NULL VALUE
 DFWT.                        :  DIST FWL TEXT
 DFST.                        :  DIST FSL TEXT
 DMF .             Drill Floor:  DRILL MEAS FROM
 STIM.      09.59.28 01-Jun-20:  START TIME
 DATE.      09.59.28 01-Jun-20:  END TIME
 SPUD.               01-Jun-20:  SPUD DATE
 NREF.                    Grid:  NORTH REFERENCE
 HPTY.       Minimum Curvature:  HOLE POS TYPE
 DMOD.             Drill Model:  DRILL MOD DESC
 SVYD.                  Survey:  SURVEY DESC
 ILTD.               Lithology:  INTERP LTH DESC
 FTOP.          Formation Tops:  FORM TOPS DESC
 SON .        AZ-XX-0905455768:  JOB NUMBER
 WTYP.                Deviated:  WELL TYPE
 COMP.     BP Exploration(Caspian Sea):  COMPANY
 BASE.              Azerbaijan:  LOGGING EQUIPMENT BASE LOCATION
 REGN.                   EESSA:  REGION
 CTRY.              Azerbaijan:  COUNTRY NAME
 FLD .                     ACG:  FIELD NAME
 SRVC.          Turan Drilling:  CONTRACTOR
 WELL.                     B41:  WELL NAME
 RIG .           Central Azeri:  RIG NAME
 DCON.         Sperry Drilling:  DIRECTNL CONTR
 PDAT.          Mean Sea Level:  PERMANENT DATUM
 MDS .        Operator Entered:  MAG DATA SOURCE
 API .                        :  API NUMBER
 CNTY.                        :  COUNTY
 PROV.                        :  PROVINCE
 STAT.                        :  STATE
 UWI .                        :  UNIQUE WELL IDENTIFIER
 LOC .                        :  LOCATION
 LMF .             Drill Floor:  LOG MEASURED FROM
 TVDS.m                  43.29:  TVDSS CORRECTN
 LATI.deg                40.03:  LATITUDE
 LONG.deg                51.35:  LONGITUDE
 WHNS.m                  12.98:  WELL HEAD N/S
 WHEW.m                  -6.62:  WELL HEAD E/W
 UTMX.m              530128.28:  UTM X
 UTMY.m             4433192.49:  UTM Y
 DFWL.m                   0.00:  DISTANCE FWL
 DFSL.m                   0.00:  DISTANCE FSL
 SDEP.m                 378.00:  START DEPTH
 TDD .m                   0.00:  TOTAL DEPTH (DRILLER)
 VSDR.deg               296.18:  VERT SEC DIRECT
 GVFD.g                   1.00:  GRAVITY FIELD
 MFLD.nT              50253.00:  MAGNETIC FIELD
 MDIP.deg                59.49:  MAGNETIC DIP
 MDEC.deg                 6.44:  MAGNETIC DECL
 GRDC.deg                 0.22:  GRID CORRECTION
 AZTC.deg                 6.22:  AZM TOTAL CORR
 EPD .m                   0.00:  ELEVATION
 EGL .m                   0.00:  GROUND ELEVATION
 WDMS.m                 128.20:  WD ELEV
 APD .m                  43.29:  DEPTH ABOVE PD
 AGAP.m                  43.29:  AIR GAP
 VSEW.m                  -6.62:  VERT SEC E/W
 VSNS.m                  12.98:  VERT SEC N/S
 EKB .m                  43.29:  KB ELEVATION
 EDF .m                  43.29:  DF ELEVATION
 TDL .m                1152.00:  TOTAL DEPTH (LOGGER)
 VSC .                       0:  VS TO CLOSURE
 MAGU.                 1848525:  MAGUTM CHECKSUM
~Parameter Information Block
#MNEM.UNIT       Value        Description
#---------     -----------    ---------------------------
 AV  .mps                 0.40:  Ann Velocity 
 AVMX.mps                 1.56:  Max Ann Veloc 
 AZIF.deg               300.46:  Azm, Final 
 BHAT.        Rotary Steerable:  BHA Type 
 BROT.∞/30m               0.40:  Build Rotating 
 BS  .in                 17.50:  Bit Size 
 BSZ .in                 17.50:  Bit Size 
 BTPL.psig              300.00:  Bit Press Loss 
 CABU.                      No:  Customer Abuse 
 CGEO.          Parviz Guliyev:  Customer Geo 
 COMM.                     ,‘Å:  Run Comments 1 
 TCS .hr                108.13:  Time Ciculation Ended 
 CV  .mps                 0.50:  Crit Velocity 
 CVMX.mps                 2.01:  Max Crit Veloc 
 DD1 .          Fariz Nahmatov:  Direct Drillr 1 
 DD2 .             Ehab Radwan:  Direct Drillr 2 
 DDSV.               Geo-Pilot:  DD Service 
 DEFF.%                  99.00:  % Det Eff 
 DLRX.∞/30m               0.50:  Dogleg Rot Max 
 DLSO.∞/30m               2.80:  Dogleg Oriented 
 DLSX.∞/30m               3.90:  Dogleg Str Max 
 DRET.      09.30.04 03-Jul-20:  Drill End Time 
 DRST.      18.33.04 28-Jun-20:  Drill Start Tim 
 DTIM.hr                 55.83:  Time Drilling 
 EDEP.m                1952.00:  End Depth 
 ENG1.      Bakhtiyar Jabbarli:  Engineer 1 
 ENG2.         Farhad Orujzade:  Engineer 2 
 ENG3.          Rustam Safarov:  Engineer 3 
 ETIM.      01.33.04 04-Jul-20:  End Time 
 FLOI.gpm              1050.00:  Flow In 
 FLON.gpm               950.00:  Flow In Min 
 FLOS.cptm                0.10:  Fluid Loss 
 FLOX.gpm              1150.00:  Flow In Max 
 HFLO.                      No:  High Flow 
 HPRE.                      No:  High Pressure 
 HTEM.                      No:  High Temp 
 HYDO.m                   1.80:  Hydro Offset 
 IFIN.deg                75.26:  Inc, Final 
 IMAX.deg                75.38:  Inc Max 
 IMIN.deg                22.84:  Inc Min 
 IMND.m                 832.38:  Inc Min Depth 
 IMXD.m                1936.55:  Inc Max Depth 
 JARR.                      No:  Jarring 
 LETM.      17.40.00 04-Jul-20:  Log End Time 
 LOST.hr                     0:  Lost Rig Time 
 LSTM.      12.33.04 28-Jun-20:  Log Start Time 
 MDCL.ppm             49500.00:  Mud Chlorides 
 MDES.     Inversion Oil/Synthetic:  Mud Desc 
 DFD .sg                  1.46:  Mud Density 
 MDMN.sg                  1.46:  Dens Mud Min 
 MDMX.sg                  1.46:  Dens Mud Max 
 MOIL.                      70:  Run Mud Oil % 
 MOWR.                   70:30:  Run Mud OWR 
 MSND.                     0.5:  Run Mud Sand % 
 MSOL.                   19.89:  Run Mud Solids% 
 DFV .spqt               72.00:  Mud Viscosity 
 MWOD.in                  9.50:  MWD Tool OD 
 MWSI.                      No:  Serv Intrp, MWD 
 OTIM.hr                146.53:  Time Operating 
 PCON.           Look Like New:  Pad Condition 
 PMAX.psia             2900.00:  Press Op, Max 
 PV  .cP                 38.00:  Mud PV 
 RUN .                     600:  Run Number 
 ROPA.m/hr               22.00:  ROP Avg 
 ROPN.m/hr               10.00:  ROP Min 
 ROPX.m/hr              263.00:  ROP Max 
 RPMA.rpm               155.00:  RPM Surface Avg 
 RPMN.rpm               140.00:  RPM Surface Min 
 RPMX.rpm               160.00:  RPM Surface Max 
 RRUN.                    0600:  Rig Run Number 
 RTIM.hr                  5.00:  Time Reaming 
 SAZI.deg               300.08:  Azm, Start 
 SDEP.m                 800.00:  Start Depth 
 SIDD.                      No:  Serv Intrp, DD 
 SINC.deg                22.84:  Inc, Start 
 SPPA.psig             3000.00:  SPP Avg 
 SPPN.psig             1900.00:  SPP Min 
 SPPX.psig             3200.00:  SPP Max 
 STIM.      12.30.04 28-Jun-20:  Start Time 
 SVCS.                 DD, MWD:  Services 
 SVER.                    9.20:  Sperry Version 
 TDAT.m                1952.00:  Tot Depth Attmp 
 TDDF.                      No:  Trip for DD 
 TDLG.m                1152.00:  Tot Depth Loggd 
 TFF .                      No:  Trip for Fail 
 TQAA.f-kp                8.00:  Torque Abs Avg 
 TQAN.f-kp                5.00:  Torque Abs Min 
 TQAX.f-kp               14.00:  Torque Abs Max 
 TRRT.∞/30m               0.50:  Turn Rotating 
 MRT .                  EWR-M5:  Maximum Recorded Temperature 
 TTMX.degC               69.00:  Max Tool Temp 
 VS01.                90610313:  Virtual Str1 SN 
 VS02.                90613431:  Virtual Str2 SN 
 VS03.                90615410:  Virtual Str3 SN 
 WBMN.klb                 6.00:  WOB Min 
 WITN.            Bruce Cheyne:  Customer Rep 
 WITN.             Ayaz Aliyev:  Customer Rep 2 
 WOBA.klb                 6.00:  WOB Avg 
 WOBX.klb                10.00:  WOB Max 
 YP  .lhf2               36.00:  Yield Point 
~Curve Information Block
#MNEM.UNIT                 API CODE     Curve Description
#---------               -----------    ---------------------------
 TIME.HHMMSS            00 000 000 000:  GT Time & Date
 GTET.sec               00 000 000 000:  GT Elapsed Test Time
 GTPQH.psia             00 000 000 000:  GT HR Quartz Pressure
 GTDEPTH.m              00 000 000 000:  GT Depth
 GTTVD.m                00 000 000 000:  GT True Vertical Depth
 GTTQ.degC              00 000 000 000:  GT Quartz Temperature
 GTTN.NONE              00 000 000 000:  GT Test Number
#Other Information
#
#WARRANTY: Halliburton will use its best efforts to furnish customers with 
#accurate information and interpretations that are part of, and incident to, the services 
#provided.  However, Halliburton cannot and does not warrant the accuracy 
#or correctness of such information and interpretations.  Under no circumstances should any 
#such information or interpretation be relied upon as the sole basis for any drilling, 
#completion, production, or financial decision or any procedure involving any risk to the 
#safety of any drilling venture, drilling rig or its crew or any other third party.  The 
#Customer has full responsibility for all drilling, completion and production operation.  
#Halliburton makes no representations or warranties, either expressed or 
#implied, including, but not limited to, the implied warranties of merchantability or fitness 
#for a particular purpose, with respect to the services rendered.  In no event will 
#Halliburton be liable for failure to obtain any particular results or for 
#any damages, including, but not limited to, indirect, special or consequential damages, 
#resulting from the use of any information or interpretation provided by Halliburton.
#
~A           TIME            GTET   GTPQH  GTDEPTH GTTVD  GTTQ  GTTN 
# ...
   16:01:39.287.29-Jun-2020  92.84 1477.28  873.30 856.96 65.77 1.00
   16:01:39.487.29-Jun-2020  93.04 1473.42  873.30 856.96 65.77 1.00
   16:01:39.687.29-Jun-2020  93.24 1479.00  873.30 856.96 65.77 1.00
   16:01:39.887.29-Jun-2020  93.44 1481.95  873.30 856.96 65.77 1.00
   16:01:40.087.29-Jun-2020  93.64 1479.52  873.30 856.96 65.77 1.00
   16:01:40.287.29-Jun-2020  93.84 1486.57  873.30 856.96 65.77 1.00
   16:01:40.487.29-Jun-2020  94.04 1495.32  873.30 856.96 65.77 1.00
   16:01:40.687.29-Jun-2020  94.24 1495.32  873.30 856.96 65.77 1.00
   16:01:40.887.29-Jun-2020  94.44 1568.60  873.30 856.96 65.77 1.00
   16:01:41.087.29-Jun-2020  94.64 1572.30  873.30 856.96 65.77 1.00
   16:01:41.287.29-Jun-2020  94.84 1573.38  873.30 856.96 65.77 1.00
   16:01:41.488.29-Jun-2020  95.04 1573.86  873.30 856.96 65.77 1.00
   16:01:41.688.29-Jun-2020  95.24 1573.86  873.30 856.96 65.77 1.00
   16:01:41.888.29-Jun-2020  95.44 1574.33  873.30 856.96 65.77 1.00
   16:01:42.088.29-Jun-2020  95.64 1574.50  873.30 856.96 65.77 1.00
   16:01:42.288.29-Jun-2020  95.84 1574.64  873.30 856.96 65.77 1.00
   16:01:42.488.29-Jun-2020  96.04 1574.87  873.30 856.96 65.77 1.00
   16:01:42.688.29-Jun-2020  96.24 1574.87  873.30 856.96 65.77 1.00
   16:01:42.888.29-Jun-2020  96.44 1574.96  873.30 856.96 65.77 1.00
   16:01:43.088.29-Jun-2020  96.64 1575.00  873.30 856.96 65.77 1.00
   16:01:43.288.29-Jun-2020  96.84 1575.16  873.30 856.96 65.77 1.00
   16:01:43.488.29-Jun-2020  97.04 1575.32  873.30 856.96 65.77 1.00
   16:01:43.688.29-Jun-2020  97.24 1575.41  873.30 856.96 65.77 1.00
   16:01:43.888.29-Jun-2020  97.44 1575.52  873.30 856.96 65.77 1.00
   16:01:44.089.29-Jun-2020  97.64 1575.61  873.30 856.96 65.77 1.00
   16:01:44.289.29-Jun-2020  97.84 1575.81  873.30 856.96 65.77 1.00
   16:01:44.489.29-Jun-2020  98.04 1575.85  873.30 856.96 65.77 1.00
   16:01:44.689.29-Jun-2020  98.24 1575.85  873.30 856.96 65.77 1.00
   16:01:44.889.29-Jun-2020  98.44 1576.37  873.30 856.96 65.77 1.00
   16:01:45.089.29-Jun-2020  98.64 1576.30  873.30 856.96 65.77 1.00
   16:01:45.289.29-Jun-2020  98.84 1576.27  873.30 856.96 65.77 1.00
   16:01:45.489.29-Jun-2020  99.04 1576.33  873.30 856.96 65.77 1.00
   16:01:45.689.29-Jun-2020  99.24 1576.33  873.30 856.96 65.77 1.00
   16:01:45.889.29-Jun-2020  99.44 1576.37  873.30 856.96 65.77 1.00
   16:01:46.089.29-Jun-2020  99.64 1576.34  873.30 856.96 65.77 1.00
   16:01:46.289.29-Jun-2020  99.84 1576.30  873.30 856.96 65.77 1.00
   16:01:46.489.29-Jun-2020 100.04 1576.29  873.30 856.96 65.77 1.00
   16:01:46.690.29-Jun-2020 100.24 1576.29  873.30 856.96 65.77 1.00
   16:01:46.890.29-Jun-2020 100.44 1576.38  873.30 856.96 65.77 1.00
   16:01:47.090.29-Jun-2020 100.64 1576.29  873.30 856.96 65.77 1.00
   16:01:47.290.29-Jun-2020 100.84 1576.39  873.30 856.96 65.77 1.00
   16:01:47.490.29-Jun-2020 101.04 1576.40  873.30 856.96 65.77 1.00
   16:01:47.690.29-Jun-2020 101.24 1576.40  873.30 856.96 65.77 1.00
   16:01:47.890.29-Jun-2020 101.44 1576.32  873.30 856.96 65.77 1.00
   16:01:48.090.29-Jun-2020 101.64 1576.31  873.30 856.96 65.77 1.00
   16:01:48.290.29-Jun-2020 101.84 1576.55  873.30 856.96 65.77 1.00
   16:01:48.490.29-Jun-2020 102.04 1576.52  873.30 856.96 65.77 1.00
   16:01:48.690.29-Jun-2020 102.24 1576.52  873.30 856.96 65.77 1.00
   16:01:48.890.29-Jun-2020 102.44 1576.47  873.30 856.96 65.77 1.00
   16:01:49.090.29-Jun-2020 102.64 1576.40  873.30 856.96 65.77 1.00
   16:01:49.291.29-Jun-2020 102.84 1576.54  873.30 856.96 65.77 1.00
   16:01:49.491.29-Jun-2020 103.04 1576.49  873.30 856.96 65.77 1.00
   16:01:49.691.29-Jun-2020 103.24 1576.49  873.30 856.96 65.77 1.00
   16:01:49.891.29-Jun-2020 103.44 1576.56  873.30 856.96 65.77 1.00
   16:01:50.091.29-Jun-2020 103.64 1576.55  873.30 856.96 65.77 1.00
   16:01:50.291.29-Jun-2020 103.84 1576.62  873.30 856.96 65.77 1.00
   16:01:50.491.29-Jun-2020 104.04 1576.55  873.30 856.96 65.77 1.00
   16:01:50.691.29-Jun-2020 104.24 1576.55  873.30 856.96 65.77 1.00
   16:01:50.891.29-Jun-2020 104.44 1576.54  873.30 856.96 65.77 1.00
   16:01:51.091.29-Jun-2020 104.64 1576.53  873.30 856.96 65.77 1.00
   16:01:51.291.29-Jun-2020 104.84 1576.51  873.30 856.96 65.77 1.00
   16:01:51.491.29-Jun-2020 105.04 1576.49  873.30 856.96 65.77 1.00
   16:01:51.691.29-Jun-2020 105.24 1576.44  873.30 856.96 65.77 1.00
   16:01:51.892.29-Jun-2020 105.44 1576.35  873.30 856.96 65.77 1.00
   16:01:52.092.29-Jun-2020 105.64 1576.22  873.30 856.96 65.77 1.00
   16:01:52.292.29-Jun-2020 105.84 1576.10  873.30 856.96 65.77 1.00
   16:01:52.492.29-Jun-2020 106.04 1576.16  873.30 856.96 65.77 1.00
   16:01:52.692.29-Jun-2020 106.24 1576.24  873.30 856.96 65.77 1.00
   16:01:52.892.29-Jun-2020 106.44 1576.26  873.30 856.96 65.77 1.00
   16:01:53.092.29-Jun-2020 106.64 1576.29  873.30 856.96 65.77 1.00
   16:01:53.292.29-Jun-2020 106.84 1576.28  873.30 856.96 65.77 1.00
   16:01:53.492.29-Jun-2020 107.04 1576.30  873.30 856.96 65.77 1.00
   16:01:53.692.29-Jun-2020 107.24 1576.30  873.30 856.96 65.77 1.00
   16:01:53.892.29-Jun-2020 107.44 1576.41  873.30 856.96 65.77 1.00
   16:01:54.092.29-Jun-2020 107.64 1576.41  873.30 856.96 65.77 1.00
   16:01:54.292.29-Jun-2020 107.84 1576.44  873.30 856.96 65.77 1.00
   16:01:54.492.29-Jun-2020 108.04 1576.28  873.30 856.96 65.77 1.00
   16:01:54.693.29-Jun-2020 108.24 1576.28  873.30 856.96 65.77 1.00
   16:01:54.893.29-Jun-2020 108.44 1576.10  873.30 856.96 65.77 1.00
   16:01:55.093.29-Jun-2020 108.64 1576.13  873.30 856.96 65.77 1.00
   16:01:55.293.29-Jun-2020 108.84 1576.07  873.30 856.96 65.77 1.00
   16:01:55.493.29-Jun-2020 109.04 1576.11  873.30 856.96 65.77 1.00
   16:01:55.693.29-Jun-2020 109.24 1576.11  873.30 856.96 65.77 1.00
   16:01:55.893.29-Jun-2020 109.44 1575.95  873.30 856.96 65.77 1.00
   16:01:56.093.29-Jun-2020 109.64 1575.93  873.30 856.96 65.77 1.00
   16:01:56.293.29-Jun-2020 109.84 1576.02  873.30 856.96 65.77 1.00
   16:01:56.493.29-Jun-2020 110.04 1576.00  873.30 856.96 65.77 1.00
   16:01:56.693.29-Jun-2020 110.24 1576.00  873.30 856.96 65.77 1.00
   16:01:56.893.29-Jun-2020 110.44 1575.84  873.30 856.96 65.78 1.00
   16:01:57.093.29-Jun-2020 110.64 1575.89  873.30 856.96 65.78 1.00
   16:01:57.294.29-Jun-2020 110.84 1575.92  873.30 856.96 65.78 1.00
   16:01:57.494.29-Jun-2020 111.04 1576.04  873.30 856.96 65.78 1.00
   16:01:57.694.29-Jun-2020 111.24 1575.87  873.30 856.96 65.78 1.00
   16:01:57.894.29-Jun-2020 111.44 1575.84  873.30 856.96 65.78 1.00
   16:01:58.094.29-Jun-2020 111.64 1575.81  873.30 856.96 65.78 1.00
   16:01:58.294.29-Jun-2020 111.84 1575.99  873.30 856.96 65.78 1.00
   16:01:58.494.29-Jun-2020 112.04 1575.91  873.30 856.96 65.78 1.00
   16:01:58.694.29-Jun-2020 112.24 1575.91  873.30 856.96 65.78 1.00
   16:01:58.894.29-Jun-2020 112.44 1575.88  873.30 856.96 65.78 1.00
   16:01:59.094.29-Jun-2020 112.64 1575.88  873.30 856.96 65.78 1.00
   16:01:59.294.29-Jun-2020 112.84 1575.85  873.30 856.96 65.78 1.00
   16:01:59.494.29-Jun-2020 113.04 1575.88  873.30 856.96 65.78 1.00
   16:01:59.694.29-Jun-2020 113.24 1575.88  873.30 856.96 65.78 1.00
   16:01:59.895.29-Jun-2020 113.44 1575.86  873.30 856.96 65.78 1.00
   16:02:00.095.29-Jun-2020 113.64 1575.85  873.30 856.96 65.78 1.00
   16:02:00.295.29-Jun-2020 113.84 1575.85  873.30 856.96 65.78 1.00
   16:02:00.495.29-Jun-2020 114.04 1575.83  873.30 856.96 65.78 1.00
   16:02:00.695.29-Jun-2020 114.24 1575.83  873.30 856.96 65.78 1.00
   16:02:00.895.29-Jun-2020 114.44 1575.83  873.30 856.96 65.78 1.00
   16:02:01.095.29-Jun-2020 114.64 1575.80  873.30 856.96 65.78 1.00
   16:02:01.295.29-Jun-2020 114.84 1575.77  873.30 856.96 65.78 1.00
   16:02:01.495.29-Jun-2020 115.04 1575.68  873.30 856.96 65.78 1.00
   16:02:01.695.29-Jun-2020 115.24 1575.68  873.30 856.96 65.78 1.00
   16:02:01.895.29-Jun-2020 115.44 1575.60  873.30 856.96 65.78 1.00
   16:02:02.095.29-Jun-2020 115.64 1575.57  873.30 856.96 65.78 1.00
   16:02:02.295.29-Jun-2020 115.84 1575.60  873.30 856.96 65.78 1.00
