~Version Information
 VERS.                  2.0:   CWLS log ASCII Standard -VERSION 2.0
 WRAP.                   NO:   One line per depth step
~Well Information Block
#MNEM.UNIT     VALUE/NAME     DESCRIPTION
#---------     -----------    ---------------------------
 STRT.S             16:15:55 30-Jun-20: START TIME 16:15:55 30-Jun-20
 STOP.S             16:24:50 30-Jun-20: STOP TIME  16:24:50 30-Jun-20
 STEP.S                   0.00: STEP TIME
 NULL.                 -999.25: NULL VALUE
 DFWT.                        :  DIST FWL TEXT
 DFST.                        :  DIST FSL TEXT
 DMF .             Drill Floor:  DRILL MEAS FROM
 STIM.      09.59.28 01-Jun-20:  START TIME
 DATE.      09.59.28 01-Jun-20:  END TIME
 SPUD.               01-Jun-20:  SPUD DATE
 NREF.                    Grid:  NORTH REFERENCE
 HPTY.       Minimum Curvature:  HOLE POS TYPE
 DMOD.             Drill Model:  DRILL MOD DESC
 SVYD.                  Survey:  SURVEY DESC
 ILTD.               Lithology:  INTERP LTH DESC
 FTOP.          Formation Tops:  FORM TOPS DESC
 SON .        AZ-XX-0905455768:  JOB NUMBER
 WTYP.                Deviated:  WELL TYPE
 COMP.     BP Exploration(Caspian Sea):  COMPANY
 BASE.              Azerbaijan:  LOGGING EQUIPMENT BASE LOCATION
 REGN.                   EESSA:  REGION
 CTRY.              Azerbaijan:  COUNTRY NAME
 FLD .                     ACG:  FIELD NAME
 SRVC.          Turan Drilling:  CONTRACTOR
 WELL.                     B41:  WELL NAME
 RIG .           Central Azeri:  RIG NAME
 DCON.         Sperry Drilling:  DIRECTNL CONTR
 PDAT.          Mean Sea Level:  PERMANENT DATUM
 MDS .        Operator Entered:  MAG DATA SOURCE
 API .                        :  API NUMBER
 CNTY.                        :  COUNTY
 PROV.                        :  PROVINCE
 STAT.                        :  STATE
 UWI .                        :  UNIQUE WELL IDENTIFIER
 LOC .                        :  LOCATION
 LMF .             Drill Floor:  LOG MEASURED FROM
 TVDS.m                  43.29:  TVDSS CORRECTN
 LATI.deg                40.03:  LATITUDE
 LONG.deg                51.35:  LONGITUDE
 WHNS.m                  12.98:  WELL HEAD N/S
 WHEW.m                  -6.62:  WELL HEAD E/W
 UTMX.m              530128.28:  UTM X
 UTMY.m             4433192.49:  UTM Y
 DFWL.m                   0.00:  DISTANCE FWL
 DFSL.m                   0.00:  DISTANCE FSL
 SDEP.m                 378.00:  START DEPTH
 TDD .m                   0.00:  TOTAL DEPTH (DRILLER)
 VSDR.deg               296.18:  VERT SEC DIRECT
 GVFD.g                   1.00:  GRAVITY FIELD
 MFLD.nT              50253.00:  MAGNETIC FIELD
 MDIP.deg                59.49:  MAGNETIC DIP
 MDEC.deg                 6.44:  MAGNETIC DECL
 GRDC.deg                 0.22:  GRID CORRECTION
 AZTC.deg                 6.22:  AZM TOTAL CORR
 EPD .m                   0.00:  ELEVATION
 EGL .m                   0.00:  GROUND ELEVATION
 WDMS.m                 128.20:  WD ELEV
 APD .m                  43.29:  DEPTH ABOVE PD
 AGAP.m                  43.29:  AIR GAP
 VSEW.m                  -6.62:  VERT SEC E/W
 VSNS.m                  12.98:  VERT SEC N/S
 EKB .m                  43.29:  KB ELEVATION
 EDF .m                  43.29:  DF ELEVATION
 TDL .m                1152.00:  TOTAL DEPTH (LOGGER)
 VSC .                       0:  VS TO CLOSURE
 MAGU.                 1848525:  MAGUTM CHECKSUM
~Parameter Information Block
#MNEM.UNIT       Value        Description
#---------     -----------    ---------------------------
 AV  .mps                 0.40:  Ann Velocity 
 AVMX.mps                 1.56:  Max Ann Veloc 
 AZIF.deg               300.46:  Azm, Final 
 BHAT.        Rotary Steerable:  BHA Type 
 BROT.°/30m               0.40:  Build Rotating 
 BS  .in                 17.50:  Bit Size 
 BSZ .in                 17.50:  Bit Size 
 BTPL.psig              300.00:  Bit Press Loss 
 CABU.                      No:  Customer Abuse 
 CGEO.          Parviz Guliyev:  Customer Geo 
 COMM.                     D„w:  Run Comments 1 
 TCS .hr                108.13:  Time Ciculation Ended 
 CV  .mps                 0.50:  Crit Velocity 
 CVMX.mps                 2.01:  Max Crit Veloc 
 DD1 .          Fariz Nahmatov:  Direct Drillr 1 
 DD2 .             Ehab Radwan:  Direct Drillr 2 
 DDSV.               Geo-Pilot:  DD Service 
 DEFF.%                  99.00:  % Det Eff 
 DLRX.°/30m               0.50:  Dogleg Rot Max 
 DLSO.°/30m               2.80:  Dogleg Oriented 
 DLSX.°/30m               3.90:  Dogleg Str Max 
 DRET.      09.30.04 03-Jul-20:  Drill End Time 
 DRST.      18.33.04 28-Jun-20:  Drill Start Tim 
 DTIM.hr                 55.83:  Time Drilling 
 EDEP.m                1952.00:  End Depth 
 ENG1.      Bakhtiyar Jabbarli:  Engineer 1 
 ENG2.         Farhad Orujzade:  Engineer 2 
 ENG3.          Rustam Safarov:  Engineer 3 
 ETIM.      01.33.04 04-Jul-20:  End Time 
 FLOI.gpm              1050.00:  Flow In 
 FLON.gpm               950.00:  Flow In Min 
 FLOS.cptm                0.10:  Fluid Loss 
 FLOX.gpm              1150.00:  Flow In Max 
 HFLO.                      No:  High Flow 
 HPRE.                      No:  High Pressure 
 HTEM.                      No:  High Temp 
 HYDO.m                   1.80:  Hydro Offset 
 IFIN.deg                75.26:  Inc, Final 
 IMAX.deg                75.38:  Inc Max 
 IMIN.deg                22.84:  Inc Min 
 IMND.m                 832.38:  Inc Min Depth 
 IMXD.m                1936.55:  Inc Max Depth 
 JARR.                      No:  Jarring 
 LETM.      17.40.00 04-Jul-20:  Log End Time 
 LOST.hr                     0:  Lost Rig Time 
 LSTM.      12.33.04 28-Jun-20:  Log Start Time 
 MDCL.ppm             49500.00:  Mud Chlorides 
 MDES.     Inversion Oil/Synthetic:  Mud Desc 
 DFD .sg                  1.46:  Mud Density 
 MDMN.sg                  1.46:  Dens Mud Min 
 MDMX.sg                  1.46:  Dens Mud Max 
 MOIL.                      70:  Run Mud Oil % 
 MOWR.                   70:30:  Run Mud OWR 
 MSND.                     0.5:  Run Mud Sand % 
 MSOL.                   19.89:  Run Mud Solids% 
 DFV .spqt               72.00:  Mud Viscosity 
 MWOD.in                  9.50:  MWD Tool OD 
 MWSI.                      No:  Serv Intrp, MWD 
 OTIM.hr                146.53:  Time Operating 
 PCON.           Look Like New:  Pad Condition 
 PMAX.psia             2900.00:  Press Op, Max 
 PV  .cP                 38.00:  Mud PV 
 RUN .                     600:  Run Number 
 ROPA.m/hr               22.00:  ROP Avg 
 ROPN.m/hr               10.00:  ROP Min 
 ROPX.m/hr              263.00:  ROP Max 
 RPMA.rpm               155.00:  RPM Surface Avg 
 RPMN.rpm               140.00:  RPM Surface Min 
 RPMX.rpm               160.00:  RPM Surface Max 
 RRUN.                    0600:  Rig Run Number 
 RTIM.hr                  5.00:  Time Reaming 
 SAZI.deg               300.08:  Azm, Start 
 SDEP.m                 800.00:  Start Depth 
 SIDD.                      No:  Serv Intrp, DD 
 SINC.deg                22.84:  Inc, Start 
 SPPA.psig             3000.00:  SPP Avg 
 SPPN.psig             1900.00:  SPP Min 
 SPPX.psig             3200.00:  SPP Max 
 STIM.      12.30.04 28-Jun-20:  Start Time 
 SVCS.                 DD, MWD:  Services 
 SVER.                    9.20:  Sperry Version 
 TDAT.m                1952.00:  Tot Depth Attmp 
 TDDF.                      No:  Trip for DD 
 TDLG.m                1152.00:  Tot Depth Loggd 
 TFF .                      No:  Trip for Fail 
 TQAA.f-kp                8.00:  Torque Abs Avg 
 TQAN.f-kp                5.00:  Torque Abs Min 
 TQAX.f-kp               14.00:  Torque Abs Max 
 TRRT.°/30m               0.50:  Turn Rotating 
 MRT .                  EWR-M5:  Maximum Recorded Temperature 
 TTMX.degC               69.00:  Max Tool Temp 
 VS01.                90610313:  Virtual Str1 SN 
 VS02.                90613431:  Virtual Str2 SN 
 VS03.                90615410:  Virtual Str3 SN 
 WBMN.klb                 6.00:  WOB Min 
 WITN.            Bruce Cheyne:  Customer Rep 
 WITN.             Ayaz Aliyev:  Customer Rep 2 
 WOBA.klb                 6.00:  WOB Avg 
 WOBX.klb                10.00:  WOB Max 
 YP  .lhf2               36.00:  Yield Point 
~Curve Information Block
#MNEM.UNIT                 API CODE     Curve Description
#---------               -----------    ---------------------------
 TIME.HHMMSS            00 000 000 000:  GT Time & Date
 GTET.sec               00 000 000 000:  GT Elapsed Test Time
 GTPQH.psia             00 000 000 000:  GT HR Quartz Pressure
 GTDEPTH.m              00 000 000 000:  GT Depth
 GTTVD.m                00 000 000 000:  GT True Vertical Depth
 GTTQ.degC              00 000 000 000:  GT Quartz Temperature
 GTTN.NONE              00 000 000 000:  GT Test Number
#Other Information
#
#WARRANTY: Halliburton will use its best efforts to furnish customers with 
#accurate information and interpretations that are part of, and incident to, the services 
#provided.  However, Halliburton cannot and does not warrant the accuracy 
#or correctness of such information and interpretations.  Under no circumstances should any 
#such information or interpretation be relied upon as the sole basis for any drilling, 
#completion, production, or financial decision or any procedure involving any risk to the 
#safety of any drilling venture, drilling rig or its crew or any other third party.  The 
#Customer has full responsibility for all drilling, completion and production operation.  
#Halliburton makes no representations or warranties, either expressed or 
#implied, including, but not limited to, the implied warranties of merchantability or fitness 
#for a particular purpose, with respect to the services rendered.  In no event will 
#Halliburton be liable for failure to obtain any particular results or for 
#any damages, including, but not limited to, indirect, special or consequential damages, 
#resulting from the use of any information or interpretation provided by Halliburton.
#
~A           TIME            GTET   GTPQH  GTDEPTH  GTTVD  GTTQ  GTTN 
# ...
   16:19:45.000.30-Jun-2020 230.00   24.02 1103.02 1054.26 68.77 2.00
   16:19:45.200.30-Jun-2020 230.20   24.23 1103.02 1054.26 68.77 2.00
   16:19:45.400.30-Jun-2020 230.40   24.44 1103.02 1054.26 68.77 2.00
   16:19:45.600.30-Jun-2020 230.60   24.63 1103.02 1054.26 68.77 2.00
   16:19:45.800.30-Jun-2020 230.80   24.83 1103.02 1054.26 68.77 2.00
   16:19:46.000.30-Jun-2020 231.00   25.01 1103.02 1054.26 68.77 2.00
   16:19:46.200.30-Jun-2020 231.20   25.01 1103.02 1054.26 68.77 2.00
   16:19:46.400.30-Jun-2020 231.40   25.35 1103.02 1054.26 68.77 2.00
   16:19:46.600.30-Jun-2020 231.60   25.53 1103.02 1054.26 68.77 2.00
   16:19:46.800.30-Jun-2020 231.80   25.70 1103.02 1054.26 68.77 2.00
   16:19:47.000.30-Jun-2020 232.00   25.87 1103.02 1054.26 68.77 2.00
   16:19:47.200.30-Jun-2020 232.20   25.87 1103.02 1054.26 68.77 2.00
   16:19:47.400.30-Jun-2020 232.40   26.19 1103.02 1054.26 68.77 2.00
   16:19:47.600.30-Jun-2020 232.60   26.38 1103.02 1054.26 68.77 2.00
   16:19:47.800.30-Jun-2020 232.80   26.53 1103.02 1054.26 68.77 2.00
   16:19:48.000.30-Jun-2020 233.00   26.68 1103.02 1054.26 68.77 2.00
   16:19:48.200.30-Jun-2020 233.20   26.68 1103.02 1054.26 68.77 2.00
   16:19:48.400.30-Jun-2020 233.40   26.97 1103.02 1054.26 68.77 2.00
   16:19:48.600.30-Jun-2020 233.60   27.09 1103.02 1054.26 68.77 2.00
   16:19:48.800.30-Jun-2020 233.80   27.26 1103.02 1054.26 68.77 2.00
   16:19:49.000.30-Jun-2020 234.00   27.40 1103.02 1054.26 68.77 2.00
   16:19:49.200.30-Jun-2020 234.20   27.53 1103.02 1054.26 68.77 2.00
   16:19:49.400.30-Jun-2020 234.40   27.67 1103.02 1054.26 68.77 2.00
   16:19:49.600.30-Jun-2020 234.60   27.79 1103.02 1054.26 68.77 2.00
   16:19:49.800.30-Jun-2020 234.80   27.93 1103.02 1054.26 68.77 2.00
   16:19:50.000.30-Jun-2020 235.00   28.06 1103.02 1054.26 68.77 2.00
   16:19:50.200.30-Jun-2020 235.20   28.06 1103.02 1054.26 68.77 2.00
   16:19:50.400.30-Jun-2020 235.40   28.31 1103.02 1054.26 68.77 2.00
   16:19:50.600.30-Jun-2020 235.60   28.42 1103.02 1054.26 68.77 2.00
   16:19:50.800.30-Jun-2020 235.80   28.53 1103.02 1054.26 68.77 2.00
   16:19:51.000.30-Jun-2020 236.00   28.65 1103.02 1054.26 68.77 2.00
   16:19:51.200.30-Jun-2020 236.20   28.65 1103.02 1054.26 68.77 2.00
   16:19:51.400.30-Jun-2020 236.40   28.89 1103.02 1054.26 68.78 2.00
   16:19:51.600.30-Jun-2020 236.60   29.01 1103.02 1054.26 68.78 2.00
   16:19:51.800.30-Jun-2020 236.80   29.13 1103.02 1054.26 68.78 2.00
   16:19:52.000.30-Jun-2020 237.00   29.25 1103.02 1054.26 68.78 2.00
   16:19:52.200.30-Jun-2020 237.20   29.25 1103.02 1054.26 68.78 2.00
   16:19:52.400.30-Jun-2020 237.40   29.49 1103.02 1054.26 68.78 2.00
   16:19:52.600.30-Jun-2020 237.60   29.62 1103.02 1054.26 68.78 2.00
   16:19:52.800.30-Jun-2020 237.80   29.72 1103.02 1054.26 68.78 2.00
   16:19:53.000.30-Jun-2020 238.00   29.83 1103.02 1054.26 68.78 2.00
   16:19:53.200.30-Jun-2020 238.20   29.93 1103.02 1054.26 68.78 2.00
   16:19:53.400.30-Jun-2020 238.40   30.06 1103.02 1054.26 68.78 2.00
   16:19:53.600.30-Jun-2020 238.60   30.18 1103.02 1054.26 68.78 2.00
   16:19:53.800.30-Jun-2020 238.80   30.28 1103.02 1054.26 68.78 2.00
   16:19:54.000.30-Jun-2020 239.00   30.40 1103.02 1054.26 68.78 2.00
   16:19:54.200.30-Jun-2020 239.20   30.40 1103.02 1054.26 68.78 2.00
   16:19:54.400.30-Jun-2020 239.40   30.63 1103.02 1054.26 68.78 2.00
   16:19:54.600.30-Jun-2020 239.60   30.73 1103.02 1054.26 68.78 2.00
   16:19:54.800.30-Jun-2020 239.80   30.83 1103.02 1054.26 68.78 2.00
   16:19:55.000.30-Jun-2020 240.00   30.93 1103.02 1054.26 68.78 2.00
   16:19:55.200.30-Jun-2020 240.20   30.93 1103.02 1054.26 68.78 2.00
   16:19:55.400.30-Jun-2020 240.40   31.13 1103.02 1054.26 68.78 2.00
   16:19:55.600.30-Jun-2020 240.60   31.22 1103.02 1054.26 68.78 2.00
   16:19:55.800.30-Jun-2020 240.80   31.35 1103.02 1054.26 68.78 2.00
   16:19:56.000.30-Jun-2020 241.00   31.45 1103.02 1054.26 68.78 2.00
   16:19:56.200.30-Jun-2020 241.20   31.45 1103.02 1054.26 68.78 2.00
   16:19:56.400.30-Jun-2020 241.40   31.65 1103.02 1054.26 68.78 2.00
   16:19:56.600.30-Jun-2020 241.60   31.65 1103.02 1054.26 68.78 2.00
   16:19:56.800.30-Jun-2020 241.80   31.85 1103.02 1054.26 68.78 2.00
   16:19:57.000.30-Jun-2020 242.00   31.95 1103.02 1054.26 68.78 2.00
   16:19:57.200.30-Jun-2020 242.20   32.04 1103.02 1054.26 68.78 2.00
   16:19:57.400.30-Jun-2020 242.40   32.12 1103.02 1054.26 68.78 2.00
   16:19:57.600.30-Jun-2020 242.60   32.19 1103.02 1054.26 68.78 2.00
   16:19:57.800.30-Jun-2020 242.80   32.30 1103.02 1054.26 68.78 2.00
   16:19:58.000.30-Jun-2020 243.00   32.39 1103.02 1054.26 68.78 2.00
   16:19:58.200.30-Jun-2020 243.20   32.39 1103.02 1054.26 68.78 2.00
   16:19:58.400.30-Jun-2020 243.40   32.57 1103.02 1054.26 68.78 2.00
   16:19:58.600.30-Jun-2020 243.60   32.65 1103.02 1054.26 68.78 2.00
   16:19:58.800.30-Jun-2020 243.80   32.77 1103.02 1054.26 68.78 2.00
   16:19:59.000.30-Jun-2020 244.00   32.84 1103.02 1054.26 68.78 2.00
   16:19:59.200.30-Jun-2020 244.20   32.84 1103.02 1054.26 68.78 2.00
   16:19:59.400.30-Jun-2020 244.40   33.03 1103.02 1054.26 68.78 2.00
   16:19:59.600.30-Jun-2020 244.60   33.12 1103.02 1054.26 68.78 2.00
   16:19:59.800.30-Jun-2020 244.80   33.20 1103.02 1054.26 68.78 2.00
   16:20:00.000.30-Jun-2020 245.00   33.28 1103.02 1054.26 68.79 2.00
   16:20:00.200.30-Jun-2020 245.20   33.28 1103.02 1054.26 68.79 2.00
   16:20:00.400.30-Jun-2020 245.40   33.44 1103.02 1054.26 68.79 2.00
   16:20:00.600.30-Jun-2020 245.60   33.52 1103.02 1054.26 68.79 2.00
   16:20:00.800.30-Jun-2020 245.80   33.60 1103.02 1054.26 68.79 2.00
   16:20:01.000.30-Jun-2020 246.00   33.69 1103.02 1054.26 68.79 2.00
   16:20:01.200.30-Jun-2020 246.20   33.77 1103.02 1054.26 68.79 2.00
   16:20:01.400.30-Jun-2020 246.40   33.85 1103.02 1054.26 68.79 2.00
   16:20:01.600.30-Jun-2020 246.60   33.93 1103.02 1054.26 68.79 2.00
   16:20:01.800.30-Jun-2020 246.80   34.00 1103.02 1054.26 68.79 2.00
   16:20:02.000.30-Jun-2020 247.00   34.08 1103.02 1054.26 68.79 2.00
   16:20:02.200.30-Jun-2020 247.20   34.08 1103.02 1054.26 68.79 2.00
   16:20:02.400.30-Jun-2020 247.40   34.25 1103.02 1054.26 68.79 2.00
   16:20:02.600.30-Jun-2020 247.60   34.34 1103.02 1054.26 68.79 2.00
   16:20:02.800.30-Jun-2020 247.80   34.40 1103.02 1054.26 68.79 2.00
   16:20:03.000.30-Jun-2020 248.00   34.49 1103.02 1054.26 68.79 2.00
   16:20:03.200.30-Jun-2020 248.20   34.49 1103.02 1054.26 68.79 2.00
   16:20:03.400.30-Jun-2020 248.40   34.64 1103.02 1054.26 68.79 2.00
   16:20:03.600.30-Jun-2020 248.60   34.73 1103.02 1054.26 68.79 2.00
   16:20:03.800.30-Jun-2020 248.80   34.80 1103.02 1054.26 68.79 2.00
   16:20:04.000.30-Jun-2020 249.00   34.87 1103.02 1054.26 68.79 2.00
   16:20:04.200.30-Jun-2020 249.20   34.87 1103.02 1054.26 68.79 2.00
   16:20:04.400.30-Jun-2020 249.40   35.02 1103.02 1054.26 68.79 2.00
   16:20:04.600.30-Jun-2020 249.60   35.09 1103.02 1054.26 68.79 2.00
   16:20:04.800.30-Jun-2020 249.80   35.18 1103.02 1054.26 68.79 2.00
   16:20:05.000.30-Jun-2020 250.00   35.25 1103.02 1054.26 68.79 2.00
   16:20:05.200.30-Jun-2020 250.20   35.32 1103.02 1054.26 68.79 2.00
   16:20:05.400.30-Jun-2020 250.40   35.40 1103.02 1054.26 68.79 2.00
   16:20:05.600.30-Jun-2020 250.60   35.46 1103.02 1054.26 68.79 2.00
   16:20:05.800.30-Jun-2020 250.80   35.54 1103.02 1054.26 68.79 2.00
   16:20:06.000.30-Jun-2020 251.00   35.62 1103.02 1054.26 68.79 2.00
   16:20:06.200.30-Jun-2020 251.20   35.62 1103.02 1054.26 68.79 2.00
   16:20:06.400.30-Jun-2020 251.40   35.76 1103.02 1054.26 68.79 2.00
   16:20:06.600.30-Jun-2020 251.60   35.83 1103.02 1054.26 68.79 2.00
   16:20:06.800.30-Jun-2020 251.80   35.91 1103.02 1054.26 68.79 2.00
   16:20:07.000.30-Jun-2020 252.00   35.98 1103.02 1054.26 68.79 2.00
   16:20:07.200.30-Jun-2020 252.20   35.98 1103.02 1054.26 68.79 2.00
   16:20:07.400.30-Jun-2020 252.40   36.12 1103.02 1054.26 68.80 2.00
   16:20:07.600.30-Jun-2020 252.60   36.19 1103.02 1054.26 68.80 2.00
   16:20:07.800.30-Jun-2020 252.80   36.26 1103.02 1054.26 68.80 2.00
