~Version Information
 VERS.                  2.0:   CWLS log ASCII Standard -VERSION 2.0
 WRAP.                   NO:   One line per depth step
~Well Information Block
#MNEM.UNIT     VALUE/NAME     DESCRIPTION
#---------     -----------    ---------------------------
 STRT.S             23:30:34 30-Jun-20: START TIME 23:30:34 30-Jun-20
 STOP.S             23:39:34 30-Jun-20: STOP TIME  23:39:34 30-Jun-20
 STEP.S                   0.00: STEP TIME
 NULL.                 -999.25: NULL VALUE
 DFWT.                        :  DIST FWL TEXT
 DFST.                        :  DIST FSL TEXT
 DMF .             Drill Floor:  DRILL MEAS FROM
 STIM.      09.59.28 01-Jun-20:  START TIME
 DATE.      09.59.28 01-Jun-20:  END TIME
 SPUD.               01-Jun-20:  SPUD DATE
 NREF.                    Grid:  NORTH REFERENCE
 HPTY.       Minimum Curvature:  HOLE POS TYPE
 DMOD.             Drill Model:  DRILL MOD DESC
 SVYD.                  Survey:  SURVEY DESC
 ILTD.               Lithology:  INTERP LTH DESC
 FTOP.          Formation Tops:  FORM TOPS DESC
 SON .        AZ-XX-0905455768:  JOB NUMBER
 WTYP.                Deviated:  WELL TYPE
 COMP.     BP Exploration(Caspian Sea):  COMPANY
 BASE.              Azerbaijan:  LOGGING EQUIPMENT BASE LOCATION
 REGN.                   EESSA:  REGION
 CTRY.              Azerbaijan:  COUNTRY NAME
 FLD .                     ACG:  FIELD NAME
 SRVC.          Turan Drilling:  CONTRACTOR
 WELL.                     B41:  WELL NAME
 RIG .           Central Azeri:  RIG NAME
 DCON.         Sperry Drilling:  DIRECTNL CONTR
 PDAT.          Mean Sea Level:  PERMANENT DATUM
 MDS .        Operator Entered:  MAG DATA SOURCE
 API .                        :  API NUMBER
 CNTY.                        :  COUNTY
 PROV.                        :  PROVINCE
 STAT.                        :  STATE
 UWI .                        :  UNIQUE WELL IDENTIFIER
 LOC .                        :  LOCATION
 LMF .             Drill Floor:  LOG MEASURED FROM
 TVDS.m                  43.29:  TVDSS CORRECTN
 LATI.deg                40.03:  LATITUDE
 LONG.deg                51.35:  LONGITUDE
 WHNS.m                  12.98:  WELL HEAD N/S
 WHEW.m                  -6.62:  WELL HEAD E/W
 UTMX.m              530128.28:  UTM X
 UTMY.m             4433192.49:  UTM Y
 DFWL.m                   0.00:  DISTANCE FWL
 DFSL.m                   0.00:  DISTANCE FSL
 SDEP.m                 378.00:  START DEPTH
 TDD .m                   0.00:  TOTAL DEPTH (DRILLER)
 VSDR.deg               296.18:  VERT SEC DIRECT
 GVFD.g                   1.00:  GRAVITY FIELD
 MFLD.nT              50253.00:  MAGNETIC FIELD
 MDIP.deg                59.49:  MAGNETIC DIP
 MDEC.deg                 6.44:  MAGNETIC DECL
 GRDC.deg                 0.22:  GRID CORRECTION
 AZTC.deg                 6.22:  AZM TOTAL CORR
 EPD .m                   0.00:  ELEVATION
 EGL .m                   0.00:  GROUND ELEVATION
 WDMS.m                 128.20:  WD ELEV
 APD .m                  43.29:  DEPTH ABOVE PD
 AGAP.m                  43.29:  AIR GAP
 VSEW.m                  -6.62:  VERT SEC E/W
 VSNS.m                  12.98:  VERT SEC N/S
 EKB .m                  43.29:  KB ELEVATION
 EDF .m                  43.29:  DF ELEVATION
 TDL .m                1152.00:  TOTAL DEPTH (LOGGER)
 VSC .                       0:  VS TO CLOSURE
 MAGU.                 1848525:  MAGUTM CHECKSUM
~Parameter Information Block
#MNEM.UNIT       Value        Description
#---------     -----------    ---------------------------
 AV  .mps                 0.40:  Ann Velocity 
 AVMX.mps                 1.56:  Max Ann Veloc 
 AZIF.deg               300.46:  Azm, Final 
 BHAT.        Rotary Steerable:  BHA Type 
 BROT.°/30m               0.40:  Build Rotating 
 BS  .in                 17.50:  Bit Size 
 BSZ .in                 17.50:  Bit Size 
 BTPL.psig              300.00:  Bit Press Loss 
 CABU.                      No:  Customer Abuse 
 CGEO.          Parviz Guliyev:  Customer Geo 
 COMM.                     œº_:  Run Comments 1 
 TCS .hr                108.13:  Time Ciculation Ended 
 CV  .mps                 0.50:  Crit Velocity 
 CVMX.mps                 2.01:  Max Crit Veloc 
 DD1 .          Fariz Nahmatov:  Direct Drillr 1 
 DD2 .             Ehab Radwan:  Direct Drillr 2 
 DDSV.               Geo-Pilot:  DD Service 
 DEFF.%                  99.00:  % Det Eff 
 DLRX.°/30m               0.50:  Dogleg Rot Max 
 DLSO.°/30m               2.80:  Dogleg Oriented 
 DLSX.°/30m               3.90:  Dogleg Str Max 
 DRET.      09.30.04 03-Jul-20:  Drill End Time 
 DRST.      18.33.04 28-Jun-20:  Drill Start Tim 
 DTIM.hr                 55.83:  Time Drilling 
 EDEP.m                1952.00:  End Depth 
 ENG1.      Bakhtiyar Jabbarli:  Engineer 1 
 ENG2.         Farhad Orujzade:  Engineer 2 
 ENG3.          Rustam Safarov:  Engineer 3 
 ETIM.      01.33.04 04-Jul-20:  End Time 
 FLOI.gpm              1050.00:  Flow In 
 FLON.gpm               950.00:  Flow In Min 
 FLOS.cptm                0.10:  Fluid Loss 
 FLOX.gpm              1150.00:  Flow In Max 
 HFLO.                      No:  High Flow 
 HPRE.                      No:  High Pressure 
 HTEM.                      No:  High Temp 
 HYDO.m                   1.80:  Hydro Offset 
 IFIN.deg                75.26:  Inc, Final 
 IMAX.deg                75.38:  Inc Max 
 IMIN.deg                22.84:  Inc Min 
 IMND.m                 832.38:  Inc Min Depth 
 IMXD.m                1936.55:  Inc Max Depth 
 JARR.                      No:  Jarring 
 LETM.      17.40.00 04-Jul-20:  Log End Time 
 LOST.hr                     0:  Lost Rig Time 
 LSTM.      12.33.04 28-Jun-20:  Log Start Time 
 MDCL.ppm             49500.00:  Mud Chlorides 
 MDES.     Inversion Oil/Synthetic:  Mud Desc 
 DFD .sg                  1.46:  Mud Density 
 MDMN.sg                  1.46:  Dens Mud Min 
 MDMX.sg                  1.46:  Dens Mud Max 
 MOIL.                      70:  Run Mud Oil % 
 MOWR.                   70:30:  Run Mud OWR 
 MSND.                     0.5:  Run Mud Sand % 
 MSOL.                   19.89:  Run Mud Solids% 
 DFV .spqt               72.00:  Mud Viscosity 
 MWOD.in                  9.50:  MWD Tool OD 
 MWSI.                      No:  Serv Intrp, MWD 
 OTIM.hr                146.53:  Time Operating 
 PCON.           Look Like New:  Pad Condition 
 PMAX.psia             2900.00:  Press Op, Max 
 PV  .cP                 38.00:  Mud PV 
 RUN .                     600:  Run Number 
 ROPA.m/hr               22.00:  ROP Avg 
 ROPN.m/hr               10.00:  ROP Min 
 ROPX.m/hr              263.00:  ROP Max 
 RPMA.rpm               155.00:  RPM Surface Avg 
 RPMN.rpm               140.00:  RPM Surface Min 
 RPMX.rpm               160.00:  RPM Surface Max 
 RRUN.                    0600:  Rig Run Number 
 RTIM.hr                  5.00:  Time Reaming 
 SAZI.deg               300.08:  Azm, Start 
 SDEP.m                 800.00:  Start Depth 
 SIDD.                      No:  Serv Intrp, DD 
 SINC.deg                22.84:  Inc, Start 
 SPPA.psig             3000.00:  SPP Avg 
 SPPN.psig             1900.00:  SPP Min 
 SPPX.psig             3200.00:  SPP Max 
 STIM.      12.30.04 28-Jun-20:  Start Time 
 SVCS.                 DD, MWD:  Services 
 SVER.                    9.20:  Sperry Version 
 TDAT.m                1952.00:  Tot Depth Attmp 
 TDDF.                      No:  Trip for DD 
 TDLG.m                1152.00:  Tot Depth Loggd 
 TFF .                      No:  Trip for Fail 
 TQAA.f-kp                8.00:  Torque Abs Avg 
 TQAN.f-kp                5.00:  Torque Abs Min 
 TQAX.f-kp               14.00:  Torque Abs Max 
 TRRT.°/30m               0.50:  Turn Rotating 
 MRT .                  EWR-M5:  Maximum Recorded Temperature 
 TTMX.degC               69.00:  Max Tool Temp 
 VS01.                90610313:  Virtual Str1 SN 
 VS02.                90613431:  Virtual Str2 SN 
 VS03.                90615410:  Virtual Str3 SN 
 WBMN.klb                 6.00:  WOB Min 
 WITN.            Bruce Cheyne:  Customer Rep 
 WITN.             Ayaz Aliyev:  Customer Rep 2 
 WOBA.klb                 6.00:  WOB Avg 
 WOBX.klb                10.00:  WOB Max 
 YP  .lhf2               36.00:  Yield Point 
~Curve Information Block
#MNEM.UNIT                 API CODE     Curve Description
#---------               -----------    ---------------------------
 TIME.HHMMSS            00 000 000 000:  GT Time & Date
 GTET.sec               00 000 000 000:  GT Elapsed Test Time
 GTPQH.psia             00 000 000 000:  GT HR Quartz Pressure
 GTDEPTH.m              00 000 000 000:  GT Depth
 GTTVD.m                00 000 000 000:  GT True Vertical Depth
 GTTQ.degC              00 000 000 000:  GT Quartz Temperature
 GTTN.NONE              00 000 000 000:  GT Test Number
#Other Information
#
#WARRANTY: Halliburton will use its best efforts to furnish customers with 
#accurate information and interpretations that are part of, and incident to, the services 
#provided.  However, Halliburton cannot and does not warrant the accuracy 
#or correctness of such information and interpretations.  Under no circumstances should any 
#such information or interpretation be relied upon as the sole basis for any drilling, 
#completion, production, or financial decision or any procedure involving any risk to the 
#safety of any drilling venture, drilling rig or its crew or any other third party.  The 
#Customer has full responsibility for all drilling, completion and production operation.  
#Halliburton makes no representations or warranties, either expressed or 
#implied, including, but not limited to, the implied warranties of merchantability or fitness 
#for a particular purpose, with respect to the services rendered.  In no event will 
#Halliburton be liable for failure to obtain any particular results or for 
#any damages, including, but not limited to, indirect, special or consequential damages, 
#resulting from the use of any information or interpretation provided by Halliburton.
#
~A           TIME            GTET   GTPQH  GTDEPTH  GTTVD  GTTQ  GTTN 
# ...
   23:38:37.625.30-Jun-2020 483.14 2110.00 1161.05 1096.50 59.68 4.00
   23:38:37.826.30-Jun-2020 483.34 2110.00 1161.05 1096.50 59.68 4.00
   23:38:38.026.30-Jun-2020 483.54 2110.00 1161.05 1096.50 59.68 4.00
   23:38:38.226.30-Jun-2020 483.74 2110.00 1161.05 1096.50 59.68 4.00
   23:38:38.426.30-Jun-2020 483.94 2109.99 1161.05 1096.50 59.68 4.00
   23:38:38.626.30-Jun-2020 484.14 2110.00 1161.05 1096.50 59.68 4.00
   23:38:38.826.30-Jun-2020 484.34 2110.00 1161.05 1096.50 59.68 4.00
   23:38:39.026.30-Jun-2020 484.54 2109.99 1161.05 1096.50 59.68 4.00
   23:38:39.226.30-Jun-2020 484.74 2110.00 1161.05 1096.50 59.68 4.00
   23:38:39.426.30-Jun-2020 484.94 2110.00 1161.05 1096.50 59.68 4.00
   23:38:39.626.30-Jun-2020 485.14 2110.00 1161.05 1096.50 59.68 4.00
   23:38:39.826.30-Jun-2020 485.34 2110.00 1161.05 1096.50 59.68 4.00
   23:38:40.026.30-Jun-2020 485.54 2109.99 1161.05 1096.50 59.68 4.00
   23:38:40.226.30-Jun-2020 485.74 2109.97 1161.05 1096.50 59.68 4.00
   23:38:40.426.30-Jun-2020 485.94 2110.00 1161.05 1096.50 59.68 4.00
   23:38:40.626.30-Jun-2020 486.14 2110.00 1161.05 1096.50 59.68 4.00
   23:38:40.826.30-Jun-2020 486.34 2110.00 1161.05 1096.50 59.68 4.00
   23:38:41.026.30-Jun-2020 486.54 2110.00 1161.05 1096.50 59.68 4.00
   23:38:41.227.30-Jun-2020 486.74 2109.98 1161.05 1096.50 59.68 4.00
   23:38:41.427.30-Jun-2020 486.94 2109.99 1161.05 1096.50 59.68 4.00
   23:38:41.627.30-Jun-2020 487.14 2109.99 1161.05 1096.50 59.68 4.00
   23:38:41.827.30-Jun-2020 487.34 2109.99 1161.05 1096.50 59.68 4.00
   23:38:42.027.30-Jun-2020 487.54 2110.00 1161.05 1096.50 59.68 4.00
   23:38:42.227.30-Jun-2020 487.74 2109.99 1161.05 1096.50 59.68 4.00
   23:38:42.427.30-Jun-2020 487.94 2109.99 1161.05 1096.50 59.68 4.00
   23:38:42.627.30-Jun-2020 488.14 2109.98 1161.05 1096.50 59.68 4.00
   23:38:42.827.30-Jun-2020 488.34 2109.98 1161.05 1096.50 59.68 4.00
   23:38:43.027.30-Jun-2020 488.54 2110.01 1161.05 1096.50 59.68 4.00
   23:38:43.227.30-Jun-2020 488.74 2110.00 1161.05 1096.50 59.68 4.00
   23:38:43.427.30-Jun-2020 488.94 2110.00 1161.05 1096.50 59.67 4.00
   23:38:43.627.30-Jun-2020 489.14 2109.97 1161.05 1096.50 59.68 4.00
   23:38:43.827.30-Jun-2020 489.34 2109.97 1161.05 1096.50 59.68 4.00
   23:38:44.027.30-Jun-2020 489.54 2110.02 1161.05 1096.50 59.68 4.00
   23:38:44.227.30-Jun-2020 489.74 2110.00 1161.05 1096.50 59.67 4.00
   23:38:44.427.30-Jun-2020 489.94 2110.00 1161.05 1096.50 59.67 4.00
   23:38:44.628.30-Jun-2020 490.14 2109.98 1161.05 1096.50 59.68 4.00
   23:38:44.828.30-Jun-2020 490.34 2109.96 1161.05 1096.50 59.68 4.00
   23:38:45.028.30-Jun-2020 490.54 2109.99 1161.05 1096.50 59.67 4.00
   23:38:45.228.30-Jun-2020 490.74 2110.00 1161.05 1096.50 59.67 4.00
   23:38:45.428.30-Jun-2020 490.94 2109.98 1161.05 1096.50 59.67 4.00
   23:38:45.628.30-Jun-2020 491.14 2109.99 1161.05 1096.50 59.68 4.00
   23:38:45.828.30-Jun-2020 491.34 2110.00 1161.05 1096.50 59.67 4.00
   23:38:46.028.30-Jun-2020 491.54 2109.99 1161.05 1096.50 59.67 4.00
   23:38:46.228.30-Jun-2020 491.74 2109.96 1161.05 1096.50 59.67 4.00
   23:38:46.428.30-Jun-2020 491.94 2109.99 1161.05 1096.50 59.67 4.00
   23:38:46.628.30-Jun-2020 492.14 2110.00 1161.05 1096.50 59.67 4.00
   23:38:46.828.30-Jun-2020 492.34 2110.00 1161.05 1096.50 59.67 4.00
   23:38:47.028.30-Jun-2020 492.54 2110.00 1161.05 1096.50 59.67 4.00
   23:38:47.228.30-Jun-2020 492.74 2109.99 1161.05 1096.50 59.67 4.00
   23:38:47.428.30-Jun-2020 492.94 2109.98 1161.05 1096.50 59.67 4.00
   23:38:47.628.30-Jun-2020 493.14 2110.00 1161.05 1096.50 59.67 4.00
   23:38:47.828.30-Jun-2020 493.34 2110.00 1161.05 1096.50 59.67 4.00
   23:38:48.029.30-Jun-2020 493.54 2110.01 1161.05 1096.50 59.67 4.00
   23:38:48.229.30-Jun-2020 493.74 2110.02 1161.05 1096.50 59.67 4.00
   23:38:48.429.30-Jun-2020 493.94 2109.99 1161.05 1096.50 59.67 4.00
   23:38:48.629.30-Jun-2020 494.14 2110.00 1161.05 1096.50 59.67 4.00
   23:38:48.829.30-Jun-2020 494.34 2110.00 1161.05 1096.50 59.67 4.00
   23:38:49.029.30-Jun-2020 494.54 2109.99 1161.05 1096.50 59.67 4.00
   23:38:49.229.30-Jun-2020 494.74 2110.00 1161.05 1096.50 59.67 4.00
   23:38:49.429.30-Jun-2020 494.94 2110.00 1161.05 1096.50 59.67 4.00
   23:38:49.629.30-Jun-2020 495.14 2110.00 1161.05 1096.50 59.67 4.00
   23:38:49.829.30-Jun-2020 495.34 2109.99 1161.05 1096.50 59.67 4.00
   23:38:50.029.30-Jun-2020 495.54 2109.97 1161.05 1096.50 59.67 4.00
   23:38:50.229.30-Jun-2020 495.74 2110.01 1161.05 1096.50 59.67 4.00
   23:38:50.429.30-Jun-2020 495.94 2110.01 1161.05 1096.50 59.67 4.00
   23:38:50.629.30-Jun-2020 496.14 2109.99 1161.05 1096.50 59.67 4.00
   23:38:50.829.30-Jun-2020 496.34 2109.99 1161.05 1096.50 59.67 4.00
   23:38:51.029.30-Jun-2020 496.54 2109.99 1161.05 1096.50 59.67 4.00
   23:38:51.229.30-Jun-2020 496.74 2110.65 1161.05 1096.50 59.67 4.00
   23:38:51.429.30-Jun-2020 496.94 2095.78 1161.05 1096.50 59.67 4.00
   23:38:51.630.30-Jun-2020 497.14 2091.12 1161.05 1096.50 59.67 4.00
   23:38:51.830.30-Jun-2020 497.34 2091.12 1161.05 1096.50 59.67 4.00
   23:38:52.030.30-Jun-2020 497.54 2185.76 1161.05 1096.50 59.67 4.00
   23:38:52.230.30-Jun-2020 497.74 2217.86 1161.05 1096.50 59.67 4.00
   23:38:52.430.30-Jun-2020 497.94 2238.78 1161.05 1096.50 59.67 4.00
   23:38:52.630.30-Jun-2020 498.14 2260.24 1161.05 1096.50 59.67 4.00
   23:38:52.830.30-Jun-2020 498.34 2260.24 1161.05 1096.50 59.67 4.00
   23:38:53.030.30-Jun-2020 498.54 2302.12 1161.05 1096.50 59.67 4.00
   23:38:53.230.30-Jun-2020 498.74 2318.63 1161.05 1096.50 59.67 4.00
   23:38:53.430.30-Jun-2020 498.94 2319.45 1161.05 1096.50 59.67 4.00
   23:38:53.630.30-Jun-2020 499.15 2318.20 1161.05 1096.50 59.67 4.00
   23:38:53.830.30-Jun-2020 499.35 2319.45 1161.05 1096.50 59.67 4.00
   23:38:54.030.30-Jun-2020 499.55 2320.11 1161.05 1096.50 59.67 4.00
   23:38:54.230.30-Jun-2020 499.75 2320.19 1161.05 1096.50 59.68 4.00
   23:38:54.430.30-Jun-2020 499.95 2320.68 1161.05 1096.50 59.68 4.00
   23:38:54.630.30-Jun-2020 500.15 2319.83 1161.05 1096.50 59.68 4.00
   23:38:54.830.30-Jun-2020 500.35 2319.83 1161.05 1096.50 59.68 4.00
   23:38:55.031.30-Jun-2020 500.55 2321.12 1161.05 1096.50 59.68 4.00
   23:38:55.231.30-Jun-2020 500.75 2321.98 1161.05 1096.50 59.68 4.00
   23:38:55.431.30-Jun-2020 500.95 2322.02 1161.05 1096.50 59.68 4.00
   23:38:55.631.30-Jun-2020 501.15 2321.46 1161.05 1096.50 59.68 4.00
   23:38:55.831.30-Jun-2020 501.35 2321.46 1161.05 1096.50 59.68 4.00
   23:38:56.031.30-Jun-2020 501.55 2319.18 1161.05 1096.50 59.68 4.00
   23:38:56.231.30-Jun-2020 501.75 2320.48 1161.05 1096.50 59.68 4.00
   23:38:56.431.30-Jun-2020 501.95 2322.39 1161.05 1096.50 59.68 4.00
   23:38:56.631.30-Jun-2020 502.15 2322.50 1161.05 1096.50 59.68 4.00
   23:38:56.831.30-Jun-2020 502.35 2322.50 1161.05 1096.50 59.68 4.00
   23:38:57.031.30-Jun-2020 502.55 2321.30 1161.05 1096.50 59.68 4.00
   23:38:57.231.30-Jun-2020 502.75 2321.45 1161.05 1096.50 59.68 4.00
   23:38:57.431.30-Jun-2020 502.95 2320.59 1161.05 1096.50 59.68 4.00
   23:38:57.631.30-Jun-2020 503.15 2321.76 1161.05 1096.50 59.68 4.00
   23:38:57.831.30-Jun-2020 503.35 2321.82 1161.05 1096.50 59.68 4.00
   23:38:58.031.30-Jun-2020 503.55 2320.89 1161.05 1096.50 59.68 4.00
   23:38:58.231.30-Jun-2020 503.75 2320.67 1161.05 1096.50 59.68 4.00
   23:38:58.432.30-Jun-2020 503.95 2320.35 1161.05 1096.50 59.68 4.00
   23:38:58.632.30-Jun-2020 504.15 2320.34 1161.05 1096.50 59.68 4.00
   23:38:58.832.30-Jun-2020 504.35 2320.34 1161.05 1096.50 59.68 4.00
   23:38:59.032.30-Jun-2020 504.55 2321.66 1161.05 1096.50 59.68 4.00
   23:38:59.232.30-Jun-2020 504.75 2320.79 1161.05 1096.50 59.68 4.00
   23:38:59.432.30-Jun-2020 504.95 2320.40 1161.05 1096.50 59.68 4.00
   23:38:59.632.30-Jun-2020 505.15 2319.93 1161.05 1096.50 59.68 4.00
   23:38:59.832.30-Jun-2020 505.35 2318.10 1161.05 1096.50 59.68 4.00
   23:39:00.032.30-Jun-2020 505.55 2320.44 1161.05 1096.50 59.68 4.00
   23:39:00.232.30-Jun-2020 505.75 2320.63 1161.05 1096.50 59.68 4.00
   23:39:00.432.30-Jun-2020 505.95 2320.15 1161.05 1096.50 59.68 4.00
