~Version Information
 VERS.                  2.0:   CWLS log ASCII Standard -VERSION 2.0
 WRAP.                   NO:   One line per depth step
~Well Information Block
#MNEM.UNIT     VALUE/NAME     DESCRIPTION
#---------     -----------    ---------------------------
 STRT.S             04:11:34 02-Jul-20: START TIME 04:11:34 02-Jul-20
 STOP.S             04:20:35 02-Jul-20: STOP TIME  04:20:35 02-Jul-20
 STEP.S                   0.00: STEP TIME
 NULL.                 -999.25: NULL VALUE
 DFWT.                        :  DIST FWL TEXT
 DFST.                        :  DIST FSL TEXT
 DMF .             Drill Floor:  DRILL MEAS FROM
 STIM.      09.59.28 01-Jun-20:  START TIME
 DATE.      09.59.28 01-Jun-20:  END TIME
 SPUD.               01-Jun-20:  SPUD DATE
 NREF.                    Grid:  NORTH REFERENCE
 HPTY.       Minimum Curvature:  HOLE POS TYPE
 DMOD.             Drill Model:  DRILL MOD DESC
 SVYD.                  Survey:  SURVEY DESC
 ILTD.               Lithology:  INTERP LTH DESC
 FTOP.          Formation Tops:  FORM TOPS DESC
 SON .        AZ-XX-0905455768:  JOB NUMBER
 WTYP.                Deviated:  WELL TYPE
 COMP.     BP Exploration(Caspian Sea):  COMPANY
 BASE.              Azerbaijan:  LOGGING EQUIPMENT BASE LOCATION
 REGN.                   EESSA:  REGION
 CTRY.              Azerbaijan:  COUNTRY NAME
 FLD .                     ACG:  FIELD NAME
 SRVC.          Turan Drilling:  CONTRACTOR
 WELL.                     B41:  WELL NAME
 RIG .           Central Azeri:  RIG NAME
 DCON.         Sperry Drilling:  DIRECTNL CONTR
 PDAT.          Mean Sea Level:  PERMANENT DATUM
 MDS .        Operator Entered:  MAG DATA SOURCE
 API .                        :  API NUMBER
 CNTY.                        :  COUNTY
 PROV.                        :  PROVINCE
 STAT.                        :  STATE
 UWI .                        :  UNIQUE WELL IDENTIFIER
 LOC .                        :  LOCATION
 LMF .             Drill Floor:  LOG MEASURED FROM
 TVDS.m                  43.29:  TVDSS CORRECTN
 LATI.deg                40.03:  LATITUDE
 LONG.deg                51.35:  LONGITUDE
 WHNS.m                  12.98:  WELL HEAD N/S
 WHEW.m                  -6.62:  WELL HEAD E/W
 UTMX.m              530128.28:  UTM X
 UTMY.m             4433192.49:  UTM Y
 DFWL.m                   0.00:  DISTANCE FWL
 DFSL.m                   0.00:  DISTANCE FSL
 SDEP.m                 378.00:  START DEPTH
 TDD .m                   0.00:  TOTAL DEPTH (DRILLER)
 VSDR.deg               296.18:  VERT SEC DIRECT
 GVFD.g                   1.00:  GRAVITY FIELD
 MFLD.nT              50253.00:  MAGNETIC FIELD
 MDIP.deg                59.49:  MAGNETIC DIP
 MDEC.deg                 6.44:  MAGNETIC DECL
 GRDC.deg                 0.22:  GRID CORRECTION
 AZTC.deg                 6.22:  AZM TOTAL CORR
 EPD .m                   0.00:  ELEVATION
 EGL .m                   0.00:  GROUND ELEVATION
 WDMS.m                 128.20:  WD ELEV
 APD .m                  43.29:  DEPTH ABOVE PD
 AGAP.m                  43.29:  AIR GAP
 VSEW.m                  -6.62:  VERT SEC E/W
 VSNS.m                  12.98:  VERT SEC N/S
 EKB .m                  43.29:  KB ELEVATION
 EDF .m                  43.29:  DF ELEVATION
 TDL .m                1152.00:  TOTAL DEPTH (LOGGER)
 VSC .                       0:  VS TO CLOSURE
 MAGU.                 1848525:  MAGUTM CHECKSUM
~Parameter Information Block
#MNEM.UNIT       Value        Description
#---------     -----------    ---------------------------
 AV  .mps                 0.40:  Ann Velocity 
 AVMX.mps                 1.56:  Max Ann Veloc 
 AZIF.deg               300.46:  Azm, Final 
 BHAT.        Rotary Steerable:  BHA Type 
 BROT.°/30m               0.40:  Build Rotating 
 BS  .in                 17.50:  Bit Size 
 BSZ .in                 17.50:  Bit Size 
 BTPL.psig              300.00:  Bit Press Loss 
 CABU.                      No:  Customer Abuse 
 CGEO.          Parviz Guliyev:  Customer Geo 
 TCS .hr                108.13:  Time Ciculation Ended 
 CV  .mps                 0.50:  Crit Velocity 
 CVMX.mps                 2.01:  Max Crit Veloc 
 DD1 .          Fariz Nahmatov:  Direct Drillr 1 
 DD2 .             Ehab Radwan:  Direct Drillr 2 
 DDSV.               Geo-Pilot:  DD Service 
 DEFF.%                  99.00:  % Det Eff 
 DLRX.°/30m               0.50:  Dogleg Rot Max 
 DLSO.°/30m               2.80:  Dogleg Oriented 
 DLSX.°/30m               3.90:  Dogleg Str Max 
 DRET.      09.30.04 03-Jul-20:  Drill End Time 
 DRST.      18.33.04 28-Jun-20:  Drill Start Tim 
 DTIM.hr                 55.83:  Time Drilling 
 EDEP.m                1952.00:  End Depth 
 ENG1.      Bakhtiyar Jabbarli:  Engineer 1 
 ENG2.         Farhad Orujzade:  Engineer 2 
 ENG3.          Rustam Safarov:  Engineer 3 
 ETIM.      01.33.04 04-Jul-20:  End Time 
 FLOI.gpm              1050.00:  Flow In 
 FLON.gpm               950.00:  Flow In Min 
 FLOS.cptm                0.10:  Fluid Loss 
 FLOX.gpm              1150.00:  Flow In Max 
 HFLO.                      No:  High Flow 
 HPRE.                      No:  High Pressure 
 HTEM.                      No:  High Temp 
 HYDO.m                   1.80:  Hydro Offset 
 IFIN.deg                75.26:  Inc, Final 
 IMAX.deg                75.38:  Inc Max 
 IMIN.deg                22.84:  Inc Min 
 IMND.m                 832.38:  Inc Min Depth 
 IMXD.m                1936.55:  Inc Max Depth 
 JARR.                      No:  Jarring 
 LETM.      17.40.00 04-Jul-20:  Log End Time 
 LOST.hr                     0:  Lost Rig Time 
 LSTM.      12.33.04 28-Jun-20:  Log Start Time 
 MDCL.ppm             49500.00:  Mud Chlorides 
 MDES.     Inversion Oil/Synthetic:  Mud Desc 
 DFD .sg                  1.46:  Mud Density 
 MDMN.sg                  1.46:  Dens Mud Min 
 MDMX.sg                  1.46:  Dens Mud Max 
 MOIL.                      70:  Run Mud Oil % 
 MOWR.                   70:30:  Run Mud OWR 
 MSND.                     0.5:  Run Mud Sand % 
 MSOL.                   19.89:  Run Mud Solids% 
 DFV .spqt               72.00:  Mud Viscosity 
 MWOD.in                  9.50:  MWD Tool OD 
 MWSI.                      No:  Serv Intrp, MWD 
 OTIM.hr                146.53:  Time Operating 
 PCON.           Look Like New:  Pad Condition 
 PMAX.psia             2900.00:  Press Op, Max 
 PV  .cP                 38.00:  Mud PV 
 RUN .                     600:  Run Number 
 ROPA.m/hr               22.00:  ROP Avg 
 ROPN.m/hr               10.00:  ROP Min 
 ROPX.m/hr              263.00:  ROP Max 
 RPMA.rpm               155.00:  RPM Surface Avg 
 RPMN.rpm               140.00:  RPM Surface Min 
 RPMX.rpm               160.00:  RPM Surface Max 
 RRUN.                    0600:  Rig Run Number 
 RTIM.hr                  5.00:  Time Reaming 
 SAZI.deg               300.08:  Azm, Start 
 SDEP.m                 800.00:  Start Depth 
 SIDD.                      No:  Serv Intrp, DD 
 SINC.deg                22.84:  Inc, Start 
 SPPA.psig             3000.00:  SPP Avg 
 SPPN.psig             1900.00:  SPP Min 
 SPPX.psig             3200.00:  SPP Max 
 STIM.      12.30.04 28-Jun-20:  Start Time 
 SVCS.                 DD, MWD:  Services 
 SVER.                    9.20:  Sperry Version 
 TDAT.m                1952.00:  Tot Depth Attmp 
 TDDF.                      No:  Trip for DD 
 TDLG.m                1152.00:  Tot Depth Loggd 
 TFF .                      No:  Trip for Fail 
 TQAA.f-kp                8.00:  Torque Abs Avg 
 TQAN.f-kp                5.00:  Torque Abs Min 
 TQAX.f-kp               14.00:  Torque Abs Max 
 TRRT.°/30m               0.50:  Turn Rotating 
 MRT .                  EWR-M5:  Maximum Recorded Temperature 
 TTMX.degC               69.00:  Max Tool Temp 
 VS01.                90610313:  Virtual Str1 SN 
 VS02.                90613431:  Virtual Str2 SN 
 VS03.                90615410:  Virtual Str3 SN 
 WBMN.klb                 6.00:  WOB Min 
 WITN.            Bruce Cheyne:  Customer Rep 
 WITN.             Ayaz Aliyev:  Customer Rep 2 
 WOBA.klb                 6.00:  WOB Avg 
 WOBX.klb                10.00:  WOB Max 
 YP  .lhf2               36.00:  Yield Point 
~Curve Information Block
#MNEM.UNIT                 API CODE     Curve Description
#---------               -----------    ---------------------------
 TIME.HHMMSS            00 000 000 000:  GT Time & Date
 GTET.sec               00 000 000 000:  GT Elapsed Test Time
 GTPQH.psia             00 000 000 000:  GT HR Quartz Pressure
 GTDEPTH.m              00 000 000 000:  GT Depth
 GTTVD.m                00 000 000 000:  GT True Vertical Depth
 GTTQ.degC              00 000 000 000:  GT Quartz Temperature
 GTTN.NONE              00 000 000 000:  GT Test Number
#Other Information
#
#WARRANTY: Halliburton will use its best efforts to furnish customers with 
#accurate information and interpretations that are part of, and incident to, the services 
#provided.  However, Halliburton cannot and does not warrant the accuracy 
#or correctness of such information and interpretations.  Under no circumstances should any 
#such information or interpretation be relied upon as the sole basis for any drilling, 
#completion, production, or financial decision or any procedure involving any risk to the 
#safety of any drilling venture, drilling rig or its crew or any other third party.  The 
#Customer has full responsibility for all drilling, completion and production operation.  
#Halliburton makes no representations or warranties, either expressed or 
#implied, including, but not limited to, the implied warranties of merchantability or fitness 
#for a particular purpose, with respect to the services rendered.  In no event will 
#Halliburton be liable for failure to obtain any particular results or for 
#any damages, including, but not limited to, indirect, special or consequential damages, 
#resulting from the use of any information or interpretation provided by Halliburton.
#
~A           TIME            GTET   GTPQH  GTDEPTH  GTTVD  GTTQ  GTTN 
# ...
   04:14:38.401.02-Jul-2020 184.03 2364.42 1565.98 1276.49 57.91 6.00
   04:14:38.601.02-Jul-2020 184.23 2364.43 1565.98 1276.49 57.91 6.00
   04:14:38.801.02-Jul-2020 184.43 2364.42 1565.98 1276.49 57.91 6.00
   04:14:39.001.02-Jul-2020 184.63 2364.40 1565.98 1276.49 57.91 6.00
   04:14:39.201.02-Jul-2020 184.83 2364.43 1565.98 1276.49 57.91 6.00
   04:14:39.401.02-Jul-2020 185.03 2364.43 1565.98 1276.49 57.91 6.00
   04:14:39.601.02-Jul-2020 185.23 2364.43 1565.98 1276.49 57.91 6.00
   04:14:39.801.02-Jul-2020 185.43 2364.42 1565.98 1276.49 57.91 6.00
   04:14:40.001.02-Jul-2020 185.63 2364.43 1565.98 1276.49 57.91 6.00
   04:14:40.201.02-Jul-2020 185.83 2364.41 1565.98 1276.49 57.92 6.00
   04:14:40.401.02-Jul-2020 186.03 2364.42 1565.98 1276.49 57.92 6.00
   04:14:40.601.02-Jul-2020 186.23 2364.42 1565.98 1276.49 57.92 6.00
   04:14:40.801.02-Jul-2020 186.43 2364.42 1565.98 1276.49 57.92 6.00
   04:14:41.001.02-Jul-2020 186.63 2364.44 1565.98 1276.49 57.92 6.00
   04:14:41.201.02-Jul-2020 186.83 2364.43 1565.98 1276.49 57.92 6.00
   04:14:41.401.02-Jul-2020 187.03 2364.37 1565.98 1276.49 57.92 6.00
   04:14:41.601.02-Jul-2020 187.23 2364.37 1565.98 1276.49 57.92 6.00
   04:14:41.801.02-Jul-2020 187.43 2364.37 1565.98 1276.49 57.92 6.00
   04:14:42.001.02-Jul-2020 187.63 2364.42 1565.98 1276.49 57.92 6.00
   04:14:42.201.02-Jul-2020 187.83 2364.37 1565.98 1276.49 57.92 6.00
   04:14:42.401.02-Jul-2020 188.03 2364.34 1565.98 1276.49 57.92 6.00
   04:14:42.601.02-Jul-2020 188.23 2364.40 1565.98 1276.49 57.92 6.00
   04:14:42.801.02-Jul-2020 188.43 2364.40 1565.98 1276.49 57.92 6.00
   04:14:43.001.02-Jul-2020 188.63 2364.35 1565.98 1276.49 57.92 6.00
   04:14:43.201.02-Jul-2020 188.83 2364.38 1565.98 1276.49 57.92 6.00
   04:14:43.401.02-Jul-2020 189.03 2364.40 1565.98 1276.49 57.92 6.00
   04:14:43.602.02-Jul-2020 189.23 2364.40 1565.98 1276.49 57.92 6.00
   04:14:43.802.02-Jul-2020 189.43 2364.33 1565.98 1276.49 57.93 6.00
   04:14:44.002.02-Jul-2020 189.63 2364.36 1565.98 1276.49 57.93 6.00
   04:14:44.202.02-Jul-2020 189.83 2364.37 1565.98 1276.49 57.93 6.00
   04:14:44.402.02-Jul-2020 190.03 2364.36 1565.98 1276.49 57.93 6.00
   04:14:44.602.02-Jul-2020 190.23 2364.36 1565.98 1276.49 57.93 6.00
   04:14:44.802.02-Jul-2020 190.43 2364.41 1565.98 1276.49 57.93 6.00
   04:14:45.002.02-Jul-2020 190.63 2364.38 1565.98 1276.49 57.93 6.00
   04:14:45.202.02-Jul-2020 190.83 2364.37 1565.98 1276.49 57.93 6.00
   04:14:45.402.02-Jul-2020 191.03 2364.39 1565.98 1276.49 57.93 6.00
   04:14:45.602.02-Jul-2020 191.23 2364.39 1565.98 1276.49 57.93 6.00
   04:14:45.802.02-Jul-2020 191.43 2364.41 1565.98 1276.49 57.93 6.00
   04:14:46.002.02-Jul-2020 191.63 2364.41 1565.98 1276.49 57.93 6.00
   04:14:46.202.02-Jul-2020 191.83 2364.43 1565.98 1276.49 57.93 6.00
   04:14:46.402.02-Jul-2020 192.03 2364.41 1565.98 1276.49 57.93 6.00
   04:14:46.602.02-Jul-2020 192.23 2364.44 1565.98 1276.49 57.93 6.00
   04:14:46.802.02-Jul-2020 192.43 2364.44 1565.98 1276.49 57.93 6.00
   04:14:47.002.02-Jul-2020 192.63 2364.42 1565.98 1276.49 57.93 6.00
   04:14:47.202.02-Jul-2020 192.83 2364.43 1565.98 1276.49 57.94 6.00
   04:14:47.402.02-Jul-2020 193.03 2364.44 1565.98 1276.49 57.94 6.00
   04:14:47.602.02-Jul-2020 193.23 2364.44 1565.98 1276.49 57.94 6.00
   04:14:47.802.02-Jul-2020 193.43 2364.44 1565.98 1276.49 57.94 6.00
   04:14:48.002.02-Jul-2020 193.63 2364.44 1565.98 1276.49 57.94 6.00
   04:14:48.202.02-Jul-2020 193.83 2364.45 1565.98 1276.49 57.94 6.00
   04:14:48.402.02-Jul-2020 194.03 2364.42 1565.98 1276.49 57.94 6.00
   04:14:48.602.02-Jul-2020 194.23 2364.42 1565.98 1276.49 57.94 6.00
   04:14:48.802.02-Jul-2020 194.43 2364.40 1565.98 1276.49 57.94 6.00
   04:14:49.002.02-Jul-2020 194.63 2364.43 1565.98 1276.49 57.94 6.00
   04:14:49.202.02-Jul-2020 194.83 2364.38 1565.98 1276.49 57.94 6.00
   04:14:49.402.02-Jul-2020 195.03 2364.40 1565.98 1276.49 57.94 6.00
   04:14:49.602.02-Jul-2020 195.23 2364.40 1565.98 1276.49 57.94 6.00
   04:14:49.802.02-Jul-2020 195.43 2364.39 1565.98 1276.49 57.94 6.00
   04:14:50.003.02-Jul-2020 195.63 2364.43 1565.98 1276.49 57.94 6.00
   04:14:50.203.02-Jul-2020 195.83 2364.44 1565.98 1276.49 57.94 6.00
   04:14:50.403.02-Jul-2020 196.03 2364.43 1565.98 1276.49 57.94 6.00
   04:14:50.603.02-Jul-2020 196.23 2364.43 1565.98 1276.49 57.94 6.00
   04:14:50.803.02-Jul-2020 196.43 2364.43 1565.98 1276.49 57.95 6.00
   04:14:51.003.02-Jul-2020 196.63 2364.38 1565.98 1276.49 57.95 6.00
   04:14:51.203.02-Jul-2020 196.83 2364.36 1565.98 1276.49 57.95 6.00
   04:14:51.403.02-Jul-2020 197.03 2364.40 1565.98 1276.49 57.95 6.00
   04:14:51.603.02-Jul-2020 197.23 2364.40 1565.98 1276.49 57.95 6.00
   04:14:51.803.02-Jul-2020 197.43 2364.37 1565.98 1276.49 57.95 6.00
   04:14:52.003.02-Jul-2020 197.63 2364.35 1565.98 1276.49 57.95 6.00
   04:14:52.203.02-Jul-2020 197.83 2364.39 1565.98 1276.49 57.95 6.00
   04:14:52.403.02-Jul-2020 198.03 2364.42 1565.98 1276.49 57.95 6.00
   04:14:52.603.02-Jul-2020 198.23 2364.38 1565.98 1276.49 57.95 6.00
   04:14:52.803.02-Jul-2020 198.43 2364.36 1565.98 1276.49 57.95 6.00
   04:14:53.003.02-Jul-2020 198.63 2364.43 1565.98 1276.49 57.95 6.00
   04:14:53.203.02-Jul-2020 198.83 2364.37 1565.98 1276.49 57.95 6.00
   04:14:53.403.02-Jul-2020 199.03 2364.38 1565.98 1276.49 57.95 6.00
   04:14:53.603.02-Jul-2020 199.23 2364.41 1565.98 1276.49 57.95 6.00
   04:14:53.803.02-Jul-2020 199.43 2364.41 1565.98 1276.49 57.95 6.00
   04:14:54.003.02-Jul-2020 199.63 2364.38 1565.98 1276.49 57.95 6.00
   04:14:54.203.02-Jul-2020 199.83 2364.32 1565.98 1276.49 57.95 6.00
   04:14:54.403.02-Jul-2020 200.03 2364.35 1565.98 1276.49 57.96 6.00
   04:14:54.603.02-Jul-2020 200.23 2364.34 1565.98 1276.49 57.96 6.00
   04:14:54.803.02-Jul-2020 200.43 2364.35 1565.98 1276.49 57.96 6.00
   04:14:55.003.02-Jul-2020 200.63 2364.37 1565.98 1276.49 57.96 6.00
   04:14:55.203.02-Jul-2020 200.83 2364.37 1565.98 1276.49 57.96 6.00
   04:14:55.403.02-Jul-2020 201.03 2364.38 1565.98 1276.49 57.96 6.00
   04:14:55.603.02-Jul-2020 201.23 2364.38 1565.98 1276.49 57.96 6.00
   04:14:55.803.02-Jul-2020 201.43 2364.41 1565.98 1276.49 57.96 6.00
   04:14:56.003.02-Jul-2020 201.63 2364.40 1565.98 1276.49 57.96 6.00
   04:14:56.203.02-Jul-2020 201.83 2364.43 1565.98 1276.49 57.96 6.00
   04:14:56.404.02-Jul-2020 202.03 2364.44 1565.98 1276.49 57.96 6.00
   04:14:56.604.02-Jul-2020 202.23 2364.44 1565.98 1276.49 57.96 6.00
   04:14:56.804.02-Jul-2020 202.43 2364.43 1565.98 1276.49 57.96 6.00
   04:14:57.004.02-Jul-2020 202.63 2364.45 1565.98 1276.49 57.96 6.00
   04:14:57.204.02-Jul-2020 202.83 2364.45 1565.98 1276.49 57.96 6.00
   04:14:57.404.02-Jul-2020 203.03 2364.44 1565.98 1276.49 57.96 6.00
   04:14:57.604.02-Jul-2020 203.23 2364.44 1565.98 1276.49 57.96 6.00
   04:14:57.804.02-Jul-2020 203.43 2364.43 1565.98 1276.49 57.96 6.00
   04:14:58.004.02-Jul-2020 203.63 2364.43 1565.98 1276.49 57.97 6.00
   04:14:58.204.02-Jul-2020 203.83 2364.40 1565.98 1276.49 57.97 6.00
   04:14:58.404.02-Jul-2020 204.03 2364.42 1565.98 1276.49 57.97 6.00
   04:14:58.604.02-Jul-2020 204.23 2364.43 1565.98 1276.49 57.97 6.00
   04:14:58.804.02-Jul-2020 204.43 2364.43 1565.98 1276.49 57.97 6.00
   04:14:59.004.02-Jul-2020 204.63 2364.42 1565.98 1276.49 57.97 6.00
   04:14:59.204.02-Jul-2020 204.83 2364.44 1565.98 1276.49 57.97 6.00
   04:14:59.404.02-Jul-2020 205.03 2364.42 1565.98 1276.49 57.97 6.00
   04:14:59.604.02-Jul-2020 205.23 2364.42 1565.98 1276.49 57.97 6.00
   04:14:59.804.02-Jul-2020 205.43 2364.44 1565.98 1276.49 57.97 6.00
   04:15:00.004.02-Jul-2020 205.63 2364.41 1565.98 1276.49 57.97 6.00
   04:15:00.204.02-Jul-2020 205.83 2364.38 1565.98 1276.49 57.97 6.00
   04:15:00.404.02-Jul-2020 206.03 2364.43 1565.98 1276.49 57.97 6.00
   04:15:00.604.02-Jul-2020 206.23 2364.43 1565.98 1276.49 57.97 6.00
   04:15:00.804.02-Jul-2020 206.43 2364.37 1565.98 1276.49 57.97 6.00
   04:15:01.004.02-Jul-2020 206.63 2364.42 1565.98 1276.49 57.97 6.00
   04:15:01.204.02-Jul-2020 206.83 2364.40 1565.98 1276.49 57.97 6.00
