~Version Information
 VERS.                  2.0:   CWLS log ASCII Standard -VERSION 2.0
 WRAP.                   NO:   One line per depth step
~Well Information Block
#MNEM.UNIT     VALUE/NAME     DESCRIPTION
#---------     -----------    ---------------------------
 STRT.S             16:00:06 29-Jun-20: START TIME 16:00:06 29-Jun-20
 STOP.S             16:09:07 29-Jun-20: STOP TIME  16:09:07 29-Jun-20
 STEP.S                   0.00: STEP TIME
 NULL.                 -999.25: NULL VALUE
 DFWT.                        :  DIST FWL TEXT
 DFST.                        :  DIST FSL TEXT
 DMF .             Drill Floor:  DRILL MEAS FROM
 STIM.      09.59.28 01-Jun-20:  START TIME
 DATE.      09.59.28 01-Jun-20:  END TIME
 SPUD.               01-Jun-20:  SPUD DATE
 NREF.                    Grid:  NORTH REFERENCE
 HPTY.       Minimum Curvature:  HOLE POS TYPE
 DMOD.             Drill Model:  DRILL MOD DESC
 SVYD.                  Survey:  SURVEY DESC
 ILTD.               Lithology:  INTERP LTH DESC
 FTOP.          Formation Tops:  FORM TOPS DESC
 SON .        AZ-XX-0905455768:  JOB NUMBER
 WTYP.                Deviated:  WELL TYPE
 COMP.     BP Exploration(Caspian Sea):  COMPANY
 BASE.              Azerbaijan:  LOGGING EQUIPMENT BASE LOCATION
 REGN.                   EESSA:  REGION
 CTRY.              Azerbaijan:  COUNTRY NAME
 FLD .                     ACG:  FIELD NAME
 SRVC.          Turan Drilling:  CONTRACTOR
 WELL.                     B41:  WELL NAME
 RIG .           Central Azeri:  RIG NAME
 DCON.         Sperry Drilling:  DIRECTNL CONTR
 PDAT.          Mean Sea Level:  PERMANENT DATUM
 MDS .        Operator Entered:  MAG DATA SOURCE
 API .                        :  API NUMBER
 CNTY.                        :  COUNTY
 PROV.                        :  PROVINCE
 STAT.                        :  STATE
 UWI .                        :  UNIQUE WELL IDENTIFIER
 LOC .                        :  LOCATION
 LMF .             Drill Floor:  LOG MEASURED FROM
 TVDS.m                  43.29:  TVDSS CORRECTN
 LATI.deg                40.03:  LATITUDE
 LONG.deg                51.35:  LONGITUDE
 WHNS.m                  12.98:  WELL HEAD N/S
 WHEW.m                  -6.62:  WELL HEAD E/W
 UTMX.m              530128.28:  UTM X
 UTMY.m             4433192.49:  UTM Y
 DFWL.m                   0.00:  DISTANCE FWL
 DFSL.m                   0.00:  DISTANCE FSL
 SDEP.m                 378.00:  START DEPTH
 TDD .m                   0.00:  TOTAL DEPTH (DRILLER)
 VSDR.deg               296.18:  VERT SEC DIRECT
 GVFD.g                   1.00:  GRAVITY FIELD
 MFLD.nT              50253.00:  MAGNETIC FIELD
 MDIP.deg                59.49:  MAGNETIC DIP
 MDEC.deg                 6.44:  MAGNETIC DECL
 GRDC.deg                 0.22:  GRID CORRECTION
 AZTC.deg                 6.22:  AZM TOTAL CORR
 EPD .m                   0.00:  ELEVATION
 EGL .m                   0.00:  GROUND ELEVATION
 WDMS.m                 128.20:  WD ELEV
 APD .m                  43.29:  DEPTH ABOVE PD
 AGAP.m                  43.29:  AIR GAP
 VSEW.m                  -6.62:  VERT SEC E/W
 VSNS.m                  12.98:  VERT SEC N/S
 EKB .m                  43.29:  KB ELEVATION
 EDF .m                  43.29:  DF ELEVATION
 TDL .m                1152.00:  TOTAL DEPTH (LOGGER)
 VSC .                       0:  VS TO CLOSURE
 MAGU.                 1848525:  MAGUTM CHECKSUM
~Parameter Information Block
#MNEM.UNIT       Value        Description
#---------     -----------    ---------------------------
 AV  .mps                 0.40:  Ann Velocity 
 AVMX.mps                 1.56:  Max Ann Veloc 
 AZIF.deg               300.46:  Azm, Final 
 BHAT.        Rotary Steerable:  BHA Type 
 BROT.∞/30m               0.40:  Build Rotating 
 BS  .in                 17.50:  Bit Size 
 BSZ .in                 17.50:  Bit Size 
 BTPL.psig              300.00:  Bit Press Loss 
 CABU.                      No:  Customer Abuse 
 CGEO.          Parviz Guliyev:  Customer Geo 
 COMM.                     ,‘Å:  Run Comments 1 
 TCS .hr                108.13:  Time Ciculation Ended 
 CV  .mps                 0.50:  Crit Velocity 
 CVMX.mps                 2.01:  Max Crit Veloc 
 DD1 .          Fariz Nahmatov:  Direct Drillr 1 
 DD2 .             Ehab Radwan:  Direct Drillr 2 
 DDSV.               Geo-Pilot:  DD Service 
 DEFF.%                  99.00:  % Det Eff 
 DLRX.∞/30m               0.50:  Dogleg Rot Max 
 DLSO.∞/30m               2.80:  Dogleg Oriented 
 DLSX.∞/30m               3.90:  Dogleg Str Max 
 DRET.      09.30.04 03-Jul-20:  Drill End Time 
 DRST.      18.33.04 28-Jun-20:  Drill Start Tim 
 DTIM.hr                 55.83:  Time Drilling 
 EDEP.m                1952.00:  End Depth 
 ENG1.      Bakhtiyar Jabbarli:  Engineer 1 
 ENG2.         Farhad Orujzade:  Engineer 2 
 ENG3.          Rustam Safarov:  Engineer 3 
 ETIM.      01.33.04 04-Jul-20:  End Time 
 FLOI.gpm              1050.00:  Flow In 
 FLON.gpm               950.00:  Flow In Min 
 FLOS.cptm                0.10:  Fluid Loss 
 FLOX.gpm              1150.00:  Flow In Max 
 HFLO.                      No:  High Flow 
 HPRE.                      No:  High Pressure 
 HTEM.                      No:  High Temp 
 HYDO.m                   1.80:  Hydro Offset 
 IFIN.deg                75.26:  Inc, Final 
 IMAX.deg                75.38:  Inc Max 
 IMIN.deg                22.84:  Inc Min 
 IMND.m                 832.38:  Inc Min Depth 
 IMXD.m                1936.55:  Inc Max Depth 
 JARR.                      No:  Jarring 
 LETM.      17.40.00 04-Jul-20:  Log End Time 
 LOST.hr                     0:  Lost Rig Time 
 LSTM.      12.33.04 28-Jun-20:  Log Start Time 
 MDCL.ppm             49500.00:  Mud Chlorides 
 MDES.     Inversion Oil/Synthetic:  Mud Desc 
 DFD .sg                  1.46:  Mud Density 
 MDMN.sg                  1.46:  Dens Mud Min 
 MDMX.sg                  1.46:  Dens Mud Max 
 MOIL.                      70:  Run Mud Oil % 
 MOWR.                   70:30:  Run Mud OWR 
 MSND.                     0.5:  Run Mud Sand % 
 MSOL.                   19.89:  Run Mud Solids% 
 DFV .spqt               72.00:  Mud Viscosity 
 MWOD.in                  9.50:  MWD Tool OD 
 MWSI.                      No:  Serv Intrp, MWD 
 OTIM.hr                146.53:  Time Operating 
 PCON.           Look Like New:  Pad Condition 
 PMAX.psia             2900.00:  Press Op, Max 
 PV  .cP                 38.00:  Mud PV 
 RUN .                     600:  Run Number 
 ROPA.m/hr               22.00:  ROP Avg 
 ROPN.m/hr               10.00:  ROP Min 
 ROPX.m/hr              263.00:  ROP Max 
 RPMA.rpm               155.00:  RPM Surface Avg 
 RPMN.rpm               140.00:  RPM Surface Min 
 RPMX.rpm               160.00:  RPM Surface Max 
 RRUN.                    0600:  Rig Run Number 
 RTIM.hr                  5.00:  Time Reaming 
 SAZI.deg               300.08:  Azm, Start 
 SDEP.m                 800.00:  Start Depth 
 SIDD.                      No:  Serv Intrp, DD 
 SINC.deg                22.84:  Inc, Start 
 SPPA.psig             3000.00:  SPP Avg 
 SPPN.psig             1900.00:  SPP Min 
 SPPX.psig             3200.00:  SPP Max 
 STIM.      12.30.04 28-Jun-20:  Start Time 
 SVCS.                 DD, MWD:  Services 
 SVER.                    9.20:  Sperry Version 
 TDAT.m                1952.00:  Tot Depth Attmp 
 TDDF.                      No:  Trip for DD 
 TDLG.m                1152.00:  Tot Depth Loggd 
 TFF .                      No:  Trip for Fail 
 TQAA.f-kp                8.00:  Torque Abs Avg 
 TQAN.f-kp                5.00:  Torque Abs Min 
 TQAX.f-kp               14.00:  Torque Abs Max 
 TRRT.∞/30m               0.50:  Turn Rotating 
 MRT .                  EWR-M5:  Maximum Recorded Temperature 
 TTMX.degC               69.00:  Max Tool Temp 
 VS01.                90610313:  Virtual Str1 SN 
 VS02.                90613431:  Virtual Str2 SN 
 VS03.                90615410:  Virtual Str3 SN 
 WBMN.klb                 6.00:  WOB Min 
 WITN.            Bruce Cheyne:  Customer Rep 
 WITN.             Ayaz Aliyev:  Customer Rep 2 
 WOBA.klb                 6.00:  WOB Avg 
 WOBX.klb                10.00:  WOB Max 
 YP  .lhf2               36.00:  Yield Point 
~Curve Information Block
#MNEM.UNIT                 API CODE     Curve Description
#---------               -----------    ---------------------------
 TIME.HHMMSS            00 000 000 000:  GT Time & Date
 GTET.sec               00 000 000 000:  GT Elapsed Test Time
 GTPQH.psia             00 000 000 000:  GT HR Quartz Pressure
 GTDEPTH.m              00 000 000 000:  GT Depth
 GTTVD.m                00 000 000 000:  GT True Vertical Depth
 GTTQ.degC              00 000 000 000:  GT Quartz Temperature
 GTTN.NONE              00 000 000 000:  GT Test Number
#Other Information
#
#WARRANTY: Halliburton will use its best efforts to furnish customers with 
#accurate information and interpretations that are part of, and incident to, the services 
#provided.  However, Halliburton cannot and does not warrant the accuracy 
#or correctness of such information and interpretations.  Under no circumstances should any 
#such information or interpretation be relied upon as the sole basis for any drilling, 
#completion, production, or financial decision or any procedure involving any risk to the 
#safety of any drilling venture, drilling rig or its crew or any other third party.  The 
#Customer has full responsibility for all drilling, completion and production operation.  
#Halliburton makes no representations or warranties, either expressed or 
#implied, including, but not limited to, the implied warranties of merchantability or fitness 
#for a particular purpose, with respect to the services rendered.  In no event will 
#Halliburton be liable for failure to obtain any particular results or for 
#any damages, including, but not limited to, indirect, special or consequential damages, 
#resulting from the use of any information or interpretation provided by Halliburton.
#
~A           TIME            GTET   GTPQH  GTDEPTH GTTVD  GTTQ  GTTN 
   16:00:06.452.29-Jun-2020   0.00 -999.25  873.30 856.96 65.75 1.00
   16:00:06.652.29-Jun-2020   0.20    0.00  873.30 856.96 65.75 1.00
   16:00:06.852.29-Jun-2020   0.40    0.00  873.30 856.96 65.75 1.00
   16:00:07.052.29-Jun-2020   0.60 1801.93  873.30 856.96 65.75 1.00
   16:00:07.252.29-Jun-2020   0.80 1801.67  873.30 856.96 65.75 1.00
   16:00:07.452.29-Jun-2020   1.00 1798.75  873.30 856.96 65.75 1.00
   16:00:07.652.29-Jun-2020   1.20 1798.75  873.30 856.96 65.75 1.00
   16:00:07.852.29-Jun-2020   1.40 1794.21  873.30 856.96 65.75 1.00
   16:00:08.052.29-Jun-2020   1.60 1794.36  873.30 856.96 65.75 1.00
   16:00:08.252.29-Jun-2020   1.80 1792.37  873.30 856.96 65.75 1.00
   16:00:08.452.29-Jun-2020   2.00 1793.01  873.30 856.96 65.75 1.00
   16:00:08.652.29-Jun-2020   2.20 1793.01  873.30 856.96 65.75 1.00
   16:00:08.852.29-Jun-2020   2.40 1793.34  873.30 856.96 65.75 1.00
   16:00:09.053.29-Jun-2020   2.60 1793.70  873.30 856.96 65.75 1.00
   16:00:09.253.29-Jun-2020   2.80 1794.28  873.30 856.96 65.75 1.00
   16:00:09.453.29-Jun-2020   3.00 1794.82  873.30 856.96 65.75 1.00
   16:00:09.653.29-Jun-2020   3.20 1794.82  873.30 856.96 65.75 1.00
   16:00:09.853.29-Jun-2020   3.40 1798.77  873.30 856.96 65.75 1.00
   16:00:10.053.29-Jun-2020   3.60 1799.61  873.30 856.96 65.75 1.00
   16:00:10.253.29-Jun-2020   3.80 1801.37  873.30 856.96 65.75 1.00
   16:00:10.453.29-Jun-2020   4.00 1801.57  873.30 856.96 65.75 1.00
   16:00:10.653.29-Jun-2020   4.20 1801.57  873.30 856.96 65.75 1.00
   16:00:10.853.29-Jun-2020   4.40 1803.17  873.30 856.96 65.75 1.00
   16:00:11.053.29-Jun-2020   4.60 1804.47  873.30 856.96 65.75 1.00
   16:00:11.253.29-Jun-2020   4.80 1803.87  873.30 856.96 65.75 1.00
   16:00:11.453.29-Jun-2020   5.00 1804.21  873.30 856.96 65.75 1.00
   16:00:11.654.29-Jun-2020   5.20 1804.21  873.30 856.96 65.75 1.00
   16:00:11.854.29-Jun-2020   5.40 1802.49  873.30 856.96 65.75 1.00
   16:00:12.054.29-Jun-2020   5.60 1801.80  873.30 856.96 65.75 1.00
   16:00:12.254.29-Jun-2020   5.80 1799.92  873.30 856.96 65.75 1.00
   16:00:12.454.29-Jun-2020   6.00 1799.29  873.30 856.96 65.75 1.00
   16:00:12.654.29-Jun-2020   6.20 1799.29  873.30 856.96 65.75 1.00
   16:00:12.854.29-Jun-2020   6.40 1797.39  873.30 856.96 65.75 1.00
   16:00:13.054.29-Jun-2020   6.60 1795.66  873.30 856.96 65.75 1.00
   16:00:13.254.29-Jun-2020   6.80 1795.02  873.30 856.96 65.75 1.00
   16:00:13.454.29-Jun-2020   7.00 1794.67  873.30 856.96 65.75 1.00
   16:00:13.654.29-Jun-2020   7.20 1794.67  873.30 856.96 65.75 1.00
   16:00:13.854.29-Jun-2020   7.40 1795.10  873.30 856.96 65.75 1.00
   16:00:14.054.29-Jun-2020   7.60 1793.47  873.30 856.96 65.75 1.00
   16:00:14.255.29-Jun-2020   7.80 1795.10  873.30 856.96 65.75 1.00
   16:00:14.455.29-Jun-2020   8.00 1795.88  873.30 856.96 65.75 1.00
   16:00:14.655.29-Jun-2020   8.20 1795.88  873.30 856.96 65.75 1.00
   16:00:14.855.29-Jun-2020   8.40 1797.15  873.30 856.96 65.75 1.00
   16:00:15.055.29-Jun-2020   8.60 1798.51  873.30 856.96 65.75 1.00
   16:00:15.255.29-Jun-2020   8.80 1799.01  873.30 856.96 65.75 1.00
   16:00:15.455.29-Jun-2020   9.00 1799.74  873.30 856.96 65.75 1.00
   16:00:15.655.29-Jun-2020   9.20 1799.74  873.30 856.96 65.75 1.00
   16:00:15.855.29-Jun-2020   9.40 1801.65  873.30 856.96 65.75 1.00
   16:00:16.055.29-Jun-2020   9.60 1802.60  873.30 856.96 65.75 1.00
   16:00:16.255.29-Jun-2020   9.80 1802.21  873.30 856.96 65.75 1.00
   16:00:16.455.29-Jun-2020  10.00 1801.89  873.30 856.96 65.75 1.00
   16:00:16.655.29-Jun-2020  10.20 1801.89  873.30 856.96 65.75 1.00
   16:00:16.856.29-Jun-2020  10.40 1801.10  873.30 856.96 65.75 1.00
   16:00:17.056.29-Jun-2020  10.60 1800.53  873.30 856.96 65.75 1.00
   16:00:17.256.29-Jun-2020  10.80 1800.62  873.30 856.96 65.75 1.00
   16:00:17.456.29-Jun-2020  11.00 1797.52  873.30 856.96 65.75 1.00
   16:00:17.656.29-Jun-2020  11.20 1798.12  873.30 856.96 65.75 1.00
   16:00:17.856.29-Jun-2020  11.40 1796.28  873.30 856.96 65.75 1.00
   16:00:18.056.29-Jun-2020  11.60 1795.76  873.30 856.96 65.75 1.00
   16:00:18.256.29-Jun-2020  11.80 1795.69  873.30 856.96 65.75 1.00
   16:00:18.456.29-Jun-2020  12.00 1794.65  873.30 856.96 65.75 1.00
   16:00:18.656.29-Jun-2020  12.20 1794.65  873.30 856.96 65.75 1.00
   16:00:18.856.29-Jun-2020  12.40 1794.65  873.30 856.96 65.75 1.00
   16:00:19.056.29-Jun-2020  12.60 1794.86  873.30 856.96 65.75 1.00
   16:00:19.256.29-Jun-2020  12.80 1794.94  873.30 856.96 65.75 1.00
   16:00:19.456.29-Jun-2020  13.00 1795.66  873.30 856.96 65.75 1.00
   16:00:19.657.29-Jun-2020  13.21 1798.03  873.30 856.96 65.75 1.00
   16:00:19.857.29-Jun-2020  13.41 1797.21  873.30 856.96 65.75 1.00
   16:00:20.057.29-Jun-2020  13.61 1797.21  873.30 856.96 65.75 1.00
   16:00:20.257.29-Jun-2020  13.81 1796.70  873.30 856.96 65.75 1.00
   16:00:20.457.29-Jun-2020  14.01 1801.73  873.30 856.96 65.75 1.00
   16:00:20.657.29-Jun-2020  14.21 1801.73  873.30 856.96 65.75 1.00
   16:00:20.857.29-Jun-2020  14.41 1800.48  873.30 856.96 65.75 1.00
   16:00:21.057.29-Jun-2020  14.61 1801.32  873.30 856.96 65.75 1.00
   16:00:21.257.29-Jun-2020  14.81 1800.04  873.30 856.96 65.75 1.00
   16:00:21.457.29-Jun-2020  15.01 1802.38  873.30 856.96 65.75 1.00
   16:00:21.657.29-Jun-2020  15.21 1802.38  873.30 856.96 65.75 1.00
   16:00:21.857.29-Jun-2020  15.41 1800.31  873.30 856.96 65.75 1.00
   16:00:22.057.29-Jun-2020  15.61 1799.57  873.30 856.96 65.75 1.00
   16:00:22.258.29-Jun-2020  15.81 1799.79  873.30 856.96 65.75 1.00
   16:00:22.458.29-Jun-2020  16.01 1799.74  873.30 856.96 65.75 1.00
   16:00:22.658.29-Jun-2020  16.21 1799.74  873.30 856.96 65.75 1.00
   16:00:22.858.29-Jun-2020  16.41 1797.53  873.30 856.96 65.75 1.00
   16:00:23.058.29-Jun-2020  16.61 1797.52  873.30 856.96 65.75 1.00
   16:00:23.258.29-Jun-2020  16.81 1798.87  873.30 856.96 65.75 1.00
   16:00:23.458.29-Jun-2020  17.01 1795.56  873.30 856.96 65.75 1.00
   16:00:23.658.29-Jun-2020  17.21 1795.56  873.30 856.96 65.75 1.00
   16:00:23.858.29-Jun-2020  17.41 1796.22  873.30 856.96 65.75 1.00
   16:00:24.058.29-Jun-2020  17.61 1796.76  873.30 856.96 65.75 1.00
   16:00:24.258.29-Jun-2020  17.81 1797.58  873.30 856.96 65.75 1.00
   16:00:24.458.29-Jun-2020  18.01 1796.39  873.30 856.96 65.75 1.00
   16:00:24.658.29-Jun-2020  18.21 1796.39  873.30 856.96 65.75 1.00
   16:00:24.859.29-Jun-2020  18.41 1798.03  873.30 856.96 65.75 1.00
   16:00:25.059.29-Jun-2020  18.61 1798.14  873.30 856.96 65.75 1.00
   16:00:25.259.29-Jun-2020  18.81 1797.32  873.30 856.96 65.75 1.00
   16:00:25.459.29-Jun-2020  19.01 1798.93  873.30 856.96 65.75 1.00
   16:00:25.659.29-Jun-2020  19.21 1798.93  873.30 856.96 65.75 1.00
   16:00:25.859.29-Jun-2020  19.41 1797.88  873.30 856.96 65.75 1.00
   16:00:26.059.29-Jun-2020  19.61 1799.96  873.30 856.96 65.75 1.00
   16:00:26.259.29-Jun-2020  19.81 1797.74  873.30 856.96 65.75 1.00
   16:00:26.459.29-Jun-2020  20.01 1799.79  873.30 856.96 65.75 1.00
   16:00:26.659.29-Jun-2020  20.21 1799.79  873.30 856.96 65.75 1.00
   16:00:26.859.29-Jun-2020  20.41 1798.58  873.30 856.96 65.75 1.00
   16:00:27.059.29-Jun-2020  20.61 1798.90  873.30 856.96 65.75 1.00
   16:00:27.259.29-Jun-2020  20.81 1798.84  873.30 856.96 65.75 1.00
   16:00:27.460.29-Jun-2020  21.01 1798.49  873.30 856.96 65.75 1.00
   16:00:27.660.29-Jun-2020  21.21 1798.43  873.30 856.96 65.75 1.00
   16:00:27.860.29-Jun-2020  21.41 1799.43  873.30 856.96 65.75 1.00
   16:00:28.060.29-Jun-2020  21.61 1798.54  873.30 856.96 65.75 1.00
   16:00:28.260.29-Jun-2020  21.81 1798.71  873.30 856.96 65.75 1.00
   16:00:28.460.29-Jun-2020  22.01 1796.01  873.30 856.96 65.75 1.00
   16:00:28.660.29-Jun-2020  22.21 1796.01  873.30 856.96 65.75 1.00
   16:00:28.860.29-Jun-2020  22.41 1797.02  873.30 856.96 65.75 1.00
   16:00:29.060.29-Jun-2020  22.61 1797.52  873.30 856.96 65.75 1.00
   16:00:29.260.29-Jun-2020  22.81 1795.97  873.30 856.96 65.75 1.00
   16:00:29.460.29-Jun-2020  23.01 1798.22  873.30 856.96 65.75 1.00
