~Version Information
 VERS.                  2.0:   CWLS log ASCII Standard -VERSION 2.0
 WRAP.                   NO:   One line per depth step
~Well Information Block
#MNEM.UNIT     VALUE/NAME     DESCRIPTION
#---------     -----------    ---------------------------
 STRT.S             06:27:04 01-Jul-20: START TIME 06:27:04 01-Jul-20
 STOP.S             06:36:04 01-Jul-20: STOP TIME  06:36:04 01-Jul-20
 STEP.S                   0.00: STEP TIME
 NULL.                 -999.25: NULL VALUE
 DFWT.                        :  DIST FWL TEXT
 DFST.                        :  DIST FSL TEXT
 DMF .             Drill Floor:  DRILL MEAS FROM
 STIM.      09.59.28 01-Jun-20:  START TIME
 DATE.      09.59.28 01-Jun-20:  END TIME
 SPUD.               01-Jun-20:  SPUD DATE
 NREF.                    Grid:  NORTH REFERENCE
 HPTY.       Minimum Curvature:  HOLE POS TYPE
 DMOD.             Drill Model:  DRILL MOD DESC
 SVYD.                  Survey:  SURVEY DESC
 ILTD.               Lithology:  INTERP LTH DESC
 FTOP.          Formation Tops:  FORM TOPS DESC
 SON .        AZ-XX-0905455768:  JOB NUMBER
 WTYP.                Deviated:  WELL TYPE
 COMP.     BP Exploration(Caspian Sea):  COMPANY
 BASE.              Azerbaijan:  LOGGING EQUIPMENT BASE LOCATION
 REGN.                   EESSA:  REGION
 CTRY.              Azerbaijan:  COUNTRY NAME
 FLD .                     ACG:  FIELD NAME
 SRVC.          Turan Drilling:  CONTRACTOR
 WELL.                     B41:  WELL NAME
 RIG .           Central Azeri:  RIG NAME
 DCON.         Sperry Drilling:  DIRECTNL CONTR
 PDAT.          Mean Sea Level:  PERMANENT DATUM
 MDS .        Operator Entered:  MAG DATA SOURCE
 API .                        :  API NUMBER
 CNTY.                        :  COUNTY
 PROV.                        :  PROVINCE
 STAT.                        :  STATE
 UWI .                        :  UNIQUE WELL IDENTIFIER
 LOC .                        :  LOCATION
 LMF .             Drill Floor:  LOG MEASURED FROM
 TVDS.m                  43.29:  TVDSS CORRECTN
 LATI.deg                40.03:  LATITUDE
 LONG.deg                51.35:  LONGITUDE
 WHNS.m                  12.98:  WELL HEAD N/S
 WHEW.m                  -6.62:  WELL HEAD E/W
 UTMX.m              530128.28:  UTM X
 UTMY.m             4433192.49:  UTM Y
 DFWL.m                   0.00:  DISTANCE FWL
 DFSL.m                   0.00:  DISTANCE FSL
 SDEP.m                 378.00:  START DEPTH
 TDD .m                   0.00:  TOTAL DEPTH (DRILLER)
 VSDR.deg               296.18:  VERT SEC DIRECT
 GVFD.g                   1.00:  GRAVITY FIELD
 MFLD.nT              50253.00:  MAGNETIC FIELD
 MDIP.deg                59.49:  MAGNETIC DIP
 MDEC.deg                 6.44:  MAGNETIC DECL
 GRDC.deg                 0.22:  GRID CORRECTION
 AZTC.deg                 6.22:  AZM TOTAL CORR
 EPD .m                   0.00:  ELEVATION
 EGL .m                   0.00:  GROUND ELEVATION
 WDMS.m                 128.20:  WD ELEV
 APD .m                  43.29:  DEPTH ABOVE PD
 AGAP.m                  43.29:  AIR GAP
 VSEW.m                  -6.62:  VERT SEC E/W
 VSNS.m                  12.98:  VERT SEC N/S
 EKB .m                  43.29:  KB ELEVATION
 EDF .m                  43.29:  DF ELEVATION
 TDL .m                1152.00:  TOTAL DEPTH (LOGGER)
 VSC .                       0:  VS TO CLOSURE
 MAGU.                 1848525:  MAGUTM CHECKSUM
~Parameter Information Block
#MNEM.UNIT       Value        Description
#---------     -----------    ---------------------------
 AV  .mps                 0.40:  Ann Velocity 
 AVMX.mps                 1.56:  Max Ann Veloc 
 AZIF.deg               300.46:  Azm, Final 
 BHAT.        Rotary Steerable:  BHA Type 
 BROT.°/30m               0.40:  Build Rotating 
 BS  .in                 17.50:  Bit Size 
 BSZ .in                 17.50:  Bit Size 
 BTPL.psig              300.00:  Bit Press Loss 
 CABU.                      No:  Customer Abuse 
 CGEO.          Parviz Guliyev:  Customer Geo 
 TCS .hr                108.13:  Time Ciculation Ended 
 CV  .mps                 0.50:  Crit Velocity 
 CVMX.mps                 2.01:  Max Crit Veloc 
 DD1 .          Fariz Nahmatov:  Direct Drillr 1 
 DD2 .             Ehab Radwan:  Direct Drillr 2 
 DDSV.               Geo-Pilot:  DD Service 
 DEFF.%                  99.00:  % Det Eff 
 DLRX.°/30m               0.50:  Dogleg Rot Max 
 DLSO.°/30m               2.80:  Dogleg Oriented 
 DLSX.°/30m               3.90:  Dogleg Str Max 
 DRET.      09.30.04 03-Jul-20:  Drill End Time 
 DRST.      18.33.04 28-Jun-20:  Drill Start Tim 
 DTIM.hr                 55.83:  Time Drilling 
 EDEP.m                1952.00:  End Depth 
 ENG1.      Bakhtiyar Jabbarli:  Engineer 1 
 ENG2.         Farhad Orujzade:  Engineer 2 
 ENG3.          Rustam Safarov:  Engineer 3 
 ETIM.      01.33.04 04-Jul-20:  End Time 
 FLOI.gpm              1050.00:  Flow In 
 FLON.gpm               950.00:  Flow In Min 
 FLOS.cptm                0.10:  Fluid Loss 
 FLOX.gpm              1150.00:  Flow In Max 
 HFLO.                      No:  High Flow 
 HPRE.                      No:  High Pressure 
 HTEM.                      No:  High Temp 
 HYDO.m                   1.80:  Hydro Offset 
 IFIN.deg                75.26:  Inc, Final 
 IMAX.deg                75.38:  Inc Max 
 IMIN.deg                22.84:  Inc Min 
 IMND.m                 832.38:  Inc Min Depth 
 IMXD.m                1936.55:  Inc Max Depth 
 JARR.                      No:  Jarring 
 LETM.      17.40.00 04-Jul-20:  Log End Time 
 LOST.hr                     0:  Lost Rig Time 
 LSTM.      12.33.04 28-Jun-20:  Log Start Time 
 MDCL.ppm             49500.00:  Mud Chlorides 
 MDES.     Inversion Oil/Synthetic:  Mud Desc 
 DFD .sg                  1.46:  Mud Density 
 MDMN.sg                  1.46:  Dens Mud Min 
 MDMX.sg                  1.46:  Dens Mud Max 
 MOIL.                      70:  Run Mud Oil % 
 MOWR.                   70:30:  Run Mud OWR 
 MSND.                     0.5:  Run Mud Sand % 
 MSOL.                   19.89:  Run Mud Solids% 
 DFV .spqt               72.00:  Mud Viscosity 
 MWOD.in                  9.50:  MWD Tool OD 
 MWSI.                      No:  Serv Intrp, MWD 
 OTIM.hr                146.53:  Time Operating 
 PCON.           Look Like New:  Pad Condition 
 PMAX.psia             2900.00:  Press Op, Max 
 PV  .cP                 38.00:  Mud PV 
 RUN .                     600:  Run Number 
 ROPA.m/hr               22.00:  ROP Avg 
 ROPN.m/hr               10.00:  ROP Min 
 ROPX.m/hr              263.00:  ROP Max 
 RPMA.rpm               155.00:  RPM Surface Avg 
 RPMN.rpm               140.00:  RPM Surface Min 
 RPMX.rpm               160.00:  RPM Surface Max 
 RRUN.                    0600:  Rig Run Number 
 RTIM.hr                  5.00:  Time Reaming 
 SAZI.deg               300.08:  Azm, Start 
 SDEP.m                 800.00:  Start Depth 
 SIDD.                      No:  Serv Intrp, DD 
 SINC.deg                22.84:  Inc, Start 
 SPPA.psig             3000.00:  SPP Avg 
 SPPN.psig             1900.00:  SPP Min 
 SPPX.psig             3200.00:  SPP Max 
 STIM.      12.30.04 28-Jun-20:  Start Time 
 SVCS.                 DD, MWD:  Services 
 SVER.                    9.20:  Sperry Version 
 TDAT.m                1952.00:  Tot Depth Attmp 
 TDDF.                      No:  Trip for DD 
 TDLG.m                1152.00:  Tot Depth Loggd 
 TFF .                      No:  Trip for Fail 
 TQAA.f-kp                8.00:  Torque Abs Avg 
 TQAN.f-kp                5.00:  Torque Abs Min 
 TQAX.f-kp               14.00:  Torque Abs Max 
 TRRT.°/30m               0.50:  Turn Rotating 
 MRT .                  EWR-M5:  Maximum Recorded Temperature 
 TTMX.degC               69.00:  Max Tool Temp 
 VS01.                90610313:  Virtual Str1 SN 
 VS02.                90613431:  Virtual Str2 SN 
 VS03.                90615410:  Virtual Str3 SN 
 WBMN.klb                 6.00:  WOB Min 
 WITN.            Bruce Cheyne:  Customer Rep 
 WITN.             Ayaz Aliyev:  Customer Rep 2 
 WOBA.klb                 6.00:  WOB Avg 
 WOBX.klb                10.00:  WOB Max 
 YP  .lhf2               36.00:  Yield Point 
~Curve Information Block
#MNEM.UNIT                 API CODE     Curve Description
#---------               -----------    ---------------------------
 TIME.HHMMSS            00 000 000 000:  GT Time & Date
 GTET.sec               00 000 000 000:  GT Elapsed Test Time
 GTPQH.psia             00 000 000 000:  GT HR Quartz Pressure
 GTDEPTH.m              00 000 000 000:  GT Depth
 GTTVD.m                00 000 000 000:  GT True Vertical Depth
 GTTQ.degC              00 000 000 000:  GT Quartz Temperature
 GTTN.NONE              00 000 000 000:  GT Test Number
#Other Information
#
#WARRANTY: Halliburton will use its best efforts to furnish customers with 
#accurate information and interpretations that are part of, and incident to, the services 
#provided.  However, Halliburton cannot and does not warrant the accuracy 
#or correctness of such information and interpretations.  Under no circumstances should any 
#such information or interpretation be relied upon as the sole basis for any drilling, 
#completion, production, or financial decision or any procedure involving any risk to the 
#safety of any drilling venture, drilling rig or its crew or any other third party.  The 
#Customer has full responsibility for all drilling, completion and production operation.  
#Halliburton makes no representations or warranties, either expressed or 
#implied, including, but not limited to, the implied warranties of merchantability or fitness 
#for a particular purpose, with respect to the services rendered.  In no event will 
#Halliburton be liable for failure to obtain any particular results or for 
#any damages, including, but not limited to, indirect, special or consequential damages, 
#resulting from the use of any information or interpretation provided by Halliburton.
#
~A           TIME            GTET   GTPQH  GTDEPTH  GTTVD  GTTQ  GTTN 
# ...
   06:27:50.000.01-Jul-2020  46.00 2454.41 1257.48 1159.06 54.86 5.00
   06:27:50.200.01-Jul-2020  46.20 2454.41 1257.48 1159.06 54.86 5.00
   06:27:50.400.01-Jul-2020  46.40 2454.05 1257.48 1159.06 54.86 5.00
   06:27:50.600.01-Jul-2020  46.60 2454.09 1257.48 1159.06 54.86 5.00
   06:27:50.800.01-Jul-2020  46.80 2454.45 1257.48 1159.06 54.86 5.00
   06:27:51.000.01-Jul-2020  47.00 2454.24 1257.48 1159.06 54.86 5.00
   06:27:51.200.01-Jul-2020  47.20 2453.06 1257.48 1159.06 54.86 5.00
   06:27:51.400.01-Jul-2020  47.40 2453.73 1257.48 1159.06 54.86 5.00
   06:27:51.600.01-Jul-2020  47.60 2454.35 1257.48 1159.06 54.86 5.00
   06:27:51.800.01-Jul-2020  47.80 2454.46 1257.48 1159.06 54.86 5.00
   06:27:52.000.01-Jul-2020  48.00 2454.21 1257.48 1159.06 54.86 5.00
   06:27:52.200.01-Jul-2020  48.20 2454.21 1257.48 1159.06 54.86 5.00
   06:27:52.400.01-Jul-2020  48.40 2454.06 1257.48 1159.06 54.86 5.00
   06:27:52.600.01-Jul-2020  48.60 2454.39 1257.48 1159.06 54.86 5.00
   06:27:52.800.01-Jul-2020  48.80 2454.25 1257.48 1159.06 54.86 5.00
   06:27:53.000.01-Jul-2020  49.00 2453.93 1257.48 1159.06 54.86 5.00
   06:27:53.200.01-Jul-2020  49.20 2453.93 1257.48 1159.06 54.86 5.00
   06:27:53.400.01-Jul-2020  49.40 2453.50 1257.48 1159.06 54.86 5.00
   06:27:53.600.01-Jul-2020  49.60 2453.89 1257.48 1159.06 54.86 5.00
   06:27:53.800.01-Jul-2020  49.80 2453.50 1257.48 1159.06 54.86 5.00
   06:27:54.000.01-Jul-2020  50.00 2453.59 1257.48 1159.06 54.86 5.00
   06:27:54.200.01-Jul-2020  50.20 2453.59 1257.48 1159.06 54.86 5.00
   06:27:54.400.01-Jul-2020  50.40 2453.63 1257.48 1159.06 54.86 5.00
   06:27:54.600.01-Jul-2020  50.60 2453.75 1257.48 1159.06 54.86 5.00
   06:27:54.800.01-Jul-2020  50.80 2453.13 1257.48 1159.06 54.86 5.00
   06:27:55.000.01-Jul-2020  51.00 2452.85 1257.48 1159.06 54.86 5.00
   06:27:55.200.01-Jul-2020  51.20 2453.09 1257.48 1159.06 54.86 5.00
   06:27:55.400.01-Jul-2020  51.40 2453.06 1257.48 1159.06 54.85 5.00
   06:27:55.600.01-Jul-2020  51.60 2452.65 1257.48 1159.06 54.85 5.00
   06:27:55.800.01-Jul-2020  51.80 2451.72 1257.48 1159.06 54.85 5.00
   06:27:56.000.01-Jul-2020  52.00 2452.97 1257.48 1159.06 54.85 5.00
   06:27:56.200.01-Jul-2020  52.20 2452.97 1257.48 1159.06 54.85 5.00
   06:27:56.400.01-Jul-2020  52.40 2453.67 1257.48 1159.06 54.85 5.00
   06:27:56.600.01-Jul-2020  52.60 2453.67 1257.48 1159.06 54.85 5.00
   06:27:56.800.01-Jul-2020  52.80 2452.71 1257.48 1159.06 54.85 5.00
   06:27:57.000.01-Jul-2020  53.00 2452.09 1257.48 1159.06 54.85 5.00
   06:27:57.200.01-Jul-2020  53.20 2452.09 1257.48 1159.06 54.85 5.00
   06:27:57.400.01-Jul-2020  53.40 2452.73 1257.48 1159.06 54.85 5.00
   06:27:57.600.01-Jul-2020  53.60 2453.13 1257.48 1159.06 54.85 5.00
   06:27:57.800.01-Jul-2020  53.80 2453.33 1257.48 1159.06 54.85 5.00
   06:27:58.000.01-Jul-2020  54.00 2452.37 1257.48 1159.06 54.85 5.00
   06:27:58.200.01-Jul-2020  54.20 2452.37 1257.48 1159.06 54.85 5.00
   06:27:58.400.01-Jul-2020  54.40 2453.75 1257.48 1159.06 54.85 5.00
   06:27:58.600.01-Jul-2020  54.60 2453.40 1257.48 1159.06 54.85 5.00
   06:27:58.800.01-Jul-2020  54.80 2454.11 1257.48 1159.06 54.85 5.00
   06:27:59.000.01-Jul-2020  55.00 2453.99 1257.48 1159.06 54.85 5.00
   06:27:59.200.01-Jul-2020  55.20 2453.81 1257.48 1159.06 54.85 5.00
   06:27:59.400.01-Jul-2020  55.40 2453.70 1257.48 1159.06 54.85 5.00
   06:27:59.600.01-Jul-2020  55.60 2451.75 1257.48 1159.06 54.85 5.00
   06:27:59.800.01-Jul-2020  55.80 2453.32 1257.48 1159.06 54.85 5.00
   06:28:00.000.01-Jul-2020  56.00 2454.31 1257.48 1159.06 54.85 5.00
   06:28:00.200.01-Jul-2020  56.20 2454.31 1257.48 1159.06 54.85 5.00
   06:28:00.400.01-Jul-2020  56.40 2454.48 1257.48 1159.06 54.85 5.00
   06:28:00.600.01-Jul-2020  56.60 2454.08 1257.48 1159.06 54.85 5.00
   06:28:00.800.01-Jul-2020  56.80 2454.11 1257.48 1159.06 54.85 5.00
   06:28:01.000.01-Jul-2020  57.00 2454.22 1257.48 1159.06 54.85 5.00
   06:28:01.200.01-Jul-2020  57.20 2454.22 1257.48 1159.06 54.85 5.00
   06:28:01.400.01-Jul-2020  57.40 2453.86 1257.48 1159.06 54.85 5.00
   06:28:01.600.01-Jul-2020  57.60 2453.83 1257.48 1159.06 54.85 5.00
   06:28:01.800.01-Jul-2020  57.80 2453.87 1257.48 1159.06 54.85 5.00
   06:28:02.000.01-Jul-2020  58.00 2453.84 1257.48 1159.06 54.85 5.00
   06:28:02.200.01-Jul-2020  58.20 2453.84 1257.48 1159.06 54.85 5.00
   06:28:02.400.01-Jul-2020  58.40 2453.75 1257.48 1159.06 54.85 5.00
   06:28:02.600.01-Jul-2020  58.60 2454.03 1257.48 1159.06 54.85 5.00
   06:28:02.800.01-Jul-2020  58.80 2454.15 1257.48 1159.06 54.85 5.00
   06:28:03.000.01-Jul-2020  59.00 2454.09 1257.48 1159.06 54.85 5.00
   06:28:03.200.01-Jul-2020  59.20 2453.11 1257.48 1159.06 54.85 5.00
   06:28:03.400.01-Jul-2020  59.40 2452.17 1257.48 1159.06 54.85 5.00
   06:28:03.600.01-Jul-2020  59.60 2453.09 1257.48 1159.06 54.85 5.00
   06:28:03.800.01-Jul-2020  59.80 2452.94 1257.48 1159.06 54.85 5.00
   06:28:04.000.01-Jul-2020  60.00 2453.03 1257.48 1159.06 54.85 5.00
   06:28:04.200.01-Jul-2020  60.20 2453.03 1257.48 1159.06 54.85 5.00
   06:28:04.400.01-Jul-2020  60.40 2453.11 1257.48 1159.06 54.85 5.00
   06:28:04.600.01-Jul-2020  60.60 2453.30 1257.48 1159.06 54.85 5.00
   06:28:04.800.01-Jul-2020  60.80 2453.04 1257.48 1159.06 54.85 5.00
   06:28:05.000.01-Jul-2020  61.00 2452.50 1257.48 1159.06 54.85 5.00
   06:28:05.200.01-Jul-2020  61.20 2452.50 1257.48 1159.06 54.85 5.00
   06:28:05.400.01-Jul-2020  61.40 2452.71 1257.48 1159.06 54.85 5.00
   06:28:05.600.01-Jul-2020  61.60 2452.68 1257.48 1159.06 54.85 5.00
   06:28:05.800.01-Jul-2020  61.80 2451.42 1257.48 1159.06 54.85 5.00
   06:28:06.000.01-Jul-2020  62.00 2452.63 1257.48 1159.06 54.85 5.00
   06:28:06.200.01-Jul-2020  62.20 2452.63 1257.48 1159.06 54.85 5.00
   06:28:06.400.01-Jul-2020  62.40 2453.36 1257.48 1159.06 54.85 5.00
   06:28:06.600.01-Jul-2020  62.60 2453.67 1257.48 1159.06 54.85 5.00
   06:28:06.800.01-Jul-2020  62.80 2453.25 1257.48 1159.06 54.85 5.00
   06:28:07.000.01-Jul-2020  63.00 2451.99 1257.48 1159.06 54.85 5.00
   06:28:07.200.01-Jul-2020  63.20 2451.99 1257.48 1159.06 54.85 5.00
   06:28:07.400.01-Jul-2020  63.40 2452.81 1257.48 1159.06 54.85 5.00
   06:28:07.600.01-Jul-2020  63.60 2452.98 1257.48 1159.06 54.85 5.00
   06:28:07.800.01-Jul-2020  63.80 2453.36 1257.48 1159.06 54.85 5.00
   06:28:08.000.01-Jul-2020  64.00 2452.86 1257.48 1159.06 54.85 5.00
   06:28:08.200.01-Jul-2020  64.20 2452.86 1257.48 1159.06 54.85 5.00
   06:28:08.400.01-Jul-2020  64.40 2453.83 1257.48 1159.06 54.85 5.00
   06:28:08.600.01-Jul-2020  64.60 2453.45 1257.48 1159.06 54.85 5.00
   06:28:08.800.01-Jul-2020  64.80 2454.02 1257.48 1159.06 54.85 5.00
   06:28:09.000.01-Jul-2020  65.00 2454.16 1257.48 1159.06 54.85 5.00
   06:28:09.200.01-Jul-2020  65.20 2454.16 1257.48 1159.06 54.85 5.00
   06:28:09.400.01-Jul-2020  65.40 2453.66 1257.48 1159.06 54.85 5.00
   06:28:09.600.01-Jul-2020  65.60 2451.97 1257.48 1159.06 54.85 5.00
   06:28:09.800.01-Jul-2020  65.80 2452.76 1257.48 1159.06 54.85 5.00
   06:28:10.000.01-Jul-2020  66.00 2453.96 1257.48 1159.06 54.85 5.00
   06:28:10.200.01-Jul-2020  66.20 2453.96 1257.48 1159.06 54.85 5.00
   06:28:10.400.01-Jul-2020  66.40 2454.28 1257.48 1159.06 54.85 5.00
   06:28:10.600.01-Jul-2020  66.60 2454.00 1257.48 1159.06 54.85 5.00
   06:28:10.800.01-Jul-2020  66.80 2453.88 1257.48 1159.06 54.85 5.00
   06:28:11.000.01-Jul-2020  67.00 2454.01 1257.48 1159.06 54.85 5.00
   06:28:11.200.01-Jul-2020  67.20 2453.76 1257.48 1159.06 54.85 5.00
   06:28:11.400.01-Jul-2020  67.40 2453.56 1257.48 1159.06 54.85 5.00
   06:28:11.600.01-Jul-2020  67.60 2453.49 1257.48 1159.06 54.84 5.00
   06:28:11.800.01-Jul-2020  67.80 2453.50 1257.48 1159.06 54.84 5.00
   06:28:12.000.01-Jul-2020  68.00 2453.52 1257.48 1159.06 54.84 5.00
   06:28:12.200.01-Jul-2020  68.20 2453.52 1257.48 1159.06 54.84 5.00
   06:28:12.400.01-Jul-2020  68.40 2453.35 1257.48 1159.06 54.84 5.00
   06:28:12.600.01-Jul-2020  68.60 2453.67 1257.48 1159.06 54.84 5.00
   06:28:12.800.01-Jul-2020  68.80 2453.89 1257.48 1159.06 54.84 5.00
