~Version Information
 VERS.                  2.0:   CWLS log ASCII Standard -VERSION 2.0
 WRAP.                   NO:   One line per depth step
~Well Information Block
#MNEM.UNIT     VALUE/NAME     DESCRIPTION
#---------     -----------    ---------------------------
 STRT.S             16:15:55 30-Jun-20: START TIME 16:15:55 30-Jun-20
 STOP.S             16:24:50 30-Jun-20: STOP TIME  16:24:50 30-Jun-20
 STEP.S                   0.00: STEP TIME
 NULL.                 -999.25: NULL VALUE
 DFWT.                        :  DIST FWL TEXT
 DFST.                        :  DIST FSL TEXT
 DMF .             Drill Floor:  DRILL MEAS FROM
 STIM.      09.59.28 01-Jun-20:  START TIME
 DATE.      09.59.28 01-Jun-20:  END TIME
 SPUD.               01-Jun-20:  SPUD DATE
 NREF.                    Grid:  NORTH REFERENCE
 HPTY.       Minimum Curvature:  HOLE POS TYPE
 DMOD.             Drill Model:  DRILL MOD DESC
 SVYD.                  Survey:  SURVEY DESC
 ILTD.               Lithology:  INTERP LTH DESC
 FTOP.          Formation Tops:  FORM TOPS DESC
 SON .        AZ-XX-0905455768:  JOB NUMBER
 WTYP.                Deviated:  WELL TYPE
 COMP.     BP Exploration(Caspian Sea):  COMPANY
 BASE.              Azerbaijan:  LOGGING EQUIPMENT BASE LOCATION
 REGN.                   EESSA:  REGION
 CTRY.              Azerbaijan:  COUNTRY NAME
 FLD .                     ACG:  FIELD NAME
 SRVC.          Turan Drilling:  CONTRACTOR
 WELL.                     B41:  WELL NAME
 RIG .           Central Azeri:  RIG NAME
 DCON.         Sperry Drilling:  DIRECTNL CONTR
 PDAT.          Mean Sea Level:  PERMANENT DATUM
 MDS .        Operator Entered:  MAG DATA SOURCE
 API .                        :  API NUMBER
 CNTY.                        :  COUNTY
 PROV.                        :  PROVINCE
 STAT.                        :  STATE
 UWI .                        :  UNIQUE WELL IDENTIFIER
 LOC .                        :  LOCATION
 LMF .             Drill Floor:  LOG MEASURED FROM
 TVDS.m                  43.29:  TVDSS CORRECTN
 LATI.deg                40.03:  LATITUDE
 LONG.deg                51.35:  LONGITUDE
 WHNS.m                  12.98:  WELL HEAD N/S
 WHEW.m                  -6.62:  WELL HEAD E/W
 UTMX.m              530128.28:  UTM X
 UTMY.m             4433192.49:  UTM Y
 DFWL.m                   0.00:  DISTANCE FWL
 DFSL.m                   0.00:  DISTANCE FSL
 SDEP.m                 378.00:  START DEPTH
 TDD .m                   0.00:  TOTAL DEPTH (DRILLER)
 VSDR.deg               296.18:  VERT SEC DIRECT
 GVFD.g                   1.00:  GRAVITY FIELD
 MFLD.nT              50253.00:  MAGNETIC FIELD
 MDIP.deg                59.49:  MAGNETIC DIP
 MDEC.deg                 6.44:  MAGNETIC DECL
 GRDC.deg                 0.22:  GRID CORRECTION
 AZTC.deg                 6.22:  AZM TOTAL CORR
 EPD .m                   0.00:  ELEVATION
 EGL .m                   0.00:  GROUND ELEVATION
 WDMS.m                 128.20:  WD ELEV
 APD .m                  43.29:  DEPTH ABOVE PD
 AGAP.m                  43.29:  AIR GAP
 VSEW.m                  -6.62:  VERT SEC E/W
 VSNS.m                  12.98:  VERT SEC N/S
 EKB .m                  43.29:  KB ELEVATION
 EDF .m                  43.29:  DF ELEVATION
 TDL .m                1152.00:  TOTAL DEPTH (LOGGER)
 VSC .                       0:  VS TO CLOSURE
 MAGU.                 1848525:  MAGUTM CHECKSUM
~Parameter Information Block
#MNEM.UNIT       Value        Description
#---------     -----------    ---------------------------
 AV  .mps                 0.40:  Ann Velocity 
 AVMX.mps                 1.56:  Max Ann Veloc 
 AZIF.deg               300.46:  Azm, Final 
 BHAT.        Rotary Steerable:  BHA Type 
 BROT.°/30m               0.40:  Build Rotating 
 BS  .in                 17.50:  Bit Size 
 BSZ .in                 17.50:  Bit Size 
 BTPL.psig              300.00:  Bit Press Loss 
 CABU.                      No:  Customer Abuse 
 CGEO.          Parviz Guliyev:  Customer Geo 
 COMM.                     D„w:  Run Comments 1 
 TCS .hr                108.13:  Time Ciculation Ended 
 CV  .mps                 0.50:  Crit Velocity 
 CVMX.mps                 2.01:  Max Crit Veloc 
 DD1 .          Fariz Nahmatov:  Direct Drillr 1 
 DD2 .             Ehab Radwan:  Direct Drillr 2 
 DDSV.               Geo-Pilot:  DD Service 
 DEFF.%                  99.00:  % Det Eff 
 DLRX.°/30m               0.50:  Dogleg Rot Max 
 DLSO.°/30m               2.80:  Dogleg Oriented 
 DLSX.°/30m               3.90:  Dogleg Str Max 
 DRET.      09.30.04 03-Jul-20:  Drill End Time 
 DRST.      18.33.04 28-Jun-20:  Drill Start Tim 
 DTIM.hr                 55.83:  Time Drilling 
 EDEP.m                1952.00:  End Depth 
 ENG1.      Bakhtiyar Jabbarli:  Engineer 1 
 ENG2.         Farhad Orujzade:  Engineer 2 
 ENG3.          Rustam Safarov:  Engineer 3 
 ETIM.      01.33.04 04-Jul-20:  End Time 
 FLOI.gpm              1050.00:  Flow In 
 FLON.gpm               950.00:  Flow In Min 
 FLOS.cptm                0.10:  Fluid Loss 
 FLOX.gpm              1150.00:  Flow In Max 
 HFLO.                      No:  High Flow 
 HPRE.                      No:  High Pressure 
 HTEM.                      No:  High Temp 
 HYDO.m                   1.80:  Hydro Offset 
 IFIN.deg                75.26:  Inc, Final 
 IMAX.deg                75.38:  Inc Max 
 IMIN.deg                22.84:  Inc Min 
 IMND.m                 832.38:  Inc Min Depth 
 IMXD.m                1936.55:  Inc Max Depth 
 JARR.                      No:  Jarring 
 LETM.      17.40.00 04-Jul-20:  Log End Time 
 LOST.hr                     0:  Lost Rig Time 
 LSTM.      12.33.04 28-Jun-20:  Log Start Time 
 MDCL.ppm             49500.00:  Mud Chlorides 
 MDES.     Inversion Oil/Synthetic:  Mud Desc 
 DFD .sg                  1.46:  Mud Density 
 MDMN.sg                  1.46:  Dens Mud Min 
 MDMX.sg                  1.46:  Dens Mud Max 
 MOIL.                      70:  Run Mud Oil % 
 MOWR.                   70:30:  Run Mud OWR 
 MSND.                     0.5:  Run Mud Sand % 
 MSOL.                   19.89:  Run Mud Solids% 
 DFV .spqt               72.00:  Mud Viscosity 
 MWOD.in                  9.50:  MWD Tool OD 
 MWSI.                      No:  Serv Intrp, MWD 
 OTIM.hr                146.53:  Time Operating 
 PCON.           Look Like New:  Pad Condition 
 PMAX.psia             2900.00:  Press Op, Max 
 PV  .cP                 38.00:  Mud PV 
 RUN .                     600:  Run Number 
 ROPA.m/hr               22.00:  ROP Avg 
 ROPN.m/hr               10.00:  ROP Min 
 ROPX.m/hr              263.00:  ROP Max 
 RPMA.rpm               155.00:  RPM Surface Avg 
 RPMN.rpm               140.00:  RPM Surface Min 
 RPMX.rpm               160.00:  RPM Surface Max 
 RRUN.                    0600:  Rig Run Number 
 RTIM.hr                  5.00:  Time Reaming 
 SAZI.deg               300.08:  Azm, Start 
 SDEP.m                 800.00:  Start Depth 
 SIDD.                      No:  Serv Intrp, DD 
 SINC.deg                22.84:  Inc, Start 
 SPPA.psig             3000.00:  SPP Avg 
 SPPN.psig             1900.00:  SPP Min 
 SPPX.psig             3200.00:  SPP Max 
 STIM.      12.30.04 28-Jun-20:  Start Time 
 SVCS.                 DD, MWD:  Services 
 SVER.                    9.20:  Sperry Version 
 TDAT.m                1952.00:  Tot Depth Attmp 
 TDDF.                      No:  Trip for DD 
 TDLG.m                1152.00:  Tot Depth Loggd 
 TFF .                      No:  Trip for Fail 
 TQAA.f-kp                8.00:  Torque Abs Avg 
 TQAN.f-kp                5.00:  Torque Abs Min 
 TQAX.f-kp               14.00:  Torque Abs Max 
 TRRT.°/30m               0.50:  Turn Rotating 
 MRT .                  EWR-M5:  Maximum Recorded Temperature 
 TTMX.degC               69.00:  Max Tool Temp 
 VS01.                90610313:  Virtual Str1 SN 
 VS02.                90613431:  Virtual Str2 SN 
 VS03.                90615410:  Virtual Str3 SN 
 WBMN.klb                 6.00:  WOB Min 
 WITN.            Bruce Cheyne:  Customer Rep 
 WITN.             Ayaz Aliyev:  Customer Rep 2 
 WOBA.klb                 6.00:  WOB Avg 
 WOBX.klb                10.00:  WOB Max 
 YP  .lhf2               36.00:  Yield Point 
~Curve Information Block
#MNEM.UNIT                 API CODE     Curve Description
#---------               -----------    ---------------------------
 TIME.HHMMSS            00 000 000 000:  GT Time & Date
 GTET.sec               00 000 000 000:  GT Elapsed Test Time
 GTPQH.psia             00 000 000 000:  GT HR Quartz Pressure
 GTDEPTH.m              00 000 000 000:  GT Depth
 GTTVD.m                00 000 000 000:  GT True Vertical Depth
 GTTQ.degC              00 000 000 000:  GT Quartz Temperature
 GTTN.NONE              00 000 000 000:  GT Test Number
#Other Information
#
#WARRANTY: Halliburton will use its best efforts to furnish customers with 
#accurate information and interpretations that are part of, and incident to, the services 
#provided.  However, Halliburton cannot and does not warrant the accuracy 
#or correctness of such information and interpretations.  Under no circumstances should any 
#such information or interpretation be relied upon as the sole basis for any drilling, 
#completion, production, or financial decision or any procedure involving any risk to the 
#safety of any drilling venture, drilling rig or its crew or any other third party.  The 
#Customer has full responsibility for all drilling, completion and production operation.  
#Halliburton makes no representations or warranties, either expressed or 
#implied, including, but not limited to, the implied warranties of merchantability or fitness 
#for a particular purpose, with respect to the services rendered.  In no event will 
#Halliburton be liable for failure to obtain any particular results or for 
#any damages, including, but not limited to, indirect, special or consequential damages, 
#resulting from the use of any information or interpretation provided by Halliburton.
#
~A           TIME            GTET   GTPQH  GTDEPTH  GTTVD  GTTQ  GTTN 
# ...
   16:20:54.000.30-Jun-2020 299.00   47.58 1103.02 1054.26 68.85 2.00
   16:20:54.200.30-Jun-2020 299.20   47.58 1103.02 1054.26 68.85 2.00
   16:20:54.400.30-Jun-2020 299.40   47.65 1103.02 1054.26 68.85 2.00
   16:20:54.600.30-Jun-2020 299.60   47.69 1103.02 1054.26 68.85 2.00
   16:20:54.800.30-Jun-2020 299.80   47.74 1103.02 1054.26 68.85 2.00
   16:20:55.000.30-Jun-2020 300.00   47.77 1103.02 1054.26 68.85 2.00
   16:20:55.200.30-Jun-2020 300.20   47.77 1103.02 1054.26 68.85 2.00
   16:20:55.400.30-Jun-2020 300.40   47.85 1103.02 1054.26 68.85 2.00
   16:20:55.600.30-Jun-2020 300.60   47.88 1103.02 1054.26 68.85 2.00
   16:20:55.800.30-Jun-2020 300.80   47.92 1103.02 1054.26 68.85 2.00
   16:20:56.000.30-Jun-2020 301.00   47.95 1103.02 1054.26 68.85 2.00
   16:20:56.200.30-Jun-2020 301.20   47.95 1103.02 1054.26 68.85 2.00
   16:20:56.400.30-Jun-2020 301.40   48.02 1103.02 1054.26 68.85 2.00
   16:20:56.600.30-Jun-2020 301.60   48.02 1103.02 1054.26 68.85 2.00
   16:20:56.800.30-Jun-2020 301.80   48.08 1103.02 1054.26 68.85 2.00
   16:20:57.000.30-Jun-2020 302.00   48.13 1103.02 1054.26 68.85 2.00
   16:20:57.200.30-Jun-2020 302.20   48.17 1103.02 1054.26 68.85 2.00
   16:20:57.400.30-Jun-2020 302.40   48.20 1103.02 1054.26 68.85 2.00
   16:20:57.600.30-Jun-2020 302.60   48.23 1103.02 1054.26 68.85 2.00
   16:20:57.800.30-Jun-2020 302.80   48.27 1103.02 1054.26 68.85 2.00
   16:20:58.000.30-Jun-2020 303.00   48.30 1103.02 1054.26 68.85 2.00
   16:20:58.200.30-Jun-2020 303.20   48.30 1103.02 1054.26 68.85 2.00
   16:20:58.400.30-Jun-2020 303.40   48.38 1103.02 1054.26 68.85 2.00
   16:20:58.600.30-Jun-2020 303.60   48.41 1103.02 1054.26 68.85 2.00
   16:20:58.800.30-Jun-2020 303.80   48.44 1103.02 1054.26 68.85 2.00
   16:20:59.000.30-Jun-2020 304.00   48.48 1103.02 1054.26 68.85 2.00
   16:20:59.200.30-Jun-2020 304.20   48.48 1103.02 1054.26 68.85 2.00
   16:20:59.400.30-Jun-2020 304.40   48.56 1103.02 1054.26 68.85 2.00
   16:20:59.600.30-Jun-2020 304.60   48.59 1103.02 1054.26 68.85 2.00
   16:20:59.800.30-Jun-2020 304.80   48.62 1103.02 1054.26 68.85 2.00
   16:21:00.000.30-Jun-2020 305.00   48.66 1103.02 1054.26 68.85 2.00
   16:21:00.200.30-Jun-2020 305.20   48.66 1103.02 1054.26 68.85 2.00
   16:21:00.400.30-Jun-2020 305.40   48.70 1103.02 1054.26 68.85 2.00
   16:21:00.600.30-Jun-2020 305.60   48.77 1103.02 1054.26 68.85 2.00
   16:21:00.800.30-Jun-2020 305.80   48.79 1103.02 1054.26 68.85 2.00
   16:21:01.000.30-Jun-2020 306.00   48.82 1103.02 1054.26 68.85 2.00
   16:21:01.200.30-Jun-2020 306.20   48.85 1103.02 1054.26 68.85 2.00
   16:21:01.400.30-Jun-2020 306.40   48.90 1103.02 1054.26 68.85 2.00
   16:21:01.600.30-Jun-2020 306.60   48.93 1103.02 1054.26 68.86 2.00
   16:21:01.800.30-Jun-2020 306.80   48.98 1103.02 1054.26 68.86 2.00
   16:21:02.000.30-Jun-2020 307.00   48.99 1103.02 1054.26 68.86 2.00
   16:21:02.200.30-Jun-2020 307.20   48.99 1103.02 1054.26 68.86 2.00
   16:21:02.400.30-Jun-2020 307.40   49.07 1103.02 1054.26 68.86 2.00
   16:21:02.600.30-Jun-2020 307.60   49.11 1103.02 1054.26 68.86 2.00
   16:21:02.800.30-Jun-2020 307.80   49.14 1103.02 1054.26 68.86 2.00
   16:21:03.000.30-Jun-2020 308.00   49.17 1103.02 1054.26 68.86 2.00
   16:21:03.200.30-Jun-2020 308.20   49.17 1103.02 1054.26 68.86 2.00
   16:21:03.400.30-Jun-2020 308.40   49.24 1103.02 1054.26 68.86 2.00
   16:21:03.600.30-Jun-2020 308.60   49.27 1103.02 1054.26 68.86 2.00
   16:21:03.800.30-Jun-2020 308.80   49.31 1103.02 1054.26 68.86 2.00
   16:21:04.000.30-Jun-2020 309.00   49.34 1103.02 1054.26 68.86 2.00
   16:21:04.200.30-Jun-2020 309.20   49.34 1103.02 1054.26 68.86 2.00
   16:21:04.400.30-Jun-2020 309.40   49.41 1103.02 1054.26 68.86 2.00
   16:21:04.600.30-Jun-2020 309.60   49.45 1103.02 1054.26 68.86 2.00
   16:21:04.800.30-Jun-2020 309.80   49.48 1103.02 1054.26 68.86 2.00
   16:21:05.000.30-Jun-2020 310.00   49.50 1103.02 1054.26 68.86 2.00
   16:21:05.200.30-Jun-2020 310.20   49.54 1103.02 1054.26 68.86 2.00
   16:21:05.400.30-Jun-2020 310.40   49.58 1103.02 1054.26 68.86 2.00
   16:21:05.600.30-Jun-2020 310.60   49.61 1103.02 1054.26 68.86 2.00
   16:21:05.800.30-Jun-2020 310.80   49.65 1103.02 1054.26 68.86 2.00
   16:21:06.000.30-Jun-2020 311.00   49.68 1103.02 1054.26 68.86 2.00
   16:21:06.200.30-Jun-2020 311.20   49.68 1103.02 1054.26 68.86 2.00
   16:21:06.400.30-Jun-2020 311.40   49.75 1103.02 1054.26 68.86 2.00
   16:21:06.600.30-Jun-2020 311.60   49.77 1103.02 1054.26 68.86 2.00
   16:21:06.800.30-Jun-2020 311.80   49.81 1103.02 1054.26 68.86 2.00
   16:21:07.000.30-Jun-2020 312.00   49.84 1103.02 1054.26 68.86 2.00
   16:21:07.200.30-Jun-2020 312.20   49.84 1103.02 1054.26 68.86 2.00
   16:21:07.400.30-Jun-2020 312.40   49.90 1103.02 1054.26 68.86 2.00
   16:21:07.600.30-Jun-2020 312.60   49.93 1103.02 1054.26 68.86 2.00
   16:21:07.800.30-Jun-2020 312.80   49.98 1103.02 1054.26 68.86 2.00
   16:21:08.000.30-Jun-2020 313.00   49.99 1103.02 1054.26 68.86 2.00
   16:21:08.200.30-Jun-2020 313.20   50.04 1103.02 1054.26 68.86 2.00
   16:21:08.400.30-Jun-2020 313.40   50.07 1103.02 1054.26 68.86 2.00
   16:21:08.600.30-Jun-2020 313.60   50.10 1103.02 1054.26 68.86 2.00
   16:21:08.800.30-Jun-2020 313.80   50.13 1103.02 1054.26 68.86 2.00
   16:21:09.000.30-Jun-2020 314.00   50.16 1103.02 1054.26 68.86 2.00
   16:21:09.200.30-Jun-2020 314.20   50.20 1103.02 1054.26 68.86 2.00
   16:21:09.400.30-Jun-2020 314.40   50.24 1103.02 1054.26 68.86 2.00
   16:21:09.600.30-Jun-2020 314.60   50.27 1103.02 1054.26 68.86 2.00
   16:21:09.800.30-Jun-2020 314.80   50.29 1103.02 1054.26 68.86 2.00
   16:21:10.000.30-Jun-2020 315.00   50.32 1103.02 1054.26 68.86 2.00
   16:21:10.200.30-Jun-2020 315.20   50.32 1103.02 1054.26 68.86 2.00
   16:21:10.400.30-Jun-2020 315.40   50.40 1103.02 1054.26 68.86 2.00
   16:21:10.600.30-Jun-2020 315.60   50.42 1103.02 1054.26 68.86 2.00
   16:21:10.800.30-Jun-2020 315.80   50.45 1103.02 1054.26 68.86 2.00
   16:21:11.000.30-Jun-2020 316.00   50.49 1103.02 1054.26 68.86 2.00
   16:21:11.200.30-Jun-2020 316.20   50.49 1103.02 1054.26 68.86 2.00
   16:21:11.400.30-Jun-2020 316.40   50.55 1103.02 1054.26 68.86 2.00
   16:21:11.600.30-Jun-2020 316.60   50.59 1103.02 1054.26 68.87 2.00
   16:21:11.800.30-Jun-2020 316.80   50.61 1103.02 1054.26 68.87 2.00
   16:21:12.000.30-Jun-2020 317.00   50.65 1103.02 1054.26 68.87 2.00
   16:21:12.200.30-Jun-2020 317.20   50.69 1103.02 1054.26 68.87 2.00
   16:21:12.400.30-Jun-2020 317.40   50.70 1103.02 1054.26 68.87 2.00
   16:21:12.600.30-Jun-2020 317.60   50.74 1103.02 1054.26 68.87 2.00
   16:21:12.800.30-Jun-2020 317.80   50.77 1103.02 1054.26 68.87 2.00
   16:21:13.000.30-Jun-2020 318.00   50.81 1103.02 1054.26 68.87 2.00
   16:21:13.200.30-Jun-2020 318.20   50.84 1103.02 1054.26 68.87 2.00
   16:21:13.400.30-Jun-2020 318.40   50.86 1103.02 1054.26 68.87 2.00
   16:21:13.600.30-Jun-2020 318.60   50.90 1103.02 1054.26 68.87 2.00
   16:21:13.800.30-Jun-2020 318.80   50.93 1103.02 1054.26 68.87 2.00
   16:21:14.000.30-Jun-2020 319.00   50.96 1103.02 1054.26 68.87 2.00
   16:21:14.200.30-Jun-2020 319.20   50.96 1103.02 1054.26 68.87 2.00
   16:21:14.400.30-Jun-2020 319.40   51.01 1103.02 1054.26 68.87 2.00
   16:21:14.600.30-Jun-2020 319.60   51.05 1103.02 1054.26 68.87 2.00
   16:21:14.800.30-Jun-2020 319.80   51.09 1103.02 1054.26 68.87 2.00
   16:21:15.000.30-Jun-2020 320.00   51.11 1103.02 1054.26 68.87 2.00
   16:21:15.200.30-Jun-2020 320.20   51.11 1103.02 1054.26 68.87 2.00
   16:21:15.400.30-Jun-2020 320.40   51.18 1103.02 1054.26 68.87 2.00
   16:21:15.600.30-Jun-2020 320.60   51.20 1103.02 1054.26 68.87 2.00
   16:21:15.800.30-Jun-2020 320.80   51.23 1103.02 1054.26 68.87 2.00
   16:21:16.000.30-Jun-2020 321.00   51.27 1103.02 1054.26 68.87 2.00
   16:21:16.200.30-Jun-2020 321.20   51.29 1103.02 1054.26 68.87 2.00
   16:21:16.400.30-Jun-2020 321.40   51.32 1103.02 1054.26 68.87 2.00
   16:21:16.600.30-Jun-2020 321.60   51.35 1103.02 1054.26 68.87 2.00
   16:21:16.800.30-Jun-2020 321.80   51.37 1103.02 1054.26 68.87 2.00
