~Version Information
 VERS.                  2.0:   CWLS log ASCII Standard -VERSION 2.0
 WRAP.                   NO:   One line per depth step
~Well Information Block
#MNEM.UNIT     VALUE/NAME     DESCRIPTION
#---------     -----------    ---------------------------
 STRT.S             04:11:34 02-Jul-20: START TIME 04:11:34 02-Jul-20
 STOP.S             04:20:35 02-Jul-20: STOP TIME  04:20:35 02-Jul-20
 STEP.S                   0.00: STEP TIME
 NULL.                 -999.25: NULL VALUE
 DFWT.                        :  DIST FWL TEXT
 DFST.                        :  DIST FSL TEXT
 DMF .             Drill Floor:  DRILL MEAS FROM
 STIM.      09.59.28 01-Jun-20:  START TIME
 DATE.      09.59.28 01-Jun-20:  END TIME
 SPUD.               01-Jun-20:  SPUD DATE
 NREF.                    Grid:  NORTH REFERENCE
 HPTY.       Minimum Curvature:  HOLE POS TYPE
 DMOD.             Drill Model:  DRILL MOD DESC
 SVYD.                  Survey:  SURVEY DESC
 ILTD.               Lithology:  INTERP LTH DESC
 FTOP.          Formation Tops:  FORM TOPS DESC
 SON .        AZ-XX-0905455768:  JOB NUMBER
 WTYP.                Deviated:  WELL TYPE
 COMP.     BP Exploration(Caspian Sea):  COMPANY
 BASE.              Azerbaijan:  LOGGING EQUIPMENT BASE LOCATION
 REGN.                   EESSA:  REGION
 CTRY.              Azerbaijan:  COUNTRY NAME
 FLD .                     ACG:  FIELD NAME
 SRVC.          Turan Drilling:  CONTRACTOR
 WELL.                     B41:  WELL NAME
 RIG .           Central Azeri:  RIG NAME
 DCON.         Sperry Drilling:  DIRECTNL CONTR
 PDAT.          Mean Sea Level:  PERMANENT DATUM
 MDS .        Operator Entered:  MAG DATA SOURCE
 API .                        :  API NUMBER
 CNTY.                        :  COUNTY
 PROV.                        :  PROVINCE
 STAT.                        :  STATE
 UWI .                        :  UNIQUE WELL IDENTIFIER
 LOC .                        :  LOCATION
 LMF .             Drill Floor:  LOG MEASURED FROM
 TVDS.m                  43.29:  TVDSS CORRECTN
 LATI.deg                40.03:  LATITUDE
 LONG.deg                51.35:  LONGITUDE
 WHNS.m                  12.98:  WELL HEAD N/S
 WHEW.m                  -6.62:  WELL HEAD E/W
 UTMX.m              530128.28:  UTM X
 UTMY.m             4433192.49:  UTM Y
 DFWL.m                   0.00:  DISTANCE FWL
 DFSL.m                   0.00:  DISTANCE FSL
 SDEP.m                 378.00:  START DEPTH
 TDD .m                   0.00:  TOTAL DEPTH (DRILLER)
 VSDR.deg               296.18:  VERT SEC DIRECT
 GVFD.g                   1.00:  GRAVITY FIELD
 MFLD.nT              50253.00:  MAGNETIC FIELD
 MDIP.deg                59.49:  MAGNETIC DIP
 MDEC.deg                 6.44:  MAGNETIC DECL
 GRDC.deg                 0.22:  GRID CORRECTION
 AZTC.deg                 6.22:  AZM TOTAL CORR
 EPD .m                   0.00:  ELEVATION
 EGL .m                   0.00:  GROUND ELEVATION
 WDMS.m                 128.20:  WD ELEV
 APD .m                  43.29:  DEPTH ABOVE PD
 AGAP.m                  43.29:  AIR GAP
 VSEW.m                  -6.62:  VERT SEC E/W
 VSNS.m                  12.98:  VERT SEC N/S
 EKB .m                  43.29:  KB ELEVATION
 EDF .m                  43.29:  DF ELEVATION
 TDL .m                1152.00:  TOTAL DEPTH (LOGGER)
 VSC .                       0:  VS TO CLOSURE
 MAGU.                 1848525:  MAGUTM CHECKSUM
~Parameter Information Block
#MNEM.UNIT       Value        Description
#---------     -----------    ---------------------------
 AV  .mps                 0.40:  Ann Velocity 
 AVMX.mps                 1.56:  Max Ann Veloc 
 AZIF.deg               300.46:  Azm, Final 
 BHAT.        Rotary Steerable:  BHA Type 
 BROT.°/30m               0.40:  Build Rotating 
 BS  .in                 17.50:  Bit Size 
 BSZ .in                 17.50:  Bit Size 
 BTPL.psig              300.00:  Bit Press Loss 
 CABU.                      No:  Customer Abuse 
 CGEO.          Parviz Guliyev:  Customer Geo 
 TCS .hr                108.13:  Time Ciculation Ended 
 CV  .mps                 0.50:  Crit Velocity 
 CVMX.mps                 2.01:  Max Crit Veloc 
 DD1 .          Fariz Nahmatov:  Direct Drillr 1 
 DD2 .             Ehab Radwan:  Direct Drillr 2 
 DDSV.               Geo-Pilot:  DD Service 
 DEFF.%                  99.00:  % Det Eff 
 DLRX.°/30m               0.50:  Dogleg Rot Max 
 DLSO.°/30m               2.80:  Dogleg Oriented 
 DLSX.°/30m               3.90:  Dogleg Str Max 
 DRET.      09.30.04 03-Jul-20:  Drill End Time 
 DRST.      18.33.04 28-Jun-20:  Drill Start Tim 
 DTIM.hr                 55.83:  Time Drilling 
 EDEP.m                1952.00:  End Depth 
 ENG1.      Bakhtiyar Jabbarli:  Engineer 1 
 ENG2.         Farhad Orujzade:  Engineer 2 
 ENG3.          Rustam Safarov:  Engineer 3 
 ETIM.      01.33.04 04-Jul-20:  End Time 
 FLOI.gpm              1050.00:  Flow In 
 FLON.gpm               950.00:  Flow In Min 
 FLOS.cptm                0.10:  Fluid Loss 
 FLOX.gpm              1150.00:  Flow In Max 
 HFLO.                      No:  High Flow 
 HPRE.                      No:  High Pressure 
 HTEM.                      No:  High Temp 
 HYDO.m                   1.80:  Hydro Offset 
 IFIN.deg                75.26:  Inc, Final 
 IMAX.deg                75.38:  Inc Max 
 IMIN.deg                22.84:  Inc Min 
 IMND.m                 832.38:  Inc Min Depth 
 IMXD.m                1936.55:  Inc Max Depth 
 JARR.                      No:  Jarring 
 LETM.      17.40.00 04-Jul-20:  Log End Time 
 LOST.hr                     0:  Lost Rig Time 
 LSTM.      12.33.04 28-Jun-20:  Log Start Time 
 MDCL.ppm             49500.00:  Mud Chlorides 
 MDES.     Inversion Oil/Synthetic:  Mud Desc 
 DFD .sg                  1.46:  Mud Density 
 MDMN.sg                  1.46:  Dens Mud Min 
 MDMX.sg                  1.46:  Dens Mud Max 
 MOIL.                      70:  Run Mud Oil % 
 MOWR.                   70:30:  Run Mud OWR 
 MSND.                     0.5:  Run Mud Sand % 
 MSOL.                   19.89:  Run Mud Solids% 
 DFV .spqt               72.00:  Mud Viscosity 
 MWOD.in                  9.50:  MWD Tool OD 
 MWSI.                      No:  Serv Intrp, MWD 
 OTIM.hr                146.53:  Time Operating 
 PCON.           Look Like New:  Pad Condition 
 PMAX.psia             2900.00:  Press Op, Max 
 PV  .cP                 38.00:  Mud PV 
 RUN .                     600:  Run Number 
 ROPA.m/hr               22.00:  ROP Avg 
 ROPN.m/hr               10.00:  ROP Min 
 ROPX.m/hr              263.00:  ROP Max 
 RPMA.rpm               155.00:  RPM Surface Avg 
 RPMN.rpm               140.00:  RPM Surface Min 
 RPMX.rpm               160.00:  RPM Surface Max 
 RRUN.                    0600:  Rig Run Number 
 RTIM.hr                  5.00:  Time Reaming 
 SAZI.deg               300.08:  Azm, Start 
 SDEP.m                 800.00:  Start Depth 
 SIDD.                      No:  Serv Intrp, DD 
 SINC.deg                22.84:  Inc, Start 
 SPPA.psig             3000.00:  SPP Avg 
 SPPN.psig             1900.00:  SPP Min 
 SPPX.psig             3200.00:  SPP Max 
 STIM.      12.30.04 28-Jun-20:  Start Time 
 SVCS.                 DD, MWD:  Services 
 SVER.                    9.20:  Sperry Version 
 TDAT.m                1952.00:  Tot Depth Attmp 
 TDDF.                      No:  Trip for DD 
 TDLG.m                1152.00:  Tot Depth Loggd 
 TFF .                      No:  Trip for Fail 
 TQAA.f-kp                8.00:  Torque Abs Avg 
 TQAN.f-kp                5.00:  Torque Abs Min 
 TQAX.f-kp               14.00:  Torque Abs Max 
 TRRT.°/30m               0.50:  Turn Rotating 
 MRT .                  EWR-M5:  Maximum Recorded Temperature 
 TTMX.degC               69.00:  Max Tool Temp 
 VS01.                90610313:  Virtual Str1 SN 
 VS02.                90613431:  Virtual Str2 SN 
 VS03.                90615410:  Virtual Str3 SN 
 WBMN.klb                 6.00:  WOB Min 
 WITN.            Bruce Cheyne:  Customer Rep 
 WITN.             Ayaz Aliyev:  Customer Rep 2 
 WOBA.klb                 6.00:  WOB Avg 
 WOBX.klb                10.00:  WOB Max 
 YP  .lhf2               36.00:  Yield Point 
~Curve Information Block
#MNEM.UNIT                 API CODE     Curve Description
#---------               -----------    ---------------------------
 TIME.HHMMSS            00 000 000 000:  GT Time & Date
 GTET.sec               00 000 000 000:  GT Elapsed Test Time
 GTPQH.psia             00 000 000 000:  GT HR Quartz Pressure
 GTDEPTH.m              00 000 000 000:  GT Depth
 GTTVD.m                00 000 000 000:  GT True Vertical Depth
 GTTQ.degC              00 000 000 000:  GT Quartz Temperature
 GTTN.NONE              00 000 000 000:  GT Test Number
#Other Information
#
#WARRANTY: Halliburton will use its best efforts to furnish customers with 
#accurate information and interpretations that are part of, and incident to, the services 
#provided.  However, Halliburton cannot and does not warrant the accuracy 
#or correctness of such information and interpretations.  Under no circumstances should any 
#such information or interpretation be relied upon as the sole basis for any drilling, 
#completion, production, or financial decision or any procedure involving any risk to the 
#safety of any drilling venture, drilling rig or its crew or any other third party.  The 
#Customer has full responsibility for all drilling, completion and production operation.  
#Halliburton makes no representations or warranties, either expressed or 
#implied, including, but not limited to, the implied warranties of merchantability or fitness 
#for a particular purpose, with respect to the services rendered.  In no event will 
#Halliburton be liable for failure to obtain any particular results or for 
#any damages, including, but not limited to, indirect, special or consequential damages, 
#resulting from the use of any information or interpretation provided by Halliburton.
#
~A           TIME            GTET   GTPQH  GTDEPTH  GTTVD  GTTQ  GTTN 
# ...
   04:18:05.433.02-Jul-2020 391.06 2363.84 1565.98 1276.49 58.37 6.00
   04:18:05.633.02-Jul-2020 391.26 2363.84 1565.98 1276.49 58.37 6.00
   04:18:05.833.02-Jul-2020 391.46 2363.84 1565.98 1276.49 58.37 6.00
   04:18:06.033.02-Jul-2020 391.66 2363.80 1565.98 1276.49 58.37 6.00
   04:18:06.234.02-Jul-2020 391.86 2363.85 1565.98 1276.49 58.37 6.00
   04:18:06.434.02-Jul-2020 392.06 2363.85 1565.98 1276.49 58.37 6.00
   04:18:06.634.02-Jul-2020 392.26 2363.83 1565.98 1276.49 58.37 6.00
   04:18:06.834.02-Jul-2020 392.46 2363.83 1565.98 1276.49 58.37 6.00
   04:18:07.034.02-Jul-2020 392.66 2363.87 1565.98 1276.49 58.38 6.00
   04:18:07.234.02-Jul-2020 392.86 2363.85 1565.98 1276.49 58.38 6.00
   04:18:07.434.02-Jul-2020 393.06 2363.85 1565.98 1276.49 58.38 6.00
   04:18:07.634.02-Jul-2020 393.26 2363.85 1565.98 1276.49 58.38 6.00
   04:18:07.834.02-Jul-2020 393.46 2363.86 1565.98 1276.49 58.38 6.00
   04:18:08.034.02-Jul-2020 393.66 2363.88 1565.98 1276.49 58.38 6.00
   04:18:08.234.02-Jul-2020 393.86 2363.86 1565.98 1276.49 58.38 6.00
   04:18:08.434.02-Jul-2020 394.06 2363.82 1565.98 1276.49 58.38 6.00
   04:18:08.634.02-Jul-2020 394.26 2363.82 1565.98 1276.49 58.38 6.00
   04:18:08.834.02-Jul-2020 394.46 2363.88 1565.98 1276.49 58.38 6.00
   04:18:09.034.02-Jul-2020 394.66 2363.87 1565.98 1276.49 58.38 6.00
   04:18:09.234.02-Jul-2020 394.86 2363.90 1565.98 1276.49 58.38 6.00
   04:18:09.434.02-Jul-2020 395.06 2363.86 1565.98 1276.49 58.38 6.00
   04:18:09.634.02-Jul-2020 395.26 2363.86 1565.98 1276.49 58.38 6.00
   04:18:09.834.02-Jul-2020 395.46 2363.92 1565.98 1276.49 58.38 6.00
   04:18:10.034.02-Jul-2020 395.66 2363.87 1565.98 1276.49 58.38 6.00
   04:18:10.234.02-Jul-2020 395.86 2363.86 1565.98 1276.49 58.38 6.00
   04:18:10.434.02-Jul-2020 396.06 2363.90 1565.98 1276.49 58.38 6.00
   04:18:10.634.02-Jul-2020 396.26 2363.85 1565.98 1276.49 58.38 6.00
   04:18:10.834.02-Jul-2020 396.46 2363.92 1565.98 1276.49 58.38 6.00
   04:18:11.034.02-Jul-2020 396.66 2363.90 1565.98 1276.49 58.38 6.00
   04:18:11.234.02-Jul-2020 396.86 2363.89 1565.98 1276.49 58.38 6.00
   04:18:11.434.02-Jul-2020 397.06 2363.92 1565.98 1276.49 58.38 6.00
   04:18:11.634.02-Jul-2020 397.26 2363.92 1565.98 1276.49 58.38 6.00
   04:18:11.834.02-Jul-2020 397.46 2363.91 1565.98 1276.49 58.38 6.00
   04:18:12.034.02-Jul-2020 397.66 2363.94 1565.98 1276.49 58.38 6.00
   04:18:12.234.02-Jul-2020 397.86 2363.89 1565.98 1276.49 58.38 6.00
   04:18:12.435.02-Jul-2020 398.06 2363.89 1565.98 1276.49 58.38 6.00
   04:18:12.635.02-Jul-2020 398.26 2363.89 1565.98 1276.49 58.38 6.00
   04:18:12.835.02-Jul-2020 398.46 2363.92 1565.98 1276.49 58.38 6.00
   04:18:13.035.02-Jul-2020 398.66 2363.90 1565.98 1276.49 58.38 6.00
   04:18:13.235.02-Jul-2020 398.86 2363.93 1565.98 1276.49 58.38 6.00
   04:18:13.435.02-Jul-2020 399.06 2363.92 1565.98 1276.49 58.38 6.00
   04:18:13.635.02-Jul-2020 399.26 2363.92 1565.98 1276.49 58.38 6.00
   04:18:13.835.02-Jul-2020 399.46 2363.97 1565.98 1276.49 58.38 6.00
   04:18:14.035.02-Jul-2020 399.66 2363.93 1565.98 1276.49 58.38 6.00
   04:18:14.235.02-Jul-2020 399.86 2363.95 1565.98 1276.49 58.39 6.00
   04:18:14.435.02-Jul-2020 400.06 2363.96 1565.98 1276.49 58.39 6.00
   04:18:14.635.02-Jul-2020 400.26 2363.95 1565.98 1276.49 58.39 6.00
   04:18:14.835.02-Jul-2020 400.46 2363.99 1565.98 1276.49 58.39 6.00
   04:18:15.035.02-Jul-2020 400.66 2363.97 1565.98 1276.49 58.39 6.00
   04:18:15.235.02-Jul-2020 400.86 2363.92 1565.98 1276.49 58.39 6.00
   04:18:15.435.02-Jul-2020 401.06 2363.99 1565.98 1276.49 58.39 6.00
   04:18:15.635.02-Jul-2020 401.26 2363.99 1565.98 1276.49 58.39 6.00
   04:18:15.835.02-Jul-2020 401.46 2363.94 1565.98 1276.49 58.39 6.00
   04:18:16.035.02-Jul-2020 401.66 2363.99 1565.98 1276.49 58.39 6.00
   04:18:16.235.02-Jul-2020 401.86 2363.96 1565.98 1276.49 58.39 6.00
   04:18:16.435.02-Jul-2020 402.06 2363.96 1565.98 1276.49 58.39 6.00
   04:18:16.635.02-Jul-2020 402.26 2363.96 1565.98 1276.49 58.39 6.00
   04:18:16.835.02-Jul-2020 402.46 2363.96 1565.98 1276.49 58.39 6.00
   04:18:17.035.02-Jul-2020 402.66 2363.98 1565.98 1276.49 58.39 6.00
   04:18:17.235.02-Jul-2020 402.86 2364.00 1565.98 1276.49 58.39 6.00
   04:18:17.435.02-Jul-2020 403.06 2363.99 1565.98 1276.49 58.39 6.00
   04:18:17.635.02-Jul-2020 403.26 2363.99 1565.98 1276.49 58.39 6.00
   04:18:17.835.02-Jul-2020 403.46 2363.94 1565.98 1276.49 58.39 6.00
   04:18:18.035.02-Jul-2020 403.66 2363.99 1565.98 1276.49 58.39 6.00
   04:18:18.235.02-Jul-2020 403.86 2363.98 1565.98 1276.49 58.39 6.00
   04:18:18.435.02-Jul-2020 404.06 2363.96 1565.98 1276.49 58.39 6.00
   04:18:18.635.02-Jul-2020 404.26 2363.98 1565.98 1276.49 58.39 6.00
   04:18:18.836.02-Jul-2020 404.46 2363.98 1565.98 1276.49 58.39 6.00
   04:18:19.036.02-Jul-2020 404.66 2363.98 1565.98 1276.49 58.39 6.00
   04:18:19.236.02-Jul-2020 404.86 2363.94 1565.98 1276.49 58.39 6.00
   04:18:19.436.02-Jul-2020 405.06 2363.99 1565.98 1276.49 58.39 6.00
   04:18:19.636.02-Jul-2020 405.26 2363.99 1565.98 1276.49 58.39 6.00
   04:18:19.836.02-Jul-2020 405.46 2363.97 1565.98 1276.49 58.39 6.00
   04:18:20.036.02-Jul-2020 405.66 2363.97 1565.98 1276.49 58.39 6.00
   04:18:20.236.02-Jul-2020 405.86 2363.99 1565.98 1276.49 58.39 6.00
   04:18:20.436.02-Jul-2020 406.06 2363.99 1565.98 1276.49 58.39 6.00
   04:18:20.636.02-Jul-2020 406.26 2363.99 1565.98 1276.49 58.39 6.00
   04:18:20.836.02-Jul-2020 406.46 2363.97 1565.98 1276.49 58.39 6.00
   04:18:21.036.02-Jul-2020 406.66 2363.99 1565.98 1276.49 58.39 6.00
   04:18:21.236.02-Jul-2020 406.86 2364.03 1565.98 1276.49 58.39 6.00
   04:18:21.436.02-Jul-2020 407.06 2363.97 1565.98 1276.49 58.39 6.00
   04:18:21.636.02-Jul-2020 407.26 2363.97 1565.98 1276.49 58.39 6.00
   04:18:21.836.02-Jul-2020 407.46 2364.00 1565.98 1276.49 58.40 6.00
   04:18:22.036.02-Jul-2020 407.66 2364.01 1565.98 1276.49 58.40 6.00
   04:18:22.236.02-Jul-2020 407.86 2364.02 1565.98 1276.49 58.40 6.00
   04:18:22.436.02-Jul-2020 408.06 2364.01 1565.98 1276.49 58.40 6.00
   04:18:22.636.02-Jul-2020 408.26 2364.00 1565.98 1276.49 58.40 6.00
   04:18:22.836.02-Jul-2020 408.46 2364.04 1565.98 1276.49 58.40 6.00
   04:18:23.036.02-Jul-2020 408.66 2364.03 1565.98 1276.49 58.40 6.00
   04:18:23.236.02-Jul-2020 408.86 2364.03 1565.98 1276.49 58.40 6.00
   04:18:23.436.02-Jul-2020 409.06 2364.04 1565.98 1276.49 58.40 6.00
   04:18:23.636.02-Jul-2020 409.26 2364.03 1565.98 1276.49 58.40 6.00
   04:18:23.836.02-Jul-2020 409.46 2364.04 1565.98 1276.49 58.40 6.00
   04:18:24.036.02-Jul-2020 409.66 2364.05 1565.98 1276.49 58.40 6.00
   04:18:24.236.02-Jul-2020 409.86 2364.05 1565.98 1276.49 58.40 6.00
   04:18:24.436.02-Jul-2020 410.06 2364.06 1565.98 1276.49 58.40 6.00
   04:18:24.636.02-Jul-2020 410.26 2364.06 1565.98 1276.49 58.40 6.00
   04:18:24.836.02-Jul-2020 410.46 2364.00 1565.98 1276.49 58.40 6.00
   04:18:25.036.02-Jul-2020 410.66 2364.06 1565.98 1276.49 58.40 6.00
   04:18:25.237.02-Jul-2020 410.86 2364.04 1565.98 1276.49 58.40 6.00
   04:18:25.437.02-Jul-2020 411.06 2364.05 1565.98 1276.49 58.40 6.00
   04:18:25.637.02-Jul-2020 411.26 2364.05 1565.98 1276.49 58.40 6.00
   04:18:25.837.02-Jul-2020 411.47 2364.04 1565.98 1276.49 58.40 6.00
   04:18:26.037.02-Jul-2020 411.67 2364.05 1565.98 1276.49 58.40 6.00
   04:18:26.237.02-Jul-2020 411.87 2364.08 1565.98 1276.49 58.40 6.00
   04:18:26.437.02-Jul-2020 412.07 2364.05 1565.98 1276.49 58.40 6.00
   04:18:26.637.02-Jul-2020 412.27 2364.05 1565.98 1276.49 58.40 6.00
   04:18:26.837.02-Jul-2020 412.47 2364.07 1565.98 1276.49 58.40 6.00
   04:18:27.037.02-Jul-2020 412.67 2364.03 1565.98 1276.49 58.40 6.00
   04:18:27.237.02-Jul-2020 412.87 2364.06 1565.98 1276.49 58.40 6.00
   04:18:27.437.02-Jul-2020 413.07 2364.04 1565.98 1276.49 58.40 6.00
   04:18:27.637.02-Jul-2020 413.27 2364.04 1565.98 1276.49 58.40 6.00
   04:18:27.837.02-Jul-2020 413.47 2364.06 1565.98 1276.49 58.40 6.00
   04:18:28.037.02-Jul-2020 413.67 2364.05 1565.98 1276.49 58.40 6.00
   04:18:28.237.02-Jul-2020 413.87 2364.02 1565.98 1276.49 58.40 6.00
