~Version Information
 VERS.                  2.0:   CWLS log ASCII Standard -VERSION 2.0
 WRAP.                   NO:   One line per depth step
~Well Information Block
#MNEM.UNIT     VALUE/NAME     DESCRIPTION
#---------     -----------    ---------------------------
 STRT.S             04:53:08 03-Jul-20: START TIME 04:53:08 03-Jul-20
 STOP.S             05:02:09 03-Jul-20: STOP TIME  05:02:09 03-Jul-20
 STEP.S                   0.00: STEP TIME
 NULL.                 -999.25: NULL VALUE
 DFWT.                        :  DIST FWL TEXT
 DFST.                        :  DIST FSL TEXT
 DMF .             Drill Floor:  DRILL MEAS FROM
 STIM.      09.59.28 01-Jun-20:  START TIME
 DATE.      09.59.28 01-Jun-20:  END TIME
 SPUD.               01-Jun-20:  SPUD DATE
 NREF.                    Grid:  NORTH REFERENCE
 HPTY.       Minimum Curvature:  HOLE POS TYPE
 DMOD.             Drill Model:  DRILL MOD DESC
 SVYD.                  Survey:  SURVEY DESC
 ILTD.               Lithology:  INTERP LTH DESC
 FTOP.          Formation Tops:  FORM TOPS DESC
 SON .        AZ-XX-0905455768:  JOB NUMBER
 WTYP.                Deviated:  WELL TYPE
 COMP.     BP Exploration(Caspian Sea):  COMPANY
 BASE.              Azerbaijan:  LOGGING EQUIPMENT BASE LOCATION
 REGN.                   EESSA:  REGION
 CTRY.              Azerbaijan:  COUNTRY NAME
 FLD .                     ACG:  FIELD NAME
 SRVC.          Turan Drilling:  CONTRACTOR
 WELL.                     B41:  WELL NAME
 RIG .           Central Azeri:  RIG NAME
 DCON.         Sperry Drilling:  DIRECTNL CONTR
 PDAT.          Mean Sea Level:  PERMANENT DATUM
 MDS .        Operator Entered:  MAG DATA SOURCE
 API .                        :  API NUMBER
 CNTY.                        :  COUNTY
 PROV.                        :  PROVINCE
 STAT.                        :  STATE
 UWI .                        :  UNIQUE WELL IDENTIFIER
 LOC .                        :  LOCATION
 LMF .             Drill Floor:  LOG MEASURED FROM
 TVDS.m                  43.29:  TVDSS CORRECTN
 LATI.deg                40.03:  LATITUDE
 LONG.deg                51.35:  LONGITUDE
 WHNS.m                  12.98:  WELL HEAD N/S
 WHEW.m                  -6.62:  WELL HEAD E/W
 UTMX.m              530128.28:  UTM X
 UTMY.m             4433192.49:  UTM Y
 DFWL.m                   0.00:  DISTANCE FWL
 DFSL.m                   0.00:  DISTANCE FSL
 SDEP.m                 378.00:  START DEPTH
 TDD .m                   0.00:  TOTAL DEPTH (DRILLER)
 VSDR.deg               296.18:  VERT SEC DIRECT
 GVFD.g                   1.00:  GRAVITY FIELD
 MFLD.nT              50253.00:  MAGNETIC FIELD
 MDIP.deg                59.49:  MAGNETIC DIP
 MDEC.deg                 6.44:  MAGNETIC DECL
 GRDC.deg                 0.22:  GRID CORRECTION
 AZTC.deg                 6.22:  AZM TOTAL CORR
 EPD .m                   0.00:  ELEVATION
 EGL .m                   0.00:  GROUND ELEVATION
 WDMS.m                 128.20:  WD ELEV
 APD .m                  43.29:  DEPTH ABOVE PD
 AGAP.m                  43.29:  AIR GAP
 VSEW.m                  -6.62:  VERT SEC E/W
 VSNS.m                  12.98:  VERT SEC N/S
 EKB .m                  43.29:  KB ELEVATION
 EDF .m                  43.29:  DF ELEVATION
 TDL .m                1152.00:  TOTAL DEPTH (LOGGER)
 VSC .                       0:  VS TO CLOSURE
 MAGU.                 1848525:  MAGUTM CHECKSUM
~Parameter Information Block
#MNEM.UNIT       Value        Description
#---------     -----------    ---------------------------
 AV  .mps                 0.40:  Ann Velocity 
 AVMX.mps                 1.56:  Max Ann Veloc 
 AZIF.deg               300.46:  Azm, Final 
 BHAT.        Rotary Steerable:  BHA Type 
 BROT.°/30m               0.40:  Build Rotating 
 BS  .in                 17.50:  Bit Size 
 BSZ .in                 17.50:  Bit Size 
 BTPL.psig              300.00:  Bit Press Loss 
 CABU.                      No:  Customer Abuse 
 CGEO.          Parviz Guliyev:  Customer Geo 
 COMM.                     D‘]:  Run Comments 1 
 TCS .hr                108.13:  Time Ciculation Ended 
 CV  .mps                 0.50:  Crit Velocity 
 CVMX.mps                 2.01:  Max Crit Veloc 
 DD1 .          Fariz Nahmatov:  Direct Drillr 1 
 DD2 .             Ehab Radwan:  Direct Drillr 2 
 DDSV.               Geo-Pilot:  DD Service 
 DEFF.%                  99.00:  % Det Eff 
 DLRX.°/30m               0.50:  Dogleg Rot Max 
 DLSO.°/30m               2.80:  Dogleg Oriented 
 DLSX.°/30m               3.90:  Dogleg Str Max 
 DRET.      09.30.04 03-Jul-20:  Drill End Time 
 DRST.      18.33.04 28-Jun-20:  Drill Start Tim 
 DTIM.hr                 55.83:  Time Drilling 
 EDEP.m                1952.00:  End Depth 
 ENG1.      Bakhtiyar Jabbarli:  Engineer 1 
 ENG2.         Farhad Orujzade:  Engineer 2 
 ENG3.          Rustam Safarov:  Engineer 3 
 ETIM.      01.33.04 04-Jul-20:  End Time 
 FLOI.gpm              1050.00:  Flow In 
 FLON.gpm               950.00:  Flow In Min 
 FLOS.cptm                0.10:  Fluid Loss 
 FLOX.gpm              1150.00:  Flow In Max 
 HFLO.                      No:  High Flow 
 HPRE.                      No:  High Pressure 
 HTEM.                      No:  High Temp 
 HYDO.m                   1.80:  Hydro Offset 
 IFIN.deg                75.26:  Inc, Final 
 IMAX.deg                75.38:  Inc Max 
 IMIN.deg                22.84:  Inc Min 
 IMND.m                 832.38:  Inc Min Depth 
 IMXD.m                1936.55:  Inc Max Depth 
 JARR.                      No:  Jarring 
 LETM.      17.40.00 04-Jul-20:  Log End Time 
 LOST.hr                     0:  Lost Rig Time 
 LSTM.      12.33.04 28-Jun-20:  Log Start Time 
 MDCL.ppm             49500.00:  Mud Chlorides 
 MDES.     Inversion Oil/Synthetic:  Mud Desc 
 DFD .sg                  1.46:  Mud Density 
 MDMN.sg                  1.46:  Dens Mud Min 
 MDMX.sg                  1.46:  Dens Mud Max 
 MOIL.                      70:  Run Mud Oil % 
 MOWR.                   70:30:  Run Mud OWR 
 MSND.                     0.5:  Run Mud Sand % 
 MSOL.                   19.89:  Run Mud Solids% 
 DFV .spqt               72.00:  Mud Viscosity 
 MWOD.in                  9.50:  MWD Tool OD 
 MWSI.                      No:  Serv Intrp, MWD 
 OTIM.hr                146.53:  Time Operating 
 PCON.           Look Like New:  Pad Condition 
 PMAX.psia             2900.00:  Press Op, Max 
 PV  .cP                 38.00:  Mud PV 
 RUN .                     600:  Run Number 
 ROPA.m/hr               22.00:  ROP Avg 
 ROPN.m/hr               10.00:  ROP Min 
 ROPX.m/hr              263.00:  ROP Max 
 RPMA.rpm               155.00:  RPM Surface Avg 
 RPMN.rpm               140.00:  RPM Surface Min 
 RPMX.rpm               160.00:  RPM Surface Max 
 RRUN.                    0600:  Rig Run Number 
 RTIM.hr                  5.00:  Time Reaming 
 SAZI.deg               300.08:  Azm, Start 
 SDEP.m                 800.00:  Start Depth 
 SIDD.                      No:  Serv Intrp, DD 
 SINC.deg                22.84:  Inc, Start 
 SPPA.psig             3000.00:  SPP Avg 
 SPPN.psig             1900.00:  SPP Min 
 SPPX.psig             3200.00:  SPP Max 
 STIM.      12.30.04 28-Jun-20:  Start Time 
 SVCS.                 DD, MWD:  Services 
 SVER.                    9.20:  Sperry Version 
 TDAT.m                1952.00:  Tot Depth Attmp 
 TDDF.                      No:  Trip for DD 
 TDLG.m                1152.00:  Tot Depth Loggd 
 TFF .                      No:  Trip for Fail 
 TQAA.f-kp                8.00:  Torque Abs Avg 
 TQAN.f-kp                5.00:  Torque Abs Min 
 TQAX.f-kp               14.00:  Torque Abs Max 
 TRRT.°/30m               0.50:  Turn Rotating 
 MRT .                  EWR-M5:  Maximum Recorded Temperature 
 TTMX.degC               69.00:  Max Tool Temp 
 VS01.                90610313:  Virtual Str1 SN 
 VS02.                90613431:  Virtual Str2 SN 
 VS03.                90615410:  Virtual Str3 SN 
 WBMN.klb                 6.00:  WOB Min 
 WITN.            Bruce Cheyne:  Customer Rep 
 WITN.             Ayaz Aliyev:  Customer Rep 2 
 WOBA.klb                 6.00:  WOB Avg 
 WOBX.klb                10.00:  WOB Max 
 YP  .lhf2               36.00:  Yield Point 
~Curve Information Block
#MNEM.UNIT                 API CODE     Curve Description
#---------               -----------    ---------------------------
 TIME.HHMMSS            00 000 000 000:  GT Time & Date
 GTET.sec               00 000 000 000:  GT Elapsed Test Time
 GTPQH.psia             00 000 000 000:  GT HR Quartz Pressure
 GTDEPTH.m              00 000 000 000:  GT Depth
 GTTVD.m                00 000 000 000:  GT True Vertical Depth
 GTTQ.degC              00 000 000 000:  GT Quartz Temperature
 GTTN.NONE              00 000 000 000:  GT Test Number
#Other Information
#
#WARRANTY: Halliburton will use its best efforts to furnish customers with 
#accurate information and interpretations that are part of, and incident to, the services 
#provided.  However, Halliburton cannot and does not warrant the accuracy 
#or correctness of such information and interpretations.  Under no circumstances should any 
#such information or interpretation be relied upon as the sole basis for any drilling, 
#completion, production, or financial decision or any procedure involving any risk to the 
#safety of any drilling venture, drilling rig or its crew or any other third party.  The 
#Customer has full responsibility for all drilling, completion and production operation.  
#Halliburton makes no representations or warranties, either expressed or 
#implied, including, but not limited to, the implied warranties of merchantability or fitness 
#for a particular purpose, with respect to the services rendered.  In no event will 
#Halliburton be liable for failure to obtain any particular results or for 
#any damages, including, but not limited to, indirect, special or consequential damages, 
#resulting from the use of any information or interpretation provided by Halliburton.
#
~A           TIME            GTET   GTPQH  GTDEPTH  GTTVD  GTTQ  GTTN 
# ...
   04:56:35.000.03-Jul-2020 207.00 2527.61 1886.00 1359.43 58.98 8.00
   04:56:35.200.03-Jul-2020 207.20 2527.61 1886.00 1359.43 58.98 8.00
   04:56:35.400.03-Jul-2020 207.40 2527.61 1886.00 1359.43 58.98 8.00
   04:56:35.600.03-Jul-2020 207.60 2527.64 1886.00 1359.43 58.98 8.00
   04:56:35.800.03-Jul-2020 207.80 2527.59 1886.00 1359.43 58.98 8.00
   04:56:36.000.03-Jul-2020 208.00 2527.51 1886.00 1359.43 58.98 8.00
   04:56:36.200.03-Jul-2020 208.20 2527.51 1886.00 1359.43 58.98 8.00
   04:56:36.400.03-Jul-2020 208.40 2527.43 1886.00 1359.43 58.98 8.00
   04:56:36.600.03-Jul-2020 208.60 2527.42 1886.00 1359.43 58.98 8.00
   04:56:36.800.03-Jul-2020 208.80 2527.41 1886.00 1359.43 58.98 8.00
   04:56:37.000.03-Jul-2020 209.00 2527.39 1886.00 1359.43 58.98 8.00
   04:56:37.200.03-Jul-2020 209.20 2527.39 1886.00 1359.43 58.98 8.00
   04:56:37.400.03-Jul-2020 209.40 2527.35 1886.00 1359.43 58.98 8.00
   04:56:37.600.03-Jul-2020 209.60 2527.32 1886.00 1359.43 58.98 8.00
   04:56:37.800.03-Jul-2020 209.80 2527.31 1886.00 1359.43 58.98 8.00
   04:56:38.000.03-Jul-2020 210.00 2527.36 1886.00 1359.43 58.98 8.00
   04:56:38.200.03-Jul-2020 210.20 2527.36 1886.00 1359.43 58.98 8.00
   04:56:38.400.03-Jul-2020 210.40 2527.34 1886.00 1359.43 58.98 8.00
   04:56:38.600.03-Jul-2020 210.60 2527.33 1886.00 1359.43 58.98 8.00
   04:56:38.800.03-Jul-2020 210.80 2527.33 1886.00 1359.43 58.98 8.00
   04:56:39.000.03-Jul-2020 211.00 2527.35 1886.00 1359.43 58.98 8.00
   04:56:39.200.03-Jul-2020 211.20 2527.35 1886.00 1359.43 58.98 8.00
   04:56:39.400.03-Jul-2020 211.40 2527.37 1886.00 1359.43 58.98 8.00
   04:56:39.600.03-Jul-2020 211.60 2527.38 1886.00 1359.43 58.98 8.00
   04:56:39.800.03-Jul-2020 211.80 2527.38 1886.00 1359.43 58.98 8.00
   04:56:40.000.03-Jul-2020 212.00 2527.39 1886.00 1359.43 58.98 8.00
   04:56:40.200.03-Jul-2020 212.20 2527.41 1886.00 1359.43 58.98 8.00
   04:56:40.400.03-Jul-2020 212.40 2527.42 1886.00 1359.43 58.98 8.00
   04:56:40.600.03-Jul-2020 212.60 2527.42 1886.00 1359.43 58.98 8.00
   04:56:40.800.03-Jul-2020 212.80 2527.43 1886.00 1359.43 58.98 8.00
   04:56:41.000.03-Jul-2020 213.00 2527.45 1886.00 1359.43 58.98 8.00
   04:56:41.200.03-Jul-2020 213.20 2527.45 1886.00 1359.43 58.98 8.00
   04:56:41.400.03-Jul-2020 213.40 2527.45 1886.00 1359.43 58.98 8.00
   04:56:41.600.03-Jul-2020 213.60 2527.44 1886.00 1359.43 58.98 8.00
   04:56:41.800.03-Jul-2020 213.80 2527.48 1886.00 1359.43 58.98 8.00
   04:56:42.000.03-Jul-2020 214.00 2527.42 1886.00 1359.43 58.98 8.00
   04:56:42.200.03-Jul-2020 214.20 2527.42 1886.00 1359.43 58.98 8.00
   04:56:42.400.03-Jul-2020 214.40 2527.36 1886.00 1359.43 58.98 8.00
   04:56:42.600.03-Jul-2020 214.60 2527.41 1886.00 1359.43 58.98 8.00
   04:56:42.800.03-Jul-2020 214.80 2527.43 1886.00 1359.43 58.98 8.00
   04:56:43.000.03-Jul-2020 215.00 2527.40 1886.00 1359.43 58.98 8.00
   04:56:43.200.03-Jul-2020 215.20 2527.41 1886.00 1359.43 58.98 8.00
   04:56:43.400.03-Jul-2020 215.40 2527.40 1886.00 1359.43 58.98 8.00
   04:56:43.600.03-Jul-2020 215.60 2527.41 1886.00 1359.43 58.98 8.00
   04:56:43.800.03-Jul-2020 215.80 2527.39 1886.00 1359.43 58.98 8.00
   04:56:44.000.03-Jul-2020 216.00 2527.39 1886.00 1359.43 58.98 8.00
   04:56:44.200.03-Jul-2020 216.20 2527.39 1886.00 1359.43 58.98 8.00
   04:56:44.400.03-Jul-2020 216.40 2527.36 1886.00 1359.43 58.98 8.00
   04:56:44.600.03-Jul-2020 216.60 2527.31 1886.00 1359.43 58.98 8.00
   04:56:44.800.03-Jul-2020 216.80 2527.24 1886.00 1359.43 58.98 8.00
   04:56:45.000.03-Jul-2020 217.00 2527.25 1886.00 1359.43 58.98 8.00
   04:56:45.200.03-Jul-2020 217.20 2527.25 1886.00 1359.43 58.98 8.00
   04:56:45.400.03-Jul-2020 217.40 2527.30 1886.00 1359.43 58.98 8.00
   04:56:45.600.03-Jul-2020 217.60 2527.37 1886.00 1359.43 58.98 8.00
   04:56:45.800.03-Jul-2020 217.80 2527.26 1886.00 1359.43 58.98 8.00
   04:56:46.000.03-Jul-2020 218.00 2527.19 1886.00 1359.43 58.98 8.00
   04:56:46.200.03-Jul-2020 218.20 2527.19 1886.00 1359.43 58.98 8.00
   04:56:46.400.03-Jul-2020 218.40 2527.18 1886.00 1359.43 58.98 8.00
   04:56:46.600.03-Jul-2020 218.60 2527.19 1886.00 1359.43 58.98 8.00
   04:56:46.800.03-Jul-2020 218.80 2527.18 1886.00 1359.43 58.98 8.00
   04:56:47.000.03-Jul-2020 219.00 2527.18 1886.00 1359.43 58.98 8.00
   04:56:47.200.03-Jul-2020 219.20 2527.23 1886.00 1359.43 58.98 8.00
   04:56:47.400.03-Jul-2020 219.40 2527.12 1886.00 1359.43 58.98 8.00
   04:56:47.600.03-Jul-2020 219.60 2527.17 1886.00 1359.43 58.98 8.00
   04:56:47.800.03-Jul-2020 219.80 2527.14 1886.00 1359.43 58.98 8.00
   04:56:48.000.03-Jul-2020 220.00 2527.17 1886.00 1359.43 58.98 8.00
   04:56:48.200.03-Jul-2020 220.20 2527.17 1886.00 1359.43 58.98 8.00
   04:56:48.400.03-Jul-2020 220.40 2527.10 1886.00 1359.43 58.98 8.00
   04:56:48.600.03-Jul-2020 220.60 2527.08 1886.00 1359.43 58.98 8.00
   04:56:48.800.03-Jul-2020 220.80 2527.08 1886.00 1359.43 58.98 8.00
   04:56:49.000.03-Jul-2020 221.00 2527.09 1886.00 1359.43 58.98 8.00
   04:56:49.200.03-Jul-2020 221.20 2527.09 1886.00 1359.43 58.98 8.00
   04:56:49.400.03-Jul-2020 221.40 2527.14 1886.00 1359.43 58.98 8.00
   04:56:49.600.03-Jul-2020 221.60 2527.14 1886.00 1359.43 58.98 8.00
   04:56:49.800.03-Jul-2020 221.80 2527.17 1886.00 1359.43 58.98 8.00
   04:56:50.000.03-Jul-2020 222.00 2527.19 1886.00 1359.43 58.98 8.00
   04:56:50.200.03-Jul-2020 222.20 2527.19 1886.00 1359.43 58.98 8.00
   04:56:50.400.03-Jul-2020 222.40 2527.19 1886.00 1359.43 58.98 8.00
   04:56:50.600.03-Jul-2020 222.60 2527.21 1886.00 1359.43 58.98 8.00
   04:56:50.800.03-Jul-2020 222.80 2527.21 1886.00 1359.43 58.98 8.00
   04:56:51.000.03-Jul-2020 223.00 2504.31 1886.00 1359.43 58.98 8.00
   04:56:51.200.03-Jul-2020 223.20 2504.31 1886.00 1359.43 58.98 8.00
   04:56:51.400.03-Jul-2020 223.40 2467.76 1886.00 1359.43 58.98 8.00
   04:56:51.600.03-Jul-2020 223.60 2447.61 1886.00 1359.43 58.98 8.00
   04:56:51.800.03-Jul-2020 223.80 2463.59 1886.00 1359.43 58.98 8.00
   04:56:52.000.03-Jul-2020 224.00 2483.27 1886.00 1359.43 58.98 8.00
   04:56:52.200.03-Jul-2020 224.20 2504.25 1886.00 1359.43 58.98 8.00
   04:56:52.400.03-Jul-2020 224.40 2504.45 1886.00 1359.43 58.98 8.00
   04:56:52.600.03-Jul-2020 224.60 2499.71 1886.00 1359.43 58.98 8.00
   04:56:52.800.03-Jul-2020 224.80 2497.25 1886.00 1359.43 58.98 8.00
   04:56:53.000.03-Jul-2020 225.00 2491.17 1886.00 1359.43 58.98 8.00
   04:56:53.200.03-Jul-2020 225.20 2491.17 1886.00 1359.43 58.98 8.00
   04:56:53.400.03-Jul-2020 225.40 2490.57 1886.00 1359.43 58.98 8.00
   04:56:53.600.03-Jul-2020 225.60 2486.67 1886.00 1359.43 58.98 8.00
   04:56:53.800.03-Jul-2020 225.80 2484.87 1886.00 1359.43 58.98 8.00
   04:56:54.000.03-Jul-2020 226.00 2484.17 1886.00 1359.43 58.98 8.00
   04:56:54.200.03-Jul-2020 226.20 2484.17 1886.00 1359.43 58.98 8.00
   04:56:54.400.03-Jul-2020 226.40 2492.69 1886.00 1359.43 58.98 8.00
   04:56:54.600.03-Jul-2020 226.60 2507.79 1886.00 1359.43 58.98 8.00
   04:56:54.800.03-Jul-2020 226.80 2504.16 1886.00 1359.43 58.98 8.00
   04:56:55.000.03-Jul-2020 227.00 2500.98 1886.00 1359.43 58.98 8.00
   04:56:55.200.03-Jul-2020 227.20 2502.18 1886.00 1359.43 58.98 8.00
   04:56:55.400.03-Jul-2020 227.40 2500.86 1886.00 1359.43 58.98 8.00
   04:56:55.600.03-Jul-2020 227.60 2497.22 1886.00 1359.43 58.98 8.00
   04:56:55.800.03-Jul-2020 227.80 2496.84 1886.00 1359.43 58.98 8.00
   04:56:56.000.03-Jul-2020 228.00 2494.66 1886.00 1359.43 58.98 8.00
   04:56:56.200.03-Jul-2020 228.20 2494.66 1886.00 1359.43 58.98 8.00
   04:56:56.400.03-Jul-2020 228.40 2491.31 1886.00 1359.43 58.98 8.00
   04:56:56.600.03-Jul-2020 228.60 2489.37 1886.00 1359.43 58.98 8.00
   04:56:56.800.03-Jul-2020 228.80 2489.43 1886.00 1359.43 58.98 8.00
   04:56:57.000.03-Jul-2020 229.00 2490.75 1886.00 1359.43 58.98 8.00
   04:56:57.200.03-Jul-2020 229.20 2490.75 1886.00 1359.43 58.98 8.00
   04:56:57.400.03-Jul-2020 229.40 2488.63 1886.00 1359.43 58.98 8.00
   04:56:57.600.03-Jul-2020 229.60 2487.32 1886.00 1359.43 58.98 8.00
   04:56:57.800.03-Jul-2020 229.80 2485.87 1886.00 1359.43 58.98 8.00
