~Version Information
 VERS.                  2.0:   CWLS log ASCII Standard -VERSION 2.0
 WRAP.                   NO:   One line per depth step
~Well Information Block
#MNEM.UNIT     VALUE/NAME     DESCRIPTION
#---------     -----------    ---------------------------
 STRT.S             23:30:34 30-Jun-20: START TIME 23:30:34 30-Jun-20
 STOP.S             23:39:34 30-Jun-20: STOP TIME  23:39:34 30-Jun-20
 STEP.S                   0.00: STEP TIME
 NULL.                 -999.25: NULL VALUE
 DFWT.                        :  DIST FWL TEXT
 DFST.                        :  DIST FSL TEXT
 DMF .             Drill Floor:  DRILL MEAS FROM
 STIM.      09.59.28 01-Jun-20:  START TIME
 DATE.      09.59.28 01-Jun-20:  END TIME
 SPUD.               01-Jun-20:  SPUD DATE
 NREF.                    Grid:  NORTH REFERENCE
 HPTY.       Minimum Curvature:  HOLE POS TYPE
 DMOD.             Drill Model:  DRILL MOD DESC
 SVYD.                  Survey:  SURVEY DESC
 ILTD.               Lithology:  INTERP LTH DESC
 FTOP.          Formation Tops:  FORM TOPS DESC
 SON .        AZ-XX-0905455768:  JOB NUMBER
 WTYP.                Deviated:  WELL TYPE
 COMP.     BP Exploration(Caspian Sea):  COMPANY
 BASE.              Azerbaijan:  LOGGING EQUIPMENT BASE LOCATION
 REGN.                   EESSA:  REGION
 CTRY.              Azerbaijan:  COUNTRY NAME
 FLD .                     ACG:  FIELD NAME
 SRVC.          Turan Drilling:  CONTRACTOR
 WELL.                     B41:  WELL NAME
 RIG .           Central Azeri:  RIG NAME
 DCON.         Sperry Drilling:  DIRECTNL CONTR
 PDAT.          Mean Sea Level:  PERMANENT DATUM
 MDS .        Operator Entered:  MAG DATA SOURCE
 API .                        :  API NUMBER
 CNTY.                        :  COUNTY
 PROV.                        :  PROVINCE
 STAT.                        :  STATE
 UWI .                        :  UNIQUE WELL IDENTIFIER
 LOC .                        :  LOCATION
 LMF .             Drill Floor:  LOG MEASURED FROM
 TVDS.m                  43.29:  TVDSS CORRECTN
 LATI.deg                40.03:  LATITUDE
 LONG.deg                51.35:  LONGITUDE
 WHNS.m                  12.98:  WELL HEAD N/S
 WHEW.m                  -6.62:  WELL HEAD E/W
 UTMX.m              530128.28:  UTM X
 UTMY.m             4433192.49:  UTM Y
 DFWL.m                   0.00:  DISTANCE FWL
 DFSL.m                   0.00:  DISTANCE FSL
 SDEP.m                 378.00:  START DEPTH
 TDD .m                   0.00:  TOTAL DEPTH (DRILLER)
 VSDR.deg               296.18:  VERT SEC DIRECT
 GVFD.g                   1.00:  GRAVITY FIELD
 MFLD.nT              50253.00:  MAGNETIC FIELD
 MDIP.deg                59.49:  MAGNETIC DIP
 MDEC.deg                 6.44:  MAGNETIC DECL
 GRDC.deg                 0.22:  GRID CORRECTION
 AZTC.deg                 6.22:  AZM TOTAL CORR
 EPD .m                   0.00:  ELEVATION
 EGL .m                   0.00:  GROUND ELEVATION
 WDMS.m                 128.20:  WD ELEV
 APD .m                  43.29:  DEPTH ABOVE PD
 AGAP.m                  43.29:  AIR GAP
 VSEW.m                  -6.62:  VERT SEC E/W
 VSNS.m                  12.98:  VERT SEC N/S
 EKB .m                  43.29:  KB ELEVATION
 EDF .m                  43.29:  DF ELEVATION
 TDL .m                1152.00:  TOTAL DEPTH (LOGGER)
 VSC .                       0:  VS TO CLOSURE
 MAGU.                 1848525:  MAGUTM CHECKSUM
~Parameter Information Block
#MNEM.UNIT       Value        Description
#---------     -----------    ---------------------------
 AV  .mps                 0.40:  Ann Velocity 
 AVMX.mps                 1.56:  Max Ann Veloc 
 AZIF.deg               300.46:  Azm, Final 
 BHAT.        Rotary Steerable:  BHA Type 
 BROT.°/30m               0.40:  Build Rotating 
 BS  .in                 17.50:  Bit Size 
 BSZ .in                 17.50:  Bit Size 
 BTPL.psig              300.00:  Bit Press Loss 
 CABU.                      No:  Customer Abuse 
 CGEO.          Parviz Guliyev:  Customer Geo 
 COMM.                     œº_:  Run Comments 1 
 TCS .hr                108.13:  Time Ciculation Ended 
 CV  .mps                 0.50:  Crit Velocity 
 CVMX.mps                 2.01:  Max Crit Veloc 
 DD1 .          Fariz Nahmatov:  Direct Drillr 1 
 DD2 .             Ehab Radwan:  Direct Drillr 2 
 DDSV.               Geo-Pilot:  DD Service 
 DEFF.%                  99.00:  % Det Eff 
 DLRX.°/30m               0.50:  Dogleg Rot Max 
 DLSO.°/30m               2.80:  Dogleg Oriented 
 DLSX.°/30m               3.90:  Dogleg Str Max 
 DRET.      09.30.04 03-Jul-20:  Drill End Time 
 DRST.      18.33.04 28-Jun-20:  Drill Start Tim 
 DTIM.hr                 55.83:  Time Drilling 
 EDEP.m                1952.00:  End Depth 
 ENG1.      Bakhtiyar Jabbarli:  Engineer 1 
 ENG2.         Farhad Orujzade:  Engineer 2 
 ENG3.          Rustam Safarov:  Engineer 3 
 ETIM.      01.33.04 04-Jul-20:  End Time 
 FLOI.gpm              1050.00:  Flow In 
 FLON.gpm               950.00:  Flow In Min 
 FLOS.cptm                0.10:  Fluid Loss 
 FLOX.gpm              1150.00:  Flow In Max 
 HFLO.                      No:  High Flow 
 HPRE.                      No:  High Pressure 
 HTEM.                      No:  High Temp 
 HYDO.m                   1.80:  Hydro Offset 
 IFIN.deg                75.26:  Inc, Final 
 IMAX.deg                75.38:  Inc Max 
 IMIN.deg                22.84:  Inc Min 
 IMND.m                 832.38:  Inc Min Depth 
 IMXD.m                1936.55:  Inc Max Depth 
 JARR.                      No:  Jarring 
 LETM.      17.40.00 04-Jul-20:  Log End Time 
 LOST.hr                     0:  Lost Rig Time 
 LSTM.      12.33.04 28-Jun-20:  Log Start Time 
 MDCL.ppm             49500.00:  Mud Chlorides 
 MDES.     Inversion Oil/Synthetic:  Mud Desc 
 DFD .sg                  1.46:  Mud Density 
 MDMN.sg                  1.46:  Dens Mud Min 
 MDMX.sg                  1.46:  Dens Mud Max 
 MOIL.                      70:  Run Mud Oil % 
 MOWR.                   70:30:  Run Mud OWR 
 MSND.                     0.5:  Run Mud Sand % 
 MSOL.                   19.89:  Run Mud Solids% 
 DFV .spqt               72.00:  Mud Viscosity 
 MWOD.in                  9.50:  MWD Tool OD 
 MWSI.                      No:  Serv Intrp, MWD 
 OTIM.hr                146.53:  Time Operating 
 PCON.           Look Like New:  Pad Condition 
 PMAX.psia             2900.00:  Press Op, Max 
 PV  .cP                 38.00:  Mud PV 
 RUN .                     600:  Run Number 
 ROPA.m/hr               22.00:  ROP Avg 
 ROPN.m/hr               10.00:  ROP Min 
 ROPX.m/hr              263.00:  ROP Max 
 RPMA.rpm               155.00:  RPM Surface Avg 
 RPMN.rpm               140.00:  RPM Surface Min 
 RPMX.rpm               160.00:  RPM Surface Max 
 RRUN.                    0600:  Rig Run Number 
 RTIM.hr                  5.00:  Time Reaming 
 SAZI.deg               300.08:  Azm, Start 
 SDEP.m                 800.00:  Start Depth 
 SIDD.                      No:  Serv Intrp, DD 
 SINC.deg                22.84:  Inc, Start 
 SPPA.psig             3000.00:  SPP Avg 
 SPPN.psig             1900.00:  SPP Min 
 SPPX.psig             3200.00:  SPP Max 
 STIM.      12.30.04 28-Jun-20:  Start Time 
 SVCS.                 DD, MWD:  Services 
 SVER.                    9.20:  Sperry Version 
 TDAT.m                1952.00:  Tot Depth Attmp 
 TDDF.                      No:  Trip for DD 
 TDLG.m                1152.00:  Tot Depth Loggd 
 TFF .                      No:  Trip for Fail 
 TQAA.f-kp                8.00:  Torque Abs Avg 
 TQAN.f-kp                5.00:  Torque Abs Min 
 TQAX.f-kp               14.00:  Torque Abs Max 
 TRRT.°/30m               0.50:  Turn Rotating 
 MRT .                  EWR-M5:  Maximum Recorded Temperature 
 TTMX.degC               69.00:  Max Tool Temp 
 VS01.                90610313:  Virtual Str1 SN 
 VS02.                90613431:  Virtual Str2 SN 
 VS03.                90615410:  Virtual Str3 SN 
 WBMN.klb                 6.00:  WOB Min 
 WITN.            Bruce Cheyne:  Customer Rep 
 WITN.             Ayaz Aliyev:  Customer Rep 2 
 WOBA.klb                 6.00:  WOB Avg 
 WOBX.klb                10.00:  WOB Max 
 YP  .lhf2               36.00:  Yield Point 
~Curve Information Block
#MNEM.UNIT                 API CODE     Curve Description
#---------               -----------    ---------------------------
 TIME.HHMMSS            00 000 000 000:  GT Time & Date
 GTET.sec               00 000 000 000:  GT Elapsed Test Time
 GTPQH.psia             00 000 000 000:  GT HR Quartz Pressure
 GTDEPTH.m              00 000 000 000:  GT Depth
 GTTVD.m                00 000 000 000:  GT True Vertical Depth
 GTTQ.degC              00 000 000 000:  GT Quartz Temperature
 GTTN.NONE              00 000 000 000:  GT Test Number
#Other Information
#
#WARRANTY: Halliburton will use its best efforts to furnish customers with 
#accurate information and interpretations that are part of, and incident to, the services 
#provided.  However, Halliburton cannot and does not warrant the accuracy 
#or correctness of such information and interpretations.  Under no circumstances should any 
#such information or interpretation be relied upon as the sole basis for any drilling, 
#completion, production, or financial decision or any procedure involving any risk to the 
#safety of any drilling venture, drilling rig or its crew or any other third party.  The 
#Customer has full responsibility for all drilling, completion and production operation.  
#Halliburton makes no representations or warranties, either expressed or 
#implied, including, but not limited to, the implied warranties of merchantability or fitness 
#for a particular purpose, with respect to the services rendered.  In no event will 
#Halliburton be liable for failure to obtain any particular results or for 
#any damages, including, but not limited to, indirect, special or consequential damages, 
#resulting from the use of any information or interpretation provided by Halliburton.
#
~A           TIME            GTET   GTPQH  GTDEPTH  GTTVD  GTTQ  GTTN 
# ...
   23:30:57.492.30-Jun-2020  23.01 2323.78 1161.05 1096.50 59.68 4.00
   23:30:57.692.30-Jun-2020  23.21 2325.49 1161.05 1096.50 59.68 4.00
   23:30:57.892.30-Jun-2020  23.41 2325.54 1161.05 1096.50 59.68 4.00
   23:30:58.092.30-Jun-2020  23.61 2324.68 1161.05 1096.50 59.68 4.00
   23:30:58.292.30-Jun-2020  23.81 2325.20 1161.05 1096.50 59.68 4.00
   23:30:58.492.30-Jun-2020  24.01 2324.37 1161.05 1096.50 59.68 4.00
   23:30:58.692.30-Jun-2020  24.21 2324.37 1161.05 1096.50 59.68 4.00
   23:30:58.892.30-Jun-2020  24.41 2324.97 1161.05 1096.50 59.68 4.00
   23:30:59.092.30-Jun-2020  24.61 2324.38 1161.05 1096.50 59.68 4.00
   23:30:59.292.30-Jun-2020  24.81 2324.88 1161.05 1096.50 59.68 4.00
   23:30:59.492.30-Jun-2020  25.01 2325.81 1161.05 1096.50 59.68 4.00
   23:30:59.692.30-Jun-2020  25.21 2325.81 1161.05 1096.50 59.68 4.00
   23:30:59.892.30-Jun-2020  25.41 2321.53 1161.05 1096.50 59.68 4.00
   23:31:00.093.30-Jun-2020  25.61 2324.01 1161.05 1096.50 59.68 4.00
   23:31:00.293.30-Jun-2020  25.81 2325.30 1161.05 1096.50 59.68 4.00
   23:31:00.493.30-Jun-2020  26.01 2323.58 1161.05 1096.50 59.68 4.00
   23:31:00.693.30-Jun-2020  26.21 2323.58 1161.05 1096.50 59.68 4.00
   23:31:00.893.30-Jun-2020  26.41 2323.91 1161.05 1096.50 59.68 4.00
   23:31:01.093.30-Jun-2020  26.61 2323.18 1161.05 1096.50 59.68 4.00
   23:31:01.293.30-Jun-2020  26.81 2324.53 1161.05 1096.50 59.68 4.00
   23:31:01.493.30-Jun-2020  27.01 2323.89 1161.05 1096.50 59.68 4.00
   23:31:01.693.30-Jun-2020  27.21 2323.89 1161.05 1096.50 59.68 4.00
   23:31:01.893.30-Jun-2020  27.41 2323.70 1161.05 1096.50 59.68 4.00
   23:31:02.093.30-Jun-2020  27.61 2323.26 1161.05 1096.50 59.68 4.00
   23:31:02.293.30-Jun-2020  27.81 2323.00 1161.05 1096.50 59.68 4.00
   23:31:02.493.30-Jun-2020  28.01 2323.65 1161.05 1096.50 59.68 4.00
   23:31:02.693.30-Jun-2020  28.21 2323.65 1161.05 1096.50 59.68 4.00
   23:31:02.893.30-Jun-2020  28.41 2324.60 1161.05 1096.50 59.68 4.00
   23:31:03.093.30-Jun-2020  28.61 2324.15 1161.05 1096.50 59.68 4.00
   23:31:03.293.30-Jun-2020  28.81 2323.40 1161.05 1096.50 59.68 4.00
   23:31:03.494.30-Jun-2020  29.01 2322.00 1161.05 1096.50 59.68 4.00
   23:31:03.694.30-Jun-2020  29.21 2322.00 1161.05 1096.50 59.68 4.00
   23:31:03.894.30-Jun-2020  29.41 2324.04 1161.05 1096.50 59.68 4.00
   23:31:04.094.30-Jun-2020  29.61 2324.22 1161.05 1096.50 59.68 4.00
   23:31:04.294.30-Jun-2020  29.81 2323.89 1161.05 1096.50 59.68 4.00
   23:31:04.494.30-Jun-2020  30.01 2324.12 1161.05 1096.50 59.68 4.00
   23:31:04.694.30-Jun-2020  30.21 2324.12 1161.05 1096.50 59.68 4.00
   23:31:04.894.30-Jun-2020  30.41 2323.45 1161.05 1096.50 59.68 4.00
   23:31:05.094.30-Jun-2020  30.61 2324.30 1161.05 1096.50 59.68 4.00
   23:31:05.294.30-Jun-2020  30.81 2324.65 1161.05 1096.50 59.68 4.00
   23:31:05.494.30-Jun-2020  31.01 2323.81 1161.05 1096.50 59.68 4.00
   23:31:05.694.30-Jun-2020  31.21 2323.65 1161.05 1096.50 59.68 4.00
   23:31:05.894.30-Jun-2020  31.41 2322.35 1161.05 1096.50 59.68 4.00
   23:31:06.094.30-Jun-2020  31.61 2323.29 1161.05 1096.50 59.68 4.00
   23:31:06.294.30-Jun-2020  31.81 2325.30 1161.05 1096.50 59.68 4.00
   23:31:06.494.30-Jun-2020  32.01 2325.59 1161.05 1096.50 59.68 4.00
   23:31:06.694.30-Jun-2020  32.21 2325.59 1161.05 1096.50 59.68 4.00
   23:31:06.895.30-Jun-2020  32.41 2322.77 1161.05 1096.50 59.68 4.00
   23:31:07.095.30-Jun-2020  32.61 2324.50 1161.05 1096.50 59.68 4.00
   23:31:07.295.30-Jun-2020  32.81 2323.36 1161.05 1096.50 59.68 4.00
   23:31:07.495.30-Jun-2020  33.01 2323.53 1161.05 1096.50 59.68 4.00
   23:31:07.695.30-Jun-2020  33.21 2323.53 1161.05 1096.50 59.68 4.00
   23:31:07.895.30-Jun-2020  33.41 2323.00 1161.05 1096.50 59.68 4.00
   23:31:08.095.30-Jun-2020  33.61 2323.85 1161.05 1096.50 59.68 4.00
   23:31:08.295.30-Jun-2020  33.81 2323.86 1161.05 1096.50 59.68 4.00
   23:31:08.495.30-Jun-2020  34.01 2323.62 1161.05 1096.50 59.68 4.00
   23:31:08.695.30-Jun-2020  34.21 2323.62 1161.05 1096.50 59.68 4.00
   23:31:08.895.30-Jun-2020  34.41 2325.27 1161.05 1096.50 59.68 4.00
   23:31:09.095.30-Jun-2020  34.61 2323.24 1161.05 1096.50 59.68 4.00
   23:31:09.295.30-Jun-2020  34.81 2321.89 1161.05 1096.50 59.68 4.00
   23:31:09.495.30-Jun-2020  35.01 2323.08 1161.05 1096.50 59.68 4.00
   23:31:09.695.30-Jun-2020  35.21 2325.47 1161.05 1096.50 59.68 4.00
   23:31:09.895.30-Jun-2020  35.41 2324.90 1161.05 1096.50 59.68 4.00
   23:31:10.095.30-Jun-2020  35.61 2323.64 1161.05 1096.50 59.68 4.00
   23:31:10.296.30-Jun-2020  35.81 2324.47 1161.05 1096.50 59.68 4.00
   23:31:10.496.30-Jun-2020  36.01 2324.95 1161.05 1096.50 59.68 4.00
   23:31:10.696.30-Jun-2020  36.21 2324.95 1161.05 1096.50 59.68 4.00
   23:31:10.896.30-Jun-2020  36.41 2324.50 1161.05 1096.50 59.68 4.00
   23:31:11.096.30-Jun-2020  36.61 2324.69 1161.05 1096.50 59.68 4.00
   23:31:11.296.30-Jun-2020  36.81 2324.33 1161.05 1096.50 59.68 4.00
   23:31:11.496.30-Jun-2020  37.01 2324.21 1161.05 1096.50 59.68 4.00
   23:31:11.696.30-Jun-2020  37.21 2324.21 1161.05 1096.50 59.68 4.00
   23:31:11.896.30-Jun-2020  37.41 2323.94 1161.05 1096.50 59.68 4.00
   23:31:12.096.30-Jun-2020  37.61 2325.23 1161.05 1096.50 59.68 4.00
   23:31:12.296.30-Jun-2020  37.81 2325.55 1161.05 1096.50 59.68 4.00
   23:31:12.496.30-Jun-2020  38.01 2324.72 1161.05 1096.50 59.68 4.00
   23:31:12.696.30-Jun-2020  38.21 2324.72 1161.05 1096.50 59.68 4.00
   23:31:12.896.30-Jun-2020  38.41 2323.47 1161.05 1096.50 59.68 4.00
   23:31:13.096.30-Jun-2020  38.61 2322.59 1161.05 1096.50 59.68 4.00
   23:31:13.296.30-Jun-2020  38.81 2323.97 1161.05 1096.50 59.68 4.00
   23:31:13.496.30-Jun-2020  39.01 2324.00 1161.05 1096.50 59.68 4.00
   23:31:13.697.30-Jun-2020  39.21 2323.76 1161.05 1096.50 59.68 4.00
   23:31:13.897.30-Jun-2020  39.41 2324.09 1161.05 1096.50 59.68 4.00
   23:31:14.097.30-Jun-2020  39.61 2323.93 1161.05 1096.50 59.68 4.00
   23:31:14.297.30-Jun-2020  39.81 2323.19 1161.05 1096.50 59.68 4.00
   23:31:14.497.30-Jun-2020  40.01 2323.56 1161.05 1096.50 59.68 4.00
   23:31:14.697.30-Jun-2020  40.21 2323.56 1161.05 1096.50 59.68 4.00
   23:31:14.897.30-Jun-2020  40.41 2323.65 1161.05 1096.50 59.68 4.00
   23:31:15.097.30-Jun-2020  40.61 2322.81 1161.05 1096.50 59.68 4.00
   23:31:15.297.30-Jun-2020  40.81 2322.74 1161.05 1096.50 59.68 4.00
   23:31:15.497.30-Jun-2020  41.01 2323.14 1161.05 1096.50 59.68 4.00
   23:31:15.697.30-Jun-2020  41.21 2323.14 1161.05 1096.50 59.68 4.00
   23:31:15.897.30-Jun-2020  41.41 2324.83 1161.05 1096.50 59.68 4.00
   23:31:16.097.30-Jun-2020  41.61 2324.39 1161.05 1096.50 59.68 4.00
   23:31:16.297.30-Jun-2020  41.81 2323.67 1161.05 1096.50 59.68 4.00
   23:31:16.497.30-Jun-2020  42.01 2323.58 1161.05 1096.50 59.68 4.00
   23:31:16.697.30-Jun-2020  42.21 2323.58 1161.05 1096.50 59.68 4.00
   23:31:16.897.30-Jun-2020  42.41 2321.42 1161.05 1096.50 59.68 4.00
   23:31:17.097.30-Jun-2020  42.61 2323.91 1161.05 1096.50 59.68 4.00
   23:31:17.298.30-Jun-2020  42.81 2324.55 1161.05 1096.50 59.68 4.00
   23:31:17.498.30-Jun-2020  43.01 2323.77 1161.05 1096.50 59.68 4.00
   23:31:17.698.30-Jun-2020  43.21 2323.77 1161.05 1096.50 59.68 4.00
   23:31:17.898.30-Jun-2020  43.41 2322.45 1161.05 1096.50 59.68 4.00
   23:31:18.098.30-Jun-2020  43.61 2323.98 1161.05 1096.50 59.68 4.00
   23:31:18.298.30-Jun-2020  43.81 2324.46 1161.05 1096.50 59.68 4.00
   23:31:18.498.30-Jun-2020  44.01 2323.97 1161.05 1096.50 59.68 4.00
   23:31:18.698.30-Jun-2020  44.21 2323.97 1161.05 1096.50 59.68 4.00
   23:31:18.898.30-Jun-2020  44.41 2321.94 1161.05 1096.50 59.68 4.00
   23:31:19.098.30-Jun-2020  44.61 2323.64 1161.05 1096.50 59.68 4.00
   23:31:19.298.30-Jun-2020  44.81 2323.51 1161.05 1096.50 59.68 4.00
   23:31:19.498.30-Jun-2020  45.01 2324.14 1161.05 1096.50 59.68 4.00
   23:31:19.698.30-Jun-2020  45.21 2324.14 1161.05 1096.50 59.68 4.00
   23:31:19.898.30-Jun-2020  45.41 2325.44 1161.05 1096.50 59.68 4.00
   23:31:20.098.30-Jun-2020  45.61 2324.44 1161.05 1096.50 59.68 4.00
   23:31:20.298.30-Jun-2020  45.81 2322.34 1161.05 1096.50 59.68 4.00
