~Version Information
 VERS.                  2.0:   CWLS log ASCII Standard -VERSION 2.0
 WRAP.                   NO:   One line per depth step
~Well Information Block
#MNEM.UNIT     VALUE/NAME     DESCRIPTION
#---------     -----------    ---------------------------
 STRT.S             20:59:46 30-Jun-20: START TIME 20:59:46 30-Jun-20
 STOP.S             21:08:48 30-Jun-20: STOP TIME  21:08:48 30-Jun-20
 STEP.S                   0.00: STEP TIME
 NULL.                 -999.25: NULL VALUE
 DFWT.                        :  DIST FWL TEXT
 DFST.                        :  DIST FSL TEXT
 DMF .             Drill Floor:  DRILL MEAS FROM
 STIM.      09.59.28 01-Jun-20:  START TIME
 DATE.      09.59.28 01-Jun-20:  END TIME
 SPUD.               01-Jun-20:  SPUD DATE
 NREF.                    Grid:  NORTH REFERENCE
 HPTY.       Minimum Curvature:  HOLE POS TYPE
 DMOD.             Drill Model:  DRILL MOD DESC
 SVYD.                  Survey:  SURVEY DESC
 ILTD.               Lithology:  INTERP LTH DESC
 FTOP.          Formation Tops:  FORM TOPS DESC
 SON .        AZ-XX-0905455768:  JOB NUMBER
 WTYP.                Deviated:  WELL TYPE
 COMP.     BP Exploration(Caspian Sea):  COMPANY
 BASE.              Azerbaijan:  LOGGING EQUIPMENT BASE LOCATION
 REGN.                   EESSA:  REGION
 CTRY.              Azerbaijan:  COUNTRY NAME
 FLD .                     ACG:  FIELD NAME
 SRVC.          Turan Drilling:  CONTRACTOR
 WELL.                     B41:  WELL NAME
 RIG .           Central Azeri:  RIG NAME
 DCON.         Sperry Drilling:  DIRECTNL CONTR
 PDAT.          Mean Sea Level:  PERMANENT DATUM
 MDS .        Operator Entered:  MAG DATA SOURCE
 API .                        :  API NUMBER
 CNTY.                        :  COUNTY
 PROV.                        :  PROVINCE
 STAT.                        :  STATE
 UWI .                        :  UNIQUE WELL IDENTIFIER
 LOC .                        :  LOCATION
 LMF .             Drill Floor:  LOG MEASURED FROM
 TVDS.m                  43.29:  TVDSS CORRECTN
 LATI.deg                40.03:  LATITUDE
 LONG.deg                51.35:  LONGITUDE
 WHNS.m                  12.98:  WELL HEAD N/S
 WHEW.m                  -6.62:  WELL HEAD E/W
 UTMX.m              530128.28:  UTM X
 UTMY.m             4433192.49:  UTM Y
 DFWL.m                   0.00:  DISTANCE FWL
 DFSL.m                   0.00:  DISTANCE FSL
 SDEP.m                 378.00:  START DEPTH
 TDD .m                   0.00:  TOTAL DEPTH (DRILLER)
 VSDR.deg               296.18:  VERT SEC DIRECT
 GVFD.g                   1.00:  GRAVITY FIELD
 MFLD.nT              50253.00:  MAGNETIC FIELD
 MDIP.deg                59.49:  MAGNETIC DIP
 MDEC.deg                 6.44:  MAGNETIC DECL
 GRDC.deg                 0.22:  GRID CORRECTION
 AZTC.deg                 6.22:  AZM TOTAL CORR
 EPD .m                   0.00:  ELEVATION
 EGL .m                   0.00:  GROUND ELEVATION
 WDMS.m                 128.20:  WD ELEV
 APD .m                  43.29:  DEPTH ABOVE PD
 AGAP.m                  43.29:  AIR GAP
 VSEW.m                  -6.62:  VERT SEC E/W
 VSNS.m                  12.98:  VERT SEC N/S
 EKB .m                  43.29:  KB ELEVATION
 EDF .m                  43.29:  DF ELEVATION
 TDL .m                1152.00:  TOTAL DEPTH (LOGGER)
 VSC .                       0:  VS TO CLOSURE
 MAGU.                 1848525:  MAGUTM CHECKSUM
~Parameter Information Block
#MNEM.UNIT       Value        Description
#---------     -----------    ---------------------------
 AV  .mps                 0.40:  Ann Velocity 
 AVMX.mps                 1.56:  Max Ann Veloc 
 AZIF.deg               300.46:  Azm, Final 
 BHAT.        Rotary Steerable:  BHA Type 
 BROT.°/30m               0.40:  Build Rotating 
 BS  .in                 17.50:  Bit Size 
 BSZ .in                 17.50:  Bit Size 
 BTPL.psig              300.00:  Bit Press Loss 
 CABU.                      No:  Customer Abuse 
 CGEO.          Parviz Guliyev:  Customer Geo 
 COMM.                     ÜRt:  Run Comments 1 
 TCS .hr                108.13:  Time Ciculation Ended 
 CV  .mps                 0.50:  Crit Velocity 
 CVMX.mps                 2.01:  Max Crit Veloc 
 DD1 .          Fariz Nahmatov:  Direct Drillr 1 
 DD2 .             Ehab Radwan:  Direct Drillr 2 
 DDSV.               Geo-Pilot:  DD Service 
 DEFF.%                  99.00:  % Det Eff 
 DLRX.°/30m               0.50:  Dogleg Rot Max 
 DLSO.°/30m               2.80:  Dogleg Oriented 
 DLSX.°/30m               3.90:  Dogleg Str Max 
 DRET.      09.30.04 03-Jul-20:  Drill End Time 
 DRST.      18.33.04 28-Jun-20:  Drill Start Tim 
 DTIM.hr                 55.83:  Time Drilling 
 EDEP.m                1952.00:  End Depth 
 ENG1.      Bakhtiyar Jabbarli:  Engineer 1 
 ENG2.         Farhad Orujzade:  Engineer 2 
 ENG3.          Rustam Safarov:  Engineer 3 
 ETIM.      01.33.04 04-Jul-20:  End Time 
 FLOI.gpm              1050.00:  Flow In 
 FLON.gpm               950.00:  Flow In Min 
 FLOS.cptm                0.10:  Fluid Loss 
 FLOX.gpm              1150.00:  Flow In Max 
 HFLO.                      No:  High Flow 
 HPRE.                      No:  High Pressure 
 HTEM.                      No:  High Temp 
 HYDO.m                   1.80:  Hydro Offset 
 IFIN.deg                75.26:  Inc, Final 
 IMAX.deg                75.38:  Inc Max 
 IMIN.deg                22.84:  Inc Min 
 IMND.m                 832.38:  Inc Min Depth 
 IMXD.m                1936.55:  Inc Max Depth 
 JARR.                      No:  Jarring 
 LETM.      17.40.00 04-Jul-20:  Log End Time 
 LOST.hr                     0:  Lost Rig Time 
 LSTM.      12.33.04 28-Jun-20:  Log Start Time 
 MDCL.ppm             49500.00:  Mud Chlorides 
 MDES.     Inversion Oil/Synthetic:  Mud Desc 
 DFD .sg                  1.46:  Mud Density 
 MDMN.sg                  1.46:  Dens Mud Min 
 MDMX.sg                  1.46:  Dens Mud Max 
 MOIL.                      70:  Run Mud Oil % 
 MOWR.                   70:30:  Run Mud OWR 
 MSND.                     0.5:  Run Mud Sand % 
 MSOL.                   19.89:  Run Mud Solids% 
 DFV .spqt               72.00:  Mud Viscosity 
 MWOD.in                  9.50:  MWD Tool OD 
 MWSI.                      No:  Serv Intrp, MWD 
 OTIM.hr                146.53:  Time Operating 
 PCON.           Look Like New:  Pad Condition 
 PMAX.psia             2900.00:  Press Op, Max 
 PV  .cP                 38.00:  Mud PV 
 RUN .                     600:  Run Number 
 ROPA.m/hr               22.00:  ROP Avg 
 ROPN.m/hr               10.00:  ROP Min 
 ROPX.m/hr              263.00:  ROP Max 
 RPMA.rpm               155.00:  RPM Surface Avg 
 RPMN.rpm               140.00:  RPM Surface Min 
 RPMX.rpm               160.00:  RPM Surface Max 
 RRUN.                    0600:  Rig Run Number 
 RTIM.hr                  5.00:  Time Reaming 
 SAZI.deg               300.08:  Azm, Start 
 SDEP.m                 800.00:  Start Depth 
 SIDD.                      No:  Serv Intrp, DD 
 SINC.deg                22.84:  Inc, Start 
 SPPA.psig             3000.00:  SPP Avg 
 SPPN.psig             1900.00:  SPP Min 
 SPPX.psig             3200.00:  SPP Max 
 STIM.      12.30.04 28-Jun-20:  Start Time 
 SVCS.                 DD, MWD:  Services 
 SVER.                    9.20:  Sperry Version 
 TDAT.m                1952.00:  Tot Depth Attmp 
 TDDF.                      No:  Trip for DD 
 TDLG.m                1152.00:  Tot Depth Loggd 
 TFF .                      No:  Trip for Fail 
 TQAA.f-kp                8.00:  Torque Abs Avg 
 TQAN.f-kp                5.00:  Torque Abs Min 
 TQAX.f-kp               14.00:  Torque Abs Max 
 TRRT.°/30m               0.50:  Turn Rotating 
 MRT .                  EWR-M5:  Maximum Recorded Temperature 
 TTMX.degC               69.00:  Max Tool Temp 
 VS01.                90610313:  Virtual Str1 SN 
 VS02.                90613431:  Virtual Str2 SN 
 VS03.                90615410:  Virtual Str3 SN 
 WBMN.klb                 6.00:  WOB Min 
 WITN.            Bruce Cheyne:  Customer Rep 
 WITN.             Ayaz Aliyev:  Customer Rep 2 
 WOBA.klb                 6.00:  WOB Avg 
 WOBX.klb                10.00:  WOB Max 
 YP  .lhf2               36.00:  Yield Point 
~Curve Information Block
#MNEM.UNIT                 API CODE     Curve Description
#---------               -----------    ---------------------------
 TIME.HHMMSS            00 000 000 000:  GT Time & Date
 GTET.sec               00 000 000 000:  GT Elapsed Test Time
 GTPQH.psia             00 000 000 000:  GT HR Quartz Pressure
 GTDEPTH.m              00 000 000 000:  GT Depth
 GTTVD.m                00 000 000 000:  GT True Vertical Depth
 GTTQ.degC              00 000 000 000:  GT Quartz Temperature
 GTTN.NONE              00 000 000 000:  GT Test Number
#Other Information
#
#WARRANTY: Halliburton will use its best efforts to furnish customers with 
#accurate information and interpretations that are part of, and incident to, the services 
#provided.  However, Halliburton cannot and does not warrant the accuracy 
#or correctness of such information and interpretations.  Under no circumstances should any 
#such information or interpretation be relied upon as the sole basis for any drilling, 
#completion, production, or financial decision or any procedure involving any risk to the 
#safety of any drilling venture, drilling rig or its crew or any other third party.  The 
#Customer has full responsibility for all drilling, completion and production operation.  
#Halliburton makes no representations or warranties, either expressed or 
#implied, including, but not limited to, the implied warranties of merchantability or fitness 
#for a particular purpose, with respect to the services rendered.  In no event will 
#Halliburton be liable for failure to obtain any particular results or for 
#any damages, including, but not limited to, indirect, special or consequential damages, 
#resulting from the use of any information or interpretation provided by Halliburton.
#
~A           TIME            GTET   GTPQH  GTDEPTH  GTTVD  GTTQ  GTTN 
# ...
   21:08:35.859.30-Jun-2020 529.09 2290.23 1143.02 1083.79 62.02 3.00
   21:08:36.059.30-Jun-2020 529.29 2290.23 1143.02 1083.79 62.02 3.00
   21:08:36.259.30-Jun-2020 529.49 2289.77 1143.02 1083.79 62.02 3.00
   21:08:36.459.30-Jun-2020 529.69 2290.32 1143.02 1083.79 62.02 3.00
   21:08:36.659.30-Jun-2020 529.89 2290.54 1143.02 1083.79 62.02 3.00
   21:08:36.859.30-Jun-2020 530.09 2289.90 1143.02 1083.79 62.02 3.00
   21:08:37.060.30-Jun-2020 530.29 2289.55 1143.02 1083.79 62.02 3.00
   21:08:37.260.30-Jun-2020 530.49 2289.38 1143.02 1083.79 62.02 3.00
   21:08:37.460.30-Jun-2020 530.69 2288.01 1143.02 1083.79 62.02 3.00
   21:08:37.660.30-Jun-2020 530.89 2289.73 1143.02 1083.79 62.02 3.00
   21:08:37.860.30-Jun-2020 531.09 2290.35 1143.02 1083.79 62.02 3.00
   21:08:38.060.30-Jun-2020 531.29 2290.35 1143.02 1083.79 62.02 3.00
   21:08:38.260.30-Jun-2020 531.49 2289.93 1143.02 1083.79 62.02 3.00
   21:08:38.460.30-Jun-2020 531.69 2289.77 1143.02 1083.79 62.02 3.00
   21:08:38.660.30-Jun-2020 531.89 2288.78 1143.02 1083.79 62.02 3.00
   21:08:38.860.30-Jun-2020 532.10 2289.05 1143.02 1083.79 62.01 3.00
   21:08:39.060.30-Jun-2020 532.30 2289.40 1143.02 1083.79 62.01 3.00
   21:08:39.260.30-Jun-2020 532.50 2289.34 1143.02 1083.79 62.01 3.00
   21:08:39.460.30-Jun-2020 532.70 2289.19 1143.02 1083.79 62.01 3.00
   21:08:39.660.30-Jun-2020 532.90 2289.06 1143.02 1083.79 62.01 3.00
   21:08:39.860.30-Jun-2020 533.10 2287.83 1143.02 1083.79 62.01 3.00
   21:08:40.060.30-Jun-2020 533.30 2290.22 1143.02 1083.79 62.01 3.00
   21:08:40.260.30-Jun-2020 533.50 2290.71 1143.02 1083.79 62.01 3.00
   21:08:40.460.30-Jun-2020 533.70 2290.49 1143.02 1083.79 62.01 3.00
   21:08:40.660.30-Jun-2020 533.90 2290.38 1143.02 1083.79 62.01 3.00
   21:08:40.860.30-Jun-2020 534.10 2290.16 1143.02 1083.79 62.01 3.00
   21:08:41.060.30-Jun-2020 534.30 2290.16 1143.02 1083.79 62.01 3.00
   21:08:41.260.30-Jun-2020 534.50 2288.61 1143.02 1083.79 62.01 3.00
   21:08:41.460.30-Jun-2020 534.70 2290.81 1143.02 1083.79 62.01 3.00
   21:08:41.660.30-Jun-2020 534.90 2291.03 1143.02 1083.79 62.01 3.00
   21:08:41.860.30-Jun-2020 535.10 2290.59 1143.02 1083.79 62.01 3.00
   21:08:42.060.30-Jun-2020 535.30 2290.97 1143.02 1083.79 62.01 3.00
   21:08:42.260.30-Jun-2020 535.50 2290.88 1143.02 1083.79 62.01 3.00
   21:08:42.460.30-Jun-2020 535.70 2290.69 1143.02 1083.79 62.01 3.00
   21:08:42.661.30-Jun-2020 535.90 2290.18 1143.02 1083.79 62.01 3.00
   21:08:42.861.30-Jun-2020 536.10 2291.38 1143.02 1083.79 62.01 3.00
   21:08:43.061.30-Jun-2020 536.30 2291.38 1143.02 1083.79 62.01 3.00
   21:08:43.261.30-Jun-2020 536.50 2290.39 1143.02 1083.79 62.01 3.00
   21:08:43.461.30-Jun-2020 536.70 2290.52 1143.02 1083.79 62.01 3.00
   21:08:43.661.30-Jun-2020 536.90 2289.64 1143.02 1083.79 62.01 3.00
   21:08:43.861.30-Jun-2020 537.10 2291.47 1143.02 1083.79 62.01 3.00
   21:08:44.061.30-Jun-2020 537.30 2291.47 1143.02 1083.79 62.01 3.00
   21:08:44.261.30-Jun-2020 537.50 2291.62 1143.02 1083.79 62.01 3.00
   21:08:44.461.30-Jun-2020 537.70 2291.37 1143.02 1083.79 62.01 3.00
   21:08:44.661.30-Jun-2020 537.90 2291.14 1143.02 1083.79 62.00 3.00
   21:08:44.861.30-Jun-2020 538.10 2290.12 1143.02 1083.79 62.00 3.00
   21:08:45.061.30-Jun-2020 538.30 2290.12 1143.02 1083.79 62.00 3.00
   21:08:45.261.30-Jun-2020 538.50 2291.51 1143.02 1083.79 62.00 3.00
   21:08:45.461.30-Jun-2020 538.70 2291.75 1143.02 1083.79 62.00 3.00
   21:08:45.661.30-Jun-2020 538.90 2291.29 1143.02 1083.79 62.00 3.00
   21:08:45.861.30-Jun-2020 539.10 2290.46 1143.02 1083.79 62.00 3.00
   21:08:46.061.30-Jun-2020 539.30 2290.46 1143.02 1083.79 62.00 3.00
   21:08:46.261.30-Jun-2020 539.50 2290.60 1143.02 1083.79 62.00 3.00
   21:08:46.461.30-Jun-2020 539.70 2290.96 1143.02 1083.79 62.00 3.00
   21:08:46.661.30-Jun-2020 539.90 2290.53 1143.02 1083.79 62.00 3.00
   21:08:46.861.30-Jun-2020 540.10 2289.97 1143.02 1083.79 62.00 3.00
   21:08:47.061.30-Jun-2020 540.30 2289.67 1143.02 1083.79 62.00 3.00
   21:08:47.261.30-Jun-2020 540.50 2288.65 1143.02 1083.79 62.00 3.00
   21:08:47.461.30-Jun-2020 540.70 2289.60 1143.02 1083.79 62.00 3.00
   21:08:47.661.30-Jun-2020 540.90 2290.45 1143.02 1083.79 62.00 3.00
   21:08:47.861.30-Jun-2020 541.10 2290.17 1143.02 1083.79 62.00 3.00
   21:08:48.061.30-Jun-2020 541.30 2289.89 1143.02 1083.79 62.00 3.00
   21:08:48.262.30-Jun-2020 541.50 2289.71 1143.02 1083.79 62.00 3.00
   21:08:48.462.30-Jun-2020 541.70 2289.21 1143.02 1083.79 62.00 3.00
   21:08:48.662.30-Jun-2020 541.90 2288.95 1143.02 1083.79 62.00 3.00
