~Version Information
 VERS.                  2.0:   CWLS log ASCII Standard -VERSION 2.0
 WRAP.                   NO:   One line per depth step
~Well Information Block
#MNEM.UNIT     VALUE/NAME     DESCRIPTION
#---------     -----------    ---------------------------
 STRT.S             16:00:06 29-Jun-20: START TIME 16:00:06 29-Jun-20
 STOP.S             16:09:07 29-Jun-20: STOP TIME  16:09:07 29-Jun-20
 STEP.S                   0.00: STEP TIME
 NULL.                 -999.25: NULL VALUE
 DFWT.                        :  DIST FWL TEXT
 DFST.                        :  DIST FSL TEXT
 DMF .             Drill Floor:  DRILL MEAS FROM
 STIM.      09.59.28 01-Jun-20:  START TIME
 DATE.      09.59.28 01-Jun-20:  END TIME
 SPUD.               01-Jun-20:  SPUD DATE
 NREF.                    Grid:  NORTH REFERENCE
 HPTY.       Minimum Curvature:  HOLE POS TYPE
 DMOD.             Drill Model:  DRILL MOD DESC
 SVYD.                  Survey:  SURVEY DESC
 ILTD.               Lithology:  INTERP LTH DESC
 FTOP.          Formation Tops:  FORM TOPS DESC
 SON .        AZ-XX-0905455768:  JOB NUMBER
 WTYP.                Deviated:  WELL TYPE
 COMP.     BP Exploration(Caspian Sea):  COMPANY
 BASE.              Azerbaijan:  LOGGING EQUIPMENT BASE LOCATION
 REGN.                   EESSA:  REGION
 CTRY.              Azerbaijan:  COUNTRY NAME
 FLD .                     ACG:  FIELD NAME
 SRVC.          Turan Drilling:  CONTRACTOR
 WELL.                     B41:  WELL NAME
 RIG .           Central Azeri:  RIG NAME
 DCON.         Sperry Drilling:  DIRECTNL CONTR
 PDAT.          Mean Sea Level:  PERMANENT DATUM
 MDS .        Operator Entered:  MAG DATA SOURCE
 API .                        :  API NUMBER
 CNTY.                        :  COUNTY
 PROV.                        :  PROVINCE
 STAT.                        :  STATE
 UWI .                        :  UNIQUE WELL IDENTIFIER
 LOC .                        :  LOCATION
 LMF .             Drill Floor:  LOG MEASURED FROM
 TVDS.m                  43.29:  TVDSS CORRECTN
 LATI.deg                40.03:  LATITUDE
 LONG.deg                51.35:  LONGITUDE
 WHNS.m                  12.98:  WELL HEAD N/S
 WHEW.m                  -6.62:  WELL HEAD E/W
 UTMX.m              530128.28:  UTM X
 UTMY.m             4433192.49:  UTM Y
 DFWL.m                   0.00:  DISTANCE FWL
 DFSL.m                   0.00:  DISTANCE FSL
 SDEP.m                 378.00:  START DEPTH
 TDD .m                   0.00:  TOTAL DEPTH (DRILLER)
 VSDR.deg               296.18:  VERT SEC DIRECT
 GVFD.g                   1.00:  GRAVITY FIELD
 MFLD.nT              50253.00:  MAGNETIC FIELD
 MDIP.deg                59.49:  MAGNETIC DIP
 MDEC.deg                 6.44:  MAGNETIC DECL
 GRDC.deg                 0.22:  GRID CORRECTION
 AZTC.deg                 6.22:  AZM TOTAL CORR
 EPD .m                   0.00:  ELEVATION
 EGL .m                   0.00:  GROUND ELEVATION
 WDMS.m                 128.20:  WD ELEV
 APD .m                  43.29:  DEPTH ABOVE PD
 AGAP.m                  43.29:  AIR GAP
 VSEW.m                  -6.62:  VERT SEC E/W
 VSNS.m                  12.98:  VERT SEC N/S
 EKB .m                  43.29:  KB ELEVATION
 EDF .m                  43.29:  DF ELEVATION
 TDL .m                1152.00:  TOTAL DEPTH (LOGGER)
 VSC .                       0:  VS TO CLOSURE
 MAGU.                 1848525:  MAGUTM CHECKSUM
~Parameter Information Block
#MNEM.UNIT       Value        Description
#---------     -----------    ---------------------------
 AV  .mps                 0.40:  Ann Velocity 
 AVMX.mps                 1.56:  Max Ann Veloc 
 AZIF.deg               300.46:  Azm, Final 
 BHAT.        Rotary Steerable:  BHA Type 
 BROT.∞/30m               0.40:  Build Rotating 
 BS  .in                 17.50:  Bit Size 
 BSZ .in                 17.50:  Bit Size 
 BTPL.psig              300.00:  Bit Press Loss 
 CABU.                      No:  Customer Abuse 
 CGEO.          Parviz Guliyev:  Customer Geo 
 COMM.                     ,‘Å:  Run Comments 1 
 TCS .hr                108.13:  Time Ciculation Ended 
 CV  .mps                 0.50:  Crit Velocity 
 CVMX.mps                 2.01:  Max Crit Veloc 
 DD1 .          Fariz Nahmatov:  Direct Drillr 1 
 DD2 .             Ehab Radwan:  Direct Drillr 2 
 DDSV.               Geo-Pilot:  DD Service 
 DEFF.%                  99.00:  % Det Eff 
 DLRX.∞/30m               0.50:  Dogleg Rot Max 
 DLSO.∞/30m               2.80:  Dogleg Oriented 
 DLSX.∞/30m               3.90:  Dogleg Str Max 
 DRET.      09.30.04 03-Jul-20:  Drill End Time 
 DRST.      18.33.04 28-Jun-20:  Drill Start Tim 
 DTIM.hr                 55.83:  Time Drilling 
 EDEP.m                1952.00:  End Depth 
 ENG1.      Bakhtiyar Jabbarli:  Engineer 1 
 ENG2.         Farhad Orujzade:  Engineer 2 
 ENG3.          Rustam Safarov:  Engineer 3 
 ETIM.      01.33.04 04-Jul-20:  End Time 
 FLOI.gpm              1050.00:  Flow In 
 FLON.gpm               950.00:  Flow In Min 
 FLOS.cptm                0.10:  Fluid Loss 
 FLOX.gpm              1150.00:  Flow In Max 
 HFLO.                      No:  High Flow 
 HPRE.                      No:  High Pressure 
 HTEM.                      No:  High Temp 
 HYDO.m                   1.80:  Hydro Offset 
 IFIN.deg                75.26:  Inc, Final 
 IMAX.deg                75.38:  Inc Max 
 IMIN.deg                22.84:  Inc Min 
 IMND.m                 832.38:  Inc Min Depth 
 IMXD.m                1936.55:  Inc Max Depth 
 JARR.                      No:  Jarring 
 LETM.      17.40.00 04-Jul-20:  Log End Time 
 LOST.hr                     0:  Lost Rig Time 
 LSTM.      12.33.04 28-Jun-20:  Log Start Time 
 MDCL.ppm             49500.00:  Mud Chlorides 
 MDES.     Inversion Oil/Synthetic:  Mud Desc 
 DFD .sg                  1.46:  Mud Density 
 MDMN.sg                  1.46:  Dens Mud Min 
 MDMX.sg                  1.46:  Dens Mud Max 
 MOIL.                      70:  Run Mud Oil % 
 MOWR.                   70:30:  Run Mud OWR 
 MSND.                     0.5:  Run Mud Sand % 
 MSOL.                   19.89:  Run Mud Solids% 
 DFV .spqt               72.00:  Mud Viscosity 
 MWOD.in                  9.50:  MWD Tool OD 
 MWSI.                      No:  Serv Intrp, MWD 
 OTIM.hr                146.53:  Time Operating 
 PCON.           Look Like New:  Pad Condition 
 PMAX.psia             2900.00:  Press Op, Max 
 PV  .cP                 38.00:  Mud PV 
 RUN .                     600:  Run Number 
 ROPA.m/hr               22.00:  ROP Avg 
 ROPN.m/hr               10.00:  ROP Min 
 ROPX.m/hr              263.00:  ROP Max 
 RPMA.rpm               155.00:  RPM Surface Avg 
 RPMN.rpm               140.00:  RPM Surface Min 
 RPMX.rpm               160.00:  RPM Surface Max 
 RRUN.                    0600:  Rig Run Number 
 RTIM.hr                  5.00:  Time Reaming 
 SAZI.deg               300.08:  Azm, Start 
 SDEP.m                 800.00:  Start Depth 
 SIDD.                      No:  Serv Intrp, DD 
 SINC.deg                22.84:  Inc, Start 
 SPPA.psig             3000.00:  SPP Avg 
 SPPN.psig             1900.00:  SPP Min 
 SPPX.psig             3200.00:  SPP Max 
 STIM.      12.30.04 28-Jun-20:  Start Time 
 SVCS.                 DD, MWD:  Services 
 SVER.                    9.20:  Sperry Version 
 TDAT.m                1952.00:  Tot Depth Attmp 
 TDDF.                      No:  Trip for DD 
 TDLG.m                1152.00:  Tot Depth Loggd 
 TFF .                      No:  Trip for Fail 
 TQAA.f-kp                8.00:  Torque Abs Avg 
 TQAN.f-kp                5.00:  Torque Abs Min 
 TQAX.f-kp               14.00:  Torque Abs Max 
 TRRT.∞/30m               0.50:  Turn Rotating 
 MRT .                  EWR-M5:  Maximum Recorded Temperature 
 TTMX.degC               69.00:  Max Tool Temp 
 VS01.                90610313:  Virtual Str1 SN 
 VS02.                90613431:  Virtual Str2 SN 
 VS03.                90615410:  Virtual Str3 SN 
 WBMN.klb                 6.00:  WOB Min 
 WITN.            Bruce Cheyne:  Customer Rep 
 WITN.             Ayaz Aliyev:  Customer Rep 2 
 WOBA.klb                 6.00:  WOB Avg 
 WOBX.klb                10.00:  WOB Max 
 YP  .lhf2               36.00:  Yield Point 
~Curve Information Block
#MNEM.UNIT                 API CODE     Curve Description
#---------               -----------    ---------------------------
 TIME.HHMMSS            00 000 000 000:  GT Time & Date
 GTET.sec               00 000 000 000:  GT Elapsed Test Time
 GTPQH.psia             00 000 000 000:  GT HR Quartz Pressure
 GTDEPTH.m              00 000 000 000:  GT Depth
 GTTVD.m                00 000 000 000:  GT True Vertical Depth
 GTTQ.degC              00 000 000 000:  GT Quartz Temperature
 GTTN.NONE              00 000 000 000:  GT Test Number
#Other Information
#
#WARRANTY: Halliburton will use its best efforts to furnish customers with 
#accurate information and interpretations that are part of, and incident to, the services 
#provided.  However, Halliburton cannot and does not warrant the accuracy 
#or correctness of such information and interpretations.  Under no circumstances should any 
#such information or interpretation be relied upon as the sole basis for any drilling, 
#completion, production, or financial decision or any procedure involving any risk to the 
#safety of any drilling venture, drilling rig or its crew or any other third party.  The 
#Customer has full responsibility for all drilling, completion and production operation.  
#Halliburton makes no representations or warranties, either expressed or 
#implied, including, but not limited to, the implied warranties of merchantability or fitness 
#for a particular purpose, with respect to the services rendered.  In no event will 
#Halliburton be liable for failure to obtain any particular results or for 
#any damages, including, but not limited to, indirect, special or consequential damages, 
#resulting from the use of any information or interpretation provided by Halliburton.
#
~A           TIME            GTET   GTPQH  GTDEPTH GTTVD  GTTQ  GTTN 
# ...
   16:08:37.045.29-Jun-2020 510.59 1797.97  873.30 856.96 66.04 1.00
   16:08:37.245.29-Jun-2020 510.79 1798.38  873.30 856.96 66.04 1.00
   16:08:37.445.29-Jun-2020 510.99 1798.69  873.30 856.96 66.04 1.00
   16:08:37.645.29-Jun-2020 511.19 1796.63  873.30 856.96 66.04 1.00
   16:08:37.845.29-Jun-2020 511.39 1796.63  873.30 856.96 66.04 1.00
   16:08:38.045.29-Jun-2020 511.59 1796.39  873.30 856.96 66.04 1.00
   16:08:38.245.29-Jun-2020 511.79 1797.54  873.30 856.96 66.05 1.00
   16:08:38.446.29-Jun-2020 511.99 1798.11  873.30 856.96 66.05 1.00
   16:08:38.646.29-Jun-2020 512.19 1795.15  873.30 856.96 66.05 1.00
   16:08:38.846.29-Jun-2020 512.39 1795.15  873.30 856.96 66.05 1.00
   16:08:39.046.29-Jun-2020 512.59 1796.19  873.30 856.96 66.05 1.00
   16:08:39.246.29-Jun-2020 512.79 1796.71  873.30 856.96 66.05 1.00
   16:08:39.446.29-Jun-2020 512.99 1793.86  873.30 856.96 66.05 1.00
   16:08:39.646.29-Jun-2020 513.19 1798.16  873.30 856.96 66.05 1.00
   16:08:39.846.29-Jun-2020 513.39 1797.49  873.30 856.96 66.05 1.00
   16:08:40.046.29-Jun-2020 513.59 1798.23  873.30 856.96 66.05 1.00
   16:08:40.246.29-Jun-2020 513.79 1797.90  873.30 856.96 66.05 1.00
   16:08:40.446.29-Jun-2020 513.99 1796.51  873.30 856.96 66.05 1.00
   16:08:40.646.29-Jun-2020 514.19 1799.34  873.30 856.96 66.05 1.00
   16:08:40.846.29-Jun-2020 514.39 1798.34  873.30 856.96 66.05 1.00
   16:08:41.046.29-Jun-2020 514.59 1798.15  873.30 856.96 66.05 1.00
   16:08:41.247.29-Jun-2020 514.79 1798.38  873.30 856.96 66.05 1.00
   16:08:41.447.29-Jun-2020 515.00 1800.05  873.30 856.96 66.05 1.00
   16:08:41.647.29-Jun-2020 515.20 1799.83  873.30 856.96 66.05 1.00
   16:08:41.847.29-Jun-2020 515.40 1799.83  873.30 856.96 66.05 1.00
   16:08:42.047.29-Jun-2020 515.60 1797.70  873.30 856.96 66.05 1.00
   16:08:42.247.29-Jun-2020 515.80 1798.09  873.30 856.96 66.05 1.00
   16:08:42.447.29-Jun-2020 516.00 1798.20  873.30 856.96 66.05 1.00
   16:08:42.647.29-Jun-2020 516.20 1796.96  873.30 856.96 66.05 1.00
   16:08:42.847.29-Jun-2020 516.40 1797.13  873.30 856.96 66.05 1.00
   16:08:43.047.29-Jun-2020 516.60 1796.30  873.30 856.96 66.05 1.00
   16:08:43.247.29-Jun-2020 516.80 1796.50  873.30 856.96 66.05 1.00
   16:08:43.447.29-Jun-2020 517.00 1795.86  873.30 856.96 66.05 1.00
   16:08:43.647.29-Jun-2020 517.20 1794.77  873.30 856.96 66.05 1.00
   16:08:43.848.29-Jun-2020 517.40 1794.77  873.30 856.96 66.05 1.00
   16:08:44.048.29-Jun-2020 517.60 1796.14  873.30 856.96 66.05 1.00
   16:08:44.248.29-Jun-2020 517.80 1796.03  873.30 856.96 66.05 1.00
   16:08:44.448.29-Jun-2020 518.00 1796.34  873.30 856.96 66.05 1.00
   16:08:44.648.29-Jun-2020 518.20 1796.78  873.30 856.96 66.05 1.00
   16:08:44.848.29-Jun-2020 518.40 1796.78  873.30 856.96 66.05 1.00
   16:08:45.048.29-Jun-2020 518.60 1798.01  873.30 856.96 66.05 1.00
   16:08:45.248.29-Jun-2020 518.80 1798.25  873.30 856.96 66.05 1.00
   16:08:45.448.29-Jun-2020 519.00 1798.02  873.30 856.96 66.05 1.00
   16:08:45.648.29-Jun-2020 519.20 1797.63  873.30 856.96 66.05 1.00
   16:08:45.848.29-Jun-2020 519.40 1797.63  873.30 856.96 66.05 1.00
   16:08:46.048.29-Jun-2020 519.60 1798.10  873.30 856.96 66.05 1.00
   16:08:46.248.29-Jun-2020 519.80 1798.69  873.30 856.96 66.05 1.00
   16:08:46.449.29-Jun-2020 520.00 1796.35  873.30 856.96 66.05 1.00
   16:08:46.649.29-Jun-2020 520.20 1799.36  873.30 856.96 66.05 1.00
   16:08:46.849.29-Jun-2020 520.40 1799.36  873.30 856.96 66.05 1.00
   16:08:47.049.29-Jun-2020 520.60 1798.11  873.30 856.96 66.05 1.00
   16:08:47.249.29-Jun-2020 520.80 1797.28  873.30 856.96 66.05 1.00
   16:08:47.449.29-Jun-2020 521.00 1795.30  873.30 856.96 66.05 1.00
   16:08:47.649.29-Jun-2020 521.20 1798.30  873.30 856.96 66.05 1.00
   16:08:47.849.29-Jun-2020 521.40 1797.28  873.30 856.96 66.05 1.00
   16:08:48.049.29-Jun-2020 521.60 1796.87  873.30 856.96 66.05 1.00
   16:08:48.249.29-Jun-2020 521.80 1796.74  873.30 856.96 66.05 1.00
   16:08:48.449.29-Jun-2020 522.00 1796.55  873.30 856.96 66.05 1.00
   16:08:48.649.29-Jun-2020 522.20 1798.17  873.30 856.96 66.05 1.00
   16:08:48.849.29-Jun-2020 522.40 1798.17  873.30 856.96 66.05 1.00
   16:08:49.050.29-Jun-2020 522.60 1796.81  873.30 856.96 66.05 1.00
   16:08:49.250.29-Jun-2020 522.80 1797.41  873.30 856.96 66.05 1.00
   16:08:49.450.29-Jun-2020 523.00 1799.75  873.30 856.96 66.05 1.00
   16:08:49.650.29-Jun-2020 523.20 1797.05  873.30 856.96 66.05 1.00
   16:08:49.850.29-Jun-2020 523.40 1797.05  873.30 856.96 66.05 1.00
   16:08:50.050.29-Jun-2020 523.60 1797.81  873.30 856.96 66.05 1.00
   16:08:50.250.29-Jun-2020 523.80 1797.87  873.30 856.96 66.05 1.00
   16:08:50.450.29-Jun-2020 524.00 1799.20  873.30 856.96 66.05 1.00
   16:08:50.650.29-Jun-2020 524.20 1797.79  873.30 856.96 66.05 1.00
   16:08:50.850.29-Jun-2020 524.40 1797.79  873.30 856.96 66.05 1.00
   16:08:51.050.29-Jun-2020 524.60 1798.71  873.30 856.96 66.05 1.00
   16:08:51.250.29-Jun-2020 524.80 1798.13  873.30 856.96 66.05 1.00
   16:08:51.450.29-Jun-2020 525.00 1796.86  873.30 856.96 66.05 1.00
   16:08:51.651.29-Jun-2020 525.20 1797.35  873.30 856.96 66.05 1.00
   16:08:51.851.29-Jun-2020 525.40 1796.55  873.30 856.96 66.05 1.00
   16:08:52.051.29-Jun-2020 525.60 1795.52  873.30 856.96 66.05 1.00
   16:08:52.251.29-Jun-2020 525.80 1797.30  873.30 856.96 66.05 1.00
   16:08:52.451.29-Jun-2020 526.00 1795.05  873.30 856.96 66.05 1.00
   16:08:52.651.29-Jun-2020 526.20 1796.58  873.30 856.96 66.05 1.00
   16:08:52.851.29-Jun-2020 526.40 1796.58  873.30 856.96 66.05 1.00
   16:08:53.051.29-Jun-2020 526.60 1795.63  873.30 856.96 66.05 1.00
   16:08:53.251.29-Jun-2020 526.80 1796.17  873.30 856.96 66.05 1.00
   16:08:53.451.29-Jun-2020 527.00 1796.21  873.30 856.96 66.05 1.00
   16:08:53.651.29-Jun-2020 527.20 1796.73  873.30 856.96 66.05 1.00
   16:08:53.851.29-Jun-2020 527.40 1796.73  873.30 856.96 66.05 1.00
   16:08:54.051.29-Jun-2020 527.60 1797.89  873.30 856.96 66.05 1.00
   16:08:54.251.29-Jun-2020 527.80 1798.43  873.30 856.96 66.05 1.00
   16:08:54.452.29-Jun-2020 528.00 1798.15  873.30 856.96 66.05 1.00
   16:08:54.652.29-Jun-2020 528.20 1796.15  873.30 856.96 66.05 1.00
   16:08:54.852.29-Jun-2020 528.40 1796.15  873.30 856.96 66.05 1.00
   16:08:55.052.29-Jun-2020 528.60 1797.21  873.30 856.96 66.05 1.00
   16:08:55.252.29-Jun-2020 528.80 1798.20  873.30 856.96 66.05 1.00
   16:08:55.452.29-Jun-2020 529.00 1796.41  873.30 856.96 66.06 1.00
   16:08:55.652.29-Jun-2020 529.20 1798.55  873.30 856.96 66.06 1.00
   16:08:55.852.29-Jun-2020 529.40 1797.12  873.30 856.96 66.06 1.00
   16:08:56.052.29-Jun-2020 529.60 1797.79  873.30 856.96 66.06 1.00
   16:08:56.252.29-Jun-2020 529.80 1794.26  873.30 856.96 66.06 1.00
   16:08:56.452.29-Jun-2020 530.00 1797.31  873.30 856.96 66.06 1.00
   16:08:56.652.29-Jun-2020 530.20 1797.22  873.30 856.96 66.06 1.00
   16:08:56.852.29-Jun-2020 530.40 1797.22  873.30 856.96 66.06 1.00
   16:08:57.053.29-Jun-2020 530.60 1797.20  873.30 856.96 66.06 1.00
   16:08:57.253.29-Jun-2020 530.80 1795.39  873.30 856.96 66.06 1.00
   16:08:57.453.29-Jun-2020 531.00 1797.57  873.30 856.96 66.06 1.00
   16:08:57.653.29-Jun-2020 531.20 1797.38  873.30 856.96 66.06 1.00
   16:08:57.853.29-Jun-2020 531.40 1797.38  873.30 856.96 66.06 1.00
   16:08:58.053.29-Jun-2020 531.60 1796.78  873.30 856.96 66.06 1.00
   16:08:58.253.29-Jun-2020 531.80 1799.30  873.30 856.96 66.06 1.00
   16:08:58.453.29-Jun-2020 532.00 1798.75  873.30 856.96 66.06 1.00
   16:08:58.653.29-Jun-2020 532.20 1799.35  873.30 856.96 66.06 1.00
   16:08:58.853.29-Jun-2020 532.40 1799.35  873.30 856.96 66.06 1.00
   16:08:59.053.29-Jun-2020 532.60 1798.13  873.30 856.96 66.06 1.00
   16:08:59.253.29-Jun-2020 532.80 1800.03  873.30 856.96 66.06 1.00
   16:08:59.453.29-Jun-2020 533.00 1799.37  873.30 856.96 66.06 1.00
   16:08:59.654.29-Jun-2020 533.20 1798.30  873.30 856.96 66.06 1.00
   16:08:59.854.29-Jun-2020 533.40 1799.96  873.30 856.96 66.06 1.00
   16:09:00.054.29-Jun-2020 533.60 1798.35  873.30 856.96 66.06 1.00
