~Version Information
 VERS.                  2.0:   CWLS log ASCII Standard -VERSION 2.0
 WRAP.                   NO:   One line per depth step
~Well Information Block
#MNEM.UNIT     VALUE/NAME     DESCRIPTION
#---------     -----------    ---------------------------
 STRT.S             16:15:55 30-Jun-20: START TIME 16:15:55 30-Jun-20
 STOP.S             16:24:50 30-Jun-20: STOP TIME  16:24:50 30-Jun-20
 STEP.S                   0.00: STEP TIME
 NULL.                 -999.25: NULL VALUE
 DFWT.                        :  DIST FWL TEXT
 DFST.                        :  DIST FSL TEXT
 DMF .             Drill Floor:  DRILL MEAS FROM
 STIM.      09.59.28 01-Jun-20:  START TIME
 DATE.      09.59.28 01-Jun-20:  END TIME
 SPUD.               01-Jun-20:  SPUD DATE
 NREF.                    Grid:  NORTH REFERENCE
 HPTY.       Minimum Curvature:  HOLE POS TYPE
 DMOD.             Drill Model:  DRILL MOD DESC
 SVYD.                  Survey:  SURVEY DESC
 ILTD.               Lithology:  INTERP LTH DESC
 FTOP.          Formation Tops:  FORM TOPS DESC
 SON .        AZ-XX-0905455768:  JOB NUMBER
 WTYP.                Deviated:  WELL TYPE
 COMP.     BP Exploration(Caspian Sea):  COMPANY
 BASE.              Azerbaijan:  LOGGING EQUIPMENT BASE LOCATION
 REGN.                   EESSA:  REGION
 CTRY.              Azerbaijan:  COUNTRY NAME
 FLD .                     ACG:  FIELD NAME
 SRVC.          Turan Drilling:  CONTRACTOR
 WELL.                     B41:  WELL NAME
 RIG .           Central Azeri:  RIG NAME
 DCON.         Sperry Drilling:  DIRECTNL CONTR
 PDAT.          Mean Sea Level:  PERMANENT DATUM
 MDS .        Operator Entered:  MAG DATA SOURCE
 API .                        :  API NUMBER
 CNTY.                        :  COUNTY
 PROV.                        :  PROVINCE
 STAT.                        :  STATE
 UWI .                        :  UNIQUE WELL IDENTIFIER
 LOC .                        :  LOCATION
 LMF .             Drill Floor:  LOG MEASURED FROM
 TVDS.m                  43.29:  TVDSS CORRECTN
 LATI.deg                40.03:  LATITUDE
 LONG.deg                51.35:  LONGITUDE
 WHNS.m                  12.98:  WELL HEAD N/S
 WHEW.m                  -6.62:  WELL HEAD E/W
 UTMX.m              530128.28:  UTM X
 UTMY.m             4433192.49:  UTM Y
 DFWL.m                   0.00:  DISTANCE FWL
 DFSL.m                   0.00:  DISTANCE FSL
 SDEP.m                 378.00:  START DEPTH
 TDD .m                   0.00:  TOTAL DEPTH (DRILLER)
 VSDR.deg               296.18:  VERT SEC DIRECT
 GVFD.g                   1.00:  GRAVITY FIELD
 MFLD.nT              50253.00:  MAGNETIC FIELD
 MDIP.deg                59.49:  MAGNETIC DIP
 MDEC.deg                 6.44:  MAGNETIC DECL
 GRDC.deg                 0.22:  GRID CORRECTION
 AZTC.deg                 6.22:  AZM TOTAL CORR
 EPD .m                   0.00:  ELEVATION
 EGL .m                   0.00:  GROUND ELEVATION
 WDMS.m                 128.20:  WD ELEV
 APD .m                  43.29:  DEPTH ABOVE PD
 AGAP.m                  43.29:  AIR GAP
 VSEW.m                  -6.62:  VERT SEC E/W
 VSNS.m                  12.98:  VERT SEC N/S
 EKB .m                  43.29:  KB ELEVATION
 EDF .m                  43.29:  DF ELEVATION
 TDL .m                1152.00:  TOTAL DEPTH (LOGGER)
 VSC .                       0:  VS TO CLOSURE
 MAGU.                 1848525:  MAGUTM CHECKSUM
~Parameter Information Block
#MNEM.UNIT       Value        Description
#---------     -----------    ---------------------------
 AV  .mps                 0.40:  Ann Velocity 
 AVMX.mps                 1.56:  Max Ann Veloc 
 AZIF.deg               300.46:  Azm, Final 
 BHAT.        Rotary Steerable:  BHA Type 
 BROT.°/30m               0.40:  Build Rotating 
 BS  .in                 17.50:  Bit Size 
 BSZ .in                 17.50:  Bit Size 
 BTPL.psig              300.00:  Bit Press Loss 
 CABU.                      No:  Customer Abuse 
 CGEO.          Parviz Guliyev:  Customer Geo 
 COMM.                     D„w:  Run Comments 1 
 TCS .hr                108.13:  Time Ciculation Ended 
 CV  .mps                 0.50:  Crit Velocity 
 CVMX.mps                 2.01:  Max Crit Veloc 
 DD1 .          Fariz Nahmatov:  Direct Drillr 1 
 DD2 .             Ehab Radwan:  Direct Drillr 2 
 DDSV.               Geo-Pilot:  DD Service 
 DEFF.%                  99.00:  % Det Eff 
 DLRX.°/30m               0.50:  Dogleg Rot Max 
 DLSO.°/30m               2.80:  Dogleg Oriented 
 DLSX.°/30m               3.90:  Dogleg Str Max 
 DRET.      09.30.04 03-Jul-20:  Drill End Time 
 DRST.      18.33.04 28-Jun-20:  Drill Start Tim 
 DTIM.hr                 55.83:  Time Drilling 
 EDEP.m                1952.00:  End Depth 
 ENG1.      Bakhtiyar Jabbarli:  Engineer 1 
 ENG2.         Farhad Orujzade:  Engineer 2 
 ENG3.          Rustam Safarov:  Engineer 3 
 ETIM.      01.33.04 04-Jul-20:  End Time 
 FLOI.gpm              1050.00:  Flow In 
 FLON.gpm               950.00:  Flow In Min 
 FLOS.cptm                0.10:  Fluid Loss 
 FLOX.gpm              1150.00:  Flow In Max 
 HFLO.                      No:  High Flow 
 HPRE.                      No:  High Pressure 
 HTEM.                      No:  High Temp 
 HYDO.m                   1.80:  Hydro Offset 
 IFIN.deg                75.26:  Inc, Final 
 IMAX.deg                75.38:  Inc Max 
 IMIN.deg                22.84:  Inc Min 
 IMND.m                 832.38:  Inc Min Depth 
 IMXD.m                1936.55:  Inc Max Depth 
 JARR.                      No:  Jarring 
 LETM.      17.40.00 04-Jul-20:  Log End Time 
 LOST.hr                     0:  Lost Rig Time 
 LSTM.      12.33.04 28-Jun-20:  Log Start Time 
 MDCL.ppm             49500.00:  Mud Chlorides 
 MDES.     Inversion Oil/Synthetic:  Mud Desc 
 DFD .sg                  1.46:  Mud Density 
 MDMN.sg                  1.46:  Dens Mud Min 
 MDMX.sg                  1.46:  Dens Mud Max 
 MOIL.                      70:  Run Mud Oil % 
 MOWR.                   70:30:  Run Mud OWR 
 MSND.                     0.5:  Run Mud Sand % 
 MSOL.                   19.89:  Run Mud Solids% 
 DFV .spqt               72.00:  Mud Viscosity 
 MWOD.in                  9.50:  MWD Tool OD 
 MWSI.                      No:  Serv Intrp, MWD 
 OTIM.hr                146.53:  Time Operating 
 PCON.           Look Like New:  Pad Condition 
 PMAX.psia             2900.00:  Press Op, Max 
 PV  .cP                 38.00:  Mud PV 
 RUN .                     600:  Run Number 
 ROPA.m/hr               22.00:  ROP Avg 
 ROPN.m/hr               10.00:  ROP Min 
 ROPX.m/hr              263.00:  ROP Max 
 RPMA.rpm               155.00:  RPM Surface Avg 
 RPMN.rpm               140.00:  RPM Surface Min 
 RPMX.rpm               160.00:  RPM Surface Max 
 RRUN.                    0600:  Rig Run Number 
 RTIM.hr                  5.00:  Time Reaming 
 SAZI.deg               300.08:  Azm, Start 
 SDEP.m                 800.00:  Start Depth 
 SIDD.                      No:  Serv Intrp, DD 
 SINC.deg                22.84:  Inc, Start 
 SPPA.psig             3000.00:  SPP Avg 
 SPPN.psig             1900.00:  SPP Min 
 SPPX.psig             3200.00:  SPP Max 
 STIM.      12.30.04 28-Jun-20:  Start Time 
 SVCS.                 DD, MWD:  Services 
 SVER.                    9.20:  Sperry Version 
 TDAT.m                1952.00:  Tot Depth Attmp 
 TDDF.                      No:  Trip for DD 
 TDLG.m                1152.00:  Tot Depth Loggd 
 TFF .                      No:  Trip for Fail 
 TQAA.f-kp                8.00:  Torque Abs Avg 
 TQAN.f-kp                5.00:  Torque Abs Min 
 TQAX.f-kp               14.00:  Torque Abs Max 
 TRRT.°/30m               0.50:  Turn Rotating 
 MRT .                  EWR-M5:  Maximum Recorded Temperature 
 TTMX.degC               69.00:  Max Tool Temp 
 VS01.                90610313:  Virtual Str1 SN 
 VS02.                90613431:  Virtual Str2 SN 
 VS03.                90615410:  Virtual Str3 SN 
 WBMN.klb                 6.00:  WOB Min 
 WITN.            Bruce Cheyne:  Customer Rep 
 WITN.             Ayaz Aliyev:  Customer Rep 2 
 WOBA.klb                 6.00:  WOB Avg 
 WOBX.klb                10.00:  WOB Max 
 YP  .lhf2               36.00:  Yield Point 
~Curve Information Block
#MNEM.UNIT                 API CODE     Curve Description
#---------               -----------    ---------------------------
 TIME.HHMMSS            00 000 000 000:  GT Time & Date
 GTET.sec               00 000 000 000:  GT Elapsed Test Time
 GTPQH.psia             00 000 000 000:  GT HR Quartz Pressure
 GTDEPTH.m              00 000 000 000:  GT Depth
 GTTVD.m                00 000 000 000:  GT True Vertical Depth
 GTTQ.degC              00 000 000 000:  GT Quartz Temperature
 GTTN.NONE              00 000 000 000:  GT Test Number
#Other Information
#
#WARRANTY: Halliburton will use its best efforts to furnish customers with 
#accurate information and interpretations that are part of, and incident to, the services 
#provided.  However, Halliburton cannot and does not warrant the accuracy 
#or correctness of such information and interpretations.  Under no circumstances should any 
#such information or interpretation be relied upon as the sole basis for any drilling, 
#completion, production, or financial decision or any procedure involving any risk to the 
#safety of any drilling venture, drilling rig or its crew or any other third party.  The 
#Customer has full responsibility for all drilling, completion and production operation.  
#Halliburton makes no representations or warranties, either expressed or 
#implied, including, but not limited to, the implied warranties of merchantability or fitness 
#for a particular purpose, with respect to the services rendered.  In no event will 
#Halliburton be liable for failure to obtain any particular results or for 
#any damages, including, but not limited to, indirect, special or consequential damages, 
#resulting from the use of any information or interpretation provided by Halliburton.
#
~A           TIME            GTET   GTPQH  GTDEPTH  GTTVD  GTTQ  GTTN 
# ...
   16:18:13.000.30-Jun-2020 138.00 1017.68 1103.02 1054.26 68.72 2.00
   16:18:13.200.30-Jun-2020 138.20 1017.68 1103.02 1054.26 68.72 2.00
   16:18:13.400.30-Jun-2020 138.40 1019.57 1103.02 1054.26 68.72 2.00
   16:18:13.600.30-Jun-2020 138.60 1019.81 1103.02 1054.26 68.72 2.00
   16:18:13.800.30-Jun-2020 138.80 1020.52 1103.02 1054.26 68.72 2.00
   16:18:14.000.30-Jun-2020 139.00 1020.97 1103.02 1054.26 68.72 2.00
   16:18:14.200.30-Jun-2020 139.20 1020.97 1103.02 1054.26 68.72 2.00
   16:18:14.400.30-Jun-2020 139.40 1022.09 1103.02 1054.26 68.72 2.00
   16:18:14.600.30-Jun-2020 139.60 1022.76 1103.02 1054.26 68.72 2.00
   16:18:14.800.30-Jun-2020 139.80 1023.27 1103.02 1054.26 68.72 2.00
   16:18:15.000.30-Jun-2020 140.00 1023.83 1103.02 1054.26 68.72 2.00
   16:18:15.200.30-Jun-2020 140.20 1023.83 1103.02 1054.26 68.72 2.00
   16:18:15.400.30-Jun-2020 140.40 1024.84 1103.02 1054.26 68.73 2.00
   16:18:15.600.30-Jun-2020 140.60 1025.43 1103.02 1054.26 68.73 2.00
   16:18:15.800.30-Jun-2020 140.80 1026.01 1103.02 1054.26 68.73 2.00
   16:18:16.000.30-Jun-2020 141.00 1026.58 1103.02 1054.26 68.73 2.00
   16:18:16.200.30-Jun-2020 141.20 1026.58 1103.02 1054.26 68.73 2.00
   16:18:16.400.30-Jun-2020 141.40 1027.64 1103.02 1054.26 68.73 2.00
   16:18:16.600.30-Jun-2020 141.60 1028.23 1103.02 1054.26 68.73 2.00
   16:18:16.800.30-Jun-2020 141.80 1028.83 1103.02 1054.26 68.73 2.00
   16:18:17.000.30-Jun-2020 142.00 1029.92 1103.02 1054.26 68.73 2.00
   16:18:17.200.30-Jun-2020 142.20 1030.24 1103.02 1054.26 68.73 2.00
   16:18:17.400.30-Jun-2020 142.40 1030.79 1103.02 1054.26 68.73 2.00
   16:18:17.600.30-Jun-2020 142.60 1031.33 1103.02 1054.26 68.73 2.00
   16:18:17.800.30-Jun-2020 142.80 1031.92 1103.02 1054.26 68.73 2.00
   16:18:18.000.30-Jun-2020 143.00 1032.49 1103.02 1054.26 68.73 2.00
   16:18:18.200.30-Jun-2020 143.20 1032.49 1103.02 1054.26 68.73 2.00
   16:18:18.400.30-Jun-2020 143.40 1033.61 1103.02 1054.26 68.73 2.00
   16:18:18.600.30-Jun-2020 143.60 1034.03 1103.02 1054.26 68.73 2.00
   16:18:18.800.30-Jun-2020 143.80 1034.57 1103.02 1054.26 68.73 2.00
   16:18:19.000.30-Jun-2020 144.00 1034.91 1103.02 1054.26 68.73 2.00
   16:18:19.200.30-Jun-2020 144.20 1034.91 1103.02 1054.26 68.73 2.00
   16:18:19.400.30-Jun-2020 144.40 1036.07 1103.02 1054.26 68.73 2.00
   16:18:19.600.30-Jun-2020 144.60 1037.00 1103.02 1054.26 68.73 2.00
   16:18:19.800.30-Jun-2020 144.80 1037.32 1103.02 1054.26 68.73 2.00
   16:18:20.000.30-Jun-2020 145.00 1037.80 1103.02 1054.26 68.73 2.00
   16:18:20.200.30-Jun-2020 145.20 1037.80 1103.02 1054.26 68.73 2.00
   16:18:20.400.30-Jun-2020 145.40 1038.95 1103.02 1054.26 68.73 2.00
   16:18:20.600.30-Jun-2020 145.60 1039.54 1103.02 1054.26 68.73 2.00
   16:18:20.800.30-Jun-2020 145.80 1040.11 1103.02 1054.26 68.73 2.00
   16:18:21.000.30-Jun-2020 146.00 1041.15 1103.02 1054.26 68.73 2.00
   16:18:21.200.30-Jun-2020 146.20 1041.55 1103.02 1054.26 68.73 2.00
   16:18:21.400.30-Jun-2020 146.40 1042.07 1103.02 1054.26 68.73 2.00
   16:18:21.600.30-Jun-2020 146.60 1042.59 1103.02 1054.26 68.73 2.00
   16:18:21.800.30-Jun-2020 146.80 1043.13 1103.02 1054.26 68.73 2.00
   16:18:22.000.30-Jun-2020 147.00 1043.68 1103.02 1054.26 68.73 2.00
   16:18:22.200.30-Jun-2020 147.20 1043.68 1103.02 1054.26 68.73 2.00
   16:18:22.400.30-Jun-2020 147.40 1045.19 1103.02 1054.26 68.73 2.00
   16:18:22.600.30-Jun-2020 147.60 1045.64 1103.02 1054.26 68.73 2.00
   16:18:22.800.30-Jun-2020 147.80 1046.09 1103.02 1054.26 68.73 2.00
   16:18:23.000.30-Jun-2020 148.00 1046.64 1103.02 1054.26 68.73 2.00
   16:18:23.200.30-Jun-2020 148.20 1046.64 1103.02 1054.26 68.73 2.00
   16:18:23.400.30-Jun-2020 148.40 1047.69 1103.02 1054.26 68.73 2.00
   16:18:23.600.30-Jun-2020 148.60 1048.41 1103.02 1054.26 68.73 2.00
   16:18:23.800.30-Jun-2020 148.80 1049.40 1103.02 1054.26 68.73 2.00
   16:18:24.000.30-Jun-2020 149.00 1049.69 1103.02 1054.26 68.73 2.00
   16:18:24.200.30-Jun-2020 149.20 1049.69 1103.02 1054.26 68.73 2.00
   16:18:24.400.30-Jun-2020 149.40 1050.71 1103.02 1054.26 68.73 2.00
   16:18:24.600.30-Jun-2020 149.60 1051.28 1103.02 1054.26 68.73 2.00
   16:18:24.800.30-Jun-2020 149.80 1051.84 1103.02 1054.26 68.73 2.00
   16:18:25.000.30-Jun-2020 150.00 1052.41 1103.02 1054.26 68.73 2.00
   16:18:25.200.30-Jun-2020 150.20 1052.86 1103.02 1054.26 68.73 2.00
   16:18:25.400.30-Jun-2020 150.40 1053.45 1103.02 1054.26 68.74 2.00
   16:18:25.600.30-Jun-2020 150.60 1053.95 1103.02 1054.26 68.74 2.00
   16:18:25.800.30-Jun-2020 150.80 1054.46 1103.02 1054.26 68.74 2.00
   16:18:26.000.30-Jun-2020 151.00 1055.02 1103.02 1054.26 68.74 2.00
   16:18:26.200.30-Jun-2020 151.20 1055.02 1103.02 1054.26 68.74 2.00
   16:18:26.400.30-Jun-2020 151.40 1056.11 1103.02 1054.26 68.74 2.00
   16:18:26.600.30-Jun-2020 151.60 1056.57 1103.02 1054.26 68.74 2.00
   16:18:26.800.30-Jun-2020 151.80 1057.12 1103.02 1054.26 68.74 2.00
   16:18:27.000.30-Jun-2020 152.00 1057.60 1103.02 1054.26 68.74 2.00
   16:18:27.200.30-Jun-2020 152.20 1057.60 1103.02 1054.26 68.74 2.00
   16:18:27.400.30-Jun-2020 152.40 1059.19 1103.02 1054.26 68.74 2.00
   16:18:27.600.30-Jun-2020 152.60 1059.57 1103.02 1054.26 68.74 2.00
   16:18:27.800.30-Jun-2020 152.80 1059.97 1103.02 1054.26 68.74 2.00
   16:18:28.000.30-Jun-2020 153.00 1060.56 1103.02 1054.26 68.74 2.00
   16:18:28.200.30-Jun-2020 153.20 1060.56 1103.02 1054.26 68.74 2.00
   16:18:28.400.30-Jun-2020 153.40 1061.59 1103.02 1054.26 68.74 2.00
   16:18:28.600.30-Jun-2020 153.60 1062.16 1103.02 1054.26 68.74 2.00
   16:18:28.800.30-Jun-2020 153.80 1062.62 1103.02 1054.26 68.74 2.00
   16:18:29.000.30-Jun-2020 154.00 1063.10 1103.02 1054.26 68.74 2.00
   16:18:29.200.30-Jun-2020 154.20 1063.66 1103.02 1054.26 68.74 2.00
   16:18:29.400.30-Jun-2020 154.40 1064.15 1103.02 1054.26 68.74 2.00
   16:18:29.600.30-Jun-2020 154.60 1064.66 1103.02 1054.26 68.74 2.00
   16:18:29.800.30-Jun-2020 154.80 1065.86 1103.02 1054.26 68.74 2.00
   16:18:30.000.30-Jun-2020 155.00 1065.83 1103.02 1054.26 68.74 2.00
   16:18:30.200.30-Jun-2020 155.20 1065.83 1103.02 1054.26 68.74 2.00
   16:18:30.400.30-Jun-2020 155.40 1066.84 1103.02 1054.26 68.74 2.00
   16:18:30.600.30-Jun-2020 155.60 1067.47 1103.02 1054.26 68.74 2.00
   16:18:30.800.30-Jun-2020 155.80 1068.41 1103.02 1054.26 68.74 2.00
   16:18:31.000.30-Jun-2020 156.00 1068.84 1103.02 1054.26 68.74 2.00
   16:18:31.200.30-Jun-2020 156.20 1068.84 1103.02 1054.26 68.74 2.00
   16:18:31.400.30-Jun-2020 156.40 1069.86 1103.02 1054.26 68.74 2.00
   16:18:31.600.30-Jun-2020 156.60 1071.07 1103.02 1054.26 68.74 2.00
   16:18:31.800.30-Jun-2020 156.80 1071.16 1103.02 1054.26 68.74 2.00
   16:18:32.000.30-Jun-2020 157.00 1071.73 1103.02 1054.26 68.74 2.00
   16:18:32.200.30-Jun-2020 157.20 1071.73 1103.02 1054.26 68.74 2.00
   16:18:32.400.30-Jun-2020 157.40 1073.21 1103.02 1054.26 68.74 2.00
   16:18:32.600.30-Jun-2020 157.60 1073.60 1103.02 1054.26 68.74 2.00
   16:18:32.800.30-Jun-2020 157.80 1074.36 1103.02 1054.26 68.74 2.00
   16:18:33.000.30-Jun-2020 158.00 1074.70 1103.02 1054.26 68.74 2.00
   16:18:33.200.30-Jun-2020 158.20 1075.10 1103.02 1054.26 68.74 2.00
   16:18:33.400.30-Jun-2020 158.40 1075.41 1103.02 1054.26 68.74 2.00
   16:18:33.600.30-Jun-2020 158.60 1075.81 1103.02 1054.26 68.74 2.00
   16:18:33.800.30-Jun-2020 158.80 1076.18 1103.02 1054.26 68.74 2.00
   16:18:34.000.30-Jun-2020 159.00 1076.73 1103.02 1054.26 68.74 2.00
   16:18:34.200.30-Jun-2020 159.20 1076.73 1103.02 1054.26 68.74 2.00
   16:18:34.400.30-Jun-2020 159.40 1077.66 1103.02 1054.26 68.74 2.00
   16:18:34.600.30-Jun-2020 159.60 1078.18 1103.02 1054.26 68.74 2.00
   16:18:34.800.30-Jun-2020 159.80 1078.64 1103.02 1054.26 68.74 2.00
   16:18:35.000.30-Jun-2020 160.00 1079.18 1103.02 1054.26 68.74 2.00
   16:18:35.200.30-Jun-2020 160.20 1079.18 1103.02 1054.26 68.74 2.00
   16:18:35.400.30-Jun-2020 160.40 1080.13 1103.02 1054.26 68.74 2.00
   16:18:35.600.30-Jun-2020 160.60 1080.61 1103.02 1054.26 68.74 2.00
   16:18:35.800.30-Jun-2020 160.80 1081.11 1103.02 1054.26 68.74 2.00
