~Version Information
 VERS.                  2.0:   CWLS log ASCII Standard -VERSION 2.0
 WRAP.                   NO:   One line per depth step
~Well Information Block
#MNEM.UNIT     VALUE/NAME     DESCRIPTION
#---------     -----------    ---------------------------
 STRT.S             23:54:17 02-Jul-20: START TIME 23:54:17 02-Jul-20
 STOP.S             00:03:12 03-Jul-20: STOP TIME  00:03:12 03-Jul-20
 STEP.S                   0.00: STEP TIME
 NULL.                 -999.25: NULL VALUE
 DFWT.                        :  DIST FWL TEXT
 DFST.                        :  DIST FSL TEXT
 DMF .             Drill Floor:  DRILL MEAS FROM
 STIM.      09.59.28 01-Jun-20:  START TIME
 DATE.      09.59.28 01-Jun-20:  END TIME
 SPUD.               01-Jun-20:  SPUD DATE
 NREF.                    Grid:  NORTH REFERENCE
 HPTY.       Minimum Curvature:  HOLE POS TYPE
 DMOD.             Drill Model:  DRILL MOD DESC
 SVYD.                  Survey:  SURVEY DESC
 ILTD.               Lithology:  INTERP LTH DESC
 FTOP.          Formation Tops:  FORM TOPS DESC
 SON .        AZ-XX-0905455768:  JOB NUMBER
 WTYP.                Deviated:  WELL TYPE
 COMP.     BP Exploration(Caspian Sea):  COMPANY
 BASE.              Azerbaijan:  LOGGING EQUIPMENT BASE LOCATION
 REGN.                   EESSA:  REGION
 CTRY.              Azerbaijan:  COUNTRY NAME
 FLD .                     ACG:  FIELD NAME
 SRVC.          Turan Drilling:  CONTRACTOR
 WELL.                     B41:  WELL NAME
 RIG .           Central Azeri:  RIG NAME
 DCON.         Sperry Drilling:  DIRECTNL CONTR
 PDAT.          Mean Sea Level:  PERMANENT DATUM
 MDS .        Operator Entered:  MAG DATA SOURCE
 API .                        :  API NUMBER
 CNTY.                        :  COUNTY
 PROV.                        :  PROVINCE
 STAT.                        :  STATE
 UWI .                        :  UNIQUE WELL IDENTIFIER
 LOC .                        :  LOCATION
 LMF .             Drill Floor:  LOG MEASURED FROM
 TVDS.m                  43.29:  TVDSS CORRECTN
 LATI.deg                40.03:  LATITUDE
 LONG.deg                51.35:  LONGITUDE
 WHNS.m                  12.98:  WELL HEAD N/S
 WHEW.m                  -6.62:  WELL HEAD E/W
 UTMX.m              530128.28:  UTM X
 UTMY.m             4433192.49:  UTM Y
 DFWL.m                   0.00:  DISTANCE FWL
 DFSL.m                   0.00:  DISTANCE FSL
 SDEP.m                 378.00:  START DEPTH
 TDD .m                   0.00:  TOTAL DEPTH (DRILLER)
 VSDR.deg               296.18:  VERT SEC DIRECT
 GVFD.g                   1.00:  GRAVITY FIELD
 MFLD.nT              50253.00:  MAGNETIC FIELD
 MDIP.deg                59.49:  MAGNETIC DIP
 MDEC.deg                 6.44:  MAGNETIC DECL
 GRDC.deg                 0.22:  GRID CORRECTION
 AZTC.deg                 6.22:  AZM TOTAL CORR
 EPD .m                   0.00:  ELEVATION
 EGL .m                   0.00:  GROUND ELEVATION
 WDMS.m                 128.20:  WD ELEV
 APD .m                  43.29:  DEPTH ABOVE PD
 AGAP.m                  43.29:  AIR GAP
 VSEW.m                  -6.62:  VERT SEC E/W
 VSNS.m                  12.98:  VERT SEC N/S
 EKB .m                  43.29:  KB ELEVATION
 EDF .m                  43.29:  DF ELEVATION
 TDL .m                1152.00:  TOTAL DEPTH (LOGGER)
 VSC .                       0:  VS TO CLOSURE
 MAGU.                 1848525:  MAGUTM CHECKSUM
~Parameter Information Block
#MNEM.UNIT       Value        Description
#---------     -----------    ---------------------------
 AV  .mps                 0.40:  Ann Velocity 
 AVMX.mps                 1.56:  Max Ann Veloc 
 AZIF.deg               300.46:  Azm, Final 
 BHAT.        Rotary Steerable:  BHA Type 
 BROT.°/30m               0.40:  Build Rotating 
 BS  .in                 17.50:  Bit Size 
 BSZ .in                 17.50:  Bit Size 
 BTPL.psig              300.00:  Bit Press Loss 
 CABU.                      No:  Customer Abuse 
 CGEO.          Parviz Guliyev:  Customer Geo 
 COMM.                     ägu:  Run Comments 1 
 TCS .hr                108.13:  Time Ciculation Ended 
 CV  .mps                 0.50:  Crit Velocity 
 CVMX.mps                 2.01:  Max Crit Veloc 
 DD1 .          Fariz Nahmatov:  Direct Drillr 1 
 DD2 .             Ehab Radwan:  Direct Drillr 2 
 DDSV.               Geo-Pilot:  DD Service 
 DEFF.%                  99.00:  % Det Eff 
 DLRX.°/30m               0.50:  Dogleg Rot Max 
 DLSO.°/30m               2.80:  Dogleg Oriented 
 DLSX.°/30m               3.90:  Dogleg Str Max 
 DRET.      09.30.04 03-Jul-20:  Drill End Time 
 DRST.      18.33.04 28-Jun-20:  Drill Start Tim 
 DTIM.hr                 55.83:  Time Drilling 
 EDEP.m                1952.00:  End Depth 
 ENG1.      Bakhtiyar Jabbarli:  Engineer 1 
 ENG2.         Farhad Orujzade:  Engineer 2 
 ENG3.          Rustam Safarov:  Engineer 3 
 ETIM.      01.33.04 04-Jul-20:  End Time 
 FLOI.gpm              1050.00:  Flow In 
 FLON.gpm               950.00:  Flow In Min 
 FLOS.cptm                0.10:  Fluid Loss 
 FLOX.gpm              1150.00:  Flow In Max 
 HFLO.                      No:  High Flow 
 HPRE.                      No:  High Pressure 
 HTEM.                      No:  High Temp 
 HYDO.m                   1.80:  Hydro Offset 
 IFIN.deg                75.26:  Inc, Final 
 IMAX.deg                75.38:  Inc Max 
 IMIN.deg                22.84:  Inc Min 
 IMND.m                 832.38:  Inc Min Depth 
 IMXD.m                1936.55:  Inc Max Depth 
 JARR.                      No:  Jarring 
 LETM.      17.40.00 04-Jul-20:  Log End Time 
 LOST.hr                     0:  Lost Rig Time 
 LSTM.      12.33.04 28-Jun-20:  Log Start Time 
 MDCL.ppm             49500.00:  Mud Chlorides 
 MDES.     Inversion Oil/Synthetic:  Mud Desc 
 DFD .sg                  1.46:  Mud Density 
 MDMN.sg                  1.46:  Dens Mud Min 
 MDMX.sg                  1.46:  Dens Mud Max 
 MOIL.                      70:  Run Mud Oil % 
 MOWR.                   70:30:  Run Mud OWR 
 MSND.                     0.5:  Run Mud Sand % 
 MSOL.                   19.89:  Run Mud Solids% 
 DFV .spqt               72.00:  Mud Viscosity 
 MWOD.in                  9.50:  MWD Tool OD 
 MWSI.                      No:  Serv Intrp, MWD 
 OTIM.hr                146.53:  Time Operating 
 PCON.           Look Like New:  Pad Condition 
 PMAX.psia             2900.00:  Press Op, Max 
 PV  .cP                 38.00:  Mud PV 
 RUN .                     600:  Run Number 
 ROPA.m/hr               22.00:  ROP Avg 
 ROPN.m/hr               10.00:  ROP Min 
 ROPX.m/hr              263.00:  ROP Max 
 RPMA.rpm               155.00:  RPM Surface Avg 
 RPMN.rpm               140.00:  RPM Surface Min 
 RPMX.rpm               160.00:  RPM Surface Max 
 RRUN.                    0600:  Rig Run Number 
 RTIM.hr                  5.00:  Time Reaming 
 SAZI.deg               300.08:  Azm, Start 
 SDEP.m                 800.00:  Start Depth 
 SIDD.                      No:  Serv Intrp, DD 
 SINC.deg                22.84:  Inc, Start 
 SPPA.psig             3000.00:  SPP Avg 
 SPPN.psig             1900.00:  SPP Min 
 SPPX.psig             3200.00:  SPP Max 
 STIM.      12.30.04 28-Jun-20:  Start Time 
 SVCS.                 DD, MWD:  Services 
 SVER.                    9.20:  Sperry Version 
 TDAT.m                1952.00:  Tot Depth Attmp 
 TDDF.                      No:  Trip for DD 
 TDLG.m                1152.00:  Tot Depth Loggd 
 TFF .                      No:  Trip for Fail 
 TQAA.f-kp                8.00:  Torque Abs Avg 
 TQAN.f-kp                5.00:  Torque Abs Min 
 TQAX.f-kp               14.00:  Torque Abs Max 
 TRRT.°/30m               0.50:  Turn Rotating 
 MRT .                  EWR-M5:  Maximum Recorded Temperature 
 TTMX.degC               69.00:  Max Tool Temp 
 VS01.                90610313:  Virtual Str1 SN 
 VS02.                90613431:  Virtual Str2 SN 
 VS03.                90615410:  Virtual Str3 SN 
 WBMN.klb                 6.00:  WOB Min 
 WITN.            Bruce Cheyne:  Customer Rep 
 WITN.             Ayaz Aliyev:  Customer Rep 2 
 WOBA.klb                 6.00:  WOB Avg 
 WOBX.klb                10.00:  WOB Max 
 YP  .lhf2               36.00:  Yield Point 
~Curve Information Block
#MNEM.UNIT                 API CODE     Curve Description
#---------               -----------    ---------------------------
 TIME.HHMMSS            00 000 000 000:  GT Time & Date
 GTET.sec               00 000 000 000:  GT Elapsed Test Time
 GTPQH.psia             00 000 000 000:  GT HR Quartz Pressure
 GTDEPTH.m              00 000 000 000:  GT Depth
 GTTVD.m                00 000 000 000:  GT True Vertical Depth
 GTTQ.degC              00 000 000 000:  GT Quartz Temperature
 GTTN.NONE              00 000 000 000:  GT Test Number
#Other Information
#
#WARRANTY: Halliburton will use its best efforts to furnish customers with 
#accurate information and interpretations that are part of, and incident to, the services 
#provided.  However, Halliburton cannot and does not warrant the accuracy 
#or correctness of such information and interpretations.  Under no circumstances should any 
#such information or interpretation be relied upon as the sole basis for any drilling, 
#completion, production, or financial decision or any procedure involving any risk to the 
#safety of any drilling venture, drilling rig or its crew or any other third party.  The 
#Customer has full responsibility for all drilling, completion and production operation.  
#Halliburton makes no representations or warranties, either expressed or 
#implied, including, but not limited to, the implied warranties of merchantability or fitness 
#for a particular purpose, with respect to the services rendered.  In no event will 
#Halliburton be liable for failure to obtain any particular results or for 
#any damages, including, but not limited to, indirect, special or consequential damages, 
#resulting from the use of any information or interpretation provided by Halliburton.
#
~A           TIME            GTET   GTPQH  GTDEPTH  GTTVD  GTTQ  GTTN 
# ...
   23:59:16.629.02-Jul-2020 299.04 2503.59 1828.92 1344.71 59.06 7.00
   23:59:16.829.02-Jul-2020 299.24 2503.59 1828.92 1344.71 59.06 7.00
   23:59:17.029.02-Jul-2020 299.44 2503.58 1828.92 1344.71 59.06 7.00
   23:59:17.230.02-Jul-2020 299.64 2503.56 1828.92 1344.71 59.06 7.00
   23:59:17.430.02-Jul-2020 299.84 2503.52 1828.92 1344.71 59.06 7.00
   23:59:17.630.02-Jul-2020 300.04 2503.59 1828.92 1344.71 59.06 7.00
   23:59:17.830.02-Jul-2020 300.24 2503.59 1828.92 1344.71 59.06 7.00
   23:59:18.030.02-Jul-2020 300.44 2503.61 1828.92 1344.71 59.06 7.00
   23:59:18.230.02-Jul-2020 300.64 2503.60 1828.92 1344.71 59.06 7.00
   23:59:18.430.02-Jul-2020 300.84 2503.57 1828.92 1344.71 59.06 7.00
   23:59:18.630.02-Jul-2020 301.04 2503.58 1828.92 1344.71 59.06 7.00
   23:59:18.830.02-Jul-2020 301.24 2503.58 1828.92 1344.71 59.06 7.00
   23:59:19.030.02-Jul-2020 301.44 2503.59 1828.92 1344.71 59.06 7.00
   23:59:19.230.02-Jul-2020 301.64 2503.59 1828.92 1344.71 59.06 7.00
   23:59:19.430.02-Jul-2020 301.84 2503.59 1828.92 1344.71 59.06 7.00
   23:59:19.630.02-Jul-2020 302.04 2503.58 1828.92 1344.71 59.06 7.00
   23:59:19.830.02-Jul-2020 302.24 2503.58 1828.92 1344.71 59.06 7.00
   23:59:20.030.02-Jul-2020 302.44 2503.61 1828.92 1344.71 59.06 7.00
   23:59:20.230.02-Jul-2020 302.64 2503.59 1828.92 1344.71 59.06 7.00
   23:59:20.430.02-Jul-2020 302.84 2503.59 1828.92 1344.71 59.06 7.00
   23:59:20.630.02-Jul-2020 303.04 2503.60 1828.92 1344.71 59.06 7.00
   23:59:20.830.02-Jul-2020 303.24 2503.60 1828.92 1344.71 59.06 7.00
   23:59:21.030.02-Jul-2020 303.44 2503.52 1828.92 1344.71 59.06 7.00
   23:59:21.230.02-Jul-2020 303.64 2503.56 1828.92 1344.71 59.06 7.00
   23:59:21.430.02-Jul-2020 303.84 2503.59 1828.92 1344.71 59.06 7.00
   23:59:21.630.02-Jul-2020 304.04 2503.59 1828.92 1344.71 59.06 7.00
   23:59:21.830.02-Jul-2020 304.24 2503.59 1828.92 1344.71 59.06 7.00
   23:59:22.030.02-Jul-2020 304.44 2503.59 1828.92 1344.71 59.06 7.00
   23:59:22.230.02-Jul-2020 304.64 2503.58 1828.92 1344.71 59.06 7.00
   23:59:22.430.02-Jul-2020 304.84 2503.52 1828.92 1344.71 59.06 7.00
   23:59:22.630.02-Jul-2020 305.04 2503.62 1828.92 1344.71 59.06 7.00
   23:59:22.830.02-Jul-2020 305.24 2503.62 1828.92 1344.71 59.06 7.00
   23:59:23.030.02-Jul-2020 305.44 2503.59 1828.92 1344.71 59.06 7.00
   23:59:23.230.02-Jul-2020 305.64 2503.52 1828.92 1344.71 59.06 7.00
   23:59:23.430.02-Jul-2020 305.84 2503.58 1828.92 1344.71 59.06 7.00
   23:59:23.630.02-Jul-2020 306.04 2503.59 1828.92 1344.71 59.06 7.00
   23:59:23.830.02-Jul-2020 306.24 2503.59 1828.92 1344.71 59.06 7.00
   23:59:24.030.02-Jul-2020 306.44 2503.58 1828.92 1344.71 59.06 7.00
   23:59:24.230.02-Jul-2020 306.64 2503.61 1828.92 1344.71 59.06 7.00
   23:59:24.430.02-Jul-2020 306.84 2503.59 1828.92 1344.71 59.06 7.00
   23:59:24.631.02-Jul-2020 307.04 2503.59 1828.92 1344.71 59.06 7.00
   23:59:24.831.02-Jul-2020 307.24 2503.59 1828.92 1344.71 59.06 7.00
   23:59:25.031.02-Jul-2020 307.44 2503.61 1828.92 1344.71 59.06 7.00
   23:59:25.231.02-Jul-2020 307.64 2503.59 1828.92 1344.71 59.06 7.00
   23:59:25.431.02-Jul-2020 307.84 2503.59 1828.92 1344.71 59.06 7.00
   23:59:25.631.02-Jul-2020 308.04 2503.59 1828.92 1344.71 59.06 7.00
   23:59:25.831.02-Jul-2020 308.24 2503.59 1828.92 1344.71 59.06 7.00
   23:59:26.031.02-Jul-2020 308.44 2503.59 1828.92 1344.71 59.06 7.00
   23:59:26.231.02-Jul-2020 308.64 2503.60 1828.92 1344.71 59.06 7.00
   23:59:26.431.02-Jul-2020 308.84 2503.61 1828.92 1344.71 59.06 7.00
   23:59:26.631.02-Jul-2020 309.04 2503.60 1828.92 1344.71 59.06 7.00
   23:59:26.831.02-Jul-2020 309.24 2503.60 1828.92 1344.71 59.06 7.00
   23:59:27.031.02-Jul-2020 309.44 2503.51 1828.92 1344.71 59.06 7.00
   23:59:27.231.02-Jul-2020 309.64 2503.60 1828.92 1344.71 59.06 7.00
   23:59:27.431.02-Jul-2020 309.84 2503.60 1828.92 1344.71 59.06 7.00
   23:59:27.631.02-Jul-2020 310.04 2503.61 1828.92 1344.71 59.06 7.00
   23:59:27.831.02-Jul-2020 310.24 2503.61 1828.92 1344.71 59.06 7.00
   23:59:28.031.02-Jul-2020 310.44 2503.60 1828.92 1344.71 59.06 7.00
   23:59:28.231.02-Jul-2020 310.64 2503.59 1828.92 1344.71 59.06 7.00
   23:59:28.431.02-Jul-2020 310.84 2503.61 1828.92 1344.71 59.06 7.00
   23:59:28.631.02-Jul-2020 311.04 2503.61 1828.92 1344.71 59.06 7.00
   23:59:28.831.02-Jul-2020 311.24 2503.61 1828.92 1344.71 59.06 7.00
   23:59:29.031.02-Jul-2020 311.44 2503.60 1828.92 1344.71 59.06 7.00
   23:59:29.231.02-Jul-2020 311.64 2503.61 1828.92 1344.71 59.06 7.00
   23:59:29.431.02-Jul-2020 311.84 2503.53 1828.92 1344.71 59.06 7.00
   23:59:29.631.02-Jul-2020 312.04 2503.58 1828.92 1344.71 59.06 7.00
   23:59:29.831.02-Jul-2020 312.24 2503.61 1828.92 1344.71 59.06 7.00
   23:59:30.031.02-Jul-2020 312.44 2503.59 1828.92 1344.71 59.06 7.00
   23:59:30.231.02-Jul-2020 312.64 2503.60 1828.92 1344.71 59.06 7.00
   23:59:30.431.02-Jul-2020 312.84 2503.60 1828.92 1344.71 59.06 7.00
   23:59:30.631.02-Jul-2020 313.04 2503.52 1828.92 1344.71 59.06 7.00
   23:59:30.831.02-Jul-2020 313.24 2503.59 1828.92 1344.71 59.06 7.00
   23:59:31.031.02-Jul-2020 313.44 2503.60 1828.92 1344.71 59.06 7.00
   23:59:31.231.02-Jul-2020 313.64 2503.60 1828.92 1344.71 59.06 7.00
   23:59:31.431.02-Jul-2020 313.84 2503.61 1828.92 1344.71 59.06 7.00
   23:59:31.631.02-Jul-2020 314.04 2503.65 1828.92 1344.71 59.06 7.00
   23:59:31.832.02-Jul-2020 314.24 2503.65 1828.92 1344.71 59.06 7.00
   23:59:32.032.02-Jul-2020 314.44 2503.54 1828.92 1344.71 59.06 7.00
   23:59:32.232.02-Jul-2020 314.64 2503.61 1828.92 1344.71 59.06 7.00
   23:59:32.432.02-Jul-2020 314.84 2503.62 1828.92 1344.71 59.06 7.00
   23:59:32.632.02-Jul-2020 315.04 2503.61 1828.92 1344.71 59.06 7.00
   23:59:32.832.02-Jul-2020 315.24 2503.56 1828.92 1344.71 59.06 7.00
   23:59:33.032.02-Jul-2020 315.44 2503.56 1828.92 1344.71 59.06 7.00
   23:59:33.232.02-Jul-2020 315.64 2503.61 1828.92 1344.71 59.06 7.00
   23:59:33.432.02-Jul-2020 315.84 2503.61 1828.92 1344.71 59.06 7.00
   23:59:33.632.02-Jul-2020 316.04 2503.60 1828.92 1344.71 59.06 7.00
   23:59:33.832.02-Jul-2020 316.24 2503.60 1828.92 1344.71 59.06 7.00
   23:59:34.032.02-Jul-2020 316.44 2503.61 1828.92 1344.71 59.06 7.00
   23:59:34.232.02-Jul-2020 316.64 2503.59 1828.92 1344.71 59.06 7.00
   23:59:34.432.02-Jul-2020 316.84 2503.60 1828.92 1344.71 59.06 7.00
   23:59:34.632.02-Jul-2020 317.04 2503.62 1828.92 1344.71 59.06 7.00
   23:59:34.832.02-Jul-2020 317.24 2503.62 1828.92 1344.71 59.06 7.00
   23:59:35.032.02-Jul-2020 317.44 2503.61 1828.92 1344.71 59.06 7.00
   23:59:35.232.02-Jul-2020 317.64 2503.61 1828.92 1344.71 59.06 7.00
   23:59:35.432.02-Jul-2020 317.84 2503.61 1828.92 1344.71 59.06 7.00
   23:59:35.632.02-Jul-2020 318.04 2503.60 1828.92 1344.71 59.06 7.00
   23:59:35.832.02-Jul-2020 318.24 2503.60 1828.92 1344.71 59.06 7.00
   23:59:36.032.02-Jul-2020 318.44 2503.61 1828.92 1344.71 59.06 7.00
   23:59:36.232.02-Jul-2020 318.64 2503.61 1828.92 1344.71 59.06 7.00
   23:59:36.432.02-Jul-2020 318.84 2503.61 1828.92 1344.71 59.06 7.00
   23:59:36.632.02-Jul-2020 319.04 2503.55 1828.92 1344.71 59.06 7.00
   23:59:36.832.02-Jul-2020 319.24 2503.55 1828.92 1344.71 59.06 7.00
   23:59:37.032.02-Jul-2020 319.44 2503.61 1828.92 1344.71 59.06 7.00
   23:59:37.232.02-Jul-2020 319.64 2503.61 1828.92 1344.71 59.06 7.00
   23:59:37.432.02-Jul-2020 319.84 2503.63 1828.92 1344.71 59.06 7.00
   23:59:37.632.02-Jul-2020 320.04 2503.62 1828.92 1344.71 59.06 7.00
   23:59:37.832.02-Jul-2020 320.24 2503.62 1828.92 1344.71 59.06 7.00
   23:59:38.032.02-Jul-2020 320.44 2503.62 1828.92 1344.71 59.06 7.00
   23:59:38.232.02-Jul-2020 320.64 2503.62 1828.92 1344.71 59.06 7.00
   23:59:38.432.02-Jul-2020 320.84 2503.62 1828.92 1344.71 59.06 7.00
   23:59:38.632.02-Jul-2020 321.04 2503.61 1828.92 1344.71 59.06 7.00
   23:59:38.832.02-Jul-2020 321.24 2503.61 1828.92 1344.71 59.06 7.00
   23:59:39.032.02-Jul-2020 321.44 2503.55 1828.92 1344.71 59.06 7.00
   23:59:39.233.02-Jul-2020 321.64 2503.60 1828.92 1344.71 59.06 7.00
   23:59:39.433.02-Jul-2020 321.84 2503.62 1828.92 1344.71 59.06 7.00
