~Version Information
 VERS.                  2.0:   CWLS log ASCII Standard -VERSION 2.0
 WRAP.                   NO:   One line per depth step
~Well Information Block
#MNEM.UNIT     VALUE/NAME     DESCRIPTION
#---------     -----------    ---------------------------
 STRT.S             04:53:08 03-Jul-20: START TIME 04:53:08 03-Jul-20
 STOP.S             05:02:09 03-Jul-20: STOP TIME  05:02:09 03-Jul-20
 STEP.S                   0.00: STEP TIME
 NULL.                 -999.25: NULL VALUE
 DFWT.                        :  DIST FWL TEXT
 DFST.                        :  DIST FSL TEXT
 DMF .             Drill Floor:  DRILL MEAS FROM
 STIM.      09.59.28 01-Jun-20:  START TIME
 DATE.      09.59.28 01-Jun-20:  END TIME
 SPUD.               01-Jun-20:  SPUD DATE
 NREF.                    Grid:  NORTH REFERENCE
 HPTY.       Minimum Curvature:  HOLE POS TYPE
 DMOD.             Drill Model:  DRILL MOD DESC
 SVYD.                  Survey:  SURVEY DESC
 ILTD.               Lithology:  INTERP LTH DESC
 FTOP.          Formation Tops:  FORM TOPS DESC
 SON .        AZ-XX-0905455768:  JOB NUMBER
 WTYP.                Deviated:  WELL TYPE
 COMP.     BP Exploration(Caspian Sea):  COMPANY
 BASE.              Azerbaijan:  LOGGING EQUIPMENT BASE LOCATION
 REGN.                   EESSA:  REGION
 CTRY.              Azerbaijan:  COUNTRY NAME
 FLD .                     ACG:  FIELD NAME
 SRVC.          Turan Drilling:  CONTRACTOR
 WELL.                     B41:  WELL NAME
 RIG .           Central Azeri:  RIG NAME
 DCON.         Sperry Drilling:  DIRECTNL CONTR
 PDAT.          Mean Sea Level:  PERMANENT DATUM
 MDS .        Operator Entered:  MAG DATA SOURCE
 API .                        :  API NUMBER
 CNTY.                        :  COUNTY
 PROV.                        :  PROVINCE
 STAT.                        :  STATE
 UWI .                        :  UNIQUE WELL IDENTIFIER
 LOC .                        :  LOCATION
 LMF .             Drill Floor:  LOG MEASURED FROM
 TVDS.m                  43.29:  TVDSS CORRECTN
 LATI.deg                40.03:  LATITUDE
 LONG.deg                51.35:  LONGITUDE
 WHNS.m                  12.98:  WELL HEAD N/S
 WHEW.m                  -6.62:  WELL HEAD E/W
 UTMX.m              530128.28:  UTM X
 UTMY.m             4433192.49:  UTM Y
 DFWL.m                   0.00:  DISTANCE FWL
 DFSL.m                   0.00:  DISTANCE FSL
 SDEP.m                 378.00:  START DEPTH
 TDD .m                   0.00:  TOTAL DEPTH (DRILLER)
 VSDR.deg               296.18:  VERT SEC DIRECT
 GVFD.g                   1.00:  GRAVITY FIELD
 MFLD.nT              50253.00:  MAGNETIC FIELD
 MDIP.deg                59.49:  MAGNETIC DIP
 MDEC.deg                 6.44:  MAGNETIC DECL
 GRDC.deg                 0.22:  GRID CORRECTION
 AZTC.deg                 6.22:  AZM TOTAL CORR
 EPD .m                   0.00:  ELEVATION
 EGL .m                   0.00:  GROUND ELEVATION
 WDMS.m                 128.20:  WD ELEV
 APD .m                  43.29:  DEPTH ABOVE PD
 AGAP.m                  43.29:  AIR GAP
 VSEW.m                  -6.62:  VERT SEC E/W
 VSNS.m                  12.98:  VERT SEC N/S
 EKB .m                  43.29:  KB ELEVATION
 EDF .m                  43.29:  DF ELEVATION
 TDL .m                1152.00:  TOTAL DEPTH (LOGGER)
 VSC .                       0:  VS TO CLOSURE
 MAGU.                 1848525:  MAGUTM CHECKSUM
~Parameter Information Block
#MNEM.UNIT       Value        Description
#---------     -----------    ---------------------------
 AV  .mps                 0.40:  Ann Velocity 
 AVMX.mps                 1.56:  Max Ann Veloc 
 AZIF.deg               300.46:  Azm, Final 
 BHAT.        Rotary Steerable:  BHA Type 
 BROT.°/30m               0.40:  Build Rotating 
 BS  .in                 17.50:  Bit Size 
 BSZ .in                 17.50:  Bit Size 
 BTPL.psig              300.00:  Bit Press Loss 
 CABU.                      No:  Customer Abuse 
 CGEO.          Parviz Guliyev:  Customer Geo 
 COMM.                     D‘]:  Run Comments 1 
 TCS .hr                108.13:  Time Ciculation Ended 
 CV  .mps                 0.50:  Crit Velocity 
 CVMX.mps                 2.01:  Max Crit Veloc 
 DD1 .          Fariz Nahmatov:  Direct Drillr 1 
 DD2 .             Ehab Radwan:  Direct Drillr 2 
 DDSV.               Geo-Pilot:  DD Service 
 DEFF.%                  99.00:  % Det Eff 
 DLRX.°/30m               0.50:  Dogleg Rot Max 
 DLSO.°/30m               2.80:  Dogleg Oriented 
 DLSX.°/30m               3.90:  Dogleg Str Max 
 DRET.      09.30.04 03-Jul-20:  Drill End Time 
 DRST.      18.33.04 28-Jun-20:  Drill Start Tim 
 DTIM.hr                 55.83:  Time Drilling 
 EDEP.m                1952.00:  End Depth 
 ENG1.      Bakhtiyar Jabbarli:  Engineer 1 
 ENG2.         Farhad Orujzade:  Engineer 2 
 ENG3.          Rustam Safarov:  Engineer 3 
 ETIM.      01.33.04 04-Jul-20:  End Time 
 FLOI.gpm              1050.00:  Flow In 
 FLON.gpm               950.00:  Flow In Min 
 FLOS.cptm                0.10:  Fluid Loss 
 FLOX.gpm              1150.00:  Flow In Max 
 HFLO.                      No:  High Flow 
 HPRE.                      No:  High Pressure 
 HTEM.                      No:  High Temp 
 HYDO.m                   1.80:  Hydro Offset 
 IFIN.deg                75.26:  Inc, Final 
 IMAX.deg                75.38:  Inc Max 
 IMIN.deg                22.84:  Inc Min 
 IMND.m                 832.38:  Inc Min Depth 
 IMXD.m                1936.55:  Inc Max Depth 
 JARR.                      No:  Jarring 
 LETM.      17.40.00 04-Jul-20:  Log End Time 
 LOST.hr                     0:  Lost Rig Time 
 LSTM.      12.33.04 28-Jun-20:  Log Start Time 
 MDCL.ppm             49500.00:  Mud Chlorides 
 MDES.     Inversion Oil/Synthetic:  Mud Desc 
 DFD .sg                  1.46:  Mud Density 
 MDMN.sg                  1.46:  Dens Mud Min 
 MDMX.sg                  1.46:  Dens Mud Max 
 MOIL.                      70:  Run Mud Oil % 
 MOWR.                   70:30:  Run Mud OWR 
 MSND.                     0.5:  Run Mud Sand % 
 MSOL.                   19.89:  Run Mud Solids% 
 DFV .spqt               72.00:  Mud Viscosity 
 MWOD.in                  9.50:  MWD Tool OD 
 MWSI.                      No:  Serv Intrp, MWD 
 OTIM.hr                146.53:  Time Operating 
 PCON.           Look Like New:  Pad Condition 
 PMAX.psia             2900.00:  Press Op, Max 
 PV  .cP                 38.00:  Mud PV 
 RUN .                     600:  Run Number 
 ROPA.m/hr               22.00:  ROP Avg 
 ROPN.m/hr               10.00:  ROP Min 
 ROPX.m/hr              263.00:  ROP Max 
 RPMA.rpm               155.00:  RPM Surface Avg 
 RPMN.rpm               140.00:  RPM Surface Min 
 RPMX.rpm               160.00:  RPM Surface Max 
 RRUN.                    0600:  Rig Run Number 
 RTIM.hr                  5.00:  Time Reaming 
 SAZI.deg               300.08:  Azm, Start 
 SDEP.m                 800.00:  Start Depth 
 SIDD.                      No:  Serv Intrp, DD 
 SINC.deg                22.84:  Inc, Start 
 SPPA.psig             3000.00:  SPP Avg 
 SPPN.psig             1900.00:  SPP Min 
 SPPX.psig             3200.00:  SPP Max 
 STIM.      12.30.04 28-Jun-20:  Start Time 
 SVCS.                 DD, MWD:  Services 
 SVER.                    9.20:  Sperry Version 
 TDAT.m                1952.00:  Tot Depth Attmp 
 TDDF.                      No:  Trip for DD 
 TDLG.m                1152.00:  Tot Depth Loggd 
 TFF .                      No:  Trip for Fail 
 TQAA.f-kp                8.00:  Torque Abs Avg 
 TQAN.f-kp                5.00:  Torque Abs Min 
 TQAX.f-kp               14.00:  Torque Abs Max 
 TRRT.°/30m               0.50:  Turn Rotating 
 MRT .                  EWR-M5:  Maximum Recorded Temperature 
 TTMX.degC               69.00:  Max Tool Temp 
 VS01.                90610313:  Virtual Str1 SN 
 VS02.                90613431:  Virtual Str2 SN 
 VS03.                90615410:  Virtual Str3 SN 
 WBMN.klb                 6.00:  WOB Min 
 WITN.            Bruce Cheyne:  Customer Rep 
 WITN.             Ayaz Aliyev:  Customer Rep 2 
 WOBA.klb                 6.00:  WOB Avg 
 WOBX.klb                10.00:  WOB Max 
 YP  .lhf2               36.00:  Yield Point 
~Curve Information Block
#MNEM.UNIT                 API CODE     Curve Description
#---------               -----------    ---------------------------
 TIME.HHMMSS            00 000 000 000:  GT Time & Date
 GTET.sec               00 000 000 000:  GT Elapsed Test Time
 GTPQH.psia             00 000 000 000:  GT HR Quartz Pressure
 GTDEPTH.m              00 000 000 000:  GT Depth
 GTTVD.m                00 000 000 000:  GT True Vertical Depth
 GTTQ.degC              00 000 000 000:  GT Quartz Temperature
 GTTN.NONE              00 000 000 000:  GT Test Number
#Other Information
#
#WARRANTY: Halliburton will use its best efforts to furnish customers with 
#accurate information and interpretations that are part of, and incident to, the services 
#provided.  However, Halliburton cannot and does not warrant the accuracy 
#or correctness of such information and interpretations.  Under no circumstances should any 
#such information or interpretation be relied upon as the sole basis for any drilling, 
#completion, production, or financial decision or any procedure involving any risk to the 
#safety of any drilling venture, drilling rig or its crew or any other third party.  The 
#Customer has full responsibility for all drilling, completion and production operation.  
#Halliburton makes no representations or warranties, either expressed or 
#implied, including, but not limited to, the implied warranties of merchantability or fitness 
#for a particular purpose, with respect to the services rendered.  In no event will 
#Halliburton be liable for failure to obtain any particular results or for 
#any damages, including, but not limited to, indirect, special or consequential damages, 
#resulting from the use of any information or interpretation provided by Halliburton.
#
~A           TIME            GTET   GTPQH  GTDEPTH  GTTVD  GTTQ  GTTN 
# ...
   04:57:44.000.03-Jul-2020 276.00 2525.54 1886.00 1359.43 58.98 8.00
   04:57:44.200.03-Jul-2020 276.20 2525.49 1886.00 1359.43 58.98 8.00
   04:57:44.400.03-Jul-2020 276.40 2525.51 1886.00 1359.43 58.98 8.00
   04:57:44.600.03-Jul-2020 276.60 2525.53 1886.00 1359.43 58.98 8.00
   04:57:44.800.03-Jul-2020 276.80 2525.55 1886.00 1359.43 58.98 8.00
   04:57:45.000.03-Jul-2020 277.00 2525.56 1886.00 1359.43 58.98 8.00
   04:57:45.200.03-Jul-2020 277.20 2525.56 1886.00 1359.43 58.98 8.00
   04:57:45.400.03-Jul-2020 277.40 2525.54 1886.00 1359.43 58.98 8.00
   04:57:45.600.03-Jul-2020 277.60 2525.43 1886.00 1359.43 58.98 8.00
   04:57:45.800.03-Jul-2020 277.80 2525.55 1886.00 1359.43 58.98 8.00
   04:57:46.000.03-Jul-2020 278.00 2525.57 1886.00 1359.43 58.98 8.00
   04:57:46.200.03-Jul-2020 278.20 2525.57 1886.00 1359.43 58.98 8.00
   04:57:46.400.03-Jul-2020 278.40 2525.56 1886.00 1359.43 58.98 8.00
   04:57:46.600.03-Jul-2020 278.60 2525.56 1886.00 1359.43 58.98 8.00
   04:57:46.800.03-Jul-2020 278.80 2525.56 1886.00 1359.43 58.98 8.00
   04:57:47.000.03-Jul-2020 279.00 2525.54 1886.00 1359.43 58.98 8.00
   04:57:47.200.03-Jul-2020 279.20 2525.53 1886.00 1359.43 58.98 8.00
   04:57:47.400.03-Jul-2020 279.40 2525.56 1886.00 1359.43 58.98 8.00
   04:57:47.600.03-Jul-2020 279.60 2525.57 1886.00 1359.43 58.98 8.00
   04:57:47.800.03-Jul-2020 279.80 2525.54 1886.00 1359.43 58.98 8.00
   04:57:48.000.03-Jul-2020 280.00 2525.56 1886.00 1359.43 58.98 8.00
   04:57:48.200.03-Jul-2020 280.20 2525.56 1886.00 1359.43 58.98 8.00
   04:57:48.400.03-Jul-2020 280.40 2525.58 1886.00 1359.43 58.98 8.00
   04:57:48.600.03-Jul-2020 280.60 2525.59 1886.00 1359.43 58.98 8.00
   04:57:48.800.03-Jul-2020 280.80 2525.57 1886.00 1359.43 58.98 8.00
   04:57:49.000.03-Jul-2020 281.00 2525.57 1886.00 1359.43 58.98 8.00
   04:57:49.200.03-Jul-2020 281.20 2525.57 1886.00 1359.43 58.98 8.00
   04:57:49.400.03-Jul-2020 281.40 2525.57 1886.00 1359.43 58.98 8.00
   04:57:49.600.03-Jul-2020 281.60 2525.57 1886.00 1359.43 58.98 8.00
   04:57:49.800.03-Jul-2020 281.80 2525.56 1886.00 1359.43 58.98 8.00
   04:57:50.000.03-Jul-2020 282.00 2525.58 1886.00 1359.43 58.98 8.00
   04:57:50.200.03-Jul-2020 282.20 2525.58 1886.00 1359.43 58.98 8.00
   04:57:50.400.03-Jul-2020 282.40 2525.58 1886.00 1359.43 58.98 8.00
   04:57:50.600.03-Jul-2020 282.60 2525.58 1886.00 1359.43 58.98 8.00
   04:57:50.800.03-Jul-2020 282.80 2525.58 1886.00 1359.43 58.98 8.00
   04:57:51.000.03-Jul-2020 283.00 2525.61 1886.00 1359.43 58.98 8.00
   04:57:51.200.03-Jul-2020 283.20 2525.61 1886.00 1359.43 58.98 8.00
   04:57:51.400.03-Jul-2020 283.40 2525.58 1886.00 1359.43 58.98 8.00
   04:57:51.600.03-Jul-2020 283.60 2525.59 1886.00 1359.43 58.98 8.00
   04:57:51.800.03-Jul-2020 283.80 2525.56 1886.00 1359.43 58.98 8.00
   04:57:52.000.03-Jul-2020 284.00 2525.53 1886.00 1359.43 58.98 8.00
   04:57:52.200.03-Jul-2020 284.20 2525.56 1886.00 1359.43 58.98 8.00
   04:57:52.400.03-Jul-2020 284.40 2525.59 1886.00 1359.43 58.98 8.00
   04:57:52.600.03-Jul-2020 284.60 2525.60 1886.00 1359.43 58.98 8.00
   04:57:52.800.03-Jul-2020 284.80 2525.61 1886.00 1359.43 58.98 8.00
   04:57:53.000.03-Jul-2020 285.00 2525.58 1886.00 1359.43 58.98 8.00
   04:57:53.200.03-Jul-2020 285.20 2525.58 1886.00 1359.43 58.98 8.00
   04:57:53.400.03-Jul-2020 285.40 2525.59 1886.00 1359.43 58.98 8.00
   04:57:53.600.03-Jul-2020 285.60 2525.61 1886.00 1359.43 58.98 8.00
   04:57:53.800.03-Jul-2020 285.80 2525.60 1886.00 1359.43 58.98 8.00
   04:57:54.000.03-Jul-2020 286.00 2525.60 1886.00 1359.43 58.98 8.00
   04:57:54.200.03-Jul-2020 286.20 2525.60 1886.00 1359.43 58.98 8.00
   04:57:54.400.03-Jul-2020 286.40 2525.47 1886.00 1359.43 58.98 8.00
   04:57:54.600.03-Jul-2020 286.60 2525.60 1886.00 1359.43 58.98 8.00
   04:57:54.800.03-Jul-2020 286.80 2525.63 1886.00 1359.43 58.98 8.00
   04:57:55.000.03-Jul-2020 287.00 2525.57 1886.00 1359.43 58.98 8.00
   04:57:55.200.03-Jul-2020 287.20 2525.60 1886.00 1359.43 58.98 8.00
   04:57:55.400.03-Jul-2020 287.40 2525.61 1886.00 1359.43 58.98 8.00
   04:57:55.600.03-Jul-2020 287.60 2525.54 1886.00 1359.43 58.98 8.00
   04:57:55.800.03-Jul-2020 287.80 2525.55 1886.00 1359.43 58.98 8.00
   04:57:56.000.03-Jul-2020 288.00 2525.57 1886.00 1359.43 58.98 8.00
   04:57:56.200.03-Jul-2020 288.20 2525.57 1886.00 1359.43 58.98 8.00
   04:57:56.400.03-Jul-2020 288.40 2525.62 1886.00 1359.43 58.98 8.00
   04:57:56.600.03-Jul-2020 288.60 2525.61 1886.00 1359.43 58.98 8.00
   04:57:56.800.03-Jul-2020 288.80 2525.59 1886.00 1359.43 58.98 8.00
   04:57:57.000.03-Jul-2020 289.00 2525.59 1886.00 1359.43 58.98 8.00
   04:57:57.200.03-Jul-2020 289.20 2525.59 1886.00 1359.43 58.98 8.00
   04:57:57.400.03-Jul-2020 289.40 2525.66 1886.00 1359.43 58.98 8.00
   04:57:57.600.03-Jul-2020 289.60 2525.66 1886.00 1359.43 58.98 8.00
   04:57:57.800.03-Jul-2020 289.80 2525.60 1886.00 1359.43 58.98 8.00
   04:57:58.000.03-Jul-2020 290.00 2525.60 1886.00 1359.43 58.98 8.00
   04:57:58.200.03-Jul-2020 290.20 2525.60 1886.00 1359.43 58.98 8.00
   04:57:58.400.03-Jul-2020 290.40 2525.56 1886.00 1359.43 58.98 8.00
   04:57:58.600.03-Jul-2020 290.60 2525.59 1886.00 1359.43 58.98 8.00
   04:57:58.800.03-Jul-2020 290.80 2525.62 1886.00 1359.43 58.98 8.00
   04:57:59.000.03-Jul-2020 291.00 2525.61 1886.00 1359.43 58.98 8.00
   04:57:59.200.03-Jul-2020 291.20 2525.62 1886.00 1359.43 58.98 8.00
   04:57:59.400.03-Jul-2020 291.40 2525.63 1886.00 1359.43 58.98 8.00
   04:57:59.600.03-Jul-2020 291.60 2525.62 1886.00 1359.43 58.98 8.00
   04:57:59.800.03-Jul-2020 291.80 2525.61 1886.00 1359.43 58.98 8.00
   04:58:00.000.03-Jul-2020 292.00 2525.63 1886.00 1359.43 58.98 8.00
   04:58:00.200.03-Jul-2020 292.20 2525.63 1886.00 1359.43 58.98 8.00
   04:58:00.400.03-Jul-2020 292.40 2525.63 1886.00 1359.43 58.98 8.00
   04:58:00.600.03-Jul-2020 292.60 2525.63 1886.00 1359.43 58.98 8.00
   04:58:00.800.03-Jul-2020 292.80 2525.63 1886.00 1359.43 58.98 8.00
   04:58:01.000.03-Jul-2020 293.00 2525.63 1886.00 1359.43 58.98 8.00
   04:58:01.200.03-Jul-2020 293.20 2525.63 1886.00 1359.43 58.98 8.00
   04:58:01.400.03-Jul-2020 293.40 2525.63 1886.00 1359.43 58.98 8.00
   04:58:01.600.03-Jul-2020 293.60 2525.63 1886.00 1359.43 58.98 8.00
   04:58:01.800.03-Jul-2020 293.80 2525.64 1886.00 1359.43 58.98 8.00
   04:58:02.000.03-Jul-2020 294.00 2525.49 1886.00 1359.43 58.98 8.00
   04:58:02.200.03-Jul-2020 294.20 2525.49 1886.00 1359.43 58.98 8.00
   04:58:02.400.03-Jul-2020 294.40 2525.67 1886.00 1359.43 58.98 8.00
   04:58:02.600.03-Jul-2020 294.60 2525.64 1886.00 1359.43 58.98 8.00
   04:58:02.800.03-Jul-2020 294.80 2525.66 1886.00 1359.43 58.98 8.00
   04:58:03.000.03-Jul-2020 295.00 2525.63 1886.00 1359.43 58.98 8.00
   04:58:03.200.03-Jul-2020 295.20 2525.63 1886.00 1359.43 58.98 8.00
   04:58:03.400.03-Jul-2020 295.40 2525.64 1886.00 1359.43 58.98 8.00
   04:58:03.600.03-Jul-2020 295.60 2525.65 1886.00 1359.43 58.98 8.00
   04:58:03.800.03-Jul-2020 295.80 2525.65 1886.00 1359.43 58.98 8.00
   04:58:04.000.03-Jul-2020 296.00 2525.65 1886.00 1359.43 58.98 8.00
   04:58:04.200.03-Jul-2020 296.20 2525.65 1886.00 1359.43 58.98 8.00
   04:58:04.400.03-Jul-2020 296.40 2525.60 1886.00 1359.43 58.98 8.00
   04:58:04.600.03-Jul-2020 296.60 2525.61 1886.00 1359.43 58.98 8.00
   04:58:04.800.03-Jul-2020 296.80 2525.64 1886.00 1359.43 58.98 8.00
   04:58:05.000.03-Jul-2020 297.00 2525.64 1886.00 1359.43 58.98 8.00
   04:58:05.200.03-Jul-2020 297.20 2525.66 1886.00 1359.43 58.98 8.00
   04:58:05.400.03-Jul-2020 297.40 2525.65 1886.00 1359.43 58.98 8.00
   04:58:05.600.03-Jul-2020 297.60 2525.64 1886.00 1359.43 58.98 8.00
   04:58:05.800.03-Jul-2020 297.80 2525.52 1886.00 1359.43 58.98 8.00
   04:58:06.000.03-Jul-2020 298.00 2525.64 1886.00 1359.43 58.98 8.00
   04:58:06.200.03-Jul-2020 298.20 2525.64 1886.00 1359.43 58.98 8.00
   04:58:06.400.03-Jul-2020 298.40 2525.64 1886.00 1359.43 58.98 8.00
   04:58:06.600.03-Jul-2020 298.60 2525.65 1886.00 1359.43 58.98 8.00
   04:58:06.800.03-Jul-2020 298.80 2525.65 1886.00 1359.43 58.98 8.00
