~Version Information
 VERS.                  2.0:   CWLS log ASCII Standard -VERSION 2.0
 WRAP.                   NO:   One line per depth step
~Well Information Block
#MNEM.UNIT     VALUE/NAME     DESCRIPTION
#---------     -----------    ---------------------------
 STRT.S             20:59:46 30-Jun-20: START TIME 20:59:46 30-Jun-20
 STOP.S             21:08:48 30-Jun-20: STOP TIME  21:08:48 30-Jun-20
 STEP.S                   0.00: STEP TIME
 NULL.                 -999.25: NULL VALUE
 DFWT.                        :  DIST FWL TEXT
 DFST.                        :  DIST FSL TEXT
 DMF .             Drill Floor:  DRILL MEAS FROM
 STIM.      09.59.28 01-Jun-20:  START TIME
 DATE.      09.59.28 01-Jun-20:  END TIME
 SPUD.               01-Jun-20:  SPUD DATE
 NREF.                    Grid:  NORTH REFERENCE
 HPTY.       Minimum Curvature:  HOLE POS TYPE
 DMOD.             Drill Model:  DRILL MOD DESC
 SVYD.                  Survey:  SURVEY DESC
 ILTD.               Lithology:  INTERP LTH DESC
 FTOP.          Formation Tops:  FORM TOPS DESC
 SON .        AZ-XX-0905455768:  JOB NUMBER
 WTYP.                Deviated:  WELL TYPE
 COMP.     BP Exploration(Caspian Sea):  COMPANY
 BASE.              Azerbaijan:  LOGGING EQUIPMENT BASE LOCATION
 REGN.                   EESSA:  REGION
 CTRY.              Azerbaijan:  COUNTRY NAME
 FLD .                     ACG:  FIELD NAME
 SRVC.          Turan Drilling:  CONTRACTOR
 WELL.                     B41:  WELL NAME
 RIG .           Central Azeri:  RIG NAME
 DCON.         Sperry Drilling:  DIRECTNL CONTR
 PDAT.          Mean Sea Level:  PERMANENT DATUM
 MDS .        Operator Entered:  MAG DATA SOURCE
 API .                        :  API NUMBER
 CNTY.                        :  COUNTY
 PROV.                        :  PROVINCE
 STAT.                        :  STATE
 UWI .                        :  UNIQUE WELL IDENTIFIER
 LOC .                        :  LOCATION
 LMF .             Drill Floor:  LOG MEASURED FROM
 TVDS.m                  43.29:  TVDSS CORRECTN
 LATI.deg                40.03:  LATITUDE
 LONG.deg                51.35:  LONGITUDE
 WHNS.m                  12.98:  WELL HEAD N/S
 WHEW.m                  -6.62:  WELL HEAD E/W
 UTMX.m              530128.28:  UTM X
 UTMY.m             4433192.49:  UTM Y
 DFWL.m                   0.00:  DISTANCE FWL
 DFSL.m                   0.00:  DISTANCE FSL
 SDEP.m                 378.00:  START DEPTH
 TDD .m                   0.00:  TOTAL DEPTH (DRILLER)
 VSDR.deg               296.18:  VERT SEC DIRECT
 GVFD.g                   1.00:  GRAVITY FIELD
 MFLD.nT              50253.00:  MAGNETIC FIELD
 MDIP.deg                59.49:  MAGNETIC DIP
 MDEC.deg                 6.44:  MAGNETIC DECL
 GRDC.deg                 0.22:  GRID CORRECTION
 AZTC.deg                 6.22:  AZM TOTAL CORR
 EPD .m                   0.00:  ELEVATION
 EGL .m                   0.00:  GROUND ELEVATION
 WDMS.m                 128.20:  WD ELEV
 APD .m                  43.29:  DEPTH ABOVE PD
 AGAP.m                  43.29:  AIR GAP
 VSEW.m                  -6.62:  VERT SEC E/W
 VSNS.m                  12.98:  VERT SEC N/S
 EKB .m                  43.29:  KB ELEVATION
 EDF .m                  43.29:  DF ELEVATION
 TDL .m                1152.00:  TOTAL DEPTH (LOGGER)
 VSC .                       0:  VS TO CLOSURE
 MAGU.                 1848525:  MAGUTM CHECKSUM
~Parameter Information Block
#MNEM.UNIT       Value        Description
#---------     -----------    ---------------------------
 AV  .mps                 0.40:  Ann Velocity 
 AVMX.mps                 1.56:  Max Ann Veloc 
 AZIF.deg               300.46:  Azm, Final 
 BHAT.        Rotary Steerable:  BHA Type 
 BROT.°/30m               0.40:  Build Rotating 
 BS  .in                 17.50:  Bit Size 
 BSZ .in                 17.50:  Bit Size 
 BTPL.psig              300.00:  Bit Press Loss 
 CABU.                      No:  Customer Abuse 
 CGEO.          Parviz Guliyev:  Customer Geo 
 COMM.                     ÜRt:  Run Comments 1 
 TCS .hr                108.13:  Time Ciculation Ended 
 CV  .mps                 0.50:  Crit Velocity 
 CVMX.mps                 2.01:  Max Crit Veloc 
 DD1 .          Fariz Nahmatov:  Direct Drillr 1 
 DD2 .             Ehab Radwan:  Direct Drillr 2 
 DDSV.               Geo-Pilot:  DD Service 
 DEFF.%                  99.00:  % Det Eff 
 DLRX.°/30m               0.50:  Dogleg Rot Max 
 DLSO.°/30m               2.80:  Dogleg Oriented 
 DLSX.°/30m               3.90:  Dogleg Str Max 
 DRET.      09.30.04 03-Jul-20:  Drill End Time 
 DRST.      18.33.04 28-Jun-20:  Drill Start Tim 
 DTIM.hr                 55.83:  Time Drilling 
 EDEP.m                1952.00:  End Depth 
 ENG1.      Bakhtiyar Jabbarli:  Engineer 1 
 ENG2.         Farhad Orujzade:  Engineer 2 
 ENG3.          Rustam Safarov:  Engineer 3 
 ETIM.      01.33.04 04-Jul-20:  End Time 
 FLOI.gpm              1050.00:  Flow In 
 FLON.gpm               950.00:  Flow In Min 
 FLOS.cptm                0.10:  Fluid Loss 
 FLOX.gpm              1150.00:  Flow In Max 
 HFLO.                      No:  High Flow 
 HPRE.                      No:  High Pressure 
 HTEM.                      No:  High Temp 
 HYDO.m                   1.80:  Hydro Offset 
 IFIN.deg                75.26:  Inc, Final 
 IMAX.deg                75.38:  Inc Max 
 IMIN.deg                22.84:  Inc Min 
 IMND.m                 832.38:  Inc Min Depth 
 IMXD.m                1936.55:  Inc Max Depth 
 JARR.                      No:  Jarring 
 LETM.      17.40.00 04-Jul-20:  Log End Time 
 LOST.hr                     0:  Lost Rig Time 
 LSTM.      12.33.04 28-Jun-20:  Log Start Time 
 MDCL.ppm             49500.00:  Mud Chlorides 
 MDES.     Inversion Oil/Synthetic:  Mud Desc 
 DFD .sg                  1.46:  Mud Density 
 MDMN.sg                  1.46:  Dens Mud Min 
 MDMX.sg                  1.46:  Dens Mud Max 
 MOIL.                      70:  Run Mud Oil % 
 MOWR.                   70:30:  Run Mud OWR 
 MSND.                     0.5:  Run Mud Sand % 
 MSOL.                   19.89:  Run Mud Solids% 
 DFV .spqt               72.00:  Mud Viscosity 
 MWOD.in                  9.50:  MWD Tool OD 
 MWSI.                      No:  Serv Intrp, MWD 
 OTIM.hr                146.53:  Time Operating 
 PCON.           Look Like New:  Pad Condition 
 PMAX.psia             2900.00:  Press Op, Max 
 PV  .cP                 38.00:  Mud PV 
 RUN .                     600:  Run Number 
 ROPA.m/hr               22.00:  ROP Avg 
 ROPN.m/hr               10.00:  ROP Min 
 ROPX.m/hr              263.00:  ROP Max 
 RPMA.rpm               155.00:  RPM Surface Avg 
 RPMN.rpm               140.00:  RPM Surface Min 
 RPMX.rpm               160.00:  RPM Surface Max 
 RRUN.                    0600:  Rig Run Number 
 RTIM.hr                  5.00:  Time Reaming 
 SAZI.deg               300.08:  Azm, Start 
 SDEP.m                 800.00:  Start Depth 
 SIDD.                      No:  Serv Intrp, DD 
 SINC.deg                22.84:  Inc, Start 
 SPPA.psig             3000.00:  SPP Avg 
 SPPN.psig             1900.00:  SPP Min 
 SPPX.psig             3200.00:  SPP Max 
 STIM.      12.30.04 28-Jun-20:  Start Time 
 SVCS.                 DD, MWD:  Services 
 SVER.                    9.20:  Sperry Version 
 TDAT.m                1952.00:  Tot Depth Attmp 
 TDDF.                      No:  Trip for DD 
 TDLG.m                1152.00:  Tot Depth Loggd 
 TFF .                      No:  Trip for Fail 
 TQAA.f-kp                8.00:  Torque Abs Avg 
 TQAN.f-kp                5.00:  Torque Abs Min 
 TQAX.f-kp               14.00:  Torque Abs Max 
 TRRT.°/30m               0.50:  Turn Rotating 
 MRT .                  EWR-M5:  Maximum Recorded Temperature 
 TTMX.degC               69.00:  Max Tool Temp 
 VS01.                90610313:  Virtual Str1 SN 
 VS02.                90613431:  Virtual Str2 SN 
 VS03.                90615410:  Virtual Str3 SN 
 WBMN.klb                 6.00:  WOB Min 
 WITN.            Bruce Cheyne:  Customer Rep 
 WITN.             Ayaz Aliyev:  Customer Rep 2 
 WOBA.klb                 6.00:  WOB Avg 
 WOBX.klb                10.00:  WOB Max 
 YP  .lhf2               36.00:  Yield Point 
~Curve Information Block
#MNEM.UNIT                 API CODE     Curve Description
#---------               -----------    ---------------------------
 TIME.HHMMSS            00 000 000 000:  GT Time & Date
 GTET.sec               00 000 000 000:  GT Elapsed Test Time
 GTPQH.psia             00 000 000 000:  GT HR Quartz Pressure
 GTDEPTH.m              00 000 000 000:  GT Depth
 GTTVD.m                00 000 000 000:  GT True Vertical Depth
 GTTQ.degC              00 000 000 000:  GT Quartz Temperature
 GTTN.NONE              00 000 000 000:  GT Test Number
#Other Information
#
#WARRANTY: Halliburton will use its best efforts to furnish customers with 
#accurate information and interpretations that are part of, and incident to, the services 
#provided.  However, Halliburton cannot and does not warrant the accuracy 
#or correctness of such information and interpretations.  Under no circumstances should any 
#such information or interpretation be relied upon as the sole basis for any drilling, 
#completion, production, or financial decision or any procedure involving any risk to the 
#safety of any drilling venture, drilling rig or its crew or any other third party.  The 
#Customer has full responsibility for all drilling, completion and production operation.  
#Halliburton makes no representations or warranties, either expressed or 
#implied, including, but not limited to, the implied warranties of merchantability or fitness 
#for a particular purpose, with respect to the services rendered.  In no event will 
#Halliburton be liable for failure to obtain any particular results or for 
#any damages, including, but not limited to, indirect, special or consequential damages, 
#resulting from the use of any information or interpretation provided by Halliburton.
#
~A           TIME            GTET   GTPQH  GTDEPTH  GTTVD  GTTQ  GTTN 
# ...
   21:00:55.777.30-Jun-2020  69.01 2290.54 1143.02 1083.79 62.83 3.00
   21:00:55.977.30-Jun-2020  69.21 2291.24 1143.02 1083.79 62.83 3.00
   21:00:56.177.30-Jun-2020  69.41 2290.20 1143.02 1083.79 62.83 3.00
   21:00:56.377.30-Jun-2020  69.61 2290.10 1143.02 1083.79 62.83 3.00
   21:00:56.577.30-Jun-2020  69.81 2290.33 1143.02 1083.79 62.83 3.00
   21:00:56.777.30-Jun-2020  70.01 2289.55 1143.02 1083.79 62.83 3.00
   21:00:56.977.30-Jun-2020  70.21 2288.76 1143.02 1083.79 62.83 3.00
   21:00:57.177.30-Jun-2020  70.41 2290.86 1143.02 1083.79 62.83 3.00
   21:00:57.377.30-Jun-2020  70.61 2291.18 1143.02 1083.79 62.83 3.00
   21:00:57.577.30-Jun-2020  70.81 2290.57 1143.02 1083.79 62.83 3.00
   21:00:57.778.30-Jun-2020  71.01 2290.64 1143.02 1083.79 62.83 3.00
   21:00:57.978.30-Jun-2020  71.21 2290.64 1143.02 1083.79 62.83 3.00
   21:00:58.178.30-Jun-2020  71.41 2290.69 1143.02 1083.79 62.82 3.00
   21:00:58.378.30-Jun-2020  71.61 2289.84 1143.02 1083.79 62.82 3.00
   21:00:58.578.30-Jun-2020  71.81 2291.15 1143.02 1083.79 62.82 3.00
   21:00:58.778.30-Jun-2020  72.01 2290.94 1143.02 1083.79 62.82 3.00
   21:00:58.978.30-Jun-2020  72.21 2290.94 1143.02 1083.79 62.82 3.00
   21:00:59.178.30-Jun-2020  72.41 2290.60 1143.02 1083.79 62.82 3.00
   21:00:59.378.30-Jun-2020  72.61 2289.75 1143.02 1083.79 62.82 3.00
   21:00:59.578.30-Jun-2020  72.81 2290.37 1143.02 1083.79 62.82 3.00
   21:00:59.778.30-Jun-2020  73.01 2291.76 1143.02 1083.79 62.82 3.00
   21:00:59.978.30-Jun-2020  73.21 2291.70 1143.02 1083.79 62.82 3.00
   21:01:00.178.30-Jun-2020  73.41 2290.75 1143.02 1083.79 62.82 3.00
   21:01:00.378.30-Jun-2020  73.61 2290.62 1143.02 1083.79 62.82 3.00
   21:01:00.578.30-Jun-2020  73.81 2290.53 1143.02 1083.79 62.82 3.00
   21:01:00.778.30-Jun-2020  74.01 2289.84 1143.02 1083.79 62.82 3.00
   21:01:00.978.30-Jun-2020  74.21 2289.84 1143.02 1083.79 62.82 3.00
   21:01:01.178.30-Jun-2020  74.41 2246.42 1143.02 1083.79 62.82 3.00
   21:01:01.378.30-Jun-2020  74.61 2161.25 1143.02 1083.79 62.82 3.00
   21:01:01.578.30-Jun-2020  74.81 2167.40 1143.02 1083.79 62.82 3.00
   21:01:01.778.30-Jun-2020  75.01 2248.32 1143.02 1083.79 62.82 3.00
   21:01:01.978.30-Jun-2020  75.21 2248.32 1143.02 1083.79 62.82 3.00
   21:01:02.178.30-Jun-2020  75.41 2374.97 1143.02 1083.79 62.82 3.00
   21:01:02.378.30-Jun-2020  75.61 2472.09 1143.02 1083.79 62.82 3.00
   21:01:02.578.30-Jun-2020  75.81 2378.15 1143.02 1083.79 62.82 3.00
   21:01:02.778.30-Jun-2020  76.01 2371.65 1143.02 1083.79 62.82 3.00
   21:01:02.978.30-Jun-2020  76.21 2371.65 1143.02 1083.79 62.82 3.00
   21:01:03.178.30-Jun-2020  76.41 2340.98 1143.02 1083.79 62.82 3.00
   21:01:03.379.30-Jun-2020  76.61 2332.75 1143.02 1083.79 62.82 3.00
   21:01:03.579.30-Jun-2020  76.81 2326.43 1143.02 1083.79 62.82 3.00
   21:01:03.779.30-Jun-2020  77.01 2320.43 1143.02 1083.79 62.81 3.00
   21:01:03.979.30-Jun-2020  77.21 2317.65 1143.02 1083.79 62.81 3.00
   21:01:04.179.30-Jun-2020  77.41 2314.40 1143.02 1083.79 62.81 3.00
   21:01:04.379.30-Jun-2020  77.61 2309.11 1143.02 1083.79 62.81 3.00
   21:01:04.579.30-Jun-2020  77.81 2307.74 1143.02 1083.79 62.81 3.00
   21:01:04.779.30-Jun-2020  78.01 2309.23 1143.02 1083.79 62.81 3.00
   21:01:04.979.30-Jun-2020  78.21 2309.23 1143.02 1083.79 62.81 3.00
   21:01:05.179.30-Jun-2020  78.41 2308.39 1143.02 1083.79 62.81 3.00
   21:01:05.379.30-Jun-2020  78.61 2306.81 1143.02 1083.79 62.81 3.00
   21:01:05.579.30-Jun-2020  78.81 2304.66 1143.02 1083.79 62.81 3.00
   21:01:05.779.30-Jun-2020  79.01 2309.91 1143.02 1083.79 62.81 3.00
   21:01:05.979.30-Jun-2020  79.21 2309.91 1143.02 1083.79 62.81 3.00
   21:01:06.179.30-Jun-2020  79.41 2334.98 1143.02 1083.79 62.81 3.00
   21:01:06.379.30-Jun-2020  79.61 2343.66 1143.02 1083.79 62.81 3.00
   21:01:06.579.30-Jun-2020  79.81 2353.50 1143.02 1083.79 62.81 3.00
   21:01:06.779.30-Jun-2020  80.01 2364.02 1143.02 1083.79 62.81 3.00
   21:01:06.979.30-Jun-2020  80.21 2364.02 1143.02 1083.79 62.81 3.00
   21:01:07.179.30-Jun-2020  80.41 2363.69 1143.02 1083.79 62.81 3.00
   21:01:07.379.30-Jun-2020  80.61 2346.22 1143.02 1083.79 62.81 3.00
   21:01:07.579.30-Jun-2020  80.81 2341.06 1143.02 1083.79 62.81 3.00
   21:01:07.779.30-Jun-2020  81.01 2336.49 1143.02 1083.79 62.81 3.00
   21:01:07.979.30-Jun-2020  81.21 2338.71 1143.02 1083.79 62.81 3.00
   21:01:08.179.30-Jun-2020  81.41 2335.21 1143.02 1083.79 62.81 3.00
   21:01:08.379.30-Jun-2020  81.61 2335.38 1143.02 1083.79 62.81 3.00
   21:01:08.579.30-Jun-2020  81.81 2335.80 1143.02 1083.79 62.81 3.00
   21:01:08.779.30-Jun-2020  82.01 2336.03 1143.02 1083.79 62.81 3.00
   21:01:08.980.30-Jun-2020  82.21 2336.03 1143.02 1083.79 62.81 3.00
   21:01:09.180.30-Jun-2020  82.41 2335.00 1143.02 1083.79 62.81 3.00
   21:01:09.380.30-Jun-2020  82.61 2334.90 1143.02 1083.79 62.81 3.00
   21:01:09.580.30-Jun-2020  82.81 2334.60 1143.02 1083.79 62.81 3.00
   21:01:09.780.30-Jun-2020  83.01 2335.62 1143.02 1083.79 62.81 3.00
   21:01:09.980.30-Jun-2020  83.21 2335.62 1143.02 1083.79 62.81 3.00
   21:01:10.180.30-Jun-2020  83.41 2335.16 1143.02 1083.79 62.81 3.00
   21:01:10.380.30-Jun-2020  83.61 2335.11 1143.02 1083.79 62.80 3.00
   21:01:10.580.30-Jun-2020  83.81 2335.12 1143.02 1083.79 62.80 3.00
   21:01:10.780.30-Jun-2020  84.02 2334.69 1143.02 1083.79 62.80 3.00
   21:01:10.980.30-Jun-2020  84.22 2334.69 1143.02 1083.79 62.80 3.00
   21:01:11.180.30-Jun-2020  84.42 2335.77 1143.02 1083.79 62.80 3.00
   21:01:11.380.30-Jun-2020  84.62 2335.58 1143.02 1083.79 62.80 3.00
   21:01:11.580.30-Jun-2020  84.82 2335.40 1143.02 1083.79 62.80 3.00
   21:01:11.780.30-Jun-2020  85.02 2335.34 1143.02 1083.79 62.80 3.00
   21:01:11.980.30-Jun-2020  85.22 2335.60 1143.02 1083.79 62.80 3.00
   21:01:12.180.30-Jun-2020  85.42 2335.80 1143.02 1083.79 62.80 3.00
   21:01:12.380.30-Jun-2020  85.62 2335.80 1143.02 1083.79 62.80 3.00
   21:01:12.580.30-Jun-2020  85.82 2335.60 1143.02 1083.79 62.80 3.00
   21:01:12.780.30-Jun-2020  86.02 2335.25 1143.02 1083.79 62.80 3.00
   21:01:12.980.30-Jun-2020  86.22 2335.25 1143.02 1083.79 62.80 3.00
   21:01:13.180.30-Jun-2020  86.42 2360.53 1143.02 1083.79 62.80 3.00
   21:01:13.380.30-Jun-2020  86.62 2439.27 1143.02 1083.79 62.80 3.00
   21:01:13.580.30-Jun-2020  86.82 2315.98 1143.02 1083.79 62.80 3.00
   21:01:13.780.30-Jun-2020  87.02 2313.28 1143.02 1083.79 62.80 3.00
   21:01:13.980.30-Jun-2020  87.22 2313.28 1143.02 1083.79 62.80 3.00
   21:01:14.180.30-Jun-2020  87.42 2311.13 1143.02 1083.79 62.80 3.00
   21:01:14.380.30-Jun-2020  87.62 2309.93 1143.02 1083.79 62.80 3.00
   21:01:14.581.30-Jun-2020  87.82 2309.76 1143.02 1083.79 62.80 3.00
   21:01:14.781.30-Jun-2020  88.02 2309.86 1143.02 1083.79 62.80 3.00
   21:01:14.981.30-Jun-2020  88.22 2309.86 1143.02 1083.79 62.80 3.00
   21:01:15.181.30-Jun-2020  88.42 2309.58 1143.02 1083.79 62.80 3.00
   21:01:15.381.30-Jun-2020  88.62 2309.36 1143.02 1083.79 62.80 3.00
   21:01:15.581.30-Jun-2020  88.82 2307.65 1143.02 1083.79 62.80 3.00
   21:01:15.781.30-Jun-2020  89.02 2308.48 1143.02 1083.79 62.80 3.00
   21:01:15.981.30-Jun-2020  89.22 2309.32 1143.02 1083.79 62.80 3.00
   21:01:16.181.30-Jun-2020  89.42 2308.43 1143.02 1083.79 62.80 3.00
   21:01:16.381.30-Jun-2020  89.62 2306.96 1143.02 1083.79 62.80 3.00
   21:01:16.581.30-Jun-2020  89.82 2307.97 1143.02 1083.79 62.79 3.00
   21:01:16.781.30-Jun-2020  90.02 2307.76 1143.02 1083.79 62.79 3.00
   21:01:16.981.30-Jun-2020  90.22 2307.76 1143.02 1083.79 62.79 3.00
   21:01:17.181.30-Jun-2020  90.42 2305.70 1143.02 1083.79 62.79 3.00
   21:01:17.381.30-Jun-2020  90.62 2295.11 1143.02 1083.79 62.79 3.00
   21:01:17.581.30-Jun-2020  90.82 2251.32 1143.02 1083.79 62.79 3.00
   21:01:17.781.30-Jun-2020  91.02 2200.75 1143.02 1083.79 62.79 3.00
   21:01:17.981.30-Jun-2020  91.22 2200.75 1143.02 1083.79 62.79 3.00
   21:01:18.181.30-Jun-2020  91.42 2115.74 1143.02 1083.79 62.79 3.00
   21:01:18.381.30-Jun-2020  91.62 2066.39 1143.02 1083.79 62.79 3.00
   21:01:18.581.30-Jun-2020  91.82 2043.92 1143.02 1083.79 62.79 3.00
