~Version Information
 VERS.                  2.0:   CWLS log ASCII Standard -VERSION 2.0
 WRAP.                   NO:   One line per depth step
~Well Information Block
#MNEM.UNIT     VALUE/NAME     DESCRIPTION
#---------     -----------    ---------------------------
 STRT.S             20:59:46 30-Jun-20: START TIME 20:59:46 30-Jun-20
 STOP.S             21:08:48 30-Jun-20: STOP TIME  21:08:48 30-Jun-20
 STEP.S                   0.00: STEP TIME
 NULL.                 -999.25: NULL VALUE
 DFWT.                        :  DIST FWL TEXT
 DFST.                        :  DIST FSL TEXT
 DMF .             Drill Floor:  DRILL MEAS FROM
 STIM.      09.59.28 01-Jun-20:  START TIME
 DATE.      09.59.28 01-Jun-20:  END TIME
 SPUD.               01-Jun-20:  SPUD DATE
 NREF.                    Grid:  NORTH REFERENCE
 HPTY.       Minimum Curvature:  HOLE POS TYPE
 DMOD.             Drill Model:  DRILL MOD DESC
 SVYD.                  Survey:  SURVEY DESC
 ILTD.               Lithology:  INTERP LTH DESC
 FTOP.          Formation Tops:  FORM TOPS DESC
 SON .        AZ-XX-0905455768:  JOB NUMBER
 WTYP.                Deviated:  WELL TYPE
 COMP.     BP Exploration(Caspian Sea):  COMPANY
 BASE.              Azerbaijan:  LOGGING EQUIPMENT BASE LOCATION
 REGN.                   EESSA:  REGION
 CTRY.              Azerbaijan:  COUNTRY NAME
 FLD .                     ACG:  FIELD NAME
 SRVC.          Turan Drilling:  CONTRACTOR
 WELL.                     B41:  WELL NAME
 RIG .           Central Azeri:  RIG NAME
 DCON.         Sperry Drilling:  DIRECTNL CONTR
 PDAT.          Mean Sea Level:  PERMANENT DATUM
 MDS .        Operator Entered:  MAG DATA SOURCE
 API .                        :  API NUMBER
 CNTY.                        :  COUNTY
 PROV.                        :  PROVINCE
 STAT.                        :  STATE
 UWI .                        :  UNIQUE WELL IDENTIFIER
 LOC .                        :  LOCATION
 LMF .             Drill Floor:  LOG MEASURED FROM
 TVDS.m                  43.29:  TVDSS CORRECTN
 LATI.deg                40.03:  LATITUDE
 LONG.deg                51.35:  LONGITUDE
 WHNS.m                  12.98:  WELL HEAD N/S
 WHEW.m                  -6.62:  WELL HEAD E/W
 UTMX.m              530128.28:  UTM X
 UTMY.m             4433192.49:  UTM Y
 DFWL.m                   0.00:  DISTANCE FWL
 DFSL.m                   0.00:  DISTANCE FSL
 SDEP.m                 378.00:  START DEPTH
 TDD .m                   0.00:  TOTAL DEPTH (DRILLER)
 VSDR.deg               296.18:  VERT SEC DIRECT
 GVFD.g                   1.00:  GRAVITY FIELD
 MFLD.nT              50253.00:  MAGNETIC FIELD
 MDIP.deg                59.49:  MAGNETIC DIP
 MDEC.deg                 6.44:  MAGNETIC DECL
 GRDC.deg                 0.22:  GRID CORRECTION
 AZTC.deg                 6.22:  AZM TOTAL CORR
 EPD .m                   0.00:  ELEVATION
 EGL .m                   0.00:  GROUND ELEVATION
 WDMS.m                 128.20:  WD ELEV
 APD .m                  43.29:  DEPTH ABOVE PD
 AGAP.m                  43.29:  AIR GAP
 VSEW.m                  -6.62:  VERT SEC E/W
 VSNS.m                  12.98:  VERT SEC N/S
 EKB .m                  43.29:  KB ELEVATION
 EDF .m                  43.29:  DF ELEVATION
 TDL .m                1152.00:  TOTAL DEPTH (LOGGER)
 VSC .                       0:  VS TO CLOSURE
 MAGU.                 1848525:  MAGUTM CHECKSUM
~Parameter Information Block
#MNEM.UNIT       Value        Description
#---------     -----------    ---------------------------
 AV  .mps                 0.40:  Ann Velocity 
 AVMX.mps                 1.56:  Max Ann Veloc 
 AZIF.deg               300.46:  Azm, Final 
 BHAT.        Rotary Steerable:  BHA Type 
 BROT.°/30m               0.40:  Build Rotating 
 BS  .in                 17.50:  Bit Size 
 BSZ .in                 17.50:  Bit Size 
 BTPL.psig              300.00:  Bit Press Loss 
 CABU.                      No:  Customer Abuse 
 CGEO.          Parviz Guliyev:  Customer Geo 
 COMM.                     ÜRt:  Run Comments 1 
 TCS .hr                108.13:  Time Ciculation Ended 
 CV  .mps                 0.50:  Crit Velocity 
 CVMX.mps                 2.01:  Max Crit Veloc 
 DD1 .          Fariz Nahmatov:  Direct Drillr 1 
 DD2 .             Ehab Radwan:  Direct Drillr 2 
 DDSV.               Geo-Pilot:  DD Service 
 DEFF.%                  99.00:  % Det Eff 
 DLRX.°/30m               0.50:  Dogleg Rot Max 
 DLSO.°/30m               2.80:  Dogleg Oriented 
 DLSX.°/30m               3.90:  Dogleg Str Max 
 DRET.      09.30.04 03-Jul-20:  Drill End Time 
 DRST.      18.33.04 28-Jun-20:  Drill Start Tim 
 DTIM.hr                 55.83:  Time Drilling 
 EDEP.m                1952.00:  End Depth 
 ENG1.      Bakhtiyar Jabbarli:  Engineer 1 
 ENG2.         Farhad Orujzade:  Engineer 2 
 ENG3.          Rustam Safarov:  Engineer 3 
 ETIM.      01.33.04 04-Jul-20:  End Time 
 FLOI.gpm              1050.00:  Flow In 
 FLON.gpm               950.00:  Flow In Min 
 FLOS.cptm                0.10:  Fluid Loss 
 FLOX.gpm              1150.00:  Flow In Max 
 HFLO.                      No:  High Flow 
 HPRE.                      No:  High Pressure 
 HTEM.                      No:  High Temp 
 HYDO.m                   1.80:  Hydro Offset 
 IFIN.deg                75.26:  Inc, Final 
 IMAX.deg                75.38:  Inc Max 
 IMIN.deg                22.84:  Inc Min 
 IMND.m                 832.38:  Inc Min Depth 
 IMXD.m                1936.55:  Inc Max Depth 
 JARR.                      No:  Jarring 
 LETM.      17.40.00 04-Jul-20:  Log End Time 
 LOST.hr                     0:  Lost Rig Time 
 LSTM.      12.33.04 28-Jun-20:  Log Start Time 
 MDCL.ppm             49500.00:  Mud Chlorides 
 MDES.     Inversion Oil/Synthetic:  Mud Desc 
 DFD .sg                  1.46:  Mud Density 
 MDMN.sg                  1.46:  Dens Mud Min 
 MDMX.sg                  1.46:  Dens Mud Max 
 MOIL.                      70:  Run Mud Oil % 
 MOWR.                   70:30:  Run Mud OWR 
 MSND.                     0.5:  Run Mud Sand % 
 MSOL.                   19.89:  Run Mud Solids% 
 DFV .spqt               72.00:  Mud Viscosity 
 MWOD.in                  9.50:  MWD Tool OD 
 MWSI.                      No:  Serv Intrp, MWD 
 OTIM.hr                146.53:  Time Operating 
 PCON.           Look Like New:  Pad Condition 
 PMAX.psia             2900.00:  Press Op, Max 
 PV  .cP                 38.00:  Mud PV 
 RUN .                     600:  Run Number 
 ROPA.m/hr               22.00:  ROP Avg 
 ROPN.m/hr               10.00:  ROP Min 
 ROPX.m/hr              263.00:  ROP Max 
 RPMA.rpm               155.00:  RPM Surface Avg 
 RPMN.rpm               140.00:  RPM Surface Min 
 RPMX.rpm               160.00:  RPM Surface Max 
 RRUN.                    0600:  Rig Run Number 
 RTIM.hr                  5.00:  Time Reaming 
 SAZI.deg               300.08:  Azm, Start 
 SDEP.m                 800.00:  Start Depth 
 SIDD.                      No:  Serv Intrp, DD 
 SINC.deg                22.84:  Inc, Start 
 SPPA.psig             3000.00:  SPP Avg 
 SPPN.psig             1900.00:  SPP Min 
 SPPX.psig             3200.00:  SPP Max 
 STIM.      12.30.04 28-Jun-20:  Start Time 
 SVCS.                 DD, MWD:  Services 
 SVER.                    9.20:  Sperry Version 
 TDAT.m                1952.00:  Tot Depth Attmp 
 TDDF.                      No:  Trip for DD 
 TDLG.m                1152.00:  Tot Depth Loggd 
 TFF .                      No:  Trip for Fail 
 TQAA.f-kp                8.00:  Torque Abs Avg 
 TQAN.f-kp                5.00:  Torque Abs Min 
 TQAX.f-kp               14.00:  Torque Abs Max 
 TRRT.°/30m               0.50:  Turn Rotating 
 MRT .                  EWR-M5:  Maximum Recorded Temperature 
 TTMX.degC               69.00:  Max Tool Temp 
 VS01.                90610313:  Virtual Str1 SN 
 VS02.                90613431:  Virtual Str2 SN 
 VS03.                90615410:  Virtual Str3 SN 
 WBMN.klb                 6.00:  WOB Min 
 WITN.            Bruce Cheyne:  Customer Rep 
 WITN.             Ayaz Aliyev:  Customer Rep 2 
 WOBA.klb                 6.00:  WOB Avg 
 WOBX.klb                10.00:  WOB Max 
 YP  .lhf2               36.00:  Yield Point 
~Curve Information Block
#MNEM.UNIT                 API CODE     Curve Description
#---------               -----------    ---------------------------
 TIME.HHMMSS            00 000 000 000:  GT Time & Date
 GTET.sec               00 000 000 000:  GT Elapsed Test Time
 GTPQH.psia             00 000 000 000:  GT HR Quartz Pressure
 GTDEPTH.m              00 000 000 000:  GT Depth
 GTTVD.m                00 000 000 000:  GT True Vertical Depth
 GTTQ.degC              00 000 000 000:  GT Quartz Temperature
 GTTN.NONE              00 000 000 000:  GT Test Number
#Other Information
#
#WARRANTY: Halliburton will use its best efforts to furnish customers with 
#accurate information and interpretations that are part of, and incident to, the services 
#provided.  However, Halliburton cannot and does not warrant the accuracy 
#or correctness of such information and interpretations.  Under no circumstances should any 
#such information or interpretation be relied upon as the sole basis for any drilling, 
#completion, production, or financial decision or any procedure involving any risk to the 
#safety of any drilling venture, drilling rig or its crew or any other third party.  The 
#Customer has full responsibility for all drilling, completion and production operation.  
#Halliburton makes no representations or warranties, either expressed or 
#implied, including, but not limited to, the implied warranties of merchantability or fitness 
#for a particular purpose, with respect to the services rendered.  In no event will 
#Halliburton be liable for failure to obtain any particular results or for 
#any damages, including, but not limited to, indirect, special or consequential damages, 
#resulting from the use of any information or interpretation provided by Halliburton.
#
~A           TIME            GTET   GTPQH  GTDEPTH  GTTVD  GTTQ  GTTN 
   20:59:46.765.30-Jun-2020   0.00 2298.18 1143.02 1083.79 62.96 3.00
   20:59:46.965.30-Jun-2020   0.20 2298.18 1143.02 1083.79 62.96 3.00
   20:59:47.165.30-Jun-2020   0.40 2298.55 1143.02 1083.79 62.96 3.00
   20:59:47.365.30-Jun-2020   0.60 2297.72 1143.02 1083.79 62.96 3.00
   20:59:47.565.30-Jun-2020   0.80 2297.11 1143.02 1083.79 62.96 3.00
   20:59:47.765.30-Jun-2020   1.00 2294.65 1143.02 1083.79 62.96 3.00
   20:59:47.965.30-Jun-2020   1.20 2295.54 1143.02 1083.79 62.96 3.00
   20:59:48.165.30-Jun-2020   1.40 2296.16 1143.02 1083.79 62.96 3.00
   20:59:48.365.30-Jun-2020   1.60 2294.83 1143.02 1083.79 62.96 3.00
   20:59:48.565.30-Jun-2020   1.80 2293.51 1143.02 1083.79 62.96 3.00
   20:59:48.765.30-Jun-2020   2.00 2291.66 1143.02 1083.79 62.96 3.00
   20:59:48.965.30-Jun-2020   2.20 2291.66 1143.02 1083.79 62.96 3.00
   20:59:49.165.30-Jun-2020   2.40 2290.64 1143.02 1083.79 62.96 3.00
   20:59:49.365.30-Jun-2020   2.60 2290.00 1143.02 1083.79 62.96 3.00
   20:59:49.565.30-Jun-2020   2.80 2289.15 1143.02 1083.79 62.96 3.00
   20:59:49.765.30-Jun-2020   3.00 2287.19 1143.02 1083.79 62.96 3.00
   20:59:49.965.30-Jun-2020   3.20 2287.19 1143.02 1083.79 62.96 3.00
   20:59:50.165.30-Jun-2020   3.40 2286.79 1143.02 1083.79 62.95 3.00
   20:59:50.365.30-Jun-2020   3.60 2287.10 1143.02 1083.79 62.95 3.00
   20:59:50.566.30-Jun-2020   3.80 2287.64 1143.02 1083.79 62.95 3.00
   20:59:50.766.30-Jun-2020   4.00 2287.25 1143.02 1083.79 62.95 3.00
   20:59:50.966.30-Jun-2020   4.20 2287.25 1143.02 1083.79 62.95 3.00
   20:59:51.166.30-Jun-2020   4.40 2285.51 1143.02 1083.79 62.95 3.00
   20:59:51.366.30-Jun-2020   4.60 2286.88 1143.02 1083.79 62.95 3.00
   20:59:51.566.30-Jun-2020   4.80 2287.37 1143.02 1083.79 62.95 3.00
   20:59:51.766.30-Jun-2020   5.00 2288.11 1143.02 1083.79 62.95 3.00
   20:59:51.966.30-Jun-2020   5.20 2287.29 1143.02 1083.79 62.95 3.00
   20:59:52.166.30-Jun-2020   5.40 2287.88 1143.02 1083.79 62.95 3.00
   20:59:52.366.30-Jun-2020   5.60 2289.87 1143.02 1083.79 62.95 3.00
   20:59:52.566.30-Jun-2020   5.80 2290.62 1143.02 1083.79 62.95 3.00
   20:59:52.766.30-Jun-2020   6.00 2289.62 1143.02 1083.79 62.95 3.00
   20:59:52.966.30-Jun-2020   6.20 2289.62 1143.02 1083.79 62.95 3.00
   20:59:53.166.30-Jun-2020   6.40 2292.10 1143.02 1083.79 62.95 3.00
   20:59:53.366.30-Jun-2020   6.60 2291.62 1143.02 1083.79 62.95 3.00
   20:59:53.566.30-Jun-2020   6.80 2293.17 1143.02 1083.79 62.95 3.00
   20:59:53.766.30-Jun-2020   7.00 2294.84 1143.02 1083.79 62.95 3.00
   20:59:53.966.30-Jun-2020   7.20 2294.84 1143.02 1083.79 62.95 3.00
   20:59:54.166.30-Jun-2020   7.40 2294.70 1143.02 1083.79 62.95 3.00
   20:59:54.366.30-Jun-2020   7.60 2294.92 1143.02 1083.79 62.95 3.00
   20:59:54.566.30-Jun-2020   7.80 2295.06 1143.02 1083.79 62.95 3.00
   20:59:54.766.30-Jun-2020   8.00 2294.27 1143.02 1083.79 62.95 3.00
   20:59:54.966.30-Jun-2020   8.20 2294.27 1143.02 1083.79 62.95 3.00
   20:59:55.166.30-Jun-2020   8.40 2295.47 1143.02 1083.79 62.94 3.00
   20:59:55.366.30-Jun-2020   8.60 2294.85 1143.02 1083.79 62.94 3.00
   20:59:55.566.30-Jun-2020   8.80 2295.43 1143.02 1083.79 62.94 3.00
   20:59:55.766.30-Jun-2020   9.00 2295.29 1143.02 1083.79 62.94 3.00
   20:59:55.966.30-Jun-2020   9.20 2295.29 1143.02 1083.79 62.94 3.00
   20:59:56.167.30-Jun-2020   9.40 2293.52 1143.02 1083.79 62.94 3.00
   20:59:56.367.30-Jun-2020   9.60 2293.60 1143.02 1083.79 62.94 3.00
   20:59:56.567.30-Jun-2020   9.80 2292.67 1143.02 1083.79 62.94 3.00
   20:59:56.767.30-Jun-2020  10.00 2291.86 1143.02 1083.79 62.94 3.00
   20:59:56.967.30-Jun-2020  10.20 2291.86 1143.02 1083.79 62.94 3.00
   20:59:57.167.30-Jun-2020  10.40 2291.16 1143.02 1083.79 62.94 3.00
   20:59:57.367.30-Jun-2020  10.60 2291.09 1143.02 1083.79 62.94 3.00
   20:59:57.567.30-Jun-2020  10.80 2291.06 1143.02 1083.79 62.94 3.00
   20:59:57.767.30-Jun-2020  11.00 2290.33 1143.02 1083.79 62.94 3.00
   20:59:57.967.30-Jun-2020  11.20 2290.33 1143.02 1083.79 62.94 3.00
   20:59:58.167.30-Jun-2020  11.40 2288.85 1143.02 1083.79 62.94 3.00
   20:59:58.367.30-Jun-2020  11.60 2286.98 1143.02 1083.79 62.94 3.00
   20:59:58.567.30-Jun-2020  11.80 2287.76 1143.02 1083.79 62.94 3.00
   20:59:58.767.30-Jun-2020  12.00 2288.23 1143.02 1083.79 62.94 3.00
   20:59:58.967.30-Jun-2020  12.20 2288.23 1143.02 1083.79 62.94 3.00
   20:59:59.167.30-Jun-2020  12.40 2288.03 1143.02 1083.79 62.94 3.00
   20:59:59.367.30-Jun-2020  12.60 2288.15 1143.02 1083.79 62.94 3.00
   20:59:59.567.30-Jun-2020  12.80 2287.89 1143.02 1083.79 62.93 3.00
   20:59:59.767.30-Jun-2020  13.00 2288.18 1143.02 1083.79 62.93 3.00
   20:59:59.967.30-Jun-2020  13.20 2288.54 1143.02 1083.79 62.93 3.00
   21:00:00.167.30-Jun-2020  13.40 2288.67 1143.02 1083.79 62.93 3.00
   21:00:00.367.30-Jun-2020  13.60 2288.84 1143.02 1083.79 62.93 3.00
   21:00:00.567.30-Jun-2020  13.80 2289.16 1143.02 1083.79 62.93 3.00
   21:00:00.767.30-Jun-2020  14.00 2289.43 1143.02 1083.79 62.93 3.00
   21:00:00.967.30-Jun-2020  14.20 2289.43 1143.02 1083.79 62.93 3.00
   21:00:01.167.30-Jun-2020  14.40 2291.70 1143.02 1083.79 62.93 3.00
   21:00:01.367.30-Jun-2020  14.60 2291.86 1143.02 1083.79 62.93 3.00
   21:00:01.567.30-Jun-2020  14.80 2291.76 1143.02 1083.79 62.93 3.00
   21:00:01.768.30-Jun-2020  15.00 2291.85 1143.02 1083.79 62.93 3.00
   21:00:01.968.30-Jun-2020  15.20 2291.85 1143.02 1083.79 62.93 3.00
   21:00:02.168.30-Jun-2020  15.40 2291.32 1143.02 1083.79 62.93 3.00
   21:00:02.368.30-Jun-2020  15.60 2292.28 1143.02 1083.79 62.93 3.00
   21:00:02.568.30-Jun-2020  15.80 2293.42 1143.02 1083.79 62.93 3.00
   21:00:02.768.30-Jun-2020  16.00 2293.19 1143.02 1083.79 62.93 3.00
   21:00:02.968.30-Jun-2020  16.20 2293.19 1143.02 1083.79 62.93 3.00
   21:00:03.168.30-Jun-2020  16.40 2293.19 1143.02 1083.79 62.93 3.00
   21:00:03.368.30-Jun-2020  16.60 2292.06 1143.02 1083.79 62.93 3.00
   21:00:03.568.30-Jun-2020  16.80 2292.84 1143.02 1083.79 62.93 3.00
   21:00:03.768.30-Jun-2020  17.00 2291.85 1143.02 1083.79 62.93 3.00
   21:00:03.968.30-Jun-2020  17.20 2293.09 1143.02 1083.79 62.93 3.00
   21:00:04.168.30-Jun-2020  17.40 2293.09 1143.02 1083.79 62.93 3.00
   21:00:04.368.30-Jun-2020  17.60 2291.87 1143.02 1083.79 62.92 3.00
   21:00:04.568.30-Jun-2020  17.80 2291.42 1143.02 1083.79 62.92 3.00
   21:00:04.768.30-Jun-2020  18.00 2291.59 1143.02 1083.79 62.92 3.00
   21:00:04.968.30-Jun-2020  18.20 2291.04 1143.02 1083.79 62.92 3.00
   21:00:05.168.30-Jun-2020  18.40 2291.38 1143.02 1083.79 62.92 3.00
   21:00:05.368.30-Jun-2020  18.60 2291.11 1143.02 1083.79 62.92 3.00
   21:00:05.568.30-Jun-2020  18.80 2289.48 1143.02 1083.79 62.92 3.00
   21:00:05.768.30-Jun-2020  19.00 2289.29 1143.02 1083.79 62.92 3.00
   21:00:05.968.30-Jun-2020  19.20 2289.29 1143.02 1083.79 62.92 3.00
   21:00:06.168.30-Jun-2020  19.40 2290.48 1143.02 1083.79 62.92 3.00
   21:00:06.368.30-Jun-2020  19.60 2289.82 1143.02 1083.79 62.92 3.00
   21:00:06.568.30-Jun-2020  19.80 2289.18 1143.02 1083.79 62.92 3.00
   21:00:06.768.30-Jun-2020  20.00 2289.84 1143.02 1083.79 62.92 3.00
   21:00:06.968.30-Jun-2020  20.20 2289.84 1143.02 1083.79 62.92 3.00
   21:00:07.168.30-Jun-2020  20.40 2289.81 1143.02 1083.79 62.92 3.00
   21:00:07.369.30-Jun-2020  20.60 2289.97 1143.02 1083.79 62.92 3.00
   21:00:07.569.30-Jun-2020  20.80 2289.51 1143.02 1083.79 62.92 3.00
   21:00:07.769.30-Jun-2020  21.00 2290.19 1143.02 1083.79 62.92 3.00
   21:00:07.969.30-Jun-2020  21.20 2290.36 1143.02 1083.79 62.92 3.00
   21:00:08.169.30-Jun-2020  21.40 2289.15 1143.02 1083.79 62.92 3.00
   21:00:08.369.30-Jun-2020  21.60 2290.21 1143.02 1083.79 62.92 3.00
   21:00:08.569.30-Jun-2020  21.80 2291.37 1143.02 1083.79 62.92 3.00
   21:00:08.769.30-Jun-2020  22.00 2291.52 1143.02 1083.79 62.92 3.00
   21:00:08.969.30-Jun-2020  22.20 2291.52 1143.02 1083.79 62.92 3.00
   21:00:09.169.30-Jun-2020  22.40 2291.08 1143.02 1083.79 62.91 3.00
   21:00:09.369.30-Jun-2020  22.60 2291.01 1143.02 1083.79 62.91 3.00
   21:00:09.569.30-Jun-2020  22.80 2291.59 1143.02 1083.79 62.91 3.00
