~Version Information
 VERS.                  2.0:   CWLS log ASCII Standard -VERSION 2.0
 WRAP.                   NO:   One line per depth step
~Well Information Block
#MNEM.UNIT     VALUE/NAME     DESCRIPTION
#---------     -----------    ---------------------------
 STRT.S             04:11:34 02-Jul-20: START TIME 04:11:34 02-Jul-20
 STOP.S             04:20:35 02-Jul-20: STOP TIME  04:20:35 02-Jul-20
 STEP.S                   0.00: STEP TIME
 NULL.                 -999.25: NULL VALUE
 DFWT.                        :  DIST FWL TEXT
 DFST.                        :  DIST FSL TEXT
 DMF .             Drill Floor:  DRILL MEAS FROM
 STIM.      09.59.28 01-Jun-20:  START TIME
 DATE.      09.59.28 01-Jun-20:  END TIME
 SPUD.               01-Jun-20:  SPUD DATE
 NREF.                    Grid:  NORTH REFERENCE
 HPTY.       Minimum Curvature:  HOLE POS TYPE
 DMOD.             Drill Model:  DRILL MOD DESC
 SVYD.                  Survey:  SURVEY DESC
 ILTD.               Lithology:  INTERP LTH DESC
 FTOP.          Formation Tops:  FORM TOPS DESC
 SON .        AZ-XX-0905455768:  JOB NUMBER
 WTYP.                Deviated:  WELL TYPE
 COMP.     BP Exploration(Caspian Sea):  COMPANY
 BASE.              Azerbaijan:  LOGGING EQUIPMENT BASE LOCATION
 REGN.                   EESSA:  REGION
 CTRY.              Azerbaijan:  COUNTRY NAME
 FLD .                     ACG:  FIELD NAME
 SRVC.          Turan Drilling:  CONTRACTOR
 WELL.                     B41:  WELL NAME
 RIG .           Central Azeri:  RIG NAME
 DCON.         Sperry Drilling:  DIRECTNL CONTR
 PDAT.          Mean Sea Level:  PERMANENT DATUM
 MDS .        Operator Entered:  MAG DATA SOURCE
 API .                        :  API NUMBER
 CNTY.                        :  COUNTY
 PROV.                        :  PROVINCE
 STAT.                        :  STATE
 UWI .                        :  UNIQUE WELL IDENTIFIER
 LOC .                        :  LOCATION
 LMF .             Drill Floor:  LOG MEASURED FROM
 TVDS.m                  43.29:  TVDSS CORRECTN
 LATI.deg                40.03:  LATITUDE
 LONG.deg                51.35:  LONGITUDE
 WHNS.m                  12.98:  WELL HEAD N/S
 WHEW.m                  -6.62:  WELL HEAD E/W
 UTMX.m              530128.28:  UTM X
 UTMY.m             4433192.49:  UTM Y
 DFWL.m                   0.00:  DISTANCE FWL
 DFSL.m                   0.00:  DISTANCE FSL
 SDEP.m                 378.00:  START DEPTH
 TDD .m                   0.00:  TOTAL DEPTH (DRILLER)
 VSDR.deg               296.18:  VERT SEC DIRECT
 GVFD.g                   1.00:  GRAVITY FIELD
 MFLD.nT              50253.00:  MAGNETIC FIELD
 MDIP.deg                59.49:  MAGNETIC DIP
 MDEC.deg                 6.44:  MAGNETIC DECL
 GRDC.deg                 0.22:  GRID CORRECTION
 AZTC.deg                 6.22:  AZM TOTAL CORR
 EPD .m                   0.00:  ELEVATION
 EGL .m                   0.00:  GROUND ELEVATION
 WDMS.m                 128.20:  WD ELEV
 APD .m                  43.29:  DEPTH ABOVE PD
 AGAP.m                  43.29:  AIR GAP
 VSEW.m                  -6.62:  VERT SEC E/W
 VSNS.m                  12.98:  VERT SEC N/S
 EKB .m                  43.29:  KB ELEVATION
 EDF .m                  43.29:  DF ELEVATION
 TDL .m                1152.00:  TOTAL DEPTH (LOGGER)
 VSC .                       0:  VS TO CLOSURE
 MAGU.                 1848525:  MAGUTM CHECKSUM
~Parameter Information Block
#MNEM.UNIT       Value        Description
#---------     -----------    ---------------------------
 AV  .mps                 0.40:  Ann Velocity 
 AVMX.mps                 1.56:  Max Ann Veloc 
 AZIF.deg               300.46:  Azm, Final 
 BHAT.        Rotary Steerable:  BHA Type 
 BROT.°/30m               0.40:  Build Rotating 
 BS  .in                 17.50:  Bit Size 
 BSZ .in                 17.50:  Bit Size 
 BTPL.psig              300.00:  Bit Press Loss 
 CABU.                      No:  Customer Abuse 
 CGEO.          Parviz Guliyev:  Customer Geo 
 TCS .hr                108.13:  Time Ciculation Ended 
 CV  .mps                 0.50:  Crit Velocity 
 CVMX.mps                 2.01:  Max Crit Veloc 
 DD1 .          Fariz Nahmatov:  Direct Drillr 1 
 DD2 .             Ehab Radwan:  Direct Drillr 2 
 DDSV.               Geo-Pilot:  DD Service 
 DEFF.%                  99.00:  % Det Eff 
 DLRX.°/30m               0.50:  Dogleg Rot Max 
 DLSO.°/30m               2.80:  Dogleg Oriented 
 DLSX.°/30m               3.90:  Dogleg Str Max 
 DRET.      09.30.04 03-Jul-20:  Drill End Time 
 DRST.      18.33.04 28-Jun-20:  Drill Start Tim 
 DTIM.hr                 55.83:  Time Drilling 
 EDEP.m                1952.00:  End Depth 
 ENG1.      Bakhtiyar Jabbarli:  Engineer 1 
 ENG2.         Farhad Orujzade:  Engineer 2 
 ENG3.          Rustam Safarov:  Engineer 3 
 ETIM.      01.33.04 04-Jul-20:  End Time 
 FLOI.gpm              1050.00:  Flow In 
 FLON.gpm               950.00:  Flow In Min 
 FLOS.cptm                0.10:  Fluid Loss 
 FLOX.gpm              1150.00:  Flow In Max 
 HFLO.                      No:  High Flow 
 HPRE.                      No:  High Pressure 
 HTEM.                      No:  High Temp 
 HYDO.m                   1.80:  Hydro Offset 
 IFIN.deg                75.26:  Inc, Final 
 IMAX.deg                75.38:  Inc Max 
 IMIN.deg                22.84:  Inc Min 
 IMND.m                 832.38:  Inc Min Depth 
 IMXD.m                1936.55:  Inc Max Depth 
 JARR.                      No:  Jarring 
 LETM.      17.40.00 04-Jul-20:  Log End Time 
 LOST.hr                     0:  Lost Rig Time 
 LSTM.      12.33.04 28-Jun-20:  Log Start Time 
 MDCL.ppm             49500.00:  Mud Chlorides 
 MDES.     Inversion Oil/Synthetic:  Mud Desc 
 DFD .sg                  1.46:  Mud Density 
 MDMN.sg                  1.46:  Dens Mud Min 
 MDMX.sg                  1.46:  Dens Mud Max 
 MOIL.                      70:  Run Mud Oil % 
 MOWR.                   70:30:  Run Mud OWR 
 MSND.                     0.5:  Run Mud Sand % 
 MSOL.                   19.89:  Run Mud Solids% 
 DFV .spqt               72.00:  Mud Viscosity 
 MWOD.in                  9.50:  MWD Tool OD 
 MWSI.                      No:  Serv Intrp, MWD 
 OTIM.hr                146.53:  Time Operating 
 PCON.           Look Like New:  Pad Condition 
 PMAX.psia             2900.00:  Press Op, Max 
 PV  .cP                 38.00:  Mud PV 
 RUN .                     600:  Run Number 
 ROPA.m/hr               22.00:  ROP Avg 
 ROPN.m/hr               10.00:  ROP Min 
 ROPX.m/hr              263.00:  ROP Max 
 RPMA.rpm               155.00:  RPM Surface Avg 
 RPMN.rpm               140.00:  RPM Surface Min 
 RPMX.rpm               160.00:  RPM Surface Max 
 RRUN.                    0600:  Rig Run Number 
 RTIM.hr                  5.00:  Time Reaming 
 SAZI.deg               300.08:  Azm, Start 
 SDEP.m                 800.00:  Start Depth 
 SIDD.                      No:  Serv Intrp, DD 
 SINC.deg                22.84:  Inc, Start 
 SPPA.psig             3000.00:  SPP Avg 
 SPPN.psig             1900.00:  SPP Min 
 SPPX.psig             3200.00:  SPP Max 
 STIM.      12.30.04 28-Jun-20:  Start Time 
 SVCS.                 DD, MWD:  Services 
 SVER.                    9.20:  Sperry Version 
 TDAT.m                1952.00:  Tot Depth Attmp 
 TDDF.                      No:  Trip for DD 
 TDLG.m                1152.00:  Tot Depth Loggd 
 TFF .                      No:  Trip for Fail 
 TQAA.f-kp                8.00:  Torque Abs Avg 
 TQAN.f-kp                5.00:  Torque Abs Min 
 TQAX.f-kp               14.00:  Torque Abs Max 
 TRRT.°/30m               0.50:  Turn Rotating 
 MRT .                  EWR-M5:  Maximum Recorded Temperature 
 TTMX.degC               69.00:  Max Tool Temp 
 VS01.                90610313:  Virtual Str1 SN 
 VS02.                90613431:  Virtual Str2 SN 
 VS03.                90615410:  Virtual Str3 SN 
 WBMN.klb                 6.00:  WOB Min 
 WITN.            Bruce Cheyne:  Customer Rep 
 WITN.             Ayaz Aliyev:  Customer Rep 2 
 WOBA.klb                 6.00:  WOB Avg 
 WOBX.klb                10.00:  WOB Max 
 YP  .lhf2               36.00:  Yield Point 
~Curve Information Block
#MNEM.UNIT                 API CODE     Curve Description
#---------               -----------    ---------------------------
 TIME.HHMMSS            00 000 000 000:  GT Time & Date
 GTET.sec               00 000 000 000:  GT Elapsed Test Time
 GTPQH.psia             00 000 000 000:  GT HR Quartz Pressure
 GTDEPTH.m              00 000 000 000:  GT Depth
 GTTVD.m                00 000 000 000:  GT True Vertical Depth
 GTTQ.degC              00 000 000 000:  GT Quartz Temperature
 GTTN.NONE              00 000 000 000:  GT Test Number
#Other Information
#
#WARRANTY: Halliburton will use its best efforts to furnish customers with 
#accurate information and interpretations that are part of, and incident to, the services 
#provided.  However, Halliburton cannot and does not warrant the accuracy 
#or correctness of such information and interpretations.  Under no circumstances should any 
#such information or interpretation be relied upon as the sole basis for any drilling, 
#completion, production, or financial decision or any procedure involving any risk to the 
#safety of any drilling venture, drilling rig or its crew or any other third party.  The 
#Customer has full responsibility for all drilling, completion and production operation.  
#Halliburton makes no representations or warranties, either expressed or 
#implied, including, but not limited to, the implied warranties of merchantability or fitness 
#for a particular purpose, with respect to the services rendered.  In no event will 
#Halliburton be liable for failure to obtain any particular results or for 
#any damages, including, but not limited to, indirect, special or consequential damages, 
#resulting from the use of any information or interpretation provided by Halliburton.
#
~A           TIME            GTET   GTPQH  GTDEPTH  GTTVD  GTTQ  GTTN 
# ...
   04:12:43.383.02-Jul-2020  69.01 2696.94 1565.98 1276.49 57.60 6.00
   04:12:43.583.02-Jul-2020  69.21 2696.94 1565.98 1276.49 57.60 6.00
   04:12:43.783.02-Jul-2020  69.41 2697.21 1565.98 1276.49 57.60 6.00
   04:12:43.983.02-Jul-2020  69.61 2697.13 1565.98 1276.49 57.60 6.00
   04:12:44.183.02-Jul-2020  69.81 2697.31 1565.98 1276.49 57.60 6.00
   04:12:44.383.02-Jul-2020  70.01 2697.26 1565.98 1276.49 57.60 6.00
   04:12:44.583.02-Jul-2020  70.21 2697.26 1565.98 1276.49 57.60 6.00
   04:12:44.783.02-Jul-2020  70.41 2697.66 1565.98 1276.49 57.60 6.00
   04:12:44.983.02-Jul-2020  70.61 2697.77 1565.98 1276.49 57.60 6.00
   04:12:45.183.02-Jul-2020  70.81 2696.97 1565.98 1276.49 57.60 6.00
   04:12:45.383.02-Jul-2020  71.01 2698.33 1565.98 1276.49 57.60 6.00
   04:12:45.583.02-Jul-2020  71.21 2698.33 1565.98 1276.49 57.60 6.00
   04:12:45.783.02-Jul-2020  71.41 2698.34 1565.98 1276.49 57.60 6.00
   04:12:45.983.02-Jul-2020  71.61 2698.20 1565.98 1276.49 57.60 6.00
   04:12:46.183.02-Jul-2020  71.81 2698.34 1565.98 1276.49 57.60 6.00
   04:12:46.383.02-Jul-2020  72.01 2698.02 1565.98 1276.49 57.60 6.00
   04:12:46.583.02-Jul-2020  72.21 2698.02 1565.98 1276.49 57.60 6.00
   04:12:46.783.02-Jul-2020  72.41 2698.20 1565.98 1276.49 57.60 6.00
   04:12:46.983.02-Jul-2020  72.61 2697.76 1565.98 1276.49 57.60 6.00
   04:12:47.183.02-Jul-2020  72.81 2697.99 1565.98 1276.49 57.61 6.00
   04:12:47.383.02-Jul-2020  73.01 2697.66 1565.98 1276.49 57.61 6.00
   04:12:47.583.02-Jul-2020  73.21 2697.66 1565.98 1276.49 57.61 6.00
   04:12:47.783.02-Jul-2020  73.41 2697.40 1565.98 1276.49 57.61 6.00
   04:12:47.983.02-Jul-2020  73.61 2697.68 1565.98 1276.49 57.61 6.00
   04:12:48.183.02-Jul-2020  73.81 2697.43 1565.98 1276.49 57.61 6.00
   04:12:48.383.02-Jul-2020  74.01 2697.99 1565.98 1276.49 57.61 6.00
   04:12:48.583.02-Jul-2020  74.21 2697.99 1565.98 1276.49 57.61 6.00
   04:12:48.783.02-Jul-2020  74.41 2696.66 1565.98 1276.49 57.61 6.00
   04:12:48.983.02-Jul-2020  74.61 2697.25 1565.98 1276.49 57.61 6.00
   04:12:49.183.02-Jul-2020  74.81 2697.84 1565.98 1276.49 57.61 6.00
   04:12:49.383.02-Jul-2020  75.01 2697.84 1565.98 1276.49 57.61 6.00
   04:12:49.583.02-Jul-2020  75.21 2697.84 1565.98 1276.49 57.61 6.00
   04:12:49.784.02-Jul-2020  75.41 2695.17 1565.98 1276.49 57.61 6.00
   04:12:49.984.02-Jul-2020  75.61 2670.90 1565.98 1276.49 57.61 6.00
   04:12:50.184.02-Jul-2020  75.81 2668.50 1565.98 1276.49 57.61 6.00
   04:12:50.384.02-Jul-2020  76.01 2703.43 1565.98 1276.49 57.61 6.00
   04:12:50.584.02-Jul-2020  76.21 2703.43 1565.98 1276.49 57.61 6.00
   04:12:50.784.02-Jul-2020  76.41 2735.78 1565.98 1276.49 57.61 6.00
   04:12:50.984.02-Jul-2020  76.61 2672.60 1565.98 1276.49 57.62 6.00
   04:12:51.184.02-Jul-2020  76.81 2611.38 1565.98 1276.49 57.62 6.00
   04:12:51.384.02-Jul-2020  77.01 2584.22 1565.98 1276.49 57.62 6.00
   04:12:51.584.02-Jul-2020  77.21 2584.22 1565.98 1276.49 57.62 6.00
   04:12:51.784.02-Jul-2020  77.41 2552.57 1565.98 1276.49 57.62 6.00
   04:12:51.984.02-Jul-2020  77.61 2545.30 1565.98 1276.49 57.62 6.00
   04:12:52.184.02-Jul-2020  77.81 2539.35 1565.98 1276.49 57.62 6.00
   04:12:52.384.02-Jul-2020  78.01 2581.71 1565.98 1276.49 57.62 6.00
   04:12:52.584.02-Jul-2020  78.21 2581.71 1565.98 1276.49 57.62 6.00
   04:12:52.784.02-Jul-2020  78.41 2781.30 1565.98 1276.49 57.62 6.00
   04:12:52.984.02-Jul-2020  78.61 2785.46 1565.98 1276.49 57.62 6.00
   04:12:53.184.02-Jul-2020  78.81 2777.34 1565.98 1276.49 57.62 6.00
   04:12:53.384.02-Jul-2020  79.01 2770.10 1565.98 1276.49 57.62 6.00
   04:12:53.584.02-Jul-2020  79.21 2770.10 1565.98 1276.49 57.62 6.00
   04:12:53.784.02-Jul-2020  79.41 2763.62 1565.98 1276.49 57.62 6.00
   04:12:53.984.02-Jul-2020  79.61 2768.70 1565.98 1276.49 57.62 6.00
   04:12:54.184.02-Jul-2020  79.81 2766.60 1565.98 1276.49 57.62 6.00
   04:12:54.384.02-Jul-2020  80.01 2766.38 1565.98 1276.49 57.62 6.00
   04:12:54.584.02-Jul-2020  80.21 2766.38 1565.98 1276.49 57.62 6.00
   04:12:54.784.02-Jul-2020  80.41 2769.93 1565.98 1276.49 57.62 6.00
   04:12:54.984.02-Jul-2020  80.61 2773.53 1565.98 1276.49 57.63 6.00
   04:12:55.184.02-Jul-2020  80.81 2773.67 1565.98 1276.49 57.63 6.00
   04:12:55.384.02-Jul-2020  81.01 2776.74 1565.98 1276.49 57.63 6.00
   04:12:55.584.02-Jul-2020  81.21 2776.74 1565.98 1276.49 57.63 6.00
   04:12:55.784.02-Jul-2020  81.41 2763.58 1565.98 1276.49 57.63 6.00
   04:12:55.985.02-Jul-2020  81.61 2760.52 1565.98 1276.49 57.63 6.00
   04:12:56.185.02-Jul-2020  81.81 2751.90 1565.98 1276.49 57.63 6.00
   04:12:56.385.02-Jul-2020  82.01 2751.73 1565.98 1276.49 57.63 6.00
   04:12:56.585.02-Jul-2020  82.21 2751.73 1565.98 1276.49 57.63 6.00
   04:12:56.785.02-Jul-2020  82.41 2749.10 1565.98 1276.49 57.63 6.00
   04:12:56.985.02-Jul-2020  82.61 2747.90 1565.98 1276.49 57.63 6.00
   04:12:57.185.02-Jul-2020  82.81 2747.73 1565.98 1276.49 57.63 6.00
   04:12:57.385.02-Jul-2020  83.01 2747.29 1565.98 1276.49 57.63 6.00
   04:12:57.585.02-Jul-2020  83.21 2747.29 1565.98 1276.49 57.63 6.00
   04:12:57.785.02-Jul-2020  83.41 2746.40 1565.98 1276.49 57.63 6.00
   04:12:57.985.02-Jul-2020  83.61 2745.97 1565.98 1276.49 57.63 6.00
   04:12:58.185.02-Jul-2020  83.81 2745.51 1565.98 1276.49 57.63 6.00
   04:12:58.385.02-Jul-2020  84.01 2745.49 1565.98 1276.49 57.63 6.00
   04:12:58.585.02-Jul-2020  84.21 2745.49 1565.98 1276.49 57.64 6.00
   04:12:58.785.02-Jul-2020  84.41 2744.96 1565.98 1276.49 57.64 6.00
   04:12:58.985.02-Jul-2020  84.61 2744.52 1565.98 1276.49 57.64 6.00
   04:12:59.185.02-Jul-2020  84.81 2744.98 1565.98 1276.49 57.64 6.00
   04:12:59.385.02-Jul-2020  85.01 2744.01 1565.98 1276.49 57.64 6.00
   04:12:59.585.02-Jul-2020  85.21 2744.01 1565.98 1276.49 57.64 6.00
   04:12:59.785.02-Jul-2020  85.41 2744.01 1565.98 1276.49 57.64 6.00
   04:12:59.985.02-Jul-2020  85.61 2881.02 1565.98 1276.49 57.64 6.00
   04:13:00.185.02-Jul-2020  85.81 2728.74 1565.98 1276.49 57.64 6.00
   04:13:00.385.02-Jul-2020  86.01 2718.28 1565.98 1276.49 57.64 6.00
   04:13:00.585.02-Jul-2020  86.21 2718.28 1565.98 1276.49 57.64 6.00
   04:13:00.785.02-Jul-2020  86.41 2715.90 1565.98 1276.49 57.64 6.00
   04:13:00.985.02-Jul-2020  86.61 2715.41 1565.98 1276.49 57.64 6.00
   04:13:01.185.02-Jul-2020  86.81 2714.85 1565.98 1276.49 57.64 6.00
   04:13:01.385.02-Jul-2020  87.01 2714.91 1565.98 1276.49 57.64 6.00
   04:13:01.585.02-Jul-2020  87.21 2714.91 1565.98 1276.49 57.64 6.00
   04:13:01.785.02-Jul-2020  87.41 2713.82 1565.98 1276.49 57.64 6.00
   04:13:01.985.02-Jul-2020  87.61 2714.16 1565.98 1276.49 57.65 6.00
   04:13:02.185.02-Jul-2020  87.81 2714.42 1565.98 1276.49 57.65 6.00
   04:13:02.386.02-Jul-2020  88.01 2714.22 1565.98 1276.49 57.65 6.00
   04:13:02.586.02-Jul-2020  88.21 2714.22 1565.98 1276.49 57.65 6.00
   04:13:02.786.02-Jul-2020  88.41 2714.33 1565.98 1276.49 57.65 6.00
   04:13:02.986.02-Jul-2020  88.61 2713.60 1565.98 1276.49 57.65 6.00
   04:13:03.186.02-Jul-2020  88.81 2711.67 1565.98 1276.49 57.65 6.00
   04:13:03.386.02-Jul-2020  89.01 2691.74 1565.98 1276.49 57.65 6.00
   04:13:03.586.02-Jul-2020  89.21 2643.95 1565.98 1276.49 57.65 6.00
   04:13:03.786.02-Jul-2020  89.41 2600.31 1565.98 1276.49 57.65 6.00
   04:13:03.986.02-Jul-2020  89.61 2563.82 1565.98 1276.49 57.65 6.00
   04:13:04.186.02-Jul-2020  89.81 2525.62 1565.98 1276.49 57.65 6.00
   04:13:04.386.02-Jul-2020  90.01 2478.70 1565.98 1276.49 57.65 6.00
   04:13:04.586.02-Jul-2020  90.21 2478.70 1565.98 1276.49 57.65 6.00
   04:13:04.786.02-Jul-2020  90.41 2374.35 1565.98 1276.49 57.65 6.00
   04:13:04.986.02-Jul-2020  90.61 2333.74 1565.98 1276.49 57.65 6.00
   04:13:05.186.02-Jul-2020  90.81 2325.41 1565.98 1276.49 57.65 6.00
   04:13:05.386.02-Jul-2020  91.01 2320.18 1565.98 1276.49 57.65 6.00
   04:13:05.586.02-Jul-2020  91.21 2320.18 1565.98 1276.49 57.65 6.00
   04:13:05.786.02-Jul-2020  91.41 2310.32 1565.98 1276.49 57.65 6.00
   04:13:05.986.02-Jul-2020  91.61 2292.19 1565.98 1276.49 57.66 6.00
   04:13:06.186.02-Jul-2020  91.81 2287.01 1565.98 1276.49 57.66 6.00
