~Version Information
 VERS.                  2.0:   CWLS log ASCII Standard -VERSION 2.0
 WRAP.                   NO:   One line per depth step
~Well Information Block
#MNEM.UNIT     VALUE/NAME     DESCRIPTION
#---------     -----------    ---------------------------
 STRT.S             16:00:06 29-Jun-20: START TIME 16:00:06 29-Jun-20
 STOP.S             16:09:07 29-Jun-20: STOP TIME  16:09:07 29-Jun-20
 STEP.S                   0.00: STEP TIME
 NULL.                 -999.25: NULL VALUE
 DFWT.                        :  DIST FWL TEXT
 DFST.                        :  DIST FSL TEXT
 DMF .             Drill Floor:  DRILL MEAS FROM
 STIM.      09.59.28 01-Jun-20:  START TIME
 DATE.      09.59.28 01-Jun-20:  END TIME
 SPUD.               01-Jun-20:  SPUD DATE
 NREF.                    Grid:  NORTH REFERENCE
 HPTY.       Minimum Curvature:  HOLE POS TYPE
 DMOD.             Drill Model:  DRILL MOD DESC
 SVYD.                  Survey:  SURVEY DESC
 ILTD.               Lithology:  INTERP LTH DESC
 FTOP.          Formation Tops:  FORM TOPS DESC
 SON .        AZ-XX-0905455768:  JOB NUMBER
 WTYP.                Deviated:  WELL TYPE
 COMP.     BP Exploration(Caspian Sea):  COMPANY
 BASE.              Azerbaijan:  LOGGING EQUIPMENT BASE LOCATION
 REGN.                   EESSA:  REGION
 CTRY.              Azerbaijan:  COUNTRY NAME
 FLD .                     ACG:  FIELD NAME
 SRVC.          Turan Drilling:  CONTRACTOR
 WELL.                     B41:  WELL NAME
 RIG .           Central Azeri:  RIG NAME
 DCON.         Sperry Drilling:  DIRECTNL CONTR
 PDAT.          Mean Sea Level:  PERMANENT DATUM
 MDS .        Operator Entered:  MAG DATA SOURCE
 API .                        :  API NUMBER
 CNTY.                        :  COUNTY
 PROV.                        :  PROVINCE
 STAT.                        :  STATE
 UWI .                        :  UNIQUE WELL IDENTIFIER
 LOC .                        :  LOCATION
 LMF .             Drill Floor:  LOG MEASURED FROM
 TVDS.m                  43.29:  TVDSS CORRECTN
 LATI.deg                40.03:  LATITUDE
 LONG.deg                51.35:  LONGITUDE
 WHNS.m                  12.98:  WELL HEAD N/S
 WHEW.m                  -6.62:  WELL HEAD E/W
 UTMX.m              530128.28:  UTM X
 UTMY.m             4433192.49:  UTM Y
 DFWL.m                   0.00:  DISTANCE FWL
 DFSL.m                   0.00:  DISTANCE FSL
 SDEP.m                 378.00:  START DEPTH
 TDD .m                   0.00:  TOTAL DEPTH (DRILLER)
 VSDR.deg               296.18:  VERT SEC DIRECT
 GVFD.g                   1.00:  GRAVITY FIELD
 MFLD.nT              50253.00:  MAGNETIC FIELD
 MDIP.deg                59.49:  MAGNETIC DIP
 MDEC.deg                 6.44:  MAGNETIC DECL
 GRDC.deg                 0.22:  GRID CORRECTION
 AZTC.deg                 6.22:  AZM TOTAL CORR
 EPD .m                   0.00:  ELEVATION
 EGL .m                   0.00:  GROUND ELEVATION
 WDMS.m                 128.20:  WD ELEV
 APD .m                  43.29:  DEPTH ABOVE PD
 AGAP.m                  43.29:  AIR GAP
 VSEW.m                  -6.62:  VERT SEC E/W
 VSNS.m                  12.98:  VERT SEC N/S
 EKB .m                  43.29:  KB ELEVATION
 EDF .m                  43.29:  DF ELEVATION
 TDL .m                1152.00:  TOTAL DEPTH (LOGGER)
 VSC .                       0:  VS TO CLOSURE
 MAGU.                 1848525:  MAGUTM CHECKSUM
~Parameter Information Block
#MNEM.UNIT       Value        Description
#---------     -----------    ---------------------------
 AV  .mps                 0.40:  Ann Velocity 
 AVMX.mps                 1.56:  Max Ann Veloc 
 AZIF.deg               300.46:  Azm, Final 
 BHAT.        Rotary Steerable:  BHA Type 
 BROT.∞/30m               0.40:  Build Rotating 
 BS  .in                 17.50:  Bit Size 
 BSZ .in                 17.50:  Bit Size 
 BTPL.psig              300.00:  Bit Press Loss 
 CABU.                      No:  Customer Abuse 
 CGEO.          Parviz Guliyev:  Customer Geo 
 COMM.                     ,‘Å:  Run Comments 1 
 TCS .hr                108.13:  Time Ciculation Ended 
 CV  .mps                 0.50:  Crit Velocity 
 CVMX.mps                 2.01:  Max Crit Veloc 
 DD1 .          Fariz Nahmatov:  Direct Drillr 1 
 DD2 .             Ehab Radwan:  Direct Drillr 2 
 DDSV.               Geo-Pilot:  DD Service 
 DEFF.%                  99.00:  % Det Eff 
 DLRX.∞/30m               0.50:  Dogleg Rot Max 
 DLSO.∞/30m               2.80:  Dogleg Oriented 
 DLSX.∞/30m               3.90:  Dogleg Str Max 
 DRET.      09.30.04 03-Jul-20:  Drill End Time 
 DRST.      18.33.04 28-Jun-20:  Drill Start Tim 
 DTIM.hr                 55.83:  Time Drilling 
 EDEP.m                1952.00:  End Depth 
 ENG1.      Bakhtiyar Jabbarli:  Engineer 1 
 ENG2.         Farhad Orujzade:  Engineer 2 
 ENG3.          Rustam Safarov:  Engineer 3 
 ETIM.      01.33.04 04-Jul-20:  End Time 
 FLOI.gpm              1050.00:  Flow In 
 FLON.gpm               950.00:  Flow In Min 
 FLOS.cptm                0.10:  Fluid Loss 
 FLOX.gpm              1150.00:  Flow In Max 
 HFLO.                      No:  High Flow 
 HPRE.                      No:  High Pressure 
 HTEM.                      No:  High Temp 
 HYDO.m                   1.80:  Hydro Offset 
 IFIN.deg                75.26:  Inc, Final 
 IMAX.deg                75.38:  Inc Max 
 IMIN.deg                22.84:  Inc Min 
 IMND.m                 832.38:  Inc Min Depth 
 IMXD.m                1936.55:  Inc Max Depth 
 JARR.                      No:  Jarring 
 LETM.      17.40.00 04-Jul-20:  Log End Time 
 LOST.hr                     0:  Lost Rig Time 
 LSTM.      12.33.04 28-Jun-20:  Log Start Time 
 MDCL.ppm             49500.00:  Mud Chlorides 
 MDES.     Inversion Oil/Synthetic:  Mud Desc 
 DFD .sg                  1.46:  Mud Density 
 MDMN.sg                  1.46:  Dens Mud Min 
 MDMX.sg                  1.46:  Dens Mud Max 
 MOIL.                      70:  Run Mud Oil % 
 MOWR.                   70:30:  Run Mud OWR 
 MSND.                     0.5:  Run Mud Sand % 
 MSOL.                   19.89:  Run Mud Solids% 
 DFV .spqt               72.00:  Mud Viscosity 
 MWOD.in                  9.50:  MWD Tool OD 
 MWSI.                      No:  Serv Intrp, MWD 
 OTIM.hr                146.53:  Time Operating 
 PCON.           Look Like New:  Pad Condition 
 PMAX.psia             2900.00:  Press Op, Max 
 PV  .cP                 38.00:  Mud PV 
 RUN .                     600:  Run Number 
 ROPA.m/hr               22.00:  ROP Avg 
 ROPN.m/hr               10.00:  ROP Min 
 ROPX.m/hr              263.00:  ROP Max 
 RPMA.rpm               155.00:  RPM Surface Avg 
 RPMN.rpm               140.00:  RPM Surface Min 
 RPMX.rpm               160.00:  RPM Surface Max 
 RRUN.                    0600:  Rig Run Number 
 RTIM.hr                  5.00:  Time Reaming 
 SAZI.deg               300.08:  Azm, Start 
 SDEP.m                 800.00:  Start Depth 
 SIDD.                      No:  Serv Intrp, DD 
 SINC.deg                22.84:  Inc, Start 
 SPPA.psig             3000.00:  SPP Avg 
 SPPN.psig             1900.00:  SPP Min 
 SPPX.psig             3200.00:  SPP Max 
 STIM.      12.30.04 28-Jun-20:  Start Time 
 SVCS.                 DD, MWD:  Services 
 SVER.                    9.20:  Sperry Version 
 TDAT.m                1952.00:  Tot Depth Attmp 
 TDDF.                      No:  Trip for DD 
 TDLG.m                1152.00:  Tot Depth Loggd 
 TFF .                      No:  Trip for Fail 
 TQAA.f-kp                8.00:  Torque Abs Avg 
 TQAN.f-kp                5.00:  Torque Abs Min 
 TQAX.f-kp               14.00:  Torque Abs Max 
 TRRT.∞/30m               0.50:  Turn Rotating 
 MRT .                  EWR-M5:  Maximum Recorded Temperature 
 TTMX.degC               69.00:  Max Tool Temp 
 VS01.                90610313:  Virtual Str1 SN 
 VS02.                90613431:  Virtual Str2 SN 
 VS03.                90615410:  Virtual Str3 SN 
 WBMN.klb                 6.00:  WOB Min 
 WITN.            Bruce Cheyne:  Customer Rep 
 WITN.             Ayaz Aliyev:  Customer Rep 2 
 WOBA.klb                 6.00:  WOB Avg 
 WOBX.klb                10.00:  WOB Max 
 YP  .lhf2               36.00:  Yield Point 
~Curve Information Block
#MNEM.UNIT                 API CODE     Curve Description
#---------               -----------    ---------------------------
 TIME.HHMMSS            00 000 000 000:  GT Time & Date
 GTET.sec               00 000 000 000:  GT Elapsed Test Time
 GTPQH.psia             00 000 000 000:  GT HR Quartz Pressure
 GTDEPTH.m              00 000 000 000:  GT Depth
 GTTVD.m                00 000 000 000:  GT True Vertical Depth
 GTTQ.degC              00 000 000 000:  GT Quartz Temperature
 GTTN.NONE              00 000 000 000:  GT Test Number
#Other Information
#
#WARRANTY: Halliburton will use its best efforts to furnish customers with 
#accurate information and interpretations that are part of, and incident to, the services 
#provided.  However, Halliburton cannot and does not warrant the accuracy 
#or correctness of such information and interpretations.  Under no circumstances should any 
#such information or interpretation be relied upon as the sole basis for any drilling, 
#completion, production, or financial decision or any procedure involving any risk to the 
#safety of any drilling venture, drilling rig or its crew or any other third party.  The 
#Customer has full responsibility for all drilling, completion and production operation.  
#Halliburton makes no representations or warranties, either expressed or 
#implied, including, but not limited to, the implied warranties of merchantability or fitness 
#for a particular purpose, with respect to the services rendered.  In no event will 
#Halliburton be liable for failure to obtain any particular results or for 
#any damages, including, but not limited to, indirect, special or consequential damages, 
#resulting from the use of any information or interpretation provided by Halliburton.
#
~A           TIME            GTET   GTPQH  GTDEPTH GTTVD  GTTQ  GTTN 
# ...
   16:02:25.704.29-Jun-2020 139.25 1575.28  873.30 856.96 65.79 1.00
   16:02:25.904.29-Jun-2020 139.45 1575.19  873.30 856.96 65.79 1.00
   16:02:26.104.29-Jun-2020 139.65 1575.24  873.30 856.96 65.79 1.00
   16:02:26.305.29-Jun-2020 139.85 1575.17  873.30 856.96 65.79 1.00
   16:02:26.505.29-Jun-2020 140.05 1575.21  873.30 856.96 65.79 1.00
   16:02:26.705.29-Jun-2020 140.25 1575.19  873.30 856.96 65.79 1.00
   16:02:26.905.29-Jun-2020 140.45 1575.15  873.30 856.96 65.79 1.00
   16:02:27.105.29-Jun-2020 140.65 1575.15  873.30 856.96 65.79 1.00
   16:02:27.305.29-Jun-2020 140.85 1575.26  873.30 856.96 65.79 1.00
   16:02:27.505.29-Jun-2020 141.05 1575.21  873.30 856.96 65.79 1.00
   16:02:27.705.29-Jun-2020 141.25 1575.20  873.30 856.96 65.79 1.00
   16:02:27.905.29-Jun-2020 141.45 1575.15  873.30 856.96 65.79 1.00
   16:02:28.105.29-Jun-2020 141.65 1575.13  873.30 856.96 65.79 1.00
   16:02:28.305.29-Jun-2020 141.85 1575.14  873.30 856.96 65.79 1.00
   16:02:28.505.29-Jun-2020 142.05 1575.13  873.30 856.96 65.79 1.00
   16:02:28.705.29-Jun-2020 142.25 1575.13  873.30 856.96 65.79 1.00
   16:02:28.906.29-Jun-2020 142.45 1575.07  873.30 856.96 65.79 1.00
   16:02:29.106.29-Jun-2020 142.65 1575.00  873.30 856.96 65.79 1.00
   16:02:29.306.29-Jun-2020 142.85 1575.08  873.30 856.96 65.79 1.00
   16:02:29.506.29-Jun-2020 143.05 1575.05  873.30 856.96 65.79 1.00
   16:02:29.706.29-Jun-2020 143.25 1575.05  873.30 856.96 65.79 1.00
   16:02:29.906.29-Jun-2020 143.45 1575.11  873.30 856.96 65.80 1.00
   16:02:30.106.29-Jun-2020 143.65 1575.15  873.30 856.96 65.80 1.00
   16:02:30.306.29-Jun-2020 143.85 1575.16  873.30 856.96 65.80 1.00
   16:02:30.506.29-Jun-2020 144.05 1575.15  873.30 856.96 65.80 1.00
   16:02:30.706.29-Jun-2020 144.25 1575.15  873.30 856.96 65.80 1.00
   16:02:30.906.29-Jun-2020 144.45 1575.24  873.30 856.96 65.80 1.00
   16:02:31.106.29-Jun-2020 144.65 1575.23  873.30 856.96 65.80 1.00
   16:02:31.306.29-Jun-2020 144.85 1575.08  873.30 856.96 65.80 1.00
   16:02:31.507.29-Jun-2020 145.05 1575.10  873.30 856.96 65.80 1.00
   16:02:31.707.29-Jun-2020 145.26 1575.17  873.30 856.96 65.80 1.00
   16:02:31.907.29-Jun-2020 145.46 1575.12  873.30 856.96 65.80 1.00
   16:02:32.107.29-Jun-2020 145.66 1575.16  873.30 856.96 65.80 1.00
   16:02:32.307.29-Jun-2020 145.86 1575.08  873.30 856.96 65.80 1.00
   16:02:32.507.29-Jun-2020 146.06 1575.02  873.30 856.96 65.80 1.00
   16:02:32.707.29-Jun-2020 146.26 1575.02  873.30 856.96 65.80 1.00
   16:02:32.907.29-Jun-2020 146.46 1575.09  873.30 856.96 65.80 1.00
   16:02:33.107.29-Jun-2020 146.66 1575.09  873.30 856.96 65.80 1.00
   16:02:33.307.29-Jun-2020 146.86 1574.99  873.30 856.96 65.80 1.00
   16:02:33.507.29-Jun-2020 147.06 1575.10  873.30 856.96 65.80 1.00
   16:02:33.707.29-Jun-2020 147.26 1575.10  873.30 856.96 65.80 1.00
   16:02:33.907.29-Jun-2020 147.46 1575.11  873.30 856.96 65.80 1.00
   16:02:34.107.29-Jun-2020 147.66 1575.10  873.30 856.96 65.80 1.00
   16:02:34.308.29-Jun-2020 147.86 1575.11  873.30 856.96 65.80 1.00
   16:02:34.508.29-Jun-2020 148.06 1575.18  873.30 856.96 65.80 1.00
   16:02:34.708.29-Jun-2020 148.26 1575.18  873.30 856.96 65.80 1.00
   16:02:34.908.29-Jun-2020 148.46 1575.06  873.30 856.96 65.80 1.00
   16:02:35.108.29-Jun-2020 148.66 1575.13  873.30 856.96 65.80 1.00
   16:02:35.308.29-Jun-2020 148.86 1575.12  873.30 856.96 65.80 1.00
   16:02:35.508.29-Jun-2020 149.06 1575.23  873.30 856.96 65.80 1.00
   16:02:35.708.29-Jun-2020 149.26 1575.13  873.30 856.96 65.80 1.00
   16:02:35.908.29-Jun-2020 149.46 1575.14  873.30 856.96 65.80 1.00
   16:02:36.108.29-Jun-2020 149.66 1575.15  873.30 856.96 65.80 1.00
   16:02:36.308.29-Jun-2020 149.86 1575.15  873.30 856.96 65.80 1.00
   16:02:36.508.29-Jun-2020 150.06 1575.10  873.30 856.96 65.80 1.00
   16:02:36.708.29-Jun-2020 150.26 1575.10  873.30 856.96 65.80 1.00
   16:02:36.909.29-Jun-2020 150.46 1575.21  873.30 856.96 65.80 1.00
   16:02:37.109.29-Jun-2020 150.66 1575.14  873.30 856.96 65.80 1.00
   16:02:37.309.29-Jun-2020 150.86 1575.12  873.30 856.96 65.80 1.00
   16:02:37.509.29-Jun-2020 151.06 1575.12  873.30 856.96 65.80 1.00
   16:02:37.709.29-Jun-2020 151.26 1575.12  873.30 856.96 65.80 1.00
   16:02:37.909.29-Jun-2020 151.46 1575.08  873.30 856.96 65.80 1.00
   16:02:38.109.29-Jun-2020 151.66 1575.10  873.30 856.96 65.80 1.00
   16:02:38.309.29-Jun-2020 151.86 1575.08  873.30 856.96 65.80 1.00
   16:02:38.509.29-Jun-2020 152.06 1575.08  873.30 856.96 65.80 1.00
   16:02:38.709.29-Jun-2020 152.26 1575.08  873.30 856.96 65.80 1.00
   16:02:38.909.29-Jun-2020 152.46 1575.00  873.30 856.96 65.80 1.00
   16:02:39.109.29-Jun-2020 152.66 1575.09  873.30 856.96 65.80 1.00
   16:02:39.309.29-Jun-2020 152.86 1575.12  873.30 856.96 65.80 1.00
   16:02:39.510.29-Jun-2020 153.06 1575.12  873.30 856.96 65.80 1.00
   16:02:39.710.29-Jun-2020 153.26 1575.14  873.30 856.96 65.80 1.00
   16:02:39.910.29-Jun-2020 153.46 1575.14  873.30 856.96 65.80 1.00
   16:02:40.110.29-Jun-2020 153.66 1575.13  873.30 856.96 65.80 1.00
   16:02:40.310.29-Jun-2020 153.86 1575.20  873.30 856.96 65.80 1.00
   16:02:40.510.29-Jun-2020 154.06 1575.24  873.30 856.96 65.80 1.00
   16:02:40.710.29-Jun-2020 154.26 1575.24  873.30 856.96 65.80 1.00
   16:02:40.910.29-Jun-2020 154.46 1575.04  873.30 856.96 65.80 1.00
   16:02:41.110.29-Jun-2020 154.66 1575.20  873.30 856.96 65.80 1.00
   16:02:41.310.29-Jun-2020 154.86 1575.16  873.30 856.96 65.80 1.00
   16:02:41.510.29-Jun-2020 155.06 1575.14  873.30 856.96 65.80 1.00
   16:02:41.710.29-Jun-2020 155.26 1575.14  873.30 856.96 65.80 1.00
   16:02:41.910.29-Jun-2020 155.46 1575.11  873.30 856.96 65.80 1.00
   16:02:42.111.29-Jun-2020 155.66 1575.05  873.30 856.96 65.80 1.00
   16:02:42.311.29-Jun-2020 155.86 1575.07  873.30 856.96 65.80 1.00
   16:02:42.511.29-Jun-2020 156.06 1575.04  873.30 856.96 65.80 1.00
   16:02:42.711.29-Jun-2020 156.26 1575.04  873.30 856.96 65.80 1.00
   16:02:42.911.29-Jun-2020 156.46 1575.05  873.30 856.96 65.80 1.00
   16:02:43.111.29-Jun-2020 156.66 1575.21  873.30 856.96 65.80 1.00
   16:02:43.311.29-Jun-2020 156.86 1575.09  873.30 856.96 65.80 1.00
   16:02:43.511.29-Jun-2020 157.06 1575.11  873.30 856.96 65.80 1.00
   16:02:43.711.29-Jun-2020 157.26 1575.11  873.30 856.96 65.80 1.00
   16:02:43.911.29-Jun-2020 157.46 1575.15  873.30 856.96 65.80 1.00
   16:02:44.111.29-Jun-2020 157.66 1575.12  873.30 856.96 65.80 1.00
   16:02:44.311.29-Jun-2020 157.86 1575.10  873.30 856.96 65.80 1.00
   16:02:44.511.29-Jun-2020 158.06 1575.12  873.30 856.96 65.80 1.00
   16:02:44.712.29-Jun-2020 158.26 1575.12  873.30 856.96 65.80 1.00
   16:02:44.912.29-Jun-2020 158.46 1575.22  873.30 856.96 65.80 1.00
   16:02:45.112.29-Jun-2020 158.66 1575.16  873.30 856.96 65.80 1.00
   16:02:45.312.29-Jun-2020 158.86 1575.15  873.30 856.96 65.80 1.00
   16:02:45.512.29-Jun-2020 159.06 1575.12  873.30 856.96 65.80 1.00
   16:02:45.712.29-Jun-2020 159.26 1575.12  873.30 856.96 65.80 1.00
   16:02:45.912.29-Jun-2020 159.46 1575.13  873.30 856.96 65.81 1.00
   16:02:46.112.29-Jun-2020 159.66 1575.10  873.30 856.96 65.81 1.00
   16:02:46.312.29-Jun-2020 159.86 1575.20  873.30 856.96 65.81 1.00
   16:02:46.512.29-Jun-2020 160.06 1575.12  873.30 856.96 65.81 1.00
   16:02:46.712.29-Jun-2020 160.26 1575.12  873.30 856.96 65.81 1.00
   16:02:46.912.29-Jun-2020 160.46 1575.10  873.30 856.96 65.81 1.00
   16:02:47.112.29-Jun-2020 160.66 1575.07  873.30 856.96 65.81 1.00
   16:02:47.312.29-Jun-2020 160.86 1575.10  873.30 856.96 65.81 1.00
   16:02:47.513.29-Jun-2020 161.06 1575.08  873.30 856.96 65.81 1.00
   16:02:47.713.29-Jun-2020 161.26 1574.98  873.30 856.96 65.81 1.00
   16:02:47.913.29-Jun-2020 161.46 1574.99  873.30 856.96 65.81 1.00
   16:02:48.113.29-Jun-2020 161.66 1575.07  873.30 856.96 65.81 1.00
   16:02:48.313.29-Jun-2020 161.86 1574.97  873.30 856.96 65.81 1.00
   16:02:48.513.29-Jun-2020 162.06 1575.03  873.30 856.96 65.81 1.00
   16:02:48.713.29-Jun-2020 162.26 1575.03  873.30 856.96 65.81 1.00
