~Version Information
 VERS.                  2.0:   CWLS log ASCII Standard -VERSION 2.0
 WRAP.                   NO:   One line per depth step
~Well Information Block
#MNEM.UNIT     VALUE/NAME     DESCRIPTION
#---------     -----------    ---------------------------
 STRT.S             16:00:06 29-Jun-20: START TIME 16:00:06 29-Jun-20
 STOP.S             16:09:07 29-Jun-20: STOP TIME  16:09:07 29-Jun-20
 STEP.S                   0.00: STEP TIME
 NULL.                 -999.25: NULL VALUE
 DFWT.                        :  DIST FWL TEXT
 DFST.                        :  DIST FSL TEXT
 DMF .             Drill Floor:  DRILL MEAS FROM
 STIM.      09.59.28 01-Jun-20:  START TIME
 DATE.      09.59.28 01-Jun-20:  END TIME
 SPUD.               01-Jun-20:  SPUD DATE
 NREF.                    Grid:  NORTH REFERENCE
 HPTY.       Minimum Curvature:  HOLE POS TYPE
 DMOD.             Drill Model:  DRILL MOD DESC
 SVYD.                  Survey:  SURVEY DESC
 ILTD.               Lithology:  INTERP LTH DESC
 FTOP.          Formation Tops:  FORM TOPS DESC
 SON .        AZ-XX-0905455768:  JOB NUMBER
 WTYP.                Deviated:  WELL TYPE
 COMP.     BP Exploration(Caspian Sea):  COMPANY
 BASE.              Azerbaijan:  LOGGING EQUIPMENT BASE LOCATION
 REGN.                   EESSA:  REGION
 CTRY.              Azerbaijan:  COUNTRY NAME
 FLD .                     ACG:  FIELD NAME
 SRVC.          Turan Drilling:  CONTRACTOR
 WELL.                     B41:  WELL NAME
 RIG .           Central Azeri:  RIG NAME
 DCON.         Sperry Drilling:  DIRECTNL CONTR
 PDAT.          Mean Sea Level:  PERMANENT DATUM
 MDS .        Operator Entered:  MAG DATA SOURCE
 API .                        :  API NUMBER
 CNTY.                        :  COUNTY
 PROV.                        :  PROVINCE
 STAT.                        :  STATE
 UWI .                        :  UNIQUE WELL IDENTIFIER
 LOC .                        :  LOCATION
 LMF .             Drill Floor:  LOG MEASURED FROM
 TVDS.m                  43.29:  TVDSS CORRECTN
 LATI.deg                40.03:  LATITUDE
 LONG.deg                51.35:  LONGITUDE
 WHNS.m                  12.98:  WELL HEAD N/S
 WHEW.m                  -6.62:  WELL HEAD E/W
 UTMX.m              530128.28:  UTM X
 UTMY.m             4433192.49:  UTM Y
 DFWL.m                   0.00:  DISTANCE FWL
 DFSL.m                   0.00:  DISTANCE FSL
 SDEP.m                 378.00:  START DEPTH
 TDD .m                   0.00:  TOTAL DEPTH (DRILLER)
 VSDR.deg               296.18:  VERT SEC DIRECT
 GVFD.g                   1.00:  GRAVITY FIELD
 MFLD.nT              50253.00:  MAGNETIC FIELD
 MDIP.deg                59.49:  MAGNETIC DIP
 MDEC.deg                 6.44:  MAGNETIC DECL
 GRDC.deg                 0.22:  GRID CORRECTION
 AZTC.deg                 6.22:  AZM TOTAL CORR
 EPD .m                   0.00:  ELEVATION
 EGL .m                   0.00:  GROUND ELEVATION
 WDMS.m                 128.20:  WD ELEV
 APD .m                  43.29:  DEPTH ABOVE PD
 AGAP.m                  43.29:  AIR GAP
 VSEW.m                  -6.62:  VERT SEC E/W
 VSNS.m                  12.98:  VERT SEC N/S
 EKB .m                  43.29:  KB ELEVATION
 EDF .m                  43.29:  DF ELEVATION
 TDL .m                1152.00:  TOTAL DEPTH (LOGGER)
 VSC .                       0:  VS TO CLOSURE
 MAGU.                 1848525:  MAGUTM CHECKSUM
~Parameter Information Block
#MNEM.UNIT       Value        Description
#---------     -----------    ---------------------------
 AV  .mps                 0.40:  Ann Velocity 
 AVMX.mps                 1.56:  Max Ann Veloc 
 AZIF.deg               300.46:  Azm, Final 
 BHAT.        Rotary Steerable:  BHA Type 
 BROT.∞/30m               0.40:  Build Rotating 
 BS  .in                 17.50:  Bit Size 
 BSZ .in                 17.50:  Bit Size 
 BTPL.psig              300.00:  Bit Press Loss 
 CABU.                      No:  Customer Abuse 
 CGEO.          Parviz Guliyev:  Customer Geo 
 COMM.                     ,‘Å:  Run Comments 1 
 TCS .hr                108.13:  Time Ciculation Ended 
 CV  .mps                 0.50:  Crit Velocity 
 CVMX.mps                 2.01:  Max Crit Veloc 
 DD1 .          Fariz Nahmatov:  Direct Drillr 1 
 DD2 .             Ehab Radwan:  Direct Drillr 2 
 DDSV.               Geo-Pilot:  DD Service 
 DEFF.%                  99.00:  % Det Eff 
 DLRX.∞/30m               0.50:  Dogleg Rot Max 
 DLSO.∞/30m               2.80:  Dogleg Oriented 
 DLSX.∞/30m               3.90:  Dogleg Str Max 
 DRET.      09.30.04 03-Jul-20:  Drill End Time 
 DRST.      18.33.04 28-Jun-20:  Drill Start Tim 
 DTIM.hr                 55.83:  Time Drilling 
 EDEP.m                1952.00:  End Depth 
 ENG1.      Bakhtiyar Jabbarli:  Engineer 1 
 ENG2.         Farhad Orujzade:  Engineer 2 
 ENG3.          Rustam Safarov:  Engineer 3 
 ETIM.      01.33.04 04-Jul-20:  End Time 
 FLOI.gpm              1050.00:  Flow In 
 FLON.gpm               950.00:  Flow In Min 
 FLOS.cptm                0.10:  Fluid Loss 
 FLOX.gpm              1150.00:  Flow In Max 
 HFLO.                      No:  High Flow 
 HPRE.                      No:  High Pressure 
 HTEM.                      No:  High Temp 
 HYDO.m                   1.80:  Hydro Offset 
 IFIN.deg                75.26:  Inc, Final 
 IMAX.deg                75.38:  Inc Max 
 IMIN.deg                22.84:  Inc Min 
 IMND.m                 832.38:  Inc Min Depth 
 IMXD.m                1936.55:  Inc Max Depth 
 JARR.                      No:  Jarring 
 LETM.      17.40.00 04-Jul-20:  Log End Time 
 LOST.hr                     0:  Lost Rig Time 
 LSTM.      12.33.04 28-Jun-20:  Log Start Time 
 MDCL.ppm             49500.00:  Mud Chlorides 
 MDES.     Inversion Oil/Synthetic:  Mud Desc 
 DFD .sg                  1.46:  Mud Density 
 MDMN.sg                  1.46:  Dens Mud Min 
 MDMX.sg                  1.46:  Dens Mud Max 
 MOIL.                      70:  Run Mud Oil % 
 MOWR.                   70:30:  Run Mud OWR 
 MSND.                     0.5:  Run Mud Sand % 
 MSOL.                   19.89:  Run Mud Solids% 
 DFV .spqt               72.00:  Mud Viscosity 
 MWOD.in                  9.50:  MWD Tool OD 
 MWSI.                      No:  Serv Intrp, MWD 
 OTIM.hr                146.53:  Time Operating 
 PCON.           Look Like New:  Pad Condition 
 PMAX.psia             2900.00:  Press Op, Max 
 PV  .cP                 38.00:  Mud PV 
 RUN .                     600:  Run Number 
 ROPA.m/hr               22.00:  ROP Avg 
 ROPN.m/hr               10.00:  ROP Min 
 ROPX.m/hr              263.00:  ROP Max 
 RPMA.rpm               155.00:  RPM Surface Avg 
 RPMN.rpm               140.00:  RPM Surface Min 
 RPMX.rpm               160.00:  RPM Surface Max 
 RRUN.                    0600:  Rig Run Number 
 RTIM.hr                  5.00:  Time Reaming 
 SAZI.deg               300.08:  Azm, Start 
 SDEP.m                 800.00:  Start Depth 
 SIDD.                      No:  Serv Intrp, DD 
 SINC.deg                22.84:  Inc, Start 
 SPPA.psig             3000.00:  SPP Avg 
 SPPN.psig             1900.00:  SPP Min 
 SPPX.psig             3200.00:  SPP Max 
 STIM.      12.30.04 28-Jun-20:  Start Time 
 SVCS.                 DD, MWD:  Services 
 SVER.                    9.20:  Sperry Version 
 TDAT.m                1952.00:  Tot Depth Attmp 
 TDDF.                      No:  Trip for DD 
 TDLG.m                1152.00:  Tot Depth Loggd 
 TFF .                      No:  Trip for Fail 
 TQAA.f-kp                8.00:  Torque Abs Avg 
 TQAN.f-kp                5.00:  Torque Abs Min 
 TQAX.f-kp               14.00:  Torque Abs Max 
 TRRT.∞/30m               0.50:  Turn Rotating 
 MRT .                  EWR-M5:  Maximum Recorded Temperature 
 TTMX.degC               69.00:  Max Tool Temp 
 VS01.                90610313:  Virtual Str1 SN 
 VS02.                90613431:  Virtual Str2 SN 
 VS03.                90615410:  Virtual Str3 SN 
 WBMN.klb                 6.00:  WOB Min 
 WITN.            Bruce Cheyne:  Customer Rep 
 WITN.             Ayaz Aliyev:  Customer Rep 2 
 WOBA.klb                 6.00:  WOB Avg 
 WOBX.klb                10.00:  WOB Max 
 YP  .lhf2               36.00:  Yield Point 
~Curve Information Block
#MNEM.UNIT                 API CODE     Curve Description
#---------               -----------    ---------------------------
 TIME.HHMMSS            00 000 000 000:  GT Time & Date
 GTET.sec               00 000 000 000:  GT Elapsed Test Time
 GTPQH.psia             00 000 000 000:  GT HR Quartz Pressure
 GTDEPTH.m              00 000 000 000:  GT Depth
 GTTVD.m                00 000 000 000:  GT True Vertical Depth
 GTTQ.degC              00 000 000 000:  GT Quartz Temperature
 GTTN.NONE              00 000 000 000:  GT Test Number
#Other Information
#
#WARRANTY: Halliburton will use its best efforts to furnish customers with 
#accurate information and interpretations that are part of, and incident to, the services 
#provided.  However, Halliburton cannot and does not warrant the accuracy 
#or correctness of such information and interpretations.  Under no circumstances should any 
#such information or interpretation be relied upon as the sole basis for any drilling, 
#completion, production, or financial decision or any procedure involving any risk to the 
#safety of any drilling venture, drilling rig or its crew or any other third party.  The 
#Customer has full responsibility for all drilling, completion and production operation.  
#Halliburton makes no representations or warranties, either expressed or 
#implied, including, but not limited to, the implied warranties of merchantability or fitness 
#for a particular purpose, with respect to the services rendered.  In no event will 
#Halliburton be liable for failure to obtain any particular results or for 
#any damages, including, but not limited to, indirect, special or consequential damages, 
#resulting from the use of any information or interpretation provided by Halliburton.
#
~A           TIME            GTET   GTPQH  GTDEPTH GTTVD  GTTQ  GTTN 
# ...
   16:05:54.583.29-Jun-2020 348.13 1574.81  873.30 856.96 65.93 1.00
   16:05:54.784.29-Jun-2020 348.33 1574.81  873.30 856.96 65.93 1.00
   16:05:54.984.29-Jun-2020 348.53 1574.84  873.30 856.96 65.93 1.00
   16:05:55.184.29-Jun-2020 348.73 1574.82  873.30 856.96 65.93 1.00
   16:05:55.384.29-Jun-2020 348.93 1574.84  873.30 856.96 65.93 1.00
   16:05:55.584.29-Jun-2020 349.13 1574.72  873.30 856.96 65.93 1.00
   16:05:55.784.29-Jun-2020 349.33 1575.03  873.30 856.96 65.93 1.00
   16:05:55.984.29-Jun-2020 349.53 1574.77  873.30 856.96 65.93 1.00
   16:05:56.184.29-Jun-2020 349.73 1574.86  873.30 856.96 65.93 1.00
   16:05:56.384.29-Jun-2020 349.93 1574.82  873.30 856.96 65.93 1.00
   16:05:56.584.29-Jun-2020 350.13 1574.92  873.30 856.96 65.93 1.00
   16:05:56.784.29-Jun-2020 350.33 1574.92  873.30 856.96 65.93 1.00
   16:05:56.984.29-Jun-2020 350.53 1574.91  873.30 856.96 65.93 1.00
   16:05:57.184.29-Jun-2020 350.73 1574.90  873.30 856.96 65.93 1.00
   16:05:57.384.29-Jun-2020 350.93 1574.88  873.30 856.96 65.93 1.00
   16:05:57.585.29-Jun-2020 351.13 1575.00  873.30 856.96 65.93 1.00
   16:05:57.785.29-Jun-2020 351.33 1575.00  873.30 856.96 65.93 1.00
   16:05:57.985.29-Jun-2020 351.53 1574.92  873.30 856.96 65.93 1.00
   16:05:58.185.29-Jun-2020 351.73 1574.93  873.30 856.96 65.93 1.00
   16:05:58.385.29-Jun-2020 351.93 1574.88  873.30 856.96 65.93 1.00
   16:05:58.585.29-Jun-2020 352.13 1574.88  873.30 856.96 65.93 1.00
   16:05:58.785.29-Jun-2020 352.33 1574.88  873.30 856.96 65.93 1.00
   16:05:58.985.29-Jun-2020 352.53 1574.82  873.30 856.96 65.93 1.00
   16:05:59.185.29-Jun-2020 352.73 1574.88  873.30 856.96 65.93 1.00
   16:05:59.385.29-Jun-2020 352.93 1574.92  873.30 856.96 65.93 1.00
   16:05:59.585.29-Jun-2020 353.13 1574.79  873.30 856.96 65.93 1.00
   16:05:59.785.29-Jun-2020 353.33 1574.84  873.30 856.96 65.93 1.00
   16:05:59.985.29-Jun-2020 353.53 1574.78  873.30 856.96 65.93 1.00
   16:06:00.186.29-Jun-2020 353.73 1575.00  873.30 856.96 65.93 1.00
   16:06:00.386.29-Jun-2020 353.93 1574.79  873.30 856.96 65.93 1.00
   16:06:00.586.29-Jun-2020 354.13 1574.91  873.30 856.96 65.93 1.00
   16:06:00.786.29-Jun-2020 354.33 1574.91  873.30 856.96 65.93 1.00
   16:06:00.986.29-Jun-2020 354.53 1574.94  873.30 856.96 65.93 1.00
   16:06:01.186.29-Jun-2020 354.73 1574.78  873.30 856.96 65.93 1.00
   16:06:01.386.29-Jun-2020 354.93 1574.93  873.30 856.96 65.93 1.00
   16:06:01.586.29-Jun-2020 355.13 1574.89  873.30 856.96 65.93 1.00
   16:06:01.786.29-Jun-2020 355.33 1574.89  873.30 856.96 65.93 1.00
   16:06:01.986.29-Jun-2020 355.53 1574.98  873.30 856.96 65.93 1.00
   16:06:02.186.29-Jun-2020 355.73 1574.89  873.30 856.96 65.93 1.00
   16:06:02.386.29-Jun-2020 355.93 1574.92  873.30 856.96 65.93 1.00
   16:06:02.586.29-Jun-2020 356.13 1574.90  873.30 856.96 65.93 1.00
   16:06:02.787.29-Jun-2020 356.33 1574.90  873.30 856.96 65.93 1.00
   16:06:02.987.29-Jun-2020 356.54 1574.85  873.30 856.96 65.94 1.00
   16:06:03.187.29-Jun-2020 356.74 1574.98  873.30 856.96 65.94 1.00
   16:06:03.387.29-Jun-2020 356.94 1574.89  873.30 856.96 65.94 1.00
   16:06:03.587.29-Jun-2020 357.14 1574.92  873.30 856.96 65.94 1.00
   16:06:03.787.29-Jun-2020 357.34 1574.92  873.30 856.96 65.94 1.00
   16:06:03.987.29-Jun-2020 357.54 1574.82  873.30 856.96 65.94 1.00
   16:06:04.187.29-Jun-2020 357.74 1574.85  873.30 856.96 65.94 1.00
   16:06:04.387.29-Jun-2020 357.94 1574.84  873.30 856.96 65.94 1.00
   16:06:04.587.29-Jun-2020 358.14 1574.85  873.30 856.96 65.94 1.00
   16:06:04.787.29-Jun-2020 358.34 1574.85  873.30 856.96 65.94 1.00
   16:06:04.987.29-Jun-2020 358.54 1574.83  873.30 856.96 65.94 1.00
   16:06:05.187.29-Jun-2020 358.74 1574.82  873.30 856.96 65.94 1.00
   16:06:05.388.29-Jun-2020 358.94 1574.81  873.30 856.96 65.94 1.00
   16:06:05.588.29-Jun-2020 359.14 1574.84  873.30 856.96 65.94 1.00
   16:06:05.788.29-Jun-2020 359.34 1574.84  873.30 856.96 65.94 1.00
   16:06:05.988.29-Jun-2020 359.54 1500.94  873.30 856.96 65.94 1.00
   16:06:06.188.29-Jun-2020 359.74 1446.77  873.30 856.96 65.94 1.00
   16:06:06.388.29-Jun-2020 359.94 1413.96  873.30 856.96 65.94 1.00
   16:06:06.588.29-Jun-2020 360.14 1391.12  873.30 856.96 65.94 1.00
   16:06:06.788.29-Jun-2020 360.34 1397.66  873.30 856.96 65.94 1.00
   16:06:06.988.29-Jun-2020 360.54 1423.37  873.30 856.96 65.94 1.00
   16:06:07.188.29-Jun-2020 360.74 1428.39  873.30 856.96 65.94 1.00
   16:06:07.388.29-Jun-2020 360.94 1484.78  873.30 856.96 65.94 1.00
   16:06:07.588.29-Jun-2020 361.14 1427.58  873.30 856.96 65.94 1.00
   16:06:07.788.29-Jun-2020 361.34 1390.74  873.30 856.96 65.94 1.00
   16:06:07.989.29-Jun-2020 361.54 1425.12  873.30 856.96 65.94 1.00
   16:06:08.189.29-Jun-2020 361.74 1565.27  873.30 856.96 65.94 1.00
   16:06:08.389.29-Jun-2020 361.94 1565.15  873.30 856.96 65.94 1.00
   16:06:08.589.29-Jun-2020 362.14 1566.48  873.30 856.96 65.94 1.00
   16:06:08.789.29-Jun-2020 362.34 1566.48  873.30 856.96 65.94 1.00
   16:06:08.989.29-Jun-2020 362.54 1566.50  873.30 856.96 65.94 1.00
   16:06:09.189.29-Jun-2020 362.74 1566.51  873.30 856.96 65.94 1.00
   16:06:09.389.29-Jun-2020 362.94 1566.61  873.30 856.96 65.94 1.00
   16:06:09.589.29-Jun-2020 363.14 1566.82  873.30 856.96 65.94 1.00
   16:06:09.789.29-Jun-2020 363.34 1566.65  873.30 856.96 65.94 1.00
   16:06:09.989.29-Jun-2020 363.54 1566.77  873.30 856.96 65.94 1.00
   16:06:10.189.29-Jun-2020 363.74 1566.53  873.30 856.96 65.94 1.00
   16:06:10.389.29-Jun-2020 363.94 1566.98  873.30 856.96 65.94 1.00
   16:06:10.589.29-Jun-2020 364.14 1567.01  873.30 856.96 65.94 1.00
   16:06:10.790.29-Jun-2020 364.34 1567.01  873.30 856.96 65.94 1.00
   16:06:10.990.29-Jun-2020 364.54 1566.85  873.30 856.96 65.94 1.00
   16:06:11.190.29-Jun-2020 364.74 1567.52  873.30 856.96 65.94 1.00
   16:06:11.390.29-Jun-2020 364.94 1567.58  873.30 856.96 65.94 1.00
   16:06:11.590.29-Jun-2020 365.14 1567.10  873.30 856.96 65.94 1.00
   16:06:11.790.29-Jun-2020 365.34 1567.67  873.30 856.96 65.94 1.00
   16:06:11.990.29-Jun-2020 365.54 1567.88  873.30 856.96 65.94 1.00
   16:06:12.190.29-Jun-2020 365.74 1568.05  873.30 856.96 65.94 1.00
   16:06:12.390.29-Jun-2020 365.94 1568.01  873.30 856.96 65.94 1.00
   16:06:12.590.29-Jun-2020 366.14 1568.24  873.30 856.96 65.94 1.00
   16:06:12.790.29-Jun-2020 366.34 1568.26  873.30 856.96 65.94 1.00
   16:06:12.990.29-Jun-2020 366.54 1568.30  873.30 856.96 65.94 1.00
   16:06:13.190.29-Jun-2020 366.74 1568.18  873.30 856.96 65.94 1.00
   16:06:13.391.29-Jun-2020 366.94 1568.11  873.30 856.96 65.94 1.00
   16:06:13.591.29-Jun-2020 367.14 1568.09  873.30 856.96 65.94 1.00
   16:06:13.791.29-Jun-2020 367.34 1568.09  873.30 856.96 65.94 1.00
   16:06:13.991.29-Jun-2020 367.54 1568.42  873.30 856.96 65.94 1.00
   16:06:14.191.29-Jun-2020 367.74 1568.39  873.30 856.96 65.94 1.00
   16:06:14.391.29-Jun-2020 367.94 1567.90  873.30 856.96 65.94 1.00
   16:06:14.591.29-Jun-2020 368.14 1568.23  873.30 856.96 65.94 1.00
   16:06:14.791.29-Jun-2020 368.34 1568.23  873.30 856.96 65.94 1.00
   16:06:14.991.29-Jun-2020 368.54 1568.26  873.30 856.96 65.94 1.00
   16:06:15.191.29-Jun-2020 368.74 1568.29  873.30 856.96 65.94 1.00
   16:06:15.391.29-Jun-2020 368.94 1568.30  873.30 856.96 65.94 1.00
   16:06:15.591.29-Jun-2020 369.14 1568.36  873.30 856.96 65.94 1.00
   16:06:15.791.29-Jun-2020 369.34 1568.41  873.30 856.96 65.94 1.00
   16:06:15.992.29-Jun-2020 369.54 1568.31  873.30 856.96 65.94 1.00
   16:06:16.192.29-Jun-2020 369.74 1568.60  873.30 856.96 65.94 1.00
   16:06:16.392.29-Jun-2020 369.94 1572.67  873.30 856.96 65.94 1.00
   16:06:16.592.29-Jun-2020 370.14 1574.52  873.30 856.96 65.94 1.00
   16:06:16.792.29-Jun-2020 370.34 1574.52  873.30 856.96 65.94 1.00
   16:06:16.992.29-Jun-2020 370.54 1574.89  873.30 856.96 65.94 1.00
   16:06:17.192.29-Jun-2020 370.74 1574.96  873.30 856.96 65.94 1.00
   16:06:17.392.29-Jun-2020 370.94 1574.93  873.30 856.96 65.94 1.00
   16:06:17.592.29-Jun-2020 371.14 1574.69  873.30 856.96 65.94 1.00
