~Version Information
 VERS.                  2.0:   CWLS log ASCII Standard -VERSION 2.0
 WRAP.                   NO:   One line per depth step
~Well Information Block
#MNEM.UNIT     VALUE/NAME     DESCRIPTION
#---------     -----------    ---------------------------
 STRT.S             23:54:17 02-Jul-20: START TIME 23:54:17 02-Jul-20
 STOP.S             00:03:12 03-Jul-20: STOP TIME  00:03:12 03-Jul-20
 STEP.S                   0.00: STEP TIME
 NULL.                 -999.25: NULL VALUE
 DFWT.                        :  DIST FWL TEXT
 DFST.                        :  DIST FSL TEXT
 DMF .             Drill Floor:  DRILL MEAS FROM
 STIM.      09.59.28 01-Jun-20:  START TIME
 DATE.      09.59.28 01-Jun-20:  END TIME
 SPUD.               01-Jun-20:  SPUD DATE
 NREF.                    Grid:  NORTH REFERENCE
 HPTY.       Minimum Curvature:  HOLE POS TYPE
 DMOD.             Drill Model:  DRILL MOD DESC
 SVYD.                  Survey:  SURVEY DESC
 ILTD.               Lithology:  INTERP LTH DESC
 FTOP.          Formation Tops:  FORM TOPS DESC
 SON .        AZ-XX-0905455768:  JOB NUMBER
 WTYP.                Deviated:  WELL TYPE
 COMP.     BP Exploration(Caspian Sea):  COMPANY
 BASE.              Azerbaijan:  LOGGING EQUIPMENT BASE LOCATION
 REGN.                   EESSA:  REGION
 CTRY.              Azerbaijan:  COUNTRY NAME
 FLD .                     ACG:  FIELD NAME
 SRVC.          Turan Drilling:  CONTRACTOR
 WELL.                     B41:  WELL NAME
 RIG .           Central Azeri:  RIG NAME
 DCON.         Sperry Drilling:  DIRECTNL CONTR
 PDAT.          Mean Sea Level:  PERMANENT DATUM
 MDS .        Operator Entered:  MAG DATA SOURCE
 API .                        :  API NUMBER
 CNTY.                        :  COUNTY
 PROV.                        :  PROVINCE
 STAT.                        :  STATE
 UWI .                        :  UNIQUE WELL IDENTIFIER
 LOC .                        :  LOCATION
 LMF .             Drill Floor:  LOG MEASURED FROM
 TVDS.m                  43.29:  TVDSS CORRECTN
 LATI.deg                40.03:  LATITUDE
 LONG.deg                51.35:  LONGITUDE
 WHNS.m                  12.98:  WELL HEAD N/S
 WHEW.m                  -6.62:  WELL HEAD E/W
 UTMX.m              530128.28:  UTM X
 UTMY.m             4433192.49:  UTM Y
 DFWL.m                   0.00:  DISTANCE FWL
 DFSL.m                   0.00:  DISTANCE FSL
 SDEP.m                 378.00:  START DEPTH
 TDD .m                   0.00:  TOTAL DEPTH (DRILLER)
 VSDR.deg               296.18:  VERT SEC DIRECT
 GVFD.g                   1.00:  GRAVITY FIELD
 MFLD.nT              50253.00:  MAGNETIC FIELD
 MDIP.deg                59.49:  MAGNETIC DIP
 MDEC.deg                 6.44:  MAGNETIC DECL
 GRDC.deg                 0.22:  GRID CORRECTION
 AZTC.deg                 6.22:  AZM TOTAL CORR
 EPD .m                   0.00:  ELEVATION
 EGL .m                   0.00:  GROUND ELEVATION
 WDMS.m                 128.20:  WD ELEV
 APD .m                  43.29:  DEPTH ABOVE PD
 AGAP.m                  43.29:  AIR GAP
 VSEW.m                  -6.62:  VERT SEC E/W
 VSNS.m                  12.98:  VERT SEC N/S
 EKB .m                  43.29:  KB ELEVATION
 EDF .m                  43.29:  DF ELEVATION
 TDL .m                1152.00:  TOTAL DEPTH (LOGGER)
 VSC .                       0:  VS TO CLOSURE
 MAGU.                 1848525:  MAGUTM CHECKSUM
~Parameter Information Block
#MNEM.UNIT       Value        Description
#---------     -----------    ---------------------------
 AV  .mps                 0.40:  Ann Velocity 
 AVMX.mps                 1.56:  Max Ann Veloc 
 AZIF.deg               300.46:  Azm, Final 
 BHAT.        Rotary Steerable:  BHA Type 
 BROT.°/30m               0.40:  Build Rotating 
 BS  .in                 17.50:  Bit Size 
 BSZ .in                 17.50:  Bit Size 
 BTPL.psig              300.00:  Bit Press Loss 
 CABU.                      No:  Customer Abuse 
 CGEO.          Parviz Guliyev:  Customer Geo 
 COMM.                     ägu:  Run Comments 1 
 TCS .hr                108.13:  Time Ciculation Ended 
 CV  .mps                 0.50:  Crit Velocity 
 CVMX.mps                 2.01:  Max Crit Veloc 
 DD1 .          Fariz Nahmatov:  Direct Drillr 1 
 DD2 .             Ehab Radwan:  Direct Drillr 2 
 DDSV.               Geo-Pilot:  DD Service 
 DEFF.%                  99.00:  % Det Eff 
 DLRX.°/30m               0.50:  Dogleg Rot Max 
 DLSO.°/30m               2.80:  Dogleg Oriented 
 DLSX.°/30m               3.90:  Dogleg Str Max 
 DRET.      09.30.04 03-Jul-20:  Drill End Time 
 DRST.      18.33.04 28-Jun-20:  Drill Start Tim 
 DTIM.hr                 55.83:  Time Drilling 
 EDEP.m                1952.00:  End Depth 
 ENG1.      Bakhtiyar Jabbarli:  Engineer 1 
 ENG2.         Farhad Orujzade:  Engineer 2 
 ENG3.          Rustam Safarov:  Engineer 3 
 ETIM.      01.33.04 04-Jul-20:  End Time 
 FLOI.gpm              1050.00:  Flow In 
 FLON.gpm               950.00:  Flow In Min 
 FLOS.cptm                0.10:  Fluid Loss 
 FLOX.gpm              1150.00:  Flow In Max 
 HFLO.                      No:  High Flow 
 HPRE.                      No:  High Pressure 
 HTEM.                      No:  High Temp 
 HYDO.m                   1.80:  Hydro Offset 
 IFIN.deg                75.26:  Inc, Final 
 IMAX.deg                75.38:  Inc Max 
 IMIN.deg                22.84:  Inc Min 
 IMND.m                 832.38:  Inc Min Depth 
 IMXD.m                1936.55:  Inc Max Depth 
 JARR.                      No:  Jarring 
 LETM.      17.40.00 04-Jul-20:  Log End Time 
 LOST.hr                     0:  Lost Rig Time 
 LSTM.      12.33.04 28-Jun-20:  Log Start Time 
 MDCL.ppm             49500.00:  Mud Chlorides 
 MDES.     Inversion Oil/Synthetic:  Mud Desc 
 DFD .sg                  1.46:  Mud Density 
 MDMN.sg                  1.46:  Dens Mud Min 
 MDMX.sg                  1.46:  Dens Mud Max 
 MOIL.                      70:  Run Mud Oil % 
 MOWR.                   70:30:  Run Mud OWR 
 MSND.                     0.5:  Run Mud Sand % 
 MSOL.                   19.89:  Run Mud Solids% 
 DFV .spqt               72.00:  Mud Viscosity 
 MWOD.in                  9.50:  MWD Tool OD 
 MWSI.                      No:  Serv Intrp, MWD 
 OTIM.hr                146.53:  Time Operating 
 PCON.           Look Like New:  Pad Condition 
 PMAX.psia             2900.00:  Press Op, Max 
 PV  .cP                 38.00:  Mud PV 
 RUN .                     600:  Run Number 
 ROPA.m/hr               22.00:  ROP Avg 
 ROPN.m/hr               10.00:  ROP Min 
 ROPX.m/hr              263.00:  ROP Max 
 RPMA.rpm               155.00:  RPM Surface Avg 
 RPMN.rpm               140.00:  RPM Surface Min 
 RPMX.rpm               160.00:  RPM Surface Max 
 RRUN.                    0600:  Rig Run Number 
 RTIM.hr                  5.00:  Time Reaming 
 SAZI.deg               300.08:  Azm, Start 
 SDEP.m                 800.00:  Start Depth 
 SIDD.                      No:  Serv Intrp, DD 
 SINC.deg                22.84:  Inc, Start 
 SPPA.psig             3000.00:  SPP Avg 
 SPPN.psig             1900.00:  SPP Min 
 SPPX.psig             3200.00:  SPP Max 
 STIM.      12.30.04 28-Jun-20:  Start Time 
 SVCS.                 DD, MWD:  Services 
 SVER.                    9.20:  Sperry Version 
 TDAT.m                1952.00:  Tot Depth Attmp 
 TDDF.                      No:  Trip for DD 
 TDLG.m                1152.00:  Tot Depth Loggd 
 TFF .                      No:  Trip for Fail 
 TQAA.f-kp                8.00:  Torque Abs Avg 
 TQAN.f-kp                5.00:  Torque Abs Min 
 TQAX.f-kp               14.00:  Torque Abs Max 
 TRRT.°/30m               0.50:  Turn Rotating 
 MRT .                  EWR-M5:  Maximum Recorded Temperature 
 TTMX.degC               69.00:  Max Tool Temp 
 VS01.                90610313:  Virtual Str1 SN 
 VS02.                90613431:  Virtual Str2 SN 
 VS03.                90615410:  Virtual Str3 SN 
 WBMN.klb                 6.00:  WOB Min 
 WITN.            Bruce Cheyne:  Customer Rep 
 WITN.             Ayaz Aliyev:  Customer Rep 2 
 WOBA.klb                 6.00:  WOB Avg 
 WOBX.klb                10.00:  WOB Max 
 YP  .lhf2               36.00:  Yield Point 
~Curve Information Block
#MNEM.UNIT                 API CODE     Curve Description
#---------               -----------    ---------------------------
 TIME.HHMMSS            00 000 000 000:  GT Time & Date
 GTET.sec               00 000 000 000:  GT Elapsed Test Time
 GTPQH.psia             00 000 000 000:  GT HR Quartz Pressure
 GTDEPTH.m              00 000 000 000:  GT Depth
 GTTVD.m                00 000 000 000:  GT True Vertical Depth
 GTTQ.degC              00 000 000 000:  GT Quartz Temperature
 GTTN.NONE              00 000 000 000:  GT Test Number
#Other Information
#
#WARRANTY: Halliburton will use its best efforts to furnish customers with 
#accurate information and interpretations that are part of, and incident to, the services 
#provided.  However, Halliburton cannot and does not warrant the accuracy 
#or correctness of such information and interpretations.  Under no circumstances should any 
#such information or interpretation be relied upon as the sole basis for any drilling, 
#completion, production, or financial decision or any procedure involving any risk to the 
#safety of any drilling venture, drilling rig or its crew or any other third party.  The 
#Customer has full responsibility for all drilling, completion and production operation.  
#Halliburton makes no representations or warranties, either expressed or 
#implied, including, but not limited to, the implied warranties of merchantability or fitness 
#for a particular purpose, with respect to the services rendered.  In no event will 
#Halliburton be liable for failure to obtain any particular results or for 
#any damages, including, but not limited to, indirect, special or consequential damages, 
#resulting from the use of any information or interpretation provided by Halliburton.
#
~A           TIME            GTET   GTPQH  GTDEPTH  GTTVD  GTTQ  GTTN 
# ...
   00:00:02.636.03-Jul-2020 345.05 2503.63 1828.92 1344.71 59.06 7.00
   00:00:02.836.03-Jul-2020 345.25 2503.63 1828.92 1344.71 59.06 7.00
   00:00:03.036.03-Jul-2020 345.45 2503.63 1828.92 1344.71 59.06 7.00
   00:00:03.236.03-Jul-2020 345.65 2503.62 1828.92 1344.71 59.06 7.00
   00:00:03.436.03-Jul-2020 345.85 2503.62 1828.92 1344.71 59.06 7.00
   00:00:03.636.03-Jul-2020 346.05 2503.65 1828.92 1344.71 59.06 7.00
   00:00:03.836.03-Jul-2020 346.25 2503.65 1828.92 1344.71 59.06 7.00
   00:00:04.036.03-Jul-2020 346.45 2503.63 1828.92 1344.71 59.06 7.00
   00:00:04.236.03-Jul-2020 346.65 2503.63 1828.92 1344.71 59.06 7.00
   00:00:04.436.03-Jul-2020 346.85 2503.63 1828.92 1344.71 59.06 7.00
   00:00:04.636.03-Jul-2020 347.05 2503.63 1828.92 1344.71 59.06 7.00
   00:00:04.836.03-Jul-2020 347.25 2503.63 1828.92 1344.71 59.06 7.00
   00:00:05.036.03-Jul-2020 347.45 2503.65 1828.92 1344.71 59.06 7.00
   00:00:05.236.03-Jul-2020 347.65 2503.63 1828.92 1344.71 59.06 7.00
   00:00:05.436.03-Jul-2020 347.85 2503.63 1828.92 1344.71 59.06 7.00
   00:00:05.636.03-Jul-2020 348.05 2503.54 1828.92 1344.71 59.06 7.00
   00:00:05.836.03-Jul-2020 348.25 2503.54 1828.92 1344.71 59.06 7.00
   00:00:06.036.03-Jul-2020 348.45 2503.63 1828.92 1344.71 59.06 7.00
   00:00:06.236.03-Jul-2020 348.65 2503.65 1828.92 1344.71 59.06 7.00
   00:00:06.436.03-Jul-2020 348.85 2503.78 1828.92 1344.71 59.06 7.00
   00:00:06.636.03-Jul-2020 349.05 2503.82 1828.92 1344.71 59.06 7.00
   00:00:06.836.03-Jul-2020 349.25 2503.82 1828.92 1344.71 59.06 7.00
   00:00:07.036.03-Jul-2020 349.45 2503.71 1828.92 1344.71 59.06 7.00
   00:00:07.236.03-Jul-2020 349.65 2503.69 1828.92 1344.71 59.06 7.00
   00:00:07.436.03-Jul-2020 349.85 2503.67 1828.92 1344.71 59.06 7.00
   00:00:07.636.03-Jul-2020 350.05 2503.65 1828.92 1344.71 59.06 7.00
   00:00:07.836.03-Jul-2020 350.25 2503.65 1828.92 1344.71 59.06 7.00
   00:00:08.036.03-Jul-2020 350.45 2503.59 1828.92 1344.71 59.06 7.00
   00:00:08.236.03-Jul-2020 350.65 2503.61 1828.92 1344.71 59.06 7.00
   00:00:08.436.03-Jul-2020 350.85 2503.66 1828.92 1344.71 59.06 7.00
   00:00:08.637.03-Jul-2020 351.05 2503.65 1828.92 1344.71 59.06 7.00
   00:00:08.837.03-Jul-2020 351.25 2503.65 1828.92 1344.71 59.06 7.00
   00:00:09.037.03-Jul-2020 351.45 2503.64 1828.92 1344.71 59.06 7.00
   00:00:09.237.03-Jul-2020 351.65 2503.57 1828.92 1344.71 59.06 7.00
   00:00:09.437.03-Jul-2020 351.85 2503.63 1828.92 1344.71 59.06 7.00
   00:00:09.637.03-Jul-2020 352.05 2503.63 1828.92 1344.71 59.06 7.00
   00:00:09.837.03-Jul-2020 352.25 2503.64 1828.92 1344.71 59.06 7.00
   00:00:10.037.03-Jul-2020 352.45 2503.65 1828.92 1344.71 59.06 7.00
   00:00:10.237.03-Jul-2020 352.65 2503.64 1828.92 1344.71 59.06 7.00
   00:00:10.437.03-Jul-2020 352.85 2503.63 1828.92 1344.71 59.06 7.00
   00:00:10.637.03-Jul-2020 353.05 2503.59 1828.92 1344.71 59.06 7.00
   00:00:10.837.03-Jul-2020 353.25 2503.59 1828.92 1344.71 59.06 7.00
   00:00:11.037.03-Jul-2020 353.45 2503.67 1828.92 1344.71 59.06 7.00
   00:00:11.237.03-Jul-2020 353.65 2503.66 1828.92 1344.71 59.06 7.00
   00:00:11.437.03-Jul-2020 353.85 2503.61 1828.92 1344.71 59.06 7.00
   00:00:11.637.03-Jul-2020 354.05 2503.60 1828.92 1344.71 59.06 7.00
   00:00:11.837.03-Jul-2020 354.25 2503.60 1828.92 1344.71 59.06 7.00
   00:00:12.037.03-Jul-2020 354.45 2503.64 1828.92 1344.71 59.06 7.00
   00:00:12.237.03-Jul-2020 354.65 2503.63 1828.92 1344.71 59.06 7.00
   00:00:12.437.03-Jul-2020 354.85 2503.66 1828.92 1344.71 59.06 7.00
   00:00:12.637.03-Jul-2020 355.05 2496.06 1828.92 1344.71 59.06 7.00
   00:00:12.837.03-Jul-2020 355.25 2496.06 1828.92 1344.71 59.06 7.00
   00:00:13.037.03-Jul-2020 355.45 2472.55 1828.92 1344.71 59.06 7.00
   00:00:13.237.03-Jul-2020 355.65 2472.92 1828.92 1344.71 59.06 7.00
   00:00:13.437.03-Jul-2020 355.85 2472.65 1828.92 1344.71 59.06 7.00
   00:00:13.637.03-Jul-2020 356.05 2472.79 1828.92 1344.71 59.06 7.00
   00:00:13.837.03-Jul-2020 356.25 2472.79 1828.92 1344.71 59.06 7.00
   00:00:14.037.03-Jul-2020 356.45 2472.57 1828.92 1344.71 59.06 7.00
   00:00:14.237.03-Jul-2020 356.65 2472.82 1828.92 1344.71 59.06 7.00
   00:00:14.437.03-Jul-2020 356.85 2472.97 1828.92 1344.71 59.06 7.00
   00:00:14.637.03-Jul-2020 357.05 2472.92 1828.92 1344.71 59.06 7.00
   00:00:14.837.03-Jul-2020 357.25 2472.92 1828.92 1344.71 59.06 7.00
   00:00:15.037.03-Jul-2020 357.45 2473.01 1828.92 1344.71 59.06 7.00
   00:00:15.237.03-Jul-2020 357.65 2472.73 1828.92 1344.71 59.06 7.00
   00:00:15.437.03-Jul-2020 357.85 2473.09 1828.92 1344.71 59.06 7.00
   00:00:15.637.03-Jul-2020 358.05 2473.14 1828.92 1344.71 59.06 7.00
   00:00:15.838.03-Jul-2020 358.25 2473.14 1828.92 1344.71 59.06 7.00
   00:00:16.038.03-Jul-2020 358.45 2473.30 1828.92 1344.71 59.06 7.00
   00:00:16.238.03-Jul-2020 358.65 2472.58 1828.92 1344.71 59.06 7.00
   00:00:16.438.03-Jul-2020 358.85 2473.93 1828.92 1344.71 59.06 7.00
   00:00:16.638.03-Jul-2020 359.05 2473.07 1828.92 1344.71 59.06 7.00
   00:00:16.838.03-Jul-2020 359.25 2473.07 1828.92 1344.71 59.06 7.00
   00:00:17.038.03-Jul-2020 359.45 2473.72 1828.92 1344.71 59.06 7.00
   00:00:17.238.03-Jul-2020 359.65 2473.02 1828.92 1344.71 59.06 7.00
   00:00:17.438.03-Jul-2020 359.85 2473.96 1828.92 1344.71 59.06 7.00
   00:00:17.638.03-Jul-2020 360.05 2473.00 1828.92 1344.71 59.06 7.00
   00:00:17.838.03-Jul-2020 360.25 2473.00 1828.92 1344.71 59.06 7.00
   00:00:18.038.03-Jul-2020 360.45 2473.92 1828.92 1344.71 59.06 7.00
   00:00:18.238.03-Jul-2020 360.65 2473.61 1828.92 1344.71 59.06 7.00
   00:00:18.438.03-Jul-2020 360.85 2474.13 1828.92 1344.71 59.06 7.00
   00:00:18.638.03-Jul-2020 361.05 2474.02 1828.92 1344.71 59.06 7.00
   00:00:18.838.03-Jul-2020 361.25 2474.02 1828.92 1344.71 59.06 7.00
   00:00:19.038.03-Jul-2020 361.45 2473.85 1828.92 1344.71 59.06 7.00
   00:00:19.238.03-Jul-2020 361.65 2474.13 1828.92 1344.71 59.06 7.00
   00:00:19.438.03-Jul-2020 361.85 2474.29 1828.92 1344.71 59.06 7.00
   00:00:19.638.03-Jul-2020 362.05 2474.12 1828.92 1344.71 59.06 7.00
   00:00:19.838.03-Jul-2020 362.25 2474.12 1828.92 1344.71 59.06 7.00
   00:00:20.038.03-Jul-2020 362.45 2473.85 1828.92 1344.71 59.06 7.00
   00:00:20.238.03-Jul-2020 362.65 2474.12 1828.92 1344.71 59.06 7.00
   00:00:20.438.03-Jul-2020 362.85 2474.36 1828.92 1344.71 59.06 7.00
   00:00:20.638.03-Jul-2020 363.05 2474.43 1828.92 1344.71 59.06 7.00
   00:00:20.838.03-Jul-2020 363.25 2474.43 1828.92 1344.71 59.06 7.00
   00:00:21.038.03-Jul-2020 363.45 2474.91 1828.92 1344.71 59.06 7.00
   00:00:21.238.03-Jul-2020 363.65 2473.85 1828.92 1344.71 59.06 7.00
   00:00:21.438.03-Jul-2020 363.85 2475.09 1828.92 1344.71 59.06 7.00
   00:00:21.638.03-Jul-2020 364.05 2474.81 1828.92 1344.71 59.06 7.00
   00:00:21.838.03-Jul-2020 364.25 2474.81 1828.92 1344.71 59.06 7.00
   00:00:22.038.03-Jul-2020 364.45 2475.25 1828.92 1344.71 59.06 7.00
   00:00:22.238.03-Jul-2020 364.65 2474.54 1828.92 1344.71 59.06 7.00
   00:00:22.438.03-Jul-2020 364.85 2475.02 1828.92 1344.71 59.06 7.00
   00:00:22.638.03-Jul-2020 365.05 2474.56 1828.92 1344.71 59.06 7.00
   00:00:22.838.03-Jul-2020 365.25 2474.56 1828.92 1344.71 59.06 7.00
   00:00:23.038.03-Jul-2020 365.45 2474.89 1828.92 1344.71 59.06 7.00
   00:00:23.239.03-Jul-2020 365.65 2490.83 1828.92 1344.71 59.06 7.00
   00:00:23.439.03-Jul-2020 365.85 2502.61 1828.92 1344.71 59.06 7.00
   00:00:23.639.03-Jul-2020 366.05 2502.79 1828.92 1344.71 59.06 7.00
   00:00:23.839.03-Jul-2020 366.25 2502.79 1828.92 1344.71 59.06 7.00
   00:00:24.039.03-Jul-2020 366.45 2502.93 1828.92 1344.71 59.06 7.00
   00:00:24.239.03-Jul-2020 366.65 2502.98 1828.92 1344.71 59.05 7.00
   00:00:24.439.03-Jul-2020 366.85 2503.01 1828.92 1344.71 59.06 7.00
   00:00:24.639.03-Jul-2020 367.05 2503.02 1828.92 1344.71 59.06 7.00
   00:00:24.839.03-Jul-2020 367.25 2503.02 1828.92 1344.71 59.06 7.00
   00:00:25.039.03-Jul-2020 367.45 2503.05 1828.92 1344.71 59.05 7.00
   00:00:25.239.03-Jul-2020 367.65 2503.09 1828.92 1344.71 59.06 7.00
   00:00:25.439.03-Jul-2020 367.85 2503.11 1828.92 1344.71 59.06 7.00
