~Version Information
 VERS.                  2.0:   CWLS log ASCII Standard -VERSION 2.0
 WRAP.                   NO:   One line per depth step
~Well Information Block
#MNEM.UNIT     VALUE/NAME     DESCRIPTION
#---------     -----------    ---------------------------
 STRT.S             23:54:17 02-Jul-20: START TIME 23:54:17 02-Jul-20
 STOP.S             00:03:12 03-Jul-20: STOP TIME  00:03:12 03-Jul-20
 STEP.S                   0.00: STEP TIME
 NULL.                 -999.25: NULL VALUE
 DFWT.                        :  DIST FWL TEXT
 DFST.                        :  DIST FSL TEXT
 DMF .             Drill Floor:  DRILL MEAS FROM
 STIM.      09.59.28 01-Jun-20:  START TIME
 DATE.      09.59.28 01-Jun-20:  END TIME
 SPUD.               01-Jun-20:  SPUD DATE
 NREF.                    Grid:  NORTH REFERENCE
 HPTY.       Minimum Curvature:  HOLE POS TYPE
 DMOD.             Drill Model:  DRILL MOD DESC
 SVYD.                  Survey:  SURVEY DESC
 ILTD.               Lithology:  INTERP LTH DESC
 FTOP.          Formation Tops:  FORM TOPS DESC
 SON .        AZ-XX-0905455768:  JOB NUMBER
 WTYP.                Deviated:  WELL TYPE
 COMP.     BP Exploration(Caspian Sea):  COMPANY
 BASE.              Azerbaijan:  LOGGING EQUIPMENT BASE LOCATION
 REGN.                   EESSA:  REGION
 CTRY.              Azerbaijan:  COUNTRY NAME
 FLD .                     ACG:  FIELD NAME
 SRVC.          Turan Drilling:  CONTRACTOR
 WELL.                     B41:  WELL NAME
 RIG .           Central Azeri:  RIG NAME
 DCON.         Sperry Drilling:  DIRECTNL CONTR
 PDAT.          Mean Sea Level:  PERMANENT DATUM
 MDS .        Operator Entered:  MAG DATA SOURCE
 API .                        :  API NUMBER
 CNTY.                        :  COUNTY
 PROV.                        :  PROVINCE
 STAT.                        :  STATE
 UWI .                        :  UNIQUE WELL IDENTIFIER
 LOC .                        :  LOCATION
 LMF .             Drill Floor:  LOG MEASURED FROM
 TVDS.m                  43.29:  TVDSS CORRECTN
 LATI.deg                40.03:  LATITUDE
 LONG.deg                51.35:  LONGITUDE
 WHNS.m                  12.98:  WELL HEAD N/S
 WHEW.m                  -6.62:  WELL HEAD E/W
 UTMX.m              530128.28:  UTM X
 UTMY.m             4433192.49:  UTM Y
 DFWL.m                   0.00:  DISTANCE FWL
 DFSL.m                   0.00:  DISTANCE FSL
 SDEP.m                 378.00:  START DEPTH
 TDD .m                   0.00:  TOTAL DEPTH (DRILLER)
 VSDR.deg               296.18:  VERT SEC DIRECT
 GVFD.g                   1.00:  GRAVITY FIELD
 MFLD.nT              50253.00:  MAGNETIC FIELD
 MDIP.deg                59.49:  MAGNETIC DIP
 MDEC.deg                 6.44:  MAGNETIC DECL
 GRDC.deg                 0.22:  GRID CORRECTION
 AZTC.deg                 6.22:  AZM TOTAL CORR
 EPD .m                   0.00:  ELEVATION
 EGL .m                   0.00:  GROUND ELEVATION
 WDMS.m                 128.20:  WD ELEV
 APD .m                  43.29:  DEPTH ABOVE PD
 AGAP.m                  43.29:  AIR GAP
 VSEW.m                  -6.62:  VERT SEC E/W
 VSNS.m                  12.98:  VERT SEC N/S
 EKB .m                  43.29:  KB ELEVATION
 EDF .m                  43.29:  DF ELEVATION
 TDL .m                1152.00:  TOTAL DEPTH (LOGGER)
 VSC .                       0:  VS TO CLOSURE
 MAGU.                 1848525:  MAGUTM CHECKSUM
~Parameter Information Block
#MNEM.UNIT       Value        Description
#---------     -----------    ---------------------------
 AV  .mps                 0.40:  Ann Velocity 
 AVMX.mps                 1.56:  Max Ann Veloc 
 AZIF.deg               300.46:  Azm, Final 
 BHAT.        Rotary Steerable:  BHA Type 
 BROT.°/30m               0.40:  Build Rotating 
 BS  .in                 17.50:  Bit Size 
 BSZ .in                 17.50:  Bit Size 
 BTPL.psig              300.00:  Bit Press Loss 
 CABU.                      No:  Customer Abuse 
 CGEO.          Parviz Guliyev:  Customer Geo 
 COMM.                     ägu:  Run Comments 1 
 TCS .hr                108.13:  Time Ciculation Ended 
 CV  .mps                 0.50:  Crit Velocity 
 CVMX.mps                 2.01:  Max Crit Veloc 
 DD1 .          Fariz Nahmatov:  Direct Drillr 1 
 DD2 .             Ehab Radwan:  Direct Drillr 2 
 DDSV.               Geo-Pilot:  DD Service 
 DEFF.%                  99.00:  % Det Eff 
 DLRX.°/30m               0.50:  Dogleg Rot Max 
 DLSO.°/30m               2.80:  Dogleg Oriented 
 DLSX.°/30m               3.90:  Dogleg Str Max 
 DRET.      09.30.04 03-Jul-20:  Drill End Time 
 DRST.      18.33.04 28-Jun-20:  Drill Start Tim 
 DTIM.hr                 55.83:  Time Drilling 
 EDEP.m                1952.00:  End Depth 
 ENG1.      Bakhtiyar Jabbarli:  Engineer 1 
 ENG2.         Farhad Orujzade:  Engineer 2 
 ENG3.          Rustam Safarov:  Engineer 3 
 ETIM.      01.33.04 04-Jul-20:  End Time 
 FLOI.gpm              1050.00:  Flow In 
 FLON.gpm               950.00:  Flow In Min 
 FLOS.cptm                0.10:  Fluid Loss 
 FLOX.gpm              1150.00:  Flow In Max 
 HFLO.                      No:  High Flow 
 HPRE.                      No:  High Pressure 
 HTEM.                      No:  High Temp 
 HYDO.m                   1.80:  Hydro Offset 
 IFIN.deg                75.26:  Inc, Final 
 IMAX.deg                75.38:  Inc Max 
 IMIN.deg                22.84:  Inc Min 
 IMND.m                 832.38:  Inc Min Depth 
 IMXD.m                1936.55:  Inc Max Depth 
 JARR.                      No:  Jarring 
 LETM.      17.40.00 04-Jul-20:  Log End Time 
 LOST.hr                     0:  Lost Rig Time 
 LSTM.      12.33.04 28-Jun-20:  Log Start Time 
 MDCL.ppm             49500.00:  Mud Chlorides 
 MDES.     Inversion Oil/Synthetic:  Mud Desc 
 DFD .sg                  1.46:  Mud Density 
 MDMN.sg                  1.46:  Dens Mud Min 
 MDMX.sg                  1.46:  Dens Mud Max 
 MOIL.                      70:  Run Mud Oil % 
 MOWR.                   70:30:  Run Mud OWR 
 MSND.                     0.5:  Run Mud Sand % 
 MSOL.                   19.89:  Run Mud Solids% 
 DFV .spqt               72.00:  Mud Viscosity 
 MWOD.in                  9.50:  MWD Tool OD 
 MWSI.                      No:  Serv Intrp, MWD 
 OTIM.hr                146.53:  Time Operating 
 PCON.           Look Like New:  Pad Condition 
 PMAX.psia             2900.00:  Press Op, Max 
 PV  .cP                 38.00:  Mud PV 
 RUN .                     600:  Run Number 
 ROPA.m/hr               22.00:  ROP Avg 
 ROPN.m/hr               10.00:  ROP Min 
 ROPX.m/hr              263.00:  ROP Max 
 RPMA.rpm               155.00:  RPM Surface Avg 
 RPMN.rpm               140.00:  RPM Surface Min 
 RPMX.rpm               160.00:  RPM Surface Max 
 RRUN.                    0600:  Rig Run Number 
 RTIM.hr                  5.00:  Time Reaming 
 SAZI.deg               300.08:  Azm, Start 
 SDEP.m                 800.00:  Start Depth 
 SIDD.                      No:  Serv Intrp, DD 
 SINC.deg                22.84:  Inc, Start 
 SPPA.psig             3000.00:  SPP Avg 
 SPPN.psig             1900.00:  SPP Min 
 SPPX.psig             3200.00:  SPP Max 
 STIM.      12.30.04 28-Jun-20:  Start Time 
 SVCS.                 DD, MWD:  Services 
 SVER.                    9.20:  Sperry Version 
 TDAT.m                1952.00:  Tot Depth Attmp 
 TDDF.                      No:  Trip for DD 
 TDLG.m                1152.00:  Tot Depth Loggd 
 TFF .                      No:  Trip for Fail 
 TQAA.f-kp                8.00:  Torque Abs Avg 
 TQAN.f-kp                5.00:  Torque Abs Min 
 TQAX.f-kp               14.00:  Torque Abs Max 
 TRRT.°/30m               0.50:  Turn Rotating 
 MRT .                  EWR-M5:  Maximum Recorded Temperature 
 TTMX.degC               69.00:  Max Tool Temp 
 VS01.                90610313:  Virtual Str1 SN 
 VS02.                90613431:  Virtual Str2 SN 
 VS03.                90615410:  Virtual Str3 SN 
 WBMN.klb                 6.00:  WOB Min 
 WITN.            Bruce Cheyne:  Customer Rep 
 WITN.             Ayaz Aliyev:  Customer Rep 2 
 WOBA.klb                 6.00:  WOB Avg 
 WOBX.klb                10.00:  WOB Max 
 YP  .lhf2               36.00:  Yield Point 
~Curve Information Block
#MNEM.UNIT                 API CODE     Curve Description
#---------               -----------    ---------------------------
 TIME.HHMMSS            00 000 000 000:  GT Time & Date
 GTET.sec               00 000 000 000:  GT Elapsed Test Time
 GTPQH.psia             00 000 000 000:  GT HR Quartz Pressure
 GTDEPTH.m              00 000 000 000:  GT Depth
 GTTVD.m                00 000 000 000:  GT True Vertical Depth
 GTTQ.degC              00 000 000 000:  GT Quartz Temperature
 GTTN.NONE              00 000 000 000:  GT Test Number
#Other Information
#
#WARRANTY: Halliburton will use its best efforts to furnish customers with 
#accurate information and interpretations that are part of, and incident to, the services 
#provided.  However, Halliburton cannot and does not warrant the accuracy 
#or correctness of such information and interpretations.  Under no circumstances should any 
#such information or interpretation be relied upon as the sole basis for any drilling, 
#completion, production, or financial decision or any procedure involving any risk to the 
#safety of any drilling venture, drilling rig or its crew or any other third party.  The 
#Customer has full responsibility for all drilling, completion and production operation.  
#Halliburton makes no representations or warranties, either expressed or 
#implied, including, but not limited to, the implied warranties of merchantability or fitness 
#for a particular purpose, with respect to the services rendered.  In no event will 
#Halliburton be liable for failure to obtain any particular results or for 
#any damages, including, but not limited to, indirect, special or consequential damages, 
#resulting from the use of any information or interpretation provided by Halliburton.
#
~A           TIME            GTET   GTPQH  GTDEPTH  GTTVD  GTTQ  GTTN 
# ...
   00:01:11.645.03-Jul-2020 414.06 2503.52 1828.92 1344.71 59.05 7.00
   00:01:11.845.03-Jul-2020 414.26 2503.52 1828.92 1344.71 59.05 7.00
   00:01:12.045.03-Jul-2020 414.46 2503.52 1828.92 1344.71 59.05 7.00
   00:01:12.245.03-Jul-2020 414.66 2503.52 1828.92 1344.71 59.05 7.00
   00:01:12.445.03-Jul-2020 414.86 2503.52 1828.92 1344.71 59.05 7.00
   00:01:12.645.03-Jul-2020 415.06 2503.53 1828.92 1344.71 59.05 7.00
   00:01:12.845.03-Jul-2020 415.26 2503.53 1828.92 1344.71 59.05 7.00
   00:01:13.045.03-Jul-2020 415.46 2503.52 1828.92 1344.71 59.05 7.00
   00:01:13.245.03-Jul-2020 415.66 2503.46 1828.92 1344.71 59.05 7.00
   00:01:13.445.03-Jul-2020 415.86 2503.52 1828.92 1344.71 59.05 7.00
   00:01:13.645.03-Jul-2020 416.06 2503.52 1828.92 1344.71 59.05 7.00
   00:01:13.845.03-Jul-2020 416.26 2503.52 1828.92 1344.71 59.05 7.00
   00:01:14.045.03-Jul-2020 416.46 2503.54 1828.92 1344.71 59.05 7.00
   00:01:14.245.03-Jul-2020 416.66 2503.53 1828.92 1344.71 59.05 7.00
   00:01:14.445.03-Jul-2020 416.86 2503.52 1828.92 1344.71 59.05 7.00
   00:01:14.646.03-Jul-2020 417.06 2503.52 1828.92 1344.71 59.05 7.00
   00:01:14.846.03-Jul-2020 417.26 2503.52 1828.92 1344.71 59.05 7.00
   00:01:15.046.03-Jul-2020 417.46 2503.53 1828.92 1344.71 59.05 7.00
   00:01:15.246.03-Jul-2020 417.66 2503.53 1828.92 1344.71 59.05 7.00
   00:01:15.446.03-Jul-2020 417.86 2503.53 1828.92 1344.71 59.05 7.00
   00:01:15.646.03-Jul-2020 418.06 2503.50 1828.92 1344.71 59.05 7.00
   00:01:15.846.03-Jul-2020 418.26 2503.50 1828.92 1344.71 59.05 7.00
   00:01:16.046.03-Jul-2020 418.46 2503.53 1828.92 1344.71 59.05 7.00
   00:01:16.246.03-Jul-2020 418.66 2503.53 1828.92 1344.71 59.05 7.00
   00:01:16.446.03-Jul-2020 418.86 2503.53 1828.92 1344.71 59.05 7.00
   00:01:16.646.03-Jul-2020 419.06 2503.53 1828.92 1344.71 59.05 7.00
   00:01:16.846.03-Jul-2020 419.26 2503.53 1828.92 1344.71 59.05 7.00
   00:01:17.046.03-Jul-2020 419.46 2503.45 1828.92 1344.71 59.05 7.00
   00:01:17.246.03-Jul-2020 419.66 2503.54 1828.92 1344.71 59.05 7.00
   00:01:17.446.03-Jul-2020 419.86 2503.64 1828.92 1344.71 59.05 7.00
   00:01:17.646.03-Jul-2020 420.06 2503.56 1828.92 1344.71 59.05 7.00
   00:01:17.846.03-Jul-2020 420.26 2503.56 1828.92 1344.71 59.05 7.00
   00:01:18.046.03-Jul-2020 420.46 2503.53 1828.92 1344.71 59.05 7.00
   00:01:18.246.03-Jul-2020 420.66 2503.51 1828.92 1344.71 59.05 7.00
   00:01:18.446.03-Jul-2020 420.86 2503.51 1828.92 1344.71 59.05 7.00
   00:01:18.646.03-Jul-2020 421.06 2503.56 1828.92 1344.71 59.05 7.00
   00:01:18.846.03-Jul-2020 421.26 2503.56 1828.92 1344.71 59.05 7.00
   00:01:19.046.03-Jul-2020 421.46 2503.55 1828.92 1344.71 59.05 7.00
   00:01:19.246.03-Jul-2020 421.66 2503.47 1828.92 1344.71 59.05 7.00
   00:01:19.446.03-Jul-2020 421.86 2503.52 1828.92 1344.71 59.05 7.00
   00:01:19.646.03-Jul-2020 422.06 2503.54 1828.92 1344.71 59.05 7.00
   00:01:19.846.03-Jul-2020 422.26 2503.54 1828.92 1344.71 59.05 7.00
   00:01:20.046.03-Jul-2020 422.46 2503.55 1828.92 1344.71 59.05 7.00
   00:01:20.246.03-Jul-2020 422.66 2503.56 1828.92 1344.71 59.05 7.00
   00:01:20.446.03-Jul-2020 422.86 2503.52 1828.92 1344.71 59.05 7.00
   00:01:20.646.03-Jul-2020 423.06 2503.53 1828.92 1344.71 59.05 7.00
   00:01:20.846.03-Jul-2020 423.26 2503.53 1828.92 1344.71 59.05 7.00
   00:01:21.046.03-Jul-2020 423.46 2503.55 1828.92 1344.71 59.05 7.00
   00:01:21.246.03-Jul-2020 423.66 2503.54 1828.92 1344.71 59.05 7.00
   00:01:21.446.03-Jul-2020 423.86 2503.55 1828.92 1344.71 59.05 7.00
   00:01:21.646.03-Jul-2020 424.06 2503.54 1828.92 1344.71 59.05 7.00
   00:01:21.847.03-Jul-2020 424.26 2503.54 1828.92 1344.71 59.05 7.00
   00:01:22.047.03-Jul-2020 424.46 2503.55 1828.92 1344.71 59.05 7.00
   00:01:22.247.03-Jul-2020 424.66 2503.55 1828.92 1344.71 59.05 7.00
   00:01:22.447.03-Jul-2020 424.86 2503.55 1828.92 1344.71 59.05 7.00
   00:01:22.647.03-Jul-2020 425.06 2503.55 1828.92 1344.71 59.05 7.00
   00:01:22.847.03-Jul-2020 425.26 2503.55 1828.92 1344.71 59.05 7.00
   00:01:23.047.03-Jul-2020 425.46 2503.49 1828.92 1344.71 59.05 7.00
   00:01:23.247.03-Jul-2020 425.66 2503.56 1828.92 1344.71 59.05 7.00
   00:01:23.447.03-Jul-2020 425.86 2503.54 1828.92 1344.71 59.05 7.00
   00:01:23.647.03-Jul-2020 426.06 2503.57 1828.92 1344.71 59.05 7.00
   00:01:23.847.03-Jul-2020 426.26 2503.57 1828.92 1344.71 59.05 7.00
   00:01:24.047.03-Jul-2020 426.46 2503.55 1828.92 1344.71 59.05 7.00
   00:01:24.247.03-Jul-2020 426.66 2503.54 1828.92 1344.71 59.05 7.00
   00:01:24.447.03-Jul-2020 426.86 2503.56 1828.92 1344.71 59.05 7.00
   00:01:24.647.03-Jul-2020 427.06 2503.56 1828.92 1344.71 59.05 7.00
   00:01:24.847.03-Jul-2020 427.26 2503.56 1828.92 1344.71 59.05 7.00
   00:01:25.047.03-Jul-2020 427.46 2503.55 1828.92 1344.71 59.05 7.00
   00:01:25.247.03-Jul-2020 427.66 2503.54 1828.92 1344.71 59.05 7.00
   00:01:25.447.03-Jul-2020 427.86 2503.46 1828.92 1344.71 59.05 7.00
   00:01:25.647.03-Jul-2020 428.06 2503.57 1828.92 1344.71 59.05 7.00
   00:01:25.847.03-Jul-2020 428.26 2503.57 1828.92 1344.71 59.05 7.00
   00:01:26.047.03-Jul-2020 428.46 2503.55 1828.92 1344.71 59.05 7.00
   00:01:26.247.03-Jul-2020 428.66 2503.55 1828.92 1344.71 59.05 7.00
   00:01:26.447.03-Jul-2020 428.86 2503.54 1828.92 1344.71 59.05 7.00
   00:01:26.647.03-Jul-2020 429.06 2503.48 1828.92 1344.71 59.05 7.00
   00:01:26.847.03-Jul-2020 429.26 2503.48 1828.92 1344.71 59.05 7.00
   00:01:27.047.03-Jul-2020 429.46 2503.56 1828.92 1344.71 59.05 7.00
   00:01:27.247.03-Jul-2020 429.66 2503.55 1828.92 1344.71 59.05 7.00
   00:01:27.447.03-Jul-2020 429.86 2503.57 1828.92 1344.71 59.05 7.00
   00:01:27.647.03-Jul-2020 430.06 2503.55 1828.92 1344.71 59.05 7.00
   00:01:27.847.03-Jul-2020 430.26 2503.55 1828.92 1344.71 59.05 7.00
   00:01:28.047.03-Jul-2020 430.46 2503.47 1828.92 1344.71 59.05 7.00
   00:01:28.247.03-Jul-2020 430.66 2503.59 1828.92 1344.71 59.05 7.00
   00:01:28.447.03-Jul-2020 430.86 2503.58 1828.92 1344.71 59.05 7.00
   00:01:28.647.03-Jul-2020 431.06 2503.56 1828.92 1344.71 59.05 7.00
   00:01:28.847.03-Jul-2020 431.26 2503.56 1828.92 1344.71 59.05 7.00
   00:01:29.047.03-Jul-2020 431.46 2503.54 1828.92 1344.71 59.05 7.00
   00:01:29.248.03-Jul-2020 431.66 2503.55 1828.92 1344.71 59.05 7.00
   00:01:29.448.03-Jul-2020 431.86 2503.54 1828.92 1344.71 59.05 7.00
   00:01:29.648.03-Jul-2020 432.06 2503.55 1828.92 1344.71 59.05 7.00
   00:01:29.848.03-Jul-2020 432.26 2503.55 1828.92 1344.71 59.05 7.00
   00:01:30.048.03-Jul-2020 432.46 2503.55 1828.92 1344.71 59.05 7.00
   00:01:30.248.03-Jul-2020 432.66 2503.55 1828.92 1344.71 59.05 7.00
   00:01:30.448.03-Jul-2020 432.86 2503.55 1828.92 1344.71 59.05 7.00
   00:01:30.648.03-Jul-2020 433.06 2503.58 1828.92 1344.71 59.05 7.00
   00:01:30.848.03-Jul-2020 433.26 2503.58 1828.92 1344.71 59.05 7.00
   00:01:31.048.03-Jul-2020 433.46 2503.57 1828.92 1344.71 59.05 7.00
   00:01:31.248.03-Jul-2020 433.66 2503.55 1828.92 1344.71 59.05 7.00
   00:01:31.448.03-Jul-2020 433.86 2503.55 1828.92 1344.71 59.05 7.00
   00:01:31.648.03-Jul-2020 434.06 2503.55 1828.92 1344.71 59.05 7.00
   00:01:31.848.03-Jul-2020 434.26 2503.55 1828.92 1344.71 59.05 7.00
   00:01:32.048.03-Jul-2020 434.46 2503.58 1828.92 1344.71 59.05 7.00
   00:01:32.248.03-Jul-2020 434.66 2503.56 1828.92 1344.71 59.05 7.00
   00:01:32.448.03-Jul-2020 434.86 2503.56 1828.92 1344.71 59.05 7.00
   00:01:32.648.03-Jul-2020 435.06 2503.48 1828.92 1344.71 59.05 7.00
   00:01:32.848.03-Jul-2020 435.26 2503.48 1828.92 1344.71 59.05 7.00
   00:01:33.048.03-Jul-2020 435.46 2503.57 1828.92 1344.71 59.05 7.00
   00:01:33.248.03-Jul-2020 435.66 2503.58 1828.92 1344.71 59.05 7.00
   00:01:33.448.03-Jul-2020 435.86 2503.58 1828.92 1344.71 59.05 7.00
   00:01:33.648.03-Jul-2020 436.06 2503.56 1828.92 1344.71 59.05 7.00
   00:01:33.848.03-Jul-2020 436.26 2503.56 1828.92 1344.71 59.05 7.00
   00:01:34.048.03-Jul-2020 436.46 2503.56 1828.92 1344.71 59.05 7.00
   00:01:34.248.03-Jul-2020 436.66 2503.58 1828.92 1344.71 59.05 7.00
   00:01:34.448.03-Jul-2020 436.86 2503.58 1828.92 1344.71 59.05 7.00
