~Version Information
 VERS.                  2.0:   CWLS log ASCII Standard -VERSION 2.0
 WRAP.                   NO:   One line per depth step
~Well Information Block
#MNEM.UNIT     VALUE/NAME     DESCRIPTION
#---------     -----------    ---------------------------
 STRT.S             20:59:46 30-Jun-20: START TIME 20:59:46 30-Jun-20
 STOP.S             21:08:48 30-Jun-20: STOP TIME  21:08:48 30-Jun-20
 STEP.S                   0.00: STEP TIME
 NULL.                 -999.25: NULL VALUE
 DFWT.                        :  DIST FWL TEXT
 DFST.                        :  DIST FSL TEXT
 DMF .             Drill Floor:  DRILL MEAS FROM
 STIM.      09.59.28 01-Jun-20:  START TIME
 DATE.      09.59.28 01-Jun-20:  END TIME
 SPUD.               01-Jun-20:  SPUD DATE
 NREF.                    Grid:  NORTH REFERENCE
 HPTY.       Minimum Curvature:  HOLE POS TYPE
 DMOD.             Drill Model:  DRILL MOD DESC
 SVYD.                  Survey:  SURVEY DESC
 ILTD.               Lithology:  INTERP LTH DESC
 FTOP.          Formation Tops:  FORM TOPS DESC
 SON .        AZ-XX-0905455768:  JOB NUMBER
 WTYP.                Deviated:  WELL TYPE
 COMP.     BP Exploration(Caspian Sea):  COMPANY
 BASE.              Azerbaijan:  LOGGING EQUIPMENT BASE LOCATION
 REGN.                   EESSA:  REGION
 CTRY.              Azerbaijan:  COUNTRY NAME
 FLD .                     ACG:  FIELD NAME
 SRVC.          Turan Drilling:  CONTRACTOR
 WELL.                     B41:  WELL NAME
 RIG .           Central Azeri:  RIG NAME
 DCON.         Sperry Drilling:  DIRECTNL CONTR
 PDAT.          Mean Sea Level:  PERMANENT DATUM
 MDS .        Operator Entered:  MAG DATA SOURCE
 API .                        :  API NUMBER
 CNTY.                        :  COUNTY
 PROV.                        :  PROVINCE
 STAT.                        :  STATE
 UWI .                        :  UNIQUE WELL IDENTIFIER
 LOC .                        :  LOCATION
 LMF .             Drill Floor:  LOG MEASURED FROM
 TVDS.m                  43.29:  TVDSS CORRECTN
 LATI.deg                40.03:  LATITUDE
 LONG.deg                51.35:  LONGITUDE
 WHNS.m                  12.98:  WELL HEAD N/S
 WHEW.m                  -6.62:  WELL HEAD E/W
 UTMX.m              530128.28:  UTM X
 UTMY.m             4433192.49:  UTM Y
 DFWL.m                   0.00:  DISTANCE FWL
 DFSL.m                   0.00:  DISTANCE FSL
 SDEP.m                 378.00:  START DEPTH
 TDD .m                   0.00:  TOTAL DEPTH (DRILLER)
 VSDR.deg               296.18:  VERT SEC DIRECT
 GVFD.g                   1.00:  GRAVITY FIELD
 MFLD.nT              50253.00:  MAGNETIC FIELD
 MDIP.deg                59.49:  MAGNETIC DIP
 MDEC.deg                 6.44:  MAGNETIC DECL
 GRDC.deg                 0.22:  GRID CORRECTION
 AZTC.deg                 6.22:  AZM TOTAL CORR
 EPD .m                   0.00:  ELEVATION
 EGL .m                   0.00:  GROUND ELEVATION
 WDMS.m                 128.20:  WD ELEV
 APD .m                  43.29:  DEPTH ABOVE PD
 AGAP.m                  43.29:  AIR GAP
 VSEW.m                  -6.62:  VERT SEC E/W
 VSNS.m                  12.98:  VERT SEC N/S
 EKB .m                  43.29:  KB ELEVATION
 EDF .m                  43.29:  DF ELEVATION
 TDL .m                1152.00:  TOTAL DEPTH (LOGGER)
 VSC .                       0:  VS TO CLOSURE
 MAGU.                 1848525:  MAGUTM CHECKSUM
~Parameter Information Block
#MNEM.UNIT       Value        Description
#---------     -----------    ---------------------------
 AV  .mps                 0.40:  Ann Velocity 
 AVMX.mps                 1.56:  Max Ann Veloc 
 AZIF.deg               300.46:  Azm, Final 
 BHAT.        Rotary Steerable:  BHA Type 
 BROT.°/30m               0.40:  Build Rotating 
 BS  .in                 17.50:  Bit Size 
 BSZ .in                 17.50:  Bit Size 
 BTPL.psig              300.00:  Bit Press Loss 
 CABU.                      No:  Customer Abuse 
 CGEO.          Parviz Guliyev:  Customer Geo 
 COMM.                     ÜRt:  Run Comments 1 
 TCS .hr                108.13:  Time Ciculation Ended 
 CV  .mps                 0.50:  Crit Velocity 
 CVMX.mps                 2.01:  Max Crit Veloc 
 DD1 .          Fariz Nahmatov:  Direct Drillr 1 
 DD2 .             Ehab Radwan:  Direct Drillr 2 
 DDSV.               Geo-Pilot:  DD Service 
 DEFF.%                  99.00:  % Det Eff 
 DLRX.°/30m               0.50:  Dogleg Rot Max 
 DLSO.°/30m               2.80:  Dogleg Oriented 
 DLSX.°/30m               3.90:  Dogleg Str Max 
 DRET.      09.30.04 03-Jul-20:  Drill End Time 
 DRST.      18.33.04 28-Jun-20:  Drill Start Tim 
 DTIM.hr                 55.83:  Time Drilling 
 EDEP.m                1952.00:  End Depth 
 ENG1.      Bakhtiyar Jabbarli:  Engineer 1 
 ENG2.         Farhad Orujzade:  Engineer 2 
 ENG3.          Rustam Safarov:  Engineer 3 
 ETIM.      01.33.04 04-Jul-20:  End Time 
 FLOI.gpm              1050.00:  Flow In 
 FLON.gpm               950.00:  Flow In Min 
 FLOS.cptm                0.10:  Fluid Loss 
 FLOX.gpm              1150.00:  Flow In Max 
 HFLO.                      No:  High Flow 
 HPRE.                      No:  High Pressure 
 HTEM.                      No:  High Temp 
 HYDO.m                   1.80:  Hydro Offset 
 IFIN.deg                75.26:  Inc, Final 
 IMAX.deg                75.38:  Inc Max 
 IMIN.deg                22.84:  Inc Min 
 IMND.m                 832.38:  Inc Min Depth 
 IMXD.m                1936.55:  Inc Max Depth 
 JARR.                      No:  Jarring 
 LETM.      17.40.00 04-Jul-20:  Log End Time 
 LOST.hr                     0:  Lost Rig Time 
 LSTM.      12.33.04 28-Jun-20:  Log Start Time 
 MDCL.ppm             49500.00:  Mud Chlorides 
 MDES.     Inversion Oil/Synthetic:  Mud Desc 
 DFD .sg                  1.46:  Mud Density 
 MDMN.sg                  1.46:  Dens Mud Min 
 MDMX.sg                  1.46:  Dens Mud Max 
 MOIL.                      70:  Run Mud Oil % 
 MOWR.                   70:30:  Run Mud OWR 
 MSND.                     0.5:  Run Mud Sand % 
 MSOL.                   19.89:  Run Mud Solids% 
 DFV .spqt               72.00:  Mud Viscosity 
 MWOD.in                  9.50:  MWD Tool OD 
 MWSI.                      No:  Serv Intrp, MWD 
 OTIM.hr                146.53:  Time Operating 
 PCON.           Look Like New:  Pad Condition 
 PMAX.psia             2900.00:  Press Op, Max 
 PV  .cP                 38.00:  Mud PV 
 RUN .                     600:  Run Number 
 ROPA.m/hr               22.00:  ROP Avg 
 ROPN.m/hr               10.00:  ROP Min 
 ROPX.m/hr              263.00:  ROP Max 
 RPMA.rpm               155.00:  RPM Surface Avg 
 RPMN.rpm               140.00:  RPM Surface Min 
 RPMX.rpm               160.00:  RPM Surface Max 
 RRUN.                    0600:  Rig Run Number 
 RTIM.hr                  5.00:  Time Reaming 
 SAZI.deg               300.08:  Azm, Start 
 SDEP.m                 800.00:  Start Depth 
 SIDD.                      No:  Serv Intrp, DD 
 SINC.deg                22.84:  Inc, Start 
 SPPA.psig             3000.00:  SPP Avg 
 SPPN.psig             1900.00:  SPP Min 
 SPPX.psig             3200.00:  SPP Max 
 STIM.      12.30.04 28-Jun-20:  Start Time 
 SVCS.                 DD, MWD:  Services 
 SVER.                    9.20:  Sperry Version 
 TDAT.m                1952.00:  Tot Depth Attmp 
 TDDF.                      No:  Trip for DD 
 TDLG.m                1152.00:  Tot Depth Loggd 
 TFF .                      No:  Trip for Fail 
 TQAA.f-kp                8.00:  Torque Abs Avg 
 TQAN.f-kp                5.00:  Torque Abs Min 
 TQAX.f-kp               14.00:  Torque Abs Max 
 TRRT.°/30m               0.50:  Turn Rotating 
 MRT .                  EWR-M5:  Maximum Recorded Temperature 
 TTMX.degC               69.00:  Max Tool Temp 
 VS01.                90610313:  Virtual Str1 SN 
 VS02.                90613431:  Virtual Str2 SN 
 VS03.                90615410:  Virtual Str3 SN 
 WBMN.klb                 6.00:  WOB Min 
 WITN.            Bruce Cheyne:  Customer Rep 
 WITN.             Ayaz Aliyev:  Customer Rep 2 
 WOBA.klb                 6.00:  WOB Avg 
 WOBX.klb                10.00:  WOB Max 
 YP  .lhf2               36.00:  Yield Point 
~Curve Information Block
#MNEM.UNIT                 API CODE     Curve Description
#---------               -----------    ---------------------------
 TIME.HHMMSS            00 000 000 000:  GT Time & Date
 GTET.sec               00 000 000 000:  GT Elapsed Test Time
 GTPQH.psia             00 000 000 000:  GT HR Quartz Pressure
 GTDEPTH.m              00 000 000 000:  GT Depth
 GTTVD.m                00 000 000 000:  GT True Vertical Depth
 GTTQ.degC              00 000 000 000:  GT Quartz Temperature
 GTTN.NONE              00 000 000 000:  GT Test Number
#Other Information
#
#WARRANTY: Halliburton will use its best efforts to furnish customers with 
#accurate information and interpretations that are part of, and incident to, the services 
#provided.  However, Halliburton cannot and does not warrant the accuracy 
#or correctness of such information and interpretations.  Under no circumstances should any 
#such information or interpretation be relied upon as the sole basis for any drilling, 
#completion, production, or financial decision or any procedure involving any risk to the 
#safety of any drilling venture, drilling rig or its crew or any other third party.  The 
#Customer has full responsibility for all drilling, completion and production operation.  
#Halliburton makes no representations or warranties, either expressed or 
#implied, including, but not limited to, the implied warranties of merchantability or fitness 
#for a particular purpose, with respect to the services rendered.  In no event will 
#Halliburton be liable for failure to obtain any particular results or for 
#any damages, including, but not limited to, indirect, special or consequential damages, 
#resulting from the use of any information or interpretation provided by Halliburton.
#
~A           TIME            GTET   GTPQH  GTDEPTH  GTTVD  GTTQ  GTTN 
# ...
   21:03:59.810.30-Jun-2020 253.05 2105.13 1143.02 1083.79 62.53 3.00
   21:04:00.010.30-Jun-2020 253.25 2105.12 1143.02 1083.79 62.53 3.00
   21:04:00.210.30-Jun-2020 253.45 2105.12 1143.02 1083.79 62.53 3.00
   21:04:00.410.30-Jun-2020 253.65 2105.12 1143.02 1083.79 62.53 3.00
   21:04:00.610.30-Jun-2020 253.85 2105.12 1143.02 1083.79 62.53 3.00
   21:04:00.810.30-Jun-2020 254.05 2105.12 1143.02 1083.79 62.53 3.00
   21:04:01.010.30-Jun-2020 254.25 2105.12 1143.02 1083.79 62.53 3.00
   21:04:01.210.30-Jun-2020 254.45 2105.12 1143.02 1083.79 62.53 3.00
   21:04:01.410.30-Jun-2020 254.65 2105.12 1143.02 1083.79 62.53 3.00
   21:04:01.610.30-Jun-2020 254.85 2105.11 1143.02 1083.79 62.53 3.00
   21:04:01.810.30-Jun-2020 255.05 2105.12 1143.02 1083.79 62.53 3.00
   21:04:02.010.30-Jun-2020 255.25 2105.12 1143.02 1083.79 62.53 3.00
   21:04:02.210.30-Jun-2020 255.45 2105.12 1143.02 1083.79 62.53 3.00
   21:04:02.410.30-Jun-2020 255.65 2105.12 1143.02 1083.79 62.53 3.00
   21:04:02.611.30-Jun-2020 255.85 2105.12 1143.02 1083.79 62.53 3.00
   21:04:02.811.30-Jun-2020 256.05 2105.11 1143.02 1083.79 62.53 3.00
   21:04:03.011.30-Jun-2020 256.25 2105.11 1143.02 1083.79 62.53 3.00
   21:04:03.211.30-Jun-2020 256.45 2105.18 1143.02 1083.79 62.53 3.00
   21:04:03.411.30-Jun-2020 256.65 2105.13 1143.02 1083.79 62.53 3.00
   21:04:03.611.30-Jun-2020 256.85 2105.13 1143.02 1083.79 62.53 3.00
   21:04:03.811.30-Jun-2020 257.05 2105.12 1143.02 1083.79 62.53 3.00
   21:04:04.011.30-Jun-2020 257.25 2105.12 1143.02 1083.79 62.53 3.00
   21:04:04.211.30-Jun-2020 257.45 2105.07 1143.02 1083.79 62.52 3.00
   21:04:04.411.30-Jun-2020 257.65 2105.07 1143.02 1083.79 62.52 3.00
   21:04:04.611.30-Jun-2020 257.85 2105.05 1143.02 1083.79 62.52 3.00
   21:04:04.811.30-Jun-2020 258.05 2105.04 1143.02 1083.79 62.52 3.00
   21:04:05.011.30-Jun-2020 258.25 2105.04 1143.02 1083.79 62.52 3.00
   21:04:05.211.30-Jun-2020 258.45 2105.01 1143.02 1083.79 62.52 3.00
   21:04:05.411.30-Jun-2020 258.65 2105.09 1143.02 1083.79 62.52 3.00
   21:04:05.611.30-Jun-2020 258.85 2105.08 1143.02 1083.79 62.52 3.00
   21:04:05.811.30-Jun-2020 259.05 2105.05 1143.02 1083.79 62.52 3.00
   21:04:06.011.30-Jun-2020 259.25 2105.05 1143.02 1083.79 62.52 3.00
   21:04:06.211.30-Jun-2020 259.45 2104.99 1143.02 1083.79 62.52 3.00
   21:04:06.411.30-Jun-2020 259.65 2105.04 1143.02 1083.79 62.52 3.00
   21:04:06.611.30-Jun-2020 259.85 2105.06 1143.02 1083.79 62.52 3.00
   21:04:06.811.30-Jun-2020 260.05 2105.03 1143.02 1083.79 62.52 3.00
   21:04:07.011.30-Jun-2020 260.25 2105.02 1143.02 1083.79 62.52 3.00
   21:04:07.211.30-Jun-2020 260.45 2105.00 1143.02 1083.79 62.52 3.00
   21:04:07.411.30-Jun-2020 260.65 2105.02 1143.02 1083.79 62.52 3.00
   21:04:07.611.30-Jun-2020 260.85 2105.04 1143.02 1083.79 62.52 3.00
   21:04:07.811.30-Jun-2020 261.05 2105.04 1143.02 1083.79 62.52 3.00
   21:04:08.011.30-Jun-2020 261.25 2105.02 1143.02 1083.79 62.52 3.00
   21:04:08.212.30-Jun-2020 261.45 2105.03 1143.02 1083.79 62.52 3.00
   21:04:08.412.30-Jun-2020 261.65 2104.99 1143.02 1083.79 62.52 3.00
   21:04:08.612.30-Jun-2020 261.85 2104.96 1143.02 1083.79 62.52 3.00
   21:04:08.812.30-Jun-2020 262.05 2105.01 1143.02 1083.79 62.52 3.00
   21:04:09.012.30-Jun-2020 262.25 2105.01 1143.02 1083.79 62.52 3.00
   21:04:09.212.30-Jun-2020 262.45 2105.00 1143.02 1083.79 62.52 3.00
   21:04:09.412.30-Jun-2020 262.65 2105.01 1143.02 1083.79 62.52 3.00
   21:04:09.612.30-Jun-2020 262.85 2105.01 1143.02 1083.79 62.52 3.00
   21:04:09.812.30-Jun-2020 263.05 2104.99 1143.02 1083.79 62.52 3.00
   21:04:10.012.30-Jun-2020 263.25 2104.98 1143.02 1083.79 62.51 3.00
   21:04:10.212.30-Jun-2020 263.45 2104.98 1143.02 1083.79 62.51 3.00
   21:04:10.412.30-Jun-2020 263.65 2104.99 1143.02 1083.79 62.51 3.00
   21:04:10.612.30-Jun-2020 263.85 2104.99 1143.02 1083.79 62.51 3.00
   21:04:10.812.30-Jun-2020 264.05 2104.99 1143.02 1083.79 62.51 3.00
   21:04:11.012.30-Jun-2020 264.25 2104.99 1143.02 1083.79 62.51 3.00
   21:04:11.212.30-Jun-2020 264.45 2104.99 1143.02 1083.79 62.51 3.00
   21:04:11.412.30-Jun-2020 264.65 2105.00 1143.02 1083.79 62.51 3.00
   21:04:11.612.30-Jun-2020 264.85 2105.00 1143.02 1083.79 62.51 3.00
   21:04:11.812.30-Jun-2020 265.05 2104.99 1143.02 1083.79 62.51 3.00
   21:04:12.012.30-Jun-2020 265.25 2104.98 1143.02 1083.79 62.51 3.00
   21:04:12.212.30-Jun-2020 265.45 2104.93 1143.02 1083.79 62.51 3.00
   21:04:12.412.30-Jun-2020 265.65 2105.07 1143.02 1083.79 62.51 3.00
   21:04:12.612.30-Jun-2020 265.85 2105.05 1143.02 1083.79 62.51 3.00
   21:04:12.812.30-Jun-2020 266.05 2105.01 1143.02 1083.79 62.51 3.00
   21:04:13.012.30-Jun-2020 266.25 2105.01 1143.02 1083.79 62.51 3.00
   21:04:13.212.30-Jun-2020 266.45 2105.02 1143.02 1083.79 62.51 3.00
   21:04:13.412.30-Jun-2020 266.65 2105.00 1143.02 1083.79 62.51 3.00
   21:04:13.612.30-Jun-2020 266.85 2104.99 1143.02 1083.79 62.51 3.00
   21:04:13.813.30-Jun-2020 267.05 2104.99 1143.02 1083.79 62.51 3.00
   21:04:14.013.30-Jun-2020 267.25 2104.99 1143.02 1083.79 62.51 3.00
   21:04:14.213.30-Jun-2020 267.45 2104.99 1143.02 1083.79 62.51 3.00
   21:04:14.413.30-Jun-2020 267.65 2104.99 1143.02 1083.79 62.51 3.00
   21:04:14.613.30-Jun-2020 267.85 2104.94 1143.02 1083.79 62.51 3.00
   21:04:14.813.30-Jun-2020 268.05 2105.08 1143.02 1083.79 62.51 3.00
   21:04:15.013.30-Jun-2020 268.25 2105.08 1143.02 1083.79 62.51 3.00
   21:04:15.213.30-Jun-2020 268.45 2105.04 1143.02 1083.79 62.51 3.00
   21:04:15.413.30-Jun-2020 268.65 2105.02 1143.02 1083.79 62.50 3.00
   21:04:15.613.30-Jun-2020 268.85 2104.99 1143.02 1083.79 62.50 3.00
   21:04:15.813.30-Jun-2020 269.05 2105.01 1143.02 1083.79 62.50 3.00
   21:04:16.013.30-Jun-2020 269.25 2105.01 1143.02 1083.79 62.50 3.00
   21:04:16.213.30-Jun-2020 269.45 2105.04 1143.02 1083.79 62.50 3.00
   21:04:16.413.30-Jun-2020 269.65 2105.02 1143.02 1083.79 62.50 3.00
   21:04:16.613.30-Jun-2020 269.85 2105.02 1143.02 1083.79 62.50 3.00
   21:04:16.813.30-Jun-2020 270.05 2104.99 1143.02 1083.79 62.50 3.00
   21:04:17.013.30-Jun-2020 270.25 2104.99 1143.02 1083.79 62.50 3.00
   21:04:17.213.30-Jun-2020 270.45 2105.02 1143.02 1083.79 62.50 3.00
   21:04:17.413.30-Jun-2020 270.65 2105.01 1143.02 1083.79 62.50 3.00
   21:04:17.613.30-Jun-2020 270.85 2105.01 1143.02 1083.79 62.50 3.00
   21:04:17.813.30-Jun-2020 271.05 2105.00 1143.02 1083.79 62.50 3.00
   21:04:18.013.30-Jun-2020 271.25 2105.00 1143.02 1083.79 62.50 3.00
   21:04:18.213.30-Jun-2020 271.45 2105.00 1143.02 1083.79 62.50 3.00
   21:04:18.413.30-Jun-2020 271.65 2105.01 1143.02 1083.79 62.50 3.00
   21:04:18.613.30-Jun-2020 271.85 2105.02 1143.02 1083.79 62.50 3.00
   21:04:18.813.30-Jun-2020 272.05 2105.01 1143.02 1083.79 62.50 3.00
   21:04:19.013.30-Jun-2020 272.25 2105.01 1143.02 1083.79 62.50 3.00
   21:04:19.213.30-Jun-2020 272.45 2105.01 1143.02 1083.79 62.50 3.00
   21:04:19.414.30-Jun-2020 272.65 2105.01 1143.02 1083.79 62.50 3.00
   21:04:19.614.30-Jun-2020 272.85 2105.01 1143.02 1083.79 62.50 3.00
   21:04:19.814.30-Jun-2020 273.05 2105.01 1143.02 1083.79 62.50 3.00
   21:04:20.014.30-Jun-2020 273.25 2105.00 1143.02 1083.79 62.50 3.00
   21:04:20.214.30-Jun-2020 273.45 2105.01 1143.02 1083.79 62.50 3.00
   21:04:20.414.30-Jun-2020 273.65 2105.00 1143.02 1083.79 62.50 3.00
   21:04:20.614.30-Jun-2020 273.85 2105.01 1143.02 1083.79 62.50 3.00
   21:04:20.814.30-Jun-2020 274.05 2105.01 1143.02 1083.79 62.50 3.00
   21:04:21.014.30-Jun-2020 274.25 2105.01 1143.02 1083.79 62.50 3.00
   21:04:21.214.30-Jun-2020 274.45 2105.02 1143.02 1083.79 62.49 3.00
   21:04:21.414.30-Jun-2020 274.65 2105.00 1143.02 1083.79 62.49 3.00
   21:04:21.614.30-Jun-2020 274.85 2104.96 1143.02 1083.79 62.49 3.00
   21:04:21.814.30-Jun-2020 275.05 2105.06 1143.02 1083.79 62.49 3.00
   21:04:22.014.30-Jun-2020 275.25 2105.06 1143.02 1083.79 62.49 3.00
   21:04:22.214.30-Jun-2020 275.45 2105.03 1143.02 1083.79 62.49 3.00
   21:04:22.414.30-Jun-2020 275.65 2105.02 1143.02 1083.79 62.49 3.00
   21:04:22.614.30-Jun-2020 275.85 2105.03 1143.02 1083.79 62.49 3.00
