~Version Information
 VERS.                  2.0:   CWLS log ASCII Standard -VERSION 2.0
 WRAP.                   NO:   One line per depth step
~Well Information Block
#MNEM.UNIT     VALUE/NAME     DESCRIPTION
#---------     -----------    ---------------------------
 STRT.S             06:27:04 01-Jul-20: START TIME 06:27:04 01-Jul-20
 STOP.S             06:36:04 01-Jul-20: STOP TIME  06:36:04 01-Jul-20
 STEP.S                   0.00: STEP TIME
 NULL.                 -999.25: NULL VALUE
 DFWT.                        :  DIST FWL TEXT
 DFST.                        :  DIST FSL TEXT
 DMF .             Drill Floor:  DRILL MEAS FROM
 STIM.      09.59.28 01-Jun-20:  START TIME
 DATE.      09.59.28 01-Jun-20:  END TIME
 SPUD.               01-Jun-20:  SPUD DATE
 NREF.                    Grid:  NORTH REFERENCE
 HPTY.       Minimum Curvature:  HOLE POS TYPE
 DMOD.             Drill Model:  DRILL MOD DESC
 SVYD.                  Survey:  SURVEY DESC
 ILTD.               Lithology:  INTERP LTH DESC
 FTOP.          Formation Tops:  FORM TOPS DESC
 SON .        AZ-XX-0905455768:  JOB NUMBER
 WTYP.                Deviated:  WELL TYPE
 COMP.     BP Exploration(Caspian Sea):  COMPANY
 BASE.              Azerbaijan:  LOGGING EQUIPMENT BASE LOCATION
 REGN.                   EESSA:  REGION
 CTRY.              Azerbaijan:  COUNTRY NAME
 FLD .                     ACG:  FIELD NAME
 SRVC.          Turan Drilling:  CONTRACTOR
 WELL.                     B41:  WELL NAME
 RIG .           Central Azeri:  RIG NAME
 DCON.         Sperry Drilling:  DIRECTNL CONTR
 PDAT.          Mean Sea Level:  PERMANENT DATUM
 MDS .        Operator Entered:  MAG DATA SOURCE
 API .                        :  API NUMBER
 CNTY.                        :  COUNTY
 PROV.                        :  PROVINCE
 STAT.                        :  STATE
 UWI .                        :  UNIQUE WELL IDENTIFIER
 LOC .                        :  LOCATION
 LMF .             Drill Floor:  LOG MEASURED FROM
 TVDS.m                  43.29:  TVDSS CORRECTN
 LATI.deg                40.03:  LATITUDE
 LONG.deg                51.35:  LONGITUDE
 WHNS.m                  12.98:  WELL HEAD N/S
 WHEW.m                  -6.62:  WELL HEAD E/W
 UTMX.m              530128.28:  UTM X
 UTMY.m             4433192.49:  UTM Y
 DFWL.m                   0.00:  DISTANCE FWL
 DFSL.m                   0.00:  DISTANCE FSL
 SDEP.m                 378.00:  START DEPTH
 TDD .m                   0.00:  TOTAL DEPTH (DRILLER)
 VSDR.deg               296.18:  VERT SEC DIRECT
 GVFD.g                   1.00:  GRAVITY FIELD
 MFLD.nT              50253.00:  MAGNETIC FIELD
 MDIP.deg                59.49:  MAGNETIC DIP
 MDEC.deg                 6.44:  MAGNETIC DECL
 GRDC.deg                 0.22:  GRID CORRECTION
 AZTC.deg                 6.22:  AZM TOTAL CORR
 EPD .m                   0.00:  ELEVATION
 EGL .m                   0.00:  GROUND ELEVATION
 WDMS.m                 128.20:  WD ELEV
 APD .m                  43.29:  DEPTH ABOVE PD
 AGAP.m                  43.29:  AIR GAP
 VSEW.m                  -6.62:  VERT SEC E/W
 VSNS.m                  12.98:  VERT SEC N/S
 EKB .m                  43.29:  KB ELEVATION
 EDF .m                  43.29:  DF ELEVATION
 TDL .m                1152.00:  TOTAL DEPTH (LOGGER)
 VSC .                       0:  VS TO CLOSURE
 MAGU.                 1848525:  MAGUTM CHECKSUM
~Parameter Information Block
#MNEM.UNIT       Value        Description
#---------     -----------    ---------------------------
 AV  .mps                 0.40:  Ann Velocity 
 AVMX.mps                 1.56:  Max Ann Veloc 
 AZIF.deg               300.46:  Azm, Final 
 BHAT.        Rotary Steerable:  BHA Type 
 BROT.°/30m               0.40:  Build Rotating 
 BS  .in                 17.50:  Bit Size 
 BSZ .in                 17.50:  Bit Size 
 BTPL.psig              300.00:  Bit Press Loss 
 CABU.                      No:  Customer Abuse 
 CGEO.          Parviz Guliyev:  Customer Geo 
 TCS .hr                108.13:  Time Ciculation Ended 
 CV  .mps                 0.50:  Crit Velocity 
 CVMX.mps                 2.01:  Max Crit Veloc 
 DD1 .          Fariz Nahmatov:  Direct Drillr 1 
 DD2 .             Ehab Radwan:  Direct Drillr 2 
 DDSV.               Geo-Pilot:  DD Service 
 DEFF.%                  99.00:  % Det Eff 
 DLRX.°/30m               0.50:  Dogleg Rot Max 
 DLSO.°/30m               2.80:  Dogleg Oriented 
 DLSX.°/30m               3.90:  Dogleg Str Max 
 DRET.      09.30.04 03-Jul-20:  Drill End Time 
 DRST.      18.33.04 28-Jun-20:  Drill Start Tim 
 DTIM.hr                 55.83:  Time Drilling 
 EDEP.m                1952.00:  End Depth 
 ENG1.      Bakhtiyar Jabbarli:  Engineer 1 
 ENG2.         Farhad Orujzade:  Engineer 2 
 ENG3.          Rustam Safarov:  Engineer 3 
 ETIM.      01.33.04 04-Jul-20:  End Time 
 FLOI.gpm              1050.00:  Flow In 
 FLON.gpm               950.00:  Flow In Min 
 FLOS.cptm                0.10:  Fluid Loss 
 FLOX.gpm              1150.00:  Flow In Max 
 HFLO.                      No:  High Flow 
 HPRE.                      No:  High Pressure 
 HTEM.                      No:  High Temp 
 HYDO.m                   1.80:  Hydro Offset 
 IFIN.deg                75.26:  Inc, Final 
 IMAX.deg                75.38:  Inc Max 
 IMIN.deg                22.84:  Inc Min 
 IMND.m                 832.38:  Inc Min Depth 
 IMXD.m                1936.55:  Inc Max Depth 
 JARR.                      No:  Jarring 
 LETM.      17.40.00 04-Jul-20:  Log End Time 
 LOST.hr                     0:  Lost Rig Time 
 LSTM.      12.33.04 28-Jun-20:  Log Start Time 
 MDCL.ppm             49500.00:  Mud Chlorides 
 MDES.     Inversion Oil/Synthetic:  Mud Desc 
 DFD .sg                  1.46:  Mud Density 
 MDMN.sg                  1.46:  Dens Mud Min 
 MDMX.sg                  1.46:  Dens Mud Max 
 MOIL.                      70:  Run Mud Oil % 
 MOWR.                   70:30:  Run Mud OWR 
 MSND.                     0.5:  Run Mud Sand % 
 MSOL.                   19.89:  Run Mud Solids% 
 DFV .spqt               72.00:  Mud Viscosity 
 MWOD.in                  9.50:  MWD Tool OD 
 MWSI.                      No:  Serv Intrp, MWD 
 OTIM.hr                146.53:  Time Operating 
 PCON.           Look Like New:  Pad Condition 
 PMAX.psia             2900.00:  Press Op, Max 
 PV  .cP                 38.00:  Mud PV 
 RUN .                     600:  Run Number 
 ROPA.m/hr               22.00:  ROP Avg 
 ROPN.m/hr               10.00:  ROP Min 
 ROPX.m/hr              263.00:  ROP Max 
 RPMA.rpm               155.00:  RPM Surface Avg 
 RPMN.rpm               140.00:  RPM Surface Min 
 RPMX.rpm               160.00:  RPM Surface Max 
 RRUN.                    0600:  Rig Run Number 
 RTIM.hr                  5.00:  Time Reaming 
 SAZI.deg               300.08:  Azm, Start 
 SDEP.m                 800.00:  Start Depth 
 SIDD.                      No:  Serv Intrp, DD 
 SINC.deg                22.84:  Inc, Start 
 SPPA.psig             3000.00:  SPP Avg 
 SPPN.psig             1900.00:  SPP Min 
 SPPX.psig             3200.00:  SPP Max 
 STIM.      12.30.04 28-Jun-20:  Start Time 
 SVCS.                 DD, MWD:  Services 
 SVER.                    9.20:  Sperry Version 
 TDAT.m                1952.00:  Tot Depth Attmp 
 TDDF.                      No:  Trip for DD 
 TDLG.m                1152.00:  Tot Depth Loggd 
 TFF .                      No:  Trip for Fail 
 TQAA.f-kp                8.00:  Torque Abs Avg 
 TQAN.f-kp                5.00:  Torque Abs Min 
 TQAX.f-kp               14.00:  Torque Abs Max 
 TRRT.°/30m               0.50:  Turn Rotating 
 MRT .                  EWR-M5:  Maximum Recorded Temperature 
 TTMX.degC               69.00:  Max Tool Temp 
 VS01.                90610313:  Virtual Str1 SN 
 VS02.                90613431:  Virtual Str2 SN 
 VS03.                90615410:  Virtual Str3 SN 
 WBMN.klb                 6.00:  WOB Min 
 WITN.            Bruce Cheyne:  Customer Rep 
 WITN.             Ayaz Aliyev:  Customer Rep 2 
 WOBA.klb                 6.00:  WOB Avg 
 WOBX.klb                10.00:  WOB Max 
 YP  .lhf2               36.00:  Yield Point 
~Curve Information Block
#MNEM.UNIT                 API CODE     Curve Description
#---------               -----------    ---------------------------
 TIME.HHMMSS            00 000 000 000:  GT Time & Date
 GTET.sec               00 000 000 000:  GT Elapsed Test Time
 GTPQH.psia             00 000 000 000:  GT HR Quartz Pressure
 GTDEPTH.m              00 000 000 000:  GT Depth
 GTTVD.m                00 000 000 000:  GT True Vertical Depth
 GTTQ.degC              00 000 000 000:  GT Quartz Temperature
 GTTN.NONE              00 000 000 000:  GT Test Number
#Other Information
#
#WARRANTY: Halliburton will use its best efforts to furnish customers with 
#accurate information and interpretations that are part of, and incident to, the services 
#provided.  However, Halliburton cannot and does not warrant the accuracy 
#or correctness of such information and interpretations.  Under no circumstances should any 
#such information or interpretation be relied upon as the sole basis for any drilling, 
#completion, production, or financial decision or any procedure involving any risk to the 
#safety of any drilling venture, drilling rig or its crew or any other third party.  The 
#Customer has full responsibility for all drilling, completion and production operation.  
#Halliburton makes no representations or warranties, either expressed or 
#implied, including, but not limited to, the implied warranties of merchantability or fitness 
#for a particular purpose, with respect to the services rendered.  In no event will 
#Halliburton be liable for failure to obtain any particular results or for 
#any damages, including, but not limited to, indirect, special or consequential damages, 
#resulting from the use of any information or interpretation provided by Halliburton.
#
~A           TIME            GTET   GTPQH  GTDEPTH  GTTVD  GTTQ  GTTN 
# ...
   06:28:13.000.01-Jul-2020  69.00 2453.90 1257.48 1159.06 54.84 5.00
   06:28:13.200.01-Jul-2020  69.20 2453.90 1257.48 1159.06 54.84 5.00
   06:28:13.400.01-Jul-2020  69.40 2451.62 1257.48 1159.06 54.84 5.00
   06:28:13.600.01-Jul-2020  69.60 2452.76 1257.48 1159.06 54.84 5.00
   06:28:13.800.01-Jul-2020  69.80 2452.77 1257.48 1159.06 54.84 5.00
   06:28:14.000.01-Jul-2020  70.00 2452.70 1257.48 1159.06 54.84 5.00
   06:28:14.200.01-Jul-2020  70.20 2452.70 1257.48 1159.06 54.84 5.00
   06:28:14.400.01-Jul-2020  70.40 2452.87 1257.48 1159.06 54.84 5.00
   06:28:14.600.01-Jul-2020  70.60 2453.20 1257.48 1159.06 54.84 5.00
   06:28:14.800.01-Jul-2020  70.80 2453.18 1257.48 1159.06 54.84 5.00
   06:28:15.000.01-Jul-2020  71.00 2452.55 1257.48 1159.06 54.84 5.00
   06:28:15.200.01-Jul-2020  71.20 2452.75 1257.48 1159.06 54.84 5.00
   06:28:15.400.01-Jul-2020  71.40 2452.79 1257.48 1159.06 54.84 5.00
   06:28:15.600.01-Jul-2020  71.60 2452.74 1257.48 1159.06 54.84 5.00
   06:28:15.800.01-Jul-2020  71.80 2451.39 1257.48 1159.06 54.84 5.00
   06:28:16.000.01-Jul-2020  72.00 2452.46 1257.48 1159.06 54.84 5.00
   06:28:16.200.01-Jul-2020  72.20 2452.46 1257.48 1159.06 54.84 5.00
   06:28:16.400.01-Jul-2020  72.40 2453.28 1257.48 1159.06 54.84 5.00
   06:28:16.600.01-Jul-2020  72.60 2453.73 1257.48 1159.06 54.84 5.00
   06:28:16.800.01-Jul-2020  72.80 2453.46 1257.48 1159.06 54.84 5.00
   06:28:17.000.01-Jul-2020  73.00 2452.03 1257.48 1159.06 54.84 5.00
   06:28:17.200.01-Jul-2020  73.20 2452.03 1257.48 1159.06 54.84 5.00
   06:28:17.400.01-Jul-2020  73.40 2452.94 1257.48 1159.06 54.84 5.00
   06:28:17.600.01-Jul-2020  73.60 2452.87 1257.48 1159.06 54.84 5.00
   06:28:17.800.01-Jul-2020  73.80 2453.41 1257.48 1159.06 54.84 5.00
   06:28:18.000.01-Jul-2020  74.00 2453.57 1257.48 1159.06 54.84 5.00
   06:28:18.200.01-Jul-2020  74.20 2453.57 1257.48 1159.06 54.84 5.00
   06:28:18.400.01-Jul-2020  74.40 2454.43 1257.48 1159.06 54.84 5.00
   06:28:18.600.01-Jul-2020  74.60 2453.99 1257.48 1159.06 54.84 5.00
   06:28:18.800.01-Jul-2020  74.80 2454.28 1257.48 1159.06 54.84 5.00
   06:28:19.000.01-Jul-2020  75.00 2454.97 1257.48 1159.06 54.84 5.00
   06:28:19.200.01-Jul-2020  75.20 2454.34 1257.48 1159.06 54.84 5.00
   06:28:19.400.01-Jul-2020  75.40 2454.11 1257.48 1159.06 54.84 5.00
   06:28:19.600.01-Jul-2020  75.60 2439.49 1257.48 1159.06 54.84 5.00
   06:28:19.800.01-Jul-2020  75.80 2492.33 1257.48 1159.06 54.84 5.00
   06:28:20.000.01-Jul-2020  76.00 2505.72 1257.48 1159.06 54.84 5.00
   06:28:20.200.01-Jul-2020  76.20 2505.72 1257.48 1159.06 54.84 5.00
   06:28:20.400.01-Jul-2020  76.40 2547.56 1257.48 1159.06 54.84 5.00
   06:28:20.600.01-Jul-2020  76.60 2534.83 1257.48 1159.06 54.84 5.00
   06:28:20.800.01-Jul-2020  76.80 2529.10 1257.48 1159.06 54.84 5.00
   06:28:21.000.01-Jul-2020  77.00 2510.05 1257.48 1159.06 54.84 5.00
   06:28:21.200.01-Jul-2020  77.20 2510.05 1257.48 1159.06 54.84 5.00
   06:28:21.400.01-Jul-2020  77.40 2494.69 1257.48 1159.06 54.84 5.00
   06:28:21.600.01-Jul-2020  77.60 2488.59 1257.48 1159.06 54.84 5.00
   06:28:21.800.01-Jul-2020  77.80 2484.37 1257.48 1159.06 54.84 5.00
   06:28:22.000.01-Jul-2020  78.00 2483.19 1257.48 1159.06 54.84 5.00
   06:28:22.200.01-Jul-2020  78.20 2483.19 1257.48 1159.06 54.84 5.00
   06:28:22.400.01-Jul-2020  78.40 2503.30 1257.48 1159.06 54.84 5.00
   06:28:22.600.01-Jul-2020  78.60 2516.43 1257.48 1159.06 54.84 5.00
   06:28:22.800.01-Jul-2020  78.80 2518.00 1257.48 1159.06 54.84 5.00
   06:28:23.000.01-Jul-2020  79.00 2516.00 1257.48 1159.06 54.84 5.00
   06:28:23.200.01-Jul-2020  79.20 2520.11 1257.48 1159.06 54.84 5.00
   06:28:23.400.01-Jul-2020  79.40 2523.70 1257.48 1159.06 54.84 5.00
   06:28:23.600.01-Jul-2020  79.60 2523.56 1257.48 1159.06 54.84 5.00
   06:28:23.800.01-Jul-2020  79.80 2528.92 1257.48 1159.06 54.84 5.00
   06:28:24.000.01-Jul-2020  80.00 2527.23 1257.48 1159.06 54.84 5.00
   06:28:24.200.01-Jul-2020  80.20 2527.23 1257.48 1159.06 54.84 5.00
   06:28:24.400.01-Jul-2020  80.40 2537.62 1257.48 1159.06 54.84 5.00
   06:28:24.600.01-Jul-2020  80.60 2527.33 1257.48 1159.06 54.84 5.00
   06:28:24.800.01-Jul-2020  80.80 2517.97 1257.48 1159.06 54.84 5.00
   06:28:25.000.01-Jul-2020  81.00 2509.04 1257.48 1159.06 54.84 5.00
   06:28:25.200.01-Jul-2020  81.20 2509.04 1257.48 1159.06 54.84 5.00
   06:28:25.400.01-Jul-2020  81.40 2507.67 1257.48 1159.06 54.84 5.00
   06:28:25.600.01-Jul-2020  81.60 2503.70 1257.48 1159.06 54.84 5.00
   06:28:25.800.01-Jul-2020  81.80 2503.58 1257.48 1159.06 54.84 5.00
   06:28:26.000.01-Jul-2020  82.00 2502.72 1257.48 1159.06 54.84 5.00
   06:28:26.200.01-Jul-2020  82.20 2502.72 1257.48 1159.06 54.84 5.00
   06:28:26.400.01-Jul-2020  82.40 2503.11 1257.48 1159.06 54.84 5.00
   06:28:26.600.01-Jul-2020  82.60 2503.00 1257.48 1159.06 54.84 5.00
   06:28:26.800.01-Jul-2020  82.80 2502.45 1257.48 1159.06 54.84 5.00
   06:28:27.000.01-Jul-2020  83.00 2501.71 1257.48 1159.06 54.84 5.00
   06:28:27.200.01-Jul-2020  83.20 2501.71 1257.48 1159.06 54.84 5.00
   06:28:27.400.01-Jul-2020  83.40 2502.05 1257.48 1159.06 54.84 5.00
   06:28:27.600.01-Jul-2020  83.60 2501.36 1257.48 1159.06 54.84 5.00
   06:28:27.800.01-Jul-2020  83.80 2501.40 1257.48 1159.06 54.84 5.00
   06:28:28.000.01-Jul-2020  84.00 2500.56 1257.48 1159.06 54.84 5.00
   06:28:28.200.01-Jul-2020  84.20 2500.56 1257.48 1159.06 54.84 5.00
   06:28:28.400.01-Jul-2020  84.40 2501.02 1257.48 1159.06 54.84 5.00
   06:28:28.600.01-Jul-2020  84.60 2500.80 1257.48 1159.06 54.84 5.00
   06:28:28.800.01-Jul-2020  84.80 2500.90 1257.48 1159.06 54.84 5.00
   06:28:29.000.01-Jul-2020  85.00 2501.37 1257.48 1159.06 54.84 5.00
   06:28:29.200.01-Jul-2020  85.20 2501.37 1257.48 1159.06 54.84 5.00
   06:28:29.400.01-Jul-2020  85.40 2628.86 1257.48 1159.06 54.84 5.00
   06:28:29.600.01-Jul-2020  85.60 2485.86 1257.48 1159.06 54.84 5.00
   06:28:29.800.01-Jul-2020  85.80 2473.98 1257.48 1159.06 54.84 5.00
   06:28:30.000.01-Jul-2020  86.00 2474.76 1257.48 1159.06 54.84 5.00
   06:28:30.200.01-Jul-2020  86.20 2474.76 1257.48 1159.06 54.84 5.00
   06:28:30.400.01-Jul-2020  86.40 2474.04 1257.48 1159.06 54.84 5.00
   06:28:30.600.01-Jul-2020  86.60 2473.61 1257.48 1159.06 54.84 5.00
   06:28:30.800.01-Jul-2020  86.80 2473.50 1257.48 1159.06 54.84 5.00
   06:28:31.000.01-Jul-2020  87.00 2473.37 1257.48 1159.06 54.84 5.00
   06:28:31.200.01-Jul-2020  87.20 2473.18 1257.48 1159.06 54.84 5.00
   06:28:31.400.01-Jul-2020  87.40 2473.18 1257.48 1159.06 54.84 5.00
   06:28:31.600.01-Jul-2020  87.60 2473.24 1257.48 1159.06 54.84 5.00
   06:28:31.800.01-Jul-2020  87.80 2473.14 1257.48 1159.06 54.84 5.00
   06:28:32.000.01-Jul-2020  88.00 2473.03 1257.48 1159.06 54.84 5.00
   06:28:32.200.01-Jul-2020  88.20 2473.03 1257.48 1159.06 54.84 5.00
   06:28:32.400.01-Jul-2020  88.40 2472.43 1257.48 1159.06 54.84 5.00
   06:28:32.600.01-Jul-2020  88.60 2470.62 1257.48 1159.06 54.83 5.00
   06:28:32.800.01-Jul-2020  88.80 2451.48 1257.48 1159.06 54.83 5.00
   06:28:33.000.01-Jul-2020  89.00 2409.32 1257.48 1159.06 54.83 5.00
   06:28:33.200.01-Jul-2020  89.20 2363.90 1257.48 1159.06 54.83 5.00
   06:28:33.400.01-Jul-2020  89.40 2326.94 1257.48 1159.06 54.83 5.00
   06:28:33.600.01-Jul-2020  89.60 2286.38 1257.48 1159.06 54.83 5.00
   06:28:33.800.01-Jul-2020  89.80 2234.37 1257.48 1159.06 54.83 5.00
   06:28:34.000.01-Jul-2020  90.00 2181.88 1257.48 1159.06 54.83 5.00
   06:28:34.200.01-Jul-2020  90.20 2181.88 1257.48 1159.06 54.83 5.00
   06:28:34.400.01-Jul-2020  90.40 2167.51 1257.48 1159.06 54.83 5.00
   06:28:34.600.01-Jul-2020  90.60 2167.73 1257.48 1159.06 54.83 5.00
   06:28:34.800.01-Jul-2020  90.80 2168.13 1257.48 1159.06 54.83 5.00
   06:28:35.000.01-Jul-2020  91.00 2168.35 1257.48 1159.06 54.83 5.00
   06:28:35.200.01-Jul-2020  91.20 2168.35 1257.48 1159.06 54.83 5.00
   06:28:35.400.01-Jul-2020  91.40 2168.57 1257.48 1159.06 54.83 5.00
   06:28:35.600.01-Jul-2020  91.60 2168.57 1257.48 1159.06 54.83 5.00
   06:28:35.800.01-Jul-2020  91.80 2168.56 1257.48 1159.06 54.83 5.00
