~Version Information
 VERS.                  2.0:   CWLS log ASCII Standard -VERSION 2.0
 WRAP.                   NO:   One line per depth step
~Well Information Block
#MNEM.UNIT     VALUE/NAME     DESCRIPTION
#---------     -----------    ---------------------------
 STRT.S             20:59:46 30-Jun-20: START TIME 20:59:46 30-Jun-20
 STOP.S             21:08:48 30-Jun-20: STOP TIME  21:08:48 30-Jun-20
 STEP.S                   0.00: STEP TIME
 NULL.                 -999.25: NULL VALUE
 DFWT.                        :  DIST FWL TEXT
 DFST.                        :  DIST FSL TEXT
 DMF .             Drill Floor:  DRILL MEAS FROM
 STIM.      09.59.28 01-Jun-20:  START TIME
 DATE.      09.59.28 01-Jun-20:  END TIME
 SPUD.               01-Jun-20:  SPUD DATE
 NREF.                    Grid:  NORTH REFERENCE
 HPTY.       Minimum Curvature:  HOLE POS TYPE
 DMOD.             Drill Model:  DRILL MOD DESC
 SVYD.                  Survey:  SURVEY DESC
 ILTD.               Lithology:  INTERP LTH DESC
 FTOP.          Formation Tops:  FORM TOPS DESC
 SON .        AZ-XX-0905455768:  JOB NUMBER
 WTYP.                Deviated:  WELL TYPE
 COMP.     BP Exploration(Caspian Sea):  COMPANY
 BASE.              Azerbaijan:  LOGGING EQUIPMENT BASE LOCATION
 REGN.                   EESSA:  REGION
 CTRY.              Azerbaijan:  COUNTRY NAME
 FLD .                     ACG:  FIELD NAME
 SRVC.          Turan Drilling:  CONTRACTOR
 WELL.                     B41:  WELL NAME
 RIG .           Central Azeri:  RIG NAME
 DCON.         Sperry Drilling:  DIRECTNL CONTR
 PDAT.          Mean Sea Level:  PERMANENT DATUM
 MDS .        Operator Entered:  MAG DATA SOURCE
 API .                        :  API NUMBER
 CNTY.                        :  COUNTY
 PROV.                        :  PROVINCE
 STAT.                        :  STATE
 UWI .                        :  UNIQUE WELL IDENTIFIER
 LOC .                        :  LOCATION
 LMF .             Drill Floor:  LOG MEASURED FROM
 TVDS.m                  43.29:  TVDSS CORRECTN
 LATI.deg                40.03:  LATITUDE
 LONG.deg                51.35:  LONGITUDE
 WHNS.m                  12.98:  WELL HEAD N/S
 WHEW.m                  -6.62:  WELL HEAD E/W
 UTMX.m              530128.28:  UTM X
 UTMY.m             4433192.49:  UTM Y
 DFWL.m                   0.00:  DISTANCE FWL
 DFSL.m                   0.00:  DISTANCE FSL
 SDEP.m                 378.00:  START DEPTH
 TDD .m                   0.00:  TOTAL DEPTH (DRILLER)
 VSDR.deg               296.18:  VERT SEC DIRECT
 GVFD.g                   1.00:  GRAVITY FIELD
 MFLD.nT              50253.00:  MAGNETIC FIELD
 MDIP.deg                59.49:  MAGNETIC DIP
 MDEC.deg                 6.44:  MAGNETIC DECL
 GRDC.deg                 0.22:  GRID CORRECTION
 AZTC.deg                 6.22:  AZM TOTAL CORR
 EPD .m                   0.00:  ELEVATION
 EGL .m                   0.00:  GROUND ELEVATION
 WDMS.m                 128.20:  WD ELEV
 APD .m                  43.29:  DEPTH ABOVE PD
 AGAP.m                  43.29:  AIR GAP
 VSEW.m                  -6.62:  VERT SEC E/W
 VSNS.m                  12.98:  VERT SEC N/S
 EKB .m                  43.29:  KB ELEVATION
 EDF .m                  43.29:  DF ELEVATION
 TDL .m                1152.00:  TOTAL DEPTH (LOGGER)
 VSC .                       0:  VS TO CLOSURE
 MAGU.                 1848525:  MAGUTM CHECKSUM
~Parameter Information Block
#MNEM.UNIT       Value        Description
#---------     -----------    ---------------------------
 AV  .mps                 0.40:  Ann Velocity 
 AVMX.mps                 1.56:  Max Ann Veloc 
 AZIF.deg               300.46:  Azm, Final 
 BHAT.        Rotary Steerable:  BHA Type 
 BROT.°/30m               0.40:  Build Rotating 
 BS  .in                 17.50:  Bit Size 
 BSZ .in                 17.50:  Bit Size 
 BTPL.psig              300.00:  Bit Press Loss 
 CABU.                      No:  Customer Abuse 
 CGEO.          Parviz Guliyev:  Customer Geo 
 COMM.                     ÜRt:  Run Comments 1 
 TCS .hr                108.13:  Time Ciculation Ended 
 CV  .mps                 0.50:  Crit Velocity 
 CVMX.mps                 2.01:  Max Crit Veloc 
 DD1 .          Fariz Nahmatov:  Direct Drillr 1 
 DD2 .             Ehab Radwan:  Direct Drillr 2 
 DDSV.               Geo-Pilot:  DD Service 
 DEFF.%                  99.00:  % Det Eff 
 DLRX.°/30m               0.50:  Dogleg Rot Max 
 DLSO.°/30m               2.80:  Dogleg Oriented 
 DLSX.°/30m               3.90:  Dogleg Str Max 
 DRET.      09.30.04 03-Jul-20:  Drill End Time 
 DRST.      18.33.04 28-Jun-20:  Drill Start Tim 
 DTIM.hr                 55.83:  Time Drilling 
 EDEP.m                1952.00:  End Depth 
 ENG1.      Bakhtiyar Jabbarli:  Engineer 1 
 ENG2.         Farhad Orujzade:  Engineer 2 
 ENG3.          Rustam Safarov:  Engineer 3 
 ETIM.      01.33.04 04-Jul-20:  End Time 
 FLOI.gpm              1050.00:  Flow In 
 FLON.gpm               950.00:  Flow In Min 
 FLOS.cptm                0.10:  Fluid Loss 
 FLOX.gpm              1150.00:  Flow In Max 
 HFLO.                      No:  High Flow 
 HPRE.                      No:  High Pressure 
 HTEM.                      No:  High Temp 
 HYDO.m                   1.80:  Hydro Offset 
 IFIN.deg                75.26:  Inc, Final 
 IMAX.deg                75.38:  Inc Max 
 IMIN.deg                22.84:  Inc Min 
 IMND.m                 832.38:  Inc Min Depth 
 IMXD.m                1936.55:  Inc Max Depth 
 JARR.                      No:  Jarring 
 LETM.      17.40.00 04-Jul-20:  Log End Time 
 LOST.hr                     0:  Lost Rig Time 
 LSTM.      12.33.04 28-Jun-20:  Log Start Time 
 MDCL.ppm             49500.00:  Mud Chlorides 
 MDES.     Inversion Oil/Synthetic:  Mud Desc 
 DFD .sg                  1.46:  Mud Density 
 MDMN.sg                  1.46:  Dens Mud Min 
 MDMX.sg                  1.46:  Dens Mud Max 
 MOIL.                      70:  Run Mud Oil % 
 MOWR.                   70:30:  Run Mud OWR 
 MSND.                     0.5:  Run Mud Sand % 
 MSOL.                   19.89:  Run Mud Solids% 
 DFV .spqt               72.00:  Mud Viscosity 
 MWOD.in                  9.50:  MWD Tool OD 
 MWSI.                      No:  Serv Intrp, MWD 
 OTIM.hr                146.53:  Time Operating 
 PCON.           Look Like New:  Pad Condition 
 PMAX.psia             2900.00:  Press Op, Max 
 PV  .cP                 38.00:  Mud PV 
 RUN .                     600:  Run Number 
 ROPA.m/hr               22.00:  ROP Avg 
 ROPN.m/hr               10.00:  ROP Min 
 ROPX.m/hr              263.00:  ROP Max 
 RPMA.rpm               155.00:  RPM Surface Avg 
 RPMN.rpm               140.00:  RPM Surface Min 
 RPMX.rpm               160.00:  RPM Surface Max 
 RRUN.                    0600:  Rig Run Number 
 RTIM.hr                  5.00:  Time Reaming 
 SAZI.deg               300.08:  Azm, Start 
 SDEP.m                 800.00:  Start Depth 
 SIDD.                      No:  Serv Intrp, DD 
 SINC.deg                22.84:  Inc, Start 
 SPPA.psig             3000.00:  SPP Avg 
 SPPN.psig             1900.00:  SPP Min 
 SPPX.psig             3200.00:  SPP Max 
 STIM.      12.30.04 28-Jun-20:  Start Time 
 SVCS.                 DD, MWD:  Services 
 SVER.                    9.20:  Sperry Version 
 TDAT.m                1952.00:  Tot Depth Attmp 
 TDDF.                      No:  Trip for DD 
 TDLG.m                1152.00:  Tot Depth Loggd 
 TFF .                      No:  Trip for Fail 
 TQAA.f-kp                8.00:  Torque Abs Avg 
 TQAN.f-kp                5.00:  Torque Abs Min 
 TQAX.f-kp               14.00:  Torque Abs Max 
 TRRT.°/30m               0.50:  Turn Rotating 
 MRT .                  EWR-M5:  Maximum Recorded Temperature 
 TTMX.degC               69.00:  Max Tool Temp 
 VS01.                90610313:  Virtual Str1 SN 
 VS02.                90613431:  Virtual Str2 SN 
 VS03.                90615410:  Virtual Str3 SN 
 WBMN.klb                 6.00:  WOB Min 
 WITN.            Bruce Cheyne:  Customer Rep 
 WITN.             Ayaz Aliyev:  Customer Rep 2 
 WOBA.klb                 6.00:  WOB Avg 
 WOBX.klb                10.00:  WOB Max 
 YP  .lhf2               36.00:  Yield Point 
~Curve Information Block
#MNEM.UNIT                 API CODE     Curve Description
#---------               -----------    ---------------------------
 TIME.HHMMSS            00 000 000 000:  GT Time & Date
 GTET.sec               00 000 000 000:  GT Elapsed Test Time
 GTPQH.psia             00 000 000 000:  GT HR Quartz Pressure
 GTDEPTH.m              00 000 000 000:  GT Depth
 GTTVD.m                00 000 000 000:  GT True Vertical Depth
 GTTQ.degC              00 000 000 000:  GT Quartz Temperature
 GTTN.NONE              00 000 000 000:  GT Test Number
#Other Information
#
#WARRANTY: Halliburton will use its best efforts to furnish customers with 
#accurate information and interpretations that are part of, and incident to, the services 
#provided.  However, Halliburton cannot and does not warrant the accuracy 
#or correctness of such information and interpretations.  Under no circumstances should any 
#such information or interpretation be relied upon as the sole basis for any drilling, 
#completion, production, or financial decision or any procedure involving any risk to the 
#safety of any drilling venture, drilling rig or its crew or any other third party.  The 
#Customer has full responsibility for all drilling, completion and production operation.  
#Halliburton makes no representations or warranties, either expressed or 
#implied, including, but not limited to, the implied warranties of merchantability or fitness 
#for a particular purpose, with respect to the services rendered.  In no event will 
#Halliburton be liable for failure to obtain any particular results or for 
#any damages, including, but not limited to, indirect, special or consequential damages, 
#resulting from the use of any information or interpretation provided by Halliburton.
#
~A           TIME            GTET   GTPQH  GTDEPTH  GTTVD  GTTQ  GTTN 
# ...
   21:07:26.847.30-Jun-2020 460.08 2105.07 1143.02 1083.79 62.14 3.00
   21:07:27.047.30-Jun-2020 460.28 2105.07 1143.02 1083.79 62.14 3.00
   21:07:27.247.30-Jun-2020 460.48 2105.07 1143.02 1083.79 62.14 3.00
   21:07:27.447.30-Jun-2020 460.68 2105.07 1143.02 1083.79 62.14 3.00
   21:07:27.647.30-Jun-2020 460.88 2105.05 1143.02 1083.79 62.14 3.00
   21:07:27.847.30-Jun-2020 461.08 2105.05 1143.02 1083.79 62.14 3.00
   21:07:28.047.30-Jun-2020 461.28 2105.05 1143.02 1083.79 62.14 3.00
   21:07:28.247.30-Jun-2020 461.48 2105.05 1143.02 1083.79 62.14 3.00
   21:07:28.447.30-Jun-2020 461.68 2105.06 1143.02 1083.79 62.14 3.00
   21:07:28.647.30-Jun-2020 461.88 2105.05 1143.02 1083.79 62.14 3.00
   21:07:28.847.30-Jun-2020 462.08 2105.04 1143.02 1083.79 62.14 3.00
   21:07:29.047.30-Jun-2020 462.28 2105.04 1143.02 1083.79 62.14 3.00
   21:07:29.247.30-Jun-2020 462.48 2105.04 1143.02 1083.79 62.13 3.00
   21:07:29.447.30-Jun-2020 462.68 2105.04 1143.02 1083.79 62.13 3.00
   21:07:29.647.30-Jun-2020 462.88 2105.04 1143.02 1083.79 62.13 3.00
   21:07:29.848.30-Jun-2020 463.08 2105.04 1143.02 1083.79 62.13 3.00
   21:07:30.048.30-Jun-2020 463.28 2105.04 1143.02 1083.79 62.13 3.00
   21:07:30.248.30-Jun-2020 463.48 2104.99 1143.02 1083.79 62.13 3.00
   21:07:30.448.30-Jun-2020 463.68 2105.05 1143.02 1083.79 62.13 3.00
   21:07:30.648.30-Jun-2020 463.88 2105.05 1143.02 1083.79 62.13 3.00
   21:07:30.848.30-Jun-2020 464.08 2105.05 1143.02 1083.79 62.13 3.00
   21:07:31.048.30-Jun-2020 464.28 2105.05 1143.02 1083.79 62.13 3.00
   21:07:31.248.30-Jun-2020 464.48 2105.05 1143.02 1083.79 62.13 3.00
   21:07:31.448.30-Jun-2020 464.68 2105.05 1143.02 1083.79 62.13 3.00
   21:07:31.648.30-Jun-2020 464.88 2105.03 1143.02 1083.79 62.13 3.00
   21:07:31.848.30-Jun-2020 465.08 2105.04 1143.02 1083.79 62.13 3.00
   21:07:32.048.30-Jun-2020 465.28 2105.04 1143.02 1083.79 62.13 3.00
   21:07:32.248.30-Jun-2020 465.48 2105.04 1143.02 1083.79 62.13 3.00
   21:07:32.448.30-Jun-2020 465.68 2105.03 1143.02 1083.79 62.13 3.00
   21:07:32.648.30-Jun-2020 465.88 2104.99 1143.02 1083.79 62.13 3.00
   21:07:32.848.30-Jun-2020 466.08 2105.07 1143.02 1083.79 62.13 3.00
   21:07:33.048.30-Jun-2020 466.28 2105.07 1143.02 1083.79 62.13 3.00
   21:07:33.248.30-Jun-2020 466.48 2105.06 1143.02 1083.79 62.13 3.00
   21:07:33.448.30-Jun-2020 466.68 2105.05 1143.02 1083.79 62.13 3.00
   21:07:33.648.30-Jun-2020 466.88 2105.06 1143.02 1083.79 62.13 3.00
   21:07:33.848.30-Jun-2020 467.08 2105.02 1143.02 1083.79 62.13 3.00
   21:07:34.048.30-Jun-2020 467.28 2105.02 1143.02 1083.79 62.13 3.00
   21:07:34.248.30-Jun-2020 467.48 2105.07 1143.02 1083.79 62.13 3.00
   21:07:34.448.30-Jun-2020 467.68 2105.05 1143.02 1083.79 62.12 3.00
   21:07:34.648.30-Jun-2020 467.88 2105.06 1143.02 1083.79 62.12 3.00
   21:07:34.848.30-Jun-2020 468.08 2105.02 1143.02 1083.79 62.12 3.00
   21:07:35.048.30-Jun-2020 468.28 2105.07 1143.02 1083.79 62.12 3.00
   21:07:35.248.30-Jun-2020 468.48 2105.07 1143.02 1083.79 62.12 3.00
   21:07:35.449.30-Jun-2020 468.68 2105.05 1143.02 1083.79 62.12 3.00
   21:07:35.649.30-Jun-2020 468.88 2105.06 1143.02 1083.79 62.12 3.00
   21:07:35.849.30-Jun-2020 469.08 2105.05 1143.02 1083.79 62.12 3.00
   21:07:36.049.30-Jun-2020 469.28 2105.05 1143.02 1083.79 62.12 3.00
   21:07:36.249.30-Jun-2020 469.48 2105.06 1143.02 1083.79 62.12 3.00
   21:07:36.449.30-Jun-2020 469.68 2105.07 1143.02 1083.79 62.12 3.00
   21:07:36.649.30-Jun-2020 469.88 2105.05 1143.02 1083.79 62.12 3.00
   21:07:36.849.30-Jun-2020 470.08 2105.06 1143.02 1083.79 62.12 3.00
   21:07:37.049.30-Jun-2020 470.28 2105.06 1143.02 1083.79 62.12 3.00
   21:07:37.249.30-Jun-2020 470.48 2105.04 1143.02 1083.79 62.12 3.00
   21:07:37.449.30-Jun-2020 470.68 2105.05 1143.02 1083.79 62.12 3.00
   21:07:37.649.30-Jun-2020 470.88 2105.04 1143.02 1083.79 62.12 3.00
   21:07:37.849.30-Jun-2020 471.08 2105.05 1143.02 1083.79 62.12 3.00
   21:07:38.049.30-Jun-2020 471.28 2105.05 1143.02 1083.79 62.12 3.00
   21:07:38.249.30-Jun-2020 471.48 2105.04 1143.02 1083.79 62.12 3.00
   21:07:38.449.30-Jun-2020 471.68 2105.05 1143.02 1083.79 62.12 3.00
   21:07:38.649.30-Jun-2020 471.88 2105.05 1143.02 1083.79 62.12 3.00
   21:07:38.849.30-Jun-2020 472.08 2105.05 1143.02 1083.79 62.12 3.00
   21:07:39.049.30-Jun-2020 472.28 2105.06 1143.02 1083.79 62.12 3.00
   21:07:39.249.30-Jun-2020 472.48 2105.05 1143.02 1083.79 62.12 3.00
   21:07:39.449.30-Jun-2020 472.68 2105.04 1143.02 1083.79 62.12 3.00
   21:07:39.649.30-Jun-2020 472.88 2105.03 1143.02 1083.79 62.12 3.00
   21:07:39.849.30-Jun-2020 473.08 2105.03 1143.02 1083.79 62.11 3.00
   21:07:40.049.30-Jun-2020 473.28 2105.06 1143.02 1083.79 62.11 3.00
   21:07:40.249.30-Jun-2020 473.48 2105.07 1143.02 1083.79 62.11 3.00
   21:07:40.449.30-Jun-2020 473.68 2105.05 1143.02 1083.79 62.11 3.00
   21:07:40.649.30-Jun-2020 473.88 2105.06 1143.02 1083.79 62.11 3.00
   21:07:40.849.30-Jun-2020 474.08 2105.06 1143.02 1083.79 62.11 3.00
   21:07:41.050.30-Jun-2020 474.28 2105.06 1143.02 1083.79 62.11 3.00
   21:07:41.250.30-Jun-2020 474.48 2105.04 1143.02 1083.79 62.11 3.00
   21:07:41.450.30-Jun-2020 474.68 2105.05 1143.02 1083.79 62.11 3.00
   21:07:41.650.30-Jun-2020 474.88 2105.04 1143.02 1083.79 62.11 3.00
   21:07:41.850.30-Jun-2020 475.08 2105.05 1143.02 1083.79 62.11 3.00
   21:07:42.050.30-Jun-2020 475.28 2105.05 1143.02 1083.79 62.11 3.00
   21:07:42.250.30-Jun-2020 475.48 2105.04 1143.02 1083.79 62.11 3.00
   21:07:42.450.30-Jun-2020 475.68 2105.08 1143.02 1083.79 62.11 3.00
   21:07:42.650.30-Jun-2020 475.88 2105.08 1143.02 1083.79 62.11 3.00
   21:07:42.850.30-Jun-2020 476.09 2105.07 1143.02 1083.79 62.11 3.00
   21:07:43.050.30-Jun-2020 476.29 2105.07 1143.02 1083.79 62.11 3.00
   21:07:43.250.30-Jun-2020 476.49 2105.03 1143.02 1083.79 62.11 3.00
   21:07:43.450.30-Jun-2020 476.69 2105.09 1143.02 1083.79 62.11 3.00
   21:07:43.650.30-Jun-2020 476.89 2105.07 1143.02 1083.79 62.11 3.00
   21:07:43.850.30-Jun-2020 477.09 2105.08 1143.02 1083.79 62.11 3.00
   21:07:44.050.30-Jun-2020 477.29 2105.08 1143.02 1083.79 62.11 3.00
   21:07:44.250.30-Jun-2020 477.49 2105.03 1143.02 1083.79 62.11 3.00
   21:07:44.450.30-Jun-2020 477.69 2105.09 1143.02 1083.79 62.11 3.00
   21:07:44.650.30-Jun-2020 477.89 2105.08 1143.02 1083.79 62.11 3.00
   21:07:44.850.30-Jun-2020 478.09 2105.07 1143.02 1083.79 62.11 3.00
   21:07:45.050.30-Jun-2020 478.29 2105.07 1143.02 1083.79 62.11 3.00
   21:07:45.250.30-Jun-2020 478.49 2105.06 1143.02 1083.79 62.11 3.00
   21:07:45.450.30-Jun-2020 478.69 2105.02 1143.02 1083.79 62.10 3.00
   21:07:45.650.30-Jun-2020 478.89 2105.05 1143.02 1083.79 62.10 3.00
   21:07:45.850.30-Jun-2020 479.09 2105.08 1143.02 1083.79 62.10 3.00
   21:07:46.050.30-Jun-2020 479.29 2105.08 1143.02 1083.79 62.10 3.00
   21:07:46.250.30-Jun-2020 479.49 2105.06 1143.02 1083.79 62.10 3.00
   21:07:46.450.30-Jun-2020 479.69 2105.06 1143.02 1083.79 62.10 3.00
   21:07:46.651.30-Jun-2020 479.89 2105.06 1143.02 1083.79 62.10 3.00
   21:07:46.851.30-Jun-2020 480.09 2105.06 1143.02 1083.79 62.10 3.00
   21:07:47.051.30-Jun-2020 480.29 2105.05 1143.02 1083.79 62.10 3.00
   21:07:47.251.30-Jun-2020 480.49 2105.05 1143.02 1083.79 62.10 3.00
   21:07:47.451.30-Jun-2020 480.69 2105.04 1143.02 1083.79 62.10 3.00
   21:07:47.651.30-Jun-2020 480.89 2105.05 1143.02 1083.79 62.10 3.00
   21:07:47.851.30-Jun-2020 481.09 2105.04 1143.02 1083.79 62.10 3.00
   21:07:48.051.30-Jun-2020 481.29 2105.04 1143.02 1083.79 62.10 3.00
   21:07:48.251.30-Jun-2020 481.49 2105.04 1143.02 1083.79 62.10 3.00
   21:07:48.451.30-Jun-2020 481.69 2105.05 1143.02 1083.79 62.10 3.00
   21:07:48.651.30-Jun-2020 481.89 2105.04 1143.02 1083.79 62.10 3.00
   21:07:48.851.30-Jun-2020 482.09 2105.04 1143.02 1083.79 62.10 3.00
   21:07:49.051.30-Jun-2020 482.29 2105.04 1143.02 1083.79 62.10 3.00
   21:07:49.251.30-Jun-2020 482.49 2105.00 1143.02 1083.79 62.10 3.00
   21:07:49.451.30-Jun-2020 482.69 2105.05 1143.02 1083.79 62.10 3.00
   21:07:49.651.30-Jun-2020 482.89 2105.05 1143.02 1083.79 62.10 3.00
