~Version Information
 VERS.                  2.0:   CWLS log ASCII Standard -VERSION 2.0
 WRAP.                   NO:   One line per depth step
~Well Information Block
#MNEM.UNIT     VALUE/NAME     DESCRIPTION
#---------     -----------    ---------------------------
 STRT.S             04:11:34 02-Jul-20: START TIME 04:11:34 02-Jul-20
 STOP.S             04:20:35 02-Jul-20: STOP TIME  04:20:35 02-Jul-20
 STEP.S                   0.00: STEP TIME
 NULL.                 -999.25: NULL VALUE
 DFWT.                        :  DIST FWL TEXT
 DFST.                        :  DIST FSL TEXT
 DMF .             Drill Floor:  DRILL MEAS FROM
 STIM.      09.59.28 01-Jun-20:  START TIME
 DATE.      09.59.28 01-Jun-20:  END TIME
 SPUD.               01-Jun-20:  SPUD DATE
 NREF.                    Grid:  NORTH REFERENCE
 HPTY.       Minimum Curvature:  HOLE POS TYPE
 DMOD.             Drill Model:  DRILL MOD DESC
 SVYD.                  Survey:  SURVEY DESC
 ILTD.               Lithology:  INTERP LTH DESC
 FTOP.          Formation Tops:  FORM TOPS DESC
 SON .        AZ-XX-0905455768:  JOB NUMBER
 WTYP.                Deviated:  WELL TYPE
 COMP.     BP Exploration(Caspian Sea):  COMPANY
 BASE.              Azerbaijan:  LOGGING EQUIPMENT BASE LOCATION
 REGN.                   EESSA:  REGION
 CTRY.              Azerbaijan:  COUNTRY NAME
 FLD .                     ACG:  FIELD NAME
 SRVC.          Turan Drilling:  CONTRACTOR
 WELL.                     B41:  WELL NAME
 RIG .           Central Azeri:  RIG NAME
 DCON.         Sperry Drilling:  DIRECTNL CONTR
 PDAT.          Mean Sea Level:  PERMANENT DATUM
 MDS .        Operator Entered:  MAG DATA SOURCE
 API .                        :  API NUMBER
 CNTY.                        :  COUNTY
 PROV.                        :  PROVINCE
 STAT.                        :  STATE
 UWI .                        :  UNIQUE WELL IDENTIFIER
 LOC .                        :  LOCATION
 LMF .             Drill Floor:  LOG MEASURED FROM
 TVDS.m                  43.29:  TVDSS CORRECTN
 LATI.deg                40.03:  LATITUDE
 LONG.deg                51.35:  LONGITUDE
 WHNS.m                  12.98:  WELL HEAD N/S
 WHEW.m                  -6.62:  WELL HEAD E/W
 UTMX.m              530128.28:  UTM X
 UTMY.m             4433192.49:  UTM Y
 DFWL.m                   0.00:  DISTANCE FWL
 DFSL.m                   0.00:  DISTANCE FSL
 SDEP.m                 378.00:  START DEPTH
 TDD .m                   0.00:  TOTAL DEPTH (DRILLER)
 VSDR.deg               296.18:  VERT SEC DIRECT
 GVFD.g                   1.00:  GRAVITY FIELD
 MFLD.nT              50253.00:  MAGNETIC FIELD
 MDIP.deg                59.49:  MAGNETIC DIP
 MDEC.deg                 6.44:  MAGNETIC DECL
 GRDC.deg                 0.22:  GRID CORRECTION
 AZTC.deg                 6.22:  AZM TOTAL CORR
 EPD .m                   0.00:  ELEVATION
 EGL .m                   0.00:  GROUND ELEVATION
 WDMS.m                 128.20:  WD ELEV
 APD .m                  43.29:  DEPTH ABOVE PD
 AGAP.m                  43.29:  AIR GAP
 VSEW.m                  -6.62:  VERT SEC E/W
 VSNS.m                  12.98:  VERT SEC N/S
 EKB .m                  43.29:  KB ELEVATION
 EDF .m                  43.29:  DF ELEVATION
 TDL .m                1152.00:  TOTAL DEPTH (LOGGER)
 VSC .                       0:  VS TO CLOSURE
 MAGU.                 1848525:  MAGUTM CHECKSUM
~Parameter Information Block
#MNEM.UNIT       Value        Description
#---------     -----------    ---------------------------
 AV  .mps                 0.40:  Ann Velocity 
 AVMX.mps                 1.56:  Max Ann Veloc 
 AZIF.deg               300.46:  Azm, Final 
 BHAT.        Rotary Steerable:  BHA Type 
 BROT.°/30m               0.40:  Build Rotating 
 BS  .in                 17.50:  Bit Size 
 BSZ .in                 17.50:  Bit Size 
 BTPL.psig              300.00:  Bit Press Loss 
 CABU.                      No:  Customer Abuse 
 CGEO.          Parviz Guliyev:  Customer Geo 
 TCS .hr                108.13:  Time Ciculation Ended 
 CV  .mps                 0.50:  Crit Velocity 
 CVMX.mps                 2.01:  Max Crit Veloc 
 DD1 .          Fariz Nahmatov:  Direct Drillr 1 
 DD2 .             Ehab Radwan:  Direct Drillr 2 
 DDSV.               Geo-Pilot:  DD Service 
 DEFF.%                  99.00:  % Det Eff 
 DLRX.°/30m               0.50:  Dogleg Rot Max 
 DLSO.°/30m               2.80:  Dogleg Oriented 
 DLSX.°/30m               3.90:  Dogleg Str Max 
 DRET.      09.30.04 03-Jul-20:  Drill End Time 
 DRST.      18.33.04 28-Jun-20:  Drill Start Tim 
 DTIM.hr                 55.83:  Time Drilling 
 EDEP.m                1952.00:  End Depth 
 ENG1.      Bakhtiyar Jabbarli:  Engineer 1 
 ENG2.         Farhad Orujzade:  Engineer 2 
 ENG3.          Rustam Safarov:  Engineer 3 
 ETIM.      01.33.04 04-Jul-20:  End Time 
 FLOI.gpm              1050.00:  Flow In 
 FLON.gpm               950.00:  Flow In Min 
 FLOS.cptm                0.10:  Fluid Loss 
 FLOX.gpm              1150.00:  Flow In Max 
 HFLO.                      No:  High Flow 
 HPRE.                      No:  High Pressure 
 HTEM.                      No:  High Temp 
 HYDO.m                   1.80:  Hydro Offset 
 IFIN.deg                75.26:  Inc, Final 
 IMAX.deg                75.38:  Inc Max 
 IMIN.deg                22.84:  Inc Min 
 IMND.m                 832.38:  Inc Min Depth 
 IMXD.m                1936.55:  Inc Max Depth 
 JARR.                      No:  Jarring 
 LETM.      17.40.00 04-Jul-20:  Log End Time 
 LOST.hr                     0:  Lost Rig Time 
 LSTM.      12.33.04 28-Jun-20:  Log Start Time 
 MDCL.ppm             49500.00:  Mud Chlorides 
 MDES.     Inversion Oil/Synthetic:  Mud Desc 
 DFD .sg                  1.46:  Mud Density 
 MDMN.sg                  1.46:  Dens Mud Min 
 MDMX.sg                  1.46:  Dens Mud Max 
 MOIL.                      70:  Run Mud Oil % 
 MOWR.                   70:30:  Run Mud OWR 
 MSND.                     0.5:  Run Mud Sand % 
 MSOL.                   19.89:  Run Mud Solids% 
 DFV .spqt               72.00:  Mud Viscosity 
 MWOD.in                  9.50:  MWD Tool OD 
 MWSI.                      No:  Serv Intrp, MWD 
 OTIM.hr                146.53:  Time Operating 
 PCON.           Look Like New:  Pad Condition 
 PMAX.psia             2900.00:  Press Op, Max 
 PV  .cP                 38.00:  Mud PV 
 RUN .                     600:  Run Number 
 ROPA.m/hr               22.00:  ROP Avg 
 ROPN.m/hr               10.00:  ROP Min 
 ROPX.m/hr              263.00:  ROP Max 
 RPMA.rpm               155.00:  RPM Surface Avg 
 RPMN.rpm               140.00:  RPM Surface Min 
 RPMX.rpm               160.00:  RPM Surface Max 
 RRUN.                    0600:  Rig Run Number 
 RTIM.hr                  5.00:  Time Reaming 
 SAZI.deg               300.08:  Azm, Start 
 SDEP.m                 800.00:  Start Depth 
 SIDD.                      No:  Serv Intrp, DD 
 SINC.deg                22.84:  Inc, Start 
 SPPA.psig             3000.00:  SPP Avg 
 SPPN.psig             1900.00:  SPP Min 
 SPPX.psig             3200.00:  SPP Max 
 STIM.      12.30.04 28-Jun-20:  Start Time 
 SVCS.                 DD, MWD:  Services 
 SVER.                    9.20:  Sperry Version 
 TDAT.m                1952.00:  Tot Depth Attmp 
 TDDF.                      No:  Trip for DD 
 TDLG.m                1152.00:  Tot Depth Loggd 
 TFF .                      No:  Trip for Fail 
 TQAA.f-kp                8.00:  Torque Abs Avg 
 TQAN.f-kp                5.00:  Torque Abs Min 
 TQAX.f-kp               14.00:  Torque Abs Max 
 TRRT.°/30m               0.50:  Turn Rotating 
 MRT .                  EWR-M5:  Maximum Recorded Temperature 
 TTMX.degC               69.00:  Max Tool Temp 
 VS01.                90610313:  Virtual Str1 SN 
 VS02.                90613431:  Virtual Str2 SN 
 VS03.                90615410:  Virtual Str3 SN 
 WBMN.klb                 6.00:  WOB Min 
 WITN.            Bruce Cheyne:  Customer Rep 
 WITN.             Ayaz Aliyev:  Customer Rep 2 
 WOBA.klb                 6.00:  WOB Avg 
 WOBX.klb                10.00:  WOB Max 
 YP  .lhf2               36.00:  Yield Point 
~Curve Information Block
#MNEM.UNIT                 API CODE     Curve Description
#---------               -----------    ---------------------------
 TIME.HHMMSS            00 000 000 000:  GT Time & Date
 GTET.sec               00 000 000 000:  GT Elapsed Test Time
 GTPQH.psia             00 000 000 000:  GT HR Quartz Pressure
 GTDEPTH.m              00 000 000 000:  GT Depth
 GTTVD.m                00 000 000 000:  GT True Vertical Depth
 GTTQ.degC              00 000 000 000:  GT Quartz Temperature
 GTTN.NONE              00 000 000 000:  GT Test Number
#Other Information
#
#WARRANTY: Halliburton will use its best efforts to furnish customers with 
#accurate information and interpretations that are part of, and incident to, the services 
#provided.  However, Halliburton cannot and does not warrant the accuracy 
#or correctness of such information and interpretations.  Under no circumstances should any 
#such information or interpretation be relied upon as the sole basis for any drilling, 
#completion, production, or financial decision or any procedure involving any risk to the 
#safety of any drilling venture, drilling rig or its crew or any other third party.  The 
#Customer has full responsibility for all drilling, completion and production operation.  
#Halliburton makes no representations or warranties, either expressed or 
#implied, including, but not limited to, the implied warranties of merchantability or fitness 
#for a particular purpose, with respect to the services rendered.  In no event will 
#Halliburton be liable for failure to obtain any particular results or for 
#any damages, including, but not limited to, indirect, special or consequential damages, 
#resulting from the use of any information or interpretation provided by Halliburton.
#
~A           TIME            GTET   GTPQH  GTDEPTH  GTTVD  GTTQ  GTTN 
# ...
   04:16:56.422.02-Jul-2020 322.05 2364.25 1565.98 1276.49 58.25 6.00
   04:16:56.623.02-Jul-2020 322.25 2364.25 1565.98 1276.49 58.25 6.00
   04:16:56.823.02-Jul-2020 322.45 2364.28 1565.98 1276.49 58.25 6.00
   04:16:57.023.02-Jul-2020 322.65 2364.29 1565.98 1276.49 58.25 6.00
   04:16:57.223.02-Jul-2020 322.85 2364.28 1565.98 1276.49 58.26 6.00
   04:16:57.423.02-Jul-2020 323.05 2364.30 1565.98 1276.49 58.26 6.00
   04:16:57.623.02-Jul-2020 323.25 2364.30 1565.98 1276.49 58.26 6.00
   04:16:57.823.02-Jul-2020 323.45 2364.30 1565.98 1276.49 58.26 6.00
   04:16:58.023.02-Jul-2020 323.65 2364.32 1565.98 1276.49 58.26 6.00
   04:16:58.223.02-Jul-2020 323.85 2364.31 1565.98 1276.49 58.26 6.00
   04:16:58.423.02-Jul-2020 324.05 2364.29 1565.98 1276.49 58.26 6.00
   04:16:58.623.02-Jul-2020 324.25 2364.32 1565.98 1276.49 58.26 6.00
   04:16:58.823.02-Jul-2020 324.45 2364.31 1565.98 1276.49 58.26 6.00
   04:16:59.023.02-Jul-2020 324.65 2364.31 1565.98 1276.49 58.26 6.00
   04:16:59.223.02-Jul-2020 324.85 2364.33 1565.98 1276.49 58.26 6.00
   04:16:59.423.02-Jul-2020 325.05 2364.31 1565.98 1276.49 58.26 6.00
   04:16:59.623.02-Jul-2020 325.25 2364.31 1565.98 1276.49 58.26 6.00
   04:16:59.823.02-Jul-2020 325.45 2364.25 1565.98 1276.49 58.26 6.00
   04:17:00.023.02-Jul-2020 325.65 2364.28 1565.98 1276.49 58.26 6.00
   04:17:00.223.02-Jul-2020 325.85 2364.31 1565.98 1276.49 58.26 6.00
   04:17:00.423.02-Jul-2020 326.05 2364.26 1565.98 1276.49 58.26 6.00
   04:17:00.623.02-Jul-2020 326.25 2364.26 1565.98 1276.49 58.26 6.00
   04:17:00.823.02-Jul-2020 326.45 2364.31 1565.98 1276.49 58.26 6.00
   04:17:01.023.02-Jul-2020 326.65 2364.28 1565.98 1276.49 58.26 6.00
   04:17:01.223.02-Jul-2020 326.85 2364.28 1565.98 1276.49 58.26 6.00
   04:17:01.423.02-Jul-2020 327.05 2364.32 1565.98 1276.49 58.26 6.00
   04:17:01.623.02-Jul-2020 327.25 2364.28 1565.98 1276.49 58.26 6.00
   04:17:01.823.02-Jul-2020 327.45 2364.30 1565.98 1276.49 58.26 6.00
   04:17:02.023.02-Jul-2020 327.65 2364.32 1565.98 1276.49 58.26 6.00
   04:17:02.223.02-Jul-2020 327.85 2364.29 1565.98 1276.49 58.27 6.00
   04:17:02.423.02-Jul-2020 328.05 2364.26 1565.98 1276.49 58.27 6.00
   04:17:02.623.02-Jul-2020 328.25 2364.27 1565.98 1276.49 58.27 6.00
   04:17:02.824.02-Jul-2020 328.45 2364.27 1565.98 1276.49 58.27 6.00
   04:17:03.024.02-Jul-2020 328.65 2364.32 1565.98 1276.49 58.27 6.00
   04:17:03.224.02-Jul-2020 328.85 2364.25 1565.98 1276.49 58.27 6.00
   04:17:03.424.02-Jul-2020 329.05 2364.22 1565.98 1276.49 58.27 6.00
   04:17:03.624.02-Jul-2020 329.25 2364.31 1565.98 1276.49 58.27 6.00
   04:17:03.824.02-Jul-2020 329.45 2364.25 1565.98 1276.49 58.27 6.00
   04:17:04.024.02-Jul-2020 329.65 2364.26 1565.98 1276.49 58.27 6.00
   04:17:04.224.02-Jul-2020 329.85 2364.29 1565.98 1276.49 58.27 6.00
   04:17:04.424.02-Jul-2020 330.05 2364.26 1565.98 1276.49 58.27 6.00
   04:17:04.624.02-Jul-2020 330.25 2364.26 1565.98 1276.49 58.27 6.00
   04:17:04.824.02-Jul-2020 330.45 2364.28 1565.98 1276.49 58.27 6.00
   04:17:05.024.02-Jul-2020 330.65 2364.26 1565.98 1276.49 58.27 6.00
   04:17:05.224.02-Jul-2020 330.85 2364.29 1565.98 1276.49 58.27 6.00
   04:17:05.424.02-Jul-2020 331.05 2364.28 1565.98 1276.49 58.27 6.00
   04:17:05.624.02-Jul-2020 331.25 2364.28 1565.98 1276.49 58.27 6.00
   04:17:05.824.02-Jul-2020 331.45 2364.31 1565.98 1276.49 58.27 6.00
   04:17:06.024.02-Jul-2020 331.65 2364.27 1565.98 1276.49 58.27 6.00
   04:17:06.224.02-Jul-2020 331.85 2364.24 1565.98 1276.49 58.27 6.00
   04:17:06.424.02-Jul-2020 332.05 2364.29 1565.98 1276.49 58.27 6.00
   04:17:06.624.02-Jul-2020 332.25 2364.31 1565.98 1276.49 58.27 6.00
   04:17:06.824.02-Jul-2020 332.45 2364.29 1565.98 1276.49 58.27 6.00
   04:17:07.024.02-Jul-2020 332.65 2364.30 1565.98 1276.49 58.27 6.00
   04:17:07.224.02-Jul-2020 332.85 2364.30 1565.98 1276.49 58.27 6.00
   04:17:07.424.02-Jul-2020 333.05 2364.30 1565.98 1276.49 58.28 6.00
   04:17:07.624.02-Jul-2020 333.25 2364.30 1565.98 1276.49 58.28 6.00
   04:17:07.824.02-Jul-2020 333.45 2364.31 1565.98 1276.49 58.28 6.00
   04:17:08.024.02-Jul-2020 333.65 2364.31 1565.98 1276.49 58.28 6.00
   04:17:08.224.02-Jul-2020 333.85 2364.33 1565.98 1276.49 58.28 6.00
   04:17:08.424.02-Jul-2020 334.05 2364.32 1565.98 1276.49 58.28 6.00
   04:17:08.624.02-Jul-2020 334.25 2364.32 1565.98 1276.49 58.28 6.00
   04:17:08.824.02-Jul-2020 334.45 2364.35 1565.98 1276.49 58.28 6.00
   04:17:09.024.02-Jul-2020 334.65 2364.32 1565.98 1276.49 58.28 6.00
   04:17:09.225.02-Jul-2020 334.85 2364.33 1565.98 1276.49 58.28 6.00
   04:17:09.425.02-Jul-2020 335.05 2364.28 1565.98 1276.49 58.28 6.00
   04:17:09.625.02-Jul-2020 335.25 2364.28 1565.98 1276.49 58.28 6.00
   04:17:09.825.02-Jul-2020 335.45 2364.34 1565.98 1276.49 58.28 6.00
   04:17:10.025.02-Jul-2020 335.65 2364.30 1565.98 1276.49 58.28 6.00
   04:17:10.225.02-Jul-2020 335.85 2364.31 1565.98 1276.49 58.28 6.00
   04:17:10.425.02-Jul-2020 336.05 2364.33 1565.98 1276.49 58.28 6.00
   04:17:10.625.02-Jul-2020 336.25 2364.33 1565.98 1276.49 58.28 6.00
   04:17:10.825.02-Jul-2020 336.45 2364.31 1565.98 1276.49 58.28 6.00
   04:17:11.025.02-Jul-2020 336.65 2364.33 1565.98 1276.49 58.28 6.00
   04:17:11.225.02-Jul-2020 336.85 2364.31 1565.98 1276.49 58.28 6.00
   04:17:11.425.02-Jul-2020 337.05 2364.32 1565.98 1276.49 58.28 6.00
   04:17:11.625.02-Jul-2020 337.25 2364.32 1565.98 1276.49 58.28 6.00
   04:17:11.825.02-Jul-2020 337.45 2364.30 1565.98 1276.49 58.28 6.00
   04:17:12.025.02-Jul-2020 337.65 2364.29 1565.98 1276.49 58.28 6.00
   04:17:12.225.02-Jul-2020 337.85 2364.27 1565.98 1276.49 58.28 6.00
   04:17:12.425.02-Jul-2020 338.05 2364.30 1565.98 1276.49 58.28 6.00
   04:17:12.625.02-Jul-2020 338.25 2364.30 1565.98 1276.49 58.28 6.00
   04:17:12.825.02-Jul-2020 338.45 2364.24 1565.98 1276.49 58.29 6.00
   04:17:13.025.02-Jul-2020 338.65 2364.29 1565.98 1276.49 58.29 6.00
   04:17:13.225.02-Jul-2020 338.85 2364.31 1565.98 1276.49 58.29 6.00
   04:17:13.425.02-Jul-2020 339.05 2364.27 1565.98 1276.49 58.29 6.00
   04:17:13.625.02-Jul-2020 339.25 2364.27 1565.98 1276.49 58.29 6.00
   04:17:13.825.02-Jul-2020 339.45 2364.27 1565.98 1276.49 58.29 6.00
   04:17:14.025.02-Jul-2020 339.65 2364.27 1565.98 1276.49 58.29 6.00
   04:17:14.225.02-Jul-2020 339.85 2364.26 1565.98 1276.49 58.29 6.00
   04:17:14.425.02-Jul-2020 340.05 2364.29 1565.98 1276.49 58.29 6.00
   04:17:14.625.02-Jul-2020 340.25 2364.28 1565.98 1276.49 58.29 6.00
   04:17:14.825.02-Jul-2020 340.45 2364.31 1565.98 1276.49 58.29 6.00
   04:17:15.025.02-Jul-2020 340.65 2364.27 1565.98 1276.49 58.29 6.00
   04:17:15.225.02-Jul-2020 340.85 2364.31 1565.98 1276.49 58.29 6.00
   04:17:15.425.02-Jul-2020 341.05 2364.30 1565.98 1276.49 58.29 6.00
   04:17:15.626.02-Jul-2020 341.25 2364.30 1565.98 1276.49 58.29 6.00
   04:17:15.826.02-Jul-2020 341.45 2364.30 1565.98 1276.49 58.29 6.00
   04:17:16.026.02-Jul-2020 341.65 2364.34 1565.98 1276.49 58.29 6.00
   04:17:16.226.02-Jul-2020 341.85 2364.31 1565.98 1276.49 58.29 6.00
   04:17:16.426.02-Jul-2020 342.05 2364.31 1565.98 1276.49 58.29 6.00
   04:17:16.626.02-Jul-2020 342.25 2364.31 1565.98 1276.49 58.29 6.00
   04:17:16.826.02-Jul-2020 342.45 2364.31 1565.98 1276.49 58.29 6.00
   04:17:17.026.02-Jul-2020 342.65 2364.35 1565.98 1276.49 58.29 6.00
   04:17:17.226.02-Jul-2020 342.85 2364.36 1565.98 1276.49 58.29 6.00
   04:17:17.426.02-Jul-2020 343.05 2364.33 1565.98 1276.49 58.29 6.00
   04:17:17.626.02-Jul-2020 343.25 2364.33 1565.98 1276.49 58.29 6.00
   04:17:17.826.02-Jul-2020 343.45 2364.36 1565.98 1276.49 58.29 6.00
   04:17:18.026.02-Jul-2020 343.65 2364.34 1565.98 1276.49 58.30 6.00
   04:17:18.226.02-Jul-2020 343.85 2364.38 1565.98 1276.49 58.30 6.00
   04:17:18.426.02-Jul-2020 344.05 2364.36 1565.98 1276.49 58.30 6.00
   04:17:18.626.02-Jul-2020 344.25 2364.33 1565.98 1276.49 58.30 6.00
   04:17:18.826.02-Jul-2020 344.45 2364.35 1565.98 1276.49 58.30 6.00
   04:17:19.026.02-Jul-2020 344.65 2364.32 1565.98 1276.49 58.30 6.00
   04:17:19.226.02-Jul-2020 344.85 2364.32 1565.98 1276.49 58.30 6.00
