~Version Information
 VERS.                  2.0:   CWLS log ASCII Standard -VERSION 2.0
 WRAP.                   NO:   One line per depth step
~Well Information Block
#MNEM.UNIT     VALUE/NAME     DESCRIPTION
#---------     -----------    ---------------------------
 STRT.S             16:15:55 30-Jun-20: START TIME 16:15:55 30-Jun-20
 STOP.S             16:24:50 30-Jun-20: STOP TIME  16:24:50 30-Jun-20
 STEP.S                   0.00: STEP TIME
 NULL.                 -999.25: NULL VALUE
 DFWT.                        :  DIST FWL TEXT
 DFST.                        :  DIST FSL TEXT
 DMF .             Drill Floor:  DRILL MEAS FROM
 STIM.      09.59.28 01-Jun-20:  START TIME
 DATE.      09.59.28 01-Jun-20:  END TIME
 SPUD.               01-Jun-20:  SPUD DATE
 NREF.                    Grid:  NORTH REFERENCE
 HPTY.       Minimum Curvature:  HOLE POS TYPE
 DMOD.             Drill Model:  DRILL MOD DESC
 SVYD.                  Survey:  SURVEY DESC
 ILTD.               Lithology:  INTERP LTH DESC
 FTOP.          Formation Tops:  FORM TOPS DESC
 SON .        AZ-XX-0905455768:  JOB NUMBER
 WTYP.                Deviated:  WELL TYPE
 COMP.     BP Exploration(Caspian Sea):  COMPANY
 BASE.              Azerbaijan:  LOGGING EQUIPMENT BASE LOCATION
 REGN.                   EESSA:  REGION
 CTRY.              Azerbaijan:  COUNTRY NAME
 FLD .                     ACG:  FIELD NAME
 SRVC.          Turan Drilling:  CONTRACTOR
 WELL.                     B41:  WELL NAME
 RIG .           Central Azeri:  RIG NAME
 DCON.         Sperry Drilling:  DIRECTNL CONTR
 PDAT.          Mean Sea Level:  PERMANENT DATUM
 MDS .        Operator Entered:  MAG DATA SOURCE
 API .                        :  API NUMBER
 CNTY.                        :  COUNTY
 PROV.                        :  PROVINCE
 STAT.                        :  STATE
 UWI .                        :  UNIQUE WELL IDENTIFIER
 LOC .                        :  LOCATION
 LMF .             Drill Floor:  LOG MEASURED FROM
 TVDS.m                  43.29:  TVDSS CORRECTN
 LATI.deg                40.03:  LATITUDE
 LONG.deg                51.35:  LONGITUDE
 WHNS.m                  12.98:  WELL HEAD N/S
 WHEW.m                  -6.62:  WELL HEAD E/W
 UTMX.m              530128.28:  UTM X
 UTMY.m             4433192.49:  UTM Y
 DFWL.m                   0.00:  DISTANCE FWL
 DFSL.m                   0.00:  DISTANCE FSL
 SDEP.m                 378.00:  START DEPTH
 TDD .m                   0.00:  TOTAL DEPTH (DRILLER)
 VSDR.deg               296.18:  VERT SEC DIRECT
 GVFD.g                   1.00:  GRAVITY FIELD
 MFLD.nT              50253.00:  MAGNETIC FIELD
 MDIP.deg                59.49:  MAGNETIC DIP
 MDEC.deg                 6.44:  MAGNETIC DECL
 GRDC.deg                 0.22:  GRID CORRECTION
 AZTC.deg                 6.22:  AZM TOTAL CORR
 EPD .m                   0.00:  ELEVATION
 EGL .m                   0.00:  GROUND ELEVATION
 WDMS.m                 128.20:  WD ELEV
 APD .m                  43.29:  DEPTH ABOVE PD
 AGAP.m                  43.29:  AIR GAP
 VSEW.m                  -6.62:  VERT SEC E/W
 VSNS.m                  12.98:  VERT SEC N/S
 EKB .m                  43.29:  KB ELEVATION
 EDF .m                  43.29:  DF ELEVATION
 TDL .m                1152.00:  TOTAL DEPTH (LOGGER)
 VSC .                       0:  VS TO CLOSURE
 MAGU.                 1848525:  MAGUTM CHECKSUM
~Parameter Information Block
#MNEM.UNIT       Value        Description
#---------     -----------    ---------------------------
 AV  .mps                 0.40:  Ann Velocity 
 AVMX.mps                 1.56:  Max Ann Veloc 
 AZIF.deg               300.46:  Azm, Final 
 BHAT.        Rotary Steerable:  BHA Type 
 BROT.°/30m               0.40:  Build Rotating 
 BS  .in                 17.50:  Bit Size 
 BSZ .in                 17.50:  Bit Size 
 BTPL.psig              300.00:  Bit Press Loss 
 CABU.                      No:  Customer Abuse 
 CGEO.          Parviz Guliyev:  Customer Geo 
 COMM.                     D„w:  Run Comments 1 
 TCS .hr                108.13:  Time Ciculation Ended 
 CV  .mps                 0.50:  Crit Velocity 
 CVMX.mps                 2.01:  Max Crit Veloc 
 DD1 .          Fariz Nahmatov:  Direct Drillr 1 
 DD2 .             Ehab Radwan:  Direct Drillr 2 
 DDSV.               Geo-Pilot:  DD Service 
 DEFF.%                  99.00:  % Det Eff 
 DLRX.°/30m               0.50:  Dogleg Rot Max 
 DLSO.°/30m               2.80:  Dogleg Oriented 
 DLSX.°/30m               3.90:  Dogleg Str Max 
 DRET.      09.30.04 03-Jul-20:  Drill End Time 
 DRST.      18.33.04 28-Jun-20:  Drill Start Tim 
 DTIM.hr                 55.83:  Time Drilling 
 EDEP.m                1952.00:  End Depth 
 ENG1.      Bakhtiyar Jabbarli:  Engineer 1 
 ENG2.         Farhad Orujzade:  Engineer 2 
 ENG3.          Rustam Safarov:  Engineer 3 
 ETIM.      01.33.04 04-Jul-20:  End Time 
 FLOI.gpm              1050.00:  Flow In 
 FLON.gpm               950.00:  Flow In Min 
 FLOS.cptm                0.10:  Fluid Loss 
 FLOX.gpm              1150.00:  Flow In Max 
 HFLO.                      No:  High Flow 
 HPRE.                      No:  High Pressure 
 HTEM.                      No:  High Temp 
 HYDO.m                   1.80:  Hydro Offset 
 IFIN.deg                75.26:  Inc, Final 
 IMAX.deg                75.38:  Inc Max 
 IMIN.deg                22.84:  Inc Min 
 IMND.m                 832.38:  Inc Min Depth 
 IMXD.m                1936.55:  Inc Max Depth 
 JARR.                      No:  Jarring 
 LETM.      17.40.00 04-Jul-20:  Log End Time 
 LOST.hr                     0:  Lost Rig Time 
 LSTM.      12.33.04 28-Jun-20:  Log Start Time 
 MDCL.ppm             49500.00:  Mud Chlorides 
 MDES.     Inversion Oil/Synthetic:  Mud Desc 
 DFD .sg                  1.46:  Mud Density 
 MDMN.sg                  1.46:  Dens Mud Min 
 MDMX.sg                  1.46:  Dens Mud Max 
 MOIL.                      70:  Run Mud Oil % 
 MOWR.                   70:30:  Run Mud OWR 
 MSND.                     0.5:  Run Mud Sand % 
 MSOL.                   19.89:  Run Mud Solids% 
 DFV .spqt               72.00:  Mud Viscosity 
 MWOD.in                  9.50:  MWD Tool OD 
 MWSI.                      No:  Serv Intrp, MWD 
 OTIM.hr                146.53:  Time Operating 
 PCON.           Look Like New:  Pad Condition 
 PMAX.psia             2900.00:  Press Op, Max 
 PV  .cP                 38.00:  Mud PV 
 RUN .                     600:  Run Number 
 ROPA.m/hr               22.00:  ROP Avg 
 ROPN.m/hr               10.00:  ROP Min 
 ROPX.m/hr              263.00:  ROP Max 
 RPMA.rpm               155.00:  RPM Surface Avg 
 RPMN.rpm               140.00:  RPM Surface Min 
 RPMX.rpm               160.00:  RPM Surface Max 
 RRUN.                    0600:  Rig Run Number 
 RTIM.hr                  5.00:  Time Reaming 
 SAZI.deg               300.08:  Azm, Start 
 SDEP.m                 800.00:  Start Depth 
 SIDD.                      No:  Serv Intrp, DD 
 SINC.deg                22.84:  Inc, Start 
 SPPA.psig             3000.00:  SPP Avg 
 SPPN.psig             1900.00:  SPP Min 
 SPPX.psig             3200.00:  SPP Max 
 STIM.      12.30.04 28-Jun-20:  Start Time 
 SVCS.                 DD, MWD:  Services 
 SVER.                    9.20:  Sperry Version 
 TDAT.m                1952.00:  Tot Depth Attmp 
 TDDF.                      No:  Trip for DD 
 TDLG.m                1152.00:  Tot Depth Loggd 
 TFF .                      No:  Trip for Fail 
 TQAA.f-kp                8.00:  Torque Abs Avg 
 TQAN.f-kp                5.00:  Torque Abs Min 
 TQAX.f-kp               14.00:  Torque Abs Max 
 TRRT.°/30m               0.50:  Turn Rotating 
 MRT .                  EWR-M5:  Maximum Recorded Temperature 
 TTMX.degC               69.00:  Max Tool Temp 
 VS01.                90610313:  Virtual Str1 SN 
 VS02.                90613431:  Virtual Str2 SN 
 VS03.                90615410:  Virtual Str3 SN 
 WBMN.klb                 6.00:  WOB Min 
 WITN.            Bruce Cheyne:  Customer Rep 
 WITN.             Ayaz Aliyev:  Customer Rep 2 
 WOBA.klb                 6.00:  WOB Avg 
 WOBX.klb                10.00:  WOB Max 
 YP  .lhf2               36.00:  Yield Point 
~Curve Information Block
#MNEM.UNIT                 API CODE     Curve Description
#---------               -----------    ---------------------------
 TIME.HHMMSS            00 000 000 000:  GT Time & Date
 GTET.sec               00 000 000 000:  GT Elapsed Test Time
 GTPQH.psia             00 000 000 000:  GT HR Quartz Pressure
 GTDEPTH.m              00 000 000 000:  GT Depth
 GTTVD.m                00 000 000 000:  GT True Vertical Depth
 GTTQ.degC              00 000 000 000:  GT Quartz Temperature
 GTTN.NONE              00 000 000 000:  GT Test Number
#Other Information
#
#WARRANTY: Halliburton will use its best efforts to furnish customers with 
#accurate information and interpretations that are part of, and incident to, the services 
#provided.  However, Halliburton cannot and does not warrant the accuracy 
#or correctness of such information and interpretations.  Under no circumstances should any 
#such information or interpretation be relied upon as the sole basis for any drilling, 
#completion, production, or financial decision or any procedure involving any risk to the 
#safety of any drilling venture, drilling rig or its crew or any other third party.  The 
#Customer has full responsibility for all drilling, completion and production operation.  
#Halliburton makes no representations or warranties, either expressed or 
#implied, including, but not limited to, the implied warranties of merchantability or fitness 
#for a particular purpose, with respect to the services rendered.  In no event will 
#Halliburton be liable for failure to obtain any particular results or for 
#any damages, including, but not limited to, indirect, special or consequential damages, 
#resulting from the use of any information or interpretation provided by Halliburton.
#
~A           TIME            GTET   GTPQH  GTDEPTH  GTTVD  GTTQ  GTTN 
# ...
   16:16:18.000.30-Jun-2020  23.00 2219.88 1103.02 1054.26 68.69 2.00
   16:16:18.200.30-Jun-2020  23.20 2219.88 1103.02 1054.26 68.69 2.00
   16:16:18.400.30-Jun-2020  23.40 2218.75 1103.02 1054.26 68.69 2.00
   16:16:18.600.30-Jun-2020  23.60 2217.79 1103.02 1054.26 68.69 2.00
   16:16:18.800.30-Jun-2020  23.80 2218.01 1103.02 1054.26 68.69 2.00
   16:16:19.000.30-Jun-2020  24.00 2219.06 1103.02 1054.26 68.69 2.00
   16:16:19.200.30-Jun-2020  24.20 2219.06 1103.02 1054.26 68.69 2.00
   16:16:19.400.30-Jun-2020  24.40 2217.55 1103.02 1054.26 68.69 2.00
   16:16:19.600.30-Jun-2020  24.60 2217.58 1103.02 1054.26 68.69 2.00
   16:16:19.800.30-Jun-2020  24.80 2217.12 1103.02 1054.26 68.69 2.00
   16:16:20.000.30-Jun-2020  25.00 2215.12 1103.02 1054.26 68.69 2.00
   16:16:20.200.30-Jun-2020  25.20 2215.12 1103.02 1054.26 68.69 2.00
   16:16:20.400.30-Jun-2020  25.40 2217.40 1103.02 1054.26 68.69 2.00
   16:16:20.600.30-Jun-2020  25.60 2215.76 1103.02 1054.26 68.69 2.00
   16:16:20.800.30-Jun-2020  25.80 2216.27 1103.02 1054.26 68.69 2.00
   16:16:21.000.30-Jun-2020  26.00 2216.34 1103.02 1054.26 68.69 2.00
   16:16:21.200.30-Jun-2020  26.20 2215.47 1103.02 1054.26 68.69 2.00
   16:16:21.400.30-Jun-2020  26.40 2216.86 1103.02 1054.26 68.69 2.00
   16:16:21.600.30-Jun-2020  26.60 2216.56 1103.02 1054.26 68.69 2.00
   16:16:21.800.30-Jun-2020  26.80 2215.85 1103.02 1054.26 68.69 2.00
   16:16:22.000.30-Jun-2020  27.00 2216.26 1103.02 1054.26 68.69 2.00
   16:16:22.200.30-Jun-2020  27.20 2216.26 1103.02 1054.26 68.69 2.00
   16:16:22.400.30-Jun-2020  27.40 2214.31 1103.02 1054.26 68.69 2.00
   16:16:22.600.30-Jun-2020  27.60 2217.68 1103.02 1054.26 68.69 2.00
   16:16:22.800.30-Jun-2020  27.80 2219.13 1103.02 1054.26 68.69 2.00
   16:16:23.000.30-Jun-2020  28.00 2217.22 1103.02 1054.26 68.69 2.00
   16:16:23.200.30-Jun-2020  28.20 2217.22 1103.02 1054.26 68.69 2.00
   16:16:23.400.30-Jun-2020  28.40 2217.97 1103.02 1054.26 68.69 2.00
   16:16:23.600.30-Jun-2020  28.60 2216.99 1103.02 1054.26 68.69 2.00
   16:16:23.800.30-Jun-2020  28.80 2218.33 1103.02 1054.26 68.69 2.00
   16:16:24.000.30-Jun-2020  29.00 2216.95 1103.02 1054.26 68.69 2.00
   16:16:24.200.30-Jun-2020  29.20 2216.95 1103.02 1054.26 68.69 2.00
   16:16:24.400.30-Jun-2020  29.40 2218.67 1103.02 1054.26 68.69 2.00
   16:16:24.600.30-Jun-2020  29.60 2218.52 1103.02 1054.26 68.69 2.00
   16:16:24.800.30-Jun-2020  29.80 2216.61 1103.02 1054.26 68.69 2.00
   16:16:25.000.30-Jun-2020  30.00 2219.83 1103.02 1054.26 68.69 2.00
   16:16:25.200.30-Jun-2020  30.20 2220.12 1103.02 1054.26 68.69 2.00
   16:16:25.400.30-Jun-2020  30.40 2218.55 1103.02 1054.26 68.69 2.00
   16:16:25.600.30-Jun-2020  30.60 2217.65 1103.02 1054.26 68.69 2.00
   16:16:25.800.30-Jun-2020  30.80 2217.16 1103.02 1054.26 68.69 2.00
   16:16:26.000.30-Jun-2020  31.00 2218.60 1103.02 1054.26 68.69 2.00
   16:16:26.200.30-Jun-2020  31.20 2218.60 1103.02 1054.26 68.69 2.00
   16:16:26.400.30-Jun-2020  31.40 2218.52 1103.02 1054.26 68.69 2.00
   16:16:26.600.30-Jun-2020  31.60 2219.62 1103.02 1054.26 68.69 2.00
   16:16:26.800.30-Jun-2020  31.80 2218.25 1103.02 1054.26 68.69 2.00
   16:16:27.000.30-Jun-2020  32.00 2217.63 1103.02 1054.26 68.69 2.00
   16:16:27.200.30-Jun-2020  32.20 2217.63 1103.02 1054.26 68.69 2.00
   16:16:27.400.30-Jun-2020  32.40 2218.44 1103.02 1054.26 68.69 2.00
   16:16:27.600.30-Jun-2020  32.60 2218.84 1103.02 1054.26 68.69 2.00
   16:16:27.800.30-Jun-2020  32.80 2217.54 1103.02 1054.26 68.69 2.00
   16:16:28.000.30-Jun-2020  33.00 2216.49 1103.02 1054.26 68.69 2.00
   16:16:28.200.30-Jun-2020  33.20 2216.49 1103.02 1054.26 68.69 2.00
   16:16:28.400.30-Jun-2020  33.40 2218.95 1103.02 1054.26 68.69 2.00
   16:16:28.600.30-Jun-2020  33.60 2218.25 1103.02 1054.26 68.69 2.00
   16:16:28.800.30-Jun-2020  33.80 2217.74 1103.02 1054.26 68.69 2.00
   16:16:29.000.30-Jun-2020  34.00 2217.50 1103.02 1054.26 68.69 2.00
   16:16:29.200.30-Jun-2020  34.20 2217.06 1103.02 1054.26 68.69 2.00
   16:16:29.400.30-Jun-2020  34.40 2214.87 1103.02 1054.26 68.69 2.00
   16:16:29.600.30-Jun-2020  34.60 2217.58 1103.02 1054.26 68.69 2.00
   16:16:29.800.30-Jun-2020  34.80 2217.65 1103.02 1054.26 68.69 2.00
   16:16:30.000.30-Jun-2020  35.00 2216.94 1103.02 1054.26 68.69 2.00
   16:16:30.200.30-Jun-2020  35.20 2216.94 1103.02 1054.26 68.69 2.00
   16:16:30.400.30-Jun-2020  35.40 2216.94 1103.02 1054.26 68.69 2.00
   16:16:30.600.30-Jun-2020  35.60 2216.46 1103.02 1054.26 68.69 2.00
   16:16:30.800.30-Jun-2020  35.80 2217.76 1103.02 1054.26 68.69 2.00
   16:16:31.000.30-Jun-2020  36.00 2217.15 1103.02 1054.26 68.69 2.00
   16:16:31.200.30-Jun-2020  36.20 2217.15 1103.02 1054.26 68.69 2.00
   16:16:31.400.30-Jun-2020  36.40 2216.96 1103.02 1054.26 68.69 2.00
   16:16:31.600.30-Jun-2020  36.60 2216.69 1103.02 1054.26 68.69 2.00
   16:16:31.800.30-Jun-2020  36.80 2214.94 1103.02 1054.26 68.69 2.00
   16:16:32.000.30-Jun-2020  37.00 2218.96 1103.02 1054.26 68.69 2.00
   16:16:32.200.30-Jun-2020  37.20 2218.96 1103.02 1054.26 68.69 2.00
   16:16:32.400.30-Jun-2020  37.40 2217.46 1103.02 1054.26 68.69 2.00
   16:16:32.600.30-Jun-2020  37.60 2218.01 1103.02 1054.26 68.69 2.00
   16:16:32.800.30-Jun-2020  37.80 2217.35 1103.02 1054.26 68.69 2.00
   16:16:33.000.30-Jun-2020  38.00 2216.73 1103.02 1054.26 68.69 2.00
   16:16:33.200.30-Jun-2020  38.20 2216.73 1103.02 1054.26 68.69 2.00
   16:16:33.400.30-Jun-2020  38.40 2217.07 1103.02 1054.26 68.69 2.00
   16:16:33.600.30-Jun-2020  38.60 2218.44 1103.02 1054.26 68.69 2.00
   16:16:33.800.30-Jun-2020  38.80 2218.04 1103.02 1054.26 68.69 2.00
   16:16:34.000.30-Jun-2020  39.00 2217.58 1103.02 1054.26 68.69 2.00
   16:16:34.200.30-Jun-2020  39.20 2217.58 1103.02 1054.26 68.69 2.00
   16:16:34.400.30-Jun-2020  39.40 2219.17 1103.02 1054.26 68.69 2.00
   16:16:34.600.30-Jun-2020  39.60 2219.03 1103.02 1054.26 68.69 2.00
   16:16:34.800.30-Jun-2020  39.80 2217.58 1103.02 1054.26 68.69 2.00
   16:16:35.000.30-Jun-2020  40.00 2216.05 1103.02 1054.26 68.69 2.00
   16:16:35.200.30-Jun-2020  40.20 2216.05 1103.02 1054.26 68.69 2.00
   16:16:35.400.30-Jun-2020  40.40 2218.05 1103.02 1054.26 68.69 2.00
   16:16:35.600.30-Jun-2020  40.60 2217.45 1103.02 1054.26 68.69 2.00
   16:16:35.800.30-Jun-2020  40.80 2218.44 1103.02 1054.26 68.69 2.00
   16:16:36.000.30-Jun-2020  41.00 2219.04 1103.02 1054.26 68.69 2.00
   16:16:36.200.30-Jun-2020  41.20 2219.04 1103.02 1054.26 68.69 2.00
   16:16:36.400.30-Jun-2020  41.40 2217.13 1103.02 1054.26 68.69 2.00
   16:16:36.600.30-Jun-2020  41.60 2217.47 1103.02 1054.26 68.69 2.00
   16:16:36.800.30-Jun-2020  41.80 2218.44 1103.02 1054.26 68.69 2.00
   16:16:37.000.30-Jun-2020  42.00 2218.43 1103.02 1054.26 68.69 2.00
   16:16:37.200.30-Jun-2020  42.20 2217.28 1103.02 1054.26 68.69 2.00
   16:16:37.400.30-Jun-2020  42.40 2216.63 1103.02 1054.26 68.69 2.00
   16:16:37.600.30-Jun-2020  42.60 2218.07 1103.02 1054.26 68.69 2.00
   16:16:37.800.30-Jun-2020  42.80 2219.29 1103.02 1054.26 68.69 2.00
   16:16:38.000.30-Jun-2020  43.00 2218.38 1103.02 1054.26 68.69 2.00
   16:16:38.200.30-Jun-2020  43.20 2218.38 1103.02 1054.26 68.69 2.00
   16:16:38.400.30-Jun-2020  43.40 2217.66 1103.02 1054.26 68.69 2.00
   16:16:38.600.30-Jun-2020  43.60 2216.45 1103.02 1054.26 68.69 2.00
   16:16:38.800.30-Jun-2020  43.80 2216.03 1103.02 1054.26 68.69 2.00
   16:16:39.000.30-Jun-2020  44.00 2218.24 1103.02 1054.26 68.69 2.00
   16:16:39.200.30-Jun-2020  44.20 2218.24 1103.02 1054.26 68.69 2.00
   16:16:39.400.30-Jun-2020  44.40 2217.48 1103.02 1054.26 68.69 2.00
   16:16:39.600.30-Jun-2020  44.60 2217.74 1103.02 1054.26 68.69 2.00
   16:16:39.800.30-Jun-2020  44.80 2216.20 1103.02 1054.26 68.69 2.00
   16:16:40.000.30-Jun-2020  45.00 2217.32 1103.02 1054.26 68.69 2.00
   16:16:40.200.30-Jun-2020  45.20 2217.32 1103.02 1054.26 68.69 2.00
   16:16:40.400.30-Jun-2020  45.40 2216.67 1103.02 1054.26 68.69 2.00
   16:16:40.600.30-Jun-2020  45.60 2216.58 1103.02 1054.26 68.69 2.00
   16:16:40.800.30-Jun-2020  45.80 2216.80 1103.02 1054.26 68.69 2.00
