~Version Information
 VERS.                  2.0:   CWLS log ASCII Standard -VERSION 2.0
 WRAP.                   NO:   One line per depth step
~Well Information Block
#MNEM.UNIT     VALUE/NAME     DESCRIPTION
#---------     -----------    ---------------------------
 STRT.S             23:30:34 30-Jun-20: START TIME 23:30:34 30-Jun-20
 STOP.S             23:39:34 30-Jun-20: STOP TIME  23:39:34 30-Jun-20
 STEP.S                   0.00: STEP TIME
 NULL.                 -999.25: NULL VALUE
 DFWT.                        :  DIST FWL TEXT
 DFST.                        :  DIST FSL TEXT
 DMF .             Drill Floor:  DRILL MEAS FROM
 STIM.      09.59.28 01-Jun-20:  START TIME
 DATE.      09.59.28 01-Jun-20:  END TIME
 SPUD.               01-Jun-20:  SPUD DATE
 NREF.                    Grid:  NORTH REFERENCE
 HPTY.       Minimum Curvature:  HOLE POS TYPE
 DMOD.             Drill Model:  DRILL MOD DESC
 SVYD.                  Survey:  SURVEY DESC
 ILTD.               Lithology:  INTERP LTH DESC
 FTOP.          Formation Tops:  FORM TOPS DESC
 SON .        AZ-XX-0905455768:  JOB NUMBER
 WTYP.                Deviated:  WELL TYPE
 COMP.     BP Exploration(Caspian Sea):  COMPANY
 BASE.              Azerbaijan:  LOGGING EQUIPMENT BASE LOCATION
 REGN.                   EESSA:  REGION
 CTRY.              Azerbaijan:  COUNTRY NAME
 FLD .                     ACG:  FIELD NAME
 SRVC.          Turan Drilling:  CONTRACTOR
 WELL.                     B41:  WELL NAME
 RIG .           Central Azeri:  RIG NAME
 DCON.         Sperry Drilling:  DIRECTNL CONTR
 PDAT.          Mean Sea Level:  PERMANENT DATUM
 MDS .        Operator Entered:  MAG DATA SOURCE
 API .                        :  API NUMBER
 CNTY.                        :  COUNTY
 PROV.                        :  PROVINCE
 STAT.                        :  STATE
 UWI .                        :  UNIQUE WELL IDENTIFIER
 LOC .                        :  LOCATION
 LMF .             Drill Floor:  LOG MEASURED FROM
 TVDS.m                  43.29:  TVDSS CORRECTN
 LATI.deg                40.03:  LATITUDE
 LONG.deg                51.35:  LONGITUDE
 WHNS.m                  12.98:  WELL HEAD N/S
 WHEW.m                  -6.62:  WELL HEAD E/W
 UTMX.m              530128.28:  UTM X
 UTMY.m             4433192.49:  UTM Y
 DFWL.m                   0.00:  DISTANCE FWL
 DFSL.m                   0.00:  DISTANCE FSL
 SDEP.m                 378.00:  START DEPTH
 TDD .m                   0.00:  TOTAL DEPTH (DRILLER)
 VSDR.deg               296.18:  VERT SEC DIRECT
 GVFD.g                   1.00:  GRAVITY FIELD
 MFLD.nT              50253.00:  MAGNETIC FIELD
 MDIP.deg                59.49:  MAGNETIC DIP
 MDEC.deg                 6.44:  MAGNETIC DECL
 GRDC.deg                 0.22:  GRID CORRECTION
 AZTC.deg                 6.22:  AZM TOTAL CORR
 EPD .m                   0.00:  ELEVATION
 EGL .m                   0.00:  GROUND ELEVATION
 WDMS.m                 128.20:  WD ELEV
 APD .m                  43.29:  DEPTH ABOVE PD
 AGAP.m                  43.29:  AIR GAP
 VSEW.m                  -6.62:  VERT SEC E/W
 VSNS.m                  12.98:  VERT SEC N/S
 EKB .m                  43.29:  KB ELEVATION
 EDF .m                  43.29:  DF ELEVATION
 TDL .m                1152.00:  TOTAL DEPTH (LOGGER)
 VSC .                       0:  VS TO CLOSURE
 MAGU.                 1848525:  MAGUTM CHECKSUM
~Parameter Information Block
#MNEM.UNIT       Value        Description
#---------     -----------    ---------------------------
 AV  .mps                 0.40:  Ann Velocity 
 AVMX.mps                 1.56:  Max Ann Veloc 
 AZIF.deg               300.46:  Azm, Final 
 BHAT.        Rotary Steerable:  BHA Type 
 BROT.°/30m               0.40:  Build Rotating 
 BS  .in                 17.50:  Bit Size 
 BSZ .in                 17.50:  Bit Size 
 BTPL.psig              300.00:  Bit Press Loss 
 CABU.                      No:  Customer Abuse 
 CGEO.          Parviz Guliyev:  Customer Geo 
 COMM.                     œº_:  Run Comments 1 
 TCS .hr                108.13:  Time Ciculation Ended 
 CV  .mps                 0.50:  Crit Velocity 
 CVMX.mps                 2.01:  Max Crit Veloc 
 DD1 .          Fariz Nahmatov:  Direct Drillr 1 
 DD2 .             Ehab Radwan:  Direct Drillr 2 
 DDSV.               Geo-Pilot:  DD Service 
 DEFF.%                  99.00:  % Det Eff 
 DLRX.°/30m               0.50:  Dogleg Rot Max 
 DLSO.°/30m               2.80:  Dogleg Oriented 
 DLSX.°/30m               3.90:  Dogleg Str Max 
 DRET.      09.30.04 03-Jul-20:  Drill End Time 
 DRST.      18.33.04 28-Jun-20:  Drill Start Tim 
 DTIM.hr                 55.83:  Time Drilling 
 EDEP.m                1952.00:  End Depth 
 ENG1.      Bakhtiyar Jabbarli:  Engineer 1 
 ENG2.         Farhad Orujzade:  Engineer 2 
 ENG3.          Rustam Safarov:  Engineer 3 
 ETIM.      01.33.04 04-Jul-20:  End Time 
 FLOI.gpm              1050.00:  Flow In 
 FLON.gpm               950.00:  Flow In Min 
 FLOS.cptm                0.10:  Fluid Loss 
 FLOX.gpm              1150.00:  Flow In Max 
 HFLO.                      No:  High Flow 
 HPRE.                      No:  High Pressure 
 HTEM.                      No:  High Temp 
 HYDO.m                   1.80:  Hydro Offset 
 IFIN.deg                75.26:  Inc, Final 
 IMAX.deg                75.38:  Inc Max 
 IMIN.deg                22.84:  Inc Min 
 IMND.m                 832.38:  Inc Min Depth 
 IMXD.m                1936.55:  Inc Max Depth 
 JARR.                      No:  Jarring 
 LETM.      17.40.00 04-Jul-20:  Log End Time 
 LOST.hr                     0:  Lost Rig Time 
 LSTM.      12.33.04 28-Jun-20:  Log Start Time 
 MDCL.ppm             49500.00:  Mud Chlorides 
 MDES.     Inversion Oil/Synthetic:  Mud Desc 
 DFD .sg                  1.46:  Mud Density 
 MDMN.sg                  1.46:  Dens Mud Min 
 MDMX.sg                  1.46:  Dens Mud Max 
 MOIL.                      70:  Run Mud Oil % 
 MOWR.                   70:30:  Run Mud OWR 
 MSND.                     0.5:  Run Mud Sand % 
 MSOL.                   19.89:  Run Mud Solids% 
 DFV .spqt               72.00:  Mud Viscosity 
 MWOD.in                  9.50:  MWD Tool OD 
 MWSI.                      No:  Serv Intrp, MWD 
 OTIM.hr                146.53:  Time Operating 
 PCON.           Look Like New:  Pad Condition 
 PMAX.psia             2900.00:  Press Op, Max 
 PV  .cP                 38.00:  Mud PV 
 RUN .                     600:  Run Number 
 ROPA.m/hr               22.00:  ROP Avg 
 ROPN.m/hr               10.00:  ROP Min 
 ROPX.m/hr              263.00:  ROP Max 
 RPMA.rpm               155.00:  RPM Surface Avg 
 RPMN.rpm               140.00:  RPM Surface Min 
 RPMX.rpm               160.00:  RPM Surface Max 
 RRUN.                    0600:  Rig Run Number 
 RTIM.hr                  5.00:  Time Reaming 
 SAZI.deg               300.08:  Azm, Start 
 SDEP.m                 800.00:  Start Depth 
 SIDD.                      No:  Serv Intrp, DD 
 SINC.deg                22.84:  Inc, Start 
 SPPA.psig             3000.00:  SPP Avg 
 SPPN.psig             1900.00:  SPP Min 
 SPPX.psig             3200.00:  SPP Max 
 STIM.      12.30.04 28-Jun-20:  Start Time 
 SVCS.                 DD, MWD:  Services 
 SVER.                    9.20:  Sperry Version 
 TDAT.m                1952.00:  Tot Depth Attmp 
 TDDF.                      No:  Trip for DD 
 TDLG.m                1152.00:  Tot Depth Loggd 
 TFF .                      No:  Trip for Fail 
 TQAA.f-kp                8.00:  Torque Abs Avg 
 TQAN.f-kp                5.00:  Torque Abs Min 
 TQAX.f-kp               14.00:  Torque Abs Max 
 TRRT.°/30m               0.50:  Turn Rotating 
 MRT .                  EWR-M5:  Maximum Recorded Temperature 
 TTMX.degC               69.00:  Max Tool Temp 
 VS01.                90610313:  Virtual Str1 SN 
 VS02.                90613431:  Virtual Str2 SN 
 VS03.                90615410:  Virtual Str3 SN 
 WBMN.klb                 6.00:  WOB Min 
 WITN.            Bruce Cheyne:  Customer Rep 
 WITN.             Ayaz Aliyev:  Customer Rep 2 
 WOBA.klb                 6.00:  WOB Avg 
 WOBX.klb                10.00:  WOB Max 
 YP  .lhf2               36.00:  Yield Point 
~Curve Information Block
#MNEM.UNIT                 API CODE     Curve Description
#---------               -----------    ---------------------------
 TIME.HHMMSS            00 000 000 000:  GT Time & Date
 GTET.sec               00 000 000 000:  GT Elapsed Test Time
 GTPQH.psia             00 000 000 000:  GT HR Quartz Pressure
 GTDEPTH.m              00 000 000 000:  GT Depth
 GTTVD.m                00 000 000 000:  GT True Vertical Depth
 GTTQ.degC              00 000 000 000:  GT Quartz Temperature
 GTTN.NONE              00 000 000 000:  GT Test Number
#Other Information
#
#WARRANTY: Halliburton will use its best efforts to furnish customers with 
#accurate information and interpretations that are part of, and incident to, the services 
#provided.  However, Halliburton cannot and does not warrant the accuracy 
#or correctness of such information and interpretations.  Under no circumstances should any 
#such information or interpretation be relied upon as the sole basis for any drilling, 
#completion, production, or financial decision or any procedure involving any risk to the 
#safety of any drilling venture, drilling rig or its crew or any other third party.  The 
#Customer has full responsibility for all drilling, completion and production operation.  
#Halliburton makes no representations or warranties, either expressed or 
#implied, including, but not limited to, the implied warranties of merchantability or fitness 
#for a particular purpose, with respect to the services rendered.  In no event will 
#Halliburton be liable for failure to obtain any particular results or for 
#any damages, including, but not limited to, indirect, special or consequential damages, 
#resulting from the use of any information or interpretation provided by Halliburton.
#
~A           TIME            GTET   GTPQH  GTDEPTH  GTTVD  GTTQ  GTTN 
# ...
   23:36:42.592.30-Jun-2020 368.11 2107.33 1161.05 1096.50 59.68 4.00
   23:36:42.792.30-Jun-2020 368.31 2107.33 1161.05 1096.50 59.68 4.00
   23:36:42.992.30-Jun-2020 368.51 2107.29 1161.05 1096.50 59.68 4.00
   23:36:43.192.30-Jun-2020 368.71 2107.30 1161.05 1096.50 59.68 4.00
   23:36:43.392.30-Jun-2020 368.91 2107.30 1161.05 1096.50 59.68 4.00
   23:36:43.592.30-Jun-2020 369.11 2107.37 1161.05 1096.50 59.68 4.00
   23:36:43.792.30-Jun-2020 369.31 2107.37 1161.05 1096.50 59.68 4.00
   23:36:43.992.30-Jun-2020 369.51 2109.54 1161.05 1096.50 59.68 4.00
   23:36:44.193.30-Jun-2020 369.71 2109.61 1161.05 1096.50 59.68 4.00
   23:36:44.393.30-Jun-2020 369.91 2109.64 1161.05 1096.50 59.68 4.00
   23:36:44.593.30-Jun-2020 370.11 2109.66 1161.05 1096.50 59.68 4.00
   23:36:44.793.30-Jun-2020 370.31 2109.66 1161.05 1096.50 59.68 4.00
   23:36:44.993.30-Jun-2020 370.51 2109.70 1161.05 1096.50 59.68 4.00
   23:36:45.193.30-Jun-2020 370.71 2109.70 1161.05 1096.50 59.68 4.00
   23:36:45.393.30-Jun-2020 370.91 2109.71 1161.05 1096.50 59.68 4.00
   23:36:45.593.30-Jun-2020 371.11 2109.71 1161.05 1096.50 59.68 4.00
   23:36:45.793.30-Jun-2020 371.31 2109.71 1161.05 1096.50 59.68 4.00
   23:36:45.993.30-Jun-2020 371.51 2109.75 1161.05 1096.50 59.68 4.00
   23:36:46.193.30-Jun-2020 371.71 2109.76 1161.05 1096.50 59.68 4.00
   23:36:46.393.30-Jun-2020 371.91 2109.76 1161.05 1096.50 59.68 4.00
   23:36:46.593.30-Jun-2020 372.11 2109.76 1161.05 1096.50 59.68 4.00
   23:36:46.793.30-Jun-2020 372.31 2109.76 1161.05 1096.50 59.68 4.00
   23:36:46.993.30-Jun-2020 372.51 2109.78 1161.05 1096.50 59.68 4.00
   23:36:47.193.30-Jun-2020 372.71 2109.79 1161.05 1096.50 59.68 4.00
   23:36:47.393.30-Jun-2020 372.91 2109.79 1161.05 1096.50 59.68 4.00
   23:36:47.594.30-Jun-2020 373.11 2109.78 1161.05 1096.50 59.68 4.00
   23:36:47.794.30-Jun-2020 373.31 2109.78 1161.05 1096.50 59.68 4.00
   23:36:47.994.30-Jun-2020 373.51 2109.80 1161.05 1096.50 59.68 4.00
   23:36:48.194.30-Jun-2020 373.71 2109.81 1161.05 1096.50 59.68 4.00
   23:36:48.394.30-Jun-2020 373.91 2109.80 1161.05 1096.50 59.68 4.00
   23:36:48.594.30-Jun-2020 374.11 2109.81 1161.05 1096.50 59.68 4.00
   23:36:48.794.30-Jun-2020 374.31 2109.81 1161.05 1096.50 59.68 4.00
   23:36:48.994.30-Jun-2020 374.51 2109.81 1161.05 1096.50 59.68 4.00
   23:36:49.194.30-Jun-2020 374.71 2109.79 1161.05 1096.50 59.68 4.00
   23:36:49.394.30-Jun-2020 374.91 2109.83 1161.05 1096.50 59.68 4.00
   23:36:49.594.30-Jun-2020 375.11 2109.83 1161.05 1096.50 59.68 4.00
   23:36:49.794.30-Jun-2020 375.31 2109.83 1161.05 1096.50 59.68 4.00
   23:36:49.994.30-Jun-2020 375.51 2109.82 1161.05 1096.50 59.68 4.00
   23:36:50.194.30-Jun-2020 375.71 2109.83 1161.05 1096.50 59.68 4.00
   23:36:50.394.30-Jun-2020 375.91 2109.84 1161.05 1096.50 59.68 4.00
   23:36:50.594.30-Jun-2020 376.11 2109.83 1161.05 1096.50 59.68 4.00
   23:36:50.794.30-Jun-2020 376.31 2109.83 1161.05 1096.50 59.68 4.00
   23:36:50.995.30-Jun-2020 376.51 2109.84 1161.05 1096.50 59.68 4.00
   23:36:51.195.30-Jun-2020 376.71 2109.84 1161.05 1096.50 59.68 4.00
   23:36:51.395.30-Jun-2020 376.91 2109.84 1161.05 1096.50 59.68 4.00
   23:36:51.595.30-Jun-2020 377.11 2109.84 1161.05 1096.50 59.68 4.00
   23:36:51.795.30-Jun-2020 377.31 2109.84 1161.05 1096.50 59.68 4.00
   23:36:51.995.30-Jun-2020 377.51 2109.84 1161.05 1096.50 59.68 4.00
   23:36:52.195.30-Jun-2020 377.71 2109.85 1161.05 1096.50 59.68 4.00
   23:36:52.395.30-Jun-2020 377.91 2109.86 1161.05 1096.50 59.68 4.00
   23:36:52.595.30-Jun-2020 378.11 2109.86 1161.05 1096.50 59.68 4.00
   23:36:52.795.30-Jun-2020 378.31 2109.84 1161.05 1096.50 59.68 4.00
   23:36:52.995.30-Jun-2020 378.51 2109.83 1161.05 1096.50 59.68 4.00
   23:36:53.195.30-Jun-2020 378.71 2109.86 1161.05 1096.50 59.68 4.00
   23:36:53.395.30-Jun-2020 378.91 2109.86 1161.05 1096.50 59.68 4.00
   23:36:53.595.30-Jun-2020 379.11 2109.86 1161.05 1096.50 59.68 4.00
   23:36:53.795.30-Jun-2020 379.31 2109.86 1161.05 1096.50 59.68 4.00
   23:36:53.995.30-Jun-2020 379.51 2109.87 1161.05 1096.50 59.68 4.00
   23:36:54.195.30-Jun-2020 379.71 2109.86 1161.05 1096.50 59.68 4.00
   23:36:54.395.30-Jun-2020 379.91 2109.86 1161.05 1096.50 59.68 4.00
   23:36:54.596.30-Jun-2020 380.11 2109.86 1161.05 1096.50 59.68 4.00
   23:36:54.796.30-Jun-2020 380.31 2109.86 1161.05 1096.50 59.68 4.00
   23:36:54.996.30-Jun-2020 380.51 2109.86 1161.05 1096.50 59.68 4.00
   23:36:55.196.30-Jun-2020 380.71 2109.87 1161.05 1096.50 59.68 4.00
   23:36:55.396.30-Jun-2020 380.91 2109.84 1161.05 1096.50 59.68 4.00
   23:36:55.596.30-Jun-2020 381.11 2109.89 1161.05 1096.50 59.68 4.00
   23:36:55.796.30-Jun-2020 381.31 2109.89 1161.05 1096.50 59.68 4.00
   23:36:55.996.30-Jun-2020 381.51 2109.87 1161.05 1096.50 59.68 4.00
   23:36:56.196.30-Jun-2020 381.71 2109.88 1161.05 1096.50 59.68 4.00
   23:36:56.396.30-Jun-2020 381.91 2109.85 1161.05 1096.50 59.68 4.00
   23:36:56.596.30-Jun-2020 382.11 2109.88 1161.05 1096.50 59.68 4.00
   23:36:56.796.30-Jun-2020 382.31 2109.88 1161.05 1096.50 59.68 4.00
   23:36:56.996.30-Jun-2020 382.51 2109.88 1161.05 1096.50 59.68 4.00
   23:36:57.196.30-Jun-2020 382.71 2109.88 1161.05 1096.50 59.68 4.00
   23:36:57.396.30-Jun-2020 382.91 2109.88 1161.05 1096.50 59.68 4.00
   23:36:57.596.30-Jun-2020 383.11 2109.87 1161.05 1096.50 59.68 4.00
   23:36:57.796.30-Jun-2020 383.31 2109.87 1161.05 1096.50 59.68 4.00
   23:36:57.997.30-Jun-2020 383.51 2109.90 1161.05 1096.50 59.68 4.00
   23:36:58.197.30-Jun-2020 383.71 2109.89 1161.05 1096.50 59.68 4.00
   23:36:58.397.30-Jun-2020 383.91 2109.89 1161.05 1096.50 59.68 4.00
   23:36:58.597.30-Jun-2020 384.11 2109.89 1161.05 1096.50 59.68 4.00
   23:36:58.797.30-Jun-2020 384.31 2109.89 1161.05 1096.50 59.68 4.00
   23:36:58.997.30-Jun-2020 384.51 2109.86 1161.05 1096.50 59.68 4.00
   23:36:59.197.30-Jun-2020 384.71 2109.89 1161.05 1096.50 59.68 4.00
   23:36:59.397.30-Jun-2020 384.91 2109.90 1161.05 1096.50 59.68 4.00
   23:36:59.597.30-Jun-2020 385.11 2109.90 1161.05 1096.50 59.68 4.00
   23:36:59.797.30-Jun-2020 385.31 2109.90 1161.05 1096.50 59.68 4.00
   23:36:59.997.30-Jun-2020 385.51 2109.90 1161.05 1096.50 59.68 4.00
   23:37:00.197.30-Jun-2020 385.71 2109.90 1161.05 1096.50 59.68 4.00
   23:37:00.397.30-Jun-2020 385.91 2109.91 1161.05 1096.50 59.68 4.00
   23:37:00.597.30-Jun-2020 386.11 2109.91 1161.05 1096.50 59.68 4.00
   23:37:00.797.30-Jun-2020 386.31 2109.90 1161.05 1096.50 59.68 4.00
   23:37:00.997.30-Jun-2020 386.51 2109.91 1161.05 1096.50 59.68 4.00
   23:37:01.197.30-Jun-2020 386.71 2109.89 1161.05 1096.50 59.68 4.00
   23:37:01.398.30-Jun-2020 386.91 2109.91 1161.05 1096.50 59.68 4.00
   23:37:01.598.30-Jun-2020 387.11 2109.91 1161.05 1096.50 59.68 4.00
   23:37:01.798.30-Jun-2020 387.31 2109.91 1161.05 1096.50 59.68 4.00
   23:37:01.998.30-Jun-2020 387.51 2109.91 1161.05 1096.50 59.68 4.00
   23:37:02.198.30-Jun-2020 387.71 2109.91 1161.05 1096.50 59.68 4.00
   23:37:02.398.30-Jun-2020 387.91 2109.91 1161.05 1096.50 59.68 4.00
   23:37:02.598.30-Jun-2020 388.11 2109.88 1161.05 1096.50 59.68 4.00
   23:37:02.798.30-Jun-2020 388.31 2109.88 1161.05 1096.50 59.68 4.00
   23:37:02.998.30-Jun-2020 388.51 2109.92 1161.05 1096.50 59.68 4.00
   23:37:03.198.30-Jun-2020 388.71 2109.92 1161.05 1096.50 59.68 4.00
   23:37:03.398.30-Jun-2020 388.91 2109.90 1161.05 1096.50 59.68 4.00
   23:37:03.598.30-Jun-2020 389.11 2109.92 1161.05 1096.50 59.68 4.00
   23:37:03.798.30-Jun-2020 389.31 2109.92 1161.05 1096.50 59.68 4.00
   23:37:03.998.30-Jun-2020 389.51 2109.92 1161.05 1096.50 59.68 4.00
   23:37:04.198.30-Jun-2020 389.71 2109.92 1161.05 1096.50 59.68 4.00
   23:37:04.398.30-Jun-2020 389.91 2109.91 1161.05 1096.50 59.68 4.00
   23:37:04.598.30-Jun-2020 390.11 2109.92 1161.05 1096.50 59.68 4.00
   23:37:04.799.30-Jun-2020 390.31 2109.93 1161.05 1096.50 59.68 4.00
   23:37:04.999.30-Jun-2020 390.51 2109.89 1161.05 1096.50 59.68 4.00
   23:37:05.199.30-Jun-2020 390.71 2109.91 1161.05 1096.50 59.68 4.00
   23:37:05.399.30-Jun-2020 390.91 2109.93 1161.05 1096.50 59.68 4.00
