~Version Information
 VERS.                  2.0:   CWLS log ASCII Standard -VERSION 2.0
 WRAP.                   NO:   One line per depth step
~Well Information Block
#MNEM.UNIT     VALUE/NAME     DESCRIPTION
#---------     -----------    ---------------------------
 STRT.S             23:30:34 30-Jun-20: START TIME 23:30:34 30-Jun-20
 STOP.S             23:39:34 30-Jun-20: STOP TIME  23:39:34 30-Jun-20
 STEP.S                   0.00: STEP TIME
 NULL.                 -999.25: NULL VALUE
 DFWT.                        :  DIST FWL TEXT
 DFST.                        :  DIST FSL TEXT
 DMF .             Drill Floor:  DRILL MEAS FROM
 STIM.      09.59.28 01-Jun-20:  START TIME
 DATE.      09.59.28 01-Jun-20:  END TIME
 SPUD.               01-Jun-20:  SPUD DATE
 NREF.                    Grid:  NORTH REFERENCE
 HPTY.       Minimum Curvature:  HOLE POS TYPE
 DMOD.             Drill Model:  DRILL MOD DESC
 SVYD.                  Survey:  SURVEY DESC
 ILTD.               Lithology:  INTERP LTH DESC
 FTOP.          Formation Tops:  FORM TOPS DESC
 SON .        AZ-XX-0905455768:  JOB NUMBER
 WTYP.                Deviated:  WELL TYPE
 COMP.     BP Exploration(Caspian Sea):  COMPANY
 BASE.              Azerbaijan:  LOGGING EQUIPMENT BASE LOCATION
 REGN.                   EESSA:  REGION
 CTRY.              Azerbaijan:  COUNTRY NAME
 FLD .                     ACG:  FIELD NAME
 SRVC.          Turan Drilling:  CONTRACTOR
 WELL.                     B41:  WELL NAME
 RIG .           Central Azeri:  RIG NAME
 DCON.         Sperry Drilling:  DIRECTNL CONTR
 PDAT.          Mean Sea Level:  PERMANENT DATUM
 MDS .        Operator Entered:  MAG DATA SOURCE
 API .                        :  API NUMBER
 CNTY.                        :  COUNTY
 PROV.                        :  PROVINCE
 STAT.                        :  STATE
 UWI .                        :  UNIQUE WELL IDENTIFIER
 LOC .                        :  LOCATION
 LMF .             Drill Floor:  LOG MEASURED FROM
 TVDS.m                  43.29:  TVDSS CORRECTN
 LATI.deg                40.03:  LATITUDE
 LONG.deg                51.35:  LONGITUDE
 WHNS.m                  12.98:  WELL HEAD N/S
 WHEW.m                  -6.62:  WELL HEAD E/W
 UTMX.m              530128.28:  UTM X
 UTMY.m             4433192.49:  UTM Y
 DFWL.m                   0.00:  DISTANCE FWL
 DFSL.m                   0.00:  DISTANCE FSL
 SDEP.m                 378.00:  START DEPTH
 TDD .m                   0.00:  TOTAL DEPTH (DRILLER)
 VSDR.deg               296.18:  VERT SEC DIRECT
 GVFD.g                   1.00:  GRAVITY FIELD
 MFLD.nT              50253.00:  MAGNETIC FIELD
 MDIP.deg                59.49:  MAGNETIC DIP
 MDEC.deg                 6.44:  MAGNETIC DECL
 GRDC.deg                 0.22:  GRID CORRECTION
 AZTC.deg                 6.22:  AZM TOTAL CORR
 EPD .m                   0.00:  ELEVATION
 EGL .m                   0.00:  GROUND ELEVATION
 WDMS.m                 128.20:  WD ELEV
 APD .m                  43.29:  DEPTH ABOVE PD
 AGAP.m                  43.29:  AIR GAP
 VSEW.m                  -6.62:  VERT SEC E/W
 VSNS.m                  12.98:  VERT SEC N/S
 EKB .m                  43.29:  KB ELEVATION
 EDF .m                  43.29:  DF ELEVATION
 TDL .m                1152.00:  TOTAL DEPTH (LOGGER)
 VSC .                       0:  VS TO CLOSURE
 MAGU.                 1848525:  MAGUTM CHECKSUM
~Parameter Information Block
#MNEM.UNIT       Value        Description
#---------     -----------    ---------------------------
 AV  .mps                 0.40:  Ann Velocity 
 AVMX.mps                 1.56:  Max Ann Veloc 
 AZIF.deg               300.46:  Azm, Final 
 BHAT.        Rotary Steerable:  BHA Type 
 BROT.°/30m               0.40:  Build Rotating 
 BS  .in                 17.50:  Bit Size 
 BSZ .in                 17.50:  Bit Size 
 BTPL.psig              300.00:  Bit Press Loss 
 CABU.                      No:  Customer Abuse 
 CGEO.          Parviz Guliyev:  Customer Geo 
 COMM.                     œº_:  Run Comments 1 
 TCS .hr                108.13:  Time Ciculation Ended 
 CV  .mps                 0.50:  Crit Velocity 
 CVMX.mps                 2.01:  Max Crit Veloc 
 DD1 .          Fariz Nahmatov:  Direct Drillr 1 
 DD2 .             Ehab Radwan:  Direct Drillr 2 
 DDSV.               Geo-Pilot:  DD Service 
 DEFF.%                  99.00:  % Det Eff 
 DLRX.°/30m               0.50:  Dogleg Rot Max 
 DLSO.°/30m               2.80:  Dogleg Oriented 
 DLSX.°/30m               3.90:  Dogleg Str Max 
 DRET.      09.30.04 03-Jul-20:  Drill End Time 
 DRST.      18.33.04 28-Jun-20:  Drill Start Tim 
 DTIM.hr                 55.83:  Time Drilling 
 EDEP.m                1952.00:  End Depth 
 ENG1.      Bakhtiyar Jabbarli:  Engineer 1 
 ENG2.         Farhad Orujzade:  Engineer 2 
 ENG3.          Rustam Safarov:  Engineer 3 
 ETIM.      01.33.04 04-Jul-20:  End Time 
 FLOI.gpm              1050.00:  Flow In 
 FLON.gpm               950.00:  Flow In Min 
 FLOS.cptm                0.10:  Fluid Loss 
 FLOX.gpm              1150.00:  Flow In Max 
 HFLO.                      No:  High Flow 
 HPRE.                      No:  High Pressure 
 HTEM.                      No:  High Temp 
 HYDO.m                   1.80:  Hydro Offset 
 IFIN.deg                75.26:  Inc, Final 
 IMAX.deg                75.38:  Inc Max 
 IMIN.deg                22.84:  Inc Min 
 IMND.m                 832.38:  Inc Min Depth 
 IMXD.m                1936.55:  Inc Max Depth 
 JARR.                      No:  Jarring 
 LETM.      17.40.00 04-Jul-20:  Log End Time 
 LOST.hr                     0:  Lost Rig Time 
 LSTM.      12.33.04 28-Jun-20:  Log Start Time 
 MDCL.ppm             49500.00:  Mud Chlorides 
 MDES.     Inversion Oil/Synthetic:  Mud Desc 
 DFD .sg                  1.46:  Mud Density 
 MDMN.sg                  1.46:  Dens Mud Min 
 MDMX.sg                  1.46:  Dens Mud Max 
 MOIL.                      70:  Run Mud Oil % 
 MOWR.                   70:30:  Run Mud OWR 
 MSND.                     0.5:  Run Mud Sand % 
 MSOL.                   19.89:  Run Mud Solids% 
 DFV .spqt               72.00:  Mud Viscosity 
 MWOD.in                  9.50:  MWD Tool OD 
 MWSI.                      No:  Serv Intrp, MWD 
 OTIM.hr                146.53:  Time Operating 
 PCON.           Look Like New:  Pad Condition 
 PMAX.psia             2900.00:  Press Op, Max 
 PV  .cP                 38.00:  Mud PV 
 RUN .                     600:  Run Number 
 ROPA.m/hr               22.00:  ROP Avg 
 ROPN.m/hr               10.00:  ROP Min 
 ROPX.m/hr              263.00:  ROP Max 
 RPMA.rpm               155.00:  RPM Surface Avg 
 RPMN.rpm               140.00:  RPM Surface Min 
 RPMX.rpm               160.00:  RPM Surface Max 
 RRUN.                    0600:  Rig Run Number 
 RTIM.hr                  5.00:  Time Reaming 
 SAZI.deg               300.08:  Azm, Start 
 SDEP.m                 800.00:  Start Depth 
 SIDD.                      No:  Serv Intrp, DD 
 SINC.deg                22.84:  Inc, Start 
 SPPA.psig             3000.00:  SPP Avg 
 SPPN.psig             1900.00:  SPP Min 
 SPPX.psig             3200.00:  SPP Max 
 STIM.      12.30.04 28-Jun-20:  Start Time 
 SVCS.                 DD, MWD:  Services 
 SVER.                    9.20:  Sperry Version 
 TDAT.m                1952.00:  Tot Depth Attmp 
 TDDF.                      No:  Trip for DD 
 TDLG.m                1152.00:  Tot Depth Loggd 
 TFF .                      No:  Trip for Fail 
 TQAA.f-kp                8.00:  Torque Abs Avg 
 TQAN.f-kp                5.00:  Torque Abs Min 
 TQAX.f-kp               14.00:  Torque Abs Max 
 TRRT.°/30m               0.50:  Turn Rotating 
 MRT .                  EWR-M5:  Maximum Recorded Temperature 
 TTMX.degC               69.00:  Max Tool Temp 
 VS01.                90610313:  Virtual Str1 SN 
 VS02.                90613431:  Virtual Str2 SN 
 VS03.                90615410:  Virtual Str3 SN 
 WBMN.klb                 6.00:  WOB Min 
 WITN.            Bruce Cheyne:  Customer Rep 
 WITN.             Ayaz Aliyev:  Customer Rep 2 
 WOBA.klb                 6.00:  WOB Avg 
 WOBX.klb                10.00:  WOB Max 
 YP  .lhf2               36.00:  Yield Point 
~Curve Information Block
#MNEM.UNIT                 API CODE     Curve Description
#---------               -----------    ---------------------------
 TIME.HHMMSS            00 000 000 000:  GT Time & Date
 GTET.sec               00 000 000 000:  GT Elapsed Test Time
 GTPQH.psia             00 000 000 000:  GT HR Quartz Pressure
 GTDEPTH.m              00 000 000 000:  GT Depth
 GTTVD.m                00 000 000 000:  GT True Vertical Depth
 GTTQ.degC              00 000 000 000:  GT Quartz Temperature
 GTTN.NONE              00 000 000 000:  GT Test Number
#Other Information
#
#WARRANTY: Halliburton will use its best efforts to furnish customers with 
#accurate information and interpretations that are part of, and incident to, the services 
#provided.  However, Halliburton cannot and does not warrant the accuracy 
#or correctness of such information and interpretations.  Under no circumstances should any 
#such information or interpretation be relied upon as the sole basis for any drilling, 
#completion, production, or financial decision or any procedure involving any risk to the 
#safety of any drilling venture, drilling rig or its crew or any other third party.  The 
#Customer has full responsibility for all drilling, completion and production operation.  
#Halliburton makes no representations or warranties, either expressed or 
#implied, including, but not limited to, the implied warranties of merchantability or fitness 
#for a particular purpose, with respect to the services rendered.  In no event will 
#Halliburton be liable for failure to obtain any particular results or for 
#any damages, including, but not limited to, indirect, special or consequential damages, 
#resulting from the use of any information or interpretation provided by Halliburton.
#
~A           TIME            GTET   GTPQH  GTDEPTH  GTTVD  GTTQ  GTTN 
# ...
   23:32:52.525.30-Jun-2020 138.04 2110.87 1161.05 1096.50 59.67 4.00
   23:32:52.725.30-Jun-2020 138.24 2110.87 1161.05 1096.50 59.67 4.00
   23:32:52.925.30-Jun-2020 138.44 2110.88 1161.05 1096.50 59.67 4.00
   23:32:53.125.30-Jun-2020 138.64 2110.87 1161.05 1096.50 59.67 4.00
   23:32:53.325.30-Jun-2020 138.84 2110.88 1161.05 1096.50 59.67 4.00
   23:32:53.526.30-Jun-2020 139.04 2110.91 1161.05 1096.50 59.67 4.00
   23:32:53.726.30-Jun-2020 139.24 2110.90 1161.05 1096.50 59.67 4.00
   23:32:53.926.30-Jun-2020 139.44 2110.89 1161.05 1096.50 59.67 4.00
   23:32:54.126.30-Jun-2020 139.64 2110.88 1161.05 1096.50 59.67 4.00
   23:32:54.326.30-Jun-2020 139.84 2110.88 1161.05 1096.50 59.67 4.00
   23:32:54.526.30-Jun-2020 140.04 2110.90 1161.05 1096.50 59.67 4.00
   23:32:54.726.30-Jun-2020 140.24 2110.90 1161.05 1096.50 59.67 4.00
   23:32:54.926.30-Jun-2020 140.44 2110.88 1161.05 1096.50 59.67 4.00
   23:32:55.126.30-Jun-2020 140.64 2110.87 1161.05 1096.50 59.67 4.00
   23:32:55.326.30-Jun-2020 140.84 2110.89 1161.05 1096.50 59.67 4.00
   23:32:55.526.30-Jun-2020 141.04 2110.88 1161.05 1096.50 59.67 4.00
   23:32:55.726.30-Jun-2020 141.24 2110.88 1161.05 1096.50 59.67 4.00
   23:32:55.926.30-Jun-2020 141.44 2110.89 1161.05 1096.50 59.67 4.00
   23:32:56.126.30-Jun-2020 141.64 2110.88 1161.05 1096.50 59.67 4.00
   23:32:56.326.30-Jun-2020 141.84 2110.87 1161.05 1096.50 59.67 4.00
   23:32:56.526.30-Jun-2020 142.04 2110.86 1161.05 1096.50 59.67 4.00
   23:32:56.726.30-Jun-2020 142.24 2110.86 1161.05 1096.50 59.67 4.00
   23:32:56.926.30-Jun-2020 142.44 2110.87 1161.05 1096.50 59.67 4.00
   23:32:57.127.30-Jun-2020 142.64 2110.88 1161.05 1096.50 59.67 4.00
   23:32:57.327.30-Jun-2020 142.84 2110.87 1161.05 1096.50 59.67 4.00
   23:32:57.527.30-Jun-2020 143.04 2110.85 1161.05 1096.50 59.67 4.00
   23:32:57.727.30-Jun-2020 143.24 2110.87 1161.05 1096.50 59.67 4.00
   23:32:57.927.30-Jun-2020 143.44 2110.86 1161.05 1096.50 59.67 4.00
   23:32:58.127.30-Jun-2020 143.64 2110.86 1161.05 1096.50 59.67 4.00
   23:32:58.327.30-Jun-2020 143.84 2110.85 1161.05 1096.50 59.67 4.00
   23:32:58.527.30-Jun-2020 144.04 2110.83 1161.05 1096.50 59.67 4.00
   23:32:58.727.30-Jun-2020 144.24 2110.85 1161.05 1096.50 59.67 4.00
   23:32:58.927.30-Jun-2020 144.44 2110.85 1161.05 1096.50 59.67 4.00
   23:32:59.127.30-Jun-2020 144.64 2110.84 1161.05 1096.50 59.67 4.00
   23:32:59.327.30-Jun-2020 144.84 2110.83 1161.05 1096.50 59.67 4.00
   23:32:59.527.30-Jun-2020 145.04 2110.85 1161.05 1096.50 59.67 4.00
   23:32:59.727.30-Jun-2020 145.24 2110.85 1161.05 1096.50 59.67 4.00
   23:32:59.927.30-Jun-2020 145.44 2110.85 1161.05 1096.50 59.67 4.00
   23:33:00.127.30-Jun-2020 145.64 2110.86 1161.05 1096.50 59.67 4.00
   23:33:00.327.30-Jun-2020 145.84 2110.85 1161.05 1096.50 59.67 4.00
   23:33:00.528.30-Jun-2020 146.04 2110.84 1161.05 1096.50 59.67 4.00
   23:33:00.728.30-Jun-2020 146.24 2110.84 1161.05 1096.50 59.67 4.00
   23:33:00.928.30-Jun-2020 146.44 2110.86 1161.05 1096.50 59.67 4.00
   23:33:01.128.30-Jun-2020 146.64 2110.85 1161.05 1096.50 59.67 4.00
   23:33:01.328.30-Jun-2020 146.84 2110.84 1161.05 1096.50 59.67 4.00
   23:33:01.528.30-Jun-2020 147.04 2110.84 1161.05 1096.50 59.67 4.00
   23:33:01.728.30-Jun-2020 147.24 2110.84 1161.05 1096.50 59.67 4.00
   23:33:01.928.30-Jun-2020 147.44 2110.84 1161.05 1096.50 59.67 4.00
   23:33:02.128.30-Jun-2020 147.64 2110.84 1161.05 1096.50 59.67 4.00
   23:33:02.328.30-Jun-2020 147.84 2110.85 1161.05 1096.50 59.67 4.00
   23:33:02.528.30-Jun-2020 148.04 2110.83 1161.05 1096.50 59.67 4.00
   23:33:02.728.30-Jun-2020 148.24 2110.83 1161.05 1096.50 59.67 4.00
   23:33:02.928.30-Jun-2020 148.44 2110.83 1161.05 1096.50 59.67 4.00
   23:33:03.128.30-Jun-2020 148.64 2110.85 1161.05 1096.50 59.67 4.00
   23:33:03.328.30-Jun-2020 148.84 2110.85 1161.05 1096.50 59.67 4.00
   23:33:03.528.30-Jun-2020 149.04 2110.86 1161.05 1096.50 59.67 4.00
   23:33:03.728.30-Jun-2020 149.24 2110.86 1161.05 1096.50 59.67 4.00
   23:33:03.929.30-Jun-2020 149.44 2110.85 1161.05 1096.50 59.67 4.00
   23:33:04.129.30-Jun-2020 149.64 2110.84 1161.05 1096.50 59.67 4.00
   23:33:04.329.30-Jun-2020 149.84 2110.85 1161.05 1096.50 59.67 4.00
   23:33:04.529.30-Jun-2020 150.04 2110.86 1161.05 1096.50 59.67 4.00
   23:33:04.729.30-Jun-2020 150.24 2110.86 1161.05 1096.50 59.67 4.00
   23:33:04.929.30-Jun-2020 150.44 2110.83 1161.05 1096.50 59.67 4.00
   23:33:05.129.30-Jun-2020 150.64 2110.84 1161.05 1096.50 59.67 4.00
   23:33:05.329.30-Jun-2020 150.84 2110.88 1161.05 1096.50 59.67 4.00
   23:33:05.529.30-Jun-2020 151.04 2110.82 1161.05 1096.50 59.67 4.00
   23:33:05.729.30-Jun-2020 151.24 2110.85 1161.05 1096.50 59.67 4.00
   23:33:05.929.30-Jun-2020 151.44 2110.82 1161.05 1096.50 59.67 4.00
   23:33:06.129.30-Jun-2020 151.64 2110.85 1161.05 1096.50 59.67 4.00
   23:33:06.329.30-Jun-2020 151.84 2110.84 1161.05 1096.50 59.67 4.00
   23:33:06.529.30-Jun-2020 152.04 2110.83 1161.05 1096.50 59.67 4.00
   23:33:06.729.30-Jun-2020 152.24 2110.83 1161.05 1096.50 59.67 4.00
   23:33:06.929.30-Jun-2020 152.44 2110.85 1161.05 1096.50 59.67 4.00
   23:33:07.129.30-Jun-2020 152.64 2110.85 1161.05 1096.50 59.67 4.00
   23:33:07.330.30-Jun-2020 152.84 2110.83 1161.05 1096.50 59.67 4.00
   23:33:07.530.30-Jun-2020 153.04 2110.83 1161.05 1096.50 59.67 4.00
   23:33:07.730.30-Jun-2020 153.24 2110.83 1161.05 1096.50 59.67 4.00
   23:33:07.930.30-Jun-2020 153.44 2110.83 1161.05 1096.50 59.67 4.00
   23:33:08.130.30-Jun-2020 153.64 2110.83 1161.05 1096.50 59.67 4.00
   23:33:08.330.30-Jun-2020 153.84 2110.83 1161.05 1096.50 59.67 4.00
   23:33:08.530.30-Jun-2020 154.04 2110.82 1161.05 1096.50 59.67 4.00
   23:33:08.730.30-Jun-2020 154.24 2110.82 1161.05 1096.50 59.67 4.00
   23:33:08.930.30-Jun-2020 154.44 2110.81 1161.05 1096.50 59.67 4.00
   23:33:09.130.30-Jun-2020 154.64 2110.83 1161.05 1096.50 59.67 4.00
   23:33:09.330.30-Jun-2020 154.84 2110.82 1161.05 1096.50 59.67 4.00
   23:33:09.530.30-Jun-2020 155.05 2110.82 1161.05 1096.50 59.67 4.00
   23:33:09.730.30-Jun-2020 155.25 2110.82 1161.05 1096.50 59.67 4.00
   23:33:09.930.30-Jun-2020 155.45 2110.83 1161.05 1096.50 59.67 4.00
   23:33:10.130.30-Jun-2020 155.65 2110.81 1161.05 1096.50 59.67 4.00
   23:33:10.330.30-Jun-2020 155.85 2110.84 1161.05 1096.50 59.67 4.00
   23:33:10.530.30-Jun-2020 156.05 2110.80 1161.05 1096.50 59.67 4.00
   23:33:10.731.30-Jun-2020 156.25 2110.80 1161.05 1096.50 59.67 4.00
   23:33:10.931.30-Jun-2020 156.45 2110.82 1161.05 1096.50 59.67 4.00
   23:33:11.131.30-Jun-2020 156.65 2110.84 1161.05 1096.50 59.67 4.00
   23:33:11.331.30-Jun-2020 156.85 2110.82 1161.05 1096.50 59.67 4.00
   23:33:11.531.30-Jun-2020 157.05 2110.82 1161.05 1096.50 59.67 4.00
   23:33:11.731.30-Jun-2020 157.25 2110.82 1161.05 1096.50 59.67 4.00
   23:33:11.931.30-Jun-2020 157.45 2110.83 1161.05 1096.50 59.67 4.00
   23:33:12.131.30-Jun-2020 157.65 2110.83 1161.05 1096.50 59.67 4.00
   23:33:12.331.30-Jun-2020 157.85 2110.83 1161.05 1096.50 59.67 4.00
   23:33:12.531.30-Jun-2020 158.05 2110.83 1161.05 1096.50 59.67 4.00
   23:33:12.731.30-Jun-2020 158.25 2110.83 1161.05 1096.50 59.67 4.00
   23:33:12.931.30-Jun-2020 158.45 2110.81 1161.05 1096.50 59.67 4.00
   23:33:13.131.30-Jun-2020 158.65 2110.82 1161.05 1096.50 59.67 4.00
   23:33:13.331.30-Jun-2020 158.85 2110.82 1161.05 1096.50 59.67 4.00
   23:33:13.531.30-Jun-2020 159.05 2110.81 1161.05 1096.50 59.67 4.00
   23:33:13.731.30-Jun-2020 159.25 2110.82 1161.05 1096.50 59.67 4.00
   23:33:13.931.30-Jun-2020 159.45 2110.81 1161.05 1096.50 59.67 4.00
   23:33:14.131.30-Jun-2020 159.65 2110.84 1161.05 1096.50 59.67 4.00
   23:33:14.332.30-Jun-2020 159.85 2110.82 1161.05 1096.50 59.67 4.00
   23:33:14.532.30-Jun-2020 160.05 2110.83 1161.05 1096.50 59.67 4.00
   23:33:14.732.30-Jun-2020 160.25 2110.83 1161.05 1096.50 59.67 4.00
   23:33:14.932.30-Jun-2020 160.45 2110.82 1161.05 1096.50 59.67 4.00
   23:33:15.132.30-Jun-2020 160.65 2110.82 1161.05 1096.50 59.67 4.00
   23:33:15.332.30-Jun-2020 160.85 2110.83 1161.05 1096.50 59.67 4.00
