~Version Information
 VERS.                  2.0:   CWLS log ASCII Standard -VERSION 2.0
 WRAP.                   NO:   One line per depth step
~Well Information Block
#MNEM.UNIT     VALUE/NAME     DESCRIPTION
#---------     -----------    ---------------------------
 STRT.S             16:00:06 29-Jun-20: START TIME 16:00:06 29-Jun-20
 STOP.S             16:09:07 29-Jun-20: STOP TIME  16:09:07 29-Jun-20
 STEP.S                   0.00: STEP TIME
 NULL.                 -999.25: NULL VALUE
 DFWT.                        :  DIST FWL TEXT
 DFST.                        :  DIST FSL TEXT
 DMF .             Drill Floor:  DRILL MEAS FROM
 STIM.      09.59.28 01-Jun-20:  START TIME
 DATE.      09.59.28 01-Jun-20:  END TIME
 SPUD.               01-Jun-20:  SPUD DATE
 NREF.                    Grid:  NORTH REFERENCE
 HPTY.       Minimum Curvature:  HOLE POS TYPE
 DMOD.             Drill Model:  DRILL MOD DESC
 SVYD.                  Survey:  SURVEY DESC
 ILTD.               Lithology:  INTERP LTH DESC
 FTOP.          Formation Tops:  FORM TOPS DESC
 SON .        AZ-XX-0905455768:  JOB NUMBER
 WTYP.                Deviated:  WELL TYPE
 COMP.     BP Exploration(Caspian Sea):  COMPANY
 BASE.              Azerbaijan:  LOGGING EQUIPMENT BASE LOCATION
 REGN.                   EESSA:  REGION
 CTRY.              Azerbaijan:  COUNTRY NAME
 FLD .                     ACG:  FIELD NAME
 SRVC.          Turan Drilling:  CONTRACTOR
 WELL.                     B41:  WELL NAME
 RIG .           Central Azeri:  RIG NAME
 DCON.         Sperry Drilling:  DIRECTNL CONTR
 PDAT.          Mean Sea Level:  PERMANENT DATUM
 MDS .        Operator Entered:  MAG DATA SOURCE
 API .                        :  API NUMBER
 CNTY.                        :  COUNTY
 PROV.                        :  PROVINCE
 STAT.                        :  STATE
 UWI .                        :  UNIQUE WELL IDENTIFIER
 LOC .                        :  LOCATION
 LMF .             Drill Floor:  LOG MEASURED FROM
 TVDS.m                  43.29:  TVDSS CORRECTN
 LATI.deg                40.03:  LATITUDE
 LONG.deg                51.35:  LONGITUDE
 WHNS.m                  12.98:  WELL HEAD N/S
 WHEW.m                  -6.62:  WELL HEAD E/W
 UTMX.m              530128.28:  UTM X
 UTMY.m             4433192.49:  UTM Y
 DFWL.m                   0.00:  DISTANCE FWL
 DFSL.m                   0.00:  DISTANCE FSL
 SDEP.m                 378.00:  START DEPTH
 TDD .m                   0.00:  TOTAL DEPTH (DRILLER)
 VSDR.deg               296.18:  VERT SEC DIRECT
 GVFD.g                   1.00:  GRAVITY FIELD
 MFLD.nT              50253.00:  MAGNETIC FIELD
 MDIP.deg                59.49:  MAGNETIC DIP
 MDEC.deg                 6.44:  MAGNETIC DECL
 GRDC.deg                 0.22:  GRID CORRECTION
 AZTC.deg                 6.22:  AZM TOTAL CORR
 EPD .m                   0.00:  ELEVATION
 EGL .m                   0.00:  GROUND ELEVATION
 WDMS.m                 128.20:  WD ELEV
 APD .m                  43.29:  DEPTH ABOVE PD
 AGAP.m                  43.29:  AIR GAP
 VSEW.m                  -6.62:  VERT SEC E/W
 VSNS.m                  12.98:  VERT SEC N/S
 EKB .m                  43.29:  KB ELEVATION
 EDF .m                  43.29:  DF ELEVATION
 TDL .m                1152.00:  TOTAL DEPTH (LOGGER)
 VSC .                       0:  VS TO CLOSURE
 MAGU.                 1848525:  MAGUTM CHECKSUM
~Parameter Information Block
#MNEM.UNIT       Value        Description
#---------     -----------    ---------------------------
 AV  .mps                 0.40:  Ann Velocity 
 AVMX.mps                 1.56:  Max Ann Veloc 
 AZIF.deg               300.46:  Azm, Final 
 BHAT.        Rotary Steerable:  BHA Type 
 BROT.∞/30m               0.40:  Build Rotating 
 BS  .in                 17.50:  Bit Size 
 BSZ .in                 17.50:  Bit Size 
 BTPL.psig              300.00:  Bit Press Loss 
 CABU.                      No:  Customer Abuse 
 CGEO.          Parviz Guliyev:  Customer Geo 
 COMM.                     ,‘Å:  Run Comments 1 
 TCS .hr                108.13:  Time Ciculation Ended 
 CV  .mps                 0.50:  Crit Velocity 
 CVMX.mps                 2.01:  Max Crit Veloc 
 DD1 .          Fariz Nahmatov:  Direct Drillr 1 
 DD2 .             Ehab Radwan:  Direct Drillr 2 
 DDSV.               Geo-Pilot:  DD Service 
 DEFF.%                  99.00:  % Det Eff 
 DLRX.∞/30m               0.50:  Dogleg Rot Max 
 DLSO.∞/30m               2.80:  Dogleg Oriented 
 DLSX.∞/30m               3.90:  Dogleg Str Max 
 DRET.      09.30.04 03-Jul-20:  Drill End Time 
 DRST.      18.33.04 28-Jun-20:  Drill Start Tim 
 DTIM.hr                 55.83:  Time Drilling 
 EDEP.m                1952.00:  End Depth 
 ENG1.      Bakhtiyar Jabbarli:  Engineer 1 
 ENG2.         Farhad Orujzade:  Engineer 2 
 ENG3.          Rustam Safarov:  Engineer 3 
 ETIM.      01.33.04 04-Jul-20:  End Time 
 FLOI.gpm              1050.00:  Flow In 
 FLON.gpm               950.00:  Flow In Min 
 FLOS.cptm                0.10:  Fluid Loss 
 FLOX.gpm              1150.00:  Flow In Max 
 HFLO.                      No:  High Flow 
 HPRE.                      No:  High Pressure 
 HTEM.                      No:  High Temp 
 HYDO.m                   1.80:  Hydro Offset 
 IFIN.deg                75.26:  Inc, Final 
 IMAX.deg                75.38:  Inc Max 
 IMIN.deg                22.84:  Inc Min 
 IMND.m                 832.38:  Inc Min Depth 
 IMXD.m                1936.55:  Inc Max Depth 
 JARR.                      No:  Jarring 
 LETM.      17.40.00 04-Jul-20:  Log End Time 
 LOST.hr                     0:  Lost Rig Time 
 LSTM.      12.33.04 28-Jun-20:  Log Start Time 
 MDCL.ppm             49500.00:  Mud Chlorides 
 MDES.     Inversion Oil/Synthetic:  Mud Desc 
 DFD .sg                  1.46:  Mud Density 
 MDMN.sg                  1.46:  Dens Mud Min 
 MDMX.sg                  1.46:  Dens Mud Max 
 MOIL.                      70:  Run Mud Oil % 
 MOWR.                   70:30:  Run Mud OWR 
 MSND.                     0.5:  Run Mud Sand % 
 MSOL.                   19.89:  Run Mud Solids% 
 DFV .spqt               72.00:  Mud Viscosity 
 MWOD.in                  9.50:  MWD Tool OD 
 MWSI.                      No:  Serv Intrp, MWD 
 OTIM.hr                146.53:  Time Operating 
 PCON.           Look Like New:  Pad Condition 
 PMAX.psia             2900.00:  Press Op, Max 
 PV  .cP                 38.00:  Mud PV 
 RUN .                     600:  Run Number 
 ROPA.m/hr               22.00:  ROP Avg 
 ROPN.m/hr               10.00:  ROP Min 
 ROPX.m/hr              263.00:  ROP Max 
 RPMA.rpm               155.00:  RPM Surface Avg 
 RPMN.rpm               140.00:  RPM Surface Min 
 RPMX.rpm               160.00:  RPM Surface Max 
 RRUN.                    0600:  Rig Run Number 
 RTIM.hr                  5.00:  Time Reaming 
 SAZI.deg               300.08:  Azm, Start 
 SDEP.m                 800.00:  Start Depth 
 SIDD.                      No:  Serv Intrp, DD 
 SINC.deg                22.84:  Inc, Start 
 SPPA.psig             3000.00:  SPP Avg 
 SPPN.psig             1900.00:  SPP Min 
 SPPX.psig             3200.00:  SPP Max 
 STIM.      12.30.04 28-Jun-20:  Start Time 
 SVCS.                 DD, MWD:  Services 
 SVER.                    9.20:  Sperry Version 
 TDAT.m                1952.00:  Tot Depth Attmp 
 TDDF.                      No:  Trip for DD 
 TDLG.m                1152.00:  Tot Depth Loggd 
 TFF .                      No:  Trip for Fail 
 TQAA.f-kp                8.00:  Torque Abs Avg 
 TQAN.f-kp                5.00:  Torque Abs Min 
 TQAX.f-kp               14.00:  Torque Abs Max 
 TRRT.∞/30m               0.50:  Turn Rotating 
 MRT .                  EWR-M5:  Maximum Recorded Temperature 
 TTMX.degC               69.00:  Max Tool Temp 
 VS01.                90610313:  Virtual Str1 SN 
 VS02.                90613431:  Virtual Str2 SN 
 VS03.                90615410:  Virtual Str3 SN 
 WBMN.klb                 6.00:  WOB Min 
 WITN.            Bruce Cheyne:  Customer Rep 
 WITN.             Ayaz Aliyev:  Customer Rep 2 
 WOBA.klb                 6.00:  WOB Avg 
 WOBX.klb                10.00:  WOB Max 
 YP  .lhf2               36.00:  Yield Point 
~Curve Information Block
#MNEM.UNIT                 API CODE     Curve Description
#---------               -----------    ---------------------------
 TIME.HHMMSS            00 000 000 000:  GT Time & Date
 GTET.sec               00 000 000 000:  GT Elapsed Test Time
 GTPQH.psia             00 000 000 000:  GT HR Quartz Pressure
 GTDEPTH.m              00 000 000 000:  GT Depth
 GTTVD.m                00 000 000 000:  GT True Vertical Depth
 GTTQ.degC              00 000 000 000:  GT Quartz Temperature
 GTTN.NONE              00 000 000 000:  GT Test Number
#Other Information
#
#WARRANTY: Halliburton will use its best efforts to furnish customers with 
#accurate information and interpretations that are part of, and incident to, the services 
#provided.  However, Halliburton cannot and does not warrant the accuracy 
#or correctness of such information and interpretations.  Under no circumstances should any 
#such information or interpretation be relied upon as the sole basis for any drilling, 
#completion, production, or financial decision or any procedure involving any risk to the 
#safety of any drilling venture, drilling rig or its crew or any other third party.  The 
#Customer has full responsibility for all drilling, completion and production operation.  
#Halliburton makes no representations or warranties, either expressed or 
#implied, including, but not limited to, the implied warranties of merchantability or fitness 
#for a particular purpose, with respect to the services rendered.  In no event will 
#Halliburton be liable for failure to obtain any particular results or for 
#any damages, including, but not limited to, indirect, special or consequential damages, 
#resulting from the use of any information or interpretation provided by Halliburton.
#
~A           TIME            GTET   GTPQH  GTDEPTH GTTVD  GTTQ  GTTN 
# ...
   16:03:35.331.29-Jun-2020 208.88 1575.06  873.30 856.96 65.84 1.00
   16:03:35.531.29-Jun-2020 209.08 1575.04  873.30 856.96 65.84 1.00
   16:03:35.731.29-Jun-2020 209.28 1575.02  873.30 856.96 65.84 1.00
   16:03:35.931.29-Jun-2020 209.48 1575.02  873.30 856.96 65.84 1.00
   16:03:36.131.29-Jun-2020 209.68 1575.06  873.30 856.96 65.84 1.00
   16:03:36.331.29-Jun-2020 209.88 1575.06  873.30 856.96 65.84 1.00
   16:03:36.531.29-Jun-2020 210.08 1575.08  873.30 856.96 65.84 1.00
   16:03:36.731.29-Jun-2020 210.28 1575.08  873.30 856.96 65.84 1.00
   16:03:36.931.29-Jun-2020 210.48 1575.05  873.30 856.96 65.84 1.00
   16:03:37.131.29-Jun-2020 210.68 1575.17  873.30 856.96 65.84 1.00
   16:03:37.331.29-Jun-2020 210.88 1575.14  873.30 856.96 65.84 1.00
   16:03:37.532.29-Jun-2020 211.08 1575.01  873.30 856.96 65.84 1.00
   16:03:37.732.29-Jun-2020 211.28 1575.01  873.30 856.96 65.84 1.00
   16:03:37.932.29-Jun-2020 211.48 1575.06  873.30 856.96 65.84 1.00
   16:03:38.132.29-Jun-2020 211.68 1575.00  873.30 856.96 65.84 1.00
   16:03:38.332.29-Jun-2020 211.88 1575.07  873.30 856.96 65.84 1.00
   16:03:38.532.29-Jun-2020 212.08 1574.96  873.30 856.96 65.84 1.00
   16:03:38.732.29-Jun-2020 212.28 1574.96  873.30 856.96 65.84 1.00
   16:03:38.932.29-Jun-2020 212.48 1575.05  873.30 856.96 65.84 1.00
   16:03:39.132.29-Jun-2020 212.68 1574.98  873.30 856.96 65.84 1.00
   16:03:39.332.29-Jun-2020 212.88 1575.00  873.30 856.96 65.84 1.00
   16:03:39.532.29-Jun-2020 213.08 1574.98  873.30 856.96 65.84 1.00
   16:03:39.732.29-Jun-2020 213.28 1575.07  873.30 856.96 65.84 1.00
   16:03:39.932.29-Jun-2020 213.48 1575.03  873.30 856.96 65.84 1.00
   16:03:40.133.29-Jun-2020 213.68 1574.96  873.30 856.96 65.84 1.00
   16:03:40.333.29-Jun-2020 213.88 1574.99  873.30 856.96 65.84 1.00
   16:03:40.533.29-Jun-2020 214.08 1575.02  873.30 856.96 65.84 1.00
   16:03:40.733.29-Jun-2020 214.28 1575.02  873.30 856.96 65.84 1.00
   16:03:40.933.29-Jun-2020 214.48 1574.92  873.30 856.96 65.84 1.00
   16:03:41.133.29-Jun-2020 214.68 1575.11  873.30 856.96 65.84 1.00
   16:03:41.333.29-Jun-2020 214.88 1575.05  873.30 856.96 65.84 1.00
   16:03:41.533.29-Jun-2020 215.08 1575.09  873.30 856.96 65.84 1.00
   16:03:41.733.29-Jun-2020 215.28 1575.15  873.30 856.96 65.84 1.00
   16:03:41.933.29-Jun-2020 215.48 1575.04  873.30 856.96 65.84 1.00
   16:03:42.133.29-Jun-2020 215.68 1575.07  873.30 856.96 65.84 1.00
   16:03:42.333.29-Jun-2020 215.88 1575.07  873.30 856.96 65.84 1.00
   16:03:42.533.29-Jun-2020 216.08 1575.08  873.30 856.96 65.84 1.00
   16:03:42.733.29-Jun-2020 216.28 1575.03  873.30 856.96 65.84 1.00
   16:03:42.934.29-Jun-2020 216.48 1575.11  873.30 856.96 65.84 1.00
   16:03:43.134.29-Jun-2020 216.68 1575.11  873.30 856.96 65.84 1.00
   16:03:43.334.29-Jun-2020 216.88 1575.08  873.30 856.96 65.84 1.00
   16:03:43.534.29-Jun-2020 217.08 1575.05  873.30 856.96 65.84 1.00
   16:03:43.734.29-Jun-2020 217.28 1575.05  873.30 856.96 65.84 1.00
   16:03:43.934.29-Jun-2020 217.48 1575.02  873.30 856.96 65.84 1.00
   16:03:44.134.29-Jun-2020 217.68 1575.01  873.30 856.96 65.84 1.00
   16:03:44.334.29-Jun-2020 217.88 1575.02  873.30 856.96 65.84 1.00
   16:03:44.534.29-Jun-2020 218.08 1574.99  873.30 856.96 65.84 1.00
   16:03:44.734.29-Jun-2020 218.28 1574.99  873.30 856.96 65.84 1.00
   16:03:44.934.29-Jun-2020 218.48 1575.00  873.30 856.96 65.84 1.00
   16:03:45.134.29-Jun-2020 218.68 1574.98  873.30 856.96 65.84 1.00
   16:03:45.334.29-Jun-2020 218.88 1575.04  873.30 856.96 65.84 1.00
   16:03:45.535.29-Jun-2020 219.08 1575.02  873.30 856.96 65.84 1.00
   16:03:45.735.29-Jun-2020 219.28 1575.02  873.30 856.96 65.84 1.00
   16:03:45.935.29-Jun-2020 219.48 1575.04  873.30 856.96 65.84 1.00
   16:03:46.135.29-Jun-2020 219.68 1575.07  873.30 856.96 65.84 1.00
   16:03:46.335.29-Jun-2020 219.88 1575.04  873.30 856.96 65.84 1.00
   16:03:46.535.29-Jun-2020 220.08 1575.12  873.30 856.96 65.84 1.00
   16:03:46.735.29-Jun-2020 220.28 1575.12  873.30 856.96 65.84 1.00
   16:03:46.935.29-Jun-2020 220.48 1575.00  873.30 856.96 65.84 1.00
   16:03:47.135.29-Jun-2020 220.68 1575.04  873.30 856.96 65.84 1.00
   16:03:47.335.29-Jun-2020 220.88 1575.11  873.30 856.96 65.84 1.00
   16:03:47.535.29-Jun-2020 221.08 1575.08  873.30 856.96 65.84 1.00
   16:03:47.735.29-Jun-2020 221.28 1575.06  873.30 856.96 65.84 1.00
   16:03:47.935.29-Jun-2020 221.48 1557.54  873.30 856.96 65.84 1.00
   16:03:48.136.29-Jun-2020 221.68 1514.02  873.30 856.96 65.84 1.00
   16:03:48.336.29-Jun-2020 221.88 1544.18  873.30 856.96 65.84 1.00
   16:03:48.536.29-Jun-2020 222.08 1553.89  873.30 856.96 65.85 1.00
   16:03:48.736.29-Jun-2020 222.28 1553.89  873.30 856.96 65.85 1.00
   16:03:48.936.29-Jun-2020 222.48 1558.63  873.30 856.96 65.85 1.00
   16:03:49.136.29-Jun-2020 222.68 1558.56  873.30 856.96 65.85 1.00
   16:03:49.336.29-Jun-2020 222.88 1560.37  873.30 856.96 65.85 1.00
   16:03:49.536.29-Jun-2020 223.08 1560.89  873.30 856.96 65.85 1.00
   16:03:49.736.29-Jun-2020 223.28 1560.89  873.30 856.96 65.85 1.00
   16:03:49.936.29-Jun-2020 223.48 1561.77  873.30 856.96 65.85 1.00
   16:03:50.136.29-Jun-2020 223.68 1562.56  873.30 856.96 65.85 1.00
   16:03:50.336.29-Jun-2020 223.88 1562.51  873.30 856.96 65.85 1.00
   16:03:50.536.29-Jun-2020 224.08 1563.58  873.30 856.96 65.85 1.00
   16:03:50.737.29-Jun-2020 224.28 1563.58  873.30 856.96 65.85 1.00
   16:03:50.937.29-Jun-2020 224.49 1564.49  873.30 856.96 65.85 1.00
   16:03:51.137.29-Jun-2020 224.69 1564.01  873.30 856.96 65.85 1.00
   16:03:51.337.29-Jun-2020 224.89 1564.17  873.30 856.96 65.85 1.00
   16:03:51.537.29-Jun-2020 225.09 1561.11  873.30 856.96 65.85 1.00
   16:03:51.737.29-Jun-2020 225.29 1564.50  873.30 856.96 65.85 1.00
   16:03:51.937.29-Jun-2020 225.49 1564.88  873.30 856.96 65.85 1.00
   16:03:52.137.29-Jun-2020 225.69 1564.60  873.30 856.96 65.85 1.00
   16:03:52.337.29-Jun-2020 225.89 1565.58  873.30 856.96 65.85 1.00
   16:03:52.537.29-Jun-2020 226.09 1565.03  873.30 856.96 65.85 1.00
   16:03:52.737.29-Jun-2020 226.29 1565.03  873.30 856.96 65.85 1.00
   16:03:52.937.29-Jun-2020 226.49 1565.04  873.30 856.96 65.85 1.00
   16:03:53.137.29-Jun-2020 226.69 1554.00  873.30 856.96 65.85 1.00
   16:03:53.338.29-Jun-2020 226.89 1565.80  873.30 856.96 65.85 1.00
   16:03:53.538.29-Jun-2020 227.09 1565.36  873.30 856.96 65.85 1.00
   16:03:53.738.29-Jun-2020 227.29 1565.36  873.30 856.96 65.85 1.00
   16:03:53.938.29-Jun-2020 227.49 1565.74  873.30 856.96 65.85 1.00
   16:03:54.138.29-Jun-2020 227.69 1565.15  873.30 856.96 65.85 1.00
   16:03:54.338.29-Jun-2020 227.89 1564.58  873.30 856.96 65.85 1.00
   16:03:54.538.29-Jun-2020 228.09 1561.47  873.30 856.96 65.85 1.00
   16:03:54.738.29-Jun-2020 228.29 1561.47  873.30 856.96 65.85 1.00
   16:03:54.938.29-Jun-2020 228.49 1565.71  873.30 856.96 65.85 1.00
   16:03:55.138.29-Jun-2020 228.69 1563.76  873.30 856.96 65.85 1.00
   16:03:55.338.29-Jun-2020 228.89 1563.54  873.30 856.96 65.85 1.00
   16:03:55.538.29-Jun-2020 229.09 1566.41  873.30 856.96 65.85 1.00
   16:03:55.738.29-Jun-2020 229.29 1564.35  873.30 856.96 65.85 1.00
   16:03:55.938.29-Jun-2020 229.49 1567.06  873.30 856.96 65.85 1.00
   16:03:56.139.29-Jun-2020 229.69 1567.04  873.30 856.96 65.85 1.00
   16:03:56.339.29-Jun-2020 229.89 1567.16  873.30 856.96 65.85 1.00
   16:03:56.539.29-Jun-2020 230.09 1566.91  873.30 856.96 65.85 1.00
   16:03:56.739.29-Jun-2020 230.29 1566.91  873.30 856.96 65.85 1.00
   16:03:56.939.29-Jun-2020 230.49 1565.61  873.30 856.96 65.85 1.00
   16:03:57.139.29-Jun-2020 230.69 1561.18  873.30 856.96 65.85 1.00
   16:03:57.339.29-Jun-2020 230.89 1566.25  873.30 856.96 65.85 1.00
   16:03:57.539.29-Jun-2020 231.09 1564.98  873.30 856.96 65.85 1.00
   16:03:57.739.29-Jun-2020 231.29 1564.98  873.30 856.96 65.85 1.00
   16:03:57.939.29-Jun-2020 231.49 1565.84  873.30 856.96 65.85 1.00
   16:03:58.139.29-Jun-2020 231.69 1567.13  873.30 856.96 65.85 1.00
   16:03:58.339.29-Jun-2020 231.89 1567.46  873.30 856.96 65.85 1.00
