~Version Information
 VERS.                  2.0:   CWLS log ASCII Standard -VERSION 2.0
 WRAP.                   NO:   One line per depth step
~Well Information Block
#MNEM.UNIT     VALUE/NAME     DESCRIPTION
#---------     -----------    ---------------------------
 STRT.S             06:27:04 01-Jul-20: START TIME 06:27:04 01-Jul-20
 STOP.S             06:36:04 01-Jul-20: STOP TIME  06:36:04 01-Jul-20
 STEP.S                   0.00: STEP TIME
 NULL.                 -999.25: NULL VALUE
 DFWT.                        :  DIST FWL TEXT
 DFST.                        :  DIST FSL TEXT
 DMF .             Drill Floor:  DRILL MEAS FROM
 STIM.      09.59.28 01-Jun-20:  START TIME
 DATE.      09.59.28 01-Jun-20:  END TIME
 SPUD.               01-Jun-20:  SPUD DATE
 NREF.                    Grid:  NORTH REFERENCE
 HPTY.       Minimum Curvature:  HOLE POS TYPE
 DMOD.             Drill Model:  DRILL MOD DESC
 SVYD.                  Survey:  SURVEY DESC
 ILTD.               Lithology:  INTERP LTH DESC
 FTOP.          Formation Tops:  FORM TOPS DESC
 SON .        AZ-XX-0905455768:  JOB NUMBER
 WTYP.                Deviated:  WELL TYPE
 COMP.     BP Exploration(Caspian Sea):  COMPANY
 BASE.              Azerbaijan:  LOGGING EQUIPMENT BASE LOCATION
 REGN.                   EESSA:  REGION
 CTRY.              Azerbaijan:  COUNTRY NAME
 FLD .                     ACG:  FIELD NAME
 SRVC.          Turan Drilling:  CONTRACTOR
 WELL.                     B41:  WELL NAME
 RIG .           Central Azeri:  RIG NAME
 DCON.         Sperry Drilling:  DIRECTNL CONTR
 PDAT.          Mean Sea Level:  PERMANENT DATUM
 MDS .        Operator Entered:  MAG DATA SOURCE
 API .                        :  API NUMBER
 CNTY.                        :  COUNTY
 PROV.                        :  PROVINCE
 STAT.                        :  STATE
 UWI .                        :  UNIQUE WELL IDENTIFIER
 LOC .                        :  LOCATION
 LMF .             Drill Floor:  LOG MEASURED FROM
 TVDS.m                  43.29:  TVDSS CORRECTN
 LATI.deg                40.03:  LATITUDE
 LONG.deg                51.35:  LONGITUDE
 WHNS.m                  12.98:  WELL HEAD N/S
 WHEW.m                  -6.62:  WELL HEAD E/W
 UTMX.m              530128.28:  UTM X
 UTMY.m             4433192.49:  UTM Y
 DFWL.m                   0.00:  DISTANCE FWL
 DFSL.m                   0.00:  DISTANCE FSL
 SDEP.m                 378.00:  START DEPTH
 TDD .m                   0.00:  TOTAL DEPTH (DRILLER)
 VSDR.deg               296.18:  VERT SEC DIRECT
 GVFD.g                   1.00:  GRAVITY FIELD
 MFLD.nT              50253.00:  MAGNETIC FIELD
 MDIP.deg                59.49:  MAGNETIC DIP
 MDEC.deg                 6.44:  MAGNETIC DECL
 GRDC.deg                 0.22:  GRID CORRECTION
 AZTC.deg                 6.22:  AZM TOTAL CORR
 EPD .m                   0.00:  ELEVATION
 EGL .m                   0.00:  GROUND ELEVATION
 WDMS.m                 128.20:  WD ELEV
 APD .m                  43.29:  DEPTH ABOVE PD
 AGAP.m                  43.29:  AIR GAP
 VSEW.m                  -6.62:  VERT SEC E/W
 VSNS.m                  12.98:  VERT SEC N/S
 EKB .m                  43.29:  KB ELEVATION
 EDF .m                  43.29:  DF ELEVATION
 TDL .m                1152.00:  TOTAL DEPTH (LOGGER)
 VSC .                       0:  VS TO CLOSURE
 MAGU.                 1848525:  MAGUTM CHECKSUM
~Parameter Information Block
#MNEM.UNIT       Value        Description
#---------     -----------    ---------------------------
 AV  .mps                 0.40:  Ann Velocity 
 AVMX.mps                 1.56:  Max Ann Veloc 
 AZIF.deg               300.46:  Azm, Final 
 BHAT.        Rotary Steerable:  BHA Type 
 BROT.°/30m               0.40:  Build Rotating 
 BS  .in                 17.50:  Bit Size 
 BSZ .in                 17.50:  Bit Size 
 BTPL.psig              300.00:  Bit Press Loss 
 CABU.                      No:  Customer Abuse 
 CGEO.          Parviz Guliyev:  Customer Geo 
 TCS .hr                108.13:  Time Ciculation Ended 
 CV  .mps                 0.50:  Crit Velocity 
 CVMX.mps                 2.01:  Max Crit Veloc 
 DD1 .          Fariz Nahmatov:  Direct Drillr 1 
 DD2 .             Ehab Radwan:  Direct Drillr 2 
 DDSV.               Geo-Pilot:  DD Service 
 DEFF.%                  99.00:  % Det Eff 
 DLRX.°/30m               0.50:  Dogleg Rot Max 
 DLSO.°/30m               2.80:  Dogleg Oriented 
 DLSX.°/30m               3.90:  Dogleg Str Max 
 DRET.      09.30.04 03-Jul-20:  Drill End Time 
 DRST.      18.33.04 28-Jun-20:  Drill Start Tim 
 DTIM.hr                 55.83:  Time Drilling 
 EDEP.m                1952.00:  End Depth 
 ENG1.      Bakhtiyar Jabbarli:  Engineer 1 
 ENG2.         Farhad Orujzade:  Engineer 2 
 ENG3.          Rustam Safarov:  Engineer 3 
 ETIM.      01.33.04 04-Jul-20:  End Time 
 FLOI.gpm              1050.00:  Flow In 
 FLON.gpm               950.00:  Flow In Min 
 FLOS.cptm                0.10:  Fluid Loss 
 FLOX.gpm              1150.00:  Flow In Max 
 HFLO.                      No:  High Flow 
 HPRE.                      No:  High Pressure 
 HTEM.                      No:  High Temp 
 HYDO.m                   1.80:  Hydro Offset 
 IFIN.deg                75.26:  Inc, Final 
 IMAX.deg                75.38:  Inc Max 
 IMIN.deg                22.84:  Inc Min 
 IMND.m                 832.38:  Inc Min Depth 
 IMXD.m                1936.55:  Inc Max Depth 
 JARR.                      No:  Jarring 
 LETM.      17.40.00 04-Jul-20:  Log End Time 
 LOST.hr                     0:  Lost Rig Time 
 LSTM.      12.33.04 28-Jun-20:  Log Start Time 
 MDCL.ppm             49500.00:  Mud Chlorides 
 MDES.     Inversion Oil/Synthetic:  Mud Desc 
 DFD .sg                  1.46:  Mud Density 
 MDMN.sg                  1.46:  Dens Mud Min 
 MDMX.sg                  1.46:  Dens Mud Max 
 MOIL.                      70:  Run Mud Oil % 
 MOWR.                   70:30:  Run Mud OWR 
 MSND.                     0.5:  Run Mud Sand % 
 MSOL.                   19.89:  Run Mud Solids% 
 DFV .spqt               72.00:  Mud Viscosity 
 MWOD.in                  9.50:  MWD Tool OD 
 MWSI.                      No:  Serv Intrp, MWD 
 OTIM.hr                146.53:  Time Operating 
 PCON.           Look Like New:  Pad Condition 
 PMAX.psia             2900.00:  Press Op, Max 
 PV  .cP                 38.00:  Mud PV 
 RUN .                     600:  Run Number 
 ROPA.m/hr               22.00:  ROP Avg 
 ROPN.m/hr               10.00:  ROP Min 
 ROPX.m/hr              263.00:  ROP Max 
 RPMA.rpm               155.00:  RPM Surface Avg 
 RPMN.rpm               140.00:  RPM Surface Min 
 RPMX.rpm               160.00:  RPM Surface Max 
 RRUN.                    0600:  Rig Run Number 
 RTIM.hr                  5.00:  Time Reaming 
 SAZI.deg               300.08:  Azm, Start 
 SDEP.m                 800.00:  Start Depth 
 SIDD.                      No:  Serv Intrp, DD 
 SINC.deg                22.84:  Inc, Start 
 SPPA.psig             3000.00:  SPP Avg 
 SPPN.psig             1900.00:  SPP Min 
 SPPX.psig             3200.00:  SPP Max 
 STIM.      12.30.04 28-Jun-20:  Start Time 
 SVCS.                 DD, MWD:  Services 
 SVER.                    9.20:  Sperry Version 
 TDAT.m                1952.00:  Tot Depth Attmp 
 TDDF.                      No:  Trip for DD 
 TDLG.m                1152.00:  Tot Depth Loggd 
 TFF .                      No:  Trip for Fail 
 TQAA.f-kp                8.00:  Torque Abs Avg 
 TQAN.f-kp                5.00:  Torque Abs Min 
 TQAX.f-kp               14.00:  Torque Abs Max 
 TRRT.°/30m               0.50:  Turn Rotating 
 MRT .                  EWR-M5:  Maximum Recorded Temperature 
 TTMX.degC               69.00:  Max Tool Temp 
 VS01.                90610313:  Virtual Str1 SN 
 VS02.                90613431:  Virtual Str2 SN 
 VS03.                90615410:  Virtual Str3 SN 
 WBMN.klb                 6.00:  WOB Min 
 WITN.            Bruce Cheyne:  Customer Rep 
 WITN.             Ayaz Aliyev:  Customer Rep 2 
 WOBA.klb                 6.00:  WOB Avg 
 WOBX.klb                10.00:  WOB Max 
 YP  .lhf2               36.00:  Yield Point 
~Curve Information Block
#MNEM.UNIT                 API CODE     Curve Description
#---------               -----------    ---------------------------
 TIME.HHMMSS            00 000 000 000:  GT Time & Date
 GTET.sec               00 000 000 000:  GT Elapsed Test Time
 GTPQH.psia             00 000 000 000:  GT HR Quartz Pressure
 GTDEPTH.m              00 000 000 000:  GT Depth
 GTTVD.m                00 000 000 000:  GT True Vertical Depth
 GTTQ.degC              00 000 000 000:  GT Quartz Temperature
 GTTN.NONE              00 000 000 000:  GT Test Number
#Other Information
#
#WARRANTY: Halliburton will use its best efforts to furnish customers with 
#accurate information and interpretations that are part of, and incident to, the services 
#provided.  However, Halliburton cannot and does not warrant the accuracy 
#or correctness of such information and interpretations.  Under no circumstances should any 
#such information or interpretation be relied upon as the sole basis for any drilling, 
#completion, production, or financial decision or any procedure involving any risk to the 
#safety of any drilling venture, drilling rig or its crew or any other third party.  The 
#Customer has full responsibility for all drilling, completion and production operation.  
#Halliburton makes no representations or warranties, either expressed or 
#implied, including, but not limited to, the implied warranties of merchantability or fitness 
#for a particular purpose, with respect to the services rendered.  In no event will 
#Halliburton be liable for failure to obtain any particular results or for 
#any damages, including, but not limited to, indirect, special or consequential damages, 
#resulting from the use of any information or interpretation provided by Halliburton.
#
~A           TIME            GTET   GTPQH  GTDEPTH  GTTVD  GTTQ  GTTN 
# ...
   06:35:53.000.01-Jul-2020 529.00 2452.46 1257.48 1159.06 54.73 5.00
   06:35:53.200.01-Jul-2020 529.20 2452.46 1257.48 1159.06 54.73 5.00
   06:35:53.400.01-Jul-2020 529.40 2451.24 1257.48 1159.06 54.73 5.00
   06:35:53.600.01-Jul-2020 529.60 2452.45 1257.48 1159.06 54.73 5.00
   06:35:53.800.01-Jul-2020 529.80 2452.67 1257.48 1159.06 54.73 5.00
   06:35:54.000.01-Jul-2020 530.00 2452.95 1257.48 1159.06 54.73 5.00
   06:35:54.200.01-Jul-2020 530.20 2453.20 1257.48 1159.06 54.73 5.00
   06:35:54.400.01-Jul-2020 530.40 2452.55 1257.48 1159.06 54.73 5.00
   06:35:54.600.01-Jul-2020 530.60 2452.09 1257.48 1159.06 54.73 5.00
   06:35:54.800.01-Jul-2020 530.80 2452.93 1257.48 1159.06 54.73 5.00
   06:35:55.000.01-Jul-2020 531.00 2452.54 1257.48 1159.06 54.73 5.00
   06:35:55.200.01-Jul-2020 531.20 2452.82 1257.48 1159.06 54.73 5.00
   06:35:55.400.01-Jul-2020 531.40 2452.94 1257.48 1159.06 54.73 5.00
   06:35:55.600.01-Jul-2020 531.60 2451.84 1257.48 1159.06 54.73 5.00
   06:35:55.800.01-Jul-2020 531.80 2453.41 1257.48 1159.06 54.73 5.00
   06:35:56.000.01-Jul-2020 532.00 2453.50 1257.48 1159.06 54.73 5.00
   06:35:56.200.01-Jul-2020 532.20 2453.50 1257.48 1159.06 54.73 5.00
   06:35:56.400.01-Jul-2020 532.40 2455.06 1257.48 1159.06 54.73 5.00
   06:35:56.600.01-Jul-2020 532.60 2454.65 1257.48 1159.06 54.73 5.00
   06:35:56.800.01-Jul-2020 532.80 2454.47 1257.48 1159.06 54.73 5.00
   06:35:57.000.01-Jul-2020 533.00 2453.15 1257.48 1159.06 54.73 5.00
   06:35:57.200.01-Jul-2020 533.20 2453.15 1257.48 1159.06 54.73 5.00
   06:35:57.400.01-Jul-2020 533.40 2453.80 1257.48 1159.06 54.73 5.00
   06:35:57.600.01-Jul-2020 533.60 2454.33 1257.48 1159.06 54.73 5.00
   06:35:57.800.01-Jul-2020 533.80 2454.71 1257.48 1159.06 54.73 5.00
   06:35:58.000.01-Jul-2020 534.00 2454.61 1257.48 1159.06 54.73 5.00
   06:35:58.200.01-Jul-2020 534.20 2454.44 1257.48 1159.06 54.73 5.00
   06:35:58.400.01-Jul-2020 534.40 2454.61 1257.48 1159.06 54.73 5.00
   06:35:58.600.01-Jul-2020 534.60 2454.30 1257.48 1159.06 54.73 5.00
   06:35:58.800.01-Jul-2020 534.80 2454.11 1257.48 1159.06 54.73 5.00
   06:35:59.000.01-Jul-2020 535.00 2454.17 1257.48 1159.06 54.73 5.00
   06:35:59.200.01-Jul-2020 535.20 2453.94 1257.48 1159.06 54.73 5.00
   06:35:59.400.01-Jul-2020 535.40 2454.03 1257.48 1159.06 54.73 5.00
   06:35:59.600.01-Jul-2020 535.60 2453.84 1257.48 1159.06 54.72 5.00
   06:35:59.800.01-Jul-2020 535.80 2453.84 1257.48 1159.06 54.72 5.00
   06:36:00.000.01-Jul-2020 536.00 2454.13 1257.48 1159.06 54.73 5.00
   06:36:00.200.01-Jul-2020 536.20 2454.13 1257.48 1159.06 54.73 5.00
   06:36:00.400.01-Jul-2020 536.40 2454.51 1257.48 1159.06 54.72 5.00
   06:36:00.600.01-Jul-2020 536.60 2454.18 1257.48 1159.06 54.72 5.00
   06:36:00.800.01-Jul-2020 536.80 2452.56 1257.48 1159.06 54.72 5.00
   06:36:01.000.01-Jul-2020 537.00 2453.47 1257.48 1159.06 54.72 5.00
   06:36:01.200.01-Jul-2020 537.20 2453.47 1257.48 1159.06 54.72 5.00
   06:36:01.400.01-Jul-2020 537.40 2453.17 1257.48 1159.06 54.72 5.00
   06:36:01.600.01-Jul-2020 537.60 2453.15 1257.48 1159.06 54.72 5.00
   06:36:01.800.01-Jul-2020 537.80 2452.95 1257.48 1159.06 54.72 5.00
   06:36:02.000.01-Jul-2020 538.00 2453.23 1257.48 1159.06 54.72 5.00
   06:36:02.200.01-Jul-2020 538.20 2453.31 1257.48 1159.06 54.72 5.00
   06:36:02.400.01-Jul-2020 538.40 2452.65 1257.48 1159.06 54.72 5.00
   06:36:02.600.01-Jul-2020 538.60 2452.83 1257.48 1159.06 54.72 5.00
   06:36:02.800.01-Jul-2020 538.80 2452.84 1257.48 1159.06 54.72 5.00
   06:36:03.000.01-Jul-2020 539.00 2452.80 1257.48 1159.06 54.72 5.00
   06:36:03.200.01-Jul-2020 539.20 2451.52 1257.48 1159.06 54.72 5.00
   06:36:03.400.01-Jul-2020 539.40 2452.36 1257.48 1159.06 54.72 5.00
   06:36:03.600.01-Jul-2020 539.60 2452.87 1257.48 1159.06 54.72 5.00
   06:36:03.800.01-Jul-2020 539.80 2453.14 1257.48 1159.06 54.72 5.00
   06:36:04.000.01-Jul-2020 540.00 2453.66 1257.48 1159.06 54.72 5.00
   06:36:04.200.01-Jul-2020 540.20 2453.66 1257.48 1159.06 54.72 5.00
   06:36:04.400.01-Jul-2020 540.40 2452.10 1257.48 1159.06 54.72 5.00
   06:36:04.600.01-Jul-2020 540.60 2453.29 1257.48 1159.06 54.72 5.00
   06:36:04.800.01-Jul-2020 540.80 2453.01 1257.48 1159.06 54.72 5.00
