~Version Information
 VERS.                  2.0:   CWLS log ASCII Standard -VERSION 2.0
 WRAP.                   NO:   One line per depth step
~Well Information Block
#MNEM.UNIT     VALUE/NAME     DESCRIPTION
#---------     -----------    ---------------------------
 STRT.S             04:53:08 03-Jul-20: START TIME 04:53:08 03-Jul-20
 STOP.S             05:02:09 03-Jul-20: STOP TIME  05:02:09 03-Jul-20
 STEP.S                   0.00: STEP TIME
 NULL.                 -999.25: NULL VALUE
 DFWT.                        :  DIST FWL TEXT
 DFST.                        :  DIST FSL TEXT
 DMF .             Drill Floor:  DRILL MEAS FROM
 STIM.      09.59.28 01-Jun-20:  START TIME
 DATE.      09.59.28 01-Jun-20:  END TIME
 SPUD.               01-Jun-20:  SPUD DATE
 NREF.                    Grid:  NORTH REFERENCE
 HPTY.       Minimum Curvature:  HOLE POS TYPE
 DMOD.             Drill Model:  DRILL MOD DESC
 SVYD.                  Survey:  SURVEY DESC
 ILTD.               Lithology:  INTERP LTH DESC
 FTOP.          Formation Tops:  FORM TOPS DESC
 SON .        AZ-XX-0905455768:  JOB NUMBER
 WTYP.                Deviated:  WELL TYPE
 COMP.     BP Exploration(Caspian Sea):  COMPANY
 BASE.              Azerbaijan:  LOGGING EQUIPMENT BASE LOCATION
 REGN.                   EESSA:  REGION
 CTRY.              Azerbaijan:  COUNTRY NAME
 FLD .                     ACG:  FIELD NAME
 SRVC.          Turan Drilling:  CONTRACTOR
 WELL.                     B41:  WELL NAME
 RIG .           Central Azeri:  RIG NAME
 DCON.         Sperry Drilling:  DIRECTNL CONTR
 PDAT.          Mean Sea Level:  PERMANENT DATUM
 MDS .        Operator Entered:  MAG DATA SOURCE
 API .                        :  API NUMBER
 CNTY.                        :  COUNTY
 PROV.                        :  PROVINCE
 STAT.                        :  STATE
 UWI .                        :  UNIQUE WELL IDENTIFIER
 LOC .                        :  LOCATION
 LMF .             Drill Floor:  LOG MEASURED FROM
 TVDS.m                  43.29:  TVDSS CORRECTN
 LATI.deg                40.03:  LATITUDE
 LONG.deg                51.35:  LONGITUDE
 WHNS.m                  12.98:  WELL HEAD N/S
 WHEW.m                  -6.62:  WELL HEAD E/W
 UTMX.m              530128.28:  UTM X
 UTMY.m             4433192.49:  UTM Y
 DFWL.m                   0.00:  DISTANCE FWL
 DFSL.m                   0.00:  DISTANCE FSL
 SDEP.m                 378.00:  START DEPTH
 TDD .m                   0.00:  TOTAL DEPTH (DRILLER)
 VSDR.deg               296.18:  VERT SEC DIRECT
 GVFD.g                   1.00:  GRAVITY FIELD
 MFLD.nT              50253.00:  MAGNETIC FIELD
 MDIP.deg                59.49:  MAGNETIC DIP
 MDEC.deg                 6.44:  MAGNETIC DECL
 GRDC.deg                 0.22:  GRID CORRECTION
 AZTC.deg                 6.22:  AZM TOTAL CORR
 EPD .m                   0.00:  ELEVATION
 EGL .m                   0.00:  GROUND ELEVATION
 WDMS.m                 128.20:  WD ELEV
 APD .m                  43.29:  DEPTH ABOVE PD
 AGAP.m                  43.29:  AIR GAP
 VSEW.m                  -6.62:  VERT SEC E/W
 VSNS.m                  12.98:  VERT SEC N/S
 EKB .m                  43.29:  KB ELEVATION
 EDF .m                  43.29:  DF ELEVATION
 TDL .m                1152.00:  TOTAL DEPTH (LOGGER)
 VSC .                       0:  VS TO CLOSURE
 MAGU.                 1848525:  MAGUTM CHECKSUM
~Parameter Information Block
#MNEM.UNIT       Value        Description
#---------     -----------    ---------------------------
 AV  .mps                 0.40:  Ann Velocity 
 AVMX.mps                 1.56:  Max Ann Veloc 
 AZIF.deg               300.46:  Azm, Final 
 BHAT.        Rotary Steerable:  BHA Type 
 BROT.°/30m               0.40:  Build Rotating 
 BS  .in                 17.50:  Bit Size 
 BSZ .in                 17.50:  Bit Size 
 BTPL.psig              300.00:  Bit Press Loss 
 CABU.                      No:  Customer Abuse 
 CGEO.          Parviz Guliyev:  Customer Geo 
 COMM.                     D‘]:  Run Comments 1 
 TCS .hr                108.13:  Time Ciculation Ended 
 CV  .mps                 0.50:  Crit Velocity 
 CVMX.mps                 2.01:  Max Crit Veloc 
 DD1 .          Fariz Nahmatov:  Direct Drillr 1 
 DD2 .             Ehab Radwan:  Direct Drillr 2 
 DDSV.               Geo-Pilot:  DD Service 
 DEFF.%                  99.00:  % Det Eff 
 DLRX.°/30m               0.50:  Dogleg Rot Max 
 DLSO.°/30m               2.80:  Dogleg Oriented 
 DLSX.°/30m               3.90:  Dogleg Str Max 
 DRET.      09.30.04 03-Jul-20:  Drill End Time 
 DRST.      18.33.04 28-Jun-20:  Drill Start Tim 
 DTIM.hr                 55.83:  Time Drilling 
 EDEP.m                1952.00:  End Depth 
 ENG1.      Bakhtiyar Jabbarli:  Engineer 1 
 ENG2.         Farhad Orujzade:  Engineer 2 
 ENG3.          Rustam Safarov:  Engineer 3 
 ETIM.      01.33.04 04-Jul-20:  End Time 
 FLOI.gpm              1050.00:  Flow In 
 FLON.gpm               950.00:  Flow In Min 
 FLOS.cptm                0.10:  Fluid Loss 
 FLOX.gpm              1150.00:  Flow In Max 
 HFLO.                      No:  High Flow 
 HPRE.                      No:  High Pressure 
 HTEM.                      No:  High Temp 
 HYDO.m                   1.80:  Hydro Offset 
 IFIN.deg                75.26:  Inc, Final 
 IMAX.deg                75.38:  Inc Max 
 IMIN.deg                22.84:  Inc Min 
 IMND.m                 832.38:  Inc Min Depth 
 IMXD.m                1936.55:  Inc Max Depth 
 JARR.                      No:  Jarring 
 LETM.      17.40.00 04-Jul-20:  Log End Time 
 LOST.hr                     0:  Lost Rig Time 
 LSTM.      12.33.04 28-Jun-20:  Log Start Time 
 MDCL.ppm             49500.00:  Mud Chlorides 
 MDES.     Inversion Oil/Synthetic:  Mud Desc 
 DFD .sg                  1.46:  Mud Density 
 MDMN.sg                  1.46:  Dens Mud Min 
 MDMX.sg                  1.46:  Dens Mud Max 
 MOIL.                      70:  Run Mud Oil % 
 MOWR.                   70:30:  Run Mud OWR 
 MSND.                     0.5:  Run Mud Sand % 
 MSOL.                   19.89:  Run Mud Solids% 
 DFV .spqt               72.00:  Mud Viscosity 
 MWOD.in                  9.50:  MWD Tool OD 
 MWSI.                      No:  Serv Intrp, MWD 
 OTIM.hr                146.53:  Time Operating 
 PCON.           Look Like New:  Pad Condition 
 PMAX.psia             2900.00:  Press Op, Max 
 PV  .cP                 38.00:  Mud PV 
 RUN .                     600:  Run Number 
 ROPA.m/hr               22.00:  ROP Avg 
 ROPN.m/hr               10.00:  ROP Min 
 ROPX.m/hr              263.00:  ROP Max 
 RPMA.rpm               155.00:  RPM Surface Avg 
 RPMN.rpm               140.00:  RPM Surface Min 
 RPMX.rpm               160.00:  RPM Surface Max 
 RRUN.                    0600:  Rig Run Number 
 RTIM.hr                  5.00:  Time Reaming 
 SAZI.deg               300.08:  Azm, Start 
 SDEP.m                 800.00:  Start Depth 
 SIDD.                      No:  Serv Intrp, DD 
 SINC.deg                22.84:  Inc, Start 
 SPPA.psig             3000.00:  SPP Avg 
 SPPN.psig             1900.00:  SPP Min 
 SPPX.psig             3200.00:  SPP Max 
 STIM.      12.30.04 28-Jun-20:  Start Time 
 SVCS.                 DD, MWD:  Services 
 SVER.                    9.20:  Sperry Version 
 TDAT.m                1952.00:  Tot Depth Attmp 
 TDDF.                      No:  Trip for DD 
 TDLG.m                1152.00:  Tot Depth Loggd 
 TFF .                      No:  Trip for Fail 
 TQAA.f-kp                8.00:  Torque Abs Avg 
 TQAN.f-kp                5.00:  Torque Abs Min 
 TQAX.f-kp               14.00:  Torque Abs Max 
 TRRT.°/30m               0.50:  Turn Rotating 
 MRT .                  EWR-M5:  Maximum Recorded Temperature 
 TTMX.degC               69.00:  Max Tool Temp 
 VS01.                90610313:  Virtual Str1 SN 
 VS02.                90613431:  Virtual Str2 SN 
 VS03.                90615410:  Virtual Str3 SN 
 WBMN.klb                 6.00:  WOB Min 
 WITN.            Bruce Cheyne:  Customer Rep 
 WITN.             Ayaz Aliyev:  Customer Rep 2 
 WOBA.klb                 6.00:  WOB Avg 
 WOBX.klb                10.00:  WOB Max 
 YP  .lhf2               36.00:  Yield Point 
~Curve Information Block
#MNEM.UNIT                 API CODE     Curve Description
#---------               -----------    ---------------------------
 TIME.HHMMSS            00 000 000 000:  GT Time & Date
 GTET.sec               00 000 000 000:  GT Elapsed Test Time
 GTPQH.psia             00 000 000 000:  GT HR Quartz Pressure
 GTDEPTH.m              00 000 000 000:  GT Depth
 GTTVD.m                00 000 000 000:  GT True Vertical Depth
 GTTQ.degC              00 000 000 000:  GT Quartz Temperature
 GTTN.NONE              00 000 000 000:  GT Test Number
#Other Information
#
#WARRANTY: Halliburton will use its best efforts to furnish customers with 
#accurate information and interpretations that are part of, and incident to, the services 
#provided.  However, Halliburton cannot and does not warrant the accuracy 
#or correctness of such information and interpretations.  Under no circumstances should any 
#such information or interpretation be relied upon as the sole basis for any drilling, 
#completion, production, or financial decision or any procedure involving any risk to the 
#safety of any drilling venture, drilling rig or its crew or any other third party.  The 
#Customer has full responsibility for all drilling, completion and production operation.  
#Halliburton makes no representations or warranties, either expressed or 
#implied, including, but not limited to, the implied warranties of merchantability or fitness 
#for a particular purpose, with respect to the services rendered.  In no event will 
#Halliburton be liable for failure to obtain any particular results or for 
#any damages, including, but not limited to, indirect, special or consequential damages, 
#resulting from the use of any information or interpretation provided by Halliburton.
#
~A           TIME            GTET   GTPQH  GTDEPTH  GTTVD  GTTQ  GTTN 
# ...
   04:56:12.000.03-Jul-2020 184.00 2527.80 1886.00 1359.43 58.98 8.00
   04:56:12.200.03-Jul-2020 184.20 2527.61 1886.00 1359.43 58.98 8.00
   04:56:12.400.03-Jul-2020 184.40 2527.67 1886.00 1359.43 58.98 8.00
   04:56:12.600.03-Jul-2020 184.60 2527.67 1886.00 1359.43 58.98 8.00
   04:56:12.800.03-Jul-2020 184.80 2527.68 1886.00 1359.43 58.98 8.00
   04:56:13.000.03-Jul-2020 185.00 2527.67 1886.00 1359.43 58.98 8.00
   04:56:13.200.03-Jul-2020 185.20 2527.67 1886.00 1359.43 58.98 8.00
   04:56:13.400.03-Jul-2020 185.40 2527.68 1886.00 1359.43 58.98 8.00
   04:56:13.600.03-Jul-2020 185.60 2527.72 1886.00 1359.43 58.98 8.00
   04:56:13.800.03-Jul-2020 185.80 2527.73 1886.00 1359.43 58.98 8.00
   04:56:14.000.03-Jul-2020 186.00 2527.72 1886.00 1359.43 58.98 8.00
   04:56:14.200.03-Jul-2020 186.20 2527.72 1886.00 1359.43 58.98 8.00
   04:56:14.400.03-Jul-2020 186.40 2527.77 1886.00 1359.43 58.98 8.00
   04:56:14.600.03-Jul-2020 186.60 2527.67 1886.00 1359.43 58.98 8.00
   04:56:14.800.03-Jul-2020 186.80 2527.61 1886.00 1359.43 58.98 8.00
   04:56:15.000.03-Jul-2020 187.00 2527.60 1886.00 1359.43 58.98 8.00
   04:56:15.200.03-Jul-2020 187.20 2527.63 1886.00 1359.43 58.98 8.00
   04:56:15.400.03-Jul-2020 187.40 2527.63 1886.00 1359.43 58.98 8.00
   04:56:15.600.03-Jul-2020 187.60 2527.65 1886.00 1359.43 58.98 8.00
   04:56:15.800.03-Jul-2020 187.80 2527.71 1886.00 1359.43 58.98 8.00
   04:56:16.000.03-Jul-2020 188.00 2527.55 1886.00 1359.43 58.98 8.00
   04:56:16.200.03-Jul-2020 188.20 2527.55 1886.00 1359.43 58.98 8.00
   04:56:16.400.03-Jul-2020 188.40 2527.60 1886.00 1359.43 58.98 8.00
   04:56:16.600.03-Jul-2020 188.60 2527.62 1886.00 1359.43 58.98 8.00
   04:56:16.800.03-Jul-2020 188.80 2527.62 1886.00 1359.43 58.98 8.00
   04:56:17.000.03-Jul-2020 189.00 2527.63 1886.00 1359.43 58.98 8.00
   04:56:17.200.03-Jul-2020 189.20 2527.63 1886.00 1359.43 58.98 8.00
   04:56:17.400.03-Jul-2020 189.40 2527.63 1886.00 1359.43 58.98 8.00
   04:56:17.600.03-Jul-2020 189.60 2527.62 1886.00 1359.43 58.98 8.00
   04:56:17.800.03-Jul-2020 189.80 2527.61 1886.00 1359.43 58.98 8.00
   04:56:18.000.03-Jul-2020 190.00 2527.58 1886.00 1359.43 58.98 8.00
   04:56:18.200.03-Jul-2020 190.20 2527.58 1886.00 1359.43 58.98 8.00
   04:56:18.400.03-Jul-2020 190.40 2527.57 1886.00 1359.43 58.98 8.00
   04:56:18.600.03-Jul-2020 190.60 2527.57 1886.00 1359.43 58.98 8.00
   04:56:18.800.03-Jul-2020 190.80 2527.58 1886.00 1359.43 58.98 8.00
   04:56:19.000.03-Jul-2020 191.00 2527.64 1886.00 1359.43 58.98 8.00
   04:56:19.200.03-Jul-2020 191.20 2527.65 1886.00 1359.43 58.98 8.00
   04:56:19.400.03-Jul-2020 191.40 2527.65 1886.00 1359.43 58.98 8.00
   04:56:19.600.03-Jul-2020 191.60 2527.66 1886.00 1359.43 58.98 8.00
   04:56:19.800.03-Jul-2020 191.80 2527.66 1886.00 1359.43 58.98 8.00
   04:56:20.000.03-Jul-2020 192.00 2527.65 1886.00 1359.43 58.98 8.00
   04:56:20.200.03-Jul-2020 192.20 2527.67 1886.00 1359.43 58.98 8.00
   04:56:20.400.03-Jul-2020 192.40 2527.68 1886.00 1359.43 58.98 8.00
   04:56:20.600.03-Jul-2020 192.60 2527.68 1886.00 1359.43 58.98 8.00
   04:56:20.800.03-Jul-2020 192.80 2527.68 1886.00 1359.43 58.98 8.00
   04:56:21.000.03-Jul-2020 193.00 2527.69 1886.00 1359.43 58.98 8.00
   04:56:21.200.03-Jul-2020 193.20 2527.69 1886.00 1359.43 58.98 8.00
   04:56:21.400.03-Jul-2020 193.40 2527.71 1886.00 1359.43 58.98 8.00
   04:56:21.600.03-Jul-2020 193.60 2527.70 1886.00 1359.43 58.98 8.00
   04:56:21.800.03-Jul-2020 193.80 2527.72 1886.00 1359.43 58.98 8.00
   04:56:22.000.03-Jul-2020 194.00 2527.70 1886.00 1359.43 58.98 8.00
   04:56:22.200.03-Jul-2020 194.20 2527.70 1886.00 1359.43 58.98 8.00
   04:56:22.400.03-Jul-2020 194.40 2527.64 1886.00 1359.43 58.98 8.00
   04:56:22.600.03-Jul-2020 194.60 2527.63 1886.00 1359.43 58.98 8.00
   04:56:22.800.03-Jul-2020 194.80 2527.65 1886.00 1359.43 58.98 8.00
   04:56:23.000.03-Jul-2020 195.00 2527.67 1886.00 1359.43 58.98 8.00
   04:56:23.200.03-Jul-2020 195.20 2527.67 1886.00 1359.43 58.98 8.00
   04:56:23.400.03-Jul-2020 195.40 2527.69 1886.00 1359.43 58.98 8.00
   04:56:23.600.03-Jul-2020 195.60 2527.70 1886.00 1359.43 58.98 8.00
   04:56:23.800.03-Jul-2020 195.80 2527.72 1886.00 1359.43 58.98 8.00
   04:56:24.000.03-Jul-2020 196.00 2527.72 1886.00 1359.43 58.98 8.00
   04:56:24.200.03-Jul-2020 196.20 2527.74 1886.00 1359.43 58.98 8.00
   04:56:24.400.03-Jul-2020 196.40 2527.79 1886.00 1359.43 58.98 8.00
   04:56:24.600.03-Jul-2020 196.60 2527.65 1886.00 1359.43 58.98 8.00
   04:56:24.800.03-Jul-2020 196.80 2527.70 1886.00 1359.43 58.98 8.00
   04:56:25.000.03-Jul-2020 197.00 2527.70 1886.00 1359.43 58.98 8.00
   04:56:25.200.03-Jul-2020 197.20 2527.70 1886.00 1359.43 58.98 8.00
   04:56:25.400.03-Jul-2020 197.40 2527.72 1886.00 1359.43 58.98 8.00
   04:56:25.600.03-Jul-2020 197.60 2527.73 1886.00 1359.43 58.98 8.00
   04:56:25.800.03-Jul-2020 197.80 2527.71 1886.00 1359.43 58.98 8.00
   04:56:26.000.03-Jul-2020 198.00 2527.62 1886.00 1359.43 58.98 8.00
   04:56:26.200.03-Jul-2020 198.20 2527.62 1886.00 1359.43 58.98 8.00
   04:56:26.400.03-Jul-2020 198.40 2527.56 1886.00 1359.43 58.98 8.00
   04:56:26.600.03-Jul-2020 198.60 2527.54 1886.00 1359.43 58.98 8.00
   04:56:26.800.03-Jul-2020 198.80 2527.55 1886.00 1359.43 58.98 8.00
   04:56:27.000.03-Jul-2020 199.00 2527.56 1886.00 1359.43 58.98 8.00
   04:56:27.200.03-Jul-2020 199.20 2527.55 1886.00 1359.43 58.98 8.00
   04:56:27.400.03-Jul-2020 199.40 2527.54 1886.00 1359.43 58.98 8.00
   04:56:27.600.03-Jul-2020 199.60 2527.51 1886.00 1359.43 58.98 8.00
   04:56:27.800.03-Jul-2020 199.80 2527.47 1886.00 1359.43 58.98 8.00
   04:56:28.000.03-Jul-2020 200.00 2527.45 1886.00 1359.43 58.98 8.00
   04:56:28.200.03-Jul-2020 200.20 2527.45 1886.00 1359.43 58.98 8.00
   04:56:28.400.03-Jul-2020 200.40 2527.38 1886.00 1359.43 58.98 8.00
   04:56:28.600.03-Jul-2020 200.60 2527.41 1886.00 1359.43 58.98 8.00
   04:56:28.800.03-Jul-2020 200.80 2527.45 1886.00 1359.43 58.98 8.00
   04:56:29.000.03-Jul-2020 201.00 2527.52 1886.00 1359.43 58.98 8.00
   04:56:29.200.03-Jul-2020 201.20 2527.52 1886.00 1359.43 58.98 8.00
   04:56:29.400.03-Jul-2020 201.40 2527.55 1886.00 1359.43 58.98 8.00
   04:56:29.600.03-Jul-2020 201.60 2527.57 1886.00 1359.43 58.98 8.00
   04:56:29.800.03-Jul-2020 201.80 2527.57 1886.00 1359.43 58.98 8.00
   04:56:30.000.03-Jul-2020 202.00 2527.59 1886.00 1359.43 58.98 8.00
   04:56:30.200.03-Jul-2020 202.20 2527.59 1886.00 1359.43 58.98 8.00
   04:56:30.400.03-Jul-2020 202.40 2527.60 1886.00 1359.43 58.98 8.00
   04:56:30.600.03-Jul-2020 202.60 2527.61 1886.00 1359.43 58.98 8.00
   04:56:30.800.03-Jul-2020 202.80 2527.62 1886.00 1359.43 58.98 8.00
   04:56:31.000.03-Jul-2020 203.00 2527.65 1886.00 1359.43 58.98 8.00
   04:56:31.200.03-Jul-2020 203.20 2527.65 1886.00 1359.43 58.98 8.00
   04:56:31.400.03-Jul-2020 203.40 2527.66 1886.00 1359.43 58.98 8.00
   04:56:31.600.03-Jul-2020 203.60 2527.65 1886.00 1359.43 58.98 8.00
   04:56:31.800.03-Jul-2020 203.80 2527.67 1886.00 1359.43 58.98 8.00
   04:56:32.000.03-Jul-2020 204.00 2527.67 1886.00 1359.43 58.98 8.00
   04:56:32.200.03-Jul-2020 204.20 2527.61 1886.00 1359.43 58.98 8.00
   04:56:32.400.03-Jul-2020 204.40 2527.58 1886.00 1359.43 58.98 8.00
   04:56:32.600.03-Jul-2020 204.60 2527.58 1886.00 1359.43 58.98 8.00
   04:56:32.800.03-Jul-2020 204.80 2527.61 1886.00 1359.43 58.98 8.00
   04:56:33.000.03-Jul-2020 205.00 2527.63 1886.00 1359.43 58.98 8.00
   04:56:33.200.03-Jul-2020 205.20 2527.63 1886.00 1359.43 58.98 8.00
   04:56:33.400.03-Jul-2020 205.40 2527.64 1886.00 1359.43 58.98 8.00
   04:56:33.600.03-Jul-2020 205.60 2527.64 1886.00 1359.43 58.98 8.00
   04:56:33.800.03-Jul-2020 205.80 2527.66 1886.00 1359.43 58.98 8.00
   04:56:34.000.03-Jul-2020 206.00 2527.65 1886.00 1359.43 58.98 8.00
   04:56:34.200.03-Jul-2020 206.20 2527.65 1886.00 1359.43 58.98 8.00
   04:56:34.400.03-Jul-2020 206.40 2527.65 1886.00 1359.43 58.98 8.00
   04:56:34.600.03-Jul-2020 206.60 2527.61 1886.00 1359.43 58.98 8.00
   04:56:34.800.03-Jul-2020 206.80 2527.63 1886.00 1359.43 58.98 8.00
