~Version Information
 VERS.                  2.0:   CWLS log ASCII Standard -VERSION 2.0
 WRAP.                   NO:   One line per depth step
~Well Information Block
#MNEM.UNIT     VALUE/NAME     DESCRIPTION
#---------     -----------    ---------------------------
 STRT.S             23:30:34 30-Jun-20: START TIME 23:30:34 30-Jun-20
 STOP.S             23:39:34 30-Jun-20: STOP TIME  23:39:34 30-Jun-20
 STEP.S                   0.00: STEP TIME
 NULL.                 -999.25: NULL VALUE
 DFWT.                        :  DIST FWL TEXT
 DFST.                        :  DIST FSL TEXT
 DMF .             Drill Floor:  DRILL MEAS FROM
 STIM.      09.59.28 01-Jun-20:  START TIME
 DATE.      09.59.28 01-Jun-20:  END TIME
 SPUD.               01-Jun-20:  SPUD DATE
 NREF.                    Grid:  NORTH REFERENCE
 HPTY.       Minimum Curvature:  HOLE POS TYPE
 DMOD.             Drill Model:  DRILL MOD DESC
 SVYD.                  Survey:  SURVEY DESC
 ILTD.               Lithology:  INTERP LTH DESC
 FTOP.          Formation Tops:  FORM TOPS DESC
 SON .        AZ-XX-0905455768:  JOB NUMBER
 WTYP.                Deviated:  WELL TYPE
 COMP.     BP Exploration(Caspian Sea):  COMPANY
 BASE.              Azerbaijan:  LOGGING EQUIPMENT BASE LOCATION
 REGN.                   EESSA:  REGION
 CTRY.              Azerbaijan:  COUNTRY NAME
 FLD .                     ACG:  FIELD NAME
 SRVC.          Turan Drilling:  CONTRACTOR
 WELL.                     B41:  WELL NAME
 RIG .           Central Azeri:  RIG NAME
 DCON.         Sperry Drilling:  DIRECTNL CONTR
 PDAT.          Mean Sea Level:  PERMANENT DATUM
 MDS .        Operator Entered:  MAG DATA SOURCE
 API .                        :  API NUMBER
 CNTY.                        :  COUNTY
 PROV.                        :  PROVINCE
 STAT.                        :  STATE
 UWI .                        :  UNIQUE WELL IDENTIFIER
 LOC .                        :  LOCATION
 LMF .             Drill Floor:  LOG MEASURED FROM
 TVDS.m                  43.29:  TVDSS CORRECTN
 LATI.deg                40.03:  LATITUDE
 LONG.deg                51.35:  LONGITUDE
 WHNS.m                  12.98:  WELL HEAD N/S
 WHEW.m                  -6.62:  WELL HEAD E/W
 UTMX.m              530128.28:  UTM X
 UTMY.m             4433192.49:  UTM Y
 DFWL.m                   0.00:  DISTANCE FWL
 DFSL.m                   0.00:  DISTANCE FSL
 SDEP.m                 378.00:  START DEPTH
 TDD .m                   0.00:  TOTAL DEPTH (DRILLER)
 VSDR.deg               296.18:  VERT SEC DIRECT
 GVFD.g                   1.00:  GRAVITY FIELD
 MFLD.nT              50253.00:  MAGNETIC FIELD
 MDIP.deg                59.49:  MAGNETIC DIP
 MDEC.deg                 6.44:  MAGNETIC DECL
 GRDC.deg                 0.22:  GRID CORRECTION
 AZTC.deg                 6.22:  AZM TOTAL CORR
 EPD .m                   0.00:  ELEVATION
 EGL .m                   0.00:  GROUND ELEVATION
 WDMS.m                 128.20:  WD ELEV
 APD .m                  43.29:  DEPTH ABOVE PD
 AGAP.m                  43.29:  AIR GAP
 VSEW.m                  -6.62:  VERT SEC E/W
 VSNS.m                  12.98:  VERT SEC N/S
 EKB .m                  43.29:  KB ELEVATION
 EDF .m                  43.29:  DF ELEVATION
 TDL .m                1152.00:  TOTAL DEPTH (LOGGER)
 VSC .                       0:  VS TO CLOSURE
 MAGU.                 1848525:  MAGUTM CHECKSUM
~Parameter Information Block
#MNEM.UNIT       Value        Description
#---------     -----------    ---------------------------
 AV  .mps                 0.40:  Ann Velocity 
 AVMX.mps                 1.56:  Max Ann Veloc 
 AZIF.deg               300.46:  Azm, Final 
 BHAT.        Rotary Steerable:  BHA Type 
 BROT.°/30m               0.40:  Build Rotating 
 BS  .in                 17.50:  Bit Size 
 BSZ .in                 17.50:  Bit Size 
 BTPL.psig              300.00:  Bit Press Loss 
 CABU.                      No:  Customer Abuse 
 CGEO.          Parviz Guliyev:  Customer Geo 
 COMM.                     œº_:  Run Comments 1 
 TCS .hr                108.13:  Time Ciculation Ended 
 CV  .mps                 0.50:  Crit Velocity 
 CVMX.mps                 2.01:  Max Crit Veloc 
 DD1 .          Fariz Nahmatov:  Direct Drillr 1 
 DD2 .             Ehab Radwan:  Direct Drillr 2 
 DDSV.               Geo-Pilot:  DD Service 
 DEFF.%                  99.00:  % Det Eff 
 DLRX.°/30m               0.50:  Dogleg Rot Max 
 DLSO.°/30m               2.80:  Dogleg Oriented 
 DLSX.°/30m               3.90:  Dogleg Str Max 
 DRET.      09.30.04 03-Jul-20:  Drill End Time 
 DRST.      18.33.04 28-Jun-20:  Drill Start Tim 
 DTIM.hr                 55.83:  Time Drilling 
 EDEP.m                1952.00:  End Depth 
 ENG1.      Bakhtiyar Jabbarli:  Engineer 1 
 ENG2.         Farhad Orujzade:  Engineer 2 
 ENG3.          Rustam Safarov:  Engineer 3 
 ETIM.      01.33.04 04-Jul-20:  End Time 
 FLOI.gpm              1050.00:  Flow In 
 FLON.gpm               950.00:  Flow In Min 
 FLOS.cptm                0.10:  Fluid Loss 
 FLOX.gpm              1150.00:  Flow In Max 
 HFLO.                      No:  High Flow 
 HPRE.                      No:  High Pressure 
 HTEM.                      No:  High Temp 
 HYDO.m                   1.80:  Hydro Offset 
 IFIN.deg                75.26:  Inc, Final 
 IMAX.deg                75.38:  Inc Max 
 IMIN.deg                22.84:  Inc Min 
 IMND.m                 832.38:  Inc Min Depth 
 IMXD.m                1936.55:  Inc Max Depth 
 JARR.                      No:  Jarring 
 LETM.      17.40.00 04-Jul-20:  Log End Time 
 LOST.hr                     0:  Lost Rig Time 
 LSTM.      12.33.04 28-Jun-20:  Log Start Time 
 MDCL.ppm             49500.00:  Mud Chlorides 
 MDES.     Inversion Oil/Synthetic:  Mud Desc 
 DFD .sg                  1.46:  Mud Density 
 MDMN.sg                  1.46:  Dens Mud Min 
 MDMX.sg                  1.46:  Dens Mud Max 
 MOIL.                      70:  Run Mud Oil % 
 MOWR.                   70:30:  Run Mud OWR 
 MSND.                     0.5:  Run Mud Sand % 
 MSOL.                   19.89:  Run Mud Solids% 
 DFV .spqt               72.00:  Mud Viscosity 
 MWOD.in                  9.50:  MWD Tool OD 
 MWSI.                      No:  Serv Intrp, MWD 
 OTIM.hr                146.53:  Time Operating 
 PCON.           Look Like New:  Pad Condition 
 PMAX.psia             2900.00:  Press Op, Max 
 PV  .cP                 38.00:  Mud PV 
 RUN .                     600:  Run Number 
 ROPA.m/hr               22.00:  ROP Avg 
 ROPN.m/hr               10.00:  ROP Min 
 ROPX.m/hr              263.00:  ROP Max 
 RPMA.rpm               155.00:  RPM Surface Avg 
 RPMN.rpm               140.00:  RPM Surface Min 
 RPMX.rpm               160.00:  RPM Surface Max 
 RRUN.                    0600:  Rig Run Number 
 RTIM.hr                  5.00:  Time Reaming 
 SAZI.deg               300.08:  Azm, Start 
 SDEP.m                 800.00:  Start Depth 
 SIDD.                      No:  Serv Intrp, DD 
 SINC.deg                22.84:  Inc, Start 
 SPPA.psig             3000.00:  SPP Avg 
 SPPN.psig             1900.00:  SPP Min 
 SPPX.psig             3200.00:  SPP Max 
 STIM.      12.30.04 28-Jun-20:  Start Time 
 SVCS.                 DD, MWD:  Services 
 SVER.                    9.20:  Sperry Version 
 TDAT.m                1952.00:  Tot Depth Attmp 
 TDDF.                      No:  Trip for DD 
 TDLG.m                1152.00:  Tot Depth Loggd 
 TFF .                      No:  Trip for Fail 
 TQAA.f-kp                8.00:  Torque Abs Avg 
 TQAN.f-kp                5.00:  Torque Abs Min 
 TQAX.f-kp               14.00:  Torque Abs Max 
 TRRT.°/30m               0.50:  Turn Rotating 
 MRT .                  EWR-M5:  Maximum Recorded Temperature 
 TTMX.degC               69.00:  Max Tool Temp 
 VS01.                90610313:  Virtual Str1 SN 
 VS02.                90613431:  Virtual Str2 SN 
 VS03.                90615410:  Virtual Str3 SN 
 WBMN.klb                 6.00:  WOB Min 
 WITN.            Bruce Cheyne:  Customer Rep 
 WITN.             Ayaz Aliyev:  Customer Rep 2 
 WOBA.klb                 6.00:  WOB Avg 
 WOBX.klb                10.00:  WOB Max 
 YP  .lhf2               36.00:  Yield Point 
~Curve Information Block
#MNEM.UNIT                 API CODE     Curve Description
#---------               -----------    ---------------------------
 TIME.HHMMSS            00 000 000 000:  GT Time & Date
 GTET.sec               00 000 000 000:  GT Elapsed Test Time
 GTPQH.psia             00 000 000 000:  GT HR Quartz Pressure
 GTDEPTH.m              00 000 000 000:  GT Depth
 GTTVD.m                00 000 000 000:  GT True Vertical Depth
 GTTQ.degC              00 000 000 000:  GT Quartz Temperature
 GTTN.NONE              00 000 000 000:  GT Test Number
#Other Information
#
#WARRANTY: Halliburton will use its best efforts to furnish customers with 
#accurate information and interpretations that are part of, and incident to, the services 
#provided.  However, Halliburton cannot and does not warrant the accuracy 
#or correctness of such information and interpretations.  Under no circumstances should any 
#such information or interpretation be relied upon as the sole basis for any drilling, 
#completion, production, or financial decision or any procedure involving any risk to the 
#safety of any drilling venture, drilling rig or its crew or any other third party.  The 
#Customer has full responsibility for all drilling, completion and production operation.  
#Halliburton makes no representations or warranties, either expressed or 
#implied, including, but not limited to, the implied warranties of merchantability or fitness 
#for a particular purpose, with respect to the services rendered.  In no event will 
#Halliburton be liable for failure to obtain any particular results or for 
#any damages, including, but not limited to, indirect, special or consequential damages, 
#resulting from the use of any information or interpretation provided by Halliburton.
#
~A           TIME            GTET   GTPQH  GTDEPTH  GTTVD  GTTQ  GTTN 
# ...
   23:36:19.585.30-Jun-2020 345.10 2110.24 1161.05 1096.50 59.68 4.00
   23:36:19.785.30-Jun-2020 345.30 2110.24 1161.05 1096.50 59.68 4.00
   23:36:19.985.30-Jun-2020 345.50 2110.24 1161.05 1096.50 59.68 4.00
   23:36:20.186.30-Jun-2020 345.70 2110.23 1161.05 1096.50 59.68 4.00
   23:36:20.386.30-Jun-2020 345.90 2110.24 1161.05 1096.50 59.68 4.00
   23:36:20.586.30-Jun-2020 346.10 2110.25 1161.05 1096.50 59.68 4.00
   23:36:20.786.30-Jun-2020 346.30 2110.25 1161.05 1096.50 59.68 4.00
   23:36:20.986.30-Jun-2020 346.50 2110.25 1161.05 1096.50 59.68 4.00
   23:36:21.186.30-Jun-2020 346.70 2110.24 1161.05 1096.50 59.68 4.00
   23:36:21.386.30-Jun-2020 346.90 2110.24 1161.05 1096.50 59.68 4.00
   23:36:21.586.30-Jun-2020 347.10 2110.24 1161.05 1096.50 59.68 4.00
   23:36:21.786.30-Jun-2020 347.30 2110.24 1161.05 1096.50 59.68 4.00
   23:36:21.986.30-Jun-2020 347.50 2110.24 1161.05 1096.50 59.68 4.00
   23:36:22.186.30-Jun-2020 347.70 2110.25 1161.05 1096.50 59.68 4.00
   23:36:22.386.30-Jun-2020 347.90 2110.24 1161.05 1096.50 59.68 4.00
   23:36:22.586.30-Jun-2020 348.10 2110.24 1161.05 1096.50 59.68 4.00
   23:36:22.786.30-Jun-2020 348.30 2110.24 1161.05 1096.50 59.68 4.00
   23:36:22.986.30-Jun-2020 348.50 2110.24 1161.05 1096.50 59.68 4.00
   23:36:23.186.30-Jun-2020 348.70 2110.25 1161.05 1096.50 59.68 4.00
   23:36:23.386.30-Jun-2020 348.90 2110.23 1161.05 1096.50 59.68 4.00
   23:36:23.587.30-Jun-2020 349.10 2110.24 1161.05 1096.50 59.68 4.00
   23:36:23.787.30-Jun-2020 349.30 2110.24 1161.05 1096.50 59.68 4.00
   23:36:23.987.30-Jun-2020 349.50 2110.23 1161.05 1096.50 59.68 4.00
   23:36:24.187.30-Jun-2020 349.70 2110.25 1161.05 1096.50 59.68 4.00
   23:36:24.387.30-Jun-2020 349.90 2110.25 1161.05 1096.50 59.68 4.00
   23:36:24.587.30-Jun-2020 350.10 2110.24 1161.05 1096.50 59.68 4.00
   23:36:24.787.30-Jun-2020 350.30 2110.24 1161.05 1096.50 59.68 4.00
   23:36:24.987.30-Jun-2020 350.50 2110.24 1161.05 1096.50 59.68 4.00
   23:36:25.187.30-Jun-2020 350.70 2110.24 1161.05 1096.50 59.68 4.00
   23:36:25.387.30-Jun-2020 350.90 2110.24 1161.05 1096.50 59.68 4.00
   23:36:25.587.30-Jun-2020 351.10 2110.23 1161.05 1096.50 59.68 4.00
   23:36:25.787.30-Jun-2020 351.30 2110.25 1161.05 1096.50 59.68 4.00
   23:36:25.987.30-Jun-2020 351.50 2110.23 1161.05 1096.50 59.68 4.00
   23:36:26.187.30-Jun-2020 351.70 2110.23 1161.05 1096.50 59.68 4.00
   23:36:26.387.30-Jun-2020 351.90 2110.24 1161.05 1096.50 59.68 4.00
   23:36:26.587.30-Jun-2020 352.10 2110.27 1161.05 1096.50 59.68 4.00
   23:36:26.787.30-Jun-2020 352.30 2110.27 1161.05 1096.50 59.68 4.00
   23:36:26.988.30-Jun-2020 352.50 2110.25 1161.05 1096.50 59.68 4.00
   23:36:27.188.30-Jun-2020 352.70 2110.25 1161.05 1096.50 59.68 4.00
   23:36:27.388.30-Jun-2020 352.90 2110.23 1161.05 1096.50 59.68 4.00
   23:36:27.588.30-Jun-2020 353.10 2110.26 1161.05 1096.50 59.68 4.00
   23:36:27.788.30-Jun-2020 353.30 2110.26 1161.05 1096.50 59.68 4.00
   23:36:27.988.30-Jun-2020 353.50 2110.27 1161.05 1096.50 59.68 4.00
   23:36:28.188.30-Jun-2020 353.70 2110.27 1161.05 1096.50 59.68 4.00
   23:36:28.388.30-Jun-2020 353.90 2110.27 1161.05 1096.50 59.68 4.00
   23:36:28.588.30-Jun-2020 354.10 2110.23 1161.05 1096.50 59.68 4.00
   23:36:28.788.30-Jun-2020 354.30 2110.23 1161.05 1096.50 59.68 4.00
   23:36:28.988.30-Jun-2020 354.50 2110.26 1161.05 1096.50 59.68 4.00
   23:36:29.188.30-Jun-2020 354.70 2110.27 1161.05 1096.50 59.68 4.00
   23:36:29.388.30-Jun-2020 354.90 2110.26 1161.05 1096.50 59.68 4.00
   23:36:29.588.30-Jun-2020 355.10 2110.25 1161.05 1096.50 59.68 4.00
   23:36:29.788.30-Jun-2020 355.30 2110.23 1161.05 1096.50 59.68 4.00
   23:36:29.988.30-Jun-2020 355.50 2110.27 1161.05 1096.50 59.68 4.00
   23:36:30.188.30-Jun-2020 355.70 2110.26 1161.05 1096.50 59.68 4.00
   23:36:30.389.30-Jun-2020 355.90 2110.26 1161.05 1096.50 59.68 4.00
   23:36:30.589.30-Jun-2020 356.10 2110.26 1161.05 1096.50 59.68 4.00
   23:36:30.789.30-Jun-2020 356.30 2110.25 1161.05 1096.50 59.68 4.00
   23:36:30.989.30-Jun-2020 356.50 2110.26 1161.05 1096.50 59.68 4.00
   23:36:31.189.30-Jun-2020 356.70 2110.25 1161.05 1096.50 59.68 4.00
   23:36:31.389.30-Jun-2020 356.90 2110.25 1161.05 1096.50 59.68 4.00
   23:36:31.589.30-Jun-2020 357.10 2110.25 1161.05 1096.50 59.68 4.00
   23:36:31.789.30-Jun-2020 357.30 2110.25 1161.05 1096.50 59.68 4.00
   23:36:31.989.30-Jun-2020 357.50 2110.25 1161.05 1096.50 59.68 4.00
   23:36:32.189.30-Jun-2020 357.70 2110.25 1161.05 1096.50 59.68 4.00
   23:36:32.389.30-Jun-2020 357.90 2110.25 1161.05 1096.50 59.68 4.00
   23:36:32.589.30-Jun-2020 358.10 2110.25 1161.05 1096.50 59.68 4.00
   23:36:32.789.30-Jun-2020 358.30 2110.26 1161.05 1096.50 59.68 4.00
   23:36:32.989.30-Jun-2020 358.50 2110.25 1161.05 1096.50 59.68 4.00
   23:36:33.189.30-Jun-2020 358.70 2110.02 1161.05 1096.50 59.68 4.00
   23:36:33.389.30-Jun-2020 358.90 2105.68 1161.05 1096.50 59.68 4.00
   23:36:33.589.30-Jun-2020 359.10 2105.79 1161.05 1096.50 59.68 4.00
   23:36:33.790.30-Jun-2020 359.30 2106.17 1161.05 1096.50 59.68 4.00
   23:36:33.990.30-Jun-2020 359.50 2106.43 1161.05 1096.50 59.68 4.00
   23:36:34.190.30-Jun-2020 359.70 2106.48 1161.05 1096.50 59.68 4.00
   23:36:34.390.30-Jun-2020 359.90 2106.64 1161.05 1096.50 59.68 4.00
   23:36:34.590.30-Jun-2020 360.10 2106.69 1161.05 1096.50 59.68 4.00
   23:36:34.790.30-Jun-2020 360.30 2106.69 1161.05 1096.50 59.68 4.00
   23:36:34.990.30-Jun-2020 360.50 2106.80 1161.05 1096.50 59.68 4.00
   23:36:35.190.30-Jun-2020 360.70 2106.80 1161.05 1096.50 59.68 4.00
   23:36:35.390.30-Jun-2020 360.90 2106.91 1161.05 1096.50 59.68 4.00
   23:36:35.590.30-Jun-2020 361.10 2106.88 1161.05 1096.50 59.68 4.00
   23:36:35.790.30-Jun-2020 361.30 2106.88 1161.05 1096.50 59.68 4.00
   23:36:35.990.30-Jun-2020 361.51 2106.89 1161.05 1096.50 59.68 4.00
   23:36:36.190.30-Jun-2020 361.71 2107.04 1161.05 1096.50 59.68 4.00
   23:36:36.390.30-Jun-2020 361.91 2107.03 1161.05 1096.50 59.68 4.00
   23:36:36.590.30-Jun-2020 362.11 2107.03 1161.05 1096.50 59.68 4.00
   23:36:36.790.30-Jun-2020 362.31 2107.03 1161.05 1096.50 59.68 4.00
   23:36:36.990.30-Jun-2020 362.51 2107.03 1161.05 1096.50 59.68 4.00
   23:36:37.190.30-Jun-2020 362.71 2107.04 1161.05 1096.50 59.68 4.00
   23:36:37.391.30-Jun-2020 362.91 2107.15 1161.05 1096.50 59.68 4.00
   23:36:37.591.30-Jun-2020 363.11 2107.20 1161.05 1096.50 59.68 4.00
   23:36:37.791.30-Jun-2020 363.31 2107.20 1161.05 1096.50 59.68 4.00
   23:36:37.991.30-Jun-2020 363.51 2107.22 1161.05 1096.50 59.68 4.00
   23:36:38.191.30-Jun-2020 363.71 2107.14 1161.05 1096.50 59.68 4.00
   23:36:38.391.30-Jun-2020 363.91 2107.14 1161.05 1096.50 59.68 4.00
   23:36:38.591.30-Jun-2020 364.11 2107.31 1161.05 1096.50 59.68 4.00
   23:36:38.791.30-Jun-2020 364.31 2107.31 1161.05 1096.50 59.68 4.00
   23:36:38.991.30-Jun-2020 364.51 2107.29 1161.05 1096.50 59.68 4.00
   23:36:39.191.30-Jun-2020 364.71 2107.20 1161.05 1096.50 59.68 4.00
   23:36:39.391.30-Jun-2020 364.91 2107.21 1161.05 1096.50 59.68 4.00
   23:36:39.591.30-Jun-2020 365.11 2107.20 1161.05 1096.50 59.68 4.00
   23:36:39.791.30-Jun-2020 365.31 2107.20 1161.05 1096.50 59.68 4.00
   23:36:39.991.30-Jun-2020 365.51 2107.31 1161.05 1096.50 59.68 4.00
   23:36:40.191.30-Jun-2020 365.71 2107.26 1161.05 1096.50 59.68 4.00
   23:36:40.391.30-Jun-2020 365.91 2107.27 1161.05 1096.50 59.68 4.00
   23:36:40.591.30-Jun-2020 366.11 2107.23 1161.05 1096.50 59.68 4.00
   23:36:40.792.30-Jun-2020 366.31 2107.23 1161.05 1096.50 59.68 4.00
   23:36:40.992.30-Jun-2020 366.51 2107.29 1161.05 1096.50 59.68 4.00
   23:36:41.192.30-Jun-2020 366.71 2107.28 1161.05 1096.50 59.68 4.00
   23:36:41.392.30-Jun-2020 366.91 2107.29 1161.05 1096.50 59.68 4.00
   23:36:41.592.30-Jun-2020 367.11 2107.28 1161.05 1096.50 59.68 4.00
   23:36:41.792.30-Jun-2020 367.31 2107.28 1161.05 1096.50 59.68 4.00
   23:36:41.992.30-Jun-2020 367.51 2107.30 1161.05 1096.50 59.68 4.00
   23:36:42.192.30-Jun-2020 367.71 2107.34 1161.05 1096.50 59.68 4.00
   23:36:42.392.30-Jun-2020 367.91 2107.30 1161.05 1096.50 59.68 4.00
