~Version Information
 VERS.                  2.0:   CWLS log ASCII Standard -VERSION 2.0
 WRAP.                   NO:   One line per depth step
~Well Information Block
#MNEM.UNIT     VALUE/NAME     DESCRIPTION
#---------     -----------    ---------------------------
 STRT.S             20:59:46 30-Jun-20: START TIME 20:59:46 30-Jun-20
 STOP.S             21:08:48 30-Jun-20: STOP TIME  21:08:48 30-Jun-20
 STEP.S                   0.00: STEP TIME
 NULL.                 -999.25: NULL VALUE
 DFWT.                        :  DIST FWL TEXT
 DFST.                        :  DIST FSL TEXT
 DMF .             Drill Floor:  DRILL MEAS FROM
 STIM.      09.59.28 01-Jun-20:  START TIME
 DATE.      09.59.28 01-Jun-20:  END TIME
 SPUD.               01-Jun-20:  SPUD DATE
 NREF.                    Grid:  NORTH REFERENCE
 HPTY.       Minimum Curvature:  HOLE POS TYPE
 DMOD.             Drill Model:  DRILL MOD DESC
 SVYD.                  Survey:  SURVEY DESC
 ILTD.               Lithology:  INTERP LTH DESC
 FTOP.          Formation Tops:  FORM TOPS DESC
 SON .        AZ-XX-0905455768:  JOB NUMBER
 WTYP.                Deviated:  WELL TYPE
 COMP.     BP Exploration(Caspian Sea):  COMPANY
 BASE.              Azerbaijan:  LOGGING EQUIPMENT BASE LOCATION
 REGN.                   EESSA:  REGION
 CTRY.              Azerbaijan:  COUNTRY NAME
 FLD .                     ACG:  FIELD NAME
 SRVC.          Turan Drilling:  CONTRACTOR
 WELL.                     B41:  WELL NAME
 RIG .           Central Azeri:  RIG NAME
 DCON.         Sperry Drilling:  DIRECTNL CONTR
 PDAT.          Mean Sea Level:  PERMANENT DATUM
 MDS .        Operator Entered:  MAG DATA SOURCE
 API .                        :  API NUMBER
 CNTY.                        :  COUNTY
 PROV.                        :  PROVINCE
 STAT.                        :  STATE
 UWI .                        :  UNIQUE WELL IDENTIFIER
 LOC .                        :  LOCATION
 LMF .             Drill Floor:  LOG MEASURED FROM
 TVDS.m                  43.29:  TVDSS CORRECTN
 LATI.deg                40.03:  LATITUDE
 LONG.deg                51.35:  LONGITUDE
 WHNS.m                  12.98:  WELL HEAD N/S
 WHEW.m                  -6.62:  WELL HEAD E/W
 UTMX.m              530128.28:  UTM X
 UTMY.m             4433192.49:  UTM Y
 DFWL.m                   0.00:  DISTANCE FWL
 DFSL.m                   0.00:  DISTANCE FSL
 SDEP.m                 378.00:  START DEPTH
 TDD .m                   0.00:  TOTAL DEPTH (DRILLER)
 VSDR.deg               296.18:  VERT SEC DIRECT
 GVFD.g                   1.00:  GRAVITY FIELD
 MFLD.nT              50253.00:  MAGNETIC FIELD
 MDIP.deg                59.49:  MAGNETIC DIP
 MDEC.deg                 6.44:  MAGNETIC DECL
 GRDC.deg                 0.22:  GRID CORRECTION
 AZTC.deg                 6.22:  AZM TOTAL CORR
 EPD .m                   0.00:  ELEVATION
 EGL .m                   0.00:  GROUND ELEVATION
 WDMS.m                 128.20:  WD ELEV
 APD .m                  43.29:  DEPTH ABOVE PD
 AGAP.m                  43.29:  AIR GAP
 VSEW.m                  -6.62:  VERT SEC E/W
 VSNS.m                  12.98:  VERT SEC N/S
 EKB .m                  43.29:  KB ELEVATION
 EDF .m                  43.29:  DF ELEVATION
 TDL .m                1152.00:  TOTAL DEPTH (LOGGER)
 VSC .                       0:  VS TO CLOSURE
 MAGU.                 1848525:  MAGUTM CHECKSUM
~Parameter Information Block
#MNEM.UNIT       Value        Description
#---------     -----------    ---------------------------
 AV  .mps                 0.40:  Ann Velocity 
 AVMX.mps                 1.56:  Max Ann Veloc 
 AZIF.deg               300.46:  Azm, Final 
 BHAT.        Rotary Steerable:  BHA Type 
 BROT.°/30m               0.40:  Build Rotating 
 BS  .in                 17.50:  Bit Size 
 BSZ .in                 17.50:  Bit Size 
 BTPL.psig              300.00:  Bit Press Loss 
 CABU.                      No:  Customer Abuse 
 CGEO.          Parviz Guliyev:  Customer Geo 
 COMM.                     ÜRt:  Run Comments 1 
 TCS .hr                108.13:  Time Ciculation Ended 
 CV  .mps                 0.50:  Crit Velocity 
 CVMX.mps                 2.01:  Max Crit Veloc 
 DD1 .          Fariz Nahmatov:  Direct Drillr 1 
 DD2 .             Ehab Radwan:  Direct Drillr 2 
 DDSV.               Geo-Pilot:  DD Service 
 DEFF.%                  99.00:  % Det Eff 
 DLRX.°/30m               0.50:  Dogleg Rot Max 
 DLSO.°/30m               2.80:  Dogleg Oriented 
 DLSX.°/30m               3.90:  Dogleg Str Max 
 DRET.      09.30.04 03-Jul-20:  Drill End Time 
 DRST.      18.33.04 28-Jun-20:  Drill Start Tim 
 DTIM.hr                 55.83:  Time Drilling 
 EDEP.m                1952.00:  End Depth 
 ENG1.      Bakhtiyar Jabbarli:  Engineer 1 
 ENG2.         Farhad Orujzade:  Engineer 2 
 ENG3.          Rustam Safarov:  Engineer 3 
 ETIM.      01.33.04 04-Jul-20:  End Time 
 FLOI.gpm              1050.00:  Flow In 
 FLON.gpm               950.00:  Flow In Min 
 FLOS.cptm                0.10:  Fluid Loss 
 FLOX.gpm              1150.00:  Flow In Max 
 HFLO.                      No:  High Flow 
 HPRE.                      No:  High Pressure 
 HTEM.                      No:  High Temp 
 HYDO.m                   1.80:  Hydro Offset 
 IFIN.deg                75.26:  Inc, Final 
 IMAX.deg                75.38:  Inc Max 
 IMIN.deg                22.84:  Inc Min 
 IMND.m                 832.38:  Inc Min Depth 
 IMXD.m                1936.55:  Inc Max Depth 
 JARR.                      No:  Jarring 
 LETM.      17.40.00 04-Jul-20:  Log End Time 
 LOST.hr                     0:  Lost Rig Time 
 LSTM.      12.33.04 28-Jun-20:  Log Start Time 
 MDCL.ppm             49500.00:  Mud Chlorides 
 MDES.     Inversion Oil/Synthetic:  Mud Desc 
 DFD .sg                  1.46:  Mud Density 
 MDMN.sg                  1.46:  Dens Mud Min 
 MDMX.sg                  1.46:  Dens Mud Max 
 MOIL.                      70:  Run Mud Oil % 
 MOWR.                   70:30:  Run Mud OWR 
 MSND.                     0.5:  Run Mud Sand % 
 MSOL.                   19.89:  Run Mud Solids% 
 DFV .spqt               72.00:  Mud Viscosity 
 MWOD.in                  9.50:  MWD Tool OD 
 MWSI.                      No:  Serv Intrp, MWD 
 OTIM.hr                146.53:  Time Operating 
 PCON.           Look Like New:  Pad Condition 
 PMAX.psia             2900.00:  Press Op, Max 
 PV  .cP                 38.00:  Mud PV 
 RUN .                     600:  Run Number 
 ROPA.m/hr               22.00:  ROP Avg 
 ROPN.m/hr               10.00:  ROP Min 
 ROPX.m/hr              263.00:  ROP Max 
 RPMA.rpm               155.00:  RPM Surface Avg 
 RPMN.rpm               140.00:  RPM Surface Min 
 RPMX.rpm               160.00:  RPM Surface Max 
 RRUN.                    0600:  Rig Run Number 
 RTIM.hr                  5.00:  Time Reaming 
 SAZI.deg               300.08:  Azm, Start 
 SDEP.m                 800.00:  Start Depth 
 SIDD.                      No:  Serv Intrp, DD 
 SINC.deg                22.84:  Inc, Start 
 SPPA.psig             3000.00:  SPP Avg 
 SPPN.psig             1900.00:  SPP Min 
 SPPX.psig             3200.00:  SPP Max 
 STIM.      12.30.04 28-Jun-20:  Start Time 
 SVCS.                 DD, MWD:  Services 
 SVER.                    9.20:  Sperry Version 
 TDAT.m                1952.00:  Tot Depth Attmp 
 TDDF.                      No:  Trip for DD 
 TDLG.m                1152.00:  Tot Depth Loggd 
 TFF .                      No:  Trip for Fail 
 TQAA.f-kp                8.00:  Torque Abs Avg 
 TQAN.f-kp                5.00:  Torque Abs Min 
 TQAX.f-kp               14.00:  Torque Abs Max 
 TRRT.°/30m               0.50:  Turn Rotating 
 MRT .                  EWR-M5:  Maximum Recorded Temperature 
 TTMX.degC               69.00:  Max Tool Temp 
 VS01.                90610313:  Virtual Str1 SN 
 VS02.                90613431:  Virtual Str2 SN 
 VS03.                90615410:  Virtual Str3 SN 
 WBMN.klb                 6.00:  WOB Min 
 WITN.            Bruce Cheyne:  Customer Rep 
 WITN.             Ayaz Aliyev:  Customer Rep 2 
 WOBA.klb                 6.00:  WOB Avg 
 WOBX.klb                10.00:  WOB Max 
 YP  .lhf2               36.00:  Yield Point 
~Curve Information Block
#MNEM.UNIT                 API CODE     Curve Description
#---------               -----------    ---------------------------
 TIME.HHMMSS            00 000 000 000:  GT Time & Date
 GTET.sec               00 000 000 000:  GT Elapsed Test Time
 GTPQH.psia             00 000 000 000:  GT HR Quartz Pressure
 GTDEPTH.m              00 000 000 000:  GT Depth
 GTTVD.m                00 000 000 000:  GT True Vertical Depth
 GTTQ.degC              00 000 000 000:  GT Quartz Temperature
 GTTN.NONE              00 000 000 000:  GT Test Number
#Other Information
#
#WARRANTY: Halliburton will use its best efforts to furnish customers with 
#accurate information and interpretations that are part of, and incident to, the services 
#provided.  However, Halliburton cannot and does not warrant the accuracy 
#or correctness of such information and interpretations.  Under no circumstances should any 
#such information or interpretation be relied upon as the sole basis for any drilling, 
#completion, production, or financial decision or any procedure involving any risk to the 
#safety of any drilling venture, drilling rig or its crew or any other third party.  The 
#Customer has full responsibility for all drilling, completion and production operation.  
#Halliburton makes no representations or warranties, either expressed or 
#implied, including, but not limited to, the implied warranties of merchantability or fitness 
#for a particular purpose, with respect to the services rendered.  In no event will 
#Halliburton be liable for failure to obtain any particular results or for 
#any damages, including, but not limited to, indirect, special or consequential damages, 
#resulting from the use of any information or interpretation provided by Halliburton.
#
~A           TIME            GTET   GTPQH  GTDEPTH  GTTVD  GTTQ  GTTN 
# ...
   21:03:13.802.30-Jun-2020 207.04 2105.28 1143.02 1083.79 62.61 3.00
   21:03:14.002.30-Jun-2020 207.24 2105.28 1143.02 1083.79 62.61 3.00
   21:03:14.202.30-Jun-2020 207.44 2105.27 1143.02 1083.79 62.61 3.00
   21:03:14.402.30-Jun-2020 207.64 2105.27 1143.02 1083.79 62.61 3.00
   21:03:14.602.30-Jun-2020 207.84 2105.28 1143.02 1083.79 62.61 3.00
   21:03:14.802.30-Jun-2020 208.04 2105.28 1143.02 1083.79 62.61 3.00
   21:03:15.002.30-Jun-2020 208.24 2105.28 1143.02 1083.79 62.61 3.00
   21:03:15.202.30-Jun-2020 208.44 2105.25 1143.02 1083.79 62.61 3.00
   21:03:15.402.30-Jun-2020 208.64 2105.18 1143.02 1083.79 62.61 3.00
   21:03:15.602.30-Jun-2020 208.84 2105.29 1143.02 1083.79 62.61 3.00
   21:03:15.802.30-Jun-2020 209.04 2105.30 1143.02 1083.79 62.61 3.00
   21:03:16.002.30-Jun-2020 209.24 2105.29 1143.02 1083.79 62.61 3.00
   21:03:16.202.30-Jun-2020 209.44 2105.29 1143.02 1083.79 62.61 3.00
   21:03:16.402.30-Jun-2020 209.64 2105.29 1143.02 1083.79 62.61 3.00
   21:03:16.602.30-Jun-2020 209.84 2105.27 1143.02 1083.79 62.61 3.00
   21:03:16.802.30-Jun-2020 210.04 2105.26 1143.02 1083.79 62.61 3.00
   21:03:17.002.30-Jun-2020 210.24 2105.26 1143.02 1083.79 62.61 3.00
   21:03:17.202.30-Jun-2020 210.44 2105.26 1143.02 1083.79 62.60 3.00
   21:03:17.402.30-Jun-2020 210.64 2105.26 1143.02 1083.79 62.60 3.00
   21:03:17.602.30-Jun-2020 210.84 2105.25 1143.02 1083.79 62.60 3.00
   21:03:17.803.30-Jun-2020 211.04 2105.18 1143.02 1083.79 62.60 3.00
   21:03:18.003.30-Jun-2020 211.24 2105.18 1143.02 1083.79 62.60 3.00
   21:03:18.203.30-Jun-2020 211.44 2105.35 1143.02 1083.79 62.60 3.00
   21:03:18.403.30-Jun-2020 211.64 2105.34 1143.02 1083.79 62.60 3.00
   21:03:18.603.30-Jun-2020 211.84 2105.33 1143.02 1083.79 62.60 3.00
   21:03:18.803.30-Jun-2020 212.04 2105.28 1143.02 1083.79 62.60 3.00
   21:03:19.003.30-Jun-2020 212.24 2105.29 1143.02 1083.79 62.60 3.00
   21:03:19.203.30-Jun-2020 212.44 2105.33 1143.02 1083.79 62.60 3.00
   21:03:19.403.30-Jun-2020 212.64 2105.35 1143.02 1083.79 62.60 3.00
   21:03:19.603.30-Jun-2020 212.84 2105.33 1143.02 1083.79 62.60 3.00
   21:03:19.803.30-Jun-2020 213.04 2105.35 1143.02 1083.79 62.60 3.00
   21:03:20.003.30-Jun-2020 213.24 2105.30 1143.02 1083.79 62.60 3.00
   21:03:20.203.30-Jun-2020 213.44 2105.32 1143.02 1083.79 62.60 3.00
   21:03:20.403.30-Jun-2020 213.64 2105.37 1143.02 1083.79 62.60 3.00
   21:03:20.603.30-Jun-2020 213.84 2105.33 1143.02 1083.79 62.60 3.00
   21:03:20.803.30-Jun-2020 214.04 2105.35 1143.02 1083.79 62.60 3.00
   21:03:21.003.30-Jun-2020 214.24 2105.35 1143.02 1083.79 62.60 3.00
   21:03:21.203.30-Jun-2020 214.44 2105.25 1143.02 1083.79 62.60 3.00
   21:03:21.403.30-Jun-2020 214.64 2105.31 1143.02 1083.79 62.60 3.00
   21:03:21.603.30-Jun-2020 214.84 2105.34 1143.02 1083.79 62.60 3.00
   21:03:21.803.30-Jun-2020 215.04 2105.33 1143.02 1083.79 62.60 3.00
   21:03:22.003.30-Jun-2020 215.24 2105.33 1143.02 1083.79 62.60 3.00
   21:03:22.203.30-Jun-2020 215.44 2105.32 1143.02 1083.79 62.60 3.00
   21:03:22.403.30-Jun-2020 215.64 2105.30 1143.02 1083.79 62.60 3.00
   21:03:22.603.30-Jun-2020 215.84 2105.30 1143.02 1083.79 62.60 3.00
   21:03:22.803.30-Jun-2020 216.04 2105.30 1143.02 1083.79 62.60 3.00
   21:03:23.003.30-Jun-2020 216.24 2105.30 1143.02 1083.79 62.60 3.00
   21:03:23.203.30-Jun-2020 216.44 2105.28 1143.02 1083.79 62.59 3.00
   21:03:23.404.30-Jun-2020 216.64 2105.26 1143.02 1083.79 62.59 3.00
   21:03:23.604.30-Jun-2020 216.84 2105.26 1143.02 1083.79 62.59 3.00
   21:03:23.804.30-Jun-2020 217.04 2105.28 1143.02 1083.79 62.59 3.00
   21:03:24.004.30-Jun-2020 217.24 2105.28 1143.02 1083.79 62.59 3.00
   21:03:24.204.30-Jun-2020 217.44 2105.28 1143.02 1083.79 62.59 3.00
   21:03:24.404.30-Jun-2020 217.64 2105.28 1143.02 1083.79 62.59 3.00
   21:03:24.604.30-Jun-2020 217.84 2105.26 1143.02 1083.79 62.59 3.00
   21:03:24.804.30-Jun-2020 218.04 2105.19 1143.02 1083.79 62.59 3.00
   21:03:25.004.30-Jun-2020 218.24 2105.19 1143.02 1083.79 62.59 3.00
   21:03:25.204.30-Jun-2020 218.44 2105.28 1143.02 1083.79 62.59 3.00
   21:03:25.404.30-Jun-2020 218.64 2105.28 1143.02 1083.79 62.59 3.00
   21:03:25.604.30-Jun-2020 218.84 2105.27 1143.02 1083.79 62.59 3.00
   21:03:25.804.30-Jun-2020 219.04 2105.27 1143.02 1083.79 62.59 3.00
   21:03:26.004.30-Jun-2020 219.24 2105.27 1143.02 1083.79 62.59 3.00
   21:03:26.204.30-Jun-2020 219.44 2105.27 1143.02 1083.79 62.59 3.00
   21:03:26.404.30-Jun-2020 219.64 2105.27 1143.02 1083.79 62.59 3.00
   21:03:26.604.30-Jun-2020 219.84 2105.27 1143.02 1083.79 62.59 3.00
   21:03:26.804.30-Jun-2020 220.04 2105.27 1143.02 1083.79 62.59 3.00
   21:03:27.004.30-Jun-2020 220.24 2105.27 1143.02 1083.79 62.59 3.00
   21:03:27.204.30-Jun-2020 220.44 2105.19 1143.02 1083.79 62.59 3.00
   21:03:27.404.30-Jun-2020 220.64 2105.27 1143.02 1083.79 62.59 3.00
   21:03:27.604.30-Jun-2020 220.84 2105.32 1143.02 1083.79 62.59 3.00
   21:03:27.804.30-Jun-2020 221.04 2105.31 1143.02 1083.79 62.59 3.00
   21:03:28.004.30-Jun-2020 221.24 2105.31 1143.02 1083.79 62.59 3.00
   21:03:28.204.30-Jun-2020 221.44 2105.30 1143.02 1083.79 62.59 3.00
   21:03:28.404.30-Jun-2020 221.64 2105.25 1143.02 1083.79 62.59 3.00
   21:03:28.604.30-Jun-2020 221.84 2105.24 1143.02 1083.79 62.59 3.00
   21:03:28.804.30-Jun-2020 222.04 2105.29 1143.02 1083.79 62.59 3.00
   21:03:29.005.30-Jun-2020 222.24 2105.29 1143.02 1083.79 62.59 3.00
   21:03:29.205.30-Jun-2020 222.44 2105.30 1143.02 1083.79 62.58 3.00
   21:03:29.405.30-Jun-2020 222.64 2105.22 1143.02 1083.79 62.58 3.00
   21:03:29.605.30-Jun-2020 222.84 2097.95 1143.02 1083.79 62.58 3.00
   21:03:29.805.30-Jun-2020 223.04 2075.49 1143.02 1083.79 62.58 3.00
   21:03:30.005.30-Jun-2020 223.24 2076.95 1143.02 1083.79 62.58 3.00
   21:03:30.205.30-Jun-2020 223.44 2079.87 1143.02 1083.79 62.58 3.00
   21:03:30.405.30-Jun-2020 223.64 2079.86 1143.02 1083.79 62.58 3.00
   21:03:30.605.30-Jun-2020 223.84 2081.01 1143.02 1083.79 62.58 3.00
   21:03:30.805.30-Jun-2020 224.04 2081.89 1143.02 1083.79 62.58 3.00
   21:03:31.005.30-Jun-2020 224.24 2082.42 1143.02 1083.79 62.58 3.00
   21:03:31.205.30-Jun-2020 224.44 2082.41 1143.02 1083.79 62.58 3.00
   21:03:31.405.30-Jun-2020 224.64 2082.43 1143.02 1083.79 62.58 3.00
   21:03:31.605.30-Jun-2020 224.84 2082.47 1143.02 1083.79 62.58 3.00
   21:03:31.805.30-Jun-2020 225.04 2082.55 1143.02 1083.79 62.58 3.00
   21:03:32.005.30-Jun-2020 225.24 2082.68 1143.02 1083.79 62.58 3.00
   21:03:32.205.30-Jun-2020 225.44 2082.83 1143.02 1083.79 62.58 3.00
   21:03:32.405.30-Jun-2020 225.64 2083.10 1143.02 1083.79 62.58 3.00
   21:03:32.605.30-Jun-2020 225.84 2082.97 1143.02 1083.79 62.58 3.00
   21:03:32.805.30-Jun-2020 226.04 2083.47 1143.02 1083.79 62.58 3.00
   21:03:33.005.30-Jun-2020 226.24 2083.47 1143.02 1083.79 62.58 3.00
   21:03:33.205.30-Jun-2020 226.44 2083.20 1143.02 1083.79 62.58 3.00
   21:03:33.405.30-Jun-2020 226.64 2083.87 1143.02 1083.79 62.58 3.00
   21:03:33.605.30-Jun-2020 226.84 2083.63 1143.02 1083.79 62.58 3.00
   21:03:33.805.30-Jun-2020 227.04 2084.02 1143.02 1083.79 62.58 3.00
   21:03:34.005.30-Jun-2020 227.24 2084.02 1143.02 1083.79 62.58 3.00
   21:03:34.205.30-Jun-2020 227.44 2083.74 1143.02 1083.79 62.58 3.00
   21:03:34.405.30-Jun-2020 227.64 2083.94 1143.02 1083.79 62.58 3.00
   21:03:34.606.30-Jun-2020 227.84 2084.00 1143.02 1083.79 62.58 3.00
   21:03:34.806.30-Jun-2020 228.04 2084.38 1143.02 1083.79 62.58 3.00
   21:03:35.006.30-Jun-2020 228.24 2084.19 1143.02 1083.79 62.57 3.00
   21:03:35.206.30-Jun-2020 228.44 2084.37 1143.02 1083.79 62.57 3.00
   21:03:35.406.30-Jun-2020 228.64 2084.30 1143.02 1083.79 62.57 3.00
   21:03:35.606.30-Jun-2020 228.84 2084.16 1143.02 1083.79 62.57 3.00
   21:03:35.806.30-Jun-2020 229.04 2084.42 1143.02 1083.79 62.57 3.00
   21:03:36.006.30-Jun-2020 229.24 2084.62 1143.02 1083.79 62.57 3.00
   21:03:36.206.30-Jun-2020 229.44 2084.78 1143.02 1083.79 62.57 3.00
   21:03:36.406.30-Jun-2020 229.64 2084.67 1143.02 1083.79 62.57 3.00
   21:03:36.606.30-Jun-2020 229.84 2084.61 1143.02 1083.79 62.57 3.00
