~Version Information
 VERS.                  2.0:   CWLS log ASCII Standard -VERSION 2.0
 WRAP.                   NO:   One line per depth step
~Well Information Block
#MNEM.UNIT     VALUE/NAME     DESCRIPTION
#---------     -----------    ---------------------------
 STRT.S             23:54:17 02-Jul-20: START TIME 23:54:17 02-Jul-20
 STOP.S             00:03:12 03-Jul-20: STOP TIME  00:03:12 03-Jul-20
 STEP.S                   0.00: STEP TIME
 NULL.                 -999.25: NULL VALUE
 DFWT.                        :  DIST FWL TEXT
 DFST.                        :  DIST FSL TEXT
 DMF .             Drill Floor:  DRILL MEAS FROM
 STIM.      09.59.28 01-Jun-20:  START TIME
 DATE.      09.59.28 01-Jun-20:  END TIME
 SPUD.               01-Jun-20:  SPUD DATE
 NREF.                    Grid:  NORTH REFERENCE
 HPTY.       Minimum Curvature:  HOLE POS TYPE
 DMOD.             Drill Model:  DRILL MOD DESC
 SVYD.                  Survey:  SURVEY DESC
 ILTD.               Lithology:  INTERP LTH DESC
 FTOP.          Formation Tops:  FORM TOPS DESC
 SON .        AZ-XX-0905455768:  JOB NUMBER
 WTYP.                Deviated:  WELL TYPE
 COMP.     BP Exploration(Caspian Sea):  COMPANY
 BASE.              Azerbaijan:  LOGGING EQUIPMENT BASE LOCATION
 REGN.                   EESSA:  REGION
 CTRY.              Azerbaijan:  COUNTRY NAME
 FLD .                     ACG:  FIELD NAME
 SRVC.          Turan Drilling:  CONTRACTOR
 WELL.                     B41:  WELL NAME
 RIG .           Central Azeri:  RIG NAME
 DCON.         Sperry Drilling:  DIRECTNL CONTR
 PDAT.          Mean Sea Level:  PERMANENT DATUM
 MDS .        Operator Entered:  MAG DATA SOURCE
 API .                        :  API NUMBER
 CNTY.                        :  COUNTY
 PROV.                        :  PROVINCE
 STAT.                        :  STATE
 UWI .                        :  UNIQUE WELL IDENTIFIER
 LOC .                        :  LOCATION
 LMF .             Drill Floor:  LOG MEASURED FROM
 TVDS.m                  43.29:  TVDSS CORRECTN
 LATI.deg                40.03:  LATITUDE
 LONG.deg                51.35:  LONGITUDE
 WHNS.m                  12.98:  WELL HEAD N/S
 WHEW.m                  -6.62:  WELL HEAD E/W
 UTMX.m              530128.28:  UTM X
 UTMY.m             4433192.49:  UTM Y
 DFWL.m                   0.00:  DISTANCE FWL
 DFSL.m                   0.00:  DISTANCE FSL
 SDEP.m                 378.00:  START DEPTH
 TDD .m                   0.00:  TOTAL DEPTH (DRILLER)
 VSDR.deg               296.18:  VERT SEC DIRECT
 GVFD.g                   1.00:  GRAVITY FIELD
 MFLD.nT              50253.00:  MAGNETIC FIELD
 MDIP.deg                59.49:  MAGNETIC DIP
 MDEC.deg                 6.44:  MAGNETIC DECL
 GRDC.deg                 0.22:  GRID CORRECTION
 AZTC.deg                 6.22:  AZM TOTAL CORR
 EPD .m                   0.00:  ELEVATION
 EGL .m                   0.00:  GROUND ELEVATION
 WDMS.m                 128.20:  WD ELEV
 APD .m                  43.29:  DEPTH ABOVE PD
 AGAP.m                  43.29:  AIR GAP
 VSEW.m                  -6.62:  VERT SEC E/W
 VSNS.m                  12.98:  VERT SEC N/S
 EKB .m                  43.29:  KB ELEVATION
 EDF .m                  43.29:  DF ELEVATION
 TDL .m                1152.00:  TOTAL DEPTH (LOGGER)
 VSC .                       0:  VS TO CLOSURE
 MAGU.                 1848525:  MAGUTM CHECKSUM
~Parameter Information Block
#MNEM.UNIT       Value        Description
#---------     -----------    ---------------------------
 AV  .mps                 0.40:  Ann Velocity 
 AVMX.mps                 1.56:  Max Ann Veloc 
 AZIF.deg               300.46:  Azm, Final 
 BHAT.        Rotary Steerable:  BHA Type 
 BROT.°/30m               0.40:  Build Rotating 
 BS  .in                 17.50:  Bit Size 
 BSZ .in                 17.50:  Bit Size 
 BTPL.psig              300.00:  Bit Press Loss 
 CABU.                      No:  Customer Abuse 
 CGEO.          Parviz Guliyev:  Customer Geo 
 COMM.                     ägu:  Run Comments 1 
 TCS .hr                108.13:  Time Ciculation Ended 
 CV  .mps                 0.50:  Crit Velocity 
 CVMX.mps                 2.01:  Max Crit Veloc 
 DD1 .          Fariz Nahmatov:  Direct Drillr 1 
 DD2 .             Ehab Radwan:  Direct Drillr 2 
 DDSV.               Geo-Pilot:  DD Service 
 DEFF.%                  99.00:  % Det Eff 
 DLRX.°/30m               0.50:  Dogleg Rot Max 
 DLSO.°/30m               2.80:  Dogleg Oriented 
 DLSX.°/30m               3.90:  Dogleg Str Max 
 DRET.      09.30.04 03-Jul-20:  Drill End Time 
 DRST.      18.33.04 28-Jun-20:  Drill Start Tim 
 DTIM.hr                 55.83:  Time Drilling 
 EDEP.m                1952.00:  End Depth 
 ENG1.      Bakhtiyar Jabbarli:  Engineer 1 
 ENG2.         Farhad Orujzade:  Engineer 2 
 ENG3.          Rustam Safarov:  Engineer 3 
 ETIM.      01.33.04 04-Jul-20:  End Time 
 FLOI.gpm              1050.00:  Flow In 
 FLON.gpm               950.00:  Flow In Min 
 FLOS.cptm                0.10:  Fluid Loss 
 FLOX.gpm              1150.00:  Flow In Max 
 HFLO.                      No:  High Flow 
 HPRE.                      No:  High Pressure 
 HTEM.                      No:  High Temp 
 HYDO.m                   1.80:  Hydro Offset 
 IFIN.deg                75.26:  Inc, Final 
 IMAX.deg                75.38:  Inc Max 
 IMIN.deg                22.84:  Inc Min 
 IMND.m                 832.38:  Inc Min Depth 
 IMXD.m                1936.55:  Inc Max Depth 
 JARR.                      No:  Jarring 
 LETM.      17.40.00 04-Jul-20:  Log End Time 
 LOST.hr                     0:  Lost Rig Time 
 LSTM.      12.33.04 28-Jun-20:  Log Start Time 
 MDCL.ppm             49500.00:  Mud Chlorides 
 MDES.     Inversion Oil/Synthetic:  Mud Desc 
 DFD .sg                  1.46:  Mud Density 
 MDMN.sg                  1.46:  Dens Mud Min 
 MDMX.sg                  1.46:  Dens Mud Max 
 MOIL.                      70:  Run Mud Oil % 
 MOWR.                   70:30:  Run Mud OWR 
 MSND.                     0.5:  Run Mud Sand % 
 MSOL.                   19.89:  Run Mud Solids% 
 DFV .spqt               72.00:  Mud Viscosity 
 MWOD.in                  9.50:  MWD Tool OD 
 MWSI.                      No:  Serv Intrp, MWD 
 OTIM.hr                146.53:  Time Operating 
 PCON.           Look Like New:  Pad Condition 
 PMAX.psia             2900.00:  Press Op, Max 
 PV  .cP                 38.00:  Mud PV 
 RUN .                     600:  Run Number 
 ROPA.m/hr               22.00:  ROP Avg 
 ROPN.m/hr               10.00:  ROP Min 
 ROPX.m/hr              263.00:  ROP Max 
 RPMA.rpm               155.00:  RPM Surface Avg 
 RPMN.rpm               140.00:  RPM Surface Min 
 RPMX.rpm               160.00:  RPM Surface Max 
 RRUN.                    0600:  Rig Run Number 
 RTIM.hr                  5.00:  Time Reaming 
 SAZI.deg               300.08:  Azm, Start 
 SDEP.m                 800.00:  Start Depth 
 SIDD.                      No:  Serv Intrp, DD 
 SINC.deg                22.84:  Inc, Start 
 SPPA.psig             3000.00:  SPP Avg 
 SPPN.psig             1900.00:  SPP Min 
 SPPX.psig             3200.00:  SPP Max 
 STIM.      12.30.04 28-Jun-20:  Start Time 
 SVCS.                 DD, MWD:  Services 
 SVER.                    9.20:  Sperry Version 
 TDAT.m                1952.00:  Tot Depth Attmp 
 TDDF.                      No:  Trip for DD 
 TDLG.m                1152.00:  Tot Depth Loggd 
 TFF .                      No:  Trip for Fail 
 TQAA.f-kp                8.00:  Torque Abs Avg 
 TQAN.f-kp                5.00:  Torque Abs Min 
 TQAX.f-kp               14.00:  Torque Abs Max 
 TRRT.°/30m               0.50:  Turn Rotating 
 MRT .                  EWR-M5:  Maximum Recorded Temperature 
 TTMX.degC               69.00:  Max Tool Temp 
 VS01.                90610313:  Virtual Str1 SN 
 VS02.                90613431:  Virtual Str2 SN 
 VS03.                90615410:  Virtual Str3 SN 
 WBMN.klb                 6.00:  WOB Min 
 WITN.            Bruce Cheyne:  Customer Rep 
 WITN.             Ayaz Aliyev:  Customer Rep 2 
 WOBA.klb                 6.00:  WOB Avg 
 WOBX.klb                10.00:  WOB Max 
 YP  .lhf2               36.00:  Yield Point 
~Curve Information Block
#MNEM.UNIT                 API CODE     Curve Description
#---------               -----------    ---------------------------
 TIME.HHMMSS            00 000 000 000:  GT Time & Date
 GTET.sec               00 000 000 000:  GT Elapsed Test Time
 GTPQH.psia             00 000 000 000:  GT HR Quartz Pressure
 GTDEPTH.m              00 000 000 000:  GT Depth
 GTTVD.m                00 000 000 000:  GT True Vertical Depth
 GTTQ.degC              00 000 000 000:  GT Quartz Temperature
 GTTN.NONE              00 000 000 000:  GT Test Number
#Other Information
#
#WARRANTY: Halliburton will use its best efforts to furnish customers with 
#accurate information and interpretations that are part of, and incident to, the services 
#provided.  However, Halliburton cannot and does not warrant the accuracy 
#or correctness of such information and interpretations.  Under no circumstances should any 
#such information or interpretation be relied upon as the sole basis for any drilling, 
#completion, production, or financial decision or any procedure involving any risk to the 
#safety of any drilling venture, drilling rig or its crew or any other third party.  The 
#Customer has full responsibility for all drilling, completion and production operation.  
#Halliburton makes no representations or warranties, either expressed or 
#implied, including, but not limited to, the implied warranties of merchantability or fitness 
#for a particular purpose, with respect to the services rendered.  In no event will 
#Halliburton be liable for failure to obtain any particular results or for 
#any damages, including, but not limited to, indirect, special or consequential damages, 
#resulting from the use of any information or interpretation provided by Halliburton.
#
~A           TIME            GTET   GTPQH  GTDEPTH  GTTVD  GTTQ  GTTN 
   23:54:17.589.02-Jul-2020   0.00 2850.76 1828.92 1344.71 59.14 7.00
   23:54:17.789.02-Jul-2020   0.20 2850.76 1828.92 1344.71 59.14 7.00
   23:54:17.989.02-Jul-2020   0.40 2851.34 1828.92 1344.71 59.14 7.00
   23:54:18.189.02-Jul-2020   0.60 2849.86 1828.92 1344.71 59.14 7.00
   23:54:18.389.02-Jul-2020   0.80 2848.06 1828.92 1344.71 59.14 7.00
   23:54:18.589.02-Jul-2020   1.00 2847.17 1828.92 1344.71 59.14 7.00
   23:54:18.789.02-Jul-2020   1.20 2845.47 1828.92 1344.71 59.14 7.00
   23:54:18.989.02-Jul-2020   1.40 2843.82 1828.92 1344.71 59.14 7.00
   23:54:19.189.02-Jul-2020   1.60 2842.01 1828.92 1344.71 59.14 7.00
   23:54:19.389.02-Jul-2020   1.80 2839.35 1828.92 1344.71 59.14 7.00
   23:54:19.589.02-Jul-2020   2.00 2839.12 1828.92 1344.71 59.14 7.00
   23:54:19.789.02-Jul-2020   2.20 2839.12 1828.92 1344.71 59.14 7.00
   23:54:19.989.02-Jul-2020   2.40 2837.98 1828.92 1344.71 59.14 7.00
   23:54:20.189.02-Jul-2020   2.60 2838.29 1828.92 1344.71 59.14 7.00
   23:54:20.389.02-Jul-2020   2.80 2838.63 1828.92 1344.71 59.14 7.00
   23:54:20.589.02-Jul-2020   3.00 2839.25 1828.92 1344.71 59.14 7.00
   23:54:20.789.02-Jul-2020   3.20 2839.25 1828.92 1344.71 59.14 7.00
   23:54:20.989.02-Jul-2020   3.40 2839.34 1828.92 1344.71 59.14 7.00
   23:54:21.189.02-Jul-2020   3.60 2839.42 1828.92 1344.71 59.14 7.00
   23:54:21.389.02-Jul-2020   3.80 2839.61 1828.92 1344.71 59.14 7.00
   23:54:21.589.02-Jul-2020   4.00 2839.57 1828.92 1344.71 59.14 7.00
   23:54:21.789.02-Jul-2020   4.20 2839.57 1828.92 1344.71 59.14 7.00
   23:54:21.989.02-Jul-2020   4.40 2839.57 1828.92 1344.71 59.14 7.00
   23:54:22.189.02-Jul-2020   4.60 2837.44 1828.92 1344.71 59.14 7.00
   23:54:22.389.02-Jul-2020   4.80 2836.64 1828.92 1344.71 59.14 7.00
   23:54:22.589.02-Jul-2020   5.00 2835.59 1828.92 1344.71 59.14 7.00
   23:54:22.789.02-Jul-2020   5.20 2835.59 1828.92 1344.71 59.14 7.00
   23:54:22.989.02-Jul-2020   5.40 2835.47 1828.92 1344.71 59.13 7.00
   23:54:23.189.02-Jul-2020   5.60 2837.41 1828.92 1344.71 59.13 7.00
   23:54:23.389.02-Jul-2020   5.80 2838.90 1828.92 1344.71 59.13 7.00
   23:54:23.589.02-Jul-2020   6.00 2839.77 1828.92 1344.71 59.13 7.00
   23:54:23.789.02-Jul-2020   6.20 2840.91 1828.92 1344.71 59.13 7.00
   23:54:23.990.02-Jul-2020   6.40 2841.65 1828.92 1344.71 59.13 7.00
   23:54:24.190.02-Jul-2020   6.60 2841.46 1828.92 1344.71 59.13 7.00
   23:54:24.390.02-Jul-2020   6.80 2842.69 1828.92 1344.71 59.13 7.00
   23:54:24.590.02-Jul-2020   7.00 2843.19 1828.92 1344.71 59.13 7.00
   23:54:24.790.02-Jul-2020   7.20 2843.35 1828.92 1344.71 59.13 7.00
   23:54:24.990.02-Jul-2020   7.40 2843.45 1828.92 1344.71 59.13 7.00
   23:54:25.190.02-Jul-2020   7.60 2842.60 1828.92 1344.71 59.13 7.00
   23:54:25.390.02-Jul-2020   7.80 2842.91 1828.92 1344.71 59.13 7.00
   23:54:25.590.02-Jul-2020   8.00 2843.27 1828.92 1344.71 59.13 7.00
   23:54:25.790.02-Jul-2020   8.20 2843.46 1828.92 1344.71 59.13 7.00
   23:54:25.990.02-Jul-2020   8.40 2843.24 1828.92 1344.71 59.13 7.00
   23:54:26.190.02-Jul-2020   8.60 2843.21 1828.92 1344.71 59.13 7.00
   23:54:26.390.02-Jul-2020   8.80 2842.58 1828.92 1344.71 59.13 7.00
   23:54:26.590.02-Jul-2020   9.00 2844.09 1828.92 1344.71 59.13 7.00
   23:54:26.790.02-Jul-2020   9.20 2844.46 1828.92 1344.71 59.13 7.00
   23:54:26.990.02-Jul-2020   9.40 2844.75 1828.92 1344.71 59.13 7.00
   23:54:27.190.02-Jul-2020   9.60 2845.62 1828.92 1344.71 59.13 7.00
   23:54:27.390.02-Jul-2020   9.80 2845.49 1828.92 1344.71 59.13 7.00
   23:54:27.590.02-Jul-2020  10.00 2846.38 1828.92 1344.71 59.13 7.00
   23:54:27.790.02-Jul-2020  10.20 2846.63 1828.92 1344.71 59.13 7.00
   23:54:27.990.02-Jul-2020  10.40 2847.21 1828.92 1344.71 59.13 7.00
   23:54:28.190.02-Jul-2020  10.60 2847.40 1828.92 1344.71 59.13 7.00
   23:54:28.390.02-Jul-2020  10.80 2847.21 1828.92 1344.71 59.13 7.00
   23:54:28.590.02-Jul-2020  11.00 2846.84 1828.92 1344.71 59.13 7.00
   23:54:28.790.02-Jul-2020  11.20 2844.83 1828.92 1344.71 59.13 7.00
   23:54:28.990.02-Jul-2020  11.40 2845.02 1828.92 1344.71 59.13 7.00
   23:54:29.190.02-Jul-2020  11.60 2845.17 1828.92 1344.71 59.13 7.00
   23:54:29.390.02-Jul-2020  11.80 2844.51 1828.92 1344.71 59.13 7.00
   23:54:29.590.02-Jul-2020  12.00 2844.03 1828.92 1344.71 59.13 7.00
   23:54:29.790.02-Jul-2020  12.20 2842.16 1828.92 1344.71 59.13 7.00
   23:54:29.990.02-Jul-2020  12.40 2842.62 1828.92 1344.71 59.13 7.00
   23:54:30.190.02-Jul-2020  12.60 2842.34 1828.92 1344.71 59.13 7.00
   23:54:30.390.02-Jul-2020  12.80 2842.29 1828.92 1344.71 59.13 7.00
   23:54:30.590.02-Jul-2020  13.00 2842.48 1828.92 1344.71 59.13 7.00
   23:54:30.790.02-Jul-2020  13.20 2842.48 1828.92 1344.71 59.13 7.00
   23:54:30.990.02-Jul-2020  13.40 2841.96 1828.92 1344.71 59.13 7.00
   23:54:31.190.02-Jul-2020  13.60 2841.87 1828.92 1344.71 59.13 7.00
   23:54:31.391.02-Jul-2020  13.80 2842.04 1828.92 1344.71 59.13 7.00
   23:54:31.591.02-Jul-2020  14.00 2842.17 1828.92 1344.71 59.13 7.00
   23:54:31.791.02-Jul-2020  14.20 2842.17 1828.92 1344.71 59.13 7.00
   23:54:31.991.02-Jul-2020  14.40 2841.68 1828.92 1344.71 59.13 7.00
   23:54:32.191.02-Jul-2020  14.60 2841.30 1828.92 1344.71 59.13 7.00
   23:54:32.391.02-Jul-2020  14.80 2840.89 1828.92 1344.71 59.13 7.00
   23:54:32.591.02-Jul-2020  15.00 2840.62 1828.92 1344.71 59.13 7.00
   23:54:32.791.02-Jul-2020  15.20 2840.05 1828.92 1344.71 59.13 7.00
   23:54:32.991.02-Jul-2020  15.40 2839.39 1828.92 1344.71 59.13 7.00
   23:54:33.191.02-Jul-2020  15.60 2838.92 1828.92 1344.71 59.13 7.00
   23:54:33.391.02-Jul-2020  15.80 2837.09 1828.92 1344.71 59.13 7.00
   23:54:33.591.02-Jul-2020  16.00 2837.64 1828.92 1344.71 59.13 7.00
   23:54:33.791.02-Jul-2020  16.20 2837.71 1828.92 1344.71 59.13 7.00
   23:54:33.991.02-Jul-2020  16.40 2838.36 1828.92 1344.71 59.12 7.00
   23:54:34.191.02-Jul-2020  16.60 2838.79 1828.92 1344.71 59.12 7.00
   23:54:34.391.02-Jul-2020  16.80 2838.66 1828.92 1344.71 59.12 7.00
   23:54:34.591.02-Jul-2020  17.00 2840.39 1828.92 1344.71 59.12 7.00
   23:54:34.791.02-Jul-2020  17.20 2840.39 1828.92 1344.71 59.12 7.00
   23:54:34.991.02-Jul-2020  17.40 2840.54 1828.92 1344.71 59.12 7.00
   23:54:35.191.02-Jul-2020  17.60 2840.56 1828.92 1344.71 59.12 7.00
   23:54:35.391.02-Jul-2020  17.80 2840.64 1828.92 1344.71 59.12 7.00
   23:54:35.591.02-Jul-2020  18.00 2840.66 1828.92 1344.71 59.12 7.00
   23:54:35.791.02-Jul-2020  18.20 2840.44 1828.92 1344.71 59.12 7.00
   23:54:35.991.02-Jul-2020  18.40 2840.45 1828.92 1344.71 59.12 7.00
   23:54:36.191.02-Jul-2020  18.60 2839.37 1828.92 1344.71 59.12 7.00
   23:54:36.391.02-Jul-2020  18.80 2840.32 1828.92 1344.71 59.12 7.00
   23:54:36.591.02-Jul-2020  19.00 2840.70 1828.92 1344.71 59.12 7.00
   23:54:36.791.02-Jul-2020  19.20 2840.70 1828.92 1344.71 59.12 7.00
   23:54:36.991.02-Jul-2020  19.40 2841.56 1828.92 1344.71 59.12 7.00
   23:54:37.191.02-Jul-2020  19.60 2840.95 1828.92 1344.71 59.12 7.00
   23:54:37.391.02-Jul-2020  19.80 2841.95 1828.92 1344.71 59.12 7.00
   23:54:37.591.02-Jul-2020  20.00 2842.94 1828.92 1344.71 59.12 7.00
   23:54:37.791.02-Jul-2020  20.20 2842.94 1828.92 1344.71 59.12 7.00
   23:54:37.991.02-Jul-2020  20.40 2843.66 1828.92 1344.71 59.12 7.00
   23:54:38.191.02-Jul-2020  20.60 2842.46 1828.92 1344.71 59.12 7.00
   23:54:38.391.02-Jul-2020  20.80 2843.50 1828.92 1344.71 59.12 7.00
   23:54:38.592.02-Jul-2020  21.00 2843.64 1828.92 1344.71 59.12 7.00
   23:54:38.792.02-Jul-2020  21.20 2843.64 1828.92 1344.71 59.12 7.00
   23:54:38.992.02-Jul-2020  21.40 2842.77 1828.92 1344.71 59.12 7.00
   23:54:39.192.02-Jul-2020  21.60 2843.68 1828.92 1344.71 59.12 7.00
   23:54:39.392.02-Jul-2020  21.80 2843.66 1828.92 1344.71 59.12 7.00
   23:54:39.592.02-Jul-2020  22.00 2843.22 1828.92 1344.71 59.12 7.00
   23:54:39.792.02-Jul-2020  22.20 2843.22 1828.92 1344.71 59.12 7.00
   23:54:39.992.02-Jul-2020  22.40 2842.51 1828.92 1344.71 59.12 7.00
   23:54:40.192.02-Jul-2020  22.60 2842.57 1828.92 1344.71 59.12 7.00
   23:54:40.392.02-Jul-2020  22.80 2842.44 1828.92 1344.71 59.12 7.00
