~Version Information
 VERS.                  2.0:   CWLS log ASCII Standard -VERSION 2.0
 WRAP.                   NO:   One line per depth step
~Well Information Block
#MNEM.UNIT     VALUE/NAME     DESCRIPTION
#---------     -----------    ---------------------------
 STRT.S             16:00:06 29-Jun-20: START TIME 16:00:06 29-Jun-20
 STOP.S             16:09:07 29-Jun-20: STOP TIME  16:09:07 29-Jun-20
 STEP.S                   0.00: STEP TIME
 NULL.                 -999.25: NULL VALUE
 DFWT.                        :  DIST FWL TEXT
 DFST.                        :  DIST FSL TEXT
 DMF .             Drill Floor:  DRILL MEAS FROM
 STIM.      09.59.28 01-Jun-20:  START TIME
 DATE.      09.59.28 01-Jun-20:  END TIME
 SPUD.               01-Jun-20:  SPUD DATE
 NREF.                    Grid:  NORTH REFERENCE
 HPTY.       Minimum Curvature:  HOLE POS TYPE
 DMOD.             Drill Model:  DRILL MOD DESC
 SVYD.                  Survey:  SURVEY DESC
 ILTD.               Lithology:  INTERP LTH DESC
 FTOP.          Formation Tops:  FORM TOPS DESC
 SON .        AZ-XX-0905455768:  JOB NUMBER
 WTYP.                Deviated:  WELL TYPE
 COMP.     BP Exploration(Caspian Sea):  COMPANY
 BASE.              Azerbaijan:  LOGGING EQUIPMENT BASE LOCATION
 REGN.                   EESSA:  REGION
 CTRY.              Azerbaijan:  COUNTRY NAME
 FLD .                     ACG:  FIELD NAME
 SRVC.          Turan Drilling:  CONTRACTOR
 WELL.                     B41:  WELL NAME
 RIG .           Central Azeri:  RIG NAME
 DCON.         Sperry Drilling:  DIRECTNL CONTR
 PDAT.          Mean Sea Level:  PERMANENT DATUM
 MDS .        Operator Entered:  MAG DATA SOURCE
 API .                        :  API NUMBER
 CNTY.                        :  COUNTY
 PROV.                        :  PROVINCE
 STAT.                        :  STATE
 UWI .                        :  UNIQUE WELL IDENTIFIER
 LOC .                        :  LOCATION
 LMF .             Drill Floor:  LOG MEASURED FROM
 TVDS.m                  43.29:  TVDSS CORRECTN
 LATI.deg                40.03:  LATITUDE
 LONG.deg                51.35:  LONGITUDE
 WHNS.m                  12.98:  WELL HEAD N/S
 WHEW.m                  -6.62:  WELL HEAD E/W
 UTMX.m              530128.28:  UTM X
 UTMY.m             4433192.49:  UTM Y
 DFWL.m                   0.00:  DISTANCE FWL
 DFSL.m                   0.00:  DISTANCE FSL
 SDEP.m                 378.00:  START DEPTH
 TDD .m                   0.00:  TOTAL DEPTH (DRILLER)
 VSDR.deg               296.18:  VERT SEC DIRECT
 GVFD.g                   1.00:  GRAVITY FIELD
 MFLD.nT              50253.00:  MAGNETIC FIELD
 MDIP.deg                59.49:  MAGNETIC DIP
 MDEC.deg                 6.44:  MAGNETIC DECL
 GRDC.deg                 0.22:  GRID CORRECTION
 AZTC.deg                 6.22:  AZM TOTAL CORR
 EPD .m                   0.00:  ELEVATION
 EGL .m                   0.00:  GROUND ELEVATION
 WDMS.m                 128.20:  WD ELEV
 APD .m                  43.29:  DEPTH ABOVE PD
 AGAP.m                  43.29:  AIR GAP
 VSEW.m                  -6.62:  VERT SEC E/W
 VSNS.m                  12.98:  VERT SEC N/S
 EKB .m                  43.29:  KB ELEVATION
 EDF .m                  43.29:  DF ELEVATION
 TDL .m                1152.00:  TOTAL DEPTH (LOGGER)
 VSC .                       0:  VS TO CLOSURE
 MAGU.                 1848525:  MAGUTM CHECKSUM
~Parameter Information Block
#MNEM.UNIT       Value        Description
#---------     -----------    ---------------------------
 AV  .mps                 0.40:  Ann Velocity 
 AVMX.mps                 1.56:  Max Ann Veloc 
 AZIF.deg               300.46:  Azm, Final 
 BHAT.        Rotary Steerable:  BHA Type 
 BROT.∞/30m               0.40:  Build Rotating 
 BS  .in                 17.50:  Bit Size 
 BSZ .in                 17.50:  Bit Size 
 BTPL.psig              300.00:  Bit Press Loss 
 CABU.                      No:  Customer Abuse 
 CGEO.          Parviz Guliyev:  Customer Geo 
 COMM.                     ,‘Å:  Run Comments 1 
 TCS .hr                108.13:  Time Ciculation Ended 
 CV  .mps                 0.50:  Crit Velocity 
 CVMX.mps                 2.01:  Max Crit Veloc 
 DD1 .          Fariz Nahmatov:  Direct Drillr 1 
 DD2 .             Ehab Radwan:  Direct Drillr 2 
 DDSV.               Geo-Pilot:  DD Service 
 DEFF.%                  99.00:  % Det Eff 
 DLRX.∞/30m               0.50:  Dogleg Rot Max 
 DLSO.∞/30m               2.80:  Dogleg Oriented 
 DLSX.∞/30m               3.90:  Dogleg Str Max 
 DRET.      09.30.04 03-Jul-20:  Drill End Time 
 DRST.      18.33.04 28-Jun-20:  Drill Start Tim 
 DTIM.hr                 55.83:  Time Drilling 
 EDEP.m                1952.00:  End Depth 
 ENG1.      Bakhtiyar Jabbarli:  Engineer 1 
 ENG2.         Farhad Orujzade:  Engineer 2 
 ENG3.          Rustam Safarov:  Engineer 3 
 ETIM.      01.33.04 04-Jul-20:  End Time 
 FLOI.gpm              1050.00:  Flow In 
 FLON.gpm               950.00:  Flow In Min 
 FLOS.cptm                0.10:  Fluid Loss 
 FLOX.gpm              1150.00:  Flow In Max 
 HFLO.                      No:  High Flow 
 HPRE.                      No:  High Pressure 
 HTEM.                      No:  High Temp 
 HYDO.m                   1.80:  Hydro Offset 
 IFIN.deg                75.26:  Inc, Final 
 IMAX.deg                75.38:  Inc Max 
 IMIN.deg                22.84:  Inc Min 
 IMND.m                 832.38:  Inc Min Depth 
 IMXD.m                1936.55:  Inc Max Depth 
 JARR.                      No:  Jarring 
 LETM.      17.40.00 04-Jul-20:  Log End Time 
 LOST.hr                     0:  Lost Rig Time 
 LSTM.      12.33.04 28-Jun-20:  Log Start Time 
 MDCL.ppm             49500.00:  Mud Chlorides 
 MDES.     Inversion Oil/Synthetic:  Mud Desc 
 DFD .sg                  1.46:  Mud Density 
 MDMN.sg                  1.46:  Dens Mud Min 
 MDMX.sg                  1.46:  Dens Mud Max 
 MOIL.                      70:  Run Mud Oil % 
 MOWR.                   70:30:  Run Mud OWR 
 MSND.                     0.5:  Run Mud Sand % 
 MSOL.                   19.89:  Run Mud Solids% 
 DFV .spqt               72.00:  Mud Viscosity 
 MWOD.in                  9.50:  MWD Tool OD 
 MWSI.                      No:  Serv Intrp, MWD 
 OTIM.hr                146.53:  Time Operating 
 PCON.           Look Like New:  Pad Condition 
 PMAX.psia             2900.00:  Press Op, Max 
 PV  .cP                 38.00:  Mud PV 
 RUN .                     600:  Run Number 
 ROPA.m/hr               22.00:  ROP Avg 
 ROPN.m/hr               10.00:  ROP Min 
 ROPX.m/hr              263.00:  ROP Max 
 RPMA.rpm               155.00:  RPM Surface Avg 
 RPMN.rpm               140.00:  RPM Surface Min 
 RPMX.rpm               160.00:  RPM Surface Max 
 RRUN.                    0600:  Rig Run Number 
 RTIM.hr                  5.00:  Time Reaming 
 SAZI.deg               300.08:  Azm, Start 
 SDEP.m                 800.00:  Start Depth 
 SIDD.                      No:  Serv Intrp, DD 
 SINC.deg                22.84:  Inc, Start 
 SPPA.psig             3000.00:  SPP Avg 
 SPPN.psig             1900.00:  SPP Min 
 SPPX.psig             3200.00:  SPP Max 
 STIM.      12.30.04 28-Jun-20:  Start Time 
 SVCS.                 DD, MWD:  Services 
 SVER.                    9.20:  Sperry Version 
 TDAT.m                1952.00:  Tot Depth Attmp 
 TDDF.                      No:  Trip for DD 
 TDLG.m                1152.00:  Tot Depth Loggd 
 TFF .                      No:  Trip for Fail 
 TQAA.f-kp                8.00:  Torque Abs Avg 
 TQAN.f-kp                5.00:  Torque Abs Min 
 TQAX.f-kp               14.00:  Torque Abs Max 
 TRRT.∞/30m               0.50:  Turn Rotating 
 MRT .                  EWR-M5:  Maximum Recorded Temperature 
 TTMX.degC               69.00:  Max Tool Temp 
 VS01.                90610313:  Virtual Str1 SN 
 VS02.                90613431:  Virtual Str2 SN 
 VS03.                90615410:  Virtual Str3 SN 
 WBMN.klb                 6.00:  WOB Min 
 WITN.            Bruce Cheyne:  Customer Rep 
 WITN.             Ayaz Aliyev:  Customer Rep 2 
 WOBA.klb                 6.00:  WOB Avg 
 WOBX.klb                10.00:  WOB Max 
 YP  .lhf2               36.00:  Yield Point 
~Curve Information Block
#MNEM.UNIT                 API CODE     Curve Description
#---------               -----------    ---------------------------
 TIME.HHMMSS            00 000 000 000:  GT Time & Date
 GTET.sec               00 000 000 000:  GT Elapsed Test Time
 GTPQH.psia             00 000 000 000:  GT HR Quartz Pressure
 GTDEPTH.m              00 000 000 000:  GT Depth
 GTTVD.m                00 000 000 000:  GT True Vertical Depth
 GTTQ.degC              00 000 000 000:  GT Quartz Temperature
 GTTN.NONE              00 000 000 000:  GT Test Number
#Other Information
#
#WARRANTY: Halliburton will use its best efforts to furnish customers with 
#accurate information and interpretations that are part of, and incident to, the services 
#provided.  However, Halliburton cannot and does not warrant the accuracy 
#or correctness of such information and interpretations.  Under no circumstances should any 
#such information or interpretation be relied upon as the sole basis for any drilling, 
#completion, production, or financial decision or any procedure involving any risk to the 
#safety of any drilling venture, drilling rig or its crew or any other third party.  The 
#Customer has full responsibility for all drilling, completion and production operation.  
#Halliburton makes no representations or warranties, either expressed or 
#implied, including, but not limited to, the implied warranties of merchantability or fitness 
#for a particular purpose, with respect to the services rendered.  In no event will 
#Halliburton be liable for failure to obtain any particular results or for 
#any damages, including, but not limited to, indirect, special or consequential damages, 
#resulting from the use of any information or interpretation provided by Halliburton.
#
~A           TIME            GTET   GTPQH  GTDEPTH GTTVD  GTTQ  GTTN 
# ...
   16:07:04.210.29-Jun-2020 417.76 1574.62  873.30 856.96 65.98 1.00
   16:07:04.410.29-Jun-2020 417.96 1574.77  873.30 856.96 65.98 1.00
   16:07:04.610.29-Jun-2020 418.16 1574.62  873.30 856.96 65.98 1.00
   16:07:04.810.29-Jun-2020 418.36 1574.62  873.30 856.96 65.98 1.00
   16:07:05.010.29-Jun-2020 418.56 1574.55  873.30 856.96 65.98 1.00
   16:07:05.210.29-Jun-2020 418.76 1574.75  873.30 856.96 65.98 1.00
   16:07:05.410.29-Jun-2020 418.96 1574.72  873.30 856.96 65.98 1.00
   16:07:05.610.29-Jun-2020 419.16 1574.63  873.30 856.96 65.98 1.00
   16:07:05.810.29-Jun-2020 419.36 1574.63  873.30 856.96 65.98 1.00
   16:07:06.010.29-Jun-2020 419.56 1574.63  873.30 856.96 65.98 1.00
   16:07:06.211.29-Jun-2020 419.76 1574.66  873.30 856.96 65.98 1.00
   16:07:06.411.29-Jun-2020 419.96 1574.63  873.30 856.96 65.98 1.00
   16:07:06.611.29-Jun-2020 420.16 1574.77  873.30 856.96 65.98 1.00
   16:07:06.811.29-Jun-2020 420.36 1574.65  873.30 856.96 65.98 1.00
   16:07:07.011.29-Jun-2020 420.56 1574.73  873.30 856.96 65.98 1.00
   16:07:07.211.29-Jun-2020 420.76 1574.77  873.30 856.96 65.98 1.00
   16:07:07.411.29-Jun-2020 420.96 1574.64  873.30 856.96 65.98 1.00
   16:07:07.611.29-Jun-2020 421.16 1574.70  873.30 856.96 65.98 1.00
   16:07:07.811.29-Jun-2020 421.36 1574.70  873.30 856.96 65.98 1.00
   16:07:08.011.29-Jun-2020 421.56 1574.68  873.30 856.96 65.98 1.00
   16:07:08.211.29-Jun-2020 421.76 1574.68  873.30 856.96 65.98 1.00
   16:07:08.411.29-Jun-2020 421.96 1574.75  873.30 856.96 65.98 1.00
   16:07:08.611.29-Jun-2020 422.16 1574.66  873.30 856.96 65.98 1.00
   16:07:08.812.29-Jun-2020 422.36 1574.66  873.30 856.96 65.98 1.00
   16:07:09.012.29-Jun-2020 422.56 1574.63  873.30 856.96 65.98 1.00
   16:07:09.212.29-Jun-2020 422.76 1574.61  873.30 856.96 65.98 1.00
   16:07:09.412.29-Jun-2020 422.96 1574.63  873.30 856.96 65.98 1.00
   16:07:09.612.29-Jun-2020 423.16 1574.64  873.30 856.96 65.98 1.00
   16:07:09.812.29-Jun-2020 423.36 1574.64  873.30 856.96 65.98 1.00
   16:07:10.012.29-Jun-2020 423.56 1574.50  873.30 856.96 65.98 1.00
   16:07:10.212.29-Jun-2020 423.76 1574.79  873.30 856.96 65.98 1.00
   16:07:10.412.29-Jun-2020 423.96 1574.58  873.30 856.96 65.98 1.00
   16:07:10.612.29-Jun-2020 424.16 1574.64  873.30 856.96 65.98 1.00
   16:07:10.812.29-Jun-2020 424.36 1574.64  873.30 856.96 65.98 1.00
   16:07:11.012.29-Jun-2020 424.56 1574.68  873.30 856.96 65.98 1.00
   16:07:11.212.29-Jun-2020 424.76 1574.66  873.30 856.96 65.98 1.00
   16:07:11.413.29-Jun-2020 424.96 1574.69  873.30 856.96 65.98 1.00
   16:07:11.613.29-Jun-2020 425.16 1574.66  873.30 856.96 65.98 1.00
   16:07:11.813.29-Jun-2020 425.36 1574.71  873.30 856.96 65.98 1.00
   16:07:12.013.29-Jun-2020 425.56 1574.78  873.30 856.96 65.98 1.00
   16:07:12.213.29-Jun-2020 425.76 1574.71  873.30 856.96 65.98 1.00
   16:07:12.413.29-Jun-2020 425.96 1574.71  873.30 856.96 65.98 1.00
   16:07:12.613.29-Jun-2020 426.16 1574.75  873.30 856.96 65.98 1.00
   16:07:12.813.29-Jun-2020 426.36 1574.75  873.30 856.96 65.98 1.00
   16:07:13.013.29-Jun-2020 426.56 1574.65  873.30 856.96 65.98 1.00
   16:07:13.213.29-Jun-2020 426.76 1574.72  873.30 856.96 65.98 1.00
   16:07:13.413.29-Jun-2020 426.96 1574.60  873.30 856.96 65.98 1.00
   16:07:13.613.29-Jun-2020 427.16 1574.66  873.30 856.96 65.98 1.00
   16:07:13.813.29-Jun-2020 427.36 1574.66  873.30 856.96 65.98 1.00
   16:07:14.014.29-Jun-2020 427.56 1574.60  873.30 856.96 65.98 1.00
   16:07:14.214.29-Jun-2020 427.76 1574.63  873.30 856.96 65.98 1.00
   16:07:14.414.29-Jun-2020 427.96 1574.59  873.30 856.96 65.98 1.00
   16:07:14.614.29-Jun-2020 428.16 1574.81  873.30 856.96 65.98 1.00
   16:07:14.814.29-Jun-2020 428.36 1574.81  873.30 856.96 65.98 1.00
   16:07:15.014.29-Jun-2020 428.56 1574.69  873.30 856.96 65.98 1.00
   16:07:15.214.29-Jun-2020 428.76 1574.62  873.30 856.96 65.98 1.00
   16:07:15.414.29-Jun-2020 428.96 1574.69  873.30 856.96 65.98 1.00
   16:07:15.614.29-Jun-2020 429.16 1574.64  873.30 856.96 65.98 1.00
   16:07:15.814.29-Jun-2020 429.36 1574.70  873.30 856.96 65.98 1.00
   16:07:16.014.29-Jun-2020 429.56 1574.69  873.30 856.96 65.98 1.00
   16:07:16.214.29-Jun-2020 429.76 1574.67  873.30 856.96 65.98 1.00
   16:07:16.414.29-Jun-2020 429.96 1574.80  873.30 856.96 65.98 1.00
   16:07:16.615.29-Jun-2020 430.16 1574.69  873.30 856.96 65.98 1.00
   16:07:16.815.29-Jun-2020 430.36 1574.69  873.30 856.96 65.98 1.00
   16:07:17.015.29-Jun-2020 430.56 1574.68  873.30 856.96 65.98 1.00
   16:07:17.215.29-Jun-2020 430.76 1574.70  873.30 856.96 65.98 1.00
   16:07:17.415.29-Jun-2020 430.96 1574.66  873.30 856.96 65.99 1.00
   16:07:17.615.29-Jun-2020 431.16 1574.74  873.30 856.96 65.99 1.00
   16:07:17.815.29-Jun-2020 431.36 1574.74  873.30 856.96 65.99 1.00
   16:07:18.015.29-Jun-2020 431.56 1574.69  873.30 856.96 65.99 1.00
   16:07:18.215.29-Jun-2020 431.76 1574.65  873.30 856.96 65.99 1.00
   16:07:18.415.29-Jun-2020 431.96 1574.65  873.30 856.96 65.99 1.00
   16:07:18.615.29-Jun-2020 432.16 1574.65  873.30 856.96 65.99 1.00
   16:07:18.815.29-Jun-2020 432.36 1574.65  873.30 856.96 65.99 1.00
   16:07:19.015.29-Jun-2020 432.56 1574.63  873.30 856.96 65.99 1.00
   16:07:19.215.29-Jun-2020 432.76 1574.63  873.30 856.96 65.99 1.00
   16:07:19.416.29-Jun-2020 432.96 1574.67  873.30 856.96 65.99 1.00
   16:07:19.616.29-Jun-2020 433.16 1574.62  873.30 856.96 65.99 1.00
   16:07:19.816.29-Jun-2020 433.36 1574.58  873.30 856.96 65.99 1.00
   16:07:20.016.29-Jun-2020 433.56 1574.65  873.30 856.96 65.99 1.00
   16:07:20.216.29-Jun-2020 433.76 1574.65  873.30 856.96 65.99 1.00
   16:07:20.416.29-Jun-2020 433.96 1574.67  873.30 856.96 65.99 1.00
   16:07:20.616.29-Jun-2020 434.16 1574.68  873.30 856.96 65.99 1.00
   16:07:20.816.29-Jun-2020 434.36 1574.68  873.30 856.96 65.99 1.00
   16:07:21.016.29-Jun-2020 434.56 1574.68  873.30 856.96 65.99 1.00
   16:07:21.216.29-Jun-2020 434.76 1574.74  873.30 856.96 65.99 1.00
   16:07:21.416.29-Jun-2020 434.96 1574.79  873.30 856.96 65.99 1.00
   16:07:21.616.29-Jun-2020 435.16 1574.63  873.30 856.96 65.99 1.00
   16:07:21.816.29-Jun-2020 435.36 1574.63  873.30 856.96 65.99 1.00
   16:07:22.017.29-Jun-2020 435.56 1574.85  873.30 856.96 65.99 1.00
   16:07:22.217.29-Jun-2020 435.77 1574.68  873.30 856.96 65.99 1.00
   16:07:22.417.29-Jun-2020 435.97 1574.73  873.30 856.96 65.99 1.00
   16:07:22.617.29-Jun-2020 436.17 1574.69  873.30 856.96 65.99 1.00
   16:07:22.817.29-Jun-2020 436.37 1574.69  873.30 856.96 65.99 1.00
   16:07:23.017.29-Jun-2020 436.57 1574.75  873.30 856.96 65.99 1.00
   16:07:23.217.29-Jun-2020 436.77 1574.64  873.30 856.96 65.99 1.00
   16:07:23.417.29-Jun-2020 436.97 1574.61  873.30 856.96 65.99 1.00
   16:07:23.617.29-Jun-2020 437.17 1574.56  873.30 856.96 65.99 1.00
   16:07:23.817.29-Jun-2020 437.37 1574.73  873.30 856.96 65.99 1.00
   16:07:24.017.29-Jun-2020 437.57 1574.72  873.30 856.96 65.99 1.00
   16:07:24.217.29-Jun-2020 437.77 1574.63  873.30 856.96 65.99 1.00
   16:07:24.417.29-Jun-2020 437.97 1574.67  873.30 856.96 65.99 1.00
   16:07:24.618.29-Jun-2020 438.17 1574.61  873.30 856.96 65.99 1.00
   16:07:24.818.29-Jun-2020 438.37 1574.61  873.30 856.96 65.99 1.00
   16:07:25.018.29-Jun-2020 438.57 1574.65  873.30 856.96 65.99 1.00
   16:07:25.218.29-Jun-2020 438.77 1574.76  873.30 856.96 65.99 1.00
   16:07:25.418.29-Jun-2020 438.97 1574.66  873.30 856.96 65.99 1.00
   16:07:25.618.29-Jun-2020 439.17 1574.74  873.30 856.96 65.99 1.00
   16:07:25.818.29-Jun-2020 439.37 1574.74  873.30 856.96 65.99 1.00
   16:07:26.018.29-Jun-2020 439.57 1574.65  873.30 856.96 65.99 1.00
   16:07:26.218.29-Jun-2020 439.77 1574.71  873.30 856.96 65.99 1.00
   16:07:26.418.29-Jun-2020 439.97 1574.68  873.30 856.96 65.99 1.00
   16:07:26.618.29-Jun-2020 440.17 1574.69  873.30 856.96 65.99 1.00
   16:07:26.818.29-Jun-2020 440.37 1574.69  873.30 856.96 65.99 1.00
   16:07:27.018.29-Jun-2020 440.57 1574.77  873.30 856.96 65.99 1.00
   16:07:27.219.29-Jun-2020 440.77 1574.65  873.30 856.96 65.99 1.00
