~Version Information
 VERS.                  2.0:   CWLS log ASCII Standard -VERSION 2.0
 WRAP.                   NO:   One line per depth step
~Well Information Block
#MNEM.UNIT     VALUE/NAME     DESCRIPTION
#---------     -----------    ---------------------------
 STRT.S             16:00:06 29-Jun-20: START TIME 16:00:06 29-Jun-20
 STOP.S             16:09:07 29-Jun-20: STOP TIME  16:09:07 29-Jun-20
 STEP.S                   0.00: STEP TIME
 NULL.                 -999.25: NULL VALUE
 DFWT.                        :  DIST FWL TEXT
 DFST.                        :  DIST FSL TEXT
 DMF .             Drill Floor:  DRILL MEAS FROM
 STIM.      09.59.28 01-Jun-20:  START TIME
 DATE.      09.59.28 01-Jun-20:  END TIME
 SPUD.               01-Jun-20:  SPUD DATE
 NREF.                    Grid:  NORTH REFERENCE
 HPTY.       Minimum Curvature:  HOLE POS TYPE
 DMOD.             Drill Model:  DRILL MOD DESC
 SVYD.                  Survey:  SURVEY DESC
 ILTD.               Lithology:  INTERP LTH DESC
 FTOP.          Formation Tops:  FORM TOPS DESC
 SON .        AZ-XX-0905455768:  JOB NUMBER
 WTYP.                Deviated:  WELL TYPE
 COMP.     BP Exploration(Caspian Sea):  COMPANY
 BASE.              Azerbaijan:  LOGGING EQUIPMENT BASE LOCATION
 REGN.                   EESSA:  REGION
 CTRY.              Azerbaijan:  COUNTRY NAME
 FLD .                     ACG:  FIELD NAME
 SRVC.          Turan Drilling:  CONTRACTOR
 WELL.                     B41:  WELL NAME
 RIG .           Central Azeri:  RIG NAME
 DCON.         Sperry Drilling:  DIRECTNL CONTR
 PDAT.          Mean Sea Level:  PERMANENT DATUM
 MDS .        Operator Entered:  MAG DATA SOURCE
 API .                        :  API NUMBER
 CNTY.                        :  COUNTY
 PROV.                        :  PROVINCE
 STAT.                        :  STATE
 UWI .                        :  UNIQUE WELL IDENTIFIER
 LOC .                        :  LOCATION
 LMF .             Drill Floor:  LOG MEASURED FROM
 TVDS.m                  43.29:  TVDSS CORRECTN
 LATI.deg                40.03:  LATITUDE
 LONG.deg                51.35:  LONGITUDE
 WHNS.m                  12.98:  WELL HEAD N/S
 WHEW.m                  -6.62:  WELL HEAD E/W
 UTMX.m              530128.28:  UTM X
 UTMY.m             4433192.49:  UTM Y
 DFWL.m                   0.00:  DISTANCE FWL
 DFSL.m                   0.00:  DISTANCE FSL
 SDEP.m                 378.00:  START DEPTH
 TDD .m                   0.00:  TOTAL DEPTH (DRILLER)
 VSDR.deg               296.18:  VERT SEC DIRECT
 GVFD.g                   1.00:  GRAVITY FIELD
 MFLD.nT              50253.00:  MAGNETIC FIELD
 MDIP.deg                59.49:  MAGNETIC DIP
 MDEC.deg                 6.44:  MAGNETIC DECL
 GRDC.deg                 0.22:  GRID CORRECTION
 AZTC.deg                 6.22:  AZM TOTAL CORR
 EPD .m                   0.00:  ELEVATION
 EGL .m                   0.00:  GROUND ELEVATION
 WDMS.m                 128.20:  WD ELEV
 APD .m                  43.29:  DEPTH ABOVE PD
 AGAP.m                  43.29:  AIR GAP
 VSEW.m                  -6.62:  VERT SEC E/W
 VSNS.m                  12.98:  VERT SEC N/S
 EKB .m                  43.29:  KB ELEVATION
 EDF .m                  43.29:  DF ELEVATION
 TDL .m                1152.00:  TOTAL DEPTH (LOGGER)
 VSC .                       0:  VS TO CLOSURE
 MAGU.                 1848525:  MAGUTM CHECKSUM
~Parameter Information Block
#MNEM.UNIT       Value        Description
#---------     -----------    ---------------------------
 AV  .mps                 0.40:  Ann Velocity 
 AVMX.mps                 1.56:  Max Ann Veloc 
 AZIF.deg               300.46:  Azm, Final 
 BHAT.        Rotary Steerable:  BHA Type 
 BROT.∞/30m               0.40:  Build Rotating 
 BS  .in                 17.50:  Bit Size 
 BSZ .in                 17.50:  Bit Size 
 BTPL.psig              300.00:  Bit Press Loss 
 CABU.                      No:  Customer Abuse 
 CGEO.          Parviz Guliyev:  Customer Geo 
 COMM.                     ,‘Å:  Run Comments 1 
 TCS .hr                108.13:  Time Ciculation Ended 
 CV  .mps                 0.50:  Crit Velocity 
 CVMX.mps                 2.01:  Max Crit Veloc 
 DD1 .          Fariz Nahmatov:  Direct Drillr 1 
 DD2 .             Ehab Radwan:  Direct Drillr 2 
 DDSV.               Geo-Pilot:  DD Service 
 DEFF.%                  99.00:  % Det Eff 
 DLRX.∞/30m               0.50:  Dogleg Rot Max 
 DLSO.∞/30m               2.80:  Dogleg Oriented 
 DLSX.∞/30m               3.90:  Dogleg Str Max 
 DRET.      09.30.04 03-Jul-20:  Drill End Time 
 DRST.      18.33.04 28-Jun-20:  Drill Start Tim 
 DTIM.hr                 55.83:  Time Drilling 
 EDEP.m                1952.00:  End Depth 
 ENG1.      Bakhtiyar Jabbarli:  Engineer 1 
 ENG2.         Farhad Orujzade:  Engineer 2 
 ENG3.          Rustam Safarov:  Engineer 3 
 ETIM.      01.33.04 04-Jul-20:  End Time 
 FLOI.gpm              1050.00:  Flow In 
 FLON.gpm               950.00:  Flow In Min 
 FLOS.cptm                0.10:  Fluid Loss 
 FLOX.gpm              1150.00:  Flow In Max 
 HFLO.                      No:  High Flow 
 HPRE.                      No:  High Pressure 
 HTEM.                      No:  High Temp 
 HYDO.m                   1.80:  Hydro Offset 
 IFIN.deg                75.26:  Inc, Final 
 IMAX.deg                75.38:  Inc Max 
 IMIN.deg                22.84:  Inc Min 
 IMND.m                 832.38:  Inc Min Depth 
 IMXD.m                1936.55:  Inc Max Depth 
 JARR.                      No:  Jarring 
 LETM.      17.40.00 04-Jul-20:  Log End Time 
 LOST.hr                     0:  Lost Rig Time 
 LSTM.      12.33.04 28-Jun-20:  Log Start Time 
 MDCL.ppm             49500.00:  Mud Chlorides 
 MDES.     Inversion Oil/Synthetic:  Mud Desc 
 DFD .sg                  1.46:  Mud Density 
 MDMN.sg                  1.46:  Dens Mud Min 
 MDMX.sg                  1.46:  Dens Mud Max 
 MOIL.                      70:  Run Mud Oil % 
 MOWR.                   70:30:  Run Mud OWR 
 MSND.                     0.5:  Run Mud Sand % 
 MSOL.                   19.89:  Run Mud Solids% 
 DFV .spqt               72.00:  Mud Viscosity 
 MWOD.in                  9.50:  MWD Tool OD 
 MWSI.                      No:  Serv Intrp, MWD 
 OTIM.hr                146.53:  Time Operating 
 PCON.           Look Like New:  Pad Condition 
 PMAX.psia             2900.00:  Press Op, Max 
 PV  .cP                 38.00:  Mud PV 
 RUN .                     600:  Run Number 
 ROPA.m/hr               22.00:  ROP Avg 
 ROPN.m/hr               10.00:  ROP Min 
 ROPX.m/hr              263.00:  ROP Max 
 RPMA.rpm               155.00:  RPM Surface Avg 
 RPMN.rpm               140.00:  RPM Surface Min 
 RPMX.rpm               160.00:  RPM Surface Max 
 RRUN.                    0600:  Rig Run Number 
 RTIM.hr                  5.00:  Time Reaming 
 SAZI.deg               300.08:  Azm, Start 
 SDEP.m                 800.00:  Start Depth 
 SIDD.                      No:  Serv Intrp, DD 
 SINC.deg                22.84:  Inc, Start 
 SPPA.psig             3000.00:  SPP Avg 
 SPPN.psig             1900.00:  SPP Min 
 SPPX.psig             3200.00:  SPP Max 
 STIM.      12.30.04 28-Jun-20:  Start Time 
 SVCS.                 DD, MWD:  Services 
 SVER.                    9.20:  Sperry Version 
 TDAT.m                1952.00:  Tot Depth Attmp 
 TDDF.                      No:  Trip for DD 
 TDLG.m                1152.00:  Tot Depth Loggd 
 TFF .                      No:  Trip for Fail 
 TQAA.f-kp                8.00:  Torque Abs Avg 
 TQAN.f-kp                5.00:  Torque Abs Min 
 TQAX.f-kp               14.00:  Torque Abs Max 
 TRRT.∞/30m               0.50:  Turn Rotating 
 MRT .                  EWR-M5:  Maximum Recorded Temperature 
 TTMX.degC               69.00:  Max Tool Temp 
 VS01.                90610313:  Virtual Str1 SN 
 VS02.                90613431:  Virtual Str2 SN 
 VS03.                90615410:  Virtual Str3 SN 
 WBMN.klb                 6.00:  WOB Min 
 WITN.            Bruce Cheyne:  Customer Rep 
 WITN.             Ayaz Aliyev:  Customer Rep 2 
 WOBA.klb                 6.00:  WOB Avg 
 WOBX.klb                10.00:  WOB Max 
 YP  .lhf2               36.00:  Yield Point 
~Curve Information Block
#MNEM.UNIT                 API CODE     Curve Description
#---------               -----------    ---------------------------
 TIME.HHMMSS            00 000 000 000:  GT Time & Date
 GTET.sec               00 000 000 000:  GT Elapsed Test Time
 GTPQH.psia             00 000 000 000:  GT HR Quartz Pressure
 GTDEPTH.m              00 000 000 000:  GT Depth
 GTTVD.m                00 000 000 000:  GT True Vertical Depth
 GTTQ.degC              00 000 000 000:  GT Quartz Temperature
 GTTN.NONE              00 000 000 000:  GT Test Number
#Other Information
#
#WARRANTY: Halliburton will use its best efforts to furnish customers with 
#accurate information and interpretations that are part of, and incident to, the services 
#provided.  However, Halliburton cannot and does not warrant the accuracy 
#or correctness of such information and interpretations.  Under no circumstances should any 
#such information or interpretation be relied upon as the sole basis for any drilling, 
#completion, production, or financial decision or any procedure involving any risk to the 
#safety of any drilling venture, drilling rig or its crew or any other third party.  The 
#Customer has full responsibility for all drilling, completion and production operation.  
#Halliburton makes no representations or warranties, either expressed or 
#implied, including, but not limited to, the implied warranties of merchantability or fitness 
#for a particular purpose, with respect to the services rendered.  In no event will 
#Halliburton be liable for failure to obtain any particular results or for 
#any damages, including, but not limited to, indirect, special or consequential damages, 
#resulting from the use of any information or interpretation provided by Halliburton.
#
~A           TIME            GTET   GTPQH  GTDEPTH GTTVD  GTTQ  GTTN 
# ...
   16:07:27.419.29-Jun-2020 440.97 1574.72  873.30 856.96 65.99 1.00
   16:07:27.619.29-Jun-2020 441.17 1574.63  873.30 856.96 65.99 1.00
   16:07:27.819.29-Jun-2020 441.37 1574.64  873.30 856.96 65.99 1.00
   16:07:28.019.29-Jun-2020 441.57 1574.61  873.30 856.96 65.99 1.00
   16:07:28.219.29-Jun-2020 441.77 1574.65  873.30 856.96 65.99 1.00
   16:07:28.419.29-Jun-2020 441.97 1574.59  873.30 856.96 65.99 1.00
   16:07:28.619.29-Jun-2020 442.17 1574.52  873.30 856.96 65.99 1.00
   16:07:28.819.29-Jun-2020 442.37 1574.52  873.30 856.96 65.99 1.00
   16:07:29.019.29-Jun-2020 442.57 1574.58  873.30 856.96 65.99 1.00
   16:07:29.219.29-Jun-2020 442.77 1574.65  873.30 856.96 65.99 1.00
   16:07:29.419.29-Jun-2020 442.97 1574.63  873.30 856.96 65.99 1.00
   16:07:29.619.29-Jun-2020 443.17 1574.66  873.30 856.96 65.99 1.00
   16:07:29.820.29-Jun-2020 443.37 1574.66  873.30 856.96 65.99 1.00
   16:07:30.020.29-Jun-2020 443.57 1574.70  873.30 856.96 65.99 1.00
   16:07:30.220.29-Jun-2020 443.77 1574.68  873.30 856.96 65.99 1.00
   16:07:30.420.29-Jun-2020 443.97 1574.68  873.30 856.96 65.99 1.00
   16:07:30.620.29-Jun-2020 444.17 1574.81  873.30 856.96 65.99 1.00
   16:07:30.820.29-Jun-2020 444.37 1574.81  873.30 856.96 65.99 1.00
   16:07:31.020.29-Jun-2020 444.57 1574.69  873.30 856.96 65.99 1.00
   16:07:31.220.29-Jun-2020 444.77 1574.74  873.30 856.96 65.99 1.00
   16:07:31.420.29-Jun-2020 444.97 1574.72  873.30 856.96 65.99 1.00
   16:07:31.620.29-Jun-2020 445.17 1574.67  873.30 856.96 65.99 1.00
   16:07:31.820.29-Jun-2020 445.37 1574.72  873.30 856.96 65.99 1.00
   16:07:32.020.29-Jun-2020 445.57 1574.61  873.30 856.96 65.99 1.00
   16:07:32.220.29-Jun-2020 445.77 1574.69  873.30 856.96 66.00 1.00
   16:07:32.420.29-Jun-2020 445.97 1574.73  873.30 856.96 66.00 1.00
   16:07:32.621.29-Jun-2020 446.17 1574.62  873.30 856.96 66.00 1.00
   16:07:32.821.29-Jun-2020 446.37 1574.62  873.30 856.96 66.00 1.00
   16:07:33.021.29-Jun-2020 446.57 1574.58  873.30 856.96 66.00 1.00
   16:07:33.221.29-Jun-2020 446.77 1574.79  873.30 856.96 66.00 1.00
   16:07:33.421.29-Jun-2020 446.97 1574.62  873.30 856.96 66.00 1.00
   16:07:33.621.29-Jun-2020 447.17 1574.69  873.30 856.96 66.00 1.00
   16:07:33.821.29-Jun-2020 447.37 1574.69  873.30 856.96 66.00 1.00
   16:07:34.021.29-Jun-2020 447.57 1574.70  873.30 856.96 66.00 1.00
   16:07:34.221.29-Jun-2020 447.77 1574.66  873.30 856.96 66.00 1.00
   16:07:34.421.29-Jun-2020 447.97 1574.73  873.30 856.96 66.00 1.00
   16:07:34.621.29-Jun-2020 448.17 1574.67  873.30 856.96 66.00 1.00
   16:07:34.821.29-Jun-2020 448.37 1574.67  873.30 856.96 66.00 1.00
   16:07:35.021.29-Jun-2020 448.57 1574.79  873.30 856.96 66.00 1.00
   16:07:35.222.29-Jun-2020 448.77 1574.71  873.30 856.96 66.00 1.00
   16:07:35.422.29-Jun-2020 448.97 1574.69  873.30 856.96 66.00 1.00
   16:07:35.622.29-Jun-2020 449.17 1574.69  873.30 856.96 66.00 1.00
   16:07:35.822.29-Jun-2020 449.37 1574.69  873.30 856.96 66.00 1.00
   16:07:36.022.29-Jun-2020 449.57 1574.64  873.30 856.96 66.00 1.00
   16:07:36.222.29-Jun-2020 449.77 1574.75  873.30 856.96 66.00 1.00
   16:07:36.422.29-Jun-2020 449.97 1574.72  873.30 856.96 66.00 1.00
   16:07:36.622.29-Jun-2020 450.17 1574.68  873.30 856.96 66.00 1.00
   16:07:36.822.29-Jun-2020 450.37 1574.68  873.30 856.96 66.00 1.00
   16:07:37.022.29-Jun-2020 450.57 1574.62  873.30 856.96 66.00 1.00
   16:07:37.222.29-Jun-2020 450.77 1574.65  873.30 856.96 66.00 1.00
   16:07:37.422.29-Jun-2020 450.97 1574.64  873.30 856.96 66.00 1.00
   16:07:37.622.29-Jun-2020 451.17 1574.63  873.30 856.96 66.00 1.00
   16:07:37.823.29-Jun-2020 451.37 1574.63  873.30 856.96 66.00 1.00
   16:07:38.023.29-Jun-2020 451.57 1574.67  873.30 856.96 66.00 1.00
   16:07:38.223.29-Jun-2020 451.77 1574.62  873.30 856.96 66.00 1.00
   16:07:38.423.29-Jun-2020 451.97 1574.57  873.30 856.96 66.00 1.00
   16:07:38.623.29-Jun-2020 452.17 1574.65  873.30 856.96 66.00 1.00
   16:07:38.823.29-Jun-2020 452.37 1574.65  873.30 856.96 66.00 1.00
   16:07:39.023.29-Jun-2020 452.57 1574.66  873.30 856.96 66.00 1.00
   16:07:39.223.29-Jun-2020 452.77 1574.68  873.30 856.96 66.00 1.00
   16:07:39.423.29-Jun-2020 452.97 1574.71  873.30 856.96 66.00 1.00
   16:07:39.623.29-Jun-2020 453.17 1574.67  873.30 856.96 66.00 1.00
   16:07:39.823.29-Jun-2020 453.37 1574.77  873.30 856.96 66.00 1.00
   16:07:40.023.29-Jun-2020 453.57 1574.75  873.30 856.96 66.00 1.00
   16:07:40.223.29-Jun-2020 453.77 1574.64  873.30 856.96 66.00 1.00
   16:07:40.424.29-Jun-2020 453.97 1574.62  873.30 856.96 66.00 1.00
   16:07:40.624.29-Jun-2020 454.17 1574.84  873.30 856.96 66.00 1.00
   16:07:40.824.29-Jun-2020 454.37 1574.84  873.30 856.96 66.00 1.00
   16:07:41.024.29-Jun-2020 454.57 1574.72  873.30 856.96 66.00 1.00
   16:07:41.224.29-Jun-2020 454.77 1574.68  873.30 856.96 66.00 1.00
   16:07:41.424.29-Jun-2020 454.97 1574.62  873.30 856.96 66.00 1.00
   16:07:41.624.29-Jun-2020 455.17 1574.77  873.30 856.96 66.00 1.00
   16:07:41.824.29-Jun-2020 455.37 1574.77  873.30 856.96 66.00 1.00
   16:07:42.024.29-Jun-2020 455.57 1574.61  873.30 856.96 66.00 1.00
   16:07:42.224.29-Jun-2020 455.77 1574.55  873.30 856.96 66.00 1.00
   16:07:42.424.29-Jun-2020 455.97 1574.75  873.30 856.96 66.00 1.00
   16:07:42.624.29-Jun-2020 456.17 1574.72  873.30 856.96 66.00 1.00
   16:07:42.824.29-Jun-2020 456.37 1574.72  873.30 856.96 66.00 1.00
   16:07:43.025.29-Jun-2020 456.57 1574.67  873.30 856.96 66.00 1.00
   16:07:43.225.29-Jun-2020 456.77 1574.60  873.30 856.96 66.00 1.00
   16:07:43.425.29-Jun-2020 456.97 1574.65  873.30 856.96 66.00 1.00
   16:07:43.625.29-Jun-2020 457.17 1574.68  873.30 856.96 66.00 1.00
   16:07:43.825.29-Jun-2020 457.37 1574.68  873.30 856.96 66.00 1.00
   16:07:44.025.29-Jun-2020 457.57 1574.67  873.30 856.96 66.00 1.00
   16:07:44.225.29-Jun-2020 457.77 1574.74  873.30 856.96 66.00 1.00
   16:07:44.425.29-Jun-2020 457.97 1574.76  873.30 856.96 66.00 1.00
   16:07:44.625.29-Jun-2020 458.17 1574.65  873.30 856.96 66.00 1.00
   16:07:44.825.29-Jun-2020 458.37 1574.65  873.30 856.96 66.00 1.00
   16:07:45.025.29-Jun-2020 458.57 1574.69  873.30 856.96 66.00 1.00
   16:07:45.225.29-Jun-2020 458.77 1574.68  873.30 856.96 66.00 1.00
   16:07:45.425.29-Jun-2020 458.97 1574.70  873.30 856.96 66.00 1.00
   16:07:45.625.29-Jun-2020 459.17 1574.77  873.30 856.96 66.00 1.00
   16:07:45.826.29-Jun-2020 459.37 1574.77  873.30 856.96 66.00 1.00
   16:07:46.026.29-Jun-2020 459.57 1574.69  873.30 856.96 66.00 1.00
   16:07:46.226.29-Jun-2020 459.77 1574.66  873.30 856.96 66.00 1.00
   16:07:46.426.29-Jun-2020 459.97 1574.65  873.30 856.96 66.00 1.00
   16:07:46.626.29-Jun-2020 460.17 1574.64  873.30 856.96 66.00 1.00
   16:07:46.826.29-Jun-2020 460.37 1574.64  873.30 856.96 66.00 1.00
   16:07:47.026.29-Jun-2020 460.57 1574.59  873.30 856.96 66.00 1.00
   16:07:47.226.29-Jun-2020 460.77 1574.52  873.30 856.96 66.00 1.00
   16:07:47.426.29-Jun-2020 460.97 1574.80  873.30 856.96 66.01 1.00
   16:07:47.626.29-Jun-2020 461.17 1574.58  873.30 856.96 66.01 1.00
   16:07:47.826.29-Jun-2020 461.37 1574.66  873.30 856.96 66.01 1.00
   16:07:48.026.29-Jun-2020 461.57 1574.64  873.30 856.96 66.01 1.00
   16:07:48.226.29-Jun-2020 461.77 1574.69  873.30 856.96 66.01 1.00
   16:07:48.427.29-Jun-2020 461.97 1574.70  873.30 856.96 66.01 1.00
   16:07:48.627.29-Jun-2020 462.18 1574.69  873.30 856.96 66.01 1.00
   16:07:48.827.29-Jun-2020 462.38 1574.69  873.30 856.96 66.01 1.00
   16:07:49.027.29-Jun-2020 462.58 1574.69  873.30 856.96 66.01 1.00
   16:07:49.227.29-Jun-2020 462.78 1574.81  873.30 856.96 66.01 1.00
   16:07:49.427.29-Jun-2020 462.98 1574.71  873.30 856.96 66.01 1.00
   16:07:49.627.29-Jun-2020 463.18 1574.70  873.30 856.96 66.01 1.00
   16:07:49.827.29-Jun-2020 463.38 1574.70  873.30 856.96 66.01 1.00
   16:07:50.027.29-Jun-2020 463.58 1574.70  873.30 856.96 66.01 1.00
   16:07:50.227.29-Jun-2020 463.78 1574.66  873.30 856.96 66.01 1.00
   16:07:50.427.29-Jun-2020 463.98 1574.71  873.30 856.96 66.01 1.00
