~Version Information
 VERS.                  2.0:   CWLS log ASCII Standard -VERSION 2.0
 WRAP.                   NO:   One line per depth step
~Well Information Block
#MNEM.UNIT     VALUE/NAME     DESCRIPTION
#---------     -----------    ---------------------------
 STRT.S             16:15:55 30-Jun-20: START TIME 16:15:55 30-Jun-20
 STOP.S             16:24:50 30-Jun-20: STOP TIME  16:24:50 30-Jun-20
 STEP.S                   0.00: STEP TIME
 NULL.                 -999.25: NULL VALUE
 DFWT.                        :  DIST FWL TEXT
 DFST.                        :  DIST FSL TEXT
 DMF .             Drill Floor:  DRILL MEAS FROM
 STIM.      09.59.28 01-Jun-20:  START TIME
 DATE.      09.59.28 01-Jun-20:  END TIME
 SPUD.               01-Jun-20:  SPUD DATE
 NREF.                    Grid:  NORTH REFERENCE
 HPTY.       Minimum Curvature:  HOLE POS TYPE
 DMOD.             Drill Model:  DRILL MOD DESC
 SVYD.                  Survey:  SURVEY DESC
 ILTD.               Lithology:  INTERP LTH DESC
 FTOP.          Formation Tops:  FORM TOPS DESC
 SON .        AZ-XX-0905455768:  JOB NUMBER
 WTYP.                Deviated:  WELL TYPE
 COMP.     BP Exploration(Caspian Sea):  COMPANY
 BASE.              Azerbaijan:  LOGGING EQUIPMENT BASE LOCATION
 REGN.                   EESSA:  REGION
 CTRY.              Azerbaijan:  COUNTRY NAME
 FLD .                     ACG:  FIELD NAME
 SRVC.          Turan Drilling:  CONTRACTOR
 WELL.                     B41:  WELL NAME
 RIG .           Central Azeri:  RIG NAME
 DCON.         Sperry Drilling:  DIRECTNL CONTR
 PDAT.          Mean Sea Level:  PERMANENT DATUM
 MDS .        Operator Entered:  MAG DATA SOURCE
 API .                        :  API NUMBER
 CNTY.                        :  COUNTY
 PROV.                        :  PROVINCE
 STAT.                        :  STATE
 UWI .                        :  UNIQUE WELL IDENTIFIER
 LOC .                        :  LOCATION
 LMF .             Drill Floor:  LOG MEASURED FROM
 TVDS.m                  43.29:  TVDSS CORRECTN
 LATI.deg                40.03:  LATITUDE
 LONG.deg                51.35:  LONGITUDE
 WHNS.m                  12.98:  WELL HEAD N/S
 WHEW.m                  -6.62:  WELL HEAD E/W
 UTMX.m              530128.28:  UTM X
 UTMY.m             4433192.49:  UTM Y
 DFWL.m                   0.00:  DISTANCE FWL
 DFSL.m                   0.00:  DISTANCE FSL
 SDEP.m                 378.00:  START DEPTH
 TDD .m                   0.00:  TOTAL DEPTH (DRILLER)
 VSDR.deg               296.18:  VERT SEC DIRECT
 GVFD.g                   1.00:  GRAVITY FIELD
 MFLD.nT              50253.00:  MAGNETIC FIELD
 MDIP.deg                59.49:  MAGNETIC DIP
 MDEC.deg                 6.44:  MAGNETIC DECL
 GRDC.deg                 0.22:  GRID CORRECTION
 AZTC.deg                 6.22:  AZM TOTAL CORR
 EPD .m                   0.00:  ELEVATION
 EGL .m                   0.00:  GROUND ELEVATION
 WDMS.m                 128.20:  WD ELEV
 APD .m                  43.29:  DEPTH ABOVE PD
 AGAP.m                  43.29:  AIR GAP
 VSEW.m                  -6.62:  VERT SEC E/W
 VSNS.m                  12.98:  VERT SEC N/S
 EKB .m                  43.29:  KB ELEVATION
 EDF .m                  43.29:  DF ELEVATION
 TDL .m                1152.00:  TOTAL DEPTH (LOGGER)
 VSC .                       0:  VS TO CLOSURE
 MAGU.                 1848525:  MAGUTM CHECKSUM
~Parameter Information Block
#MNEM.UNIT       Value        Description
#---------     -----------    ---------------------------
 AV  .mps                 0.40:  Ann Velocity 
 AVMX.mps                 1.56:  Max Ann Veloc 
 AZIF.deg               300.46:  Azm, Final 
 BHAT.        Rotary Steerable:  BHA Type 
 BROT.°/30m               0.40:  Build Rotating 
 BS  .in                 17.50:  Bit Size 
 BSZ .in                 17.50:  Bit Size 
 BTPL.psig              300.00:  Bit Press Loss 
 CABU.                      No:  Customer Abuse 
 CGEO.          Parviz Guliyev:  Customer Geo 
 COMM.                     D„w:  Run Comments 1 
 TCS .hr                108.13:  Time Ciculation Ended 
 CV  .mps                 0.50:  Crit Velocity 
 CVMX.mps                 2.01:  Max Crit Veloc 
 DD1 .          Fariz Nahmatov:  Direct Drillr 1 
 DD2 .             Ehab Radwan:  Direct Drillr 2 
 DDSV.               Geo-Pilot:  DD Service 
 DEFF.%                  99.00:  % Det Eff 
 DLRX.°/30m               0.50:  Dogleg Rot Max 
 DLSO.°/30m               2.80:  Dogleg Oriented 
 DLSX.°/30m               3.90:  Dogleg Str Max 
 DRET.      09.30.04 03-Jul-20:  Drill End Time 
 DRST.      18.33.04 28-Jun-20:  Drill Start Tim 
 DTIM.hr                 55.83:  Time Drilling 
 EDEP.m                1952.00:  End Depth 
 ENG1.      Bakhtiyar Jabbarli:  Engineer 1 
 ENG2.         Farhad Orujzade:  Engineer 2 
 ENG3.          Rustam Safarov:  Engineer 3 
 ETIM.      01.33.04 04-Jul-20:  End Time 
 FLOI.gpm              1050.00:  Flow In 
 FLON.gpm               950.00:  Flow In Min 
 FLOS.cptm                0.10:  Fluid Loss 
 FLOX.gpm              1150.00:  Flow In Max 
 HFLO.                      No:  High Flow 
 HPRE.                      No:  High Pressure 
 HTEM.                      No:  High Temp 
 HYDO.m                   1.80:  Hydro Offset 
 IFIN.deg                75.26:  Inc, Final 
 IMAX.deg                75.38:  Inc Max 
 IMIN.deg                22.84:  Inc Min 
 IMND.m                 832.38:  Inc Min Depth 
 IMXD.m                1936.55:  Inc Max Depth 
 JARR.                      No:  Jarring 
 LETM.      17.40.00 04-Jul-20:  Log End Time 
 LOST.hr                     0:  Lost Rig Time 
 LSTM.      12.33.04 28-Jun-20:  Log Start Time 
 MDCL.ppm             49500.00:  Mud Chlorides 
 MDES.     Inversion Oil/Synthetic:  Mud Desc 
 DFD .sg                  1.46:  Mud Density 
 MDMN.sg                  1.46:  Dens Mud Min 
 MDMX.sg                  1.46:  Dens Mud Max 
 MOIL.                      70:  Run Mud Oil % 
 MOWR.                   70:30:  Run Mud OWR 
 MSND.                     0.5:  Run Mud Sand % 
 MSOL.                   19.89:  Run Mud Solids% 
 DFV .spqt               72.00:  Mud Viscosity 
 MWOD.in                  9.50:  MWD Tool OD 
 MWSI.                      No:  Serv Intrp, MWD 
 OTIM.hr                146.53:  Time Operating 
 PCON.           Look Like New:  Pad Condition 
 PMAX.psia             2900.00:  Press Op, Max 
 PV  .cP                 38.00:  Mud PV 
 RUN .                     600:  Run Number 
 ROPA.m/hr               22.00:  ROP Avg 
 ROPN.m/hr               10.00:  ROP Min 
 ROPX.m/hr              263.00:  ROP Max 
 RPMA.rpm               155.00:  RPM Surface Avg 
 RPMN.rpm               140.00:  RPM Surface Min 
 RPMX.rpm               160.00:  RPM Surface Max 
 RRUN.                    0600:  Rig Run Number 
 RTIM.hr                  5.00:  Time Reaming 
 SAZI.deg               300.08:  Azm, Start 
 SDEP.m                 800.00:  Start Depth 
 SIDD.                      No:  Serv Intrp, DD 
 SINC.deg                22.84:  Inc, Start 
 SPPA.psig             3000.00:  SPP Avg 
 SPPN.psig             1900.00:  SPP Min 
 SPPX.psig             3200.00:  SPP Max 
 STIM.      12.30.04 28-Jun-20:  Start Time 
 SVCS.                 DD, MWD:  Services 
 SVER.                    9.20:  Sperry Version 
 TDAT.m                1952.00:  Tot Depth Attmp 
 TDDF.                      No:  Trip for DD 
 TDLG.m                1152.00:  Tot Depth Loggd 
 TFF .                      No:  Trip for Fail 
 TQAA.f-kp                8.00:  Torque Abs Avg 
 TQAN.f-kp                5.00:  Torque Abs Min 
 TQAX.f-kp               14.00:  Torque Abs Max 
 TRRT.°/30m               0.50:  Turn Rotating 
 MRT .                  EWR-M5:  Maximum Recorded Temperature 
 TTMX.degC               69.00:  Max Tool Temp 
 VS01.                90610313:  Virtual Str1 SN 
 VS02.                90613431:  Virtual Str2 SN 
 VS03.                90615410:  Virtual Str3 SN 
 WBMN.klb                 6.00:  WOB Min 
 WITN.            Bruce Cheyne:  Customer Rep 
 WITN.             Ayaz Aliyev:  Customer Rep 2 
 WOBA.klb                 6.00:  WOB Avg 
 WOBX.klb                10.00:  WOB Max 
 YP  .lhf2               36.00:  Yield Point 
~Curve Information Block
#MNEM.UNIT                 API CODE     Curve Description
#---------               -----------    ---------------------------
 TIME.HHMMSS            00 000 000 000:  GT Time & Date
 GTET.sec               00 000 000 000:  GT Elapsed Test Time
 GTPQH.psia             00 000 000 000:  GT HR Quartz Pressure
 GTDEPTH.m              00 000 000 000:  GT Depth
 GTTVD.m                00 000 000 000:  GT True Vertical Depth
 GTTQ.degC              00 000 000 000:  GT Quartz Temperature
 GTTN.NONE              00 000 000 000:  GT Test Number
#Other Information
#
#WARRANTY: Halliburton will use its best efforts to furnish customers with 
#accurate information and interpretations that are part of, and incident to, the services 
#provided.  However, Halliburton cannot and does not warrant the accuracy 
#or correctness of such information and interpretations.  Under no circumstances should any 
#such information or interpretation be relied upon as the sole basis for any drilling, 
#completion, production, or financial decision or any procedure involving any risk to the 
#safety of any drilling venture, drilling rig or its crew or any other third party.  The 
#Customer has full responsibility for all drilling, completion and production operation.  
#Halliburton makes no representations or warranties, either expressed or 
#implied, including, but not limited to, the implied warranties of merchantability or fitness 
#for a particular purpose, with respect to the services rendered.  In no event will 
#Halliburton be liable for failure to obtain any particular results or for 
#any damages, including, but not limited to, indirect, special or consequential damages, 
#resulting from the use of any information or interpretation provided by Halliburton.
#
~A           TIME            GTET   GTPQH  GTDEPTH  GTTVD  GTTQ  GTTN 
# ...
   16:23:12.000.30-Jun-2020 437.00   34.21 1103.02 1054.26 68.98 2.00
   16:23:12.200.30-Jun-2020 437.20   34.23 1103.02 1054.26 68.98 2.00
   16:23:12.400.30-Jun-2020 437.40   34.23 1103.02 1054.26 68.98 2.00
   16:23:12.600.30-Jun-2020 437.60   34.23 1103.02 1054.26 68.98 2.00
   16:23:12.800.30-Jun-2020 437.80   34.25 1103.02 1054.26 68.98 2.00
   16:23:13.000.30-Jun-2020 438.00   34.25 1103.02 1054.26 68.98 2.00
   16:23:13.200.30-Jun-2020 438.20   34.27 1103.02 1054.26 68.98 2.00
   16:23:13.400.30-Jun-2020 438.40   34.28 1103.02 1054.26 68.98 2.00
   16:23:13.600.30-Jun-2020 438.60   34.28 1103.02 1054.26 68.98 2.00
   16:23:13.800.30-Jun-2020 438.80   34.30 1103.02 1054.26 68.98 2.00
   16:23:14.000.30-Jun-2020 439.00   34.30 1103.02 1054.26 68.98 2.00
   16:23:14.200.30-Jun-2020 439.20   34.30 1103.02 1054.26 68.98 2.00
   16:23:14.400.30-Jun-2020 439.40   34.31 1103.02 1054.26 68.98 2.00
   16:23:14.600.30-Jun-2020 439.60   34.32 1103.02 1054.26 68.98 2.00
   16:23:14.800.30-Jun-2020 439.80   34.34 1103.02 1054.26 68.98 2.00
   16:23:15.000.30-Jun-2020 440.00   34.35 1103.02 1054.26 68.98 2.00
   16:23:15.200.30-Jun-2020 440.20   34.35 1103.02 1054.26 68.98 2.00
   16:23:15.400.30-Jun-2020 440.40   34.36 1103.02 1054.26 68.98 2.00
   16:23:15.600.30-Jun-2020 440.60   34.38 1103.02 1054.26 68.98 2.00
   16:23:15.800.30-Jun-2020 440.80   34.38 1103.02 1054.26 68.98 2.00
   16:23:16.000.30-Jun-2020 441.00   34.39 1103.02 1054.26 68.98 2.00
   16:23:16.200.30-Jun-2020 441.20   34.40 1103.02 1054.26 68.98 2.00
   16:23:16.400.30-Jun-2020 441.40   34.40 1103.02 1054.26 68.98 2.00
   16:23:16.600.30-Jun-2020 441.60   34.42 1103.02 1054.26 68.98 2.00
   16:23:16.800.30-Jun-2020 441.80   34.41 1103.02 1054.26 68.99 2.00
   16:23:17.000.30-Jun-2020 442.00   34.44 1103.02 1054.26 68.99 2.00
   16:23:17.200.30-Jun-2020 442.20   34.44 1103.02 1054.26 68.99 2.00
   16:23:17.400.30-Jun-2020 442.40   34.46 1103.02 1054.26 68.99 2.00
   16:23:17.600.30-Jun-2020 442.60   34.46 1103.02 1054.26 68.99 2.00
   16:23:17.800.30-Jun-2020 442.80   34.46 1103.02 1054.26 68.99 2.00
   16:23:18.000.30-Jun-2020 443.00   34.48 1103.02 1054.26 68.99 2.00
   16:23:18.200.30-Jun-2020 443.20   34.48 1103.02 1054.26 68.99 2.00
   16:23:18.400.30-Jun-2020 443.40   34.50 1103.02 1054.26 68.99 2.00
   16:23:18.600.30-Jun-2020 443.60   34.50 1103.02 1054.26 68.99 2.00
   16:23:18.800.30-Jun-2020 443.80   34.51 1103.02 1054.26 68.99 2.00
   16:23:19.000.30-Jun-2020 444.00   34.53 1103.02 1054.26 68.99 2.00
   16:23:19.200.30-Jun-2020 444.20   34.53 1103.02 1054.26 68.99 2.00
   16:23:19.400.30-Jun-2020 444.40   34.55 1103.02 1054.26 68.99 2.00
   16:23:19.600.30-Jun-2020 444.60   34.56 1103.02 1054.26 68.99 2.00
   16:23:19.800.30-Jun-2020 444.80   34.58 1103.02 1054.26 68.99 2.00
   16:23:20.000.30-Jun-2020 445.00   34.57 1103.02 1054.26 68.99 2.00
   16:23:20.200.30-Jun-2020 445.20   34.60 1103.02 1054.26 68.99 2.00
   16:23:20.400.30-Jun-2020 445.40   34.60 1103.02 1054.26 68.99 2.00
   16:23:20.600.30-Jun-2020 445.60   34.61 1103.02 1054.26 68.99 2.00
   16:23:20.800.30-Jun-2020 445.80   34.61 1103.02 1054.26 68.99 2.00
   16:23:21.000.30-Jun-2020 446.00   34.62 1103.02 1054.26 68.99 2.00
   16:23:21.200.30-Jun-2020 446.20   34.63 1103.02 1054.26 68.99 2.00
   16:23:21.400.30-Jun-2020 446.40   34.64 1103.02 1054.26 68.99 2.00
   16:23:21.600.30-Jun-2020 446.60   34.65 1103.02 1054.26 68.99 2.00
   16:23:21.800.30-Jun-2020 446.80   34.65 1103.02 1054.26 68.99 2.00
   16:23:22.000.30-Jun-2020 447.00   34.66 1103.02 1054.26 68.99 2.00
   16:23:22.200.30-Jun-2020 447.20   34.66 1103.02 1054.26 68.99 2.00
   16:23:22.400.30-Jun-2020 447.40   34.67 1103.02 1054.26 68.99 2.00
   16:23:22.600.30-Jun-2020 447.60   34.69 1103.02 1054.26 68.99 2.00
   16:23:22.800.30-Jun-2020 447.80   34.69 1103.02 1054.26 68.99 2.00
   16:23:23.000.30-Jun-2020 448.00   34.70 1103.02 1054.26 68.99 2.00
   16:23:23.200.30-Jun-2020 448.20   34.70 1103.02 1054.26 68.99 2.00
   16:23:23.400.30-Jun-2020 448.40   34.72 1103.02 1054.26 68.99 2.00
   16:23:23.600.30-Jun-2020 448.60   34.72 1103.02 1054.26 68.99 2.00
   16:23:23.800.30-Jun-2020 448.80   34.74 1103.02 1054.26 68.99 2.00
   16:23:24.000.30-Jun-2020 449.00   34.76 1103.02 1054.26 68.99 2.00
   16:23:24.200.30-Jun-2020 449.20   34.76 1103.02 1054.26 68.99 2.00
   16:23:24.400.30-Jun-2020 449.40   34.77 1103.02 1054.26 68.99 2.00
   16:23:24.600.30-Jun-2020 449.60   34.78 1103.02 1054.26 68.99 2.00
   16:23:24.800.30-Jun-2020 449.80   34.79 1103.02 1054.26 68.99 2.00
   16:23:25.000.30-Jun-2020 450.00   34.80 1103.02 1054.26 68.99 2.00
   16:23:25.200.30-Jun-2020 450.20   34.81 1103.02 1054.26 68.99 2.00
   16:23:25.400.30-Jun-2020 450.40   34.82 1103.02 1054.26 68.99 2.00
   16:23:25.600.30-Jun-2020 450.60   34.83 1103.02 1054.26 68.99 2.00
   16:23:25.800.30-Jun-2020 450.80   34.84 1103.02 1054.26 68.99 2.00
   16:23:26.000.30-Jun-2020 451.00   34.82 1103.02 1054.26 68.99 2.00
   16:23:26.200.30-Jun-2020 451.20   34.82 1103.02 1054.26 68.99 2.00
   16:23:26.400.30-Jun-2020 451.40   34.87 1103.02 1054.26 68.99 2.00
   16:23:26.600.30-Jun-2020 451.60   34.88 1103.02 1054.26 68.99 2.00
   16:23:26.800.30-Jun-2020 451.80   34.88 1103.02 1054.26 68.99 2.00
   16:23:27.000.30-Jun-2020 452.00   34.89 1103.02 1054.26 68.99 2.00
   16:23:27.200.30-Jun-2020 452.20   34.89 1103.02 1054.26 68.99 2.00
   16:23:27.400.30-Jun-2020 452.40   34.91 1103.02 1054.26 69.00 2.00
   16:23:27.600.30-Jun-2020 452.60   34.92 1103.02 1054.26 69.00 2.00
   16:23:27.800.30-Jun-2020 452.80   34.92 1103.02 1054.26 69.00 2.00
   16:23:28.000.30-Jun-2020 453.00   34.93 1103.02 1054.26 69.00 2.00
   16:23:28.200.30-Jun-2020 453.20   34.95 1103.02 1054.26 69.00 2.00
   16:23:28.400.30-Jun-2020 453.40   34.95 1103.02 1054.26 69.00 2.00
   16:23:28.600.30-Jun-2020 453.60   34.95 1103.02 1054.26 69.00 2.00
   16:23:28.800.30-Jun-2020 453.80   34.97 1103.02 1054.26 69.00 2.00
   16:23:29.000.30-Jun-2020 454.00   34.98 1103.02 1054.26 69.00 2.00
   16:23:29.200.30-Jun-2020 454.20   34.98 1103.02 1054.26 69.00 2.00
   16:23:29.400.30-Jun-2020 454.40   34.99 1103.02 1054.26 69.00 2.00
   16:23:29.600.30-Jun-2020 454.60   35.01 1103.02 1054.26 69.00 2.00
   16:23:29.800.30-Jun-2020 454.80   35.02 1103.02 1054.26 69.00 2.00
   16:23:30.000.30-Jun-2020 455.00   35.02 1103.02 1054.26 69.00 2.00
   16:23:30.200.30-Jun-2020 455.20   35.02 1103.02 1054.26 69.00 2.00
   16:23:30.400.30-Jun-2020 455.40   35.04 1103.02 1054.26 69.00 2.00
   16:23:30.600.30-Jun-2020 455.60   35.05 1103.02 1054.26 69.00 2.00
   16:23:30.800.30-Jun-2020 455.80   35.06 1103.02 1054.26 69.00 2.00
   16:23:31.000.30-Jun-2020 456.00   35.07 1103.02 1054.26 69.00 2.00
   16:23:31.200.30-Jun-2020 456.20   35.08 1103.02 1054.26 69.00 2.00
   16:23:31.400.30-Jun-2020 456.40   35.09 1103.02 1054.26 69.00 2.00
   16:23:31.600.30-Jun-2020 456.60   35.09 1103.02 1054.26 69.00 2.00
   16:23:31.800.30-Jun-2020 456.80   35.11 1103.02 1054.26 69.00 2.00
   16:23:32.000.30-Jun-2020 457.00   35.11 1103.02 1054.26 69.00 2.00
   16:23:32.200.30-Jun-2020 457.20   35.12 1103.02 1054.26 69.00 2.00
   16:23:32.400.30-Jun-2020 457.40   35.13 1103.02 1054.26 69.00 2.00
   16:23:32.600.30-Jun-2020 457.60   35.14 1103.02 1054.26 69.00 2.00
   16:23:32.800.30-Jun-2020 457.80   35.14 1103.02 1054.26 69.00 2.00
   16:23:33.000.30-Jun-2020 458.00   35.16 1103.02 1054.26 69.00 2.00
   16:23:33.200.30-Jun-2020 458.20   35.17 1103.02 1054.26 69.00 2.00
   16:23:33.400.30-Jun-2020 458.40   35.18 1103.02 1054.26 69.00 2.00
   16:23:33.600.30-Jun-2020 458.60   35.19 1103.02 1054.26 69.00 2.00
   16:23:33.800.30-Jun-2020 458.80   35.20 1103.02 1054.26 69.00 2.00
   16:23:34.000.30-Jun-2020 459.00   35.20 1103.02 1054.26 69.00 2.00
   16:23:34.200.30-Jun-2020 459.20   35.20 1103.02 1054.26 69.00 2.00
   16:23:34.400.30-Jun-2020 459.40   35.22 1103.02 1054.26 69.00 2.00
   16:23:34.600.30-Jun-2020 459.60   35.22 1103.02 1054.26 69.00 2.00
   16:23:34.800.30-Jun-2020 459.80   35.23 1103.02 1054.26 69.00 2.00
