~Version Information
 VERS.                  2.0:   CWLS log ASCII Standard -VERSION 2.0
 WRAP.                   NO:   One line per depth step
~Well Information Block
#MNEM.UNIT     VALUE/NAME     DESCRIPTION
#---------     -----------    ---------------------------
 STRT.S             23:30:34 30-Jun-20: START TIME 23:30:34 30-Jun-20
 STOP.S             23:39:34 30-Jun-20: STOP TIME  23:39:34 30-Jun-20
 STEP.S                   0.00: STEP TIME
 NULL.                 -999.25: NULL VALUE
 DFWT.                        :  DIST FWL TEXT
 DFST.                        :  DIST FSL TEXT
 DMF .             Drill Floor:  DRILL MEAS FROM
 STIM.      09.59.28 01-Jun-20:  START TIME
 DATE.      09.59.28 01-Jun-20:  END TIME
 SPUD.               01-Jun-20:  SPUD DATE
 NREF.                    Grid:  NORTH REFERENCE
 HPTY.       Minimum Curvature:  HOLE POS TYPE
 DMOD.             Drill Model:  DRILL MOD DESC
 SVYD.                  Survey:  SURVEY DESC
 ILTD.               Lithology:  INTERP LTH DESC
 FTOP.          Formation Tops:  FORM TOPS DESC
 SON .        AZ-XX-0905455768:  JOB NUMBER
 WTYP.                Deviated:  WELL TYPE
 COMP.     BP Exploration(Caspian Sea):  COMPANY
 BASE.              Azerbaijan:  LOGGING EQUIPMENT BASE LOCATION
 REGN.                   EESSA:  REGION
 CTRY.              Azerbaijan:  COUNTRY NAME
 FLD .                     ACG:  FIELD NAME
 SRVC.          Turan Drilling:  CONTRACTOR
 WELL.                     B41:  WELL NAME
 RIG .           Central Azeri:  RIG NAME
 DCON.         Sperry Drilling:  DIRECTNL CONTR
 PDAT.          Mean Sea Level:  PERMANENT DATUM
 MDS .        Operator Entered:  MAG DATA SOURCE
 API .                        :  API NUMBER
 CNTY.                        :  COUNTY
 PROV.                        :  PROVINCE
 STAT.                        :  STATE
 UWI .                        :  UNIQUE WELL IDENTIFIER
 LOC .                        :  LOCATION
 LMF .             Drill Floor:  LOG MEASURED FROM
 TVDS.m                  43.29:  TVDSS CORRECTN
 LATI.deg                40.03:  LATITUDE
 LONG.deg                51.35:  LONGITUDE
 WHNS.m                  12.98:  WELL HEAD N/S
 WHEW.m                  -6.62:  WELL HEAD E/W
 UTMX.m              530128.28:  UTM X
 UTMY.m             4433192.49:  UTM Y
 DFWL.m                   0.00:  DISTANCE FWL
 DFSL.m                   0.00:  DISTANCE FSL
 SDEP.m                 378.00:  START DEPTH
 TDD .m                   0.00:  TOTAL DEPTH (DRILLER)
 VSDR.deg               296.18:  VERT SEC DIRECT
 GVFD.g                   1.00:  GRAVITY FIELD
 MFLD.nT              50253.00:  MAGNETIC FIELD
 MDIP.deg                59.49:  MAGNETIC DIP
 MDEC.deg                 6.44:  MAGNETIC DECL
 GRDC.deg                 0.22:  GRID CORRECTION
 AZTC.deg                 6.22:  AZM TOTAL CORR
 EPD .m                   0.00:  ELEVATION
 EGL .m                   0.00:  GROUND ELEVATION
 WDMS.m                 128.20:  WD ELEV
 APD .m                  43.29:  DEPTH ABOVE PD
 AGAP.m                  43.29:  AIR GAP
 VSEW.m                  -6.62:  VERT SEC E/W
 VSNS.m                  12.98:  VERT SEC N/S
 EKB .m                  43.29:  KB ELEVATION
 EDF .m                  43.29:  DF ELEVATION
 TDL .m                1152.00:  TOTAL DEPTH (LOGGER)
 VSC .                       0:  VS TO CLOSURE
 MAGU.                 1848525:  MAGUTM CHECKSUM
~Parameter Information Block
#MNEM.UNIT       Value        Description
#---------     -----------    ---------------------------
 AV  .mps                 0.40:  Ann Velocity 
 AVMX.mps                 1.56:  Max Ann Veloc 
 AZIF.deg               300.46:  Azm, Final 
 BHAT.        Rotary Steerable:  BHA Type 
 BROT.°/30m               0.40:  Build Rotating 
 BS  .in                 17.50:  Bit Size 
 BSZ .in                 17.50:  Bit Size 
 BTPL.psig              300.00:  Bit Press Loss 
 CABU.                      No:  Customer Abuse 
 CGEO.          Parviz Guliyev:  Customer Geo 
 COMM.                     œº_:  Run Comments 1 
 TCS .hr                108.13:  Time Ciculation Ended 
 CV  .mps                 0.50:  Crit Velocity 
 CVMX.mps                 2.01:  Max Crit Veloc 
 DD1 .          Fariz Nahmatov:  Direct Drillr 1 
 DD2 .             Ehab Radwan:  Direct Drillr 2 
 DDSV.               Geo-Pilot:  DD Service 
 DEFF.%                  99.00:  % Det Eff 
 DLRX.°/30m               0.50:  Dogleg Rot Max 
 DLSO.°/30m               2.80:  Dogleg Oriented 
 DLSX.°/30m               3.90:  Dogleg Str Max 
 DRET.      09.30.04 03-Jul-20:  Drill End Time 
 DRST.      18.33.04 28-Jun-20:  Drill Start Tim 
 DTIM.hr                 55.83:  Time Drilling 
 EDEP.m                1952.00:  End Depth 
 ENG1.      Bakhtiyar Jabbarli:  Engineer 1 
 ENG2.         Farhad Orujzade:  Engineer 2 
 ENG3.          Rustam Safarov:  Engineer 3 
 ETIM.      01.33.04 04-Jul-20:  End Time 
 FLOI.gpm              1050.00:  Flow In 
 FLON.gpm               950.00:  Flow In Min 
 FLOS.cptm                0.10:  Fluid Loss 
 FLOX.gpm              1150.00:  Flow In Max 
 HFLO.                      No:  High Flow 
 HPRE.                      No:  High Pressure 
 HTEM.                      No:  High Temp 
 HYDO.m                   1.80:  Hydro Offset 
 IFIN.deg                75.26:  Inc, Final 
 IMAX.deg                75.38:  Inc Max 
 IMIN.deg                22.84:  Inc Min 
 IMND.m                 832.38:  Inc Min Depth 
 IMXD.m                1936.55:  Inc Max Depth 
 JARR.                      No:  Jarring 
 LETM.      17.40.00 04-Jul-20:  Log End Time 
 LOST.hr                     0:  Lost Rig Time 
 LSTM.      12.33.04 28-Jun-20:  Log Start Time 
 MDCL.ppm             49500.00:  Mud Chlorides 
 MDES.     Inversion Oil/Synthetic:  Mud Desc 
 DFD .sg                  1.46:  Mud Density 
 MDMN.sg                  1.46:  Dens Mud Min 
 MDMX.sg                  1.46:  Dens Mud Max 
 MOIL.                      70:  Run Mud Oil % 
 MOWR.                   70:30:  Run Mud OWR 
 MSND.                     0.5:  Run Mud Sand % 
 MSOL.                   19.89:  Run Mud Solids% 
 DFV .spqt               72.00:  Mud Viscosity 
 MWOD.in                  9.50:  MWD Tool OD 
 MWSI.                      No:  Serv Intrp, MWD 
 OTIM.hr                146.53:  Time Operating 
 PCON.           Look Like New:  Pad Condition 
 PMAX.psia             2900.00:  Press Op, Max 
 PV  .cP                 38.00:  Mud PV 
 RUN .                     600:  Run Number 
 ROPA.m/hr               22.00:  ROP Avg 
 ROPN.m/hr               10.00:  ROP Min 
 ROPX.m/hr              263.00:  ROP Max 
 RPMA.rpm               155.00:  RPM Surface Avg 
 RPMN.rpm               140.00:  RPM Surface Min 
 RPMX.rpm               160.00:  RPM Surface Max 
 RRUN.                    0600:  Rig Run Number 
 RTIM.hr                  5.00:  Time Reaming 
 SAZI.deg               300.08:  Azm, Start 
 SDEP.m                 800.00:  Start Depth 
 SIDD.                      No:  Serv Intrp, DD 
 SINC.deg                22.84:  Inc, Start 
 SPPA.psig             3000.00:  SPP Avg 
 SPPN.psig             1900.00:  SPP Min 
 SPPX.psig             3200.00:  SPP Max 
 STIM.      12.30.04 28-Jun-20:  Start Time 
 SVCS.                 DD, MWD:  Services 
 SVER.                    9.20:  Sperry Version 
 TDAT.m                1952.00:  Tot Depth Attmp 
 TDDF.                      No:  Trip for DD 
 TDLG.m                1152.00:  Tot Depth Loggd 
 TFF .                      No:  Trip for Fail 
 TQAA.f-kp                8.00:  Torque Abs Avg 
 TQAN.f-kp                5.00:  Torque Abs Min 
 TQAX.f-kp               14.00:  Torque Abs Max 
 TRRT.°/30m               0.50:  Turn Rotating 
 MRT .                  EWR-M5:  Maximum Recorded Temperature 
 TTMX.degC               69.00:  Max Tool Temp 
 VS01.                90610313:  Virtual Str1 SN 
 VS02.                90613431:  Virtual Str2 SN 
 VS03.                90615410:  Virtual Str3 SN 
 WBMN.klb                 6.00:  WOB Min 
 WITN.            Bruce Cheyne:  Customer Rep 
 WITN.             Ayaz Aliyev:  Customer Rep 2 
 WOBA.klb                 6.00:  WOB Avg 
 WOBX.klb                10.00:  WOB Max 
 YP  .lhf2               36.00:  Yield Point 
~Curve Information Block
#MNEM.UNIT                 API CODE     Curve Description
#---------               -----------    ---------------------------
 TIME.HHMMSS            00 000 000 000:  GT Time & Date
 GTET.sec               00 000 000 000:  GT Elapsed Test Time
 GTPQH.psia             00 000 000 000:  GT HR Quartz Pressure
 GTDEPTH.m              00 000 000 000:  GT Depth
 GTTVD.m                00 000 000 000:  GT True Vertical Depth
 GTTQ.degC              00 000 000 000:  GT Quartz Temperature
 GTTN.NONE              00 000 000 000:  GT Test Number
#Other Information
#
#WARRANTY: Halliburton will use its best efforts to furnish customers with 
#accurate information and interpretations that are part of, and incident to, the services 
#provided.  However, Halliburton cannot and does not warrant the accuracy 
#or correctness of such information and interpretations.  Under no circumstances should any 
#such information or interpretation be relied upon as the sole basis for any drilling, 
#completion, production, or financial decision or any procedure involving any risk to the 
#safety of any drilling venture, drilling rig or its crew or any other third party.  The 
#Customer has full responsibility for all drilling, completion and production operation.  
#Halliburton makes no representations or warranties, either expressed or 
#implied, including, but not limited to, the implied warranties of merchantability or fitness 
#for a particular purpose, with respect to the services rendered.  In no event will 
#Halliburton be liable for failure to obtain any particular results or for 
#any damages, including, but not limited to, indirect, special or consequential damages, 
#resulting from the use of any information or interpretation provided by Halliburton.
#
~A           TIME            GTET   GTPQH  GTDEPTH  GTTVD  GTTQ  GTTN 
# ...
   23:31:43.505.30-Jun-2020  69.02 2324.99 1161.05 1096.50 59.67 4.00
   23:31:43.705.30-Jun-2020  69.22 2324.99 1161.05 1096.50 59.67 4.00
   23:31:43.905.30-Jun-2020  69.42 2323.07 1161.05 1096.50 59.67 4.00
   23:31:44.105.30-Jun-2020  69.62 2322.89 1161.05 1096.50 59.67 4.00
   23:31:44.305.30-Jun-2020  69.82 2321.30 1161.05 1096.50 59.67 4.00
   23:31:44.505.30-Jun-2020  70.02 2322.89 1161.05 1096.50 59.67 4.00
   23:31:44.706.30-Jun-2020  70.22 2323.33 1161.05 1096.50 59.67 4.00
   23:31:44.906.30-Jun-2020  70.42 2322.84 1161.05 1096.50 59.67 4.00
   23:31:45.106.30-Jun-2020  70.62 2322.87 1161.05 1096.50 59.67 4.00
   23:31:45.306.30-Jun-2020  70.82 2323.15 1161.05 1096.50 59.67 4.00
   23:31:45.506.30-Jun-2020  71.02 2322.55 1161.05 1096.50 59.67 4.00
   23:31:45.706.30-Jun-2020  71.22 2322.37 1161.05 1096.50 59.67 4.00
   23:31:45.906.30-Jun-2020  71.42 2323.17 1161.05 1096.50 59.67 4.00
   23:31:46.106.30-Jun-2020  71.62 2323.11 1161.05 1096.50 59.67 4.00
   23:31:46.306.30-Jun-2020  71.82 2322.27 1161.05 1096.50 59.67 4.00
   23:31:46.506.30-Jun-2020  72.02 2322.41 1161.05 1096.50 59.67 4.00
   23:31:46.706.30-Jun-2020  72.22 2322.41 1161.05 1096.50 59.67 4.00
   23:31:46.906.30-Jun-2020  72.42 2323.39 1161.05 1096.50 59.67 4.00
   23:31:47.106.30-Jun-2020  72.62 2324.91 1161.05 1096.50 59.67 4.00
   23:31:47.306.30-Jun-2020  72.82 2324.07 1161.05 1096.50 59.67 4.00
   23:31:47.506.30-Jun-2020  73.02 2322.21 1161.05 1096.50 59.67 4.00
   23:31:47.706.30-Jun-2020  73.22 2322.21 1161.05 1096.50 59.67 4.00
   23:31:47.906.30-Jun-2020  73.42 2323.42 1161.05 1096.50 59.67 4.00
   23:31:48.107.30-Jun-2020  73.62 2323.04 1161.05 1096.50 59.67 4.00
   23:31:48.307.30-Jun-2020  73.82 2323.34 1161.05 1096.50 59.67 4.00
   23:31:48.507.30-Jun-2020  74.02 2322.93 1161.05 1096.50 59.67 4.00
   23:31:48.707.30-Jun-2020  74.22 2322.93 1161.05 1096.50 59.67 4.00
   23:31:48.907.30-Jun-2020  74.42 2323.78 1161.05 1096.50 59.67 4.00
   23:31:49.107.30-Jun-2020  74.62 2323.76 1161.05 1096.50 59.67 4.00
   23:31:49.307.30-Jun-2020  74.82 2324.24 1161.05 1096.50 59.67 4.00
   23:31:49.507.30-Jun-2020  75.02 2325.14 1161.05 1096.50 59.67 4.00
   23:31:49.707.30-Jun-2020  75.22 2325.08 1161.05 1096.50 59.67 4.00
   23:31:49.907.30-Jun-2020  75.42 2323.25 1161.05 1096.50 59.67 4.00
   23:31:50.107.30-Jun-2020  75.62 2321.66 1161.05 1096.50 59.67 4.00
   23:31:50.307.30-Jun-2020  75.82 2324.49 1161.05 1096.50 59.67 4.00
   23:31:50.507.30-Jun-2020  76.02 2325.79 1161.05 1096.50 59.67 4.00
   23:31:50.707.30-Jun-2020  76.22 2325.79 1161.05 1096.50 59.67 4.00
   23:31:50.907.30-Jun-2020  76.42 2324.96 1161.05 1096.50 59.67 4.00
   23:31:51.107.30-Jun-2020  76.62 2325.62 1161.05 1096.50 59.67 4.00
   23:31:51.307.30-Jun-2020  76.82 2335.41 1161.05 1096.50 59.67 4.00
   23:31:51.507.30-Jun-2020  77.02 2374.91 1161.05 1096.50 59.67 4.00
   23:31:51.708.30-Jun-2020  77.22 2374.91 1161.05 1096.50 59.67 4.00
   23:31:51.908.30-Jun-2020  77.42 2415.87 1161.05 1096.50 59.67 4.00
   23:31:52.108.30-Jun-2020  77.62 2399.87 1161.05 1096.50 59.67 4.00
   23:31:52.308.30-Jun-2020  77.82 2398.06 1161.05 1096.50 59.67 4.00
   23:31:52.508.30-Jun-2020  78.02 2390.39 1161.05 1096.50 59.67 4.00
   23:31:52.708.30-Jun-2020  78.22 2390.39 1161.05 1096.50 59.67 4.00
   23:31:52.908.30-Jun-2020  78.42 2390.27 1161.05 1096.50 59.67 4.00
   23:31:53.108.30-Jun-2020  78.62 2402.30 1161.05 1096.50 59.67 4.00
   23:31:53.308.30-Jun-2020  78.82 2386.39 1161.05 1096.50 59.67 4.00
   23:31:53.508.30-Jun-2020  79.02 2386.94 1161.05 1096.50 59.67 4.00
   23:31:53.708.30-Jun-2020  79.22 2390.60 1161.05 1096.50 59.67 4.00
   23:31:53.908.30-Jun-2020  79.42 2386.61 1161.05 1096.50 59.67 4.00
   23:31:54.108.30-Jun-2020  79.62 2384.97 1161.05 1096.50 59.67 4.00
   23:31:54.308.30-Jun-2020  79.82 2374.61 1161.05 1096.50 59.67 4.00
   23:31:54.508.30-Jun-2020  80.02 2371.98 1161.05 1096.50 59.67 4.00
   23:31:54.708.30-Jun-2020  80.22 2371.98 1161.05 1096.50 59.67 4.00
   23:31:54.908.30-Jun-2020  80.42 2370.64 1161.05 1096.50 59.67 4.00
   23:31:55.109.30-Jun-2020  80.62 2369.79 1161.05 1096.50 59.67 4.00
   23:31:55.309.30-Jun-2020  80.82 2369.56 1161.05 1096.50 59.67 4.00
   23:31:55.509.30-Jun-2020  81.02 2369.96 1161.05 1096.50 59.67 4.00
   23:31:55.709.30-Jun-2020  81.22 2369.96 1161.05 1096.50 59.67 4.00
   23:31:55.909.30-Jun-2020  81.42 2369.74 1161.05 1096.50 59.67 4.00
   23:31:56.109.30-Jun-2020  81.62 2369.34 1161.05 1096.50 59.67 4.00
   23:31:56.309.30-Jun-2020  81.82 2370.14 1161.05 1096.50 59.67 4.00
   23:31:56.509.30-Jun-2020  82.02 2371.92 1161.05 1096.50 59.67 4.00
   23:31:56.709.30-Jun-2020  82.22 2371.92 1161.05 1096.50 59.67 4.00
   23:31:56.909.30-Jun-2020  82.42 2372.79 1161.05 1096.50 59.67 4.00
   23:31:57.109.30-Jun-2020  82.62 2371.67 1161.05 1096.50 59.67 4.00
   23:31:57.309.30-Jun-2020  82.82 2373.02 1161.05 1096.50 59.67 4.00
   23:31:57.509.30-Jun-2020  83.02 2372.42 1161.05 1096.50 59.67 4.00
   23:31:57.709.30-Jun-2020  83.22 2371.99 1161.05 1096.50 59.67 4.00
   23:31:57.909.30-Jun-2020  83.42 2372.23 1161.05 1096.50 59.67 4.00
   23:31:58.109.30-Jun-2020  83.62 2372.09 1161.05 1096.50 59.67 4.00
   23:31:58.309.30-Jun-2020  83.82 2373.23 1161.05 1096.50 59.67 4.00
   23:31:58.510.30-Jun-2020  84.02 2372.93 1161.05 1096.50 59.67 4.00
   23:31:58.710.30-Jun-2020  84.22 2372.93 1161.05 1096.50 59.67 4.00
   23:31:58.910.30-Jun-2020  84.42 2373.59 1161.05 1096.50 59.67 4.00
   23:31:59.110.30-Jun-2020  84.62 2499.17 1161.05 1096.50 59.67 4.00
   23:31:59.310.30-Jun-2020  84.82 2351.71 1161.05 1096.50 59.67 4.00
   23:31:59.510.30-Jun-2020  85.02 2346.98 1161.05 1096.50 59.67 4.00
   23:31:59.710.30-Jun-2020  85.22 2346.98 1161.05 1096.50 59.67 4.00
   23:31:59.910.30-Jun-2020  85.42 2343.36 1161.05 1096.50 59.67 4.00
   23:32:00.110.30-Jun-2020  85.62 2343.17 1161.05 1096.50 59.67 4.00
   23:32:00.310.30-Jun-2020  85.82 2328.65 1161.05 1096.50 59.67 4.00
   23:32:00.510.30-Jun-2020  86.02 2263.40 1161.05 1096.50 59.67 4.00
   23:32:00.710.30-Jun-2020  86.23 2263.40 1161.05 1096.50 59.67 4.00
   23:32:00.910.30-Jun-2020  86.43 2148.24 1161.05 1096.50 59.67 4.00
   23:32:01.110.30-Jun-2020  86.63 2106.20 1161.05 1096.50 59.67 4.00
   23:32:01.310.30-Jun-2020  86.83 2105.05 1161.05 1096.50 59.67 4.00
   23:32:01.510.30-Jun-2020  87.03 2105.85 1161.05 1096.50 59.67 4.00
   23:32:01.710.30-Jun-2020  87.23 2105.85 1161.05 1096.50 59.67 4.00
   23:32:01.911.30-Jun-2020  87.43 2106.76 1161.05 1096.50 59.67 4.00
   23:32:02.111.30-Jun-2020  87.63 2107.00 1161.05 1096.50 59.67 4.00
   23:32:02.311.30-Jun-2020  87.83 2107.25 1161.05 1096.50 59.67 4.00
   23:32:02.511.30-Jun-2020  88.03 2107.44 1161.05 1096.50 59.67 4.00
   23:32:02.711.30-Jun-2020  88.23 2107.44 1161.05 1096.50 59.67 4.00
   23:32:02.911.30-Jun-2020  88.43 2107.53 1161.05 1096.50 59.67 4.00
   23:32:03.111.30-Jun-2020  88.63 2107.53 1161.05 1096.50 59.67 4.00
   23:32:03.311.30-Jun-2020  88.83 2107.58 1161.05 1096.50 59.67 4.00
   23:32:03.511.30-Jun-2020  89.03 2107.58 1161.05 1096.50 59.67 4.00
   23:32:03.711.30-Jun-2020  89.23 2107.58 1161.05 1096.50 59.67 4.00
   23:32:03.911.30-Jun-2020  89.43 2107.70 1161.05 1096.50 59.67 4.00
   23:32:04.111.30-Jun-2020  89.63 2107.70 1161.05 1096.50 59.67 4.00
   23:32:04.311.30-Jun-2020  89.83 2107.71 1161.05 1096.50 59.67 4.00
   23:32:04.511.30-Jun-2020  90.03 2107.73 1161.05 1096.50 59.67 4.00
   23:32:04.711.30-Jun-2020  90.23 2107.77 1161.05 1096.50 59.67 4.00
   23:32:04.911.30-Jun-2020  90.43 2107.81 1161.05 1096.50 59.67 4.00
   23:32:05.111.30-Jun-2020  90.63 2107.81 1161.05 1096.50 59.67 4.00
   23:32:05.312.30-Jun-2020  90.83 2107.82 1161.05 1096.50 59.67 4.00
   23:32:05.512.30-Jun-2020  91.03 2107.81 1161.05 1096.50 59.67 4.00
   23:32:05.712.30-Jun-2020  91.23 2107.80 1161.05 1096.50 59.67 4.00
   23:32:05.912.30-Jun-2020  91.43 2107.86 1161.05 1096.50 59.67 4.00
   23:32:06.112.30-Jun-2020  91.63 2107.84 1161.05 1096.50 59.67 4.00
   23:32:06.312.30-Jun-2020  91.83 2107.88 1161.05 1096.50 59.67 4.00
