~Version Information
 VERS.                  2.0:   CWLS log ASCII Standard -VERSION 2.0
 WRAP.                   NO:   One line per depth step
~Well Information Block
#MNEM.UNIT     VALUE/NAME     DESCRIPTION
#---------     -----------    ---------------------------
 STRT.S             16:15:55 30-Jun-20: START TIME 16:15:55 30-Jun-20
 STOP.S             16:24:50 30-Jun-20: STOP TIME  16:24:50 30-Jun-20
 STEP.S                   0.00: STEP TIME
 NULL.                 -999.25: NULL VALUE
 DFWT.                        :  DIST FWL TEXT
 DFST.                        :  DIST FSL TEXT
 DMF .             Drill Floor:  DRILL MEAS FROM
 STIM.      09.59.28 01-Jun-20:  START TIME
 DATE.      09.59.28 01-Jun-20:  END TIME
 SPUD.               01-Jun-20:  SPUD DATE
 NREF.                    Grid:  NORTH REFERENCE
 HPTY.       Minimum Curvature:  HOLE POS TYPE
 DMOD.             Drill Model:  DRILL MOD DESC
 SVYD.                  Survey:  SURVEY DESC
 ILTD.               Lithology:  INTERP LTH DESC
 FTOP.          Formation Tops:  FORM TOPS DESC
 SON .        AZ-XX-0905455768:  JOB NUMBER
 WTYP.                Deviated:  WELL TYPE
 COMP.     BP Exploration(Caspian Sea):  COMPANY
 BASE.              Azerbaijan:  LOGGING EQUIPMENT BASE LOCATION
 REGN.                   EESSA:  REGION
 CTRY.              Azerbaijan:  COUNTRY NAME
 FLD .                     ACG:  FIELD NAME
 SRVC.          Turan Drilling:  CONTRACTOR
 WELL.                     B41:  WELL NAME
 RIG .           Central Azeri:  RIG NAME
 DCON.         Sperry Drilling:  DIRECTNL CONTR
 PDAT.          Mean Sea Level:  PERMANENT DATUM
 MDS .        Operator Entered:  MAG DATA SOURCE
 API .                        :  API NUMBER
 CNTY.                        :  COUNTY
 PROV.                        :  PROVINCE
 STAT.                        :  STATE
 UWI .                        :  UNIQUE WELL IDENTIFIER
 LOC .                        :  LOCATION
 LMF .             Drill Floor:  LOG MEASURED FROM
 TVDS.m                  43.29:  TVDSS CORRECTN
 LATI.deg                40.03:  LATITUDE
 LONG.deg                51.35:  LONGITUDE
 WHNS.m                  12.98:  WELL HEAD N/S
 WHEW.m                  -6.62:  WELL HEAD E/W
 UTMX.m              530128.28:  UTM X
 UTMY.m             4433192.49:  UTM Y
 DFWL.m                   0.00:  DISTANCE FWL
 DFSL.m                   0.00:  DISTANCE FSL
 SDEP.m                 378.00:  START DEPTH
 TDD .m                   0.00:  TOTAL DEPTH (DRILLER)
 VSDR.deg               296.18:  VERT SEC DIRECT
 GVFD.g                   1.00:  GRAVITY FIELD
 MFLD.nT              50253.00:  MAGNETIC FIELD
 MDIP.deg                59.49:  MAGNETIC DIP
 MDEC.deg                 6.44:  MAGNETIC DECL
 GRDC.deg                 0.22:  GRID CORRECTION
 AZTC.deg                 6.22:  AZM TOTAL CORR
 EPD .m                   0.00:  ELEVATION
 EGL .m                   0.00:  GROUND ELEVATION
 WDMS.m                 128.20:  WD ELEV
 APD .m                  43.29:  DEPTH ABOVE PD
 AGAP.m                  43.29:  AIR GAP
 VSEW.m                  -6.62:  VERT SEC E/W
 VSNS.m                  12.98:  VERT SEC N/S
 EKB .m                  43.29:  KB ELEVATION
 EDF .m                  43.29:  DF ELEVATION
 TDL .m                1152.00:  TOTAL DEPTH (LOGGER)
 VSC .                       0:  VS TO CLOSURE
 MAGU.                 1848525:  MAGUTM CHECKSUM
~Parameter Information Block
#MNEM.UNIT       Value        Description
#---------     -----------    ---------------------------
 AV  .mps                 0.40:  Ann Velocity 
 AVMX.mps                 1.56:  Max Ann Veloc 
 AZIF.deg               300.46:  Azm, Final 
 BHAT.        Rotary Steerable:  BHA Type 
 BROT.°/30m               0.40:  Build Rotating 
 BS  .in                 17.50:  Bit Size 
 BSZ .in                 17.50:  Bit Size 
 BTPL.psig              300.00:  Bit Press Loss 
 CABU.                      No:  Customer Abuse 
 CGEO.          Parviz Guliyev:  Customer Geo 
 COMM.                     D„w:  Run Comments 1 
 TCS .hr                108.13:  Time Ciculation Ended 
 CV  .mps                 0.50:  Crit Velocity 
 CVMX.mps                 2.01:  Max Crit Veloc 
 DD1 .          Fariz Nahmatov:  Direct Drillr 1 
 DD2 .             Ehab Radwan:  Direct Drillr 2 
 DDSV.               Geo-Pilot:  DD Service 
 DEFF.%                  99.00:  % Det Eff 
 DLRX.°/30m               0.50:  Dogleg Rot Max 
 DLSO.°/30m               2.80:  Dogleg Oriented 
 DLSX.°/30m               3.90:  Dogleg Str Max 
 DRET.      09.30.04 03-Jul-20:  Drill End Time 
 DRST.      18.33.04 28-Jun-20:  Drill Start Tim 
 DTIM.hr                 55.83:  Time Drilling 
 EDEP.m                1952.00:  End Depth 
 ENG1.      Bakhtiyar Jabbarli:  Engineer 1 
 ENG2.         Farhad Orujzade:  Engineer 2 
 ENG3.          Rustam Safarov:  Engineer 3 
 ETIM.      01.33.04 04-Jul-20:  End Time 
 FLOI.gpm              1050.00:  Flow In 
 FLON.gpm               950.00:  Flow In Min 
 FLOS.cptm                0.10:  Fluid Loss 
 FLOX.gpm              1150.00:  Flow In Max 
 HFLO.                      No:  High Flow 
 HPRE.                      No:  High Pressure 
 HTEM.                      No:  High Temp 
 HYDO.m                   1.80:  Hydro Offset 
 IFIN.deg                75.26:  Inc, Final 
 IMAX.deg                75.38:  Inc Max 
 IMIN.deg                22.84:  Inc Min 
 IMND.m                 832.38:  Inc Min Depth 
 IMXD.m                1936.55:  Inc Max Depth 
 JARR.                      No:  Jarring 
 LETM.      17.40.00 04-Jul-20:  Log End Time 
 LOST.hr                     0:  Lost Rig Time 
 LSTM.      12.33.04 28-Jun-20:  Log Start Time 
 MDCL.ppm             49500.00:  Mud Chlorides 
 MDES.     Inversion Oil/Synthetic:  Mud Desc 
 DFD .sg                  1.46:  Mud Density 
 MDMN.sg                  1.46:  Dens Mud Min 
 MDMX.sg                  1.46:  Dens Mud Max 
 MOIL.                      70:  Run Mud Oil % 
 MOWR.                   70:30:  Run Mud OWR 
 MSND.                     0.5:  Run Mud Sand % 
 MSOL.                   19.89:  Run Mud Solids% 
 DFV .spqt               72.00:  Mud Viscosity 
 MWOD.in                  9.50:  MWD Tool OD 
 MWSI.                      No:  Serv Intrp, MWD 
 OTIM.hr                146.53:  Time Operating 
 PCON.           Look Like New:  Pad Condition 
 PMAX.psia             2900.00:  Press Op, Max 
 PV  .cP                 38.00:  Mud PV 
 RUN .                     600:  Run Number 
 ROPA.m/hr               22.00:  ROP Avg 
 ROPN.m/hr               10.00:  ROP Min 
 ROPX.m/hr              263.00:  ROP Max 
 RPMA.rpm               155.00:  RPM Surface Avg 
 RPMN.rpm               140.00:  RPM Surface Min 
 RPMX.rpm               160.00:  RPM Surface Max 
 RRUN.                    0600:  Rig Run Number 
 RTIM.hr                  5.00:  Time Reaming 
 SAZI.deg               300.08:  Azm, Start 
 SDEP.m                 800.00:  Start Depth 
 SIDD.                      No:  Serv Intrp, DD 
 SINC.deg                22.84:  Inc, Start 
 SPPA.psig             3000.00:  SPP Avg 
 SPPN.psig             1900.00:  SPP Min 
 SPPX.psig             3200.00:  SPP Max 
 STIM.      12.30.04 28-Jun-20:  Start Time 
 SVCS.                 DD, MWD:  Services 
 SVER.                    9.20:  Sperry Version 
 TDAT.m                1952.00:  Tot Depth Attmp 
 TDDF.                      No:  Trip for DD 
 TDLG.m                1152.00:  Tot Depth Loggd 
 TFF .                      No:  Trip for Fail 
 TQAA.f-kp                8.00:  Torque Abs Avg 
 TQAN.f-kp                5.00:  Torque Abs Min 
 TQAX.f-kp               14.00:  Torque Abs Max 
 TRRT.°/30m               0.50:  Turn Rotating 
 MRT .                  EWR-M5:  Maximum Recorded Temperature 
 TTMX.degC               69.00:  Max Tool Temp 
 VS01.                90610313:  Virtual Str1 SN 
 VS02.                90613431:  Virtual Str2 SN 
 VS03.                90615410:  Virtual Str3 SN 
 WBMN.klb                 6.00:  WOB Min 
 WITN.            Bruce Cheyne:  Customer Rep 
 WITN.             Ayaz Aliyev:  Customer Rep 2 
 WOBA.klb                 6.00:  WOB Avg 
 WOBX.klb                10.00:  WOB Max 
 YP  .lhf2               36.00:  Yield Point 
~Curve Information Block
#MNEM.UNIT                 API CODE     Curve Description
#---------               -----------    ---------------------------
 TIME.HHMMSS            00 000 000 000:  GT Time & Date
 GTET.sec               00 000 000 000:  GT Elapsed Test Time
 GTPQH.psia             00 000 000 000:  GT HR Quartz Pressure
 GTDEPTH.m              00 000 000 000:  GT Depth
 GTTVD.m                00 000 000 000:  GT True Vertical Depth
 GTTQ.degC              00 000 000 000:  GT Quartz Temperature
 GTTN.NONE              00 000 000 000:  GT Test Number
#Other Information
#
#WARRANTY: Halliburton will use its best efforts to furnish customers with 
#accurate information and interpretations that are part of, and incident to, the services 
#provided.  However, Halliburton cannot and does not warrant the accuracy 
#or correctness of such information and interpretations.  Under no circumstances should any 
#such information or interpretation be relied upon as the sole basis for any drilling, 
#completion, production, or financial decision or any procedure involving any risk to the 
#safety of any drilling venture, drilling rig or its crew or any other third party.  The 
#Customer has full responsibility for all drilling, completion and production operation.  
#Halliburton makes no representations or warranties, either expressed or 
#implied, including, but not limited to, the implied warranties of merchantability or fitness 
#for a particular purpose, with respect to the services rendered.  In no event will 
#Halliburton be liable for failure to obtain any particular results or for 
#any damages, including, but not limited to, indirect, special or consequential damages, 
#resulting from the use of any information or interpretation provided by Halliburton.
#
~A           TIME            GTET   GTPQH  GTDEPTH  GTTVD  GTTQ  GTTN 
# ...
   16:18:36.000.30-Jun-2020 161.00 1082.06 1103.02 1054.26 68.74 2.00
   16:18:36.200.30-Jun-2020 161.20 1082.06 1103.02 1054.26 68.74 2.00
   16:18:36.400.30-Jun-2020 161.40 1083.06 1103.02 1054.26 68.75 2.00
   16:18:36.600.30-Jun-2020 161.60 1083.52 1103.02 1054.26 68.75 2.00
   16:18:36.800.30-Jun-2020 161.80 1084.00 1103.02 1054.26 68.75 2.00
   16:18:37.000.30-Jun-2020 162.00 1084.52 1103.02 1054.26 68.75 2.00
   16:18:37.200.30-Jun-2020 162.20 1085.09 1103.02 1054.26 68.75 2.00
   16:18:37.400.30-Jun-2020 162.40 1085.56 1103.02 1054.26 68.75 2.00
   16:18:37.600.30-Jun-2020 162.60 1086.05 1103.02 1054.26 68.75 2.00
   16:18:37.800.30-Jun-2020 162.80 1086.58 1103.02 1054.26 68.75 2.00
   16:18:38.000.30-Jun-2020 163.00 1087.06 1103.02 1054.26 68.75 2.00
   16:18:38.200.30-Jun-2020 163.20 1087.06 1103.02 1054.26 68.75 2.00
   16:18:38.400.30-Jun-2020 163.40 1088.07 1103.02 1054.26 68.75 2.00
   16:18:38.600.30-Jun-2020 163.60 1089.28 1103.02 1054.26 68.75 2.00
   16:18:38.800.30-Jun-2020 163.80 1089.44 1103.02 1054.26 68.75 2.00
   16:18:39.000.30-Jun-2020 164.00 1089.93 1103.02 1054.26 68.75 2.00
   16:18:39.200.30-Jun-2020 164.20 1089.93 1103.02 1054.26 68.75 2.00
   16:18:39.400.30-Jun-2020 164.40 1090.90 1103.02 1054.26 68.75 2.00
   16:18:39.600.30-Jun-2020 164.60 1092.01 1103.02 1054.26 68.75 2.00
   16:18:39.800.30-Jun-2020 164.80 1092.16 1103.02 1054.26 68.75 2.00
   16:18:40.000.30-Jun-2020 165.00 1092.64 1103.02 1054.26 68.75 2.00
   16:18:40.200.30-Jun-2020 165.20 1092.64 1103.02 1054.26 68.75 2.00
   16:18:40.400.30-Jun-2020 165.40 1093.97 1103.02 1054.26 68.75 2.00
   16:18:40.600.30-Jun-2020 165.60 1094.48 1103.02 1054.26 68.75 2.00
   16:18:40.800.30-Jun-2020 165.80 1094.97 1103.02 1054.26 68.75 2.00
   16:18:41.000.30-Jun-2020 166.00 1095.40 1103.02 1054.26 68.75 2.00
   16:18:41.200.30-Jun-2020 166.20 1095.87 1103.02 1054.26 68.75 2.00
   16:18:41.400.30-Jun-2020 166.40 1096.33 1103.02 1054.26 68.75 2.00
   16:18:41.600.30-Jun-2020 166.60 1096.91 1103.02 1054.26 68.75 2.00
   16:18:41.800.30-Jun-2020 166.80 1097.35 1103.02 1054.26 68.75 2.00
   16:18:42.000.30-Jun-2020 167.00 1098.53 1103.02 1054.26 68.75 2.00
   16:18:42.200.30-Jun-2020 167.20 1098.53 1103.02 1054.26 68.75 2.00
   16:18:42.400.30-Jun-2020 167.40 1099.15 1103.02 1054.26 68.75 2.00
   16:18:42.600.30-Jun-2020 167.60 1099.62 1103.02 1054.26 68.75 2.00
   16:18:42.800.30-Jun-2020 167.80 1100.11 1103.02 1054.26 68.75 2.00
   16:18:43.000.30-Jun-2020 168.00 1100.60 1103.02 1054.26 68.75 2.00
   16:18:43.200.30-Jun-2020 168.20 1100.60 1103.02 1054.26 68.75 2.00
   16:18:43.400.30-Jun-2020 168.40 1101.60 1103.02 1054.26 68.75 2.00
   16:18:43.600.30-Jun-2020 168.60 1102.09 1103.02 1054.26 68.75 2.00
   16:18:43.800.30-Jun-2020 168.80 1102.53 1103.02 1054.26 68.75 2.00
   16:18:44.000.30-Jun-2020 169.00 1103.02 1103.02 1054.26 68.75 2.00
   16:18:44.200.30-Jun-2020 169.20 1103.02 1103.02 1054.26 68.75 2.00
   16:18:44.400.30-Jun-2020 169.40 1103.95 1103.02 1054.26 68.75 2.00
   16:18:44.600.30-Jun-2020 169.60 1104.41 1103.02 1054.26 68.75 2.00
   16:18:44.800.30-Jun-2020 169.80 1104.80 1103.02 1054.26 68.75 2.00
   16:18:45.000.30-Jun-2020 170.00 1105.27 1103.02 1054.26 68.75 2.00
   16:18:45.200.30-Jun-2020 170.20 1105.72 1103.02 1054.26 68.75 2.00
   16:18:45.400.30-Jun-2020 170.40 1106.18 1103.02 1054.26 68.75 2.00
   16:18:45.600.30-Jun-2020 170.60 1107.35 1103.02 1054.26 68.75 2.00
   16:18:45.800.30-Jun-2020 170.80 1107.44 1103.02 1054.26 68.75 2.00
   16:18:46.000.30-Jun-2020 171.00 1107.98 1103.02 1054.26 68.75 2.00
   16:18:46.200.30-Jun-2020 171.20 1107.98 1103.02 1054.26 68.75 2.00
   16:18:46.400.30-Jun-2020 171.40 1109.00 1103.02 1054.26 68.75 2.00
   16:18:46.600.30-Jun-2020 171.60 1109.34 1103.02 1054.26 68.75 2.00
   16:18:46.800.30-Jun-2020 171.80 1109.76 1103.02 1054.26 68.75 2.00
   16:18:47.000.30-Jun-2020 172.00 1110.19 1103.02 1054.26 68.75 2.00
   16:18:47.200.30-Jun-2020 172.20 1110.19 1103.02 1054.26 68.75 2.00
   16:18:47.400.30-Jun-2020 172.40 1111.11 1103.02 1054.26 68.76 2.00
   16:18:47.600.30-Jun-2020 172.60 1111.53 1103.02 1054.26 68.76 2.00
   16:18:47.800.30-Jun-2020 172.80 1111.94 1103.02 1054.26 68.76 2.00
   16:18:48.000.30-Jun-2020 173.00 1112.63 1103.02 1054.26 68.76 2.00
   16:18:48.200.30-Jun-2020 173.20 1112.63 1103.02 1054.26 68.76 2.00
   16:18:48.400.30-Jun-2020 173.40 1113.72 1103.02 1054.26 68.76 2.00
   16:18:48.600.30-Jun-2020 173.60 1114.11 1103.02 1054.26 68.76 2.00
   16:18:48.800.30-Jun-2020 173.80 1114.61 1103.02 1054.26 68.76 2.00
   16:18:49.000.30-Jun-2020 174.00 1115.08 1103.02 1054.26 68.76 2.00
   16:18:49.200.30-Jun-2020 174.20 1116.12 1103.02 1054.26 68.76 2.00
   16:18:49.400.30-Jun-2020 174.40 1116.27 1103.02 1054.26 68.76 2.00
   16:18:49.600.30-Jun-2020 174.60 1116.74 1103.02 1054.26 68.76 2.00
   16:18:49.800.30-Jun-2020 174.80 1117.19 1103.02 1054.26 68.76 2.00
   16:18:50.000.30-Jun-2020 175.00 1117.68 1103.02 1054.26 68.76 2.00
   16:18:50.200.30-Jun-2020 175.20 1117.68 1103.02 1054.26 68.76 2.00
   16:18:50.400.30-Jun-2020 175.40 1119.32 1103.02 1054.26 68.76 2.00
   16:18:50.600.30-Jun-2020 175.60 1119.56 1103.02 1054.26 68.76 2.00
   16:18:50.800.30-Jun-2020 175.80 1120.05 1103.02 1054.26 68.76 2.00
   16:18:51.000.30-Jun-2020 176.00 1120.55 1103.02 1054.26 68.76 2.00
   16:18:51.200.30-Jun-2020 176.20 1120.55 1103.02 1054.26 68.76 2.00
   16:18:51.400.30-Jun-2020 176.40 1121.50 1103.02 1054.26 68.76 2.00
   16:18:51.600.30-Jun-2020 176.60 1122.15 1103.02 1054.26 68.76 2.00
   16:18:51.800.30-Jun-2020 176.80 1122.72 1103.02 1054.26 68.76 2.00
   16:18:52.000.30-Jun-2020 177.00 1123.60 1103.02 1054.26 68.76 2.00
   16:18:52.200.30-Jun-2020 177.20 1123.60 1103.02 1054.26 68.76 2.00
   16:18:52.400.30-Jun-2020 177.40 1124.34 1103.02 1054.26 68.76 2.00
   16:18:52.600.30-Jun-2020 177.60 1124.80 1103.02 1054.26 68.76 2.00
   16:18:52.800.30-Jun-2020 177.80 1125.35 1103.02 1054.26 68.76 2.00
   16:18:53.000.30-Jun-2020 178.00 1125.79 1103.02 1054.26 68.76 2.00
   16:18:53.200.30-Jun-2020 178.20 1126.32 1103.02 1054.26 68.76 2.00
   16:18:53.400.30-Jun-2020 178.40 1126.78 1103.02 1054.26 68.76 2.00
   16:18:53.600.30-Jun-2020 178.60 1127.25 1103.02 1054.26 68.76 2.00
   16:18:53.800.30-Jun-2020 178.80 1127.71 1103.02 1054.26 68.76 2.00
   16:18:54.000.30-Jun-2020 179.00 1128.20 1103.02 1054.26 68.76 2.00
   16:18:54.200.30-Jun-2020 179.20 1128.20 1103.02 1054.26 68.76 2.00
   16:18:54.400.30-Jun-2020 179.40 1129.08 1103.02 1054.26 68.76 2.00
   16:18:54.600.30-Jun-2020 179.60 1129.52 1103.02 1054.26 68.76 2.00
   16:18:54.800.30-Jun-2020 179.80 1129.92 1103.02 1054.26 68.76 2.00
   16:18:55.000.30-Jun-2020 180.00 1130.38 1103.02 1054.26 68.76 2.00
   16:18:55.200.30-Jun-2020 180.20 1130.38 1103.02 1054.26 68.76 2.00
   16:18:55.400.30-Jun-2020 180.40 1131.44 1103.02 1054.26 68.76 2.00
   16:18:55.600.30-Jun-2020 180.60 1132.35 1103.02 1054.26 68.76 2.00
   16:18:55.800.30-Jun-2020 180.80 1132.67 1103.02 1054.26 68.76 2.00
   16:18:56.000.30-Jun-2020 181.00 1133.04 1103.02 1054.26 68.76 2.00
   16:18:56.200.30-Jun-2020 181.20 1133.04 1103.02 1054.26 68.76 2.00
   16:18:56.400.30-Jun-2020 181.40 1133.96 1103.02 1054.26 68.76 2.00
   16:18:56.600.30-Jun-2020 181.60 1134.40 1103.02 1054.26 68.76 2.00
   16:18:56.800.30-Jun-2020 181.80 1134.96 1103.02 1054.26 68.76 2.00
   16:18:57.000.30-Jun-2020 182.00 1135.41 1103.02 1054.26 68.76 2.00
   16:18:57.200.30-Jun-2020 182.20 1135.83 1103.02 1054.26 68.76 2.00
   16:18:57.400.30-Jun-2020 182.40 1136.28 1103.02 1054.26 68.76 2.00
   16:18:57.600.30-Jun-2020 182.60 1136.80 1103.02 1054.26 68.76 2.00
   16:18:57.800.30-Jun-2020 182.80 1137.22 1103.02 1054.26 68.76 2.00
   16:18:58.000.30-Jun-2020 183.00 1138.32 1103.02 1054.26 68.76 2.00
   16:18:58.200.30-Jun-2020 183.20 1138.32 1103.02 1054.26 68.76 2.00
   16:18:58.400.30-Jun-2020 183.40 1138.93 1103.02 1054.26 68.76 2.00
   16:18:58.600.30-Jun-2020 183.60 1139.42 1103.02 1054.26 68.76 2.00
   16:18:58.800.30-Jun-2020 183.80 1140.51 1103.02 1054.26 68.76 2.00
