~Version Information
 VERS.                  2.0:   CWLS log ASCII Standard -VERSION 2.0
 WRAP.                   NO:   One line per depth step
~Well Information Block
#MNEM.UNIT     VALUE/NAME     DESCRIPTION
#---------     -----------    ---------------------------
 STRT.S             06:27:04 01-Jul-20: START TIME 06:27:04 01-Jul-20
 STOP.S             06:36:04 01-Jul-20: STOP TIME  06:36:04 01-Jul-20
 STEP.S                   0.00: STEP TIME
 NULL.                 -999.25: NULL VALUE
 DFWT.                        :  DIST FWL TEXT
 DFST.                        :  DIST FSL TEXT
 DMF .             Drill Floor:  DRILL MEAS FROM
 STIM.      09.59.28 01-Jun-20:  START TIME
 DATE.      09.59.28 01-Jun-20:  END TIME
 SPUD.               01-Jun-20:  SPUD DATE
 NREF.                    Grid:  NORTH REFERENCE
 HPTY.       Minimum Curvature:  HOLE POS TYPE
 DMOD.             Drill Model:  DRILL MOD DESC
 SVYD.                  Survey:  SURVEY DESC
 ILTD.               Lithology:  INTERP LTH DESC
 FTOP.          Formation Tops:  FORM TOPS DESC
 SON .        AZ-XX-0905455768:  JOB NUMBER
 WTYP.                Deviated:  WELL TYPE
 COMP.     BP Exploration(Caspian Sea):  COMPANY
 BASE.              Azerbaijan:  LOGGING EQUIPMENT BASE LOCATION
 REGN.                   EESSA:  REGION
 CTRY.              Azerbaijan:  COUNTRY NAME
 FLD .                     ACG:  FIELD NAME
 SRVC.          Turan Drilling:  CONTRACTOR
 WELL.                     B41:  WELL NAME
 RIG .           Central Azeri:  RIG NAME
 DCON.         Sperry Drilling:  DIRECTNL CONTR
 PDAT.          Mean Sea Level:  PERMANENT DATUM
 MDS .        Operator Entered:  MAG DATA SOURCE
 API .                        :  API NUMBER
 CNTY.                        :  COUNTY
 PROV.                        :  PROVINCE
 STAT.                        :  STATE
 UWI .                        :  UNIQUE WELL IDENTIFIER
 LOC .                        :  LOCATION
 LMF .             Drill Floor:  LOG MEASURED FROM
 TVDS.m                  43.29:  TVDSS CORRECTN
 LATI.deg                40.03:  LATITUDE
 LONG.deg                51.35:  LONGITUDE
 WHNS.m                  12.98:  WELL HEAD N/S
 WHEW.m                  -6.62:  WELL HEAD E/W
 UTMX.m              530128.28:  UTM X
 UTMY.m             4433192.49:  UTM Y
 DFWL.m                   0.00:  DISTANCE FWL
 DFSL.m                   0.00:  DISTANCE FSL
 SDEP.m                 378.00:  START DEPTH
 TDD .m                   0.00:  TOTAL DEPTH (DRILLER)
 VSDR.deg               296.18:  VERT SEC DIRECT
 GVFD.g                   1.00:  GRAVITY FIELD
 MFLD.nT              50253.00:  MAGNETIC FIELD
 MDIP.deg                59.49:  MAGNETIC DIP
 MDEC.deg                 6.44:  MAGNETIC DECL
 GRDC.deg                 0.22:  GRID CORRECTION
 AZTC.deg                 6.22:  AZM TOTAL CORR
 EPD .m                   0.00:  ELEVATION
 EGL .m                   0.00:  GROUND ELEVATION
 WDMS.m                 128.20:  WD ELEV
 APD .m                  43.29:  DEPTH ABOVE PD
 AGAP.m                  43.29:  AIR GAP
 VSEW.m                  -6.62:  VERT SEC E/W
 VSNS.m                  12.98:  VERT SEC N/S
 EKB .m                  43.29:  KB ELEVATION
 EDF .m                  43.29:  DF ELEVATION
 TDL .m                1152.00:  TOTAL DEPTH (LOGGER)
 VSC .                       0:  VS TO CLOSURE
 MAGU.                 1848525:  MAGUTM CHECKSUM
~Parameter Information Block
#MNEM.UNIT       Value        Description
#---------     -----------    ---------------------------
 AV  .mps                 0.40:  Ann Velocity 
 AVMX.mps                 1.56:  Max Ann Veloc 
 AZIF.deg               300.46:  Azm, Final 
 BHAT.        Rotary Steerable:  BHA Type 
 BROT.°/30m               0.40:  Build Rotating 
 BS  .in                 17.50:  Bit Size 
 BSZ .in                 17.50:  Bit Size 
 BTPL.psig              300.00:  Bit Press Loss 
 CABU.                      No:  Customer Abuse 
 CGEO.          Parviz Guliyev:  Customer Geo 
 TCS .hr                108.13:  Time Ciculation Ended 
 CV  .mps                 0.50:  Crit Velocity 
 CVMX.mps                 2.01:  Max Crit Veloc 
 DD1 .          Fariz Nahmatov:  Direct Drillr 1 
 DD2 .             Ehab Radwan:  Direct Drillr 2 
 DDSV.               Geo-Pilot:  DD Service 
 DEFF.%                  99.00:  % Det Eff 
 DLRX.°/30m               0.50:  Dogleg Rot Max 
 DLSO.°/30m               2.80:  Dogleg Oriented 
 DLSX.°/30m               3.90:  Dogleg Str Max 
 DRET.      09.30.04 03-Jul-20:  Drill End Time 
 DRST.      18.33.04 28-Jun-20:  Drill Start Tim 
 DTIM.hr                 55.83:  Time Drilling 
 EDEP.m                1952.00:  End Depth 
 ENG1.      Bakhtiyar Jabbarli:  Engineer 1 
 ENG2.         Farhad Orujzade:  Engineer 2 
 ENG3.          Rustam Safarov:  Engineer 3 
 ETIM.      01.33.04 04-Jul-20:  End Time 
 FLOI.gpm              1050.00:  Flow In 
 FLON.gpm               950.00:  Flow In Min 
 FLOS.cptm                0.10:  Fluid Loss 
 FLOX.gpm              1150.00:  Flow In Max 
 HFLO.                      No:  High Flow 
 HPRE.                      No:  High Pressure 
 HTEM.                      No:  High Temp 
 HYDO.m                   1.80:  Hydro Offset 
 IFIN.deg                75.26:  Inc, Final 
 IMAX.deg                75.38:  Inc Max 
 IMIN.deg                22.84:  Inc Min 
 IMND.m                 832.38:  Inc Min Depth 
 IMXD.m                1936.55:  Inc Max Depth 
 JARR.                      No:  Jarring 
 LETM.      17.40.00 04-Jul-20:  Log End Time 
 LOST.hr                     0:  Lost Rig Time 
 LSTM.      12.33.04 28-Jun-20:  Log Start Time 
 MDCL.ppm             49500.00:  Mud Chlorides 
 MDES.     Inversion Oil/Synthetic:  Mud Desc 
 DFD .sg                  1.46:  Mud Density 
 MDMN.sg                  1.46:  Dens Mud Min 
 MDMX.sg                  1.46:  Dens Mud Max 
 MOIL.                      70:  Run Mud Oil % 
 MOWR.                   70:30:  Run Mud OWR 
 MSND.                     0.5:  Run Mud Sand % 
 MSOL.                   19.89:  Run Mud Solids% 
 DFV .spqt               72.00:  Mud Viscosity 
 MWOD.in                  9.50:  MWD Tool OD 
 MWSI.                      No:  Serv Intrp, MWD 
 OTIM.hr                146.53:  Time Operating 
 PCON.           Look Like New:  Pad Condition 
 PMAX.psia             2900.00:  Press Op, Max 
 PV  .cP                 38.00:  Mud PV 
 RUN .                     600:  Run Number 
 ROPA.m/hr               22.00:  ROP Avg 
 ROPN.m/hr               10.00:  ROP Min 
 ROPX.m/hr              263.00:  ROP Max 
 RPMA.rpm               155.00:  RPM Surface Avg 
 RPMN.rpm               140.00:  RPM Surface Min 
 RPMX.rpm               160.00:  RPM Surface Max 
 RRUN.                    0600:  Rig Run Number 
 RTIM.hr                  5.00:  Time Reaming 
 SAZI.deg               300.08:  Azm, Start 
 SDEP.m                 800.00:  Start Depth 
 SIDD.                      No:  Serv Intrp, DD 
 SINC.deg                22.84:  Inc, Start 
 SPPA.psig             3000.00:  SPP Avg 
 SPPN.psig             1900.00:  SPP Min 
 SPPX.psig             3200.00:  SPP Max 
 STIM.      12.30.04 28-Jun-20:  Start Time 
 SVCS.                 DD, MWD:  Services 
 SVER.                    9.20:  Sperry Version 
 TDAT.m                1952.00:  Tot Depth Attmp 
 TDDF.                      No:  Trip for DD 
 TDLG.m                1152.00:  Tot Depth Loggd 
 TFF .                      No:  Trip for Fail 
 TQAA.f-kp                8.00:  Torque Abs Avg 
 TQAN.f-kp                5.00:  Torque Abs Min 
 TQAX.f-kp               14.00:  Torque Abs Max 
 TRRT.°/30m               0.50:  Turn Rotating 
 MRT .                  EWR-M5:  Maximum Recorded Temperature 
 TTMX.degC               69.00:  Max Tool Temp 
 VS01.                90610313:  Virtual Str1 SN 
 VS02.                90613431:  Virtual Str2 SN 
 VS03.                90615410:  Virtual Str3 SN 
 WBMN.klb                 6.00:  WOB Min 
 WITN.            Bruce Cheyne:  Customer Rep 
 WITN.             Ayaz Aliyev:  Customer Rep 2 
 WOBA.klb                 6.00:  WOB Avg 
 WOBX.klb                10.00:  WOB Max 
 YP  .lhf2               36.00:  Yield Point 
~Curve Information Block
#MNEM.UNIT                 API CODE     Curve Description
#---------               -----------    ---------------------------
 TIME.HHMMSS            00 000 000 000:  GT Time & Date
 GTET.sec               00 000 000 000:  GT Elapsed Test Time
 GTPQH.psia             00 000 000 000:  GT HR Quartz Pressure
 GTDEPTH.m              00 000 000 000:  GT Depth
 GTTVD.m                00 000 000 000:  GT True Vertical Depth
 GTTQ.degC              00 000 000 000:  GT Quartz Temperature
 GTTN.NONE              00 000 000 000:  GT Test Number
#Other Information
#
#WARRANTY: Halliburton will use its best efforts to furnish customers with 
#accurate information and interpretations that are part of, and incident to, the services 
#provided.  However, Halliburton cannot and does not warrant the accuracy 
#or correctness of such information and interpretations.  Under no circumstances should any 
#such information or interpretation be relied upon as the sole basis for any drilling, 
#completion, production, or financial decision or any procedure involving any risk to the 
#safety of any drilling venture, drilling rig or its crew or any other third party.  The 
#Customer has full responsibility for all drilling, completion and production operation.  
#Halliburton makes no representations or warranties, either expressed or 
#implied, including, but not limited to, the implied warranties of merchantability or fitness 
#for a particular purpose, with respect to the services rendered.  In no event will 
#Halliburton be liable for failure to obtain any particular results or for 
#any damages, including, but not limited to, indirect, special or consequential damages, 
#resulting from the use of any information or interpretation provided by Halliburton.
#
~A           TIME            GTET   GTPQH  GTDEPTH  GTTVD  GTTQ  GTTN 
   06:27:04.000.01-Jul-2020   0.00 2447.27 1257.48 1159.06 54.90 5.00
   06:27:04.200.01-Jul-2020   0.20 2447.27 1257.48 1159.06 54.90 5.00
   06:27:04.400.01-Jul-2020   0.40 2448.93 1257.48 1159.06 54.90 5.00
   06:27:04.600.01-Jul-2020   0.60 2449.15 1257.48 1159.06 54.90 5.00
   06:27:04.800.01-Jul-2020   0.80 2448.66 1257.48 1159.06 54.90 5.00
   06:27:05.000.01-Jul-2020   1.00 2448.55 1257.48 1159.06 54.90 5.00
   06:27:05.200.01-Jul-2020   1.20 2448.55 1257.48 1159.06 54.90 5.00
   06:27:05.400.01-Jul-2020   1.40 2450.26 1257.48 1159.06 54.90 5.00
   06:27:05.600.01-Jul-2020   1.60 2451.06 1257.48 1159.06 54.90 5.00
   06:27:05.800.01-Jul-2020   1.80 2450.94 1257.48 1159.06 54.90 5.00
   06:27:06.000.01-Jul-2020   2.00 2451.92 1257.48 1159.06 54.90 5.00
   06:27:06.200.01-Jul-2020   2.20 2451.92 1257.48 1159.06 54.90 5.00
   06:27:06.400.01-Jul-2020   2.40 2451.92 1257.48 1159.06 54.90 5.00
   06:27:06.600.01-Jul-2020   2.60 2454.94 1257.48 1159.06 54.90 5.00
   06:27:06.800.01-Jul-2020   2.80 2455.43 1257.48 1159.06 54.90 5.00
   06:27:07.000.01-Jul-2020   3.00 2455.20 1257.48 1159.06 54.90 5.00
   06:27:07.200.01-Jul-2020   3.20 2455.20 1257.48 1159.06 54.90 5.00
   06:27:07.400.01-Jul-2020   3.40 2458.29 1257.48 1159.06 54.90 5.00
   06:27:07.600.01-Jul-2020   3.60 2458.03 1257.48 1159.06 54.90 5.00
   06:27:07.800.01-Jul-2020   3.80 2457.37 1257.48 1159.06 54.90 5.00
   06:27:08.000.01-Jul-2020   4.00 2458.16 1257.48 1159.06 54.90 5.00
   06:27:08.200.01-Jul-2020   4.20 2458.16 1257.48 1159.06 54.90 5.00
   06:27:08.400.01-Jul-2020   4.40 2459.19 1257.48 1159.06 54.89 5.00
   06:27:08.600.01-Jul-2020   4.60 2458.90 1257.48 1159.06 54.89 5.00
   06:27:08.800.01-Jul-2020   4.80 2458.88 1257.48 1159.06 54.89 5.00
   06:27:09.000.01-Jul-2020   5.00 2457.98 1257.48 1159.06 54.89 5.00
   06:27:09.200.01-Jul-2020   5.20 2457.98 1257.48 1159.06 54.89 5.00
   06:27:09.400.01-Jul-2020   5.40 2458.01 1257.48 1159.06 54.89 5.00
   06:27:09.600.01-Jul-2020   5.60 2457.00 1257.48 1159.06 54.89 5.00
   06:27:09.800.01-Jul-2020   5.80 2457.34 1257.48 1159.06 54.89 5.00
   06:27:10.000.01-Jul-2020   6.00 2456.05 1257.48 1159.06 54.89 5.00
   06:27:10.200.01-Jul-2020   6.20 2456.05 1257.48 1159.06 54.89 5.00
   06:27:10.400.01-Jul-2020   6.40 2456.08 1257.48 1159.06 54.89 5.00
   06:27:10.600.01-Jul-2020   6.60 2454.78 1257.48 1159.06 54.89 5.00
   06:27:10.800.01-Jul-2020   6.80 2454.63 1257.48 1159.06 54.89 5.00
   06:27:11.000.01-Jul-2020   7.00 2454.41 1257.48 1159.06 54.89 5.00
   06:27:11.200.01-Jul-2020   7.20 2452.32 1257.48 1159.06 54.89 5.00
   06:27:11.400.01-Jul-2020   7.40 2452.92 1257.48 1159.06 54.89 5.00
   06:27:11.600.01-Jul-2020   7.60 2452.00 1257.48 1159.06 54.89 5.00
   06:27:11.800.01-Jul-2020   7.80 2451.64 1257.48 1159.06 54.89 5.00
   06:27:12.000.01-Jul-2020   8.00 2452.21 1257.48 1159.06 54.89 5.00
   06:27:12.200.01-Jul-2020   8.20 2452.21 1257.48 1159.06 54.89 5.00
   06:27:12.400.01-Jul-2020   8.40 2451.43 1257.48 1159.06 54.89 5.00
   06:27:12.600.01-Jul-2020   8.60 2451.30 1257.48 1159.06 54.89 5.00
   06:27:12.800.01-Jul-2020   8.80 2450.78 1257.48 1159.06 54.89 5.00
   06:27:13.000.01-Jul-2020   9.00 2451.41 1257.48 1159.06 54.89 5.00
   06:27:13.200.01-Jul-2020   9.20 2451.41 1257.48 1159.06 54.89 5.00
   06:27:13.400.01-Jul-2020   9.40 2451.40 1257.48 1159.06 54.89 5.00
   06:27:13.600.01-Jul-2020   9.60 2451.49 1257.48 1159.06 54.89 5.00
   06:27:13.800.01-Jul-2020   9.80 2450.92 1257.48 1159.06 54.89 5.00
   06:27:14.000.01-Jul-2020  10.00 2452.11 1257.48 1159.06 54.89 5.00
   06:27:14.200.01-Jul-2020  10.20 2452.11 1257.48 1159.06 54.89 5.00
   06:27:14.400.01-Jul-2020  10.40 2452.78 1257.48 1159.06 54.89 5.00
   06:27:14.600.01-Jul-2020  10.60 2453.60 1257.48 1159.06 54.89 5.00
   06:27:14.800.01-Jul-2020  10.80 2452.94 1257.48 1159.06 54.89 5.00
   06:27:15.000.01-Jul-2020  11.00 2454.06 1257.48 1159.06 54.89 5.00
   06:27:15.200.01-Jul-2020  11.20 2453.35 1257.48 1159.06 54.89 5.00
   06:27:15.400.01-Jul-2020  11.40 2454.50 1257.48 1159.06 54.89 5.00
   06:27:15.600.01-Jul-2020  11.60 2455.42 1257.48 1159.06 54.89 5.00
   06:27:15.800.01-Jul-2020  11.80 2454.78 1257.48 1159.06 54.89 5.00
   06:27:16.000.01-Jul-2020  12.00 2455.55 1257.48 1159.06 54.89 5.00
   06:27:16.200.01-Jul-2020  12.20 2455.55 1257.48 1159.06 54.89 5.00
   06:27:16.400.01-Jul-2020  12.40 2456.26 1257.48 1159.06 54.89 5.00
   06:27:16.600.01-Jul-2020  12.60 2456.43 1257.48 1159.06 54.89 5.00
   06:27:16.800.01-Jul-2020  12.80 2455.85 1257.48 1159.06 54.89 5.00
   06:27:17.000.01-Jul-2020  13.00 2455.99 1257.48 1159.06 54.89 5.00
   06:27:17.200.01-Jul-2020  13.20 2455.99 1257.48 1159.06 54.89 5.00
   06:27:17.400.01-Jul-2020  13.40 2456.62 1257.48 1159.06 54.89 5.00
   06:27:17.600.01-Jul-2020  13.60 2456.57 1257.48 1159.06 54.89 5.00
   06:27:17.800.01-Jul-2020  13.80 2456.10 1257.48 1159.06 54.89 5.00
   06:27:18.000.01-Jul-2020  14.00 2456.09 1257.48 1159.06 54.89 5.00
   06:27:18.200.01-Jul-2020  14.20 2456.09 1257.48 1159.06 54.89 5.00
   06:27:18.400.01-Jul-2020  14.40 2456.04 1257.48 1159.06 54.88 5.00
   06:27:18.600.01-Jul-2020  14.60 2455.75 1257.48 1159.06 54.88 5.00
   06:27:18.800.01-Jul-2020  14.80 2454.81 1257.48 1159.06 54.88 5.00
   06:27:19.000.01-Jul-2020  15.00 2453.87 1257.48 1159.06 54.88 5.00
   06:27:19.200.01-Jul-2020  15.20 2454.72 1257.48 1159.06 54.88 5.00
   06:27:19.400.01-Jul-2020  15.40 2454.15 1257.48 1159.06 54.88 5.00
   06:27:19.600.01-Jul-2020  15.60 2453.78 1257.48 1159.06 54.88 5.00
   06:27:19.800.01-Jul-2020  15.80 2453.62 1257.48 1159.06 54.88 5.00
   06:27:20.000.01-Jul-2020  16.00 2453.37 1257.48 1159.06 54.88 5.00
   06:27:20.200.01-Jul-2020  16.20 2453.37 1257.48 1159.06 54.88 5.00
   06:27:20.400.01-Jul-2020  16.40 2452.92 1257.48 1159.06 54.88 5.00
   06:27:20.600.01-Jul-2020  16.60 2452.01 1257.48 1159.06 54.88 5.00
   06:27:20.800.01-Jul-2020  16.80 2452.16 1257.48 1159.06 54.88 5.00
   06:27:21.000.01-Jul-2020  17.00 2452.09 1257.48 1159.06 54.88 5.00
   06:27:21.200.01-Jul-2020  17.20 2452.09 1257.48 1159.06 54.88 5.00
   06:27:21.400.01-Jul-2020  17.40 2451.84 1257.48 1159.06 54.88 5.00
   06:27:21.600.01-Jul-2020  17.60 2451.81 1257.48 1159.06 54.88 5.00
   06:27:21.800.01-Jul-2020  17.80 2452.15 1257.48 1159.06 54.88 5.00
   06:27:22.000.01-Jul-2020  18.00 2452.57 1257.48 1159.06 54.88 5.00
   06:27:22.200.01-Jul-2020  18.20 2452.57 1257.48 1159.06 54.88 5.00
   06:27:22.400.01-Jul-2020  18.40 2452.33 1257.48 1159.06 54.88 5.00
   06:27:22.600.01-Jul-2020  18.60 2452.17 1257.48 1159.06 54.88 5.00
   06:27:22.800.01-Jul-2020  18.80 2451.12 1257.48 1159.06 54.88 5.00
   06:27:23.000.01-Jul-2020  19.00 2452.62 1257.48 1159.06 54.88 5.00
   06:27:23.200.01-Jul-2020  19.20 2452.94 1257.48 1159.06 54.88 5.00
   06:27:23.400.01-Jul-2020  19.40 2453.04 1257.48 1159.06 54.88 5.00
   06:27:23.600.01-Jul-2020  19.60 2453.59 1257.48 1159.06 54.88 5.00
   06:27:23.800.01-Jul-2020  19.80 2452.50 1257.48 1159.06 54.88 5.00
   06:27:24.000.01-Jul-2020  20.00 2454.09 1257.48 1159.06 54.88 5.00
   06:27:24.200.01-Jul-2020  20.20 2454.09 1257.48 1159.06 54.88 5.00
   06:27:24.400.01-Jul-2020  20.40 2453.83 1257.48 1159.06 54.88 5.00
   06:27:24.600.01-Jul-2020  20.60 2454.55 1257.48 1159.06 54.88 5.00
   06:27:24.800.01-Jul-2020  20.80 2453.26 1257.48 1159.06 54.88 5.00
   06:27:25.000.01-Jul-2020  21.00 2454.73 1257.48 1159.06 54.88 5.00
   06:27:25.200.01-Jul-2020  21.20 2454.73 1257.48 1159.06 54.88 5.00
   06:27:25.400.01-Jul-2020  21.40 2454.01 1257.48 1159.06 54.88 5.00
   06:27:25.600.01-Jul-2020  21.60 2453.82 1257.48 1159.06 54.88 5.00
   06:27:25.800.01-Jul-2020  21.80 2455.57 1257.48 1159.06 54.88 5.00
   06:27:26.000.01-Jul-2020  22.00 2455.95 1257.48 1159.06 54.88 5.00
   06:27:26.200.01-Jul-2020  22.20 2455.95 1257.48 1159.06 54.88 5.00
   06:27:26.400.01-Jul-2020  22.40 2453.26 1257.48 1159.06 54.88 5.00
   06:27:26.600.01-Jul-2020  22.60 2454.80 1257.48 1159.06 54.88 5.00
   06:27:26.800.01-Jul-2020  22.80 2455.38 1257.48 1159.06 54.88 5.00
