~Version Information
 VERS.                  2.0:   CWLS log ASCII Standard -VERSION 2.0
 WRAP.                   NO:   One line per depth step
~Well Information Block
#MNEM.UNIT     VALUE/NAME     DESCRIPTION
#---------     -----------    ---------------------------
 STRT.S             23:30:34 30-Jun-20: START TIME 23:30:34 30-Jun-20
 STOP.S             23:39:34 30-Jun-20: STOP TIME  23:39:34 30-Jun-20
 STEP.S                   0.00: STEP TIME
 NULL.                 -999.25: NULL VALUE
 DFWT.                        :  DIST FWL TEXT
 DFST.                        :  DIST FSL TEXT
 DMF .             Drill Floor:  DRILL MEAS FROM
 STIM.      09.59.28 01-Jun-20:  START TIME
 DATE.      09.59.28 01-Jun-20:  END TIME
 SPUD.               01-Jun-20:  SPUD DATE
 NREF.                    Grid:  NORTH REFERENCE
 HPTY.       Minimum Curvature:  HOLE POS TYPE
 DMOD.             Drill Model:  DRILL MOD DESC
 SVYD.                  Survey:  SURVEY DESC
 ILTD.               Lithology:  INTERP LTH DESC
 FTOP.          Formation Tops:  FORM TOPS DESC
 SON .        AZ-XX-0905455768:  JOB NUMBER
 WTYP.                Deviated:  WELL TYPE
 COMP.     BP Exploration(Caspian Sea):  COMPANY
 BASE.              Azerbaijan:  LOGGING EQUIPMENT BASE LOCATION
 REGN.                   EESSA:  REGION
 CTRY.              Azerbaijan:  COUNTRY NAME
 FLD .                     ACG:  FIELD NAME
 SRVC.          Turan Drilling:  CONTRACTOR
 WELL.                     B41:  WELL NAME
 RIG .           Central Azeri:  RIG NAME
 DCON.         Sperry Drilling:  DIRECTNL CONTR
 PDAT.          Mean Sea Level:  PERMANENT DATUM
 MDS .        Operator Entered:  MAG DATA SOURCE
 API .                        :  API NUMBER
 CNTY.                        :  COUNTY
 PROV.                        :  PROVINCE
 STAT.                        :  STATE
 UWI .                        :  UNIQUE WELL IDENTIFIER
 LOC .                        :  LOCATION
 LMF .             Drill Floor:  LOG MEASURED FROM
 TVDS.m                  43.29:  TVDSS CORRECTN
 LATI.deg                40.03:  LATITUDE
 LONG.deg                51.35:  LONGITUDE
 WHNS.m                  12.98:  WELL HEAD N/S
 WHEW.m                  -6.62:  WELL HEAD E/W
 UTMX.m              530128.28:  UTM X
 UTMY.m             4433192.49:  UTM Y
 DFWL.m                   0.00:  DISTANCE FWL
 DFSL.m                   0.00:  DISTANCE FSL
 SDEP.m                 378.00:  START DEPTH
 TDD .m                   0.00:  TOTAL DEPTH (DRILLER)
 VSDR.deg               296.18:  VERT SEC DIRECT
 GVFD.g                   1.00:  GRAVITY FIELD
 MFLD.nT              50253.00:  MAGNETIC FIELD
 MDIP.deg                59.49:  MAGNETIC DIP
 MDEC.deg                 6.44:  MAGNETIC DECL
 GRDC.deg                 0.22:  GRID CORRECTION
 AZTC.deg                 6.22:  AZM TOTAL CORR
 EPD .m                   0.00:  ELEVATION
 EGL .m                   0.00:  GROUND ELEVATION
 WDMS.m                 128.20:  WD ELEV
 APD .m                  43.29:  DEPTH ABOVE PD
 AGAP.m                  43.29:  AIR GAP
 VSEW.m                  -6.62:  VERT SEC E/W
 VSNS.m                  12.98:  VERT SEC N/S
 EKB .m                  43.29:  KB ELEVATION
 EDF .m                  43.29:  DF ELEVATION
 TDL .m                1152.00:  TOTAL DEPTH (LOGGER)
 VSC .                       0:  VS TO CLOSURE
 MAGU.                 1848525:  MAGUTM CHECKSUM
~Parameter Information Block
#MNEM.UNIT       Value        Description
#---------     -----------    ---------------------------
 AV  .mps                 0.40:  Ann Velocity 
 AVMX.mps                 1.56:  Max Ann Veloc 
 AZIF.deg               300.46:  Azm, Final 
 BHAT.        Rotary Steerable:  BHA Type 
 BROT.°/30m               0.40:  Build Rotating 
 BS  .in                 17.50:  Bit Size 
 BSZ .in                 17.50:  Bit Size 
 BTPL.psig              300.00:  Bit Press Loss 
 CABU.                      No:  Customer Abuse 
 CGEO.          Parviz Guliyev:  Customer Geo 
 COMM.                     œº_:  Run Comments 1 
 TCS .hr                108.13:  Time Ciculation Ended 
 CV  .mps                 0.50:  Crit Velocity 
 CVMX.mps                 2.01:  Max Crit Veloc 
 DD1 .          Fariz Nahmatov:  Direct Drillr 1 
 DD2 .             Ehab Radwan:  Direct Drillr 2 
 DDSV.               Geo-Pilot:  DD Service 
 DEFF.%                  99.00:  % Det Eff 
 DLRX.°/30m               0.50:  Dogleg Rot Max 
 DLSO.°/30m               2.80:  Dogleg Oriented 
 DLSX.°/30m               3.90:  Dogleg Str Max 
 DRET.      09.30.04 03-Jul-20:  Drill End Time 
 DRST.      18.33.04 28-Jun-20:  Drill Start Tim 
 DTIM.hr                 55.83:  Time Drilling 
 EDEP.m                1952.00:  End Depth 
 ENG1.      Bakhtiyar Jabbarli:  Engineer 1 
 ENG2.         Farhad Orujzade:  Engineer 2 
 ENG3.          Rustam Safarov:  Engineer 3 
 ETIM.      01.33.04 04-Jul-20:  End Time 
 FLOI.gpm              1050.00:  Flow In 
 FLON.gpm               950.00:  Flow In Min 
 FLOS.cptm                0.10:  Fluid Loss 
 FLOX.gpm              1150.00:  Flow In Max 
 HFLO.                      No:  High Flow 
 HPRE.                      No:  High Pressure 
 HTEM.                      No:  High Temp 
 HYDO.m                   1.80:  Hydro Offset 
 IFIN.deg                75.26:  Inc, Final 
 IMAX.deg                75.38:  Inc Max 
 IMIN.deg                22.84:  Inc Min 
 IMND.m                 832.38:  Inc Min Depth 
 IMXD.m                1936.55:  Inc Max Depth 
 JARR.                      No:  Jarring 
 LETM.      17.40.00 04-Jul-20:  Log End Time 
 LOST.hr                     0:  Lost Rig Time 
 LSTM.      12.33.04 28-Jun-20:  Log Start Time 
 MDCL.ppm             49500.00:  Mud Chlorides 
 MDES.     Inversion Oil/Synthetic:  Mud Desc 
 DFD .sg                  1.46:  Mud Density 
 MDMN.sg                  1.46:  Dens Mud Min 
 MDMX.sg                  1.46:  Dens Mud Max 
 MOIL.                      70:  Run Mud Oil % 
 MOWR.                   70:30:  Run Mud OWR 
 MSND.                     0.5:  Run Mud Sand % 
 MSOL.                   19.89:  Run Mud Solids% 
 DFV .spqt               72.00:  Mud Viscosity 
 MWOD.in                  9.50:  MWD Tool OD 
 MWSI.                      No:  Serv Intrp, MWD 
 OTIM.hr                146.53:  Time Operating 
 PCON.           Look Like New:  Pad Condition 
 PMAX.psia             2900.00:  Press Op, Max 
 PV  .cP                 38.00:  Mud PV 
 RUN .                     600:  Run Number 
 ROPA.m/hr               22.00:  ROP Avg 
 ROPN.m/hr               10.00:  ROP Min 
 ROPX.m/hr              263.00:  ROP Max 
 RPMA.rpm               155.00:  RPM Surface Avg 
 RPMN.rpm               140.00:  RPM Surface Min 
 RPMX.rpm               160.00:  RPM Surface Max 
 RRUN.                    0600:  Rig Run Number 
 RTIM.hr                  5.00:  Time Reaming 
 SAZI.deg               300.08:  Azm, Start 
 SDEP.m                 800.00:  Start Depth 
 SIDD.                      No:  Serv Intrp, DD 
 SINC.deg                22.84:  Inc, Start 
 SPPA.psig             3000.00:  SPP Avg 
 SPPN.psig             1900.00:  SPP Min 
 SPPX.psig             3200.00:  SPP Max 
 STIM.      12.30.04 28-Jun-20:  Start Time 
 SVCS.                 DD, MWD:  Services 
 SVER.                    9.20:  Sperry Version 
 TDAT.m                1952.00:  Tot Depth Attmp 
 TDDF.                      No:  Trip for DD 
 TDLG.m                1152.00:  Tot Depth Loggd 
 TFF .                      No:  Trip for Fail 
 TQAA.f-kp                8.00:  Torque Abs Avg 
 TQAN.f-kp                5.00:  Torque Abs Min 
 TQAX.f-kp               14.00:  Torque Abs Max 
 TRRT.°/30m               0.50:  Turn Rotating 
 MRT .                  EWR-M5:  Maximum Recorded Temperature 
 TTMX.degC               69.00:  Max Tool Temp 
 VS01.                90610313:  Virtual Str1 SN 
 VS02.                90613431:  Virtual Str2 SN 
 VS03.                90615410:  Virtual Str3 SN 
 WBMN.klb                 6.00:  WOB Min 
 WITN.            Bruce Cheyne:  Customer Rep 
 WITN.             Ayaz Aliyev:  Customer Rep 2 
 WOBA.klb                 6.00:  WOB Avg 
 WOBX.klb                10.00:  WOB Max 
 YP  .lhf2               36.00:  Yield Point 
~Curve Information Block
#MNEM.UNIT                 API CODE     Curve Description
#---------               -----------    ---------------------------
 TIME.HHMMSS            00 000 000 000:  GT Time & Date
 GTET.sec               00 000 000 000:  GT Elapsed Test Time
 GTPQH.psia             00 000 000 000:  GT HR Quartz Pressure
 GTDEPTH.m              00 000 000 000:  GT Depth
 GTTVD.m                00 000 000 000:  GT True Vertical Depth
 GTTQ.degC              00 000 000 000:  GT Quartz Temperature
 GTTN.NONE              00 000 000 000:  GT Test Number
#Other Information
#
#WARRANTY: Halliburton will use its best efforts to furnish customers with 
#accurate information and interpretations that are part of, and incident to, the services 
#provided.  However, Halliburton cannot and does not warrant the accuracy 
#or correctness of such information and interpretations.  Under no circumstances should any 
#such information or interpretation be relied upon as the sole basis for any drilling, 
#completion, production, or financial decision or any procedure involving any risk to the 
#safety of any drilling venture, drilling rig or its crew or any other third party.  The 
#Customer has full responsibility for all drilling, completion and production operation.  
#Halliburton makes no representations or warranties, either expressed or 
#implied, including, but not limited to, the implied warranties of merchantability or fitness 
#for a particular purpose, with respect to the services rendered.  In no event will 
#Halliburton be liable for failure to obtain any particular results or for 
#any damages, including, but not limited to, indirect, special or consequential damages, 
#resulting from the use of any information or interpretation provided by Halliburton.
#
~A           TIME            GTET   GTPQH  GTDEPTH  GTTVD  GTTQ  GTTN 
# ...
   23:35:10.565.30-Jun-2020 276.08 2110.05 1161.05 1096.50 59.67 4.00
   23:35:10.765.30-Jun-2020 276.28 2110.05 1161.05 1096.50 59.67 4.00
   23:35:10.965.30-Jun-2020 276.48 2110.04 1161.05 1096.50 59.67 4.00
   23:35:11.165.30-Jun-2020 276.68 2110.02 1161.05 1096.50 59.67 4.00
   23:35:11.366.30-Jun-2020 276.88 2110.06 1161.05 1096.50 59.67 4.00
   23:35:11.566.30-Jun-2020 277.08 2110.05 1161.05 1096.50 59.67 4.00
   23:35:11.766.30-Jun-2020 277.28 2110.05 1161.05 1096.50 59.67 4.00
   23:35:11.966.30-Jun-2020 277.48 2110.05 1161.05 1096.50 59.67 4.00
   23:35:12.166.30-Jun-2020 277.68 2110.04 1161.05 1096.50 59.67 4.00
   23:35:12.366.30-Jun-2020 277.88 2110.05 1161.05 1096.50 59.67 4.00
   23:35:12.566.30-Jun-2020 278.08 2110.02 1161.05 1096.50 59.67 4.00
   23:35:12.766.30-Jun-2020 278.28 2110.02 1161.05 1096.50 59.67 4.00
   23:35:12.966.30-Jun-2020 278.48 2110.06 1161.05 1096.50 59.67 4.00
   23:35:13.166.30-Jun-2020 278.68 2110.05 1161.05 1096.50 59.67 4.00
   23:35:13.366.30-Jun-2020 278.88 2110.05 1161.05 1096.50 59.67 4.00
   23:35:13.566.30-Jun-2020 279.08 2110.04 1161.05 1096.50 59.67 4.00
   23:35:13.766.30-Jun-2020 279.28 2110.06 1161.05 1096.50 59.67 4.00
   23:35:13.966.30-Jun-2020 279.48 2110.04 1161.05 1096.50 59.67 4.00
   23:35:14.166.30-Jun-2020 279.68 2110.05 1161.05 1096.50 59.67 4.00
   23:35:14.366.30-Jun-2020 279.88 2110.05 1161.05 1096.50 59.67 4.00
   23:35:14.566.30-Jun-2020 280.08 2110.06 1161.05 1096.50 59.67 4.00
   23:35:14.767.30-Jun-2020 280.28 2110.06 1161.05 1096.50 59.67 4.00
   23:35:14.967.30-Jun-2020 280.48 2110.04 1161.05 1096.50 59.67 4.00
   23:35:15.167.30-Jun-2020 280.68 2110.06 1161.05 1096.50 59.67 4.00
   23:35:15.367.30-Jun-2020 280.88 2110.06 1161.05 1096.50 59.67 4.00
   23:35:15.567.30-Jun-2020 281.08 2110.05 1161.05 1096.50 59.67 4.00
   23:35:15.767.30-Jun-2020 281.28 2110.05 1161.05 1096.50 59.67 4.00
   23:35:15.967.30-Jun-2020 281.48 2110.06 1161.05 1096.50 59.67 4.00
   23:35:16.167.30-Jun-2020 281.68 2110.04 1161.05 1096.50 59.67 4.00
   23:35:16.367.30-Jun-2020 281.88 2110.03 1161.05 1096.50 59.67 4.00
   23:35:16.567.30-Jun-2020 282.08 2110.08 1161.05 1096.50 59.68 4.00
   23:35:16.767.30-Jun-2020 282.28 2110.08 1161.05 1096.50 59.68 4.00
   23:35:16.967.30-Jun-2020 282.48 2110.06 1161.05 1096.50 59.67 4.00
   23:35:17.167.30-Jun-2020 282.68 2110.06 1161.05 1096.50 59.67 4.00
   23:35:17.367.30-Jun-2020 282.88 2110.06 1161.05 1096.50 59.67 4.00
   23:35:17.567.30-Jun-2020 283.08 2110.05 1161.05 1096.50 59.67 4.00
   23:35:17.767.30-Jun-2020 283.28 2110.06 1161.05 1096.50 59.68 4.00
   23:35:17.967.30-Jun-2020 283.48 2110.06 1161.05 1096.50 59.67 4.00
   23:35:18.168.30-Jun-2020 283.68 2110.06 1161.05 1096.50 59.67 4.00
   23:35:18.368.30-Jun-2020 283.88 2110.06 1161.05 1096.50 59.68 4.00
   23:35:18.568.30-Jun-2020 284.08 2110.06 1161.05 1096.50 59.68 4.00
   23:35:18.768.30-Jun-2020 284.28 2110.06 1161.05 1096.50 59.68 4.00
   23:35:18.968.30-Jun-2020 284.48 2110.09 1161.05 1096.50 59.67 4.00
   23:35:19.168.30-Jun-2020 284.68 2110.09 1161.05 1096.50 59.68 4.00
   23:35:19.368.30-Jun-2020 284.88 2110.08 1161.05 1096.50 59.67 4.00
   23:35:19.568.30-Jun-2020 285.08 2110.08 1161.05 1096.50 59.68 4.00
   23:35:19.768.30-Jun-2020 285.28 2110.08 1161.05 1096.50 59.68 4.00
   23:35:19.968.30-Jun-2020 285.48 2110.06 1161.05 1096.50 59.68 4.00
   23:35:20.168.30-Jun-2020 285.68 2110.09 1161.05 1096.50 59.67 4.00
   23:35:20.368.30-Jun-2020 285.88 2110.08 1161.05 1096.50 59.68 4.00
   23:35:20.568.30-Jun-2020 286.08 2110.08 1161.05 1096.50 59.68 4.00
   23:35:20.768.30-Jun-2020 286.28 2110.09 1161.05 1096.50 59.68 4.00
   23:35:20.968.30-Jun-2020 286.48 2110.07 1161.05 1096.50 59.68 4.00
   23:35:21.168.30-Jun-2020 286.68 2110.08 1161.05 1096.50 59.68 4.00
   23:35:21.368.30-Jun-2020 286.88 2110.09 1161.05 1096.50 59.68 4.00
   23:35:21.569.30-Jun-2020 287.08 2110.08 1161.05 1096.50 59.68 4.00
   23:35:21.769.30-Jun-2020 287.28 2110.08 1161.05 1096.50 59.68 4.00
   23:35:21.969.30-Jun-2020 287.48 2110.09 1161.05 1096.50 59.68 4.00
   23:35:22.169.30-Jun-2020 287.68 2110.07 1161.05 1096.50 59.68 4.00
   23:35:22.369.30-Jun-2020 287.88 2110.08 1161.05 1096.50 59.68 4.00
   23:35:22.569.30-Jun-2020 288.08 2110.10 1161.05 1096.50 59.68 4.00
   23:35:22.769.30-Jun-2020 288.28 2110.10 1161.05 1096.50 59.68 4.00
   23:35:22.969.30-Jun-2020 288.48 2110.09 1161.05 1096.50 59.68 4.00
   23:35:23.169.30-Jun-2020 288.68 2110.08 1161.05 1096.50 59.68 4.00
   23:35:23.369.30-Jun-2020 288.88 2110.09 1161.05 1096.50 59.68 4.00
   23:35:23.569.30-Jun-2020 289.08 2110.08 1161.05 1096.50 59.68 4.00
   23:35:23.769.30-Jun-2020 289.28 2110.08 1161.05 1096.50 59.68 4.00
   23:35:23.969.30-Jun-2020 289.48 2110.09 1161.05 1096.50 59.68 4.00
   23:35:24.169.30-Jun-2020 289.68 2110.09 1161.05 1096.50 59.68 4.00
   23:35:24.369.30-Jun-2020 289.88 2110.08 1161.05 1096.50 59.68 4.00
   23:35:24.569.30-Jun-2020 290.08 2110.09 1161.05 1096.50 59.68 4.00
   23:35:24.769.30-Jun-2020 290.28 2110.09 1161.05 1096.50 59.68 4.00
   23:35:24.970.30-Jun-2020 290.48 2110.09 1161.05 1096.50 59.68 4.00
   23:35:25.170.30-Jun-2020 290.68 2110.09 1161.05 1096.50 59.68 4.00
   23:35:25.370.30-Jun-2020 290.88 2110.09 1161.05 1096.50 59.68 4.00
   23:35:25.570.30-Jun-2020 291.08 2110.09 1161.05 1096.50 59.68 4.00
   23:35:25.770.30-Jun-2020 291.28 2110.09 1161.05 1096.50 59.68 4.00
   23:35:25.970.30-Jun-2020 291.48 2110.08 1161.05 1096.50 59.68 4.00
   23:35:26.170.30-Jun-2020 291.68 2110.09 1161.05 1096.50 59.68 4.00
   23:35:26.370.30-Jun-2020 291.88 2110.10 1161.05 1096.50 59.68 4.00
   23:35:26.570.30-Jun-2020 292.08 2110.10 1161.05 1096.50 59.68 4.00
   23:35:26.770.30-Jun-2020 292.28 2110.10 1161.05 1096.50 59.68 4.00
   23:35:26.970.30-Jun-2020 292.48 2110.09 1161.05 1096.50 59.68 4.00
   23:35:27.170.30-Jun-2020 292.69 2110.09 1161.05 1096.50 59.68 4.00
   23:35:27.370.30-Jun-2020 292.89 2110.09 1161.05 1096.50 59.68 4.00
   23:35:27.570.30-Jun-2020 293.09 2110.09 1161.05 1096.50 59.68 4.00
   23:35:27.770.30-Jun-2020 293.29 2110.09 1161.05 1096.50 59.68 4.00
   23:35:27.970.30-Jun-2020 293.49 2110.09 1161.05 1096.50 59.68 4.00
   23:35:28.170.30-Jun-2020 293.69 2110.10 1161.05 1096.50 59.68 4.00
   23:35:28.370.30-Jun-2020 293.89 2110.08 1161.05 1096.50 59.68 4.00
   23:35:28.571.30-Jun-2020 294.09 2110.11 1161.05 1096.50 59.68 4.00
   23:35:28.771.30-Jun-2020 294.29 2110.11 1161.05 1096.50 59.68 4.00
   23:35:28.971.30-Jun-2020 294.49 2110.11 1161.05 1096.50 59.68 4.00
   23:35:29.171.30-Jun-2020 294.69 2110.11 1161.05 1096.50 59.68 4.00
   23:35:29.371.30-Jun-2020 294.89 2110.09 1161.05 1096.50 59.68 4.00
   23:35:29.571.30-Jun-2020 295.09 2110.09 1161.05 1096.50 59.68 4.00
   23:35:29.771.30-Jun-2020 295.29 2110.13 1161.05 1096.50 59.68 4.00
   23:35:29.971.30-Jun-2020 295.49 2110.12 1161.05 1096.50 59.68 4.00
   23:35:30.171.30-Jun-2020 295.69 2110.12 1161.05 1096.50 59.68 4.00
   23:35:30.371.30-Jun-2020 295.89 2110.12 1161.05 1096.50 59.68 4.00
   23:35:30.571.30-Jun-2020 296.09 2110.08 1161.05 1096.50 59.68 4.00
   23:35:30.771.30-Jun-2020 296.29 2110.08 1161.05 1096.50 59.68 4.00
   23:35:30.971.30-Jun-2020 296.49 2110.13 1161.05 1096.50 59.68 4.00
   23:35:31.171.30-Jun-2020 296.69 2110.12 1161.05 1096.50 59.68 4.00
   23:35:31.371.30-Jun-2020 296.89 2110.12 1161.05 1096.50 59.68 4.00
   23:35:31.571.30-Jun-2020 297.09 2110.12 1161.05 1096.50 59.68 4.00
   23:35:31.771.30-Jun-2020 297.29 2110.12 1161.05 1096.50 59.68 4.00
   23:35:31.972.30-Jun-2020 297.49 2110.09 1161.05 1096.50 59.68 4.00
   23:35:32.172.30-Jun-2020 297.69 2110.14 1161.05 1096.50 59.68 4.00
   23:35:32.372.30-Jun-2020 297.89 2110.13 1161.05 1096.50 59.68 4.00
   23:35:32.572.30-Jun-2020 298.09 2110.13 1161.05 1096.50 59.68 4.00
   23:35:32.772.30-Jun-2020 298.29 2110.13 1161.05 1096.50 59.68 4.00
   23:35:32.972.30-Jun-2020 298.49 2110.11 1161.05 1096.50 59.68 4.00
   23:35:33.172.30-Jun-2020 298.69 2110.12 1161.05 1096.50 59.68 4.00
   23:35:33.372.30-Jun-2020 298.89 2110.12 1161.05 1096.50 59.68 4.00
