~Version Information
 VERS.                  2.0:   CWLS log ASCII Standard -VERSION 2.0
 WRAP.                   NO:   One line per depth step
~Well Information Block
#MNEM.UNIT     VALUE/NAME     DESCRIPTION
#---------     -----------    ---------------------------
 STRT.S             16:15:55 30-Jun-20: START TIME 16:15:55 30-Jun-20
 STOP.S             16:24:50 30-Jun-20: STOP TIME  16:24:50 30-Jun-20
 STEP.S                   0.00: STEP TIME
 NULL.                 -999.25: NULL VALUE
 DFWT.                        :  DIST FWL TEXT
 DFST.                        :  DIST FSL TEXT
 DMF .             Drill Floor:  DRILL MEAS FROM
 STIM.      09.59.28 01-Jun-20:  START TIME
 DATE.      09.59.28 01-Jun-20:  END TIME
 SPUD.               01-Jun-20:  SPUD DATE
 NREF.                    Grid:  NORTH REFERENCE
 HPTY.       Minimum Curvature:  HOLE POS TYPE
 DMOD.             Drill Model:  DRILL MOD DESC
 SVYD.                  Survey:  SURVEY DESC
 ILTD.               Lithology:  INTERP LTH DESC
 FTOP.          Formation Tops:  FORM TOPS DESC
 SON .        AZ-XX-0905455768:  JOB NUMBER
 WTYP.                Deviated:  WELL TYPE
 COMP.     BP Exploration(Caspian Sea):  COMPANY
 BASE.              Azerbaijan:  LOGGING EQUIPMENT BASE LOCATION
 REGN.                   EESSA:  REGION
 CTRY.              Azerbaijan:  COUNTRY NAME
 FLD .                     ACG:  FIELD NAME
 SRVC.          Turan Drilling:  CONTRACTOR
 WELL.                     B41:  WELL NAME
 RIG .           Central Azeri:  RIG NAME
 DCON.         Sperry Drilling:  DIRECTNL CONTR
 PDAT.          Mean Sea Level:  PERMANENT DATUM
 MDS .        Operator Entered:  MAG DATA SOURCE
 API .                        :  API NUMBER
 CNTY.                        :  COUNTY
 PROV.                        :  PROVINCE
 STAT.                        :  STATE
 UWI .                        :  UNIQUE WELL IDENTIFIER
 LOC .                        :  LOCATION
 LMF .             Drill Floor:  LOG MEASURED FROM
 TVDS.m                  43.29:  TVDSS CORRECTN
 LATI.deg                40.03:  LATITUDE
 LONG.deg                51.35:  LONGITUDE
 WHNS.m                  12.98:  WELL HEAD N/S
 WHEW.m                  -6.62:  WELL HEAD E/W
 UTMX.m              530128.28:  UTM X
 UTMY.m             4433192.49:  UTM Y
 DFWL.m                   0.00:  DISTANCE FWL
 DFSL.m                   0.00:  DISTANCE FSL
 SDEP.m                 378.00:  START DEPTH
 TDD .m                   0.00:  TOTAL DEPTH (DRILLER)
 VSDR.deg               296.18:  VERT SEC DIRECT
 GVFD.g                   1.00:  GRAVITY FIELD
 MFLD.nT              50253.00:  MAGNETIC FIELD
 MDIP.deg                59.49:  MAGNETIC DIP
 MDEC.deg                 6.44:  MAGNETIC DECL
 GRDC.deg                 0.22:  GRID CORRECTION
 AZTC.deg                 6.22:  AZM TOTAL CORR
 EPD .m                   0.00:  ELEVATION
 EGL .m                   0.00:  GROUND ELEVATION
 WDMS.m                 128.20:  WD ELEV
 APD .m                  43.29:  DEPTH ABOVE PD
 AGAP.m                  43.29:  AIR GAP
 VSEW.m                  -6.62:  VERT SEC E/W
 VSNS.m                  12.98:  VERT SEC N/S
 EKB .m                  43.29:  KB ELEVATION
 EDF .m                  43.29:  DF ELEVATION
 TDL .m                1152.00:  TOTAL DEPTH (LOGGER)
 VSC .                       0:  VS TO CLOSURE
 MAGU.                 1848525:  MAGUTM CHECKSUM
~Parameter Information Block
#MNEM.UNIT       Value        Description
#---------     -----------    ---------------------------
 AV  .mps                 0.40:  Ann Velocity 
 AVMX.mps                 1.56:  Max Ann Veloc 
 AZIF.deg               300.46:  Azm, Final 
 BHAT.        Rotary Steerable:  BHA Type 
 BROT.°/30m               0.40:  Build Rotating 
 BS  .in                 17.50:  Bit Size 
 BSZ .in                 17.50:  Bit Size 
 BTPL.psig              300.00:  Bit Press Loss 
 CABU.                      No:  Customer Abuse 
 CGEO.          Parviz Guliyev:  Customer Geo 
 COMM.                     D„w:  Run Comments 1 
 TCS .hr                108.13:  Time Ciculation Ended 
 CV  .mps                 0.50:  Crit Velocity 
 CVMX.mps                 2.01:  Max Crit Veloc 
 DD1 .          Fariz Nahmatov:  Direct Drillr 1 
 DD2 .             Ehab Radwan:  Direct Drillr 2 
 DDSV.               Geo-Pilot:  DD Service 
 DEFF.%                  99.00:  % Det Eff 
 DLRX.°/30m               0.50:  Dogleg Rot Max 
 DLSO.°/30m               2.80:  Dogleg Oriented 
 DLSX.°/30m               3.90:  Dogleg Str Max 
 DRET.      09.30.04 03-Jul-20:  Drill End Time 
 DRST.      18.33.04 28-Jun-20:  Drill Start Tim 
 DTIM.hr                 55.83:  Time Drilling 
 EDEP.m                1952.00:  End Depth 
 ENG1.      Bakhtiyar Jabbarli:  Engineer 1 
 ENG2.         Farhad Orujzade:  Engineer 2 
 ENG3.          Rustam Safarov:  Engineer 3 
 ETIM.      01.33.04 04-Jul-20:  End Time 
 FLOI.gpm              1050.00:  Flow In 
 FLON.gpm               950.00:  Flow In Min 
 FLOS.cptm                0.10:  Fluid Loss 
 FLOX.gpm              1150.00:  Flow In Max 
 HFLO.                      No:  High Flow 
 HPRE.                      No:  High Pressure 
 HTEM.                      No:  High Temp 
 HYDO.m                   1.80:  Hydro Offset 
 IFIN.deg                75.26:  Inc, Final 
 IMAX.deg                75.38:  Inc Max 
 IMIN.deg                22.84:  Inc Min 
 IMND.m                 832.38:  Inc Min Depth 
 IMXD.m                1936.55:  Inc Max Depth 
 JARR.                      No:  Jarring 
 LETM.      17.40.00 04-Jul-20:  Log End Time 
 LOST.hr                     0:  Lost Rig Time 
 LSTM.      12.33.04 28-Jun-20:  Log Start Time 
 MDCL.ppm             49500.00:  Mud Chlorides 
 MDES.     Inversion Oil/Synthetic:  Mud Desc 
 DFD .sg                  1.46:  Mud Density 
 MDMN.sg                  1.46:  Dens Mud Min 
 MDMX.sg                  1.46:  Dens Mud Max 
 MOIL.                      70:  Run Mud Oil % 
 MOWR.                   70:30:  Run Mud OWR 
 MSND.                     0.5:  Run Mud Sand % 
 MSOL.                   19.89:  Run Mud Solids% 
 DFV .spqt               72.00:  Mud Viscosity 
 MWOD.in                  9.50:  MWD Tool OD 
 MWSI.                      No:  Serv Intrp, MWD 
 OTIM.hr                146.53:  Time Operating 
 PCON.           Look Like New:  Pad Condition 
 PMAX.psia             2900.00:  Press Op, Max 
 PV  .cP                 38.00:  Mud PV 
 RUN .                     600:  Run Number 
 ROPA.m/hr               22.00:  ROP Avg 
 ROPN.m/hr               10.00:  ROP Min 
 ROPX.m/hr              263.00:  ROP Max 
 RPMA.rpm               155.00:  RPM Surface Avg 
 RPMN.rpm               140.00:  RPM Surface Min 
 RPMX.rpm               160.00:  RPM Surface Max 
 RRUN.                    0600:  Rig Run Number 
 RTIM.hr                  5.00:  Time Reaming 
 SAZI.deg               300.08:  Azm, Start 
 SDEP.m                 800.00:  Start Depth 
 SIDD.                      No:  Serv Intrp, DD 
 SINC.deg                22.84:  Inc, Start 
 SPPA.psig             3000.00:  SPP Avg 
 SPPN.psig             1900.00:  SPP Min 
 SPPX.psig             3200.00:  SPP Max 
 STIM.      12.30.04 28-Jun-20:  Start Time 
 SVCS.                 DD, MWD:  Services 
 SVER.                    9.20:  Sperry Version 
 TDAT.m                1952.00:  Tot Depth Attmp 
 TDDF.                      No:  Trip for DD 
 TDLG.m                1152.00:  Tot Depth Loggd 
 TFF .                      No:  Trip for Fail 
 TQAA.f-kp                8.00:  Torque Abs Avg 
 TQAN.f-kp                5.00:  Torque Abs Min 
 TQAX.f-kp               14.00:  Torque Abs Max 
 TRRT.°/30m               0.50:  Turn Rotating 
 MRT .                  EWR-M5:  Maximum Recorded Temperature 
 TTMX.degC               69.00:  Max Tool Temp 
 VS01.                90610313:  Virtual Str1 SN 
 VS02.                90613431:  Virtual Str2 SN 
 VS03.                90615410:  Virtual Str3 SN 
 WBMN.klb                 6.00:  WOB Min 
 WITN.            Bruce Cheyne:  Customer Rep 
 WITN.             Ayaz Aliyev:  Customer Rep 2 
 WOBA.klb                 6.00:  WOB Avg 
 WOBX.klb                10.00:  WOB Max 
 YP  .lhf2               36.00:  Yield Point 
~Curve Information Block
#MNEM.UNIT                 API CODE     Curve Description
#---------               -----------    ---------------------------
 TIME.HHMMSS            00 000 000 000:  GT Time & Date
 GTET.sec               00 000 000 000:  GT Elapsed Test Time
 GTPQH.psia             00 000 000 000:  GT HR Quartz Pressure
 GTDEPTH.m              00 000 000 000:  GT Depth
 GTTVD.m                00 000 000 000:  GT True Vertical Depth
 GTTQ.degC              00 000 000 000:  GT Quartz Temperature
 GTTN.NONE              00 000 000 000:  GT Test Number
#Other Information
#
#WARRANTY: Halliburton will use its best efforts to furnish customers with 
#accurate information and interpretations that are part of, and incident to, the services 
#provided.  However, Halliburton cannot and does not warrant the accuracy 
#or correctness of such information and interpretations.  Under no circumstances should any 
#such information or interpretation be relied upon as the sole basis for any drilling, 
#completion, production, or financial decision or any procedure involving any risk to the 
#safety of any drilling venture, drilling rig or its crew or any other third party.  The 
#Customer has full responsibility for all drilling, completion and production operation.  
#Halliburton makes no representations or warranties, either expressed or 
#implied, including, but not limited to, the implied warranties of merchantability or fitness 
#for a particular purpose, with respect to the services rendered.  In no event will 
#Halliburton be liable for failure to obtain any particular results or for 
#any damages, including, but not limited to, indirect, special or consequential damages, 
#resulting from the use of any information or interpretation provided by Halliburton.
#
~A           TIME            GTET   GTPQH  GTDEPTH  GTTVD  GTTQ  GTTN 
   16:15:55.000.30-Jun-2020   0.00 2221.42 1103.02 1054.26 68.68 2.00
   16:15:55.200.30-Jun-2020   0.20 2221.42 1103.02 1054.26 68.68 2.00
   16:15:55.400.30-Jun-2020   0.40 2216.21 1103.02 1054.26 68.68 2.00
   16:15:55.600.30-Jun-2020   0.60 2216.44 1103.02 1054.26 68.68 2.00
   16:15:55.800.30-Jun-2020   0.80 2214.74 1103.02 1054.26 68.68 2.00
   16:15:56.000.30-Jun-2020   1.00 2213.79 1103.02 1054.26 68.68 2.00
   16:15:56.200.30-Jun-2020   1.20 2213.79 1103.02 1054.26 68.68 2.00
   16:15:56.400.30-Jun-2020   1.40 2214.75 1103.02 1054.26 68.68 2.00
   16:15:56.600.30-Jun-2020   1.60 2212.68 1103.02 1054.26 68.68 2.00
   16:15:56.800.30-Jun-2020   1.80 2213.17 1103.02 1054.26 68.68 2.00
   16:15:57.000.30-Jun-2020   2.00 2212.42 1103.02 1054.26 68.68 2.00
   16:15:57.200.30-Jun-2020   2.20 2210.68 1103.02 1054.26 68.68 2.00
   16:15:57.400.30-Jun-2020   2.40 2215.23 1103.02 1054.26 68.68 2.00
   16:15:57.600.30-Jun-2020   2.60 2215.85 1103.02 1054.26 68.68 2.00
   16:15:57.800.30-Jun-2020   2.80 2213.26 1103.02 1054.26 68.68 2.00
   16:15:58.000.30-Jun-2020   3.00 2214.48 1103.02 1054.26 68.68 2.00
   16:15:58.200.30-Jun-2020   3.20 2214.48 1103.02 1054.26 68.68 2.00
   16:15:58.400.30-Jun-2020   3.40 2213.06 1103.02 1054.26 68.68 2.00
   16:15:58.600.30-Jun-2020   3.60 2217.84 1103.02 1054.26 68.68 2.00
   16:15:58.800.30-Jun-2020   3.80 2217.83 1103.02 1054.26 68.68 2.00
   16:15:59.000.30-Jun-2020   4.00 2216.63 1103.02 1054.26 68.68 2.00
   16:15:59.200.30-Jun-2020   4.20 2216.63 1103.02 1054.26 68.68 2.00
   16:15:59.400.30-Jun-2020   4.40 2219.32 1103.02 1054.26 68.68 2.00
   16:15:59.600.30-Jun-2020   4.60 2219.25 1103.02 1054.26 68.68 2.00
   16:15:59.800.30-Jun-2020   4.80 2221.76 1103.02 1054.26 68.68 2.00
   16:16:00.000.30-Jun-2020   5.00 2222.64 1103.02 1054.26 68.68 2.00
   16:16:00.200.30-Jun-2020   5.20 2222.64 1103.02 1054.26 68.68 2.00
   16:16:00.400.30-Jun-2020   5.40 2221.06 1103.02 1054.26 68.68 2.00
   16:16:00.600.30-Jun-2020   5.60 2221.82 1103.02 1054.26 68.68 2.00
   16:16:00.800.30-Jun-2020   5.80 2221.19 1103.02 1054.26 68.68 2.00
   16:16:01.000.30-Jun-2020   6.00 2222.75 1103.02 1054.26 68.68 2.00
   16:16:01.200.30-Jun-2020   6.20 2222.42 1103.02 1054.26 68.68 2.00
   16:16:01.400.30-Jun-2020   6.40 2221.58 1103.02 1054.26 68.68 2.00
   16:16:01.600.30-Jun-2020   6.60 2221.15 1103.02 1054.26 68.68 2.00
   16:16:01.800.30-Jun-2020   6.80 2221.89 1103.02 1054.26 68.68 2.00
   16:16:02.000.30-Jun-2020   7.00 2220.78 1103.02 1054.26 68.68 2.00
   16:16:02.200.30-Jun-2020   7.20 2220.78 1103.02 1054.26 68.68 2.00
   16:16:02.400.30-Jun-2020   7.40 2219.80 1103.02 1054.26 68.68 2.00
   16:16:02.600.30-Jun-2020   7.60 2218.43 1103.02 1054.26 68.68 2.00
   16:16:02.800.30-Jun-2020   7.80 2219.99 1103.02 1054.26 68.68 2.00
   16:16:03.000.30-Jun-2020   8.00 2219.38 1103.02 1054.26 68.68 2.00
   16:16:03.200.30-Jun-2020   8.20 2219.38 1103.02 1054.26 68.68 2.00
   16:16:03.400.30-Jun-2020   8.40 2217.82 1103.02 1054.26 68.68 2.00
   16:16:03.600.30-Jun-2020   8.60 2217.61 1103.02 1054.26 68.68 2.00
   16:16:03.800.30-Jun-2020   8.80 2217.49 1103.02 1054.26 68.68 2.00
   16:16:04.000.30-Jun-2020   9.00 2216.60 1103.02 1054.26 68.68 2.00
   16:16:04.200.30-Jun-2020   9.20 2216.60 1103.02 1054.26 68.68 2.00
   16:16:04.400.30-Jun-2020   9.40 2216.50 1103.02 1054.26 68.68 2.00
   16:16:04.600.30-Jun-2020   9.60 2216.51 1103.02 1054.26 68.68 2.00
   16:16:04.800.30-Jun-2020   9.80 2215.92 1103.02 1054.26 68.68 2.00
   16:16:05.000.30-Jun-2020  10.00 2215.96 1103.02 1054.26 68.68 2.00
   16:16:05.200.30-Jun-2020  10.20 2215.63 1103.02 1054.26 68.68 2.00
   16:16:05.400.30-Jun-2020  10.40 2215.42 1103.02 1054.26 68.68 2.00
   16:16:05.600.30-Jun-2020  10.60 2216.20 1103.02 1054.26 68.68 2.00
   16:16:05.800.30-Jun-2020  10.80 2215.90 1103.02 1054.26 68.68 2.00
   16:16:06.000.30-Jun-2020  11.00 2216.12 1103.02 1054.26 68.68 2.00
   16:16:06.200.30-Jun-2020  11.20 2216.12 1103.02 1054.26 68.68 2.00
   16:16:06.400.30-Jun-2020  11.40 2216.39 1103.02 1054.26 68.68 2.00
   16:16:06.600.30-Jun-2020  11.60 2216.90 1103.02 1054.26 68.68 2.00
   16:16:06.800.30-Jun-2020  11.80 2218.58 1103.02 1054.26 68.68 2.00
   16:16:07.000.30-Jun-2020  12.00 2219.00 1103.02 1054.26 68.68 2.00
   16:16:07.200.30-Jun-2020  12.20 2219.00 1103.02 1054.26 68.68 2.00
   16:16:07.400.30-Jun-2020  12.40 2219.00 1103.02 1054.26 68.68 2.00
   16:16:07.600.30-Jun-2020  12.60 2218.36 1103.02 1054.26 68.68 2.00
   16:16:07.800.30-Jun-2020  12.80 2216.96 1103.02 1054.26 68.68 2.00
   16:16:08.000.30-Jun-2020  13.00 2216.12 1103.02 1054.26 68.68 2.00
   16:16:08.200.30-Jun-2020  13.20 2220.02 1103.02 1054.26 68.68 2.00
   16:16:08.400.30-Jun-2020  13.40 2219.07 1103.02 1054.26 68.68 2.00
   16:16:08.600.30-Jun-2020  13.60 2220.39 1103.02 1054.26 68.68 2.00
   16:16:08.800.30-Jun-2020  13.80 2219.76 1103.02 1054.26 68.68 2.00
   16:16:09.000.30-Jun-2020  14.00 2218.95 1103.02 1054.26 68.68 2.00
   16:16:09.200.30-Jun-2020  14.20 2220.10 1103.02 1054.26 68.68 2.00
   16:16:09.400.30-Jun-2020  14.40 2219.53 1103.02 1054.26 68.68 2.00
   16:16:09.600.30-Jun-2020  14.60 2218.94 1103.02 1054.26 68.68 2.00
   16:16:09.800.30-Jun-2020  14.80 2219.02 1103.02 1054.26 68.68 2.00
   16:16:10.000.30-Jun-2020  15.00 2218.57 1103.02 1054.26 68.68 2.00
   16:16:10.200.30-Jun-2020  15.20 2218.57 1103.02 1054.26 68.68 2.00
   16:16:10.400.30-Jun-2020  15.40 2219.90 1103.02 1054.26 68.68 2.00
   16:16:10.600.30-Jun-2020  15.60 2219.64 1103.02 1054.26 68.68 2.00
   16:16:10.800.30-Jun-2020  15.80 2218.32 1103.02 1054.26 68.68 2.00
   16:16:11.000.30-Jun-2020  16.00 2217.99 1103.02 1054.26 68.68 2.00
   16:16:11.200.30-Jun-2020  16.20 2217.99 1103.02 1054.26 68.68 2.00
   16:16:11.400.30-Jun-2020  16.40 2217.26 1103.02 1054.26 68.68 2.00
   16:16:11.600.30-Jun-2020  16.60 2215.86 1103.02 1054.26 68.68 2.00
   16:16:11.800.30-Jun-2020  16.80 2217.39 1103.02 1054.26 68.68 2.00
   16:16:12.000.30-Jun-2020  17.00 2217.42 1103.02 1054.26 68.68 2.00
   16:16:12.200.30-Jun-2020  17.20 2217.42 1103.02 1054.26 68.68 2.00
   16:16:12.400.30-Jun-2020  17.40 2217.10 1103.02 1054.26 68.68 2.00
   16:16:12.600.30-Jun-2020  17.60 2216.25 1103.02 1054.26 68.68 2.00
   16:16:12.800.30-Jun-2020  17.80 2214.96 1103.02 1054.26 68.68 2.00
   16:16:13.000.30-Jun-2020  18.00 2217.34 1103.02 1054.26 68.68 2.00
   16:16:13.200.30-Jun-2020  18.20 2215.88 1103.02 1054.26 68.68 2.00
   16:16:13.400.30-Jun-2020  18.40 2215.76 1103.02 1054.26 68.68 2.00
   16:16:13.600.30-Jun-2020  18.60 2215.23 1103.02 1054.26 68.68 2.00
   16:16:13.800.30-Jun-2020  18.80 2215.83 1103.02 1054.26 68.68 2.00
   16:16:14.000.30-Jun-2020  19.00 2216.84 1103.02 1054.26 68.68 2.00
   16:16:14.200.30-Jun-2020  19.20 2216.84 1103.02 1054.26 68.68 2.00
   16:16:14.400.30-Jun-2020  19.40 2216.54 1103.02 1054.26 68.68 2.00
   16:16:14.600.30-Jun-2020  19.60 2217.85 1103.02 1054.26 68.68 2.00
   16:16:14.800.30-Jun-2020  19.80 2217.34 1103.02 1054.26 68.68 2.00
   16:16:15.000.30-Jun-2020  20.00 2216.48 1103.02 1054.26 68.68 2.00
   16:16:15.200.30-Jun-2020  20.20 2216.48 1103.02 1054.26 68.68 2.00
   16:16:15.400.30-Jun-2020  20.40 2218.54 1103.02 1054.26 68.68 2.00
   16:16:15.600.30-Jun-2020  20.60 2219.08 1103.02 1054.26 68.69 2.00
   16:16:15.800.30-Jun-2020  20.80 2218.24 1103.02 1054.26 68.68 2.00
   16:16:16.000.30-Jun-2020  21.00 2218.37 1103.02 1054.26 68.69 2.00
   16:16:16.200.30-Jun-2020  21.20 2218.37 1103.02 1054.26 68.69 2.00
   16:16:16.400.30-Jun-2020  21.40 2217.72 1103.02 1054.26 68.68 2.00
   16:16:16.600.30-Jun-2020  21.60 2220.31 1103.02 1054.26 68.69 2.00
   16:16:16.800.30-Jun-2020  21.80 2218.75 1103.02 1054.26 68.69 2.00
   16:16:17.000.30-Jun-2020  22.00 2218.88 1103.02 1054.26 68.69 2.00
   16:16:17.200.30-Jun-2020  22.20 2220.44 1103.02 1054.26 68.69 2.00
   16:16:17.400.30-Jun-2020  22.40 2218.86 1103.02 1054.26 68.69 2.00
   16:16:17.600.30-Jun-2020  22.60 2218.32 1103.02 1054.26 68.69 2.00
   16:16:17.800.30-Jun-2020  22.80 2220.06 1103.02 1054.26 68.69 2.00
