~Version Information
 VERS.                  2.0:   CWLS log ASCII Standard -VERSION 2.0
 WRAP.                   NO:   One line per depth step
~Well Information Block
#MNEM.UNIT     VALUE/NAME     DESCRIPTION
#---------     -----------    ---------------------------
 STRT.S             16:15:55 30-Jun-20: START TIME 16:15:55 30-Jun-20
 STOP.S             16:24:50 30-Jun-20: STOP TIME  16:24:50 30-Jun-20
 STEP.S                   0.00: STEP TIME
 NULL.                 -999.25: NULL VALUE
 DFWT.                        :  DIST FWL TEXT
 DFST.                        :  DIST FSL TEXT
 DMF .             Drill Floor:  DRILL MEAS FROM
 STIM.      09.59.28 01-Jun-20:  START TIME
 DATE.      09.59.28 01-Jun-20:  END TIME
 SPUD.               01-Jun-20:  SPUD DATE
 NREF.                    Grid:  NORTH REFERENCE
 HPTY.       Minimum Curvature:  HOLE POS TYPE
 DMOD.             Drill Model:  DRILL MOD DESC
 SVYD.                  Survey:  SURVEY DESC
 ILTD.               Lithology:  INTERP LTH DESC
 FTOP.          Formation Tops:  FORM TOPS DESC
 SON .        AZ-XX-0905455768:  JOB NUMBER
 WTYP.                Deviated:  WELL TYPE
 COMP.     BP Exploration(Caspian Sea):  COMPANY
 BASE.              Azerbaijan:  LOGGING EQUIPMENT BASE LOCATION
 REGN.                   EESSA:  REGION
 CTRY.              Azerbaijan:  COUNTRY NAME
 FLD .                     ACG:  FIELD NAME
 SRVC.          Turan Drilling:  CONTRACTOR
 WELL.                     B41:  WELL NAME
 RIG .           Central Azeri:  RIG NAME
 DCON.         Sperry Drilling:  DIRECTNL CONTR
 PDAT.          Mean Sea Level:  PERMANENT DATUM
 MDS .        Operator Entered:  MAG DATA SOURCE
 API .                        :  API NUMBER
 CNTY.                        :  COUNTY
 PROV.                        :  PROVINCE
 STAT.                        :  STATE
 UWI .                        :  UNIQUE WELL IDENTIFIER
 LOC .                        :  LOCATION
 LMF .             Drill Floor:  LOG MEASURED FROM
 TVDS.m                  43.29:  TVDSS CORRECTN
 LATI.deg                40.03:  LATITUDE
 LONG.deg                51.35:  LONGITUDE
 WHNS.m                  12.98:  WELL HEAD N/S
 WHEW.m                  -6.62:  WELL HEAD E/W
 UTMX.m              530128.28:  UTM X
 UTMY.m             4433192.49:  UTM Y
 DFWL.m                   0.00:  DISTANCE FWL
 DFSL.m                   0.00:  DISTANCE FSL
 SDEP.m                 378.00:  START DEPTH
 TDD .m                   0.00:  TOTAL DEPTH (DRILLER)
 VSDR.deg               296.18:  VERT SEC DIRECT
 GVFD.g                   1.00:  GRAVITY FIELD
 MFLD.nT              50253.00:  MAGNETIC FIELD
 MDIP.deg                59.49:  MAGNETIC DIP
 MDEC.deg                 6.44:  MAGNETIC DECL
 GRDC.deg                 0.22:  GRID CORRECTION
 AZTC.deg                 6.22:  AZM TOTAL CORR
 EPD .m                   0.00:  ELEVATION
 EGL .m                   0.00:  GROUND ELEVATION
 WDMS.m                 128.20:  WD ELEV
 APD .m                  43.29:  DEPTH ABOVE PD
 AGAP.m                  43.29:  AIR GAP
 VSEW.m                  -6.62:  VERT SEC E/W
 VSNS.m                  12.98:  VERT SEC N/S
 EKB .m                  43.29:  KB ELEVATION
 EDF .m                  43.29:  DF ELEVATION
 TDL .m                1152.00:  TOTAL DEPTH (LOGGER)
 VSC .                       0:  VS TO CLOSURE
 MAGU.                 1848525:  MAGUTM CHECKSUM
~Parameter Information Block
#MNEM.UNIT       Value        Description
#---------     -----------    ---------------------------
 AV  .mps                 0.40:  Ann Velocity 
 AVMX.mps                 1.56:  Max Ann Veloc 
 AZIF.deg               300.46:  Azm, Final 
 BHAT.        Rotary Steerable:  BHA Type 
 BROT.°/30m               0.40:  Build Rotating 
 BS  .in                 17.50:  Bit Size 
 BSZ .in                 17.50:  Bit Size 
 BTPL.psig              300.00:  Bit Press Loss 
 CABU.                      No:  Customer Abuse 
 CGEO.          Parviz Guliyev:  Customer Geo 
 COMM.                     D„w:  Run Comments 1 
 TCS .hr                108.13:  Time Ciculation Ended 
 CV  .mps                 0.50:  Crit Velocity 
 CVMX.mps                 2.01:  Max Crit Veloc 
 DD1 .          Fariz Nahmatov:  Direct Drillr 1 
 DD2 .             Ehab Radwan:  Direct Drillr 2 
 DDSV.               Geo-Pilot:  DD Service 
 DEFF.%                  99.00:  % Det Eff 
 DLRX.°/30m               0.50:  Dogleg Rot Max 
 DLSO.°/30m               2.80:  Dogleg Oriented 
 DLSX.°/30m               3.90:  Dogleg Str Max 
 DRET.      09.30.04 03-Jul-20:  Drill End Time 
 DRST.      18.33.04 28-Jun-20:  Drill Start Tim 
 DTIM.hr                 55.83:  Time Drilling 
 EDEP.m                1952.00:  End Depth 
 ENG1.      Bakhtiyar Jabbarli:  Engineer 1 
 ENG2.         Farhad Orujzade:  Engineer 2 
 ENG3.          Rustam Safarov:  Engineer 3 
 ETIM.      01.33.04 04-Jul-20:  End Time 
 FLOI.gpm              1050.00:  Flow In 
 FLON.gpm               950.00:  Flow In Min 
 FLOS.cptm                0.10:  Fluid Loss 
 FLOX.gpm              1150.00:  Flow In Max 
 HFLO.                      No:  High Flow 
 HPRE.                      No:  High Pressure 
 HTEM.                      No:  High Temp 
 HYDO.m                   1.80:  Hydro Offset 
 IFIN.deg                75.26:  Inc, Final 
 IMAX.deg                75.38:  Inc Max 
 IMIN.deg                22.84:  Inc Min 
 IMND.m                 832.38:  Inc Min Depth 
 IMXD.m                1936.55:  Inc Max Depth 
 JARR.                      No:  Jarring 
 LETM.      17.40.00 04-Jul-20:  Log End Time 
 LOST.hr                     0:  Lost Rig Time 
 LSTM.      12.33.04 28-Jun-20:  Log Start Time 
 MDCL.ppm             49500.00:  Mud Chlorides 
 MDES.     Inversion Oil/Synthetic:  Mud Desc 
 DFD .sg                  1.46:  Mud Density 
 MDMN.sg                  1.46:  Dens Mud Min 
 MDMX.sg                  1.46:  Dens Mud Max 
 MOIL.                      70:  Run Mud Oil % 
 MOWR.                   70:30:  Run Mud OWR 
 MSND.                     0.5:  Run Mud Sand % 
 MSOL.                   19.89:  Run Mud Solids% 
 DFV .spqt               72.00:  Mud Viscosity 
 MWOD.in                  9.50:  MWD Tool OD 
 MWSI.                      No:  Serv Intrp, MWD 
 OTIM.hr                146.53:  Time Operating 
 PCON.           Look Like New:  Pad Condition 
 PMAX.psia             2900.00:  Press Op, Max 
 PV  .cP                 38.00:  Mud PV 
 RUN .                     600:  Run Number 
 ROPA.m/hr               22.00:  ROP Avg 
 ROPN.m/hr               10.00:  ROP Min 
 ROPX.m/hr              263.00:  ROP Max 
 RPMA.rpm               155.00:  RPM Surface Avg 
 RPMN.rpm               140.00:  RPM Surface Min 
 RPMX.rpm               160.00:  RPM Surface Max 
 RRUN.                    0600:  Rig Run Number 
 RTIM.hr                  5.00:  Time Reaming 
 SAZI.deg               300.08:  Azm, Start 
 SDEP.m                 800.00:  Start Depth 
 SIDD.                      No:  Serv Intrp, DD 
 SINC.deg                22.84:  Inc, Start 
 SPPA.psig             3000.00:  SPP Avg 
 SPPN.psig             1900.00:  SPP Min 
 SPPX.psig             3200.00:  SPP Max 
 STIM.      12.30.04 28-Jun-20:  Start Time 
 SVCS.                 DD, MWD:  Services 
 SVER.                    9.20:  Sperry Version 
 TDAT.m                1952.00:  Tot Depth Attmp 
 TDDF.                      No:  Trip for DD 
 TDLG.m                1152.00:  Tot Depth Loggd 
 TFF .                      No:  Trip for Fail 
 TQAA.f-kp                8.00:  Torque Abs Avg 
 TQAN.f-kp                5.00:  Torque Abs Min 
 TQAX.f-kp               14.00:  Torque Abs Max 
 TRRT.°/30m               0.50:  Turn Rotating 
 MRT .                  EWR-M5:  Maximum Recorded Temperature 
 TTMX.degC               69.00:  Max Tool Temp 
 VS01.                90610313:  Virtual Str1 SN 
 VS02.                90613431:  Virtual Str2 SN 
 VS03.                90615410:  Virtual Str3 SN 
 WBMN.klb                 6.00:  WOB Min 
 WITN.            Bruce Cheyne:  Customer Rep 
 WITN.             Ayaz Aliyev:  Customer Rep 2 
 WOBA.klb                 6.00:  WOB Avg 
 WOBX.klb                10.00:  WOB Max 
 YP  .lhf2               36.00:  Yield Point 
~Curve Information Block
#MNEM.UNIT                 API CODE     Curve Description
#---------               -----------    ---------------------------
 TIME.HHMMSS            00 000 000 000:  GT Time & Date
 GTET.sec               00 000 000 000:  GT Elapsed Test Time
 GTPQH.psia             00 000 000 000:  GT HR Quartz Pressure
 GTDEPTH.m              00 000 000 000:  GT Depth
 GTTVD.m                00 000 000 000:  GT True Vertical Depth
 GTTQ.degC              00 000 000 000:  GT Quartz Temperature
 GTTN.NONE              00 000 000 000:  GT Test Number
#Other Information
#
#WARRANTY: Halliburton will use its best efforts to furnish customers with 
#accurate information and interpretations that are part of, and incident to, the services 
#provided.  However, Halliburton cannot and does not warrant the accuracy 
#or correctness of such information and interpretations.  Under no circumstances should any 
#such information or interpretation be relied upon as the sole basis for any drilling, 
#completion, production, or financial decision or any procedure involving any risk to the 
#safety of any drilling venture, drilling rig or its crew or any other third party.  The 
#Customer has full responsibility for all drilling, completion and production operation.  
#Halliburton makes no representations or warranties, either expressed or 
#implied, including, but not limited to, the implied warranties of merchantability or fitness 
#for a particular purpose, with respect to the services rendered.  In no event will 
#Halliburton be liable for failure to obtain any particular results or for 
#any damages, including, but not limited to, indirect, special or consequential damages, 
#resulting from the use of any information or interpretation provided by Halliburton.
#
~A           TIME            GTET   GTPQH  GTDEPTH  GTTVD  GTTQ  GTTN 
# ...
   16:21:40.000.30-Jun-2020 345.00   54.67 1103.02 1054.26 68.89 2.00
   16:21:40.200.30-Jun-2020 345.20   54.69 1103.02 1054.26 68.89 2.00
   16:21:40.400.30-Jun-2020 345.40   54.72 1103.02 1054.26 68.89 2.00
   16:21:40.600.30-Jun-2020 345.60   54.75 1103.02 1054.26 68.89 2.00
   16:21:40.800.30-Jun-2020 345.80   54.77 1103.02 1054.26 68.89 2.00
   16:21:41.000.30-Jun-2020 346.00   54.80 1103.02 1054.26 68.89 2.00
   16:21:41.200.30-Jun-2020 346.20   54.82 1103.02 1054.26 68.89 2.00
   16:21:41.400.30-Jun-2020 346.40   54.84 1103.02 1054.26 68.89 2.00
   16:21:41.600.30-Jun-2020 346.60   54.87 1103.02 1054.26 68.89 2.00
   16:21:41.800.30-Jun-2020 346.80   54.89 1103.02 1054.26 68.89 2.00
   16:21:42.000.30-Jun-2020 347.00   54.93 1103.02 1054.26 68.89 2.00
   16:21:42.200.30-Jun-2020 347.20   54.93 1103.02 1054.26 68.89 2.00
   16:21:42.400.30-Jun-2020 347.40   54.98 1103.02 1054.26 68.90 2.00
   16:21:42.600.30-Jun-2020 347.60   55.00 1103.02 1054.26 68.90 2.00
   16:21:42.800.30-Jun-2020 347.80   55.03 1103.02 1054.26 68.90 2.00
   16:21:43.000.30-Jun-2020 348.00   55.05 1103.02 1054.26 68.90 2.00
   16:21:43.200.30-Jun-2020 348.20   55.05 1103.02 1054.26 68.90 2.00
   16:21:43.400.30-Jun-2020 348.40   55.10 1103.02 1054.26 68.90 2.00
   16:21:43.600.30-Jun-2020 348.60   55.13 1103.02 1054.26 68.90 2.00
   16:21:43.800.30-Jun-2020 348.80   55.16 1103.02 1054.26 68.90 2.00
   16:21:44.000.30-Jun-2020 349.00   55.18 1103.02 1054.26 68.90 2.00
   16:21:44.200.30-Jun-2020 349.20   55.20 1103.02 1054.26 68.90 2.00
   16:21:44.400.30-Jun-2020 349.40   55.24 1103.02 1054.26 68.90 2.00
   16:21:44.600.30-Jun-2020 349.60   55.26 1103.02 1054.26 68.90 2.00
   16:21:44.800.30-Jun-2020 349.80   55.28 1103.02 1054.26 68.90 2.00
   16:21:45.000.30-Jun-2020 350.00   55.31 1103.02 1054.26 68.90 2.00
   16:21:45.200.30-Jun-2020 350.20   55.32 1103.02 1054.26 68.90 2.00
   16:21:45.400.30-Jun-2020 350.40   55.36 1103.02 1054.26 68.90 2.00
   16:21:45.600.30-Jun-2020 350.60   55.39 1103.02 1054.26 68.90 2.00
   16:21:45.800.30-Jun-2020 350.80   55.41 1103.02 1054.26 68.90 2.00
   16:21:46.000.30-Jun-2020 351.00   55.44 1103.02 1054.26 68.90 2.00
   16:21:46.200.30-Jun-2020 351.20   55.44 1103.02 1054.26 68.90 2.00
   16:21:46.400.30-Jun-2020 351.40   55.48 1103.02 1054.26 68.90 2.00
   16:21:46.600.30-Jun-2020 351.60   55.52 1103.02 1054.26 68.90 2.00
   16:21:46.800.30-Jun-2020 351.80   55.54 1103.02 1054.26 68.90 2.00
   16:21:47.000.30-Jun-2020 352.00   55.56 1103.02 1054.26 68.90 2.00
   16:21:47.200.30-Jun-2020 352.20   55.56 1103.02 1054.26 68.90 2.00
   16:21:47.400.30-Jun-2020 352.40   55.60 1103.02 1054.26 68.90 2.00
   16:21:47.600.30-Jun-2020 352.60   55.66 1103.02 1054.26 68.90 2.00
   16:21:47.800.30-Jun-2020 352.80   55.67 1103.02 1054.26 68.90 2.00
   16:21:48.000.30-Jun-2020 353.00   55.70 1103.02 1054.26 68.90 2.00
   16:21:48.200.30-Jun-2020 353.20   55.72 1103.02 1054.26 68.90 2.00
   16:21:48.400.30-Jun-2020 353.40   55.75 1103.02 1054.26 68.90 2.00
   16:21:48.600.30-Jun-2020 353.60   55.78 1103.02 1054.26 68.90 2.00
   16:21:48.800.30-Jun-2020 353.80   55.80 1103.02 1054.26 68.90 2.00
   16:21:49.000.30-Jun-2020 354.00   55.82 1103.02 1054.26 68.90 2.00
   16:21:49.200.30-Jun-2020 354.20   55.84 1103.02 1054.26 68.90 2.00
   16:21:49.400.30-Jun-2020 354.40   55.87 1103.02 1054.26 68.90 2.00
   16:21:49.600.30-Jun-2020 354.60   55.90 1103.02 1054.26 68.90 2.00
   16:21:49.800.30-Jun-2020 354.80   55.92 1103.02 1054.26 68.90 2.00
   16:21:50.000.30-Jun-2020 355.00   55.94 1103.02 1054.26 68.90 2.00
   16:21:50.200.30-Jun-2020 355.20   55.94 1103.02 1054.26 68.90 2.00
   16:21:50.400.30-Jun-2020 355.40   55.99 1103.02 1054.26 68.90 2.00
   16:21:50.600.30-Jun-2020 355.60   56.01 1103.02 1054.26 68.90 2.00
   16:21:50.800.30-Jun-2020 355.80   56.04 1103.02 1054.26 68.90 2.00
   16:21:51.000.30-Jun-2020 356.00   56.05 1103.02 1054.26 68.90 2.00
   16:21:51.200.30-Jun-2020 356.20   56.05 1103.02 1054.26 68.90 2.00
   16:21:51.400.30-Jun-2020 356.40   56.11 1103.02 1054.26 68.90 2.00
   16:21:51.600.30-Jun-2020 356.60   56.12 1103.02 1054.26 68.90 2.00
   16:21:51.800.30-Jun-2020 356.80   55.67 1103.02 1054.26 68.90 2.00
   16:21:52.000.30-Jun-2020 357.00   54.47 1103.02 1054.26 68.90 2.00
   16:21:52.200.30-Jun-2020 357.20   53.25 1103.02 1054.26 68.90 2.00
   16:21:52.400.30-Jun-2020 357.40   52.08 1103.02 1054.26 68.90 2.00
   16:21:52.600.30-Jun-2020 357.60   51.02 1103.02 1054.26 68.91 2.00
   16:21:52.800.30-Jun-2020 357.80   50.00 1103.02 1054.26 68.91 2.00
   16:21:53.000.30-Jun-2020 358.00   49.00 1103.02 1054.26 68.91 2.00
   16:21:53.200.30-Jun-2020 358.20   48.07 1103.02 1054.26 68.91 2.00
   16:21:53.400.30-Jun-2020 358.40   47.19 1103.02 1054.26 68.91 2.00
   16:21:53.600.30-Jun-2020 358.60   46.35 1103.02 1054.26 68.91 2.00
   16:21:53.800.30-Jun-2020 358.80   45.55 1103.02 1054.26 68.91 2.00
   16:21:54.000.30-Jun-2020 359.00   44.77 1103.02 1054.26 68.91 2.00
   16:21:54.200.30-Jun-2020 359.20   44.03 1103.02 1054.26 68.91 2.00
   16:21:54.400.30-Jun-2020 359.40   43.30 1103.02 1054.26 68.91 2.00
   16:21:54.600.30-Jun-2020 359.60   42.63 1103.02 1054.26 68.91 2.00
   16:21:54.800.30-Jun-2020 359.80   42.01 1103.02 1054.26 68.91 2.00
   16:21:55.000.30-Jun-2020 360.00   41.39 1103.02 1054.26 68.91 2.00
   16:21:55.200.30-Jun-2020 360.20   40.78 1103.02 1054.26 68.91 2.00
   16:21:55.400.30-Jun-2020 360.40   40.21 1103.02 1054.26 68.91 2.00
   16:21:55.600.30-Jun-2020 360.60   39.65 1103.02 1054.26 68.91 2.00
   16:21:55.800.30-Jun-2020 360.80   39.10 1103.02 1054.26 68.91 2.00
   16:21:56.000.30-Jun-2020 361.00   38.58 1103.02 1054.26 68.91 2.00
   16:21:56.200.30-Jun-2020 361.20   38.58 1103.02 1054.26 68.91 2.00
   16:21:56.400.30-Jun-2020 361.40   37.61 1103.02 1054.26 68.91 2.00
   16:21:56.600.30-Jun-2020 361.60   37.15 1103.02 1054.26 68.91 2.00
   16:21:56.800.30-Jun-2020 361.80   36.73 1103.02 1054.26 68.91 2.00
   16:21:57.000.30-Jun-2020 362.00   36.34 1103.02 1054.26 68.91 2.00
   16:21:57.200.30-Jun-2020 362.20   35.96 1103.02 1054.26 68.91 2.00
   16:21:57.400.30-Jun-2020 362.40   35.59 1103.02 1054.26 68.91 2.00
   16:21:57.600.30-Jun-2020 362.60   35.23 1103.02 1054.26 68.91 2.00
   16:21:57.800.30-Jun-2020 362.80   34.88 1103.02 1054.26 68.91 2.00
   16:21:58.000.30-Jun-2020 363.00   34.52 1103.02 1054.26 68.91 2.00
   16:21:58.200.30-Jun-2020 363.20   34.52 1103.02 1054.26 68.91 2.00
   16:21:58.400.30-Jun-2020 363.40   33.88 1103.02 1054.26 68.91 2.00
   16:21:58.600.30-Jun-2020 363.60   33.55 1103.02 1054.26 68.91 2.00
   16:21:58.800.30-Jun-2020 363.80   33.23 1103.02 1054.26 68.91 2.00
   16:21:59.000.30-Jun-2020 364.00   32.91 1103.02 1054.26 68.91 2.00
   16:21:59.200.30-Jun-2020 364.20   32.91 1103.02 1054.26 68.91 2.00
   16:21:59.400.30-Jun-2020 364.40   32.30 1103.02 1054.26 68.91 2.00
   16:21:59.600.30-Jun-2020 364.60   31.98 1103.02 1054.26 68.91 2.00
   16:21:59.800.30-Jun-2020 364.80   31.69 1103.02 1054.26 68.91 2.00
   16:22:00.000.30-Jun-2020 365.00   31.42 1103.02 1054.26 68.91 2.00
   16:22:00.200.30-Jun-2020 365.20   31.16 1103.02 1054.26 68.91 2.00
   16:22:00.400.30-Jun-2020 365.40   30.93 1103.02 1054.26 68.91 2.00
   16:22:00.600.30-Jun-2020 365.60   30.71 1103.02 1054.26 68.91 2.00
   16:22:00.800.30-Jun-2020 365.80   30.45 1103.02 1054.26 68.91 2.00
   16:22:01.000.30-Jun-2020 366.00   30.21 1103.02 1054.26 68.91 2.00
   16:22:01.200.30-Jun-2020 366.20   29.96 1103.02 1054.26 68.91 2.00
   16:22:01.400.30-Jun-2020 366.40   29.70 1103.02 1054.26 68.91 2.00
   16:22:01.600.30-Jun-2020 366.60   29.48 1103.02 1054.26 68.91 2.00
   16:22:01.800.30-Jun-2020 366.80   29.26 1103.02 1054.26 68.91 2.00
   16:22:02.000.30-Jun-2020 367.00   29.04 1103.02 1054.26 68.91 2.00
   16:22:02.200.30-Jun-2020 367.20   29.04 1103.02 1054.26 68.91 2.00
   16:22:02.400.30-Jun-2020 367.40   28.93 1103.02 1054.26 68.91 2.00
   16:22:02.600.30-Jun-2020 367.60   28.95 1103.02 1054.26 68.91 2.00
   16:22:02.800.30-Jun-2020 367.80   28.97 1103.02 1054.26 68.91 2.00
