~Version Information
 VERS.                  2.0:   CWLS log ASCII Standard -VERSION 2.0
 WRAP.                   NO:   One line per depth step
~Well Information Block
#MNEM.UNIT     VALUE/NAME     DESCRIPTION
#---------     -----------    ---------------------------
 STRT.S             23:54:17 02-Jul-20: START TIME 23:54:17 02-Jul-20
 STOP.S             00:03:12 03-Jul-20: STOP TIME  00:03:12 03-Jul-20
 STEP.S                   0.00: STEP TIME
 NULL.                 -999.25: NULL VALUE
 DFWT.                        :  DIST FWL TEXT
 DFST.                        :  DIST FSL TEXT
 DMF .             Drill Floor:  DRILL MEAS FROM
 STIM.      09.59.28 01-Jun-20:  START TIME
 DATE.      09.59.28 01-Jun-20:  END TIME
 SPUD.               01-Jun-20:  SPUD DATE
 NREF.                    Grid:  NORTH REFERENCE
 HPTY.       Minimum Curvature:  HOLE POS TYPE
 DMOD.             Drill Model:  DRILL MOD DESC
 SVYD.                  Survey:  SURVEY DESC
 ILTD.               Lithology:  INTERP LTH DESC
 FTOP.          Formation Tops:  FORM TOPS DESC
 SON .        AZ-XX-0905455768:  JOB NUMBER
 WTYP.                Deviated:  WELL TYPE
 COMP.     BP Exploration(Caspian Sea):  COMPANY
 BASE.              Azerbaijan:  LOGGING EQUIPMENT BASE LOCATION
 REGN.                   EESSA:  REGION
 CTRY.              Azerbaijan:  COUNTRY NAME
 FLD .                     ACG:  FIELD NAME
 SRVC.          Turan Drilling:  CONTRACTOR
 WELL.                     B41:  WELL NAME
 RIG .           Central Azeri:  RIG NAME
 DCON.         Sperry Drilling:  DIRECTNL CONTR
 PDAT.          Mean Sea Level:  PERMANENT DATUM
 MDS .        Operator Entered:  MAG DATA SOURCE
 API .                        :  API NUMBER
 CNTY.                        :  COUNTY
 PROV.                        :  PROVINCE
 STAT.                        :  STATE
 UWI .                        :  UNIQUE WELL IDENTIFIER
 LOC .                        :  LOCATION
 LMF .             Drill Floor:  LOG MEASURED FROM
 TVDS.m                  43.29:  TVDSS CORRECTN
 LATI.deg                40.03:  LATITUDE
 LONG.deg                51.35:  LONGITUDE
 WHNS.m                  12.98:  WELL HEAD N/S
 WHEW.m                  -6.62:  WELL HEAD E/W
 UTMX.m              530128.28:  UTM X
 UTMY.m             4433192.49:  UTM Y
 DFWL.m                   0.00:  DISTANCE FWL
 DFSL.m                   0.00:  DISTANCE FSL
 SDEP.m                 378.00:  START DEPTH
 TDD .m                   0.00:  TOTAL DEPTH (DRILLER)
 VSDR.deg               296.18:  VERT SEC DIRECT
 GVFD.g                   1.00:  GRAVITY FIELD
 MFLD.nT              50253.00:  MAGNETIC FIELD
 MDIP.deg                59.49:  MAGNETIC DIP
 MDEC.deg                 6.44:  MAGNETIC DECL
 GRDC.deg                 0.22:  GRID CORRECTION
 AZTC.deg                 6.22:  AZM TOTAL CORR
 EPD .m                   0.00:  ELEVATION
 EGL .m                   0.00:  GROUND ELEVATION
 WDMS.m                 128.20:  WD ELEV
 APD .m                  43.29:  DEPTH ABOVE PD
 AGAP.m                  43.29:  AIR GAP
 VSEW.m                  -6.62:  VERT SEC E/W
 VSNS.m                  12.98:  VERT SEC N/S
 EKB .m                  43.29:  KB ELEVATION
 EDF .m                  43.29:  DF ELEVATION
 TDL .m                1152.00:  TOTAL DEPTH (LOGGER)
 VSC .                       0:  VS TO CLOSURE
 MAGU.                 1848525:  MAGUTM CHECKSUM
~Parameter Information Block
#MNEM.UNIT       Value        Description
#---------     -----------    ---------------------------
 AV  .mps                 0.40:  Ann Velocity 
 AVMX.mps                 1.56:  Max Ann Veloc 
 AZIF.deg               300.46:  Azm, Final 
 BHAT.        Rotary Steerable:  BHA Type 
 BROT.°/30m               0.40:  Build Rotating 
 BS  .in                 17.50:  Bit Size 
 BSZ .in                 17.50:  Bit Size 
 BTPL.psig              300.00:  Bit Press Loss 
 CABU.                      No:  Customer Abuse 
 CGEO.          Parviz Guliyev:  Customer Geo 
 COMM.                     ägu:  Run Comments 1 
 TCS .hr                108.13:  Time Ciculation Ended 
 CV  .mps                 0.50:  Crit Velocity 
 CVMX.mps                 2.01:  Max Crit Veloc 
 DD1 .          Fariz Nahmatov:  Direct Drillr 1 
 DD2 .             Ehab Radwan:  Direct Drillr 2 
 DDSV.               Geo-Pilot:  DD Service 
 DEFF.%                  99.00:  % Det Eff 
 DLRX.°/30m               0.50:  Dogleg Rot Max 
 DLSO.°/30m               2.80:  Dogleg Oriented 
 DLSX.°/30m               3.90:  Dogleg Str Max 
 DRET.      09.30.04 03-Jul-20:  Drill End Time 
 DRST.      18.33.04 28-Jun-20:  Drill Start Tim 
 DTIM.hr                 55.83:  Time Drilling 
 EDEP.m                1952.00:  End Depth 
 ENG1.      Bakhtiyar Jabbarli:  Engineer 1 
 ENG2.         Farhad Orujzade:  Engineer 2 
 ENG3.          Rustam Safarov:  Engineer 3 
 ETIM.      01.33.04 04-Jul-20:  End Time 
 FLOI.gpm              1050.00:  Flow In 
 FLON.gpm               950.00:  Flow In Min 
 FLOS.cptm                0.10:  Fluid Loss 
 FLOX.gpm              1150.00:  Flow In Max 
 HFLO.                      No:  High Flow 
 HPRE.                      No:  High Pressure 
 HTEM.                      No:  High Temp 
 HYDO.m                   1.80:  Hydro Offset 
 IFIN.deg                75.26:  Inc, Final 
 IMAX.deg                75.38:  Inc Max 
 IMIN.deg                22.84:  Inc Min 
 IMND.m                 832.38:  Inc Min Depth 
 IMXD.m                1936.55:  Inc Max Depth 
 JARR.                      No:  Jarring 
 LETM.      17.40.00 04-Jul-20:  Log End Time 
 LOST.hr                     0:  Lost Rig Time 
 LSTM.      12.33.04 28-Jun-20:  Log Start Time 
 MDCL.ppm             49500.00:  Mud Chlorides 
 MDES.     Inversion Oil/Synthetic:  Mud Desc 
 DFD .sg                  1.46:  Mud Density 
 MDMN.sg                  1.46:  Dens Mud Min 
 MDMX.sg                  1.46:  Dens Mud Max 
 MOIL.                      70:  Run Mud Oil % 
 MOWR.                   70:30:  Run Mud OWR 
 MSND.                     0.5:  Run Mud Sand % 
 MSOL.                   19.89:  Run Mud Solids% 
 DFV .spqt               72.00:  Mud Viscosity 
 MWOD.in                  9.50:  MWD Tool OD 
 MWSI.                      No:  Serv Intrp, MWD 
 OTIM.hr                146.53:  Time Operating 
 PCON.           Look Like New:  Pad Condition 
 PMAX.psia             2900.00:  Press Op, Max 
 PV  .cP                 38.00:  Mud PV 
 RUN .                     600:  Run Number 
 ROPA.m/hr               22.00:  ROP Avg 
 ROPN.m/hr               10.00:  ROP Min 
 ROPX.m/hr              263.00:  ROP Max 
 RPMA.rpm               155.00:  RPM Surface Avg 
 RPMN.rpm               140.00:  RPM Surface Min 
 RPMX.rpm               160.00:  RPM Surface Max 
 RRUN.                    0600:  Rig Run Number 
 RTIM.hr                  5.00:  Time Reaming 
 SAZI.deg               300.08:  Azm, Start 
 SDEP.m                 800.00:  Start Depth 
 SIDD.                      No:  Serv Intrp, DD 
 SINC.deg                22.84:  Inc, Start 
 SPPA.psig             3000.00:  SPP Avg 
 SPPN.psig             1900.00:  SPP Min 
 SPPX.psig             3200.00:  SPP Max 
 STIM.      12.30.04 28-Jun-20:  Start Time 
 SVCS.                 DD, MWD:  Services 
 SVER.                    9.20:  Sperry Version 
 TDAT.m                1952.00:  Tot Depth Attmp 
 TDDF.                      No:  Trip for DD 
 TDLG.m                1152.00:  Tot Depth Loggd 
 TFF .                      No:  Trip for Fail 
 TQAA.f-kp                8.00:  Torque Abs Avg 
 TQAN.f-kp                5.00:  Torque Abs Min 
 TQAX.f-kp               14.00:  Torque Abs Max 
 TRRT.°/30m               0.50:  Turn Rotating 
 MRT .                  EWR-M5:  Maximum Recorded Temperature 
 TTMX.degC               69.00:  Max Tool Temp 
 VS01.                90610313:  Virtual Str1 SN 
 VS02.                90613431:  Virtual Str2 SN 
 VS03.                90615410:  Virtual Str3 SN 
 WBMN.klb                 6.00:  WOB Min 
 WITN.            Bruce Cheyne:  Customer Rep 
 WITN.             Ayaz Aliyev:  Customer Rep 2 
 WOBA.klb                 6.00:  WOB Avg 
 WOBX.klb                10.00:  WOB Max 
 YP  .lhf2               36.00:  Yield Point 
~Curve Information Block
#MNEM.UNIT                 API CODE     Curve Description
#---------               -----------    ---------------------------
 TIME.HHMMSS            00 000 000 000:  GT Time & Date
 GTET.sec               00 000 000 000:  GT Elapsed Test Time
 GTPQH.psia             00 000 000 000:  GT HR Quartz Pressure
 GTDEPTH.m              00 000 000 000:  GT Depth
 GTTVD.m                00 000 000 000:  GT True Vertical Depth
 GTTQ.degC              00 000 000 000:  GT Quartz Temperature
 GTTN.NONE              00 000 000 000:  GT Test Number
#Other Information
#
#WARRANTY: Halliburton will use its best efforts to furnish customers with 
#accurate information and interpretations that are part of, and incident to, the services 
#provided.  However, Halliburton cannot and does not warrant the accuracy 
#or correctness of such information and interpretations.  Under no circumstances should any 
#such information or interpretation be relied upon as the sole basis for any drilling, 
#completion, production, or financial decision or any procedure involving any risk to the 
#safety of any drilling venture, drilling rig or its crew or any other third party.  The 
#Customer has full responsibility for all drilling, completion and production operation.  
#Halliburton makes no representations or warranties, either expressed or 
#implied, including, but not limited to, the implied warranties of merchantability or fitness 
#for a particular purpose, with respect to the services rendered.  In no event will 
#Halliburton be liable for failure to obtain any particular results or for 
#any damages, including, but not limited to, indirect, special or consequential damages, 
#resulting from the use of any information or interpretation provided by Halliburton.
#
~A           TIME            GTET   GTPQH  GTDEPTH  GTTVD  GTTQ  GTTN 
# ...
   00:00:25.639.03-Jul-2020 368.05 2503.15 1828.92 1344.71 59.06 7.00
   00:00:25.839.03-Jul-2020 368.25 2503.15 1828.92 1344.71 59.06 7.00
   00:00:26.039.03-Jul-2020 368.45 2503.14 1828.92 1344.71 59.06 7.00
   00:00:26.239.03-Jul-2020 368.65 2503.16 1828.92 1344.71 59.06 7.00
   00:00:26.439.03-Jul-2020 368.85 2503.18 1828.92 1344.71 59.06 7.00
   00:00:26.639.03-Jul-2020 369.05 2503.19 1828.92 1344.71 59.06 7.00
   00:00:26.839.03-Jul-2020 369.25 2503.19 1828.92 1344.71 59.06 7.00
   00:00:27.039.03-Jul-2020 369.45 2503.20 1828.92 1344.71 59.06 7.00
   00:00:27.239.03-Jul-2020 369.65 2503.16 1828.92 1344.71 59.06 7.00
   00:00:27.439.03-Jul-2020 369.85 2503.15 1828.92 1344.71 59.06 7.00
   00:00:27.639.03-Jul-2020 370.05 2503.23 1828.92 1344.71 59.06 7.00
   00:00:27.839.03-Jul-2020 370.25 2503.22 1828.92 1344.71 59.06 7.00
   00:00:28.039.03-Jul-2020 370.45 2503.24 1828.92 1344.71 59.06 7.00
   00:00:28.239.03-Jul-2020 370.65 2503.23 1828.92 1344.71 59.06 7.00
   00:00:28.439.03-Jul-2020 370.85 2503.23 1828.92 1344.71 59.06 7.00
   00:00:28.639.03-Jul-2020 371.05 2503.24 1828.92 1344.71 59.06 7.00
   00:00:28.839.03-Jul-2020 371.25 2503.17 1828.92 1344.71 59.06 7.00
   00:00:29.039.03-Jul-2020 371.45 2503.23 1828.92 1344.71 59.06 7.00
   00:00:29.239.03-Jul-2020 371.65 2503.28 1828.92 1344.71 59.06 7.00
   00:00:29.439.03-Jul-2020 371.85 2503.26 1828.92 1344.71 59.06 7.00
   00:00:29.639.03-Jul-2020 372.05 2503.20 1828.92 1344.71 59.06 7.00
   00:00:29.839.03-Jul-2020 372.25 2503.28 1828.92 1344.71 59.06 7.00
   00:00:30.039.03-Jul-2020 372.45 2503.31 1828.92 1344.71 59.06 7.00
   00:00:30.239.03-Jul-2020 372.65 2503.29 1828.92 1344.71 59.06 7.00
   00:00:30.439.03-Jul-2020 372.85 2503.30 1828.92 1344.71 59.06 7.00
   00:00:30.640.03-Jul-2020 373.05 2503.31 1828.92 1344.71 59.06 7.00
   00:00:30.840.03-Jul-2020 373.25 2503.28 1828.92 1344.71 59.06 7.00
   00:00:31.040.03-Jul-2020 373.45 2503.20 1828.92 1344.71 59.06 7.00
   00:00:31.240.03-Jul-2020 373.65 2503.31 1828.92 1344.71 59.06 7.00
   00:00:31.440.03-Jul-2020 373.85 2503.32 1828.92 1344.71 59.06 7.00
   00:00:31.640.03-Jul-2020 374.05 2503.32 1828.92 1344.71 59.06 7.00
   00:00:31.840.03-Jul-2020 374.25 2503.32 1828.92 1344.71 59.06 7.00
   00:00:32.040.03-Jul-2020 374.45 2503.32 1828.92 1344.71 59.06 7.00
   00:00:32.240.03-Jul-2020 374.65 2503.30 1828.92 1344.71 59.06 7.00
   00:00:32.440.03-Jul-2020 374.85 2503.32 1828.92 1344.71 59.06 7.00
   00:00:32.640.03-Jul-2020 375.05 2503.32 1828.92 1344.71 59.06 7.00
   00:00:32.840.03-Jul-2020 375.25 2503.32 1828.92 1344.71 59.06 7.00
   00:00:33.040.03-Jul-2020 375.45 2503.32 1828.92 1344.71 59.06 7.00
   00:00:33.240.03-Jul-2020 375.65 2503.32 1828.92 1344.71 59.06 7.00
   00:00:33.440.03-Jul-2020 375.85 2503.33 1828.92 1344.71 59.06 7.00
   00:00:33.640.03-Jul-2020 376.05 2503.33 1828.92 1344.71 59.06 7.00
   00:00:33.840.03-Jul-2020 376.25 2503.33 1828.92 1344.71 59.06 7.00
   00:00:34.040.03-Jul-2020 376.45 2503.35 1828.92 1344.71 59.06 7.00
   00:00:34.240.03-Jul-2020 376.65 2503.36 1828.92 1344.71 59.06 7.00
   00:00:34.440.03-Jul-2020 376.85 2503.33 1828.92 1344.71 59.06 7.00
   00:00:34.640.03-Jul-2020 377.05 2503.27 1828.92 1344.71 59.06 7.00
   00:00:34.840.03-Jul-2020 377.25 2503.34 1828.92 1344.71 59.06 7.00
   00:00:35.040.03-Jul-2020 377.45 2503.36 1828.92 1344.71 59.06 7.00
   00:00:35.240.03-Jul-2020 377.65 2503.34 1828.92 1344.71 59.06 7.00
   00:00:35.440.03-Jul-2020 377.85 2503.35 1828.92 1344.71 59.06 7.00
   00:00:35.640.03-Jul-2020 378.05 2503.35 1828.92 1344.71 59.06 7.00
   00:00:35.840.03-Jul-2020 378.25 2503.35 1828.92 1344.71 59.06 7.00
   00:00:36.040.03-Jul-2020 378.45 2503.35 1828.92 1344.71 59.06 7.00
   00:00:36.240.03-Jul-2020 378.65 2503.37 1828.92 1344.71 59.06 7.00
   00:00:36.440.03-Jul-2020 378.85 2503.38 1828.92 1344.71 59.06 7.00
   00:00:36.640.03-Jul-2020 379.05 2503.37 1828.92 1344.71 59.06 7.00
   00:00:36.840.03-Jul-2020 379.25 2503.37 1828.92 1344.71 59.06 7.00
   00:00:37.040.03-Jul-2020 379.45 2503.32 1828.92 1344.71 59.06 7.00
   00:00:37.240.03-Jul-2020 379.65 2503.32 1828.92 1344.71 59.06 7.00
   00:00:37.440.03-Jul-2020 379.85 2503.38 1828.92 1344.71 59.06 7.00
   00:00:37.640.03-Jul-2020 380.05 2503.36 1828.92 1344.71 59.06 7.00
   00:00:37.841.03-Jul-2020 380.25 2503.36 1828.92 1344.71 59.06 7.00
   00:00:38.041.03-Jul-2020 380.45 2503.38 1828.92 1344.71 59.06 7.00
   00:00:38.241.03-Jul-2020 380.65 2503.35 1828.92 1344.71 59.06 7.00
   00:00:38.441.03-Jul-2020 380.85 2503.29 1828.92 1344.71 59.06 7.00
   00:00:38.641.03-Jul-2020 381.05 2503.39 1828.92 1344.71 59.06 7.00
   00:00:38.841.03-Jul-2020 381.25 2503.39 1828.92 1344.71 59.06 7.00
   00:00:39.041.03-Jul-2020 381.45 2503.38 1828.92 1344.71 59.06 7.00
   00:00:39.241.03-Jul-2020 381.65 2503.38 1828.92 1344.71 59.06 7.00
   00:00:39.441.03-Jul-2020 381.85 2503.38 1828.92 1344.71 59.06 7.00
   00:00:39.641.03-Jul-2020 382.05 2503.34 1828.92 1344.71 59.06 7.00
   00:00:39.841.03-Jul-2020 382.25 2503.34 1828.92 1344.71 59.06 7.00
   00:00:40.041.03-Jul-2020 382.45 2503.43 1828.92 1344.71 59.06 7.00
   00:00:40.241.03-Jul-2020 382.65 2503.41 1828.92 1344.71 59.06 7.00
   00:00:40.441.03-Jul-2020 382.85 2503.39 1828.92 1344.71 59.06 7.00
   00:00:40.641.03-Jul-2020 383.05 2503.32 1828.92 1344.71 59.06 7.00
   00:00:40.841.03-Jul-2020 383.25 2503.32 1828.92 1344.71 59.06 7.00
   00:00:41.041.03-Jul-2020 383.45 2503.41 1828.92 1344.71 59.06 7.00
   00:00:41.241.03-Jul-2020 383.65 2503.38 1828.92 1344.71 59.06 7.00
   00:00:41.441.03-Jul-2020 383.85 2503.41 1828.92 1344.71 59.06 7.00
   00:00:41.641.03-Jul-2020 384.05 2503.42 1828.92 1344.71 59.06 7.00
   00:00:41.841.03-Jul-2020 384.25 2503.42 1828.92 1344.71 59.06 7.00
   00:00:42.041.03-Jul-2020 384.45 2503.40 1828.92 1344.71 59.06 7.00
   00:00:42.241.03-Jul-2020 384.65 2503.41 1828.92 1344.71 59.06 7.00
   00:00:42.441.03-Jul-2020 384.85 2503.43 1828.92 1344.71 59.06 7.00
   00:00:42.641.03-Jul-2020 385.05 2503.41 1828.92 1344.71 59.06 7.00
   00:00:42.841.03-Jul-2020 385.25 2503.41 1828.92 1344.71 59.06 7.00
   00:00:43.041.03-Jul-2020 385.45 2503.41 1828.92 1344.71 59.06 7.00
   00:00:43.241.03-Jul-2020 385.65 2503.41 1828.92 1344.71 59.06 7.00
   00:00:43.441.03-Jul-2020 385.85 2503.41 1828.92 1344.71 59.05 7.00
   00:00:43.641.03-Jul-2020 386.05 2503.43 1828.92 1344.71 59.06 7.00
   00:00:43.841.03-Jul-2020 386.25 2503.43 1828.92 1344.71 59.06 7.00
   00:00:44.041.03-Jul-2020 386.45 2503.41 1828.92 1344.71 59.05 7.00
   00:00:44.241.03-Jul-2020 386.65 2503.39 1828.92 1344.71 59.06 7.00
   00:00:44.441.03-Jul-2020 386.85 2503.36 1828.92 1344.71 59.06 7.00
   00:00:44.641.03-Jul-2020 387.05 2503.42 1828.92 1344.71 59.05 7.00
   00:00:44.841.03-Jul-2020 387.25 2503.42 1828.92 1344.71 59.05 7.00
   00:00:45.041.03-Jul-2020 387.45 2503.45 1828.92 1344.71 59.05 7.00
   00:00:45.242.03-Jul-2020 387.65 2503.43 1828.92 1344.71 59.06 7.00
   00:00:45.442.03-Jul-2020 387.85 2503.43 1828.92 1344.71 59.06 7.00
   00:00:45.642.03-Jul-2020 388.05 2503.41 1828.92 1344.71 59.05 7.00
   00:00:45.842.03-Jul-2020 388.25 2503.41 1828.92 1344.71 59.05 7.00
   00:00:46.042.03-Jul-2020 388.45 2503.44 1828.92 1344.71 59.06 7.00
   00:00:46.242.03-Jul-2020 388.65 2503.44 1828.92 1344.71 59.05 7.00
   00:00:46.442.03-Jul-2020 388.85 2503.43 1828.92 1344.71 59.05 7.00
   00:00:46.642.03-Jul-2020 389.05 2503.43 1828.92 1344.71 59.05 7.00
   00:00:46.842.03-Jul-2020 389.25 2503.43 1828.92 1344.71 59.05 7.00
   00:00:47.042.03-Jul-2020 389.45 2503.45 1828.92 1344.71 59.05 7.00
   00:00:47.242.03-Jul-2020 389.65 2503.43 1828.92 1344.71 59.05 7.00
   00:00:47.442.03-Jul-2020 389.85 2503.43 1828.92 1344.71 59.05 7.00
   00:00:47.642.03-Jul-2020 390.05 2503.44 1828.92 1344.71 59.05 7.00
   00:00:47.842.03-Jul-2020 390.25 2503.44 1828.92 1344.71 59.05 7.00
   00:00:48.042.03-Jul-2020 390.45 2503.36 1828.92 1344.71 59.05 7.00
   00:00:48.242.03-Jul-2020 390.65 2503.41 1828.92 1344.71 59.05 7.00
   00:00:48.442.03-Jul-2020 390.85 2503.43 1828.92 1344.71 59.05 7.00
