~Version Information
 VERS.                  2.0:   CWLS log ASCII Standard -VERSION 2.0
 WRAP.                   NO:   One line per depth step
~Well Information Block
#MNEM.UNIT     VALUE/NAME     DESCRIPTION
#---------     -----------    ---------------------------
 STRT.S             23:30:34 30-Jun-20: START TIME 23:30:34 30-Jun-20
 STOP.S             23:39:34 30-Jun-20: STOP TIME  23:39:34 30-Jun-20
 STEP.S                   0.00: STEP TIME
 NULL.                 -999.25: NULL VALUE
 DFWT.                        :  DIST FWL TEXT
 DFST.                        :  DIST FSL TEXT
 DMF .             Drill Floor:  DRILL MEAS FROM
 STIM.      09.59.28 01-Jun-20:  START TIME
 DATE.      09.59.28 01-Jun-20:  END TIME
 SPUD.               01-Jun-20:  SPUD DATE
 NREF.                    Grid:  NORTH REFERENCE
 HPTY.       Minimum Curvature:  HOLE POS TYPE
 DMOD.             Drill Model:  DRILL MOD DESC
 SVYD.                  Survey:  SURVEY DESC
 ILTD.               Lithology:  INTERP LTH DESC
 FTOP.          Formation Tops:  FORM TOPS DESC
 SON .        AZ-XX-0905455768:  JOB NUMBER
 WTYP.                Deviated:  WELL TYPE
 COMP.     BP Exploration(Caspian Sea):  COMPANY
 BASE.              Azerbaijan:  LOGGING EQUIPMENT BASE LOCATION
 REGN.                   EESSA:  REGION
 CTRY.              Azerbaijan:  COUNTRY NAME
 FLD .                     ACG:  FIELD NAME
 SRVC.          Turan Drilling:  CONTRACTOR
 WELL.                     B41:  WELL NAME
 RIG .           Central Azeri:  RIG NAME
 DCON.         Sperry Drilling:  DIRECTNL CONTR
 PDAT.          Mean Sea Level:  PERMANENT DATUM
 MDS .        Operator Entered:  MAG DATA SOURCE
 API .                        :  API NUMBER
 CNTY.                        :  COUNTY
 PROV.                        :  PROVINCE
 STAT.                        :  STATE
 UWI .                        :  UNIQUE WELL IDENTIFIER
 LOC .                        :  LOCATION
 LMF .             Drill Floor:  LOG MEASURED FROM
 TVDS.m                  43.29:  TVDSS CORRECTN
 LATI.deg                40.03:  LATITUDE
 LONG.deg                51.35:  LONGITUDE
 WHNS.m                  12.98:  WELL HEAD N/S
 WHEW.m                  -6.62:  WELL HEAD E/W
 UTMX.m              530128.28:  UTM X
 UTMY.m             4433192.49:  UTM Y
 DFWL.m                   0.00:  DISTANCE FWL
 DFSL.m                   0.00:  DISTANCE FSL
 SDEP.m                 378.00:  START DEPTH
 TDD .m                   0.00:  TOTAL DEPTH (DRILLER)
 VSDR.deg               296.18:  VERT SEC DIRECT
 GVFD.g                   1.00:  GRAVITY FIELD
 MFLD.nT              50253.00:  MAGNETIC FIELD
 MDIP.deg                59.49:  MAGNETIC DIP
 MDEC.deg                 6.44:  MAGNETIC DECL
 GRDC.deg                 0.22:  GRID CORRECTION
 AZTC.deg                 6.22:  AZM TOTAL CORR
 EPD .m                   0.00:  ELEVATION
 EGL .m                   0.00:  GROUND ELEVATION
 WDMS.m                 128.20:  WD ELEV
 APD .m                  43.29:  DEPTH ABOVE PD
 AGAP.m                  43.29:  AIR GAP
 VSEW.m                  -6.62:  VERT SEC E/W
 VSNS.m                  12.98:  VERT SEC N/S
 EKB .m                  43.29:  KB ELEVATION
 EDF .m                  43.29:  DF ELEVATION
 TDL .m                1152.00:  TOTAL DEPTH (LOGGER)
 VSC .                       0:  VS TO CLOSURE
 MAGU.                 1848525:  MAGUTM CHECKSUM
~Parameter Information Block
#MNEM.UNIT       Value        Description
#---------     -----------    ---------------------------
 AV  .mps                 0.40:  Ann Velocity 
 AVMX.mps                 1.56:  Max Ann Veloc 
 AZIF.deg               300.46:  Azm, Final 
 BHAT.        Rotary Steerable:  BHA Type 
 BROT.°/30m               0.40:  Build Rotating 
 BS  .in                 17.50:  Bit Size 
 BSZ .in                 17.50:  Bit Size 
 BTPL.psig              300.00:  Bit Press Loss 
 CABU.                      No:  Customer Abuse 
 CGEO.          Parviz Guliyev:  Customer Geo 
 COMM.                     œº_:  Run Comments 1 
 TCS .hr                108.13:  Time Ciculation Ended 
 CV  .mps                 0.50:  Crit Velocity 
 CVMX.mps                 2.01:  Max Crit Veloc 
 DD1 .          Fariz Nahmatov:  Direct Drillr 1 
 DD2 .             Ehab Radwan:  Direct Drillr 2 
 DDSV.               Geo-Pilot:  DD Service 
 DEFF.%                  99.00:  % Det Eff 
 DLRX.°/30m               0.50:  Dogleg Rot Max 
 DLSO.°/30m               2.80:  Dogleg Oriented 
 DLSX.°/30m               3.90:  Dogleg Str Max 
 DRET.      09.30.04 03-Jul-20:  Drill End Time 
 DRST.      18.33.04 28-Jun-20:  Drill Start Tim 
 DTIM.hr                 55.83:  Time Drilling 
 EDEP.m                1952.00:  End Depth 
 ENG1.      Bakhtiyar Jabbarli:  Engineer 1 
 ENG2.         Farhad Orujzade:  Engineer 2 
 ENG3.          Rustam Safarov:  Engineer 3 
 ETIM.      01.33.04 04-Jul-20:  End Time 
 FLOI.gpm              1050.00:  Flow In 
 FLON.gpm               950.00:  Flow In Min 
 FLOS.cptm                0.10:  Fluid Loss 
 FLOX.gpm              1150.00:  Flow In Max 
 HFLO.                      No:  High Flow 
 HPRE.                      No:  High Pressure 
 HTEM.                      No:  High Temp 
 HYDO.m                   1.80:  Hydro Offset 
 IFIN.deg                75.26:  Inc, Final 
 IMAX.deg                75.38:  Inc Max 
 IMIN.deg                22.84:  Inc Min 
 IMND.m                 832.38:  Inc Min Depth 
 IMXD.m                1936.55:  Inc Max Depth 
 JARR.                      No:  Jarring 
 LETM.      17.40.00 04-Jul-20:  Log End Time 
 LOST.hr                     0:  Lost Rig Time 
 LSTM.      12.33.04 28-Jun-20:  Log Start Time 
 MDCL.ppm             49500.00:  Mud Chlorides 
 MDES.     Inversion Oil/Synthetic:  Mud Desc 
 DFD .sg                  1.46:  Mud Density 
 MDMN.sg                  1.46:  Dens Mud Min 
 MDMX.sg                  1.46:  Dens Mud Max 
 MOIL.                      70:  Run Mud Oil % 
 MOWR.                   70:30:  Run Mud OWR 
 MSND.                     0.5:  Run Mud Sand % 
 MSOL.                   19.89:  Run Mud Solids% 
 DFV .spqt               72.00:  Mud Viscosity 
 MWOD.in                  9.50:  MWD Tool OD 
 MWSI.                      No:  Serv Intrp, MWD 
 OTIM.hr                146.53:  Time Operating 
 PCON.           Look Like New:  Pad Condition 
 PMAX.psia             2900.00:  Press Op, Max 
 PV  .cP                 38.00:  Mud PV 
 RUN .                     600:  Run Number 
 ROPA.m/hr               22.00:  ROP Avg 
 ROPN.m/hr               10.00:  ROP Min 
 ROPX.m/hr              263.00:  ROP Max 
 RPMA.rpm               155.00:  RPM Surface Avg 
 RPMN.rpm               140.00:  RPM Surface Min 
 RPMX.rpm               160.00:  RPM Surface Max 
 RRUN.                    0600:  Rig Run Number 
 RTIM.hr                  5.00:  Time Reaming 
 SAZI.deg               300.08:  Azm, Start 
 SDEP.m                 800.00:  Start Depth 
 SIDD.                      No:  Serv Intrp, DD 
 SINC.deg                22.84:  Inc, Start 
 SPPA.psig             3000.00:  SPP Avg 
 SPPN.psig             1900.00:  SPP Min 
 SPPX.psig             3200.00:  SPP Max 
 STIM.      12.30.04 28-Jun-20:  Start Time 
 SVCS.                 DD, MWD:  Services 
 SVER.                    9.20:  Sperry Version 
 TDAT.m                1952.00:  Tot Depth Attmp 
 TDDF.                      No:  Trip for DD 
 TDLG.m                1152.00:  Tot Depth Loggd 
 TFF .                      No:  Trip for Fail 
 TQAA.f-kp                8.00:  Torque Abs Avg 
 TQAN.f-kp                5.00:  Torque Abs Min 
 TQAX.f-kp               14.00:  Torque Abs Max 
 TRRT.°/30m               0.50:  Turn Rotating 
 MRT .                  EWR-M5:  Maximum Recorded Temperature 
 TTMX.degC               69.00:  Max Tool Temp 
 VS01.                90610313:  Virtual Str1 SN 
 VS02.                90613431:  Virtual Str2 SN 
 VS03.                90615410:  Virtual Str3 SN 
 WBMN.klb                 6.00:  WOB Min 
 WITN.            Bruce Cheyne:  Customer Rep 
 WITN.             Ayaz Aliyev:  Customer Rep 2 
 WOBA.klb                 6.00:  WOB Avg 
 WOBX.klb                10.00:  WOB Max 
 YP  .lhf2               36.00:  Yield Point 
~Curve Information Block
#MNEM.UNIT                 API CODE     Curve Description
#---------               -----------    ---------------------------
 TIME.HHMMSS            00 000 000 000:  GT Time & Date
 GTET.sec               00 000 000 000:  GT Elapsed Test Time
 GTPQH.psia             00 000 000 000:  GT HR Quartz Pressure
 GTDEPTH.m              00 000 000 000:  GT Depth
 GTTVD.m                00 000 000 000:  GT True Vertical Depth
 GTTQ.degC              00 000 000 000:  GT Quartz Temperature
 GTTN.NONE              00 000 000 000:  GT Test Number
#Other Information
#
#WARRANTY: Halliburton will use its best efforts to furnish customers with 
#accurate information and interpretations that are part of, and incident to, the services 
#provided.  However, Halliburton cannot and does not warrant the accuracy 
#or correctness of such information and interpretations.  Under no circumstances should any 
#such information or interpretation be relied upon as the sole basis for any drilling, 
#completion, production, or financial decision or any procedure involving any risk to the 
#safety of any drilling venture, drilling rig or its crew or any other third party.  The 
#Customer has full responsibility for all drilling, completion and production operation.  
#Halliburton makes no representations or warranties, either expressed or 
#implied, including, but not limited to, the implied warranties of merchantability or fitness 
#for a particular purpose, with respect to the services rendered.  In no event will 
#Halliburton be liable for failure to obtain any particular results or for 
#any damages, including, but not limited to, indirect, special or consequential damages, 
#resulting from the use of any information or interpretation provided by Halliburton.
#
~A           TIME            GTET   GTPQH  GTDEPTH  GTTVD  GTTQ  GTTN 
# ...
   23:32:06.512.30-Jun-2020  92.03 2107.80 1161.05 1096.50 59.67 4.00
   23:32:06.712.30-Jun-2020  92.23 2107.80 1161.05 1096.50 59.67 4.00
   23:32:06.912.30-Jun-2020  92.43 2108.05 1161.05 1096.50 59.67 4.00
   23:32:07.112.30-Jun-2020  92.63 2108.00 1161.05 1096.50 59.67 4.00
   23:32:07.312.30-Jun-2020  92.83 2108.21 1161.05 1096.50 59.67 4.00
   23:32:07.512.30-Jun-2020  93.03 2108.12 1161.05 1096.50 59.67 4.00
   23:32:07.712.30-Jun-2020  93.23 2108.12 1161.05 1096.50 59.67 4.00
   23:32:07.912.30-Jun-2020  93.43 2108.18 1161.05 1096.50 59.67 4.00
   23:32:08.112.30-Jun-2020  93.63 2109.72 1161.05 1096.50 59.67 4.00
   23:32:08.312.30-Jun-2020  93.83 2110.44 1161.05 1096.50 59.67 4.00
   23:32:08.512.30-Jun-2020  94.03 2110.51 1161.05 1096.50 59.67 4.00
   23:32:08.712.30-Jun-2020  94.23 2110.51 1161.05 1096.50 59.67 4.00
   23:32:08.913.30-Jun-2020  94.43 2110.65 1161.05 1096.50 59.66 4.00
   23:32:09.113.30-Jun-2020  94.63 2110.70 1161.05 1096.50 59.66 4.00
   23:32:09.313.30-Jun-2020  94.83 2110.73 1161.05 1096.50 59.66 4.00
   23:32:09.513.30-Jun-2020  95.03 2110.76 1161.05 1096.50 59.66 4.00
   23:32:09.713.30-Jun-2020  95.23 2110.80 1161.05 1096.50 59.66 4.00
   23:32:09.913.30-Jun-2020  95.43 2110.85 1161.05 1096.50 59.66 4.00
   23:32:10.113.30-Jun-2020  95.63 2110.92 1161.05 1096.50 59.66 4.00
   23:32:10.313.30-Jun-2020  95.83 2110.97 1161.05 1096.50 59.66 4.00
   23:32:10.513.30-Jun-2020  96.03 2111.03 1161.05 1096.50 59.66 4.00
   23:32:10.713.30-Jun-2020  96.23 2111.03 1161.05 1096.50 59.66 4.00
   23:32:10.913.30-Jun-2020  96.43 2111.15 1161.05 1096.50 59.66 4.00
   23:32:11.113.30-Jun-2020  96.63 2111.22 1161.05 1096.50 59.66 4.00
   23:32:11.313.30-Jun-2020  96.83 2111.27 1161.05 1096.50 59.66 4.00
   23:32:11.513.30-Jun-2020  97.03 2111.31 1161.05 1096.50 59.66 4.00
   23:32:11.713.30-Jun-2020  97.23 2111.31 1161.05 1096.50 59.66 4.00
   23:32:11.913.30-Jun-2020  97.43 2111.39 1161.05 1096.50 59.66 4.00
   23:32:12.113.30-Jun-2020  97.63 2111.42 1161.05 1096.50 59.66 4.00
   23:32:12.314.30-Jun-2020  97.83 2111.45 1161.05 1096.50 59.66 4.00
   23:32:12.514.30-Jun-2020  98.03 2111.59 1161.05 1096.50 59.66 4.00
   23:32:12.714.30-Jun-2020  98.23 2111.59 1161.05 1096.50 59.66 4.00
   23:32:12.914.30-Jun-2020  98.43 2111.55 1161.05 1096.50 59.66 4.00
   23:32:13.114.30-Jun-2020  98.63 2111.53 1161.05 1096.50 59.66 4.00
   23:32:13.314.30-Jun-2020  98.83 2111.57 1161.05 1096.50 59.66 4.00
   23:32:13.514.30-Jun-2020  99.03 2111.57 1161.05 1096.50 59.66 4.00
   23:32:13.714.30-Jun-2020  99.23 2111.57 1161.05 1096.50 59.66 4.00
   23:32:13.914.30-Jun-2020  99.43 2111.61 1161.05 1096.50 59.66 4.00
   23:32:14.114.30-Jun-2020  99.63 2111.60 1161.05 1096.50 59.66 4.00
   23:32:14.314.30-Jun-2020  99.83 2111.60 1161.05 1096.50 59.66 4.00
   23:32:14.514.30-Jun-2020 100.03 2111.61 1161.05 1096.50 59.66 4.00
   23:32:14.714.30-Jun-2020 100.23 2111.61 1161.05 1096.50 59.66 4.00
   23:32:14.914.30-Jun-2020 100.43 2111.72 1161.05 1096.50 59.66 4.00
   23:32:15.114.30-Jun-2020 100.63 2111.63 1161.05 1096.50 59.66 4.00
   23:32:15.314.30-Jun-2020 100.83 2111.62 1161.05 1096.50 59.66 4.00
   23:32:15.514.30-Jun-2020 101.03 2111.59 1161.05 1096.50 59.66 4.00
   23:32:15.715.30-Jun-2020 101.23 2111.59 1161.05 1096.50 59.66 4.00
   23:32:15.915.30-Jun-2020 101.43 2111.59 1161.05 1096.50 59.66 4.00
   23:32:16.115.30-Jun-2020 101.63 2111.67 1161.05 1096.50 59.66 4.00
   23:32:16.315.30-Jun-2020 101.83 2111.63 1161.05 1096.50 59.66 4.00
   23:32:16.515.30-Jun-2020 102.03 2111.60 1161.05 1096.50 59.66 4.00
   23:32:16.715.30-Jun-2020 102.23 2111.60 1161.05 1096.50 59.66 4.00
   23:32:16.915.30-Jun-2020 102.43 2111.56 1161.05 1096.50 59.66 4.00
   23:32:17.115.30-Jun-2020 102.63 2111.66 1161.05 1096.50 59.66 4.00
   23:32:17.315.30-Jun-2020 102.83 2111.57 1161.05 1096.50 59.66 4.00
   23:32:17.515.30-Jun-2020 103.03 2111.57 1161.05 1096.50 59.66 4.00
   23:32:17.715.30-Jun-2020 103.23 2111.52 1161.05 1096.50 59.66 4.00
   23:32:17.915.30-Jun-2020 103.43 2111.52 1161.05 1096.50 59.66 4.00
   23:32:18.115.30-Jun-2020 103.63 2111.50 1161.05 1096.50 59.66 4.00
   23:32:18.315.30-Jun-2020 103.83 2111.48 1161.05 1096.50 59.66 4.00
   23:32:18.515.30-Jun-2020 104.03 2111.59 1161.05 1096.50 59.66 4.00
   23:32:18.715.30-Jun-2020 104.23 2111.59 1161.05 1096.50 59.66 4.00
   23:32:18.915.30-Jun-2020 104.43 2111.46 1161.05 1096.50 59.66 4.00
   23:32:19.116.30-Jun-2020 104.63 2111.42 1161.05 1096.50 59.66 4.00
   23:32:19.316.30-Jun-2020 104.83 2111.43 1161.05 1096.50 59.66 4.00
   23:32:19.516.30-Jun-2020 105.03 2111.39 1161.05 1096.50 59.66 4.00
   23:32:19.716.30-Jun-2020 105.23 2111.39 1161.05 1096.50 59.66 4.00
   23:32:19.916.30-Jun-2020 105.43 2111.35 1161.05 1096.50 59.66 4.00
   23:32:20.116.30-Jun-2020 105.63 2111.31 1161.05 1096.50 59.66 4.00
   23:32:20.316.30-Jun-2020 105.83 2111.29 1161.05 1096.50 59.66 4.00
   23:32:20.516.30-Jun-2020 106.03 2111.27 1161.05 1096.50 59.66 4.00
   23:32:20.716.30-Jun-2020 106.23 2111.27 1161.05 1096.50 59.66 4.00
   23:32:20.916.30-Jun-2020 106.43 2111.21 1161.05 1096.50 59.66 4.00
   23:32:21.116.30-Jun-2020 106.63 2111.22 1161.05 1096.50 59.66 4.00
   23:32:21.316.30-Jun-2020 106.83 2111.18 1161.05 1096.50 59.66 4.00
   23:32:21.516.30-Jun-2020 107.03 2111.15 1161.05 1096.50 59.66 4.00
   23:32:21.716.30-Jun-2020 107.23 2111.15 1161.05 1096.50 59.66 4.00
   23:32:21.916.30-Jun-2020 107.43 2111.14 1161.05 1096.50 59.66 4.00
   23:32:22.116.30-Jun-2020 107.63 2111.14 1161.05 1096.50 59.66 4.00
   23:32:22.316.30-Jun-2020 107.83 2111.20 1161.05 1096.50 59.66 4.00
   23:32:22.517.30-Jun-2020 108.03 2111.18 1161.05 1096.50 59.66 4.00
   23:32:22.717.30-Jun-2020 108.23 2111.18 1161.05 1096.50 59.66 4.00
   23:32:22.917.30-Jun-2020 108.43 2111.12 1161.05 1096.50 59.66 4.00
   23:32:23.117.30-Jun-2020 108.63 2111.10 1161.05 1096.50 59.66 4.00
   23:32:23.317.30-Jun-2020 108.83 2111.11 1161.05 1096.50 59.66 4.00
   23:32:23.517.30-Jun-2020 109.03 2111.10 1161.05 1096.50 59.66 4.00
   23:32:23.717.30-Jun-2020 109.23 2111.10 1161.05 1096.50 59.66 4.00
   23:32:23.917.30-Jun-2020 109.43 2111.10 1161.05 1096.50 59.66 4.00
   23:32:24.117.30-Jun-2020 109.63 2111.10 1161.05 1096.50 59.66 4.00
   23:32:24.317.30-Jun-2020 109.83 2111.11 1161.05 1096.50 59.66 4.00
   23:32:24.517.30-Jun-2020 110.03 2111.11 1161.05 1096.50 59.66 4.00
   23:32:24.717.30-Jun-2020 110.23 2111.11 1161.05 1096.50 59.66 4.00
   23:32:24.917.30-Jun-2020 110.43 2111.12 1161.05 1096.50 59.66 4.00
   23:32:25.117.30-Jun-2020 110.63 2111.10 1161.05 1096.50 59.66 4.00
   23:32:25.317.30-Jun-2020 110.83 2111.09 1161.05 1096.50 59.66 4.00
   23:32:25.517.30-Jun-2020 111.03 2111.08 1161.05 1096.50 59.66 4.00
   23:32:25.717.30-Jun-2020 111.23 2111.13 1161.05 1096.50 59.66 4.00
   23:32:25.917.30-Jun-2020 111.43 2111.12 1161.05 1096.50 59.66 4.00
   23:32:26.118.30-Jun-2020 111.63 2111.09 1161.05 1096.50 59.66 4.00
   23:32:26.318.30-Jun-2020 111.83 2111.07 1161.05 1096.50 59.66 4.00
   23:32:26.518.30-Jun-2020 112.03 2111.07 1161.05 1096.50 59.66 4.00
   23:32:26.718.30-Jun-2020 112.23 2111.07 1161.05 1096.50 59.66 4.00
   23:32:26.918.30-Jun-2020 112.43 2111.14 1161.05 1096.50 59.66 4.00
   23:32:27.118.30-Jun-2020 112.63 2111.05 1161.05 1096.50 59.66 4.00
   23:32:27.318.30-Jun-2020 112.83 2111.07 1161.05 1096.50 59.66 4.00
   23:32:27.518.30-Jun-2020 113.03 2111.07 1161.05 1096.50 59.66 4.00
   23:32:27.718.30-Jun-2020 113.23 2111.07 1161.05 1096.50 59.66 4.00
   23:32:27.918.30-Jun-2020 113.43 2111.08 1161.05 1096.50 59.66 4.00
   23:32:28.118.30-Jun-2020 113.63 2111.12 1161.05 1096.50 59.66 4.00
   23:32:28.318.30-Jun-2020 113.83 2111.04 1161.05 1096.50 59.66 4.00
   23:32:28.518.30-Jun-2020 114.03 2111.06 1161.05 1096.50 59.66 4.00
   23:32:28.718.30-Jun-2020 114.23 2111.06 1161.05 1096.50 59.66 4.00
   23:32:28.918.30-Jun-2020 114.43 2111.07 1161.05 1096.50 59.66 4.00
   23:32:29.118.30-Jun-2020 114.63 2111.06 1161.05 1096.50 59.66 4.00
   23:32:29.318.30-Jun-2020 114.83 2111.05 1161.05 1096.50 59.66 4.00
