~Version Information
 VERS.                  2.0:   CWLS log ASCII Standard -VERSION 2.0
 WRAP.                   NO:   One line per depth step
~Well Information Block
#MNEM.UNIT     VALUE/NAME     DESCRIPTION
#---------     -----------    ---------------------------
 STRT.S             04:11:34 02-Jul-20: START TIME 04:11:34 02-Jul-20
 STOP.S             04:20:35 02-Jul-20: STOP TIME  04:20:35 02-Jul-20
 STEP.S                   0.00: STEP TIME
 NULL.                 -999.25: NULL VALUE
 DFWT.                        :  DIST FWL TEXT
 DFST.                        :  DIST FSL TEXT
 DMF .             Drill Floor:  DRILL MEAS FROM
 STIM.      09.59.28 01-Jun-20:  START TIME
 DATE.      09.59.28 01-Jun-20:  END TIME
 SPUD.               01-Jun-20:  SPUD DATE
 NREF.                    Grid:  NORTH REFERENCE
 HPTY.       Minimum Curvature:  HOLE POS TYPE
 DMOD.             Drill Model:  DRILL MOD DESC
 SVYD.                  Survey:  SURVEY DESC
 ILTD.               Lithology:  INTERP LTH DESC
 FTOP.          Formation Tops:  FORM TOPS DESC
 SON .        AZ-XX-0905455768:  JOB NUMBER
 WTYP.                Deviated:  WELL TYPE
 COMP.     BP Exploration(Caspian Sea):  COMPANY
 BASE.              Azerbaijan:  LOGGING EQUIPMENT BASE LOCATION
 REGN.                   EESSA:  REGION
 CTRY.              Azerbaijan:  COUNTRY NAME
 FLD .                     ACG:  FIELD NAME
 SRVC.          Turan Drilling:  CONTRACTOR
 WELL.                     B41:  WELL NAME
 RIG .           Central Azeri:  RIG NAME
 DCON.         Sperry Drilling:  DIRECTNL CONTR
 PDAT.          Mean Sea Level:  PERMANENT DATUM
 MDS .        Operator Entered:  MAG DATA SOURCE
 API .                        :  API NUMBER
 CNTY.                        :  COUNTY
 PROV.                        :  PROVINCE
 STAT.                        :  STATE
 UWI .                        :  UNIQUE WELL IDENTIFIER
 LOC .                        :  LOCATION
 LMF .             Drill Floor:  LOG MEASURED FROM
 TVDS.m                  43.29:  TVDSS CORRECTN
 LATI.deg                40.03:  LATITUDE
 LONG.deg                51.35:  LONGITUDE
 WHNS.m                  12.98:  WELL HEAD N/S
 WHEW.m                  -6.62:  WELL HEAD E/W
 UTMX.m              530128.28:  UTM X
 UTMY.m             4433192.49:  UTM Y
 DFWL.m                   0.00:  DISTANCE FWL
 DFSL.m                   0.00:  DISTANCE FSL
 SDEP.m                 378.00:  START DEPTH
 TDD .m                   0.00:  TOTAL DEPTH (DRILLER)
 VSDR.deg               296.18:  VERT SEC DIRECT
 GVFD.g                   1.00:  GRAVITY FIELD
 MFLD.nT              50253.00:  MAGNETIC FIELD
 MDIP.deg                59.49:  MAGNETIC DIP
 MDEC.deg                 6.44:  MAGNETIC DECL
 GRDC.deg                 0.22:  GRID CORRECTION
 AZTC.deg                 6.22:  AZM TOTAL CORR
 EPD .m                   0.00:  ELEVATION
 EGL .m                   0.00:  GROUND ELEVATION
 WDMS.m                 128.20:  WD ELEV
 APD .m                  43.29:  DEPTH ABOVE PD
 AGAP.m                  43.29:  AIR GAP
 VSEW.m                  -6.62:  VERT SEC E/W
 VSNS.m                  12.98:  VERT SEC N/S
 EKB .m                  43.29:  KB ELEVATION
 EDF .m                  43.29:  DF ELEVATION
 TDL .m                1152.00:  TOTAL DEPTH (LOGGER)
 VSC .                       0:  VS TO CLOSURE
 MAGU.                 1848525:  MAGUTM CHECKSUM
~Parameter Information Block
#MNEM.UNIT       Value        Description
#---------     -----------    ---------------------------
 AV  .mps                 0.40:  Ann Velocity 
 AVMX.mps                 1.56:  Max Ann Veloc 
 AZIF.deg               300.46:  Azm, Final 
 BHAT.        Rotary Steerable:  BHA Type 
 BROT.°/30m               0.40:  Build Rotating 
 BS  .in                 17.50:  Bit Size 
 BSZ .in                 17.50:  Bit Size 
 BTPL.psig              300.00:  Bit Press Loss 
 CABU.                      No:  Customer Abuse 
 CGEO.          Parviz Guliyev:  Customer Geo 
 TCS .hr                108.13:  Time Ciculation Ended 
 CV  .mps                 0.50:  Crit Velocity 
 CVMX.mps                 2.01:  Max Crit Veloc 
 DD1 .          Fariz Nahmatov:  Direct Drillr 1 
 DD2 .             Ehab Radwan:  Direct Drillr 2 
 DDSV.               Geo-Pilot:  DD Service 
 DEFF.%                  99.00:  % Det Eff 
 DLRX.°/30m               0.50:  Dogleg Rot Max 
 DLSO.°/30m               2.80:  Dogleg Oriented 
 DLSX.°/30m               3.90:  Dogleg Str Max 
 DRET.      09.30.04 03-Jul-20:  Drill End Time 
 DRST.      18.33.04 28-Jun-20:  Drill Start Tim 
 DTIM.hr                 55.83:  Time Drilling 
 EDEP.m                1952.00:  End Depth 
 ENG1.      Bakhtiyar Jabbarli:  Engineer 1 
 ENG2.         Farhad Orujzade:  Engineer 2 
 ENG3.          Rustam Safarov:  Engineer 3 
 ETIM.      01.33.04 04-Jul-20:  End Time 
 FLOI.gpm              1050.00:  Flow In 
 FLON.gpm               950.00:  Flow In Min 
 FLOS.cptm                0.10:  Fluid Loss 
 FLOX.gpm              1150.00:  Flow In Max 
 HFLO.                      No:  High Flow 
 HPRE.                      No:  High Pressure 
 HTEM.                      No:  High Temp 
 HYDO.m                   1.80:  Hydro Offset 
 IFIN.deg                75.26:  Inc, Final 
 IMAX.deg                75.38:  Inc Max 
 IMIN.deg                22.84:  Inc Min 
 IMND.m                 832.38:  Inc Min Depth 
 IMXD.m                1936.55:  Inc Max Depth 
 JARR.                      No:  Jarring 
 LETM.      17.40.00 04-Jul-20:  Log End Time 
 LOST.hr                     0:  Lost Rig Time 
 LSTM.      12.33.04 28-Jun-20:  Log Start Time 
 MDCL.ppm             49500.00:  Mud Chlorides 
 MDES.     Inversion Oil/Synthetic:  Mud Desc 
 DFD .sg                  1.46:  Mud Density 
 MDMN.sg                  1.46:  Dens Mud Min 
 MDMX.sg                  1.46:  Dens Mud Max 
 MOIL.                      70:  Run Mud Oil % 
 MOWR.                   70:30:  Run Mud OWR 
 MSND.                     0.5:  Run Mud Sand % 
 MSOL.                   19.89:  Run Mud Solids% 
 DFV .spqt               72.00:  Mud Viscosity 
 MWOD.in                  9.50:  MWD Tool OD 
 MWSI.                      No:  Serv Intrp, MWD 
 OTIM.hr                146.53:  Time Operating 
 PCON.           Look Like New:  Pad Condition 
 PMAX.psia             2900.00:  Press Op, Max 
 PV  .cP                 38.00:  Mud PV 
 RUN .                     600:  Run Number 
 ROPA.m/hr               22.00:  ROP Avg 
 ROPN.m/hr               10.00:  ROP Min 
 ROPX.m/hr              263.00:  ROP Max 
 RPMA.rpm               155.00:  RPM Surface Avg 
 RPMN.rpm               140.00:  RPM Surface Min 
 RPMX.rpm               160.00:  RPM Surface Max 
 RRUN.                    0600:  Rig Run Number 
 RTIM.hr                  5.00:  Time Reaming 
 SAZI.deg               300.08:  Azm, Start 
 SDEP.m                 800.00:  Start Depth 
 SIDD.                      No:  Serv Intrp, DD 
 SINC.deg                22.84:  Inc, Start 
 SPPA.psig             3000.00:  SPP Avg 
 SPPN.psig             1900.00:  SPP Min 
 SPPX.psig             3200.00:  SPP Max 
 STIM.      12.30.04 28-Jun-20:  Start Time 
 SVCS.                 DD, MWD:  Services 
 SVER.                    9.20:  Sperry Version 
 TDAT.m                1952.00:  Tot Depth Attmp 
 TDDF.                      No:  Trip for DD 
 TDLG.m                1152.00:  Tot Depth Loggd 
 TFF .                      No:  Trip for Fail 
 TQAA.f-kp                8.00:  Torque Abs Avg 
 TQAN.f-kp                5.00:  Torque Abs Min 
 TQAX.f-kp               14.00:  Torque Abs Max 
 TRRT.°/30m               0.50:  Turn Rotating 
 MRT .                  EWR-M5:  Maximum Recorded Temperature 
 TTMX.degC               69.00:  Max Tool Temp 
 VS01.                90610313:  Virtual Str1 SN 
 VS02.                90613431:  Virtual Str2 SN 
 VS03.                90615410:  Virtual Str3 SN 
 WBMN.klb                 6.00:  WOB Min 
 WITN.            Bruce Cheyne:  Customer Rep 
 WITN.             Ayaz Aliyev:  Customer Rep 2 
 WOBA.klb                 6.00:  WOB Avg 
 WOBX.klb                10.00:  WOB Max 
 YP  .lhf2               36.00:  Yield Point 
~Curve Information Block
#MNEM.UNIT                 API CODE     Curve Description
#---------               -----------    ---------------------------
 TIME.HHMMSS            00 000 000 000:  GT Time & Date
 GTET.sec               00 000 000 000:  GT Elapsed Test Time
 GTPQH.psia             00 000 000 000:  GT HR Quartz Pressure
 GTDEPTH.m              00 000 000 000:  GT Depth
 GTTVD.m                00 000 000 000:  GT True Vertical Depth
 GTTQ.degC              00 000 000 000:  GT Quartz Temperature
 GTTN.NONE              00 000 000 000:  GT Test Number
#Other Information
#
#WARRANTY: Halliburton will use its best efforts to furnish customers with 
#accurate information and interpretations that are part of, and incident to, the services 
#provided.  However, Halliburton cannot and does not warrant the accuracy 
#or correctness of such information and interpretations.  Under no circumstances should any 
#such information or interpretation be relied upon as the sole basis for any drilling, 
#completion, production, or financial decision or any procedure involving any risk to the 
#safety of any drilling venture, drilling rig or its crew or any other third party.  The 
#Customer has full responsibility for all drilling, completion and production operation.  
#Halliburton makes no representations or warranties, either expressed or 
#implied, including, but not limited to, the implied warranties of merchantability or fitness 
#for a particular purpose, with respect to the services rendered.  In no event will 
#Halliburton be liable for failure to obtain any particular results or for 
#any damages, including, but not limited to, indirect, special or consequential damages, 
#resulting from the use of any information or interpretation provided by Halliburton.
#
~A           TIME            GTET   GTPQH  GTDEPTH  GTTVD  GTTQ  GTTN 
# ...
   04:18:28.437.02-Jul-2020 414.07 2364.04 1565.98 1276.49 58.40 6.00
   04:18:28.637.02-Jul-2020 414.27 2364.04 1565.98 1276.49 58.40 6.00
   04:18:28.837.02-Jul-2020 414.47 2364.05 1565.98 1276.49 58.40 6.00
   04:18:29.037.02-Jul-2020 414.67 2364.07 1565.98 1276.49 58.40 6.00
   04:18:29.237.02-Jul-2020 414.87 2364.01 1565.98 1276.49 58.40 6.00
   04:18:29.437.02-Jul-2020 415.07 2364.05 1565.98 1276.49 58.40 6.00
   04:18:29.637.02-Jul-2020 415.27 2364.05 1565.98 1276.49 58.40 6.00
   04:18:29.837.02-Jul-2020 415.47 2364.03 1565.98 1276.49 58.41 6.00
   04:18:30.037.02-Jul-2020 415.67 2364.07 1565.98 1276.49 58.41 6.00
   04:18:30.237.02-Jul-2020 415.87 2364.05 1565.98 1276.49 58.41 6.00
   04:18:30.437.02-Jul-2020 416.07 2364.06 1565.98 1276.49 58.41 6.00
   04:18:30.637.02-Jul-2020 416.27 2364.04 1565.98 1276.49 58.41 6.00
   04:18:30.837.02-Jul-2020 416.47 2364.05 1565.98 1276.49 58.41 6.00
   04:18:31.037.02-Jul-2020 416.67 2364.06 1565.98 1276.49 58.41 6.00
   04:18:31.237.02-Jul-2020 416.87 2364.09 1565.98 1276.49 58.41 6.00
   04:18:31.438.02-Jul-2020 417.07 2364.07 1565.98 1276.49 58.41 6.00
   04:18:31.638.02-Jul-2020 417.27 2364.07 1565.98 1276.49 58.41 6.00
   04:18:31.838.02-Jul-2020 417.47 2364.09 1565.98 1276.49 58.41 6.00
   04:18:32.038.02-Jul-2020 417.67 2364.08 1565.98 1276.49 58.41 6.00
   04:18:32.238.02-Jul-2020 417.87 2364.06 1565.98 1276.49 58.41 6.00
   04:18:32.438.02-Jul-2020 418.07 2364.12 1565.98 1276.49 58.41 6.00
   04:18:32.638.02-Jul-2020 418.27 2364.12 1565.98 1276.49 58.41 6.00
   04:18:32.838.02-Jul-2020 418.47 2364.09 1565.98 1276.49 58.41 6.00
   04:18:33.038.02-Jul-2020 418.67 2364.11 1565.98 1276.49 58.41 6.00
   04:18:33.238.02-Jul-2020 418.87 2364.09 1565.98 1276.49 58.41 6.00
   04:18:33.438.02-Jul-2020 419.07 2364.12 1565.98 1276.49 58.41 6.00
   04:18:33.638.02-Jul-2020 419.27 2364.12 1565.98 1276.49 58.41 6.00
   04:18:33.838.02-Jul-2020 419.47 2364.10 1565.98 1276.49 58.41 6.00
   04:18:34.038.02-Jul-2020 419.67 2364.06 1565.98 1276.49 58.41 6.00
   04:18:34.238.02-Jul-2020 419.87 2364.12 1565.98 1276.49 58.41 6.00
   04:18:34.438.02-Jul-2020 420.07 2364.11 1565.98 1276.49 58.41 6.00
   04:18:34.638.02-Jul-2020 420.27 2364.12 1565.98 1276.49 58.41 6.00
   04:18:34.838.02-Jul-2020 420.47 2364.09 1565.98 1276.49 58.41 6.00
   04:18:35.038.02-Jul-2020 420.67 2364.09 1565.98 1276.49 58.41 6.00
   04:18:35.238.02-Jul-2020 420.87 2364.13 1565.98 1276.49 58.41 6.00
   04:18:35.438.02-Jul-2020 421.07 2364.11 1565.98 1276.49 58.41 6.00
   04:18:35.638.02-Jul-2020 421.27 2364.11 1565.98 1276.49 58.41 6.00
   04:18:35.838.02-Jul-2020 421.47 2364.14 1565.98 1276.49 58.41 6.00
   04:18:36.038.02-Jul-2020 421.67 2364.11 1565.98 1276.49 58.41 6.00
   04:18:36.238.02-Jul-2020 421.87 2364.12 1565.98 1276.49 58.41 6.00
   04:18:36.438.02-Jul-2020 422.07 2364.11 1565.98 1276.49 58.41 6.00
   04:18:36.638.02-Jul-2020 422.27 2364.11 1565.98 1276.49 58.41 6.00
   04:18:36.838.02-Jul-2020 422.47 2364.11 1565.98 1276.49 58.41 6.00
   04:18:37.038.02-Jul-2020 422.67 2364.12 1565.98 1276.49 58.41 6.00
   04:18:37.238.02-Jul-2020 422.87 2364.12 1565.98 1276.49 58.41 6.00
   04:18:37.438.02-Jul-2020 423.07 2364.09 1565.98 1276.49 58.41 6.00
   04:18:37.638.02-Jul-2020 423.27 2364.09 1565.98 1276.49 58.41 6.00
   04:18:37.839.02-Jul-2020 423.47 2364.13 1565.98 1276.49 58.41 6.00
   04:18:38.039.02-Jul-2020 423.67 2364.13 1565.98 1276.49 58.41 6.00
   04:18:38.239.02-Jul-2020 423.87 2364.09 1565.98 1276.49 58.42 6.00
   04:18:38.439.02-Jul-2020 424.07 2364.11 1565.98 1276.49 58.42 6.00
   04:18:38.639.02-Jul-2020 424.27 2364.12 1565.98 1276.49 58.42 6.00
   04:18:38.839.02-Jul-2020 424.47 2364.08 1565.98 1276.49 58.42 6.00
   04:18:39.039.02-Jul-2020 424.67 2364.07 1565.98 1276.49 58.42 6.00
   04:18:39.239.02-Jul-2020 424.87 2364.12 1565.98 1276.49 58.42 6.00
   04:18:39.439.02-Jul-2020 425.07 2364.11 1565.98 1276.49 58.42 6.00
   04:18:39.639.02-Jul-2020 425.27 2364.11 1565.98 1276.49 58.42 6.00
   04:18:39.839.02-Jul-2020 425.47 2364.08 1565.98 1276.49 58.42 6.00
   04:18:40.039.02-Jul-2020 425.67 2364.14 1565.98 1276.49 58.42 6.00
   04:18:40.239.02-Jul-2020 425.87 2364.11 1565.98 1276.49 58.42 6.00
   04:18:40.439.02-Jul-2020 426.07 2364.12 1565.98 1276.49 58.42 6.00
   04:18:40.639.02-Jul-2020 426.27 2364.12 1565.98 1276.49 58.42 6.00
   04:18:40.839.02-Jul-2020 426.47 2364.15 1565.98 1276.49 58.42 6.00
   04:18:41.039.02-Jul-2020 426.67 2364.13 1565.98 1276.49 58.42 6.00
   04:18:41.239.02-Jul-2020 426.87 2364.12 1565.98 1276.49 58.42 6.00
   04:18:41.439.02-Jul-2020 427.07 2364.14 1565.98 1276.49 58.42 6.00
   04:18:41.639.02-Jul-2020 427.27 2364.14 1565.98 1276.49 58.42 6.00
   04:18:41.839.02-Jul-2020 427.47 2364.14 1565.98 1276.49 58.42 6.00
   04:18:42.039.02-Jul-2020 427.67 2364.15 1565.98 1276.49 58.42 6.00
   04:18:42.239.02-Jul-2020 427.87 2364.15 1565.98 1276.49 58.42 6.00
   04:18:42.439.02-Jul-2020 428.07 2364.13 1565.98 1276.49 58.42 6.00
   04:18:42.639.02-Jul-2020 428.27 2364.17 1565.98 1276.49 58.42 6.00
   04:18:42.839.02-Jul-2020 428.47 2364.16 1565.98 1276.49 58.42 6.00
   04:18:43.039.02-Jul-2020 428.67 2364.16 1565.98 1276.49 58.42 6.00
   04:18:43.239.02-Jul-2020 428.87 2364.17 1565.98 1276.49 58.42 6.00
   04:18:43.439.02-Jul-2020 429.07 2364.12 1565.98 1276.49 58.42 6.00
   04:18:43.639.02-Jul-2020 429.27 2364.12 1565.98 1276.49 58.42 6.00
   04:18:43.839.02-Jul-2020 429.47 2364.13 1565.98 1276.49 58.42 6.00
   04:18:44.040.02-Jul-2020 429.67 2364.14 1565.98 1276.49 58.42 6.00
   04:18:44.240.02-Jul-2020 429.87 2364.16 1565.98 1276.49 58.42 6.00
   04:18:44.440.02-Jul-2020 430.07 2364.15 1565.98 1276.49 58.42 6.00
   04:18:44.640.02-Jul-2020 430.27 2364.15 1565.98 1276.49 58.42 6.00
   04:18:44.840.02-Jul-2020 430.47 2364.16 1565.98 1276.49 58.42 6.00
   04:18:45.040.02-Jul-2020 430.67 2364.14 1565.98 1276.49 58.42 6.00
   04:18:45.240.02-Jul-2020 430.87 2364.14 1565.98 1276.49 58.42 6.00
   04:18:45.440.02-Jul-2020 431.07 2364.17 1565.98 1276.49 58.42 6.00
   04:18:45.640.02-Jul-2020 431.27 2364.17 1565.98 1276.49 58.42 6.00
   04:18:45.840.02-Jul-2020 431.47 2364.13 1565.98 1276.49 58.42 6.00
   04:18:46.040.02-Jul-2020 431.67 2364.16 1565.98 1276.49 58.42 6.00
   04:18:46.240.02-Jul-2020 431.87 2364.14 1565.98 1276.49 58.42 6.00
   04:18:46.440.02-Jul-2020 432.07 2364.14 1565.98 1276.49 58.42 6.00
   04:18:46.640.02-Jul-2020 432.27 2364.17 1565.98 1276.49 58.42 6.00
   04:18:46.840.02-Jul-2020 432.47 2364.14 1565.98 1276.49 58.42 6.00
   04:18:47.040.02-Jul-2020 432.67 2364.11 1565.98 1276.49 58.42 6.00
   04:18:47.240.02-Jul-2020 432.87 2364.14 1565.98 1276.49 58.43 6.00
   04:18:47.440.02-Jul-2020 433.07 2364.14 1565.98 1276.49 58.43 6.00
   04:18:47.640.02-Jul-2020 433.27 2364.14 1565.98 1276.49 58.43 6.00
   04:18:47.840.02-Jul-2020 433.47 2364.14 1565.98 1276.49 58.43 6.00
   04:18:48.040.02-Jul-2020 433.67 2364.09 1565.98 1276.49 58.43 6.00
   04:18:48.240.02-Jul-2020 433.87 2364.17 1565.98 1276.49 58.43 6.00
   04:18:48.440.02-Jul-2020 434.07 2364.14 1565.98 1276.49 58.43 6.00
   04:18:48.640.02-Jul-2020 434.27 2364.14 1565.98 1276.49 58.43 6.00
   04:18:48.840.02-Jul-2020 434.47 2364.17 1565.98 1276.49 58.43 6.00
   04:18:49.040.02-Jul-2020 434.67 2364.16 1565.98 1276.49 58.43 6.00
   04:18:49.240.02-Jul-2020 434.87 2364.10 1565.98 1276.49 58.43 6.00
   04:18:49.440.02-Jul-2020 435.07 2364.15 1565.98 1276.49 58.43 6.00
   04:18:49.640.02-Jul-2020 435.27 2364.15 1565.98 1276.49 58.43 6.00
   04:18:49.840.02-Jul-2020 435.47 2364.15 1565.98 1276.49 58.43 6.00
   04:18:50.040.02-Jul-2020 435.67 2364.16 1565.98 1276.49 58.43 6.00
   04:18:50.240.02-Jul-2020 435.87 2364.15 1565.98 1276.49 58.43 6.00
   04:18:50.441.02-Jul-2020 436.07 2364.16 1565.98 1276.49 58.43 6.00
   04:18:50.641.02-Jul-2020 436.27 2364.16 1565.98 1276.49 58.43 6.00
   04:18:50.841.02-Jul-2020 436.47 2364.16 1565.98 1276.49 58.43 6.00
   04:18:51.041.02-Jul-2020 436.67 2364.17 1565.98 1276.49 58.43 6.00
   04:18:51.241.02-Jul-2020 436.87 2364.17 1565.98 1276.49 58.43 6.00
