~Version Information
 VERS.                  2.0:   CWLS log ASCII Standard -VERSION 2.0
 WRAP.                   NO:   One line per depth step
~Well Information Block
#MNEM.UNIT     VALUE/NAME     DESCRIPTION
#---------     -----------    ---------------------------
 STRT.S             16:00:06 29-Jun-20: START TIME 16:00:06 29-Jun-20
 STOP.S             16:09:07 29-Jun-20: STOP TIME  16:09:07 29-Jun-20
 STEP.S                   0.00: STEP TIME
 NULL.                 -999.25: NULL VALUE
 DFWT.                        :  DIST FWL TEXT
 DFST.                        :  DIST FSL TEXT
 DMF .             Drill Floor:  DRILL MEAS FROM
 STIM.      09.59.28 01-Jun-20:  START TIME
 DATE.      09.59.28 01-Jun-20:  END TIME
 SPUD.               01-Jun-20:  SPUD DATE
 NREF.                    Grid:  NORTH REFERENCE
 HPTY.       Minimum Curvature:  HOLE POS TYPE
 DMOD.             Drill Model:  DRILL MOD DESC
 SVYD.                  Survey:  SURVEY DESC
 ILTD.               Lithology:  INTERP LTH DESC
 FTOP.          Formation Tops:  FORM TOPS DESC
 SON .        AZ-XX-0905455768:  JOB NUMBER
 WTYP.                Deviated:  WELL TYPE
 COMP.     BP Exploration(Caspian Sea):  COMPANY
 BASE.              Azerbaijan:  LOGGING EQUIPMENT BASE LOCATION
 REGN.                   EESSA:  REGION
 CTRY.              Azerbaijan:  COUNTRY NAME
 FLD .                     ACG:  FIELD NAME
 SRVC.          Turan Drilling:  CONTRACTOR
 WELL.                     B41:  WELL NAME
 RIG .           Central Azeri:  RIG NAME
 DCON.         Sperry Drilling:  DIRECTNL CONTR
 PDAT.          Mean Sea Level:  PERMANENT DATUM
 MDS .        Operator Entered:  MAG DATA SOURCE
 API .                        :  API NUMBER
 CNTY.                        :  COUNTY
 PROV.                        :  PROVINCE
 STAT.                        :  STATE
 UWI .                        :  UNIQUE WELL IDENTIFIER
 LOC .                        :  LOCATION
 LMF .             Drill Floor:  LOG MEASURED FROM
 TVDS.m                  43.29:  TVDSS CORRECTN
 LATI.deg                40.03:  LATITUDE
 LONG.deg                51.35:  LONGITUDE
 WHNS.m                  12.98:  WELL HEAD N/S
 WHEW.m                  -6.62:  WELL HEAD E/W
 UTMX.m              530128.28:  UTM X
 UTMY.m             4433192.49:  UTM Y
 DFWL.m                   0.00:  DISTANCE FWL
 DFSL.m                   0.00:  DISTANCE FSL
 SDEP.m                 378.00:  START DEPTH
 TDD .m                   0.00:  TOTAL DEPTH (DRILLER)
 VSDR.deg               296.18:  VERT SEC DIRECT
 GVFD.g                   1.00:  GRAVITY FIELD
 MFLD.nT              50253.00:  MAGNETIC FIELD
 MDIP.deg                59.49:  MAGNETIC DIP
 MDEC.deg                 6.44:  MAGNETIC DECL
 GRDC.deg                 0.22:  GRID CORRECTION
 AZTC.deg                 6.22:  AZM TOTAL CORR
 EPD .m                   0.00:  ELEVATION
 EGL .m                   0.00:  GROUND ELEVATION
 WDMS.m                 128.20:  WD ELEV
 APD .m                  43.29:  DEPTH ABOVE PD
 AGAP.m                  43.29:  AIR GAP
 VSEW.m                  -6.62:  VERT SEC E/W
 VSNS.m                  12.98:  VERT SEC N/S
 EKB .m                  43.29:  KB ELEVATION
 EDF .m                  43.29:  DF ELEVATION
 TDL .m                1152.00:  TOTAL DEPTH (LOGGER)
 VSC .                       0:  VS TO CLOSURE
 MAGU.                 1848525:  MAGUTM CHECKSUM
~Parameter Information Block
#MNEM.UNIT       Value        Description
#---------     -----------    ---------------------------
 AV  .mps                 0.40:  Ann Velocity 
 AVMX.mps                 1.56:  Max Ann Veloc 
 AZIF.deg               300.46:  Azm, Final 
 BHAT.        Rotary Steerable:  BHA Type 
 BROT.∞/30m               0.40:  Build Rotating 
 BS  .in                 17.50:  Bit Size 
 BSZ .in                 17.50:  Bit Size 
 BTPL.psig              300.00:  Bit Press Loss 
 CABU.                      No:  Customer Abuse 
 CGEO.          Parviz Guliyev:  Customer Geo 
 COMM.                     ,‘Å:  Run Comments 1 
 TCS .hr                108.13:  Time Ciculation Ended 
 CV  .mps                 0.50:  Crit Velocity 
 CVMX.mps                 2.01:  Max Crit Veloc 
 DD1 .          Fariz Nahmatov:  Direct Drillr 1 
 DD2 .             Ehab Radwan:  Direct Drillr 2 
 DDSV.               Geo-Pilot:  DD Service 
 DEFF.%                  99.00:  % Det Eff 
 DLRX.∞/30m               0.50:  Dogleg Rot Max 
 DLSO.∞/30m               2.80:  Dogleg Oriented 
 DLSX.∞/30m               3.90:  Dogleg Str Max 
 DRET.      09.30.04 03-Jul-20:  Drill End Time 
 DRST.      18.33.04 28-Jun-20:  Drill Start Tim 
 DTIM.hr                 55.83:  Time Drilling 
 EDEP.m                1952.00:  End Depth 
 ENG1.      Bakhtiyar Jabbarli:  Engineer 1 
 ENG2.         Farhad Orujzade:  Engineer 2 
 ENG3.          Rustam Safarov:  Engineer 3 
 ETIM.      01.33.04 04-Jul-20:  End Time 
 FLOI.gpm              1050.00:  Flow In 
 FLON.gpm               950.00:  Flow In Min 
 FLOS.cptm                0.10:  Fluid Loss 
 FLOX.gpm              1150.00:  Flow In Max 
 HFLO.                      No:  High Flow 
 HPRE.                      No:  High Pressure 
 HTEM.                      No:  High Temp 
 HYDO.m                   1.80:  Hydro Offset 
 IFIN.deg                75.26:  Inc, Final 
 IMAX.deg                75.38:  Inc Max 
 IMIN.deg                22.84:  Inc Min 
 IMND.m                 832.38:  Inc Min Depth 
 IMXD.m                1936.55:  Inc Max Depth 
 JARR.                      No:  Jarring 
 LETM.      17.40.00 04-Jul-20:  Log End Time 
 LOST.hr                     0:  Lost Rig Time 
 LSTM.      12.33.04 28-Jun-20:  Log Start Time 
 MDCL.ppm             49500.00:  Mud Chlorides 
 MDES.     Inversion Oil/Synthetic:  Mud Desc 
 DFD .sg                  1.46:  Mud Density 
 MDMN.sg                  1.46:  Dens Mud Min 
 MDMX.sg                  1.46:  Dens Mud Max 
 MOIL.                      70:  Run Mud Oil % 
 MOWR.                   70:30:  Run Mud OWR 
 MSND.                     0.5:  Run Mud Sand % 
 MSOL.                   19.89:  Run Mud Solids% 
 DFV .spqt               72.00:  Mud Viscosity 
 MWOD.in                  9.50:  MWD Tool OD 
 MWSI.                      No:  Serv Intrp, MWD 
 OTIM.hr                146.53:  Time Operating 
 PCON.           Look Like New:  Pad Condition 
 PMAX.psia             2900.00:  Press Op, Max 
 PV  .cP                 38.00:  Mud PV 
 RUN .                     600:  Run Number 
 ROPA.m/hr               22.00:  ROP Avg 
 ROPN.m/hr               10.00:  ROP Min 
 ROPX.m/hr              263.00:  ROP Max 
 RPMA.rpm               155.00:  RPM Surface Avg 
 RPMN.rpm               140.00:  RPM Surface Min 
 RPMX.rpm               160.00:  RPM Surface Max 
 RRUN.                    0600:  Rig Run Number 
 RTIM.hr                  5.00:  Time Reaming 
 SAZI.deg               300.08:  Azm, Start 
 SDEP.m                 800.00:  Start Depth 
 SIDD.                      No:  Serv Intrp, DD 
 SINC.deg                22.84:  Inc, Start 
 SPPA.psig             3000.00:  SPP Avg 
 SPPN.psig             1900.00:  SPP Min 
 SPPX.psig             3200.00:  SPP Max 
 STIM.      12.30.04 28-Jun-20:  Start Time 
 SVCS.                 DD, MWD:  Services 
 SVER.                    9.20:  Sperry Version 
 TDAT.m                1952.00:  Tot Depth Attmp 
 TDDF.                      No:  Trip for DD 
 TDLG.m                1152.00:  Tot Depth Loggd 
 TFF .                      No:  Trip for Fail 
 TQAA.f-kp                8.00:  Torque Abs Avg 
 TQAN.f-kp                5.00:  Torque Abs Min 
 TQAX.f-kp               14.00:  Torque Abs Max 
 TRRT.∞/30m               0.50:  Turn Rotating 
 MRT .                  EWR-M5:  Maximum Recorded Temperature 
 TTMX.degC               69.00:  Max Tool Temp 
 VS01.                90610313:  Virtual Str1 SN 
 VS02.                90613431:  Virtual Str2 SN 
 VS03.                90615410:  Virtual Str3 SN 
 WBMN.klb                 6.00:  WOB Min 
 WITN.            Bruce Cheyne:  Customer Rep 
 WITN.             Ayaz Aliyev:  Customer Rep 2 
 WOBA.klb                 6.00:  WOB Avg 
 WOBX.klb                10.00:  WOB Max 
 YP  .lhf2               36.00:  Yield Point 
~Curve Information Block
#MNEM.UNIT                 API CODE     Curve Description
#---------               -----------    ---------------------------
 TIME.HHMMSS            00 000 000 000:  GT Time & Date
 GTET.sec               00 000 000 000:  GT Elapsed Test Time
 GTPQH.psia             00 000 000 000:  GT HR Quartz Pressure
 GTDEPTH.m              00 000 000 000:  GT Depth
 GTTVD.m                00 000 000 000:  GT True Vertical Depth
 GTTQ.degC              00 000 000 000:  GT Quartz Temperature
 GTTN.NONE              00 000 000 000:  GT Test Number
#Other Information
#
#WARRANTY: Halliburton will use its best efforts to furnish customers with 
#accurate information and interpretations that are part of, and incident to, the services 
#provided.  However, Halliburton cannot and does not warrant the accuracy 
#or correctness of such information and interpretations.  Under no circumstances should any 
#such information or interpretation be relied upon as the sole basis for any drilling, 
#completion, production, or financial decision or any procedure involving any risk to the 
#safety of any drilling venture, drilling rig or its crew or any other third party.  The 
#Customer has full responsibility for all drilling, completion and production operation.  
#Halliburton makes no representations or warranties, either expressed or 
#implied, including, but not limited to, the implied warranties of merchantability or fitness 
#for a particular purpose, with respect to the services rendered.  In no event will 
#Halliburton be liable for failure to obtain any particular results or for 
#any damages, including, but not limited to, indirect, special or consequential damages, 
#resulting from the use of any information or interpretation provided by Halliburton.
#
~A           TIME            GTET   GTPQH  GTDEPTH GTTVD  GTTQ  GTTN 
# ...
   16:03:58.539.29-Jun-2020 232.09 1572.16  873.30 856.96 65.85 1.00
   16:03:58.740.29-Jun-2020 232.29 1572.16  873.30 856.96 65.85 1.00
   16:03:58.940.29-Jun-2020 232.49 1574.67  873.30 856.96 65.85 1.00
   16:03:59.140.29-Jun-2020 232.69 1574.72  873.30 856.96 65.85 1.00
   16:03:59.340.29-Jun-2020 232.89 1574.71  873.30 856.96 65.85 1.00
   16:03:59.540.29-Jun-2020 233.09 1574.82  873.30 856.96 65.85 1.00
   16:03:59.740.29-Jun-2020 233.29 1574.69  873.30 856.96 65.85 1.00
   16:03:59.940.29-Jun-2020 233.49 1574.79  873.30 856.96 65.85 1.00
   16:04:00.140.29-Jun-2020 233.69 1574.73  873.30 856.96 65.85 1.00
   16:04:00.340.29-Jun-2020 233.89 1574.69  873.30 856.96 65.85 1.00
   16:04:00.540.29-Jun-2020 234.09 1574.83  873.30 856.96 65.85 1.00
   16:04:00.740.29-Jun-2020 234.29 1574.83  873.30 856.96 65.85 1.00
   16:04:00.940.29-Jun-2020 234.49 1574.78  873.30 856.96 65.85 1.00
   16:04:01.140.29-Jun-2020 234.69 1574.73  873.30 856.96 65.85 1.00
   16:04:01.341.29-Jun-2020 234.89 1574.74  873.30 856.96 65.85 1.00
   16:04:01.541.29-Jun-2020 235.09 1574.67  873.30 856.96 65.85 1.00
   16:04:01.741.29-Jun-2020 235.29 1574.67  873.30 856.96 65.85 1.00
   16:04:01.941.29-Jun-2020 235.49 1574.76  873.30 856.96 65.85 1.00
   16:04:02.141.29-Jun-2020 235.69 1574.69  873.30 856.96 65.85 1.00
   16:04:02.341.29-Jun-2020 235.89 1574.72  873.30 856.96 65.85 1.00
   16:04:02.541.29-Jun-2020 236.09 1574.63  873.30 856.96 65.85 1.00
   16:04:02.741.29-Jun-2020 236.29 1574.63  873.30 856.96 65.85 1.00
   16:04:02.941.29-Jun-2020 236.49 1574.66  873.30 856.96 65.85 1.00
   16:04:03.141.29-Jun-2020 236.69 1574.64  873.30 856.96 65.85 1.00
   16:04:03.341.29-Jun-2020 236.89 1574.70  873.30 856.96 65.85 1.00
   16:04:03.541.29-Jun-2020 237.09 1574.66  873.30 856.96 65.85 1.00
   16:04:03.741.29-Jun-2020 237.29 1574.76  873.30 856.96 65.85 1.00
   16:04:03.942.29-Jun-2020 237.49 1574.64  873.30 856.96 65.86 1.00
   16:04:04.142.29-Jun-2020 237.69 1574.68  873.30 856.96 65.86 1.00
   16:04:04.342.29-Jun-2020 237.89 1574.68  873.30 856.96 65.86 1.00
   16:04:04.542.29-Jun-2020 238.09 1574.73  873.30 856.96 65.86 1.00
   16:04:04.742.29-Jun-2020 238.29 1574.73  873.30 856.96 65.86 1.00
   16:04:04.942.29-Jun-2020 238.49 1574.78  873.30 856.96 65.86 1.00
   16:04:05.142.29-Jun-2020 238.69 1574.72  873.30 856.96 65.86 1.00
   16:04:05.342.29-Jun-2020 238.89 1574.78  873.30 856.96 65.86 1.00
   16:04:05.542.29-Jun-2020 239.09 1574.83  873.30 856.96 65.86 1.00
   16:04:05.742.29-Jun-2020 239.29 1574.83  873.30 856.96 65.86 1.00
   16:04:05.942.29-Jun-2020 239.49 1574.71  873.30 856.96 65.86 1.00
   16:04:06.142.29-Jun-2020 239.69 1574.80  873.30 856.96 65.86 1.00
   16:04:06.342.29-Jun-2020 239.89 1574.71  873.30 856.96 65.86 1.00
   16:04:06.543.29-Jun-2020 240.09 1574.80  873.30 856.96 65.86 1.00
   16:04:06.743.29-Jun-2020 240.29 1574.80  873.30 856.96 65.86 1.00
   16:04:06.943.29-Jun-2020 240.49 1574.72  873.30 856.96 65.86 1.00
   16:04:07.143.29-Jun-2020 240.69 1574.79  873.30 856.96 65.86 1.00
   16:04:07.343.29-Jun-2020 240.89 1574.67  873.30 856.96 65.86 1.00
   16:04:07.543.29-Jun-2020 241.09 1574.73  873.30 856.96 65.86 1.00
   16:04:07.743.29-Jun-2020 241.29 1574.67  873.30 856.96 65.86 1.00
   16:04:07.943.29-Jun-2020 241.49 1574.76  873.30 856.96 65.86 1.00
   16:04:08.143.29-Jun-2020 241.69 1574.80  873.30 856.96 65.86 1.00
   16:04:08.343.29-Jun-2020 241.89 1574.68  873.30 856.96 65.86 1.00
   16:04:08.543.29-Jun-2020 242.09 1574.66  873.30 856.96 65.86 1.00
   16:04:08.743.29-Jun-2020 242.29 1574.66  873.30 856.96 65.86 1.00
   16:04:08.943.29-Jun-2020 242.49 1574.84  873.30 856.96 65.86 1.00
   16:04:09.143.29-Jun-2020 242.69 1574.70  873.30 856.96 65.86 1.00
   16:04:09.344.29-Jun-2020 242.89 1574.79  873.30 856.96 65.86 1.00
   16:04:09.544.29-Jun-2020 243.09 1574.63  873.30 856.96 65.86 1.00
   16:04:09.744.29-Jun-2020 243.29 1574.63  873.30 856.96 65.86 1.00
   16:04:09.944.29-Jun-2020 243.49 1574.74  873.30 856.96 65.86 1.00
   16:04:10.144.29-Jun-2020 243.69 1574.82  873.30 856.96 65.86 1.00
   16:04:10.344.29-Jun-2020 243.89 1574.77  873.30 856.96 65.86 1.00
   16:04:10.544.29-Jun-2020 244.09 1574.83  873.30 856.96 65.86 1.00
   16:04:10.744.29-Jun-2020 244.29 1574.83  873.30 856.96 65.86 1.00
   16:04:10.944.29-Jun-2020 244.49 1574.77  873.30 856.96 65.86 1.00
   16:04:11.144.29-Jun-2020 244.69 1574.74  873.30 856.96 65.86 1.00
   16:04:11.344.29-Jun-2020 244.89 1574.74  873.30 856.96 65.86 1.00
   16:04:11.544.29-Jun-2020 245.09 1574.89  873.30 856.96 65.86 1.00
   16:04:11.744.29-Jun-2020 245.29 1574.77  873.30 856.96 65.86 1.00
   16:04:11.945.29-Jun-2020 245.49 1574.78  873.30 856.96 65.86 1.00
   16:04:12.145.29-Jun-2020 245.69 1574.76  873.30 856.96 65.86 1.00
   16:04:12.345.29-Jun-2020 245.89 1574.74  873.30 856.96 65.86 1.00
   16:04:12.545.29-Jun-2020 246.09 1574.73  873.30 856.96 65.86 1.00
   16:04:12.745.29-Jun-2020 246.29 1574.73  873.30 856.96 65.86 1.00
   16:04:12.945.29-Jun-2020 246.49 1574.75  873.30 856.96 65.86 1.00
   16:04:13.145.29-Jun-2020 246.69 1574.82  873.30 856.96 65.86 1.00
   16:04:13.345.29-Jun-2020 246.89 1574.79  873.30 856.96 65.86 1.00
   16:04:13.545.29-Jun-2020 247.09 1574.70  873.30 856.96 65.86 1.00
   16:04:13.745.29-Jun-2020 247.29 1574.70  873.30 856.96 65.86 1.00
   16:04:13.945.29-Jun-2020 247.49 1574.75  873.30 856.96 65.86 1.00
   16:04:14.145.29-Jun-2020 247.69 1574.77  873.30 856.96 65.86 1.00
   16:04:14.345.29-Jun-2020 247.89 1574.82  873.30 856.96 65.86 1.00
   16:04:14.546.29-Jun-2020 248.09 1574.77  873.30 856.96 65.86 1.00
   16:04:14.746.29-Jun-2020 248.29 1574.77  873.30 856.96 65.86 1.00
   16:04:14.946.29-Jun-2020 248.49 1574.78  873.30 856.96 65.86 1.00
   16:04:15.146.29-Jun-2020 248.69 1574.86  873.30 856.96 65.86 1.00
   16:04:15.346.29-Jun-2020 248.89 1574.88  873.30 856.96 65.86 1.00
   16:04:15.546.29-Jun-2020 249.09 1574.75  873.30 856.96 65.86 1.00
   16:04:15.746.29-Jun-2020 249.29 1574.75  873.30 856.96 65.86 1.00
   16:04:15.946.29-Jun-2020 249.49 1574.94  873.30 856.96 65.86 1.00
   16:04:16.146.29-Jun-2020 249.69 1574.74  873.30 856.96 65.86 1.00
   16:04:16.346.29-Jun-2020 249.89 1574.85  873.30 856.96 65.86 1.00
   16:04:16.546.29-Jun-2020 250.09 1574.77  873.30 856.96 65.86 1.00
   16:04:16.746.29-Jun-2020 250.29 1574.77  873.30 856.96 65.86 1.00
   16:04:16.946.29-Jun-2020 250.49 1574.89  873.30 856.96 65.86 1.00
   16:04:17.147.29-Jun-2020 250.69 1574.68  873.30 856.96 65.86 1.00
   16:04:17.347.29-Jun-2020 250.90 1574.78  873.30 856.96 65.86 1.00
   16:04:17.547.29-Jun-2020 251.10 1574.71  873.30 856.96 65.86 1.00
   16:04:17.747.29-Jun-2020 251.30 1574.71  873.30 856.96 65.86 1.00
   16:04:17.947.29-Jun-2020 251.50 1574.80  873.30 856.96 65.86 1.00
   16:04:18.147.29-Jun-2020 251.70 1574.79  873.30 856.96 65.86 1.00
   16:04:18.347.29-Jun-2020 251.90 1574.75  873.30 856.96 65.86 1.00
   16:04:18.547.29-Jun-2020 252.10 1574.74  873.30 856.96 65.86 1.00
   16:04:18.747.29-Jun-2020 252.30 1574.74  873.30 856.96 65.86 1.00
   16:04:18.947.29-Jun-2020 252.50 1574.75  873.30 856.96 65.87 1.00
   16:04:19.147.29-Jun-2020 252.70 1574.86  873.30 856.96 65.87 1.00
   16:04:19.347.29-Jun-2020 252.90 1574.77  873.30 856.96 65.87 1.00
   16:04:19.547.29-Jun-2020 253.10 1574.89  873.30 856.96 65.87 1.00
   16:04:19.748.29-Jun-2020 253.30 1574.89  873.30 856.96 65.87 1.00
   16:04:19.948.29-Jun-2020 253.50 1574.72  873.30 856.96 65.87 1.00
   16:04:20.148.29-Jun-2020 253.70 1574.84  873.30 856.96 65.87 1.00
   16:04:20.348.29-Jun-2020 253.90 1574.81  873.30 856.96 65.87 1.00
   16:04:20.548.29-Jun-2020 254.10 1574.80  873.30 856.96 65.87 1.00
   16:04:20.748.29-Jun-2020 254.30 1574.80  873.30 856.96 65.87 1.00
   16:04:20.948.29-Jun-2020 254.50 1574.90  873.30 856.96 65.87 1.00
   16:04:21.148.29-Jun-2020 254.70 1574.77  873.30 856.96 65.87 1.00
   16:04:21.348.29-Jun-2020 254.90 1574.84  873.30 856.96 65.87 1.00
   16:04:21.548.29-Jun-2020 255.10 1574.74  873.30 856.96 65.87 1.00
