~Version Information
 VERS.                  2.0:   CWLS log ASCII Standard -VERSION 2.0
 WRAP.                   NO:   One line per depth step
~Well Information Block
#MNEM.UNIT     VALUE/NAME     DESCRIPTION
#---------     -----------    ---------------------------
 STRT.S             16:00:06 29-Jun-20: START TIME 16:00:06 29-Jun-20
 STOP.S             16:09:07 29-Jun-20: STOP TIME  16:09:07 29-Jun-20
 STEP.S                   0.00: STEP TIME
 NULL.                 -999.25: NULL VALUE
 DFWT.                        :  DIST FWL TEXT
 DFST.                        :  DIST FSL TEXT
 DMF .             Drill Floor:  DRILL MEAS FROM
 STIM.      09.59.28 01-Jun-20:  START TIME
 DATE.      09.59.28 01-Jun-20:  END TIME
 SPUD.               01-Jun-20:  SPUD DATE
 NREF.                    Grid:  NORTH REFERENCE
 HPTY.       Minimum Curvature:  HOLE POS TYPE
 DMOD.             Drill Model:  DRILL MOD DESC
 SVYD.                  Survey:  SURVEY DESC
 ILTD.               Lithology:  INTERP LTH DESC
 FTOP.          Formation Tops:  FORM TOPS DESC
 SON .        AZ-XX-0905455768:  JOB NUMBER
 WTYP.                Deviated:  WELL TYPE
 COMP.     BP Exploration(Caspian Sea):  COMPANY
 BASE.              Azerbaijan:  LOGGING EQUIPMENT BASE LOCATION
 REGN.                   EESSA:  REGION
 CTRY.              Azerbaijan:  COUNTRY NAME
 FLD .                     ACG:  FIELD NAME
 SRVC.          Turan Drilling:  CONTRACTOR
 WELL.                     B41:  WELL NAME
 RIG .           Central Azeri:  RIG NAME
 DCON.         Sperry Drilling:  DIRECTNL CONTR
 PDAT.          Mean Sea Level:  PERMANENT DATUM
 MDS .        Operator Entered:  MAG DATA SOURCE
 API .                        :  API NUMBER
 CNTY.                        :  COUNTY
 PROV.                        :  PROVINCE
 STAT.                        :  STATE
 UWI .                        :  UNIQUE WELL IDENTIFIER
 LOC .                        :  LOCATION
 LMF .             Drill Floor:  LOG MEASURED FROM
 TVDS.m                  43.29:  TVDSS CORRECTN
 LATI.deg                40.03:  LATITUDE
 LONG.deg                51.35:  LONGITUDE
 WHNS.m                  12.98:  WELL HEAD N/S
 WHEW.m                  -6.62:  WELL HEAD E/W
 UTMX.m              530128.28:  UTM X
 UTMY.m             4433192.49:  UTM Y
 DFWL.m                   0.00:  DISTANCE FWL
 DFSL.m                   0.00:  DISTANCE FSL
 SDEP.m                 378.00:  START DEPTH
 TDD .m                   0.00:  TOTAL DEPTH (DRILLER)
 VSDR.deg               296.18:  VERT SEC DIRECT
 GVFD.g                   1.00:  GRAVITY FIELD
 MFLD.nT              50253.00:  MAGNETIC FIELD
 MDIP.deg                59.49:  MAGNETIC DIP
 MDEC.deg                 6.44:  MAGNETIC DECL
 GRDC.deg                 0.22:  GRID CORRECTION
 AZTC.deg                 6.22:  AZM TOTAL CORR
 EPD .m                   0.00:  ELEVATION
 EGL .m                   0.00:  GROUND ELEVATION
 WDMS.m                 128.20:  WD ELEV
 APD .m                  43.29:  DEPTH ABOVE PD
 AGAP.m                  43.29:  AIR GAP
 VSEW.m                  -6.62:  VERT SEC E/W
 VSNS.m                  12.98:  VERT SEC N/S
 EKB .m                  43.29:  KB ELEVATION
 EDF .m                  43.29:  DF ELEVATION
 TDL .m                1152.00:  TOTAL DEPTH (LOGGER)
 VSC .                       0:  VS TO CLOSURE
 MAGU.                 1848525:  MAGUTM CHECKSUM
~Parameter Information Block
#MNEM.UNIT       Value        Description
#---------     -----------    ---------------------------
 AV  .mps                 0.40:  Ann Velocity 
 AVMX.mps                 1.56:  Max Ann Veloc 
 AZIF.deg               300.46:  Azm, Final 
 BHAT.        Rotary Steerable:  BHA Type 
 BROT.∞/30m               0.40:  Build Rotating 
 BS  .in                 17.50:  Bit Size 
 BSZ .in                 17.50:  Bit Size 
 BTPL.psig              300.00:  Bit Press Loss 
 CABU.                      No:  Customer Abuse 
 CGEO.          Parviz Guliyev:  Customer Geo 
 COMM.                     ,‘Å:  Run Comments 1 
 TCS .hr                108.13:  Time Ciculation Ended 
 CV  .mps                 0.50:  Crit Velocity 
 CVMX.mps                 2.01:  Max Crit Veloc 
 DD1 .          Fariz Nahmatov:  Direct Drillr 1 
 DD2 .             Ehab Radwan:  Direct Drillr 2 
 DDSV.               Geo-Pilot:  DD Service 
 DEFF.%                  99.00:  % Det Eff 
 DLRX.∞/30m               0.50:  Dogleg Rot Max 
 DLSO.∞/30m               2.80:  Dogleg Oriented 
 DLSX.∞/30m               3.90:  Dogleg Str Max 
 DRET.      09.30.04 03-Jul-20:  Drill End Time 
 DRST.      18.33.04 28-Jun-20:  Drill Start Tim 
 DTIM.hr                 55.83:  Time Drilling 
 EDEP.m                1952.00:  End Depth 
 ENG1.      Bakhtiyar Jabbarli:  Engineer 1 
 ENG2.         Farhad Orujzade:  Engineer 2 
 ENG3.          Rustam Safarov:  Engineer 3 
 ETIM.      01.33.04 04-Jul-20:  End Time 
 FLOI.gpm              1050.00:  Flow In 
 FLON.gpm               950.00:  Flow In Min 
 FLOS.cptm                0.10:  Fluid Loss 
 FLOX.gpm              1150.00:  Flow In Max 
 HFLO.                      No:  High Flow 
 HPRE.                      No:  High Pressure 
 HTEM.                      No:  High Temp 
 HYDO.m                   1.80:  Hydro Offset 
 IFIN.deg                75.26:  Inc, Final 
 IMAX.deg                75.38:  Inc Max 
 IMIN.deg                22.84:  Inc Min 
 IMND.m                 832.38:  Inc Min Depth 
 IMXD.m                1936.55:  Inc Max Depth 
 JARR.                      No:  Jarring 
 LETM.      17.40.00 04-Jul-20:  Log End Time 
 LOST.hr                     0:  Lost Rig Time 
 LSTM.      12.33.04 28-Jun-20:  Log Start Time 
 MDCL.ppm             49500.00:  Mud Chlorides 
 MDES.     Inversion Oil/Synthetic:  Mud Desc 
 DFD .sg                  1.46:  Mud Density 
 MDMN.sg                  1.46:  Dens Mud Min 
 MDMX.sg                  1.46:  Dens Mud Max 
 MOIL.                      70:  Run Mud Oil % 
 MOWR.                   70:30:  Run Mud OWR 
 MSND.                     0.5:  Run Mud Sand % 
 MSOL.                   19.89:  Run Mud Solids% 
 DFV .spqt               72.00:  Mud Viscosity 
 MWOD.in                  9.50:  MWD Tool OD 
 MWSI.                      No:  Serv Intrp, MWD 
 OTIM.hr                146.53:  Time Operating 
 PCON.           Look Like New:  Pad Condition 
 PMAX.psia             2900.00:  Press Op, Max 
 PV  .cP                 38.00:  Mud PV 
 RUN .                     600:  Run Number 
 ROPA.m/hr               22.00:  ROP Avg 
 ROPN.m/hr               10.00:  ROP Min 
 ROPX.m/hr              263.00:  ROP Max 
 RPMA.rpm               155.00:  RPM Surface Avg 
 RPMN.rpm               140.00:  RPM Surface Min 
 RPMX.rpm               160.00:  RPM Surface Max 
 RRUN.                    0600:  Rig Run Number 
 RTIM.hr                  5.00:  Time Reaming 
 SAZI.deg               300.08:  Azm, Start 
 SDEP.m                 800.00:  Start Depth 
 SIDD.                      No:  Serv Intrp, DD 
 SINC.deg                22.84:  Inc, Start 
 SPPA.psig             3000.00:  SPP Avg 
 SPPN.psig             1900.00:  SPP Min 
 SPPX.psig             3200.00:  SPP Max 
 STIM.      12.30.04 28-Jun-20:  Start Time 
 SVCS.                 DD, MWD:  Services 
 SVER.                    9.20:  Sperry Version 
 TDAT.m                1952.00:  Tot Depth Attmp 
 TDDF.                      No:  Trip for DD 
 TDLG.m                1152.00:  Tot Depth Loggd 
 TFF .                      No:  Trip for Fail 
 TQAA.f-kp                8.00:  Torque Abs Avg 
 TQAN.f-kp                5.00:  Torque Abs Min 
 TQAX.f-kp               14.00:  Torque Abs Max 
 TRRT.∞/30m               0.50:  Turn Rotating 
 MRT .                  EWR-M5:  Maximum Recorded Temperature 
 TTMX.degC               69.00:  Max Tool Temp 
 VS01.                90610313:  Virtual Str1 SN 
 VS02.                90613431:  Virtual Str2 SN 
 VS03.                90615410:  Virtual Str3 SN 
 WBMN.klb                 6.00:  WOB Min 
 WITN.            Bruce Cheyne:  Customer Rep 
 WITN.             Ayaz Aliyev:  Customer Rep 2 
 WOBA.klb                 6.00:  WOB Avg 
 WOBX.klb                10.00:  WOB Max 
 YP  .lhf2               36.00:  Yield Point 
~Curve Information Block
#MNEM.UNIT                 API CODE     Curve Description
#---------               -----------    ---------------------------
 TIME.HHMMSS            00 000 000 000:  GT Time & Date
 GTET.sec               00 000 000 000:  GT Elapsed Test Time
 GTPQH.psia             00 000 000 000:  GT HR Quartz Pressure
 GTDEPTH.m              00 000 000 000:  GT Depth
 GTTVD.m                00 000 000 000:  GT True Vertical Depth
 GTTQ.degC              00 000 000 000:  GT Quartz Temperature
 GTTN.NONE              00 000 000 000:  GT Test Number
#Other Information
#
#WARRANTY: Halliburton will use its best efforts to furnish customers with 
#accurate information and interpretations that are part of, and incident to, the services 
#provided.  However, Halliburton cannot and does not warrant the accuracy 
#or correctness of such information and interpretations.  Under no circumstances should any 
#such information or interpretation be relied upon as the sole basis for any drilling, 
#completion, production, or financial decision or any procedure involving any risk to the 
#safety of any drilling venture, drilling rig or its crew or any other third party.  The 
#Customer has full responsibility for all drilling, completion and production operation.  
#Halliburton makes no representations or warranties, either expressed or 
#implied, including, but not limited to, the implied warranties of merchantability or fitness 
#for a particular purpose, with respect to the services rendered.  In no event will 
#Halliburton be liable for failure to obtain any particular results or for 
#any damages, including, but not limited to, indirect, special or consequential damages, 
#resulting from the use of any information or interpretation provided by Halliburton.
#
~A           TIME            GTET   GTPQH  GTDEPTH GTTVD  GTTQ  GTTN 
# ...
   16:02:48.913.29-Jun-2020 162.46 1575.07  873.30 856.96 65.81 1.00
   16:02:49.113.29-Jun-2020 162.66 1575.09  873.30 856.96 65.81 1.00
   16:02:49.313.29-Jun-2020 162.86 1575.10  873.30 856.96 65.81 1.00
   16:02:49.513.29-Jun-2020 163.06 1575.12  873.30 856.96 65.81 1.00
   16:02:49.713.29-Jun-2020 163.26 1575.13  873.30 856.96 65.81 1.00
   16:02:49.913.29-Jun-2020 163.46 1575.20  873.30 856.96 65.81 1.00
   16:02:50.114.29-Jun-2020 163.66 1575.17  873.30 856.96 65.81 1.00
   16:02:50.314.29-Jun-2020 163.86 1575.09  873.30 856.96 65.81 1.00
   16:02:50.514.29-Jun-2020 164.06 1575.02  873.30 856.96 65.81 1.00
   16:02:50.714.29-Jun-2020 164.26 1575.11  873.30 856.96 65.81 1.00
   16:02:50.914.29-Jun-2020 164.46 1575.08  873.30 856.96 65.81 1.00
   16:02:51.114.29-Jun-2020 164.66 1575.12  873.30 856.96 65.81 1.00
   16:02:51.314.29-Jun-2020 164.86 1575.07  873.30 856.96 65.81 1.00
   16:02:51.514.29-Jun-2020 165.06 1575.01  873.30 856.96 65.81 1.00
   16:02:51.714.29-Jun-2020 165.26 1575.06  873.30 856.96 65.81 1.00
   16:02:51.914.29-Jun-2020 165.46 1575.00  873.30 856.96 65.81 1.00
   16:02:52.114.29-Jun-2020 165.66 1575.00  873.30 856.96 65.81 1.00
   16:02:52.314.29-Jun-2020 165.86 1575.07  873.30 856.96 65.81 1.00
   16:02:52.514.29-Jun-2020 166.06 1575.05  873.30 856.96 65.81 1.00
   16:02:52.715.29-Jun-2020 166.26 1575.05  873.30 856.96 65.81 1.00
   16:02:52.915.29-Jun-2020 166.46 1575.03  873.30 856.96 65.81 1.00
   16:02:53.115.29-Jun-2020 166.66 1575.02  873.30 856.96 65.81 1.00
   16:02:53.315.29-Jun-2020 166.86 1575.11  873.30 856.96 65.81 1.00
   16:02:53.515.29-Jun-2020 167.06 1575.02  873.30 856.96 65.81 1.00
   16:02:53.715.29-Jun-2020 167.26 1575.02  873.30 856.96 65.81 1.00
   16:02:53.915.29-Jun-2020 167.46 1575.17  873.30 856.96 65.81 1.00
   16:02:54.115.29-Jun-2020 167.66 1575.07  873.30 856.96 65.81 1.00
   16:02:54.315.29-Jun-2020 167.86 1575.16  873.30 856.96 65.81 1.00
   16:02:54.515.29-Jun-2020 168.06 1575.14  873.30 856.96 65.81 1.00
   16:02:54.715.29-Jun-2020 168.26 1575.14  873.30 856.96 65.81 1.00
   16:02:54.915.29-Jun-2020 168.46 1575.11  873.30 856.96 65.81 1.00
   16:02:55.115.29-Jun-2020 168.66 1575.12  873.30 856.96 65.81 1.00
   16:02:55.316.29-Jun-2020 168.86 1575.10  873.30 856.96 65.81 1.00
   16:02:55.516.29-Jun-2020 169.06 1575.12  873.30 856.96 65.81 1.00
   16:02:55.716.29-Jun-2020 169.26 1575.18  873.30 856.96 65.81 1.00
   16:02:55.916.29-Jun-2020 169.46 1575.10  873.30 856.96 65.81 1.00
   16:02:56.116.29-Jun-2020 169.66 1575.14  873.30 856.96 65.81 1.00
   16:02:56.316.29-Jun-2020 169.86 1575.09  873.30 856.96 65.81 1.00
   16:02:56.516.29-Jun-2020 170.06 1575.07  873.30 856.96 65.81 1.00
   16:02:56.716.29-Jun-2020 170.26 1575.07  873.30 856.96 65.81 1.00
   16:02:56.916.29-Jun-2020 170.46 1575.05  873.30 856.96 65.81 1.00
   16:02:57.116.29-Jun-2020 170.66 1575.02  873.30 856.96 65.81 1.00
   16:02:57.316.29-Jun-2020 170.86 1574.91  873.30 856.96 65.81 1.00
   16:02:57.516.29-Jun-2020 171.06 1575.06  873.30 856.96 65.81 1.00
   16:02:57.716.29-Jun-2020 171.26 1575.06  873.30 856.96 65.81 1.00
   16:02:57.917.29-Jun-2020 171.46 1575.03  873.30 856.96 65.81 1.00
   16:02:58.117.29-Jun-2020 171.67 1575.06  873.30 856.96 65.81 1.00
   16:02:58.317.29-Jun-2020 171.87 1575.08  873.30 856.96 65.81 1.00
   16:02:58.517.29-Jun-2020 172.07 1575.08  873.30 856.96 65.81 1.00
   16:02:58.717.29-Jun-2020 172.27 1575.08  873.30 856.96 65.81 1.00
   16:02:58.917.29-Jun-2020 172.47 1575.11  873.30 856.96 65.81 1.00
   16:02:59.117.29-Jun-2020 172.67 1575.10  873.30 856.96 65.81 1.00
   16:02:59.317.29-Jun-2020 172.87 1575.20  873.30 856.96 65.81 1.00
   16:02:59.517.29-Jun-2020 173.07 1575.16  873.30 856.96 65.81 1.00
   16:02:59.717.29-Jun-2020 173.27 1575.09  873.30 856.96 65.81 1.00
   16:02:59.917.29-Jun-2020 173.47 1575.08  873.30 856.96 65.81 1.00
   16:03:00.117.29-Jun-2020 173.67 1575.07  873.30 856.96 65.81 1.00
   16:03:00.317.29-Jun-2020 173.87 1575.02  873.30 856.96 65.81 1.00
   16:03:00.517.29-Jun-2020 174.07 1575.11  873.30 856.96 65.81 1.00
   16:03:00.718.29-Jun-2020 174.27 1575.11  873.30 856.96 65.81 1.00
   16:03:00.918.29-Jun-2020 174.47 1574.97  873.30 856.96 65.81 1.00
   16:03:01.118.29-Jun-2020 174.67 1575.05  873.30 856.96 65.81 1.00
   16:03:01.318.29-Jun-2020 174.87 1574.95  873.30 856.96 65.81 1.00
   16:03:01.518.29-Jun-2020 175.07 1574.98  873.30 856.96 65.81 1.00
   16:03:01.718.29-Jun-2020 175.27 1574.98  873.30 856.96 65.81 1.00
   16:03:01.918.29-Jun-2020 175.47 1575.02  873.30 856.96 65.81 1.00
   16:03:02.118.29-Jun-2020 175.67 1575.03  873.30 856.96 65.82 1.00
   16:03:02.318.29-Jun-2020 175.87 1574.99  873.30 856.96 65.82 1.00
   16:03:02.518.29-Jun-2020 176.07 1575.02  873.30 856.96 65.82 1.00
   16:03:02.718.29-Jun-2020 176.27 1575.02  873.30 856.96 65.82 1.00
   16:03:02.918.29-Jun-2020 176.47 1575.10  873.30 856.96 65.82 1.00
   16:03:03.118.29-Jun-2020 176.67 1574.91  873.30 856.96 65.82 1.00
   16:03:03.319.29-Jun-2020 176.87 1575.13  873.30 856.96 65.82 1.00
   16:03:03.519.29-Jun-2020 177.07 1575.03  873.30 856.96 65.82 1.00
   16:03:03.719.29-Jun-2020 177.27 1575.03  873.30 856.96 65.82 1.00
   16:03:03.919.29-Jun-2020 177.47 1575.13  873.30 856.96 65.82 1.00
   16:03:04.119.29-Jun-2020 177.67 1575.05  873.30 856.96 65.82 1.00
   16:03:04.319.29-Jun-2020 177.87 1575.11  873.30 856.96 65.82 1.00
   16:03:04.519.29-Jun-2020 178.07 1575.11  873.30 856.96 65.82 1.00
   16:03:04.719.29-Jun-2020 178.27 1575.11  873.30 856.96 65.82 1.00
   16:03:04.919.29-Jun-2020 178.47 1575.03  873.30 856.96 65.82 1.00
   16:03:05.119.29-Jun-2020 178.67 1575.15  873.30 856.96 65.82 1.00
   16:03:05.319.29-Jun-2020 178.87 1575.11  873.30 856.96 65.82 1.00
   16:03:05.519.29-Jun-2020 179.07 1575.09  873.30 856.96 65.82 1.00
   16:03:05.719.29-Jun-2020 179.27 1575.09  873.30 856.96 65.82 1.00
   16:03:05.920.29-Jun-2020 179.47 1575.07  873.30 856.96 65.82 1.00
   16:03:06.120.29-Jun-2020 179.67 1575.07  873.30 856.96 65.82 1.00
   16:03:06.320.29-Jun-2020 179.87 1575.03  873.30 856.96 65.82 1.00
   16:03:06.520.29-Jun-2020 180.07 1575.06  873.30 856.96 65.82 1.00
   16:03:06.720.29-Jun-2020 180.27 1575.06  873.30 856.96 65.82 1.00
   16:03:06.920.29-Jun-2020 180.47 1574.93  873.30 856.96 65.82 1.00
   16:03:07.120.29-Jun-2020 180.67 1574.99  873.30 856.96 65.82 1.00
   16:03:07.320.29-Jun-2020 180.87 1574.96  873.30 856.96 65.82 1.00
   16:03:07.520.29-Jun-2020 181.07 1575.06  873.30 856.96 65.82 1.00
   16:03:07.720.29-Jun-2020 181.27 1575.03  873.30 856.96 65.82 1.00
   16:03:07.920.29-Jun-2020 181.47 1575.06  873.30 856.96 65.82 1.00
   16:03:08.120.29-Jun-2020 181.67 1575.08  873.30 856.96 65.82 1.00
   16:03:08.320.29-Jun-2020 181.87 1575.09  873.30 856.96 65.82 1.00
   16:03:08.521.29-Jun-2020 182.07 1575.06  873.30 856.96 65.82 1.00
   16:03:08.721.29-Jun-2020 182.27 1575.06  873.30 856.96 65.82 1.00
   16:03:08.921.29-Jun-2020 182.47 1575.16  873.30 856.96 65.82 1.00
   16:03:09.121.29-Jun-2020 182.67 1575.01  873.30 856.96 65.82 1.00
   16:03:09.321.29-Jun-2020 182.87 1575.02  873.30 856.96 65.82 1.00
   16:03:09.521.29-Jun-2020 183.07 1575.09  873.30 856.96 65.82 1.00
   16:03:09.721.29-Jun-2020 183.27 1575.07  873.30 856.96 65.82 1.00
   16:03:09.921.29-Jun-2020 183.47 1575.05  873.30 856.96 65.82 1.00
   16:03:10.121.29-Jun-2020 183.67 1575.03  873.30 856.96 65.82 1.00
   16:03:10.321.29-Jun-2020 183.87 1574.97  873.30 856.96 65.82 1.00
   16:03:10.521.29-Jun-2020 184.07 1575.08  873.30 856.96 65.82 1.00
   16:03:10.721.29-Jun-2020 184.27 1575.02  873.30 856.96 65.82 1.00
   16:03:10.921.29-Jun-2020 184.47 1574.99  873.30 856.96 65.82 1.00
   16:03:11.122.29-Jun-2020 184.67 1574.94  873.30 856.96 65.82 1.00
   16:03:11.322.29-Jun-2020 184.87 1575.05  873.30 856.96 65.82 1.00
   16:03:11.522.29-Jun-2020 185.07 1575.09  873.30 856.96 65.82 1.00
   16:03:11.722.29-Jun-2020 185.27 1575.00  873.30 856.96 65.82 1.00
   16:03:11.922.29-Jun-2020 185.47 1575.03  873.30 856.96 65.82 1.00
