~Version Information
 VERS.                  2.0:   CWLS log ASCII Standard -VERSION 2.0
 WRAP.                   NO:   One line per depth step
~Well Information Block
#MNEM.UNIT     VALUE/NAME     DESCRIPTION
#---------     -----------    ---------------------------
 STRT.S             23:30:34 30-Jun-20: START TIME 23:30:34 30-Jun-20
 STOP.S             23:39:34 30-Jun-20: STOP TIME  23:39:34 30-Jun-20
 STEP.S                   0.00: STEP TIME
 NULL.                 -999.25: NULL VALUE
 DFWT.                        :  DIST FWL TEXT
 DFST.                        :  DIST FSL TEXT
 DMF .             Drill Floor:  DRILL MEAS FROM
 STIM.      09.59.28 01-Jun-20:  START TIME
 DATE.      09.59.28 01-Jun-20:  END TIME
 SPUD.               01-Jun-20:  SPUD DATE
 NREF.                    Grid:  NORTH REFERENCE
 HPTY.       Minimum Curvature:  HOLE POS TYPE
 DMOD.             Drill Model:  DRILL MOD DESC
 SVYD.                  Survey:  SURVEY DESC
 ILTD.               Lithology:  INTERP LTH DESC
 FTOP.          Formation Tops:  FORM TOPS DESC
 SON .        AZ-XX-0905455768:  JOB NUMBER
 WTYP.                Deviated:  WELL TYPE
 COMP.     BP Exploration(Caspian Sea):  COMPANY
 BASE.              Azerbaijan:  LOGGING EQUIPMENT BASE LOCATION
 REGN.                   EESSA:  REGION
 CTRY.              Azerbaijan:  COUNTRY NAME
 FLD .                     ACG:  FIELD NAME
 SRVC.          Turan Drilling:  CONTRACTOR
 WELL.                     B41:  WELL NAME
 RIG .           Central Azeri:  RIG NAME
 DCON.         Sperry Drilling:  DIRECTNL CONTR
 PDAT.          Mean Sea Level:  PERMANENT DATUM
 MDS .        Operator Entered:  MAG DATA SOURCE
 API .                        :  API NUMBER
 CNTY.                        :  COUNTY
 PROV.                        :  PROVINCE
 STAT.                        :  STATE
 UWI .                        :  UNIQUE WELL IDENTIFIER
 LOC .                        :  LOCATION
 LMF .             Drill Floor:  LOG MEASURED FROM
 TVDS.m                  43.29:  TVDSS CORRECTN
 LATI.deg                40.03:  LATITUDE
 LONG.deg                51.35:  LONGITUDE
 WHNS.m                  12.98:  WELL HEAD N/S
 WHEW.m                  -6.62:  WELL HEAD E/W
 UTMX.m              530128.28:  UTM X
 UTMY.m             4433192.49:  UTM Y
 DFWL.m                   0.00:  DISTANCE FWL
 DFSL.m                   0.00:  DISTANCE FSL
 SDEP.m                 378.00:  START DEPTH
 TDD .m                   0.00:  TOTAL DEPTH (DRILLER)
 VSDR.deg               296.18:  VERT SEC DIRECT
 GVFD.g                   1.00:  GRAVITY FIELD
 MFLD.nT              50253.00:  MAGNETIC FIELD
 MDIP.deg                59.49:  MAGNETIC DIP
 MDEC.deg                 6.44:  MAGNETIC DECL
 GRDC.deg                 0.22:  GRID CORRECTION
 AZTC.deg                 6.22:  AZM TOTAL CORR
 EPD .m                   0.00:  ELEVATION
 EGL .m                   0.00:  GROUND ELEVATION
 WDMS.m                 128.20:  WD ELEV
 APD .m                  43.29:  DEPTH ABOVE PD
 AGAP.m                  43.29:  AIR GAP
 VSEW.m                  -6.62:  VERT SEC E/W
 VSNS.m                  12.98:  VERT SEC N/S
 EKB .m                  43.29:  KB ELEVATION
 EDF .m                  43.29:  DF ELEVATION
 TDL .m                1152.00:  TOTAL DEPTH (LOGGER)
 VSC .                       0:  VS TO CLOSURE
 MAGU.                 1848525:  MAGUTM CHECKSUM
~Parameter Information Block
#MNEM.UNIT       Value        Description
#---------     -----------    ---------------------------
 AV  .mps                 0.40:  Ann Velocity 
 AVMX.mps                 1.56:  Max Ann Veloc 
 AZIF.deg               300.46:  Azm, Final 
 BHAT.        Rotary Steerable:  BHA Type 
 BROT.°/30m               0.40:  Build Rotating 
 BS  .in                 17.50:  Bit Size 
 BSZ .in                 17.50:  Bit Size 
 BTPL.psig              300.00:  Bit Press Loss 
 CABU.                      No:  Customer Abuse 
 CGEO.          Parviz Guliyev:  Customer Geo 
 COMM.                     œº_:  Run Comments 1 
 TCS .hr                108.13:  Time Ciculation Ended 
 CV  .mps                 0.50:  Crit Velocity 
 CVMX.mps                 2.01:  Max Crit Veloc 
 DD1 .          Fariz Nahmatov:  Direct Drillr 1 
 DD2 .             Ehab Radwan:  Direct Drillr 2 
 DDSV.               Geo-Pilot:  DD Service 
 DEFF.%                  99.00:  % Det Eff 
 DLRX.°/30m               0.50:  Dogleg Rot Max 
 DLSO.°/30m               2.80:  Dogleg Oriented 
 DLSX.°/30m               3.90:  Dogleg Str Max 
 DRET.      09.30.04 03-Jul-20:  Drill End Time 
 DRST.      18.33.04 28-Jun-20:  Drill Start Tim 
 DTIM.hr                 55.83:  Time Drilling 
 EDEP.m                1952.00:  End Depth 
 ENG1.      Bakhtiyar Jabbarli:  Engineer 1 
 ENG2.         Farhad Orujzade:  Engineer 2 
 ENG3.          Rustam Safarov:  Engineer 3 
 ETIM.      01.33.04 04-Jul-20:  End Time 
 FLOI.gpm              1050.00:  Flow In 
 FLON.gpm               950.00:  Flow In Min 
 FLOS.cptm                0.10:  Fluid Loss 
 FLOX.gpm              1150.00:  Flow In Max 
 HFLO.                      No:  High Flow 
 HPRE.                      No:  High Pressure 
 HTEM.                      No:  High Temp 
 HYDO.m                   1.80:  Hydro Offset 
 IFIN.deg                75.26:  Inc, Final 
 IMAX.deg                75.38:  Inc Max 
 IMIN.deg                22.84:  Inc Min 
 IMND.m                 832.38:  Inc Min Depth 
 IMXD.m                1936.55:  Inc Max Depth 
 JARR.                      No:  Jarring 
 LETM.      17.40.00 04-Jul-20:  Log End Time 
 LOST.hr                     0:  Lost Rig Time 
 LSTM.      12.33.04 28-Jun-20:  Log Start Time 
 MDCL.ppm             49500.00:  Mud Chlorides 
 MDES.     Inversion Oil/Synthetic:  Mud Desc 
 DFD .sg                  1.46:  Mud Density 
 MDMN.sg                  1.46:  Dens Mud Min 
 MDMX.sg                  1.46:  Dens Mud Max 
 MOIL.                      70:  Run Mud Oil % 
 MOWR.                   70:30:  Run Mud OWR 
 MSND.                     0.5:  Run Mud Sand % 
 MSOL.                   19.89:  Run Mud Solids% 
 DFV .spqt               72.00:  Mud Viscosity 
 MWOD.in                  9.50:  MWD Tool OD 
 MWSI.                      No:  Serv Intrp, MWD 
 OTIM.hr                146.53:  Time Operating 
 PCON.           Look Like New:  Pad Condition 
 PMAX.psia             2900.00:  Press Op, Max 
 PV  .cP                 38.00:  Mud PV 
 RUN .                     600:  Run Number 
 ROPA.m/hr               22.00:  ROP Avg 
 ROPN.m/hr               10.00:  ROP Min 
 ROPX.m/hr              263.00:  ROP Max 
 RPMA.rpm               155.00:  RPM Surface Avg 
 RPMN.rpm               140.00:  RPM Surface Min 
 RPMX.rpm               160.00:  RPM Surface Max 
 RRUN.                    0600:  Rig Run Number 
 RTIM.hr                  5.00:  Time Reaming 
 SAZI.deg               300.08:  Azm, Start 
 SDEP.m                 800.00:  Start Depth 
 SIDD.                      No:  Serv Intrp, DD 
 SINC.deg                22.84:  Inc, Start 
 SPPA.psig             3000.00:  SPP Avg 
 SPPN.psig             1900.00:  SPP Min 
 SPPX.psig             3200.00:  SPP Max 
 STIM.      12.30.04 28-Jun-20:  Start Time 
 SVCS.                 DD, MWD:  Services 
 SVER.                    9.20:  Sperry Version 
 TDAT.m                1952.00:  Tot Depth Attmp 
 TDDF.                      No:  Trip for DD 
 TDLG.m                1152.00:  Tot Depth Loggd 
 TFF .                      No:  Trip for Fail 
 TQAA.f-kp                8.00:  Torque Abs Avg 
 TQAN.f-kp                5.00:  Torque Abs Min 
 TQAX.f-kp               14.00:  Torque Abs Max 
 TRRT.°/30m               0.50:  Turn Rotating 
 MRT .                  EWR-M5:  Maximum Recorded Temperature 
 TTMX.degC               69.00:  Max Tool Temp 
 VS01.                90610313:  Virtual Str1 SN 
 VS02.                90613431:  Virtual Str2 SN 
 VS03.                90615410:  Virtual Str3 SN 
 WBMN.klb                 6.00:  WOB Min 
 WITN.            Bruce Cheyne:  Customer Rep 
 WITN.             Ayaz Aliyev:  Customer Rep 2 
 WOBA.klb                 6.00:  WOB Avg 
 WOBX.klb                10.00:  WOB Max 
 YP  .lhf2               36.00:  Yield Point 
~Curve Information Block
#MNEM.UNIT                 API CODE     Curve Description
#---------               -----------    ---------------------------
 TIME.HHMMSS            00 000 000 000:  GT Time & Date
 GTET.sec               00 000 000 000:  GT Elapsed Test Time
 GTPQH.psia             00 000 000 000:  GT HR Quartz Pressure
 GTDEPTH.m              00 000 000 000:  GT Depth
 GTTVD.m                00 000 000 000:  GT True Vertical Depth
 GTTQ.degC              00 000 000 000:  GT Quartz Temperature
 GTTN.NONE              00 000 000 000:  GT Test Number
#Other Information
#
#WARRANTY: Halliburton will use its best efforts to furnish customers with 
#accurate information and interpretations that are part of, and incident to, the services 
#provided.  However, Halliburton cannot and does not warrant the accuracy 
#or correctness of such information and interpretations.  Under no circumstances should any 
#such information or interpretation be relied upon as the sole basis for any drilling, 
#completion, production, or financial decision or any procedure involving any risk to the 
#safety of any drilling venture, drilling rig or its crew or any other third party.  The 
#Customer has full responsibility for all drilling, completion and production operation.  
#Halliburton makes no representations or warranties, either expressed or 
#implied, including, but not limited to, the implied warranties of merchantability or fitness 
#for a particular purpose, with respect to the services rendered.  In no event will 
#Halliburton be liable for failure to obtain any particular results or for 
#any damages, including, but not limited to, indirect, special or consequential damages, 
#resulting from the use of any information or interpretation provided by Halliburton.
#
~A           TIME            GTET   GTPQH  GTDEPTH  GTTVD  GTTQ  GTTN 
# ...
   23:39:00.632.30-Jun-2020 506.15 2320.33 1161.05 1096.50 59.68 4.00
   23:39:00.832.30-Jun-2020 506.35 2320.33 1161.05 1096.50 59.68 4.00
   23:39:01.032.30-Jun-2020 506.55 2319.73 1161.05 1096.50 59.68 4.00
   23:39:01.232.30-Jun-2020 506.75 2319.89 1161.05 1096.50 59.68 4.00
   23:39:01.432.30-Jun-2020 506.95 2320.00 1161.05 1096.50 59.68 4.00
   23:39:01.632.30-Jun-2020 507.15 2320.18 1161.05 1096.50 59.68 4.00
   23:39:01.833.30-Jun-2020 507.35 2320.18 1161.05 1096.50 59.68 4.00
   23:39:02.033.30-Jun-2020 507.55 2319.28 1161.05 1096.50 59.68 4.00
   23:39:02.233.30-Jun-2020 507.75 2318.01 1161.05 1096.50 59.68 4.00
   23:39:02.433.30-Jun-2020 507.95 2320.31 1161.05 1096.50 59.68 4.00
   23:39:02.633.30-Jun-2020 508.15 2321.23 1161.05 1096.50 59.68 4.00
   23:39:02.833.30-Jun-2020 508.35 2321.23 1161.05 1096.50 59.68 4.00
   23:39:03.033.30-Jun-2020 508.55 2320.51 1161.05 1096.50 59.68 4.00
   23:39:03.233.30-Jun-2020 508.75 2319.90 1161.05 1096.50 59.68 4.00
   23:39:03.433.30-Jun-2020 508.95 2318.77 1161.05 1096.50 59.68 4.00
   23:39:03.633.30-Jun-2020 509.15 2319.93 1161.05 1096.50 59.68 4.00
   23:39:03.833.30-Jun-2020 509.35 2319.93 1161.05 1096.50 59.68 4.00
   23:39:04.033.30-Jun-2020 509.55 2320.76 1161.05 1096.50 59.68 4.00
   23:39:04.233.30-Jun-2020 509.75 2319.62 1161.05 1096.50 59.68 4.00
   23:39:04.433.30-Jun-2020 509.95 2320.62 1161.05 1096.50 59.68 4.00
   23:39:04.633.30-Jun-2020 510.15 2320.43 1161.05 1096.50 59.68 4.00
   23:39:04.833.30-Jun-2020 510.35 2320.43 1161.05 1096.50 59.68 4.00
   23:39:05.033.30-Jun-2020 510.55 2320.62 1161.05 1096.50 59.68 4.00
   23:39:05.234.30-Jun-2020 510.75 2321.18 1161.05 1096.50 59.68 4.00
   23:39:05.434.30-Jun-2020 510.95 2321.21 1161.05 1096.50 59.68 4.00
   23:39:05.634.30-Jun-2020 511.15 2320.20 1161.05 1096.50 59.68 4.00
   23:39:05.834.30-Jun-2020 511.35 2320.20 1161.05 1096.50 59.68 4.00
   23:39:06.034.30-Jun-2020 511.55 2321.02 1161.05 1096.50 59.68 4.00
   23:39:06.234.30-Jun-2020 511.75 2322.32 1161.05 1096.50 59.68 4.00
   23:39:06.434.30-Jun-2020 511.95 2321.26 1161.05 1096.50 59.68 4.00
   23:39:06.634.30-Jun-2020 512.15 2321.17 1161.05 1096.50 59.68 4.00
   23:39:06.834.30-Jun-2020 512.35 2321.17 1161.05 1096.50 59.68 4.00
   23:39:07.034.30-Jun-2020 512.55 2321.18 1161.05 1096.50 59.68 4.00
   23:39:07.234.30-Jun-2020 512.75 2321.66 1161.05 1096.50 59.68 4.00
   23:39:07.434.30-Jun-2020 512.95 2321.24 1161.05 1096.50 59.68 4.00
   23:39:07.634.30-Jun-2020 513.15 2320.96 1161.05 1096.50 59.68 4.00
   23:39:07.834.30-Jun-2020 513.35 2320.96 1161.05 1096.50 59.68 4.00
   23:39:08.034.30-Jun-2020 513.55 2321.62 1161.05 1096.50 59.68 4.00
   23:39:08.234.30-Jun-2020 513.75 2320.93 1161.05 1096.50 59.68 4.00
   23:39:08.434.30-Jun-2020 513.95 2321.22 1161.05 1096.50 59.68 4.00
   23:39:08.634.30-Jun-2020 514.15 2321.25 1161.05 1096.50 59.68 4.00
   23:39:08.835.30-Jun-2020 514.35 2321.25 1161.05 1096.50 59.68 4.00
   23:39:09.035.30-Jun-2020 514.55 2320.88 1161.05 1096.50 59.68 4.00
   23:39:09.235.30-Jun-2020 514.75 2320.76 1161.05 1096.50 59.68 4.00
   23:39:09.435.30-Jun-2020 514.95 2320.05 1161.05 1096.50 59.68 4.00
   23:39:09.635.30-Jun-2020 515.15 2320.59 1161.05 1096.50 59.68 4.00
   23:39:09.835.30-Jun-2020 515.35 2320.59 1161.05 1096.50 59.68 4.00
   23:39:10.035.30-Jun-2020 515.55 2319.88 1161.05 1096.50 59.68 4.00
   23:39:10.235.30-Jun-2020 515.75 2320.12 1161.05 1096.50 59.68 4.00
   23:39:10.435.30-Jun-2020 515.95 2320.07 1161.05 1096.50 59.68 4.00
   23:39:10.635.30-Jun-2020 516.15 2320.17 1161.05 1096.50 59.68 4.00
   23:39:10.835.30-Jun-2020 516.35 2320.17 1161.05 1096.50 59.68 4.00
   23:39:11.035.30-Jun-2020 516.55 2319.57 1161.05 1096.50 59.68 4.00
   23:39:11.235.30-Jun-2020 516.75 2317.99 1161.05 1096.50 59.68 4.00
   23:39:11.435.30-Jun-2020 516.95 2320.17 1161.05 1096.50 59.68 4.00
   23:39:11.635.30-Jun-2020 517.15 2320.69 1161.05 1096.50 59.68 4.00
   23:39:11.835.30-Jun-2020 517.35 2320.69 1161.05 1096.50 59.68 4.00
   23:39:12.035.30-Jun-2020 517.55 2318.71 1161.05 1096.50 59.68 4.00
   23:39:12.236.30-Jun-2020 517.75 2320.09 1161.05 1096.50 59.68 4.00
   23:39:12.436.30-Jun-2020 517.95 2320.62 1161.05 1096.50 59.68 4.00
   23:39:12.636.30-Jun-2020 518.15 2319.66 1161.05 1096.50 59.68 4.00
   23:39:12.836.30-Jun-2020 518.35 2319.66 1161.05 1096.50 59.68 4.00
   23:39:13.036.30-Jun-2020 518.55 2319.51 1161.05 1096.50 59.68 4.00
   23:39:13.236.30-Jun-2020 518.75 2320.53 1161.05 1096.50 59.68 4.00
   23:39:13.436.30-Jun-2020 518.95 2320.42 1161.05 1096.50 59.68 4.00
   23:39:13.636.30-Jun-2020 519.15 2320.55 1161.05 1096.50 59.68 4.00
   23:39:13.836.30-Jun-2020 519.35 2320.55 1161.05 1096.50 59.68 4.00
   23:39:14.036.30-Jun-2020 519.55 2321.60 1161.05 1096.50 59.68 4.00
   23:39:14.236.30-Jun-2020 519.75 2321.60 1161.05 1096.50 59.68 4.00
   23:39:14.436.30-Jun-2020 519.95 2318.25 1161.05 1096.50 59.68 4.00
   23:39:14.636.30-Jun-2020 520.15 2321.09 1161.05 1096.50 59.68 4.00
   23:39:14.836.30-Jun-2020 520.35 2321.09 1161.05 1096.50 59.68 4.00
   23:39:15.036.30-Jun-2020 520.55 2321.35 1161.05 1096.50 59.68 4.00
   23:39:15.236.30-Jun-2020 520.75 2321.71 1161.05 1096.50 59.68 4.00
   23:39:15.436.30-Jun-2020 520.95 2321.52 1161.05 1096.50 59.68 4.00
   23:39:15.637.30-Jun-2020 521.15 2321.23 1161.05 1096.50 59.68 4.00
   23:39:15.837.30-Jun-2020 521.35 2321.23 1161.05 1096.50 59.68 4.00
   23:39:16.037.30-Jun-2020 521.55 2321.97 1161.05 1096.50 59.68 4.00
   23:39:16.237.30-Jun-2020 521.75 2321.73 1161.05 1096.50 59.68 4.00
   23:39:16.437.30-Jun-2020 521.95 2321.63 1161.05 1096.50 59.68 4.00
   23:39:16.637.30-Jun-2020 522.15 2321.28 1161.05 1096.50 59.68 4.00
   23:39:16.837.30-Jun-2020 522.35 2321.28 1161.05 1096.50 59.68 4.00
   23:39:17.037.30-Jun-2020 522.55 2321.22 1161.05 1096.50 59.68 4.00
   23:39:17.237.30-Jun-2020 522.75 2321.74 1161.05 1096.50 59.68 4.00
   23:39:17.437.30-Jun-2020 522.95 2321.85 1161.05 1096.50 59.68 4.00
   23:39:17.637.30-Jun-2020 523.15 2321.52 1161.05 1096.50 59.68 4.00
   23:39:17.837.30-Jun-2020 523.35 2320.60 1161.05 1096.50 59.68 4.00
   23:39:18.037.30-Jun-2020 523.55 2319.57 1161.05 1096.50 59.68 4.00
   23:39:18.237.30-Jun-2020 523.75 2319.95 1161.05 1096.50 59.68 4.00
   23:39:18.437.30-Jun-2020 523.95 2320.42 1161.05 1096.50 59.68 4.00
   23:39:18.637.30-Jun-2020 524.15 2320.78 1161.05 1096.50 59.68 4.00
   23:39:18.837.30-Jun-2020 524.35 2320.78 1161.05 1096.50 59.68 4.00
   23:39:19.038.30-Jun-2020 524.55 2319.98 1161.05 1096.50 59.68 4.00
   23:39:19.238.30-Jun-2020 524.75 2320.36 1161.05 1096.50 59.68 4.00
   23:39:19.438.30-Jun-2020 524.95 2319.27 1161.05 1096.50 59.68 4.00
   23:39:19.638.30-Jun-2020 525.15 2319.89 1161.05 1096.50 59.68 4.00
   23:39:19.838.30-Jun-2020 525.35 2319.89 1161.05 1096.50 59.68 4.00
   23:39:20.038.30-Jun-2020 525.55 2319.68 1161.05 1096.50 59.68 4.00
   23:39:20.238.30-Jun-2020 525.75 2319.54 1161.05 1096.50 59.68 4.00
   23:39:20.438.30-Jun-2020 525.95 2319.07 1161.05 1096.50 59.68 4.00
   23:39:20.638.30-Jun-2020 526.15 2318.03 1161.05 1096.50 59.68 4.00
   23:39:20.838.30-Jun-2020 526.35 2318.03 1161.05 1096.50 59.68 4.00
   23:39:21.038.30-Jun-2020 526.55 2321.47 1161.05 1096.50 59.68 4.00
   23:39:21.238.30-Jun-2020 526.75 2319.78 1161.05 1096.50 59.68 4.00
   23:39:21.438.30-Jun-2020 526.95 2319.27 1161.05 1096.50 59.68 4.00
   23:39:21.638.30-Jun-2020 527.15 2320.74 1161.05 1096.50 59.68 4.00
   23:39:21.838.30-Jun-2020 527.35 2320.74 1161.05 1096.50 59.68 4.00
   23:39:22.038.30-Jun-2020 527.55 2320.16 1161.05 1096.50 59.68 4.00
   23:39:22.238.30-Jun-2020 527.75 2320.41 1161.05 1096.50 59.68 4.00
   23:39:22.439.30-Jun-2020 527.95 2319.81 1161.05 1096.50 59.68 4.00
   23:39:22.639.30-Jun-2020 528.15 2320.73 1161.05 1096.50 59.68 4.00
   23:39:22.839.30-Jun-2020 528.35 2320.73 1161.05 1096.50 59.68 4.00
   23:39:23.039.30-Jun-2020 528.55 2320.48 1161.05 1096.50 59.68 4.00
   23:39:23.239.30-Jun-2020 528.75 2321.72 1161.05 1096.50 59.68 4.00
   23:39:23.439.30-Jun-2020 528.95 2322.12 1161.05 1096.50 59.68 4.00
