~Version Information
 VERS.                  2.0:   CWLS log ASCII Standard -VERSION 2.0
 WRAP.                   NO:   One line per depth step
~Well Information Block
#MNEM.UNIT     VALUE/NAME     DESCRIPTION
#---------     -----------    ---------------------------
 STRT.S             23:54:17 02-Jul-20: START TIME 23:54:17 02-Jul-20
 STOP.S             00:03:12 03-Jul-20: STOP TIME  00:03:12 03-Jul-20
 STEP.S                   0.00: STEP TIME
 NULL.                 -999.25: NULL VALUE
 DFWT.                        :  DIST FWL TEXT
 DFST.                        :  DIST FSL TEXT
 DMF .             Drill Floor:  DRILL MEAS FROM
 STIM.      09.59.28 01-Jun-20:  START TIME
 DATE.      09.59.28 01-Jun-20:  END TIME
 SPUD.               01-Jun-20:  SPUD DATE
 NREF.                    Grid:  NORTH REFERENCE
 HPTY.       Minimum Curvature:  HOLE POS TYPE
 DMOD.             Drill Model:  DRILL MOD DESC
 SVYD.                  Survey:  SURVEY DESC
 ILTD.               Lithology:  INTERP LTH DESC
 FTOP.          Formation Tops:  FORM TOPS DESC
 SON .        AZ-XX-0905455768:  JOB NUMBER
 WTYP.                Deviated:  WELL TYPE
 COMP.     BP Exploration(Caspian Sea):  COMPANY
 BASE.              Azerbaijan:  LOGGING EQUIPMENT BASE LOCATION
 REGN.                   EESSA:  REGION
 CTRY.              Azerbaijan:  COUNTRY NAME
 FLD .                     ACG:  FIELD NAME
 SRVC.          Turan Drilling:  CONTRACTOR
 WELL.                     B41:  WELL NAME
 RIG .           Central Azeri:  RIG NAME
 DCON.         Sperry Drilling:  DIRECTNL CONTR
 PDAT.          Mean Sea Level:  PERMANENT DATUM
 MDS .        Operator Entered:  MAG DATA SOURCE
 API .                        :  API NUMBER
 CNTY.                        :  COUNTY
 PROV.                        :  PROVINCE
 STAT.                        :  STATE
 UWI .                        :  UNIQUE WELL IDENTIFIER
 LOC .                        :  LOCATION
 LMF .             Drill Floor:  LOG MEASURED FROM
 TVDS.m                  43.29:  TVDSS CORRECTN
 LATI.deg                40.03:  LATITUDE
 LONG.deg                51.35:  LONGITUDE
 WHNS.m                  12.98:  WELL HEAD N/S
 WHEW.m                  -6.62:  WELL HEAD E/W
 UTMX.m              530128.28:  UTM X
 UTMY.m             4433192.49:  UTM Y
 DFWL.m                   0.00:  DISTANCE FWL
 DFSL.m                   0.00:  DISTANCE FSL
 SDEP.m                 378.00:  START DEPTH
 TDD .m                   0.00:  TOTAL DEPTH (DRILLER)
 VSDR.deg               296.18:  VERT SEC DIRECT
 GVFD.g                   1.00:  GRAVITY FIELD
 MFLD.nT              50253.00:  MAGNETIC FIELD
 MDIP.deg                59.49:  MAGNETIC DIP
 MDEC.deg                 6.44:  MAGNETIC DECL
 GRDC.deg                 0.22:  GRID CORRECTION
 AZTC.deg                 6.22:  AZM TOTAL CORR
 EPD .m                   0.00:  ELEVATION
 EGL .m                   0.00:  GROUND ELEVATION
 WDMS.m                 128.20:  WD ELEV
 APD .m                  43.29:  DEPTH ABOVE PD
 AGAP.m                  43.29:  AIR GAP
 VSEW.m                  -6.62:  VERT SEC E/W
 VSNS.m                  12.98:  VERT SEC N/S
 EKB .m                  43.29:  KB ELEVATION
 EDF .m                  43.29:  DF ELEVATION
 TDL .m                1152.00:  TOTAL DEPTH (LOGGER)
 VSC .                       0:  VS TO CLOSURE
 MAGU.                 1848525:  MAGUTM CHECKSUM
~Parameter Information Block
#MNEM.UNIT       Value        Description
#---------     -----------    ---------------------------
 AV  .mps                 0.40:  Ann Velocity 
 AVMX.mps                 1.56:  Max Ann Veloc 
 AZIF.deg               300.46:  Azm, Final 
 BHAT.        Rotary Steerable:  BHA Type 
 BROT.°/30m               0.40:  Build Rotating 
 BS  .in                 17.50:  Bit Size 
 BSZ .in                 17.50:  Bit Size 
 BTPL.psig              300.00:  Bit Press Loss 
 CABU.                      No:  Customer Abuse 
 CGEO.          Parviz Guliyev:  Customer Geo 
 COMM.                     ägu:  Run Comments 1 
 TCS .hr                108.13:  Time Ciculation Ended 
 CV  .mps                 0.50:  Crit Velocity 
 CVMX.mps                 2.01:  Max Crit Veloc 
 DD1 .          Fariz Nahmatov:  Direct Drillr 1 
 DD2 .             Ehab Radwan:  Direct Drillr 2 
 DDSV.               Geo-Pilot:  DD Service 
 DEFF.%                  99.00:  % Det Eff 
 DLRX.°/30m               0.50:  Dogleg Rot Max 
 DLSO.°/30m               2.80:  Dogleg Oriented 
 DLSX.°/30m               3.90:  Dogleg Str Max 
 DRET.      09.30.04 03-Jul-20:  Drill End Time 
 DRST.      18.33.04 28-Jun-20:  Drill Start Tim 
 DTIM.hr                 55.83:  Time Drilling 
 EDEP.m                1952.00:  End Depth 
 ENG1.      Bakhtiyar Jabbarli:  Engineer 1 
 ENG2.         Farhad Orujzade:  Engineer 2 
 ENG3.          Rustam Safarov:  Engineer 3 
 ETIM.      01.33.04 04-Jul-20:  End Time 
 FLOI.gpm              1050.00:  Flow In 
 FLON.gpm               950.00:  Flow In Min 
 FLOS.cptm                0.10:  Fluid Loss 
 FLOX.gpm              1150.00:  Flow In Max 
 HFLO.                      No:  High Flow 
 HPRE.                      No:  High Pressure 
 HTEM.                      No:  High Temp 
 HYDO.m                   1.80:  Hydro Offset 
 IFIN.deg                75.26:  Inc, Final 
 IMAX.deg                75.38:  Inc Max 
 IMIN.deg                22.84:  Inc Min 
 IMND.m                 832.38:  Inc Min Depth 
 IMXD.m                1936.55:  Inc Max Depth 
 JARR.                      No:  Jarring 
 LETM.      17.40.00 04-Jul-20:  Log End Time 
 LOST.hr                     0:  Lost Rig Time 
 LSTM.      12.33.04 28-Jun-20:  Log Start Time 
 MDCL.ppm             49500.00:  Mud Chlorides 
 MDES.     Inversion Oil/Synthetic:  Mud Desc 
 DFD .sg                  1.46:  Mud Density 
 MDMN.sg                  1.46:  Dens Mud Min 
 MDMX.sg                  1.46:  Dens Mud Max 
 MOIL.                      70:  Run Mud Oil % 
 MOWR.                   70:30:  Run Mud OWR 
 MSND.                     0.5:  Run Mud Sand % 
 MSOL.                   19.89:  Run Mud Solids% 
 DFV .spqt               72.00:  Mud Viscosity 
 MWOD.in                  9.50:  MWD Tool OD 
 MWSI.                      No:  Serv Intrp, MWD 
 OTIM.hr                146.53:  Time Operating 
 PCON.           Look Like New:  Pad Condition 
 PMAX.psia             2900.00:  Press Op, Max 
 PV  .cP                 38.00:  Mud PV 
 RUN .                     600:  Run Number 
 ROPA.m/hr               22.00:  ROP Avg 
 ROPN.m/hr               10.00:  ROP Min 
 ROPX.m/hr              263.00:  ROP Max 
 RPMA.rpm               155.00:  RPM Surface Avg 
 RPMN.rpm               140.00:  RPM Surface Min 
 RPMX.rpm               160.00:  RPM Surface Max 
 RRUN.                    0600:  Rig Run Number 
 RTIM.hr                  5.00:  Time Reaming 
 SAZI.deg               300.08:  Azm, Start 
 SDEP.m                 800.00:  Start Depth 
 SIDD.                      No:  Serv Intrp, DD 
 SINC.deg                22.84:  Inc, Start 
 SPPA.psig             3000.00:  SPP Avg 
 SPPN.psig             1900.00:  SPP Min 
 SPPX.psig             3200.00:  SPP Max 
 STIM.      12.30.04 28-Jun-20:  Start Time 
 SVCS.                 DD, MWD:  Services 
 SVER.                    9.20:  Sperry Version 
 TDAT.m                1952.00:  Tot Depth Attmp 
 TDDF.                      No:  Trip for DD 
 TDLG.m                1152.00:  Tot Depth Loggd 
 TFF .                      No:  Trip for Fail 
 TQAA.f-kp                8.00:  Torque Abs Avg 
 TQAN.f-kp                5.00:  Torque Abs Min 
 TQAX.f-kp               14.00:  Torque Abs Max 
 TRRT.°/30m               0.50:  Turn Rotating 
 MRT .                  EWR-M5:  Maximum Recorded Temperature 
 TTMX.degC               69.00:  Max Tool Temp 
 VS01.                90610313:  Virtual Str1 SN 
 VS02.                90613431:  Virtual Str2 SN 
 VS03.                90615410:  Virtual Str3 SN 
 WBMN.klb                 6.00:  WOB Min 
 WITN.            Bruce Cheyne:  Customer Rep 
 WITN.             Ayaz Aliyev:  Customer Rep 2 
 WOBA.klb                 6.00:  WOB Avg 
 WOBX.klb                10.00:  WOB Max 
 YP  .lhf2               36.00:  Yield Point 
~Curve Information Block
#MNEM.UNIT                 API CODE     Curve Description
#---------               -----------    ---------------------------
 TIME.HHMMSS            00 000 000 000:  GT Time & Date
 GTET.sec               00 000 000 000:  GT Elapsed Test Time
 GTPQH.psia             00 000 000 000:  GT HR Quartz Pressure
 GTDEPTH.m              00 000 000 000:  GT Depth
 GTTVD.m                00 000 000 000:  GT True Vertical Depth
 GTTQ.degC              00 000 000 000:  GT Quartz Temperature
 GTTN.NONE              00 000 000 000:  GT Test Number
#Other Information
#
#WARRANTY: Halliburton will use its best efforts to furnish customers with 
#accurate information and interpretations that are part of, and incident to, the services 
#provided.  However, Halliburton cannot and does not warrant the accuracy 
#or correctness of such information and interpretations.  Under no circumstances should any 
#such information or interpretation be relied upon as the sole basis for any drilling, 
#completion, production, or financial decision or any procedure involving any risk to the 
#safety of any drilling venture, drilling rig or its crew or any other third party.  The 
#Customer has full responsibility for all drilling, completion and production operation.  
#Halliburton makes no representations or warranties, either expressed or 
#implied, including, but not limited to, the implied warranties of merchantability or fitness 
#for a particular purpose, with respect to the services rendered.  In no event will 
#Halliburton be liable for failure to obtain any particular results or for 
#any damages, including, but not limited to, indirect, special or consequential damages, 
#resulting from the use of any information or interpretation provided by Halliburton.
#
~A           TIME            GTET   GTPQH  GTDEPTH  GTTVD  GTTQ  GTTN 
# ...
   23:57:44.617.02-Jul-2020 207.03 2504.22 1828.92 1344.71 59.06 7.00
   23:57:44.817.02-Jul-2020 207.23 2504.21 1828.92 1344.71 59.06 7.00
   23:57:45.017.02-Jul-2020 207.43 2504.21 1828.92 1344.71 59.06 7.00
   23:57:45.217.02-Jul-2020 207.63 2504.12 1828.92 1344.71 59.06 7.00
   23:57:45.417.02-Jul-2020 207.83 2504.21 1828.92 1344.71 59.06 7.00
   23:57:45.617.02-Jul-2020 208.03 2504.23 1828.92 1344.71 59.06 7.00
   23:57:45.817.02-Jul-2020 208.23 2504.21 1828.92 1344.71 59.06 7.00
   23:57:46.017.02-Jul-2020 208.43 2504.21 1828.92 1344.71 59.06 7.00
   23:57:46.217.02-Jul-2020 208.63 2504.18 1828.92 1344.71 59.06 7.00
   23:57:46.417.02-Jul-2020 208.83 2504.11 1828.92 1344.71 59.06 7.00
   23:57:46.617.02-Jul-2020 209.03 2504.17 1828.92 1344.71 59.06 7.00
   23:57:46.817.02-Jul-2020 209.23 2504.17 1828.92 1344.71 59.06 7.00
   23:57:47.017.02-Jul-2020 209.43 2504.20 1828.92 1344.71 59.06 7.00
   23:57:47.217.02-Jul-2020 209.63 2504.20 1828.92 1344.71 59.06 7.00
   23:57:47.417.02-Jul-2020 209.83 2504.20 1828.92 1344.71 59.06 7.00
   23:57:47.617.02-Jul-2020 210.03 2504.18 1828.92 1344.71 59.06 7.00
   23:57:47.817.02-Jul-2020 210.23 2504.18 1828.92 1344.71 59.06 7.00
   23:57:48.017.02-Jul-2020 210.43 2504.21 1828.92 1344.71 59.06 7.00
   23:57:48.217.02-Jul-2020 210.63 2504.19 1828.92 1344.71 59.06 7.00
   23:57:48.417.02-Jul-2020 210.83 2504.19 1828.92 1344.71 59.06 7.00
   23:57:48.617.02-Jul-2020 211.03 2504.19 1828.92 1344.71 59.06 7.00
   23:57:48.817.02-Jul-2020 211.23 2504.18 1828.92 1344.71 59.06 7.00
   23:57:49.017.02-Jul-2020 211.43 2504.19 1828.92 1344.71 59.06 7.00
   23:57:49.218.02-Jul-2020 211.63 2504.21 1828.92 1344.71 59.06 7.00
   23:57:49.418.02-Jul-2020 211.83 2504.20 1828.92 1344.71 59.06 7.00
   23:57:49.618.02-Jul-2020 212.03 2504.21 1828.92 1344.71 59.06 7.00
   23:57:49.818.02-Jul-2020 212.23 2504.20 1828.92 1344.71 59.06 7.00
   23:57:50.018.02-Jul-2020 212.43 2504.13 1828.92 1344.71 59.06 7.00
   23:57:50.218.02-Jul-2020 212.63 2504.13 1828.92 1344.71 59.06 7.00
   23:57:50.418.02-Jul-2020 212.83 2504.21 1828.92 1344.71 59.06 7.00
   23:57:50.618.02-Jul-2020 213.03 2504.20 1828.92 1344.71 59.06 7.00
   23:57:50.818.02-Jul-2020 213.23 2504.20 1828.92 1344.71 59.06 7.00
   23:57:51.018.02-Jul-2020 213.43 2504.19 1828.92 1344.71 59.06 7.00
   23:57:51.218.02-Jul-2020 213.63 2504.17 1828.92 1344.71 59.06 7.00
   23:57:51.418.02-Jul-2020 213.83 2504.20 1828.92 1344.71 59.06 7.00
   23:57:51.618.02-Jul-2020 214.03 2504.21 1828.92 1344.71 59.06 7.00
   23:57:51.818.02-Jul-2020 214.23 2504.21 1828.92 1344.71 59.06 7.00
   23:57:52.018.02-Jul-2020 214.43 2504.21 1828.92 1344.71 59.06 7.00
   23:57:52.218.02-Jul-2020 214.63 2504.19 1828.92 1344.71 59.06 7.00
   23:57:52.418.02-Jul-2020 214.83 2504.18 1828.92 1344.71 59.06 7.00
   23:57:52.618.02-Jul-2020 215.03 2504.09 1828.92 1344.71 59.06 7.00
   23:57:52.818.02-Jul-2020 215.23 2504.20 1828.92 1344.71 59.06 7.00
   23:57:53.018.02-Jul-2020 215.43 2504.19 1828.92 1344.71 59.06 7.00
   23:57:53.218.02-Jul-2020 215.63 2504.19 1828.92 1344.71 59.06 7.00
   23:57:53.418.02-Jul-2020 215.83 2504.19 1828.92 1344.71 59.06 7.00
   23:57:53.618.02-Jul-2020 216.03 2504.18 1828.92 1344.71 59.06 7.00
   23:57:53.818.02-Jul-2020 216.23 2504.18 1828.92 1344.71 59.06 7.00
   23:57:54.018.02-Jul-2020 216.43 2504.18 1828.92 1344.71 59.06 7.00
   23:57:54.218.02-Jul-2020 216.63 2504.18 1828.92 1344.71 59.06 7.00
   23:57:54.418.02-Jul-2020 216.83 2504.19 1828.92 1344.71 59.06 7.00
   23:57:54.618.02-Jul-2020 217.03 2504.18 1828.92 1344.71 59.06 7.00
   23:57:54.818.02-Jul-2020 217.23 2504.18 1828.92 1344.71 59.06 7.00
   23:57:55.018.02-Jul-2020 217.43 2462.58 1828.92 1344.71 59.06 7.00
   23:57:55.218.02-Jul-2020 217.63 2460.49 1828.92 1344.71 59.06 7.00
   23:57:55.418.02-Jul-2020 217.83 2462.66 1828.92 1344.71 59.06 7.00
   23:57:55.618.02-Jul-2020 218.03 2462.42 1828.92 1344.71 59.06 7.00
   23:57:55.818.02-Jul-2020 218.23 2462.47 1828.92 1344.71 59.06 7.00
   23:57:56.018.02-Jul-2020 218.43 2463.27 1828.92 1344.71 59.06 7.00
   23:57:56.218.02-Jul-2020 218.63 2462.66 1828.92 1344.71 59.06 7.00
   23:57:56.418.02-Jul-2020 218.83 2464.41 1828.92 1344.71 59.06 7.00
   23:57:56.619.02-Jul-2020 219.03 2464.25 1828.92 1344.71 59.06 7.00
   23:57:56.819.02-Jul-2020 219.23 2464.25 1828.92 1344.71 59.06 7.00
   23:57:57.019.02-Jul-2020 219.43 2464.92 1828.92 1344.71 59.06 7.00
   23:57:57.219.02-Jul-2020 219.63 2465.14 1828.92 1344.71 59.06 7.00
   23:57:57.419.02-Jul-2020 219.83 2465.80 1828.92 1344.71 59.06 7.00
   23:57:57.619.02-Jul-2020 220.03 2465.77 1828.92 1344.71 59.06 7.00
   23:57:57.819.02-Jul-2020 220.23 2465.77 1828.92 1344.71 59.06 7.00
   23:57:58.019.02-Jul-2020 220.43 2466.41 1828.92 1344.71 59.06 7.00
   23:57:58.219.02-Jul-2020 220.63 2466.59 1828.92 1344.71 59.06 7.00
   23:57:58.419.02-Jul-2020 220.83 2466.48 1828.92 1344.71 59.06 7.00
   23:57:58.619.02-Jul-2020 221.03 2466.57 1828.92 1344.71 59.06 7.00
   23:57:58.819.02-Jul-2020 221.23 2466.57 1828.92 1344.71 59.06 7.00
   23:57:59.019.02-Jul-2020 221.43 2467.36 1828.92 1344.71 59.06 7.00
   23:57:59.219.02-Jul-2020 221.63 2467.78 1828.92 1344.71 59.06 7.00
   23:57:59.419.02-Jul-2020 221.83 2467.45 1828.92 1344.71 59.06 7.00
   23:57:59.619.02-Jul-2020 222.03 2467.97 1828.92 1344.71 59.06 7.00
   23:57:59.819.02-Jul-2020 222.23 2467.97 1828.92 1344.71 59.06 7.00
   23:58:00.019.02-Jul-2020 222.43 2468.42 1828.92 1344.71 59.06 7.00
   23:58:00.219.02-Jul-2020 222.63 2468.60 1828.92 1344.71 59.06 7.00
   23:58:00.419.02-Jul-2020 222.83 2469.11 1828.92 1344.71 59.06 7.00
   23:58:00.619.02-Jul-2020 223.03 2469.10 1828.92 1344.71 59.06 7.00
   23:58:00.819.02-Jul-2020 223.23 2469.10 1828.92 1344.71 59.06 7.00
   23:58:01.019.02-Jul-2020 223.43 2470.07 1828.92 1344.71 59.06 7.00
   23:58:01.219.02-Jul-2020 223.63 2469.03 1828.92 1344.71 59.06 7.00
   23:58:01.419.02-Jul-2020 223.83 2469.99 1828.92 1344.71 59.06 7.00
   23:58:01.619.02-Jul-2020 224.03 2469.66 1828.92 1344.71 59.06 7.00
   23:58:01.819.02-Jul-2020 224.23 2469.66 1828.92 1344.71 59.06 7.00
   23:58:02.019.02-Jul-2020 224.43 2470.32 1828.92 1344.71 59.06 7.00
   23:58:02.219.02-Jul-2020 224.63 2469.69 1828.92 1344.71 59.06 7.00
   23:58:02.419.02-Jul-2020 224.83 2469.88 1828.92 1344.71 59.06 7.00
   23:58:02.619.02-Jul-2020 225.03 2470.06 1828.92 1344.71 59.06 7.00
   23:58:02.819.02-Jul-2020 225.23 2470.06 1828.92 1344.71 59.06 7.00
   23:58:03.019.02-Jul-2020 225.43 2470.29 1828.92 1344.71 59.06 7.00
   23:58:03.219.02-Jul-2020 225.63 2470.55 1828.92 1344.71 59.06 7.00
   23:58:03.419.02-Jul-2020 225.83 2470.26 1828.92 1344.71 59.06 7.00
   23:58:03.619.02-Jul-2020 226.03 2470.49 1828.92 1344.71 59.06 7.00
   23:58:03.819.02-Jul-2020 226.23 2470.49 1828.92 1344.71 59.06 7.00
   23:58:04.020.02-Jul-2020 226.43 2470.79 1828.92 1344.71 59.06 7.00
   23:58:04.220.02-Jul-2020 226.63 2470.95 1828.92 1344.71 59.06 7.00
   23:58:04.420.02-Jul-2020 226.83 2471.07 1828.92 1344.71 59.06 7.00
   23:58:04.620.02-Jul-2020 227.03 2471.55 1828.92 1344.71 59.06 7.00
   23:58:04.820.02-Jul-2020 227.23 2471.55 1828.92 1344.71 59.06 7.00
   23:58:05.020.02-Jul-2020 227.43 2471.25 1828.92 1344.71 59.06 7.00
   23:58:05.220.02-Jul-2020 227.63 2471.91 1828.92 1344.71 59.06 7.00
   23:58:05.420.02-Jul-2020 227.83 2487.21 1828.92 1344.71 59.06 7.00
   23:58:05.620.02-Jul-2020 228.03 2502.36 1828.92 1344.71 59.06 7.00
   23:58:05.820.02-Jul-2020 228.23 2502.36 1828.92 1344.71 59.06 7.00
   23:58:06.020.02-Jul-2020 228.43 2502.64 1828.92 1344.71 59.06 7.00
   23:58:06.220.02-Jul-2020 228.63 2502.70 1828.92 1344.71 59.06 7.00
   23:58:06.420.02-Jul-2020 228.83 2502.82 1828.92 1344.71 59.06 7.00
   23:58:06.620.02-Jul-2020 229.03 2502.85 1828.92 1344.71 59.06 7.00
   23:58:06.820.02-Jul-2020 229.23 2502.85 1828.92 1344.71 59.06 7.00
   23:58:07.020.02-Jul-2020 229.43 2502.92 1828.92 1344.71 59.06 7.00
   23:58:07.220.02-Jul-2020 229.63 2502.92 1828.92 1344.71 59.06 7.00
   23:58:07.420.02-Jul-2020 229.83 2502.95 1828.92 1344.71 59.06 7.00
