~Version Information
 VERS.                  2.0:   CWLS log ASCII Standard -VERSION 2.0
 WRAP.                   NO:   One line per depth step
~Well Information Block
#MNEM.UNIT     VALUE/NAME     DESCRIPTION
#---------     -----------    ---------------------------
 STRT.S             16:00:06 29-Jun-20: START TIME 16:00:06 29-Jun-20
 STOP.S             16:09:07 29-Jun-20: STOP TIME  16:09:07 29-Jun-20
 STEP.S                   0.00: STEP TIME
 NULL.                 -999.25: NULL VALUE
 DFWT.                        :  DIST FWL TEXT
 DFST.                        :  DIST FSL TEXT
 DMF .             Drill Floor:  DRILL MEAS FROM
 STIM.      09.59.28 01-Jun-20:  START TIME
 DATE.      09.59.28 01-Jun-20:  END TIME
 SPUD.               01-Jun-20:  SPUD DATE
 NREF.                    Grid:  NORTH REFERENCE
 HPTY.       Minimum Curvature:  HOLE POS TYPE
 DMOD.             Drill Model:  DRILL MOD DESC
 SVYD.                  Survey:  SURVEY DESC
 ILTD.               Lithology:  INTERP LTH DESC
 FTOP.          Formation Tops:  FORM TOPS DESC
 SON .        AZ-XX-0905455768:  JOB NUMBER
 WTYP.                Deviated:  WELL TYPE
 COMP.     BP Exploration(Caspian Sea):  COMPANY
 BASE.              Azerbaijan:  LOGGING EQUIPMENT BASE LOCATION
 REGN.                   EESSA:  REGION
 CTRY.              Azerbaijan:  COUNTRY NAME
 FLD .                     ACG:  FIELD NAME
 SRVC.          Turan Drilling:  CONTRACTOR
 WELL.                     B41:  WELL NAME
 RIG .           Central Azeri:  RIG NAME
 DCON.         Sperry Drilling:  DIRECTNL CONTR
 PDAT.          Mean Sea Level:  PERMANENT DATUM
 MDS .        Operator Entered:  MAG DATA SOURCE
 API .                        :  API NUMBER
 CNTY.                        :  COUNTY
 PROV.                        :  PROVINCE
 STAT.                        :  STATE
 UWI .                        :  UNIQUE WELL IDENTIFIER
 LOC .                        :  LOCATION
 LMF .             Drill Floor:  LOG MEASURED FROM
 TVDS.m                  43.29:  TVDSS CORRECTN
 LATI.deg                40.03:  LATITUDE
 LONG.deg                51.35:  LONGITUDE
 WHNS.m                  12.98:  WELL HEAD N/S
 WHEW.m                  -6.62:  WELL HEAD E/W
 UTMX.m              530128.28:  UTM X
 UTMY.m             4433192.49:  UTM Y
 DFWL.m                   0.00:  DISTANCE FWL
 DFSL.m                   0.00:  DISTANCE FSL
 SDEP.m                 378.00:  START DEPTH
 TDD .m                   0.00:  TOTAL DEPTH (DRILLER)
 VSDR.deg               296.18:  VERT SEC DIRECT
 GVFD.g                   1.00:  GRAVITY FIELD
 MFLD.nT              50253.00:  MAGNETIC FIELD
 MDIP.deg                59.49:  MAGNETIC DIP
 MDEC.deg                 6.44:  MAGNETIC DECL
 GRDC.deg                 0.22:  GRID CORRECTION
 AZTC.deg                 6.22:  AZM TOTAL CORR
 EPD .m                   0.00:  ELEVATION
 EGL .m                   0.00:  GROUND ELEVATION
 WDMS.m                 128.20:  WD ELEV
 APD .m                  43.29:  DEPTH ABOVE PD
 AGAP.m                  43.29:  AIR GAP
 VSEW.m                  -6.62:  VERT SEC E/W
 VSNS.m                  12.98:  VERT SEC N/S
 EKB .m                  43.29:  KB ELEVATION
 EDF .m                  43.29:  DF ELEVATION
 TDL .m                1152.00:  TOTAL DEPTH (LOGGER)
 VSC .                       0:  VS TO CLOSURE
 MAGU.                 1848525:  MAGUTM CHECKSUM
~Parameter Information Block
#MNEM.UNIT       Value        Description
#---------     -----------    ---------------------------
 AV  .mps                 0.40:  Ann Velocity 
 AVMX.mps                 1.56:  Max Ann Veloc 
 AZIF.deg               300.46:  Azm, Final 
 BHAT.        Rotary Steerable:  BHA Type 
 BROT.∞/30m               0.40:  Build Rotating 
 BS  .in                 17.50:  Bit Size 
 BSZ .in                 17.50:  Bit Size 
 BTPL.psig              300.00:  Bit Press Loss 
 CABU.                      No:  Customer Abuse 
 CGEO.          Parviz Guliyev:  Customer Geo 
 COMM.                     ,‘Å:  Run Comments 1 
 TCS .hr                108.13:  Time Ciculation Ended 
 CV  .mps                 0.50:  Crit Velocity 
 CVMX.mps                 2.01:  Max Crit Veloc 
 DD1 .          Fariz Nahmatov:  Direct Drillr 1 
 DD2 .             Ehab Radwan:  Direct Drillr 2 
 DDSV.               Geo-Pilot:  DD Service 
 DEFF.%                  99.00:  % Det Eff 
 DLRX.∞/30m               0.50:  Dogleg Rot Max 
 DLSO.∞/30m               2.80:  Dogleg Oriented 
 DLSX.∞/30m               3.90:  Dogleg Str Max 
 DRET.      09.30.04 03-Jul-20:  Drill End Time 
 DRST.      18.33.04 28-Jun-20:  Drill Start Tim 
 DTIM.hr                 55.83:  Time Drilling 
 EDEP.m                1952.00:  End Depth 
 ENG1.      Bakhtiyar Jabbarli:  Engineer 1 
 ENG2.         Farhad Orujzade:  Engineer 2 
 ENG3.          Rustam Safarov:  Engineer 3 
 ETIM.      01.33.04 04-Jul-20:  End Time 
 FLOI.gpm              1050.00:  Flow In 
 FLON.gpm               950.00:  Flow In Min 
 FLOS.cptm                0.10:  Fluid Loss 
 FLOX.gpm              1150.00:  Flow In Max 
 HFLO.                      No:  High Flow 
 HPRE.                      No:  High Pressure 
 HTEM.                      No:  High Temp 
 HYDO.m                   1.80:  Hydro Offset 
 IFIN.deg                75.26:  Inc, Final 
 IMAX.deg                75.38:  Inc Max 
 IMIN.deg                22.84:  Inc Min 
 IMND.m                 832.38:  Inc Min Depth 
 IMXD.m                1936.55:  Inc Max Depth 
 JARR.                      No:  Jarring 
 LETM.      17.40.00 04-Jul-20:  Log End Time 
 LOST.hr                     0:  Lost Rig Time 
 LSTM.      12.33.04 28-Jun-20:  Log Start Time 
 MDCL.ppm             49500.00:  Mud Chlorides 
 MDES.     Inversion Oil/Synthetic:  Mud Desc 
 DFD .sg                  1.46:  Mud Density 
 MDMN.sg                  1.46:  Dens Mud Min 
 MDMX.sg                  1.46:  Dens Mud Max 
 MOIL.                      70:  Run Mud Oil % 
 MOWR.                   70:30:  Run Mud OWR 
 MSND.                     0.5:  Run Mud Sand % 
 MSOL.                   19.89:  Run Mud Solids% 
 DFV .spqt               72.00:  Mud Viscosity 
 MWOD.in                  9.50:  MWD Tool OD 
 MWSI.                      No:  Serv Intrp, MWD 
 OTIM.hr                146.53:  Time Operating 
 PCON.           Look Like New:  Pad Condition 
 PMAX.psia             2900.00:  Press Op, Max 
 PV  .cP                 38.00:  Mud PV 
 RUN .                     600:  Run Number 
 ROPA.m/hr               22.00:  ROP Avg 
 ROPN.m/hr               10.00:  ROP Min 
 ROPX.m/hr              263.00:  ROP Max 
 RPMA.rpm               155.00:  RPM Surface Avg 
 RPMN.rpm               140.00:  RPM Surface Min 
 RPMX.rpm               160.00:  RPM Surface Max 
 RRUN.                    0600:  Rig Run Number 
 RTIM.hr                  5.00:  Time Reaming 
 SAZI.deg               300.08:  Azm, Start 
 SDEP.m                 800.00:  Start Depth 
 SIDD.                      No:  Serv Intrp, DD 
 SINC.deg                22.84:  Inc, Start 
 SPPA.psig             3000.00:  SPP Avg 
 SPPN.psig             1900.00:  SPP Min 
 SPPX.psig             3200.00:  SPP Max 
 STIM.      12.30.04 28-Jun-20:  Start Time 
 SVCS.                 DD, MWD:  Services 
 SVER.                    9.20:  Sperry Version 
 TDAT.m                1952.00:  Tot Depth Attmp 
 TDDF.                      No:  Trip for DD 
 TDLG.m                1152.00:  Tot Depth Loggd 
 TFF .                      No:  Trip for Fail 
 TQAA.f-kp                8.00:  Torque Abs Avg 
 TQAN.f-kp                5.00:  Torque Abs Min 
 TQAX.f-kp               14.00:  Torque Abs Max 
 TRRT.∞/30m               0.50:  Turn Rotating 
 MRT .                  EWR-M5:  Maximum Recorded Temperature 
 TTMX.degC               69.00:  Max Tool Temp 
 VS01.                90610313:  Virtual Str1 SN 
 VS02.                90613431:  Virtual Str2 SN 
 VS03.                90615410:  Virtual Str3 SN 
 WBMN.klb                 6.00:  WOB Min 
 WITN.            Bruce Cheyne:  Customer Rep 
 WITN.             Ayaz Aliyev:  Customer Rep 2 
 WOBA.klb                 6.00:  WOB Avg 
 WOBX.klb                10.00:  WOB Max 
 YP  .lhf2               36.00:  Yield Point 
~Curve Information Block
#MNEM.UNIT                 API CODE     Curve Description
#---------               -----------    ---------------------------
 TIME.HHMMSS            00 000 000 000:  GT Time & Date
 GTET.sec               00 000 000 000:  GT Elapsed Test Time
 GTPQH.psia             00 000 000 000:  GT HR Quartz Pressure
 GTDEPTH.m              00 000 000 000:  GT Depth
 GTTVD.m                00 000 000 000:  GT True Vertical Depth
 GTTQ.degC              00 000 000 000:  GT Quartz Temperature
 GTTN.NONE              00 000 000 000:  GT Test Number
#Other Information
#
#WARRANTY: Halliburton will use its best efforts to furnish customers with 
#accurate information and interpretations that are part of, and incident to, the services 
#provided.  However, Halliburton cannot and does not warrant the accuracy 
#or correctness of such information and interpretations.  Under no circumstances should any 
#such information or interpretation be relied upon as the sole basis for any drilling, 
#completion, production, or financial decision or any procedure involving any risk to the 
#safety of any drilling venture, drilling rig or its crew or any other third party.  The 
#Customer has full responsibility for all drilling, completion and production operation.  
#Halliburton makes no representations or warranties, either expressed or 
#implied, including, but not limited to, the implied warranties of merchantability or fitness 
#for a particular purpose, with respect to the services rendered.  In no event will 
#Halliburton be liable for failure to obtain any particular results or for 
#any damages, including, but not limited to, indirect, special or consequential damages, 
#resulting from the use of any information or interpretation provided by Halliburton.
#
~A           TIME            GTET   GTPQH  GTDEPTH GTTVD  GTTQ  GTTN 
# ...
   16:08:13.836.29-Jun-2020 487.38 1574.73  873.30 856.96 66.02 1.00
   16:08:14.036.29-Jun-2020 487.58 1574.70  873.30 856.96 66.02 1.00
   16:08:14.236.29-Jun-2020 487.78 1574.64  873.30 856.96 66.02 1.00
   16:08:14.436.29-Jun-2020 487.98 1574.64  873.30 856.96 66.02 1.00
   16:08:14.636.29-Jun-2020 488.18 1574.66  873.30 856.96 66.02 1.00
   16:08:14.837.29-Jun-2020 488.38 1574.66  873.30 856.96 66.02 1.00
   16:08:15.037.29-Jun-2020 488.59 1574.62  873.30 856.96 66.02 1.00
   16:08:15.237.29-Jun-2020 488.79 1574.69  873.30 856.96 66.02 1.00
   16:08:15.437.29-Jun-2020 488.99 1574.63  873.30 856.96 66.02 1.00
   16:08:15.637.29-Jun-2020 489.19 1574.57  873.30 856.96 66.02 1.00
   16:08:15.837.29-Jun-2020 489.39 1574.57  873.30 856.96 66.02 1.00
   16:08:16.037.29-Jun-2020 489.59 1574.63  873.30 856.96 66.02 1.00
   16:08:16.237.29-Jun-2020 489.79 1574.69  873.30 856.96 66.02 1.00
   16:08:16.437.29-Jun-2020 489.99 1574.67  873.30 856.96 66.02 1.00
   16:08:16.637.29-Jun-2020 490.19 1574.72  873.30 856.96 66.02 1.00
   16:08:16.837.29-Jun-2020 490.39 1574.72  873.30 856.96 66.02 1.00
   16:08:17.037.29-Jun-2020 490.59 1574.76  873.30 856.96 66.02 1.00
   16:08:17.237.29-Jun-2020 490.79 1574.76  873.30 856.96 66.02 1.00
   16:08:17.438.29-Jun-2020 490.99 1574.65  873.30 856.96 66.02 1.00
   16:08:17.638.29-Jun-2020 491.19 1574.59  873.30 856.96 66.03 1.00
   16:08:17.838.29-Jun-2020 491.39 1574.59  873.30 856.96 66.03 1.00
   16:08:18.038.29-Jun-2020 491.59 1574.72  873.30 856.96 66.03 1.00
   16:08:18.238.29-Jun-2020 491.79 1574.74  873.30 856.96 66.03 1.00
   16:08:18.438.29-Jun-2020 491.99 1574.71  873.30 856.96 66.03 1.00
   16:08:18.638.29-Jun-2020 492.19 1574.64  873.30 856.96 66.03 1.00
   16:08:18.838.29-Jun-2020 492.39 1574.64  873.30 856.96 66.03 1.00
   16:08:19.038.29-Jun-2020 492.59 1574.66  873.30 856.96 66.03 1.00
   16:08:19.238.29-Jun-2020 492.79 1574.63  873.30 856.96 66.03 1.00
   16:08:19.438.29-Jun-2020 492.99 1574.54  873.30 856.96 66.03 1.00
   16:08:19.638.29-Jun-2020 493.19 1574.71  873.30 856.96 66.03 1.00
   16:08:19.838.29-Jun-2020 493.39 1574.78  873.30 856.96 66.03 1.00
   16:08:20.039.29-Jun-2020 493.59 1574.64  873.30 856.96 66.03 1.00
   16:08:20.239.29-Jun-2020 493.79 1574.66  873.30 856.96 66.03 1.00
   16:08:20.439.29-Jun-2020 493.99 1574.63  873.30 856.96 66.03 1.00
   16:08:20.639.29-Jun-2020 494.19 1574.65  873.30 856.96 66.03 1.00
   16:08:20.839.29-Jun-2020 494.39 1574.65  873.30 856.96 66.03 1.00
   16:08:21.039.29-Jun-2020 494.59 1574.73  873.30 856.96 66.03 1.00
   16:08:21.239.29-Jun-2020 494.79 1574.66  873.30 856.96 66.03 1.00
   16:08:21.439.29-Jun-2020 494.99 1574.74  873.30 856.96 66.03 1.00
   16:08:21.639.29-Jun-2020 495.19 1574.78  873.30 856.96 66.03 1.00
   16:08:21.839.29-Jun-2020 495.39 1574.78  873.30 856.96 66.03 1.00
   16:08:22.039.29-Jun-2020 495.59 1574.72  873.30 856.96 66.03 1.00
   16:08:22.239.29-Jun-2020 495.79 1574.70  873.30 856.96 66.03 1.00
   16:08:22.439.29-Jun-2020 495.99 1574.67  873.30 856.96 66.03 1.00
   16:08:22.640.29-Jun-2020 496.19 1574.68  873.30 856.96 66.03 1.00
   16:08:22.840.29-Jun-2020 496.39 1574.68  873.30 856.96 66.03 1.00
   16:08:23.040.29-Jun-2020 496.59 1574.68  873.30 856.96 66.03 1.00
   16:08:23.240.29-Jun-2020 496.79 1574.71  873.30 856.96 66.03 1.00
   16:08:23.440.29-Jun-2020 496.99 1574.65  873.30 856.96 66.03 1.00
   16:08:23.640.29-Jun-2020 497.19 1575.54  873.30 856.96 66.03 1.00
   16:08:23.840.29-Jun-2020 497.39 1577.42  873.30 856.96 66.03 1.00
   16:08:24.040.29-Jun-2020 497.59 1569.58  873.30 856.96 66.03 1.00
   16:08:24.240.29-Jun-2020 497.79 1598.12  873.30 856.96 66.03 1.00
   16:08:24.440.29-Jun-2020 497.99 1593.10  873.30 856.96 66.03 1.00
   16:08:24.640.29-Jun-2020 498.19 1493.95  873.30 856.96 66.03 1.00
   16:08:24.840.29-Jun-2020 498.39 1493.95  873.30 856.96 66.03 1.00
   16:08:25.040.29-Jun-2020 498.59 1959.61  873.30 856.96 66.03 1.00
   16:08:25.241.29-Jun-2020 498.79 1982.13  873.30 856.96 66.03 1.00
   16:08:25.441.29-Jun-2020 498.99 2005.99  873.30 856.96 66.03 1.00
   16:08:25.641.29-Jun-2020 499.19 2010.40  873.30 856.96 66.03 1.00
   16:08:25.841.29-Jun-2020 499.39 2010.40  873.30 856.96 66.03 1.00
   16:08:26.041.29-Jun-2020 499.59 2038.36  873.30 856.96 66.03 1.00
   16:08:26.241.29-Jun-2020 499.79 2050.94  873.30 856.96 66.03 1.00
   16:08:26.441.29-Jun-2020 499.99 1908.19  873.30 856.96 66.03 1.00
   16:08:26.641.29-Jun-2020 500.19 1799.18  873.30 856.96 66.03 1.00
   16:08:26.841.29-Jun-2020 500.39 1799.18  873.30 856.96 66.03 1.00
   16:08:27.041.29-Jun-2020 500.59 1798.53  873.30 856.96 66.03 1.00
   16:08:27.241.29-Jun-2020 500.79 1798.83  873.30 856.96 66.03 1.00
   16:08:27.441.29-Jun-2020 500.99 1799.07  873.30 856.96 66.03 1.00
   16:08:27.641.29-Jun-2020 501.19 1799.11  873.30 856.96 66.03 1.00
   16:08:27.841.29-Jun-2020 501.39 1798.27  873.30 856.96 66.03 1.00
   16:08:28.042.29-Jun-2020 501.59 1797.73  873.30 856.96 66.03 1.00
   16:08:28.242.29-Jun-2020 501.79 1798.70  873.30 856.96 66.03 1.00
   16:08:28.442.29-Jun-2020 501.99 1796.86  873.30 856.96 66.03 1.00
   16:08:28.642.29-Jun-2020 502.19 1797.30  873.30 856.96 66.04 1.00
   16:08:28.842.29-Jun-2020 502.39 1797.30  873.30 856.96 66.04 1.00
   16:08:29.042.29-Jun-2020 502.59 1799.30  873.30 856.96 66.04 1.00
   16:08:29.242.29-Jun-2020 502.79 1796.42  873.30 856.96 66.04 1.00
   16:08:29.442.29-Jun-2020 502.99 1797.48  873.30 856.96 66.04 1.00
   16:08:29.642.29-Jun-2020 503.19 1796.44  873.30 856.96 66.04 1.00
   16:08:29.842.29-Jun-2020 503.39 1796.44  873.30 856.96 66.04 1.00
   16:08:30.042.29-Jun-2020 503.59 1796.34  873.30 856.96 66.04 1.00
   16:08:30.242.29-Jun-2020 503.79 1797.84  873.30 856.96 66.04 1.00
   16:08:30.442.29-Jun-2020 503.99 1797.17  873.30 856.96 66.04 1.00
   16:08:30.643.29-Jun-2020 504.19 1797.45  873.30 856.96 66.04 1.00
   16:08:30.843.29-Jun-2020 504.39 1797.45  873.30 856.96 66.04 1.00
   16:08:31.043.29-Jun-2020 504.59 1798.10  873.30 856.96 66.04 1.00
   16:08:31.243.29-Jun-2020 504.79 1798.04  873.30 856.96 66.04 1.00
   16:08:31.443.29-Jun-2020 504.99 1798.31  873.30 856.96 66.04 1.00
   16:08:31.643.29-Jun-2020 505.19 1798.07  873.30 856.96 66.04 1.00
   16:08:31.843.29-Jun-2020 505.39 1797.76  873.30 856.96 66.04 1.00
   16:08:32.043.29-Jun-2020 505.59 1798.80  873.30 856.96 66.04 1.00
   16:08:32.243.29-Jun-2020 505.79 1798.63  873.30 856.96 66.04 1.00
   16:08:32.443.29-Jun-2020 505.99 1798.70  873.30 856.96 66.04 1.00
   16:08:32.643.29-Jun-2020 506.19 1798.19  873.30 856.96 66.04 1.00
   16:08:32.843.29-Jun-2020 506.39 1798.19  873.30 856.96 66.04 1.00
   16:08:33.043.29-Jun-2020 506.59 1797.41  873.30 856.96 66.04 1.00
   16:08:33.244.29-Jun-2020 506.79 1796.79  873.30 856.96 66.04 1.00
   16:08:33.444.29-Jun-2020 506.99 1796.94  873.30 856.96 66.04 1.00
   16:08:33.644.29-Jun-2020 507.19 1796.32  873.30 856.96 66.04 1.00
   16:08:33.844.29-Jun-2020 507.39 1796.32  873.30 856.96 66.04 1.00
   16:08:34.044.29-Jun-2020 507.59 1796.48  873.30 856.96 66.04 1.00
   16:08:34.244.29-Jun-2020 507.79 1795.88  873.30 856.96 66.04 1.00
   16:08:34.444.29-Jun-2020 507.99 1795.95  873.30 856.96 66.04 1.00
   16:08:34.644.29-Jun-2020 508.19 1796.10  873.30 856.96 66.04 1.00
   16:08:34.844.29-Jun-2020 508.39 1796.40  873.30 856.96 66.04 1.00
   16:08:35.044.29-Jun-2020 508.59 1796.77  873.30 856.96 66.04 1.00
   16:08:35.244.29-Jun-2020 508.79 1797.35  873.30 856.96 66.04 1.00
   16:08:35.444.29-Jun-2020 508.99 1796.65  873.30 856.96 66.04 1.00
   16:08:35.644.29-Jun-2020 509.19 1798.30  873.30 856.96 66.04 1.00
   16:08:35.845.29-Jun-2020 509.39 1798.30  873.30 856.96 66.04 1.00
   16:08:36.045.29-Jun-2020 509.59 1797.77  873.30 856.96 66.04 1.00
   16:08:36.245.29-Jun-2020 509.79 1797.23  873.30 856.96 66.04 1.00
   16:08:36.445.29-Jun-2020 509.99 1798.83  873.30 856.96 66.04 1.00
   16:08:36.645.29-Jun-2020 510.19 1797.84  873.30 856.96 66.04 1.00
   16:08:36.845.29-Jun-2020 510.39 1797.84  873.30 856.96 66.04 1.00
