~Version Information
 VERS.                  2.0:   CWLS log ASCII Standard -VERSION 2.0
 WRAP.                   NO:   One line per depth step
~Well Information Block
#MNEM.UNIT     VALUE/NAME     DESCRIPTION
#---------     -----------    ---------------------------
 STRT.S             04:11:34 02-Jul-20: START TIME 04:11:34 02-Jul-20
 STOP.S             04:20:35 02-Jul-20: STOP TIME  04:20:35 02-Jul-20
 STEP.S                   0.00: STEP TIME
 NULL.                 -999.25: NULL VALUE
 DFWT.                        :  DIST FWL TEXT
 DFST.                        :  DIST FSL TEXT
 DMF .             Drill Floor:  DRILL MEAS FROM
 STIM.      09.59.28 01-Jun-20:  START TIME
 DATE.      09.59.28 01-Jun-20:  END TIME
 SPUD.               01-Jun-20:  SPUD DATE
 NREF.                    Grid:  NORTH REFERENCE
 HPTY.       Minimum Curvature:  HOLE POS TYPE
 DMOD.             Drill Model:  DRILL MOD DESC
 SVYD.                  Survey:  SURVEY DESC
 ILTD.               Lithology:  INTERP LTH DESC
 FTOP.          Formation Tops:  FORM TOPS DESC
 SON .        AZ-XX-0905455768:  JOB NUMBER
 WTYP.                Deviated:  WELL TYPE
 COMP.     BP Exploration(Caspian Sea):  COMPANY
 BASE.              Azerbaijan:  LOGGING EQUIPMENT BASE LOCATION
 REGN.                   EESSA:  REGION
 CTRY.              Azerbaijan:  COUNTRY NAME
 FLD .                     ACG:  FIELD NAME
 SRVC.          Turan Drilling:  CONTRACTOR
 WELL.                     B41:  WELL NAME
 RIG .           Central Azeri:  RIG NAME
 DCON.         Sperry Drilling:  DIRECTNL CONTR
 PDAT.          Mean Sea Level:  PERMANENT DATUM
 MDS .        Operator Entered:  MAG DATA SOURCE
 API .                        :  API NUMBER
 CNTY.                        :  COUNTY
 PROV.                        :  PROVINCE
 STAT.                        :  STATE
 UWI .                        :  UNIQUE WELL IDENTIFIER
 LOC .                        :  LOCATION
 LMF .             Drill Floor:  LOG MEASURED FROM
 TVDS.m                  43.29:  TVDSS CORRECTN
 LATI.deg                40.03:  LATITUDE
 LONG.deg                51.35:  LONGITUDE
 WHNS.m                  12.98:  WELL HEAD N/S
 WHEW.m                  -6.62:  WELL HEAD E/W
 UTMX.m              530128.28:  UTM X
 UTMY.m             4433192.49:  UTM Y
 DFWL.m                   0.00:  DISTANCE FWL
 DFSL.m                   0.00:  DISTANCE FSL
 SDEP.m                 378.00:  START DEPTH
 TDD .m                   0.00:  TOTAL DEPTH (DRILLER)
 VSDR.deg               296.18:  VERT SEC DIRECT
 GVFD.g                   1.00:  GRAVITY FIELD
 MFLD.nT              50253.00:  MAGNETIC FIELD
 MDIP.deg                59.49:  MAGNETIC DIP
 MDEC.deg                 6.44:  MAGNETIC DECL
 GRDC.deg                 0.22:  GRID CORRECTION
 AZTC.deg                 6.22:  AZM TOTAL CORR
 EPD .m                   0.00:  ELEVATION
 EGL .m                   0.00:  GROUND ELEVATION
 WDMS.m                 128.20:  WD ELEV
 APD .m                  43.29:  DEPTH ABOVE PD
 AGAP.m                  43.29:  AIR GAP
 VSEW.m                  -6.62:  VERT SEC E/W
 VSNS.m                  12.98:  VERT SEC N/S
 EKB .m                  43.29:  KB ELEVATION
 EDF .m                  43.29:  DF ELEVATION
 TDL .m                1152.00:  TOTAL DEPTH (LOGGER)
 VSC .                       0:  VS TO CLOSURE
 MAGU.                 1848525:  MAGUTM CHECKSUM
~Parameter Information Block
#MNEM.UNIT       Value        Description
#---------     -----------    ---------------------------
 AV  .mps                 0.40:  Ann Velocity 
 AVMX.mps                 1.56:  Max Ann Veloc 
 AZIF.deg               300.46:  Azm, Final 
 BHAT.        Rotary Steerable:  BHA Type 
 BROT.°/30m               0.40:  Build Rotating 
 BS  .in                 17.50:  Bit Size 
 BSZ .in                 17.50:  Bit Size 
 BTPL.psig              300.00:  Bit Press Loss 
 CABU.                      No:  Customer Abuse 
 CGEO.          Parviz Guliyev:  Customer Geo 
 TCS .hr                108.13:  Time Ciculation Ended 
 CV  .mps                 0.50:  Crit Velocity 
 CVMX.mps                 2.01:  Max Crit Veloc 
 DD1 .          Fariz Nahmatov:  Direct Drillr 1 
 DD2 .             Ehab Radwan:  Direct Drillr 2 
 DDSV.               Geo-Pilot:  DD Service 
 DEFF.%                  99.00:  % Det Eff 
 DLRX.°/30m               0.50:  Dogleg Rot Max 
 DLSO.°/30m               2.80:  Dogleg Oriented 
 DLSX.°/30m               3.90:  Dogleg Str Max 
 DRET.      09.30.04 03-Jul-20:  Drill End Time 
 DRST.      18.33.04 28-Jun-20:  Drill Start Tim 
 DTIM.hr                 55.83:  Time Drilling 
 EDEP.m                1952.00:  End Depth 
 ENG1.      Bakhtiyar Jabbarli:  Engineer 1 
 ENG2.         Farhad Orujzade:  Engineer 2 
 ENG3.          Rustam Safarov:  Engineer 3 
 ETIM.      01.33.04 04-Jul-20:  End Time 
 FLOI.gpm              1050.00:  Flow In 
 FLON.gpm               950.00:  Flow In Min 
 FLOS.cptm                0.10:  Fluid Loss 
 FLOX.gpm              1150.00:  Flow In Max 
 HFLO.                      No:  High Flow 
 HPRE.                      No:  High Pressure 
 HTEM.                      No:  High Temp 
 HYDO.m                   1.80:  Hydro Offset 
 IFIN.deg                75.26:  Inc, Final 
 IMAX.deg                75.38:  Inc Max 
 IMIN.deg                22.84:  Inc Min 
 IMND.m                 832.38:  Inc Min Depth 
 IMXD.m                1936.55:  Inc Max Depth 
 JARR.                      No:  Jarring 
 LETM.      17.40.00 04-Jul-20:  Log End Time 
 LOST.hr                     0:  Lost Rig Time 
 LSTM.      12.33.04 28-Jun-20:  Log Start Time 
 MDCL.ppm             49500.00:  Mud Chlorides 
 MDES.     Inversion Oil/Synthetic:  Mud Desc 
 DFD .sg                  1.46:  Mud Density 
 MDMN.sg                  1.46:  Dens Mud Min 
 MDMX.sg                  1.46:  Dens Mud Max 
 MOIL.                      70:  Run Mud Oil % 
 MOWR.                   70:30:  Run Mud OWR 
 MSND.                     0.5:  Run Mud Sand % 
 MSOL.                   19.89:  Run Mud Solids% 
 DFV .spqt               72.00:  Mud Viscosity 
 MWOD.in                  9.50:  MWD Tool OD 
 MWSI.                      No:  Serv Intrp, MWD 
 OTIM.hr                146.53:  Time Operating 
 PCON.           Look Like New:  Pad Condition 
 PMAX.psia             2900.00:  Press Op, Max 
 PV  .cP                 38.00:  Mud PV 
 RUN .                     600:  Run Number 
 ROPA.m/hr               22.00:  ROP Avg 
 ROPN.m/hr               10.00:  ROP Min 
 ROPX.m/hr              263.00:  ROP Max 
 RPMA.rpm               155.00:  RPM Surface Avg 
 RPMN.rpm               140.00:  RPM Surface Min 
 RPMX.rpm               160.00:  RPM Surface Max 
 RRUN.                    0600:  Rig Run Number 
 RTIM.hr                  5.00:  Time Reaming 
 SAZI.deg               300.08:  Azm, Start 
 SDEP.m                 800.00:  Start Depth 
 SIDD.                      No:  Serv Intrp, DD 
 SINC.deg                22.84:  Inc, Start 
 SPPA.psig             3000.00:  SPP Avg 
 SPPN.psig             1900.00:  SPP Min 
 SPPX.psig             3200.00:  SPP Max 
 STIM.      12.30.04 28-Jun-20:  Start Time 
 SVCS.                 DD, MWD:  Services 
 SVER.                    9.20:  Sperry Version 
 TDAT.m                1952.00:  Tot Depth Attmp 
 TDDF.                      No:  Trip for DD 
 TDLG.m                1152.00:  Tot Depth Loggd 
 TFF .                      No:  Trip for Fail 
 TQAA.f-kp                8.00:  Torque Abs Avg 
 TQAN.f-kp                5.00:  Torque Abs Min 
 TQAX.f-kp               14.00:  Torque Abs Max 
 TRRT.°/30m               0.50:  Turn Rotating 
 MRT .                  EWR-M5:  Maximum Recorded Temperature 
 TTMX.degC               69.00:  Max Tool Temp 
 VS01.                90610313:  Virtual Str1 SN 
 VS02.                90613431:  Virtual Str2 SN 
 VS03.                90615410:  Virtual Str3 SN 
 WBMN.klb                 6.00:  WOB Min 
 WITN.            Bruce Cheyne:  Customer Rep 
 WITN.             Ayaz Aliyev:  Customer Rep 2 
 WOBA.klb                 6.00:  WOB Avg 
 WOBX.klb                10.00:  WOB Max 
 YP  .lhf2               36.00:  Yield Point 
~Curve Information Block
#MNEM.UNIT                 API CODE     Curve Description
#---------               -----------    ---------------------------
 TIME.HHMMSS            00 000 000 000:  GT Time & Date
 GTET.sec               00 000 000 000:  GT Elapsed Test Time
 GTPQH.psia             00 000 000 000:  GT HR Quartz Pressure
 GTDEPTH.m              00 000 000 000:  GT Depth
 GTTVD.m                00 000 000 000:  GT True Vertical Depth
 GTTQ.degC              00 000 000 000:  GT Quartz Temperature
 GTTN.NONE              00 000 000 000:  GT Test Number
#Other Information
#
#WARRANTY: Halliburton will use its best efforts to furnish customers with 
#accurate information and interpretations that are part of, and incident to, the services 
#provided.  However, Halliburton cannot and does not warrant the accuracy 
#or correctness of such information and interpretations.  Under no circumstances should any 
#such information or interpretation be relied upon as the sole basis for any drilling, 
#completion, production, or financial decision or any procedure involving any risk to the 
#safety of any drilling venture, drilling rig or its crew or any other third party.  The 
#Customer has full responsibility for all drilling, completion and production operation.  
#Halliburton makes no representations or warranties, either expressed or 
#implied, including, but not limited to, the implied warranties of merchantability or fitness 
#for a particular purpose, with respect to the services rendered.  In no event will 
#Halliburton be liable for failure to obtain any particular results or for 
#any damages, including, but not limited to, indirect, special or consequential damages, 
#resulting from the use of any information or interpretation provided by Halliburton.
#
~A           TIME            GTET   GTPQH  GTDEPTH  GTTVD  GTTQ  GTTN 
# ...
   04:17:19.426.02-Jul-2020 345.05 2364.35 1565.98 1276.49 58.30 6.00
   04:17:19.626.02-Jul-2020 345.25 2364.35 1565.98 1276.49 58.30 6.00
   04:17:19.826.02-Jul-2020 345.45 2364.33 1565.98 1276.49 58.30 6.00
   04:17:20.026.02-Jul-2020 345.65 2364.36 1565.98 1276.49 58.30 6.00
   04:17:20.226.02-Jul-2020 345.85 2364.34 1565.98 1276.49 58.30 6.00
   04:17:20.426.02-Jul-2020 346.05 2364.34 1565.98 1276.49 58.30 6.00
   04:17:20.626.02-Jul-2020 346.25 2364.34 1565.98 1276.49 58.30 6.00
   04:17:20.826.02-Jul-2020 346.45 2364.35 1565.98 1276.49 58.30 6.00
   04:17:21.026.02-Jul-2020 346.65 2364.33 1565.98 1276.49 58.30 6.00
   04:17:21.226.02-Jul-2020 346.85 2364.30 1565.98 1276.49 58.30 6.00
   04:17:21.426.02-Jul-2020 347.05 2364.34 1565.98 1276.49 58.30 6.00
   04:17:21.626.02-Jul-2020 347.25 2364.34 1565.98 1276.49 58.30 6.00
   04:17:21.827.02-Jul-2020 347.45 2364.31 1565.98 1276.49 58.30 6.00
   04:17:22.027.02-Jul-2020 347.65 2364.31 1565.98 1276.49 58.30 6.00
   04:17:22.227.02-Jul-2020 347.85 2364.32 1565.98 1276.49 58.30 6.00
   04:17:22.427.02-Jul-2020 348.05 2364.27 1565.98 1276.49 58.30 6.00
   04:17:22.627.02-Jul-2020 348.26 2364.30 1565.98 1276.49 58.30 6.00
   04:17:22.827.02-Jul-2020 348.46 2364.33 1565.98 1276.49 58.30 6.00
   04:17:23.027.02-Jul-2020 348.66 2364.31 1565.98 1276.49 58.30 6.00
   04:17:23.227.02-Jul-2020 348.86 2364.29 1565.98 1276.49 58.30 6.00
   04:17:23.427.02-Jul-2020 349.06 2364.31 1565.98 1276.49 58.31 6.00
   04:17:23.627.02-Jul-2020 349.26 2364.31 1565.98 1276.49 58.31 6.00
   04:17:23.827.02-Jul-2020 349.46 2364.31 1565.98 1276.49 58.31 6.00
   04:17:24.027.02-Jul-2020 349.66 2364.33 1565.98 1276.49 58.31 6.00
   04:17:24.227.02-Jul-2020 349.86 2364.31 1565.98 1276.49 58.31 6.00
   04:17:24.427.02-Jul-2020 350.06 2364.33 1565.98 1276.49 58.31 6.00
   04:17:24.627.02-Jul-2020 350.26 2364.33 1565.98 1276.49 58.31 6.00
   04:17:24.827.02-Jul-2020 350.46 2364.31 1565.98 1276.49 58.31 6.00
   04:17:25.027.02-Jul-2020 350.66 2364.34 1565.98 1276.49 58.31 6.00
   04:17:25.227.02-Jul-2020 350.86 2364.36 1565.98 1276.49 58.31 6.00
   04:17:25.427.02-Jul-2020 351.06 2364.34 1565.98 1276.49 58.31 6.00
   04:17:25.627.02-Jul-2020 351.26 2364.34 1565.98 1276.49 58.31 6.00
   04:17:25.827.02-Jul-2020 351.46 2364.35 1565.98 1276.49 58.31 6.00
   04:17:26.027.02-Jul-2020 351.66 2364.35 1565.98 1276.49 58.31 6.00
   04:17:26.227.02-Jul-2020 351.86 2364.37 1565.98 1276.49 58.31 6.00
   04:17:26.427.02-Jul-2020 352.06 2364.36 1565.98 1276.49 58.31 6.00
   04:17:26.627.02-Jul-2020 352.26 2364.36 1565.98 1276.49 58.31 6.00
   04:17:26.827.02-Jul-2020 352.46 2364.39 1565.98 1276.49 58.31 6.00
   04:17:27.027.02-Jul-2020 352.66 2364.36 1565.98 1276.49 58.31 6.00
   04:17:27.227.02-Jul-2020 352.86 2364.35 1565.98 1276.49 58.31 6.00
   04:17:27.427.02-Jul-2020 353.06 2364.39 1565.98 1276.49 58.31 6.00
   04:17:27.627.02-Jul-2020 353.26 2364.39 1565.98 1276.49 58.31 6.00
   04:17:27.827.02-Jul-2020 353.46 2364.38 1565.98 1276.49 58.31 6.00
   04:17:28.027.02-Jul-2020 353.66 2364.36 1565.98 1276.49 58.31 6.00
   04:17:28.228.02-Jul-2020 353.86 2364.33 1565.98 1276.49 58.31 6.00
   04:17:28.428.02-Jul-2020 354.06 2364.37 1565.98 1276.49 58.31 6.00
   04:17:28.628.02-Jul-2020 354.26 2364.37 1565.98 1276.49 58.31 6.00
   04:17:28.828.02-Jul-2020 354.46 2364.32 1565.98 1276.49 58.31 6.00
   04:17:29.028.02-Jul-2020 354.66 2364.37 1565.98 1276.49 58.31 6.00
   04:17:29.228.02-Jul-2020 354.86 2364.36 1565.98 1276.49 58.32 6.00
   04:17:29.428.02-Jul-2020 355.06 2364.34 1565.98 1276.49 58.32 6.00
   04:17:29.628.02-Jul-2020 355.26 2364.34 1565.98 1276.49 58.32 6.00
   04:17:29.828.02-Jul-2020 355.46 2364.35 1565.98 1276.49 58.32 6.00
   04:17:30.028.02-Jul-2020 355.66 2364.36 1565.98 1276.49 58.32 6.00
   04:17:30.228.02-Jul-2020 355.86 2364.39 1565.98 1276.49 58.32 6.00
   04:17:30.428.02-Jul-2020 356.06 2364.36 1565.98 1276.49 58.32 6.00
   04:17:30.628.02-Jul-2020 356.26 2364.36 1565.98 1276.49 58.32 6.00
   04:17:30.828.02-Jul-2020 356.46 2364.35 1565.98 1276.49 58.32 6.00
   04:17:31.028.02-Jul-2020 356.66 2364.34 1565.98 1276.49 58.32 6.00
   04:17:31.228.02-Jul-2020 356.86 2364.32 1565.98 1276.49 58.32 6.00
   04:17:31.428.02-Jul-2020 357.06 2364.36 1565.98 1276.49 58.32 6.00
   04:17:31.628.02-Jul-2020 357.26 2364.36 1565.98 1276.49 58.32 6.00
   04:17:31.828.02-Jul-2020 357.46 2364.36 1565.98 1276.49 58.32 6.00
   04:17:32.028.02-Jul-2020 357.66 2364.33 1565.98 1276.49 58.32 6.00
   04:17:32.228.02-Jul-2020 357.86 2364.33 1565.98 1276.49 58.32 6.00
   04:17:32.428.02-Jul-2020 358.06 2364.36 1565.98 1276.49 58.32 6.00
   04:17:32.628.02-Jul-2020 358.26 2364.36 1565.98 1276.49 58.32 6.00
   04:17:32.828.02-Jul-2020 358.46 2364.28 1565.98 1276.49 58.32 6.00
   04:17:33.028.02-Jul-2020 358.66 2364.37 1565.98 1276.49 58.32 6.00
   04:17:33.228.02-Jul-2020 358.86 2364.34 1565.98 1276.49 58.32 6.00
   04:17:33.428.02-Jul-2020 359.06 2364.33 1565.98 1276.49 58.32 6.00
   04:17:33.628.02-Jul-2020 359.26 2364.33 1565.98 1276.49 58.32 6.00
   04:17:33.828.02-Jul-2020 359.46 2364.33 1565.98 1276.49 58.32 6.00
   04:17:34.028.02-Jul-2020 359.66 2364.36 1565.98 1276.49 58.32 6.00
   04:17:34.228.02-Jul-2020 359.86 2337.05 1565.98 1276.49 58.32 6.00
   04:17:34.429.02-Jul-2020 360.06 2323.11 1565.98 1276.49 58.32 6.00
   04:17:34.629.02-Jul-2020 360.26 2323.71 1565.98 1276.49 58.32 6.00
   04:17:34.829.02-Jul-2020 360.46 2322.22 1565.98 1276.49 58.32 6.00
   04:17:35.029.02-Jul-2020 360.66 2323.15 1565.98 1276.49 58.33 6.00
   04:17:35.229.02-Jul-2020 360.86 2322.72 1565.98 1276.49 58.33 6.00
   04:17:35.429.02-Jul-2020 361.06 2321.95 1565.98 1276.49 58.33 6.00
   04:17:35.629.02-Jul-2020 361.26 2321.95 1565.98 1276.49 58.33 6.00
   04:17:35.829.02-Jul-2020 361.46 2322.08 1565.98 1276.49 58.33 6.00
   04:17:36.029.02-Jul-2020 361.66 2323.16 1565.98 1276.49 58.33 6.00
   04:17:36.229.02-Jul-2020 361.86 2322.03 1565.98 1276.49 58.33 6.00
   04:17:36.429.02-Jul-2020 362.06 2322.13 1565.98 1276.49 58.33 6.00
   04:17:36.629.02-Jul-2020 362.26 2322.13 1565.98 1276.49 58.33 6.00
   04:17:36.829.02-Jul-2020 362.46 2322.00 1565.98 1276.49 58.33 6.00
   04:17:37.029.02-Jul-2020 362.66 2323.38 1565.98 1276.49 58.33 6.00
   04:17:37.229.02-Jul-2020 362.86 2322.19 1565.98 1276.49 58.33 6.00
   04:17:37.429.02-Jul-2020 363.06 2322.33 1565.98 1276.49 58.33 6.00
   04:17:37.629.02-Jul-2020 363.26 2322.33 1565.98 1276.49 58.33 6.00
   04:17:37.829.02-Jul-2020 363.46 2322.57 1565.98 1276.49 58.33 6.00
   04:17:38.029.02-Jul-2020 363.66 2322.79 1565.98 1276.49 58.33 6.00
   04:17:38.229.02-Jul-2020 363.86 2322.61 1565.98 1276.49 58.33 6.00
   04:17:38.429.02-Jul-2020 364.06 2322.40 1565.98 1276.49 58.33 6.00
   04:17:38.629.02-Jul-2020 364.26 2322.59 1565.98 1276.49 58.33 6.00
   04:17:38.829.02-Jul-2020 364.46 2322.28 1565.98 1276.49 58.33 6.00
   04:17:39.029.02-Jul-2020 364.66 2322.48 1565.98 1276.49 58.33 6.00
   04:17:39.229.02-Jul-2020 364.86 2323.02 1565.98 1276.49 58.33 6.00
   04:17:39.429.02-Jul-2020 365.06 2322.38 1565.98 1276.49 58.33 6.00
   04:17:39.629.02-Jul-2020 365.26 2322.38 1565.98 1276.49 58.33 6.00
   04:17:39.829.02-Jul-2020 365.46 2322.88 1565.98 1276.49 58.33 6.00
   04:17:40.029.02-Jul-2020 365.66 2322.49 1565.98 1276.49 58.33 6.00
   04:17:40.229.02-Jul-2020 365.86 2323.78 1565.98 1276.49 58.33 6.00
   04:17:40.429.02-Jul-2020 366.06 2323.23 1565.98 1276.49 58.33 6.00
   04:17:40.629.02-Jul-2020 366.26 2323.23 1565.98 1276.49 58.33 6.00
   04:17:40.830.02-Jul-2020 366.46 2323.48 1565.98 1276.49 58.33 6.00
   04:17:41.030.02-Jul-2020 366.66 2322.82 1565.98 1276.49 58.33 6.00
   04:17:41.230.02-Jul-2020 366.86 2323.29 1565.98 1276.49 58.33 6.00
   04:17:41.430.02-Jul-2020 367.06 2323.65 1565.98 1276.49 58.34 6.00
   04:17:41.630.02-Jul-2020 367.26 2323.65 1565.98 1276.49 58.34 6.00
   04:17:41.830.02-Jul-2020 367.46 2323.38 1565.98 1276.49 58.34 6.00
   04:17:42.030.02-Jul-2020 367.66 2323.43 1565.98 1276.49 58.34 6.00
   04:17:42.230.02-Jul-2020 367.86 2323.72 1565.98 1276.49 58.34 6.00
