~Version Information
 VERS.                  2.0:   CWLS log ASCII Standard -VERSION 2.0
 WRAP.                   NO:   One line per depth step
~Well Information Block
#MNEM.UNIT     VALUE/NAME     DESCRIPTION
#---------     -----------    ---------------------------
 STRT.S             16:15:55 30-Jun-20: START TIME 16:15:55 30-Jun-20
 STOP.S             16:24:50 30-Jun-20: STOP TIME  16:24:50 30-Jun-20
 STEP.S                   0.00: STEP TIME
 NULL.                 -999.25: NULL VALUE
 DFWT.                        :  DIST FWL TEXT
 DFST.                        :  DIST FSL TEXT
 DMF .             Drill Floor:  DRILL MEAS FROM
 STIM.      09.59.28 01-Jun-20:  START TIME
 DATE.      09.59.28 01-Jun-20:  END TIME
 SPUD.               01-Jun-20:  SPUD DATE
 NREF.                    Grid:  NORTH REFERENCE
 HPTY.       Minimum Curvature:  HOLE POS TYPE
 DMOD.             Drill Model:  DRILL MOD DESC
 SVYD.                  Survey:  SURVEY DESC
 ILTD.               Lithology:  INTERP LTH DESC
 FTOP.          Formation Tops:  FORM TOPS DESC
 SON .        AZ-XX-0905455768:  JOB NUMBER
 WTYP.                Deviated:  WELL TYPE
 COMP.     BP Exploration(Caspian Sea):  COMPANY
 BASE.              Azerbaijan:  LOGGING EQUIPMENT BASE LOCATION
 REGN.                   EESSA:  REGION
 CTRY.              Azerbaijan:  COUNTRY NAME
 FLD .                     ACG:  FIELD NAME
 SRVC.          Turan Drilling:  CONTRACTOR
 WELL.                     B41:  WELL NAME
 RIG .           Central Azeri:  RIG NAME
 DCON.         Sperry Drilling:  DIRECTNL CONTR
 PDAT.          Mean Sea Level:  PERMANENT DATUM
 MDS .        Operator Entered:  MAG DATA SOURCE
 API .                        :  API NUMBER
 CNTY.                        :  COUNTY
 PROV.                        :  PROVINCE
 STAT.                        :  STATE
 UWI .                        :  UNIQUE WELL IDENTIFIER
 LOC .                        :  LOCATION
 LMF .             Drill Floor:  LOG MEASURED FROM
 TVDS.m                  43.29:  TVDSS CORRECTN
 LATI.deg                40.03:  LATITUDE
 LONG.deg                51.35:  LONGITUDE
 WHNS.m                  12.98:  WELL HEAD N/S
 WHEW.m                  -6.62:  WELL HEAD E/W
 UTMX.m              530128.28:  UTM X
 UTMY.m             4433192.49:  UTM Y
 DFWL.m                   0.00:  DISTANCE FWL
 DFSL.m                   0.00:  DISTANCE FSL
 SDEP.m                 378.00:  START DEPTH
 TDD .m                   0.00:  TOTAL DEPTH (DRILLER)
 VSDR.deg               296.18:  VERT SEC DIRECT
 GVFD.g                   1.00:  GRAVITY FIELD
 MFLD.nT              50253.00:  MAGNETIC FIELD
 MDIP.deg                59.49:  MAGNETIC DIP
 MDEC.deg                 6.44:  MAGNETIC DECL
 GRDC.deg                 0.22:  GRID CORRECTION
 AZTC.deg                 6.22:  AZM TOTAL CORR
 EPD .m                   0.00:  ELEVATION
 EGL .m                   0.00:  GROUND ELEVATION
 WDMS.m                 128.20:  WD ELEV
 APD .m                  43.29:  DEPTH ABOVE PD
 AGAP.m                  43.29:  AIR GAP
 VSEW.m                  -6.62:  VERT SEC E/W
 VSNS.m                  12.98:  VERT SEC N/S
 EKB .m                  43.29:  KB ELEVATION
 EDF .m                  43.29:  DF ELEVATION
 TDL .m                1152.00:  TOTAL DEPTH (LOGGER)
 VSC .                       0:  VS TO CLOSURE
 MAGU.                 1848525:  MAGUTM CHECKSUM
~Parameter Information Block
#MNEM.UNIT       Value        Description
#---------     -----------    ---------------------------
 AV  .mps                 0.40:  Ann Velocity 
 AVMX.mps                 1.56:  Max Ann Veloc 
 AZIF.deg               300.46:  Azm, Final 
 BHAT.        Rotary Steerable:  BHA Type 
 BROT.°/30m               0.40:  Build Rotating 
 BS  .in                 17.50:  Bit Size 
 BSZ .in                 17.50:  Bit Size 
 BTPL.psig              300.00:  Bit Press Loss 
 CABU.                      No:  Customer Abuse 
 CGEO.          Parviz Guliyev:  Customer Geo 
 COMM.                     D„w:  Run Comments 1 
 TCS .hr                108.13:  Time Ciculation Ended 
 CV  .mps                 0.50:  Crit Velocity 
 CVMX.mps                 2.01:  Max Crit Veloc 
 DD1 .          Fariz Nahmatov:  Direct Drillr 1 
 DD2 .             Ehab Radwan:  Direct Drillr 2 
 DDSV.               Geo-Pilot:  DD Service 
 DEFF.%                  99.00:  % Det Eff 
 DLRX.°/30m               0.50:  Dogleg Rot Max 
 DLSO.°/30m               2.80:  Dogleg Oriented 
 DLSX.°/30m               3.90:  Dogleg Str Max 
 DRET.      09.30.04 03-Jul-20:  Drill End Time 
 DRST.      18.33.04 28-Jun-20:  Drill Start Tim 
 DTIM.hr                 55.83:  Time Drilling 
 EDEP.m                1952.00:  End Depth 
 ENG1.      Bakhtiyar Jabbarli:  Engineer 1 
 ENG2.         Farhad Orujzade:  Engineer 2 
 ENG3.          Rustam Safarov:  Engineer 3 
 ETIM.      01.33.04 04-Jul-20:  End Time 
 FLOI.gpm              1050.00:  Flow In 
 FLON.gpm               950.00:  Flow In Min 
 FLOS.cptm                0.10:  Fluid Loss 
 FLOX.gpm              1150.00:  Flow In Max 
 HFLO.                      No:  High Flow 
 HPRE.                      No:  High Pressure 
 HTEM.                      No:  High Temp 
 HYDO.m                   1.80:  Hydro Offset 
 IFIN.deg                75.26:  Inc, Final 
 IMAX.deg                75.38:  Inc Max 
 IMIN.deg                22.84:  Inc Min 
 IMND.m                 832.38:  Inc Min Depth 
 IMXD.m                1936.55:  Inc Max Depth 
 JARR.                      No:  Jarring 
 LETM.      17.40.00 04-Jul-20:  Log End Time 
 LOST.hr                     0:  Lost Rig Time 
 LSTM.      12.33.04 28-Jun-20:  Log Start Time 
 MDCL.ppm             49500.00:  Mud Chlorides 
 MDES.     Inversion Oil/Synthetic:  Mud Desc 
 DFD .sg                  1.46:  Mud Density 
 MDMN.sg                  1.46:  Dens Mud Min 
 MDMX.sg                  1.46:  Dens Mud Max 
 MOIL.                      70:  Run Mud Oil % 
 MOWR.                   70:30:  Run Mud OWR 
 MSND.                     0.5:  Run Mud Sand % 
 MSOL.                   19.89:  Run Mud Solids% 
 DFV .spqt               72.00:  Mud Viscosity 
 MWOD.in                  9.50:  MWD Tool OD 
 MWSI.                      No:  Serv Intrp, MWD 
 OTIM.hr                146.53:  Time Operating 
 PCON.           Look Like New:  Pad Condition 
 PMAX.psia             2900.00:  Press Op, Max 
 PV  .cP                 38.00:  Mud PV 
 RUN .                     600:  Run Number 
 ROPA.m/hr               22.00:  ROP Avg 
 ROPN.m/hr               10.00:  ROP Min 
 ROPX.m/hr              263.00:  ROP Max 
 RPMA.rpm               155.00:  RPM Surface Avg 
 RPMN.rpm               140.00:  RPM Surface Min 
 RPMX.rpm               160.00:  RPM Surface Max 
 RRUN.                    0600:  Rig Run Number 
 RTIM.hr                  5.00:  Time Reaming 
 SAZI.deg               300.08:  Azm, Start 
 SDEP.m                 800.00:  Start Depth 
 SIDD.                      No:  Serv Intrp, DD 
 SINC.deg                22.84:  Inc, Start 
 SPPA.psig             3000.00:  SPP Avg 
 SPPN.psig             1900.00:  SPP Min 
 SPPX.psig             3200.00:  SPP Max 
 STIM.      12.30.04 28-Jun-20:  Start Time 
 SVCS.                 DD, MWD:  Services 
 SVER.                    9.20:  Sperry Version 
 TDAT.m                1952.00:  Tot Depth Attmp 
 TDDF.                      No:  Trip for DD 
 TDLG.m                1152.00:  Tot Depth Loggd 
 TFF .                      No:  Trip for Fail 
 TQAA.f-kp                8.00:  Torque Abs Avg 
 TQAN.f-kp                5.00:  Torque Abs Min 
 TQAX.f-kp               14.00:  Torque Abs Max 
 TRRT.°/30m               0.50:  Turn Rotating 
 MRT .                  EWR-M5:  Maximum Recorded Temperature 
 TTMX.degC               69.00:  Max Tool Temp 
 VS01.                90610313:  Virtual Str1 SN 
 VS02.                90613431:  Virtual Str2 SN 
 VS03.                90615410:  Virtual Str3 SN 
 WBMN.klb                 6.00:  WOB Min 
 WITN.            Bruce Cheyne:  Customer Rep 
 WITN.             Ayaz Aliyev:  Customer Rep 2 
 WOBA.klb                 6.00:  WOB Avg 
 WOBX.klb                10.00:  WOB Max 
 YP  .lhf2               36.00:  Yield Point 
~Curve Information Block
#MNEM.UNIT                 API CODE     Curve Description
#---------               -----------    ---------------------------
 TIME.HHMMSS            00 000 000 000:  GT Time & Date
 GTET.sec               00 000 000 000:  GT Elapsed Test Time
 GTPQH.psia             00 000 000 000:  GT HR Quartz Pressure
 GTDEPTH.m              00 000 000 000:  GT Depth
 GTTVD.m                00 000 000 000:  GT True Vertical Depth
 GTTQ.degC              00 000 000 000:  GT Quartz Temperature
 GTTN.NONE              00 000 000 000:  GT Test Number
#Other Information
#
#WARRANTY: Halliburton will use its best efforts to furnish customers with 
#accurate information and interpretations that are part of, and incident to, the services 
#provided.  However, Halliburton cannot and does not warrant the accuracy 
#or correctness of such information and interpretations.  Under no circumstances should any 
#such information or interpretation be relied upon as the sole basis for any drilling, 
#completion, production, or financial decision or any procedure involving any risk to the 
#safety of any drilling venture, drilling rig or its crew or any other third party.  The 
#Customer has full responsibility for all drilling, completion and production operation.  
#Halliburton makes no representations or warranties, either expressed or 
#implied, including, but not limited to, the implied warranties of merchantability or fitness 
#for a particular purpose, with respect to the services rendered.  In no event will 
#Halliburton be liable for failure to obtain any particular results or for 
#any damages, including, but not limited to, indirect, special or consequential damages, 
#resulting from the use of any information or interpretation provided by Halliburton.
#
~A           TIME            GTET   GTPQH  GTDEPTH  GTTVD  GTTQ  GTTN 
# ...
   16:22:03.000.30-Jun-2020 368.00   29.00 1103.02 1054.26 68.91 2.00
   16:22:03.200.30-Jun-2020 368.20   29.00 1103.02 1054.26 68.91 2.00
   16:22:03.400.30-Jun-2020 368.40   29.05 1103.02 1054.26 68.91 2.00
   16:22:03.600.30-Jun-2020 368.60   29.07 1103.02 1054.26 68.91 2.00
   16:22:03.800.30-Jun-2020 368.80   29.12 1103.02 1054.26 68.92 2.00
   16:22:04.000.30-Jun-2020 369.00   29.13 1103.02 1054.26 68.92 2.00
   16:22:04.200.30-Jun-2020 369.20   29.17 1103.02 1054.26 68.92 2.00
   16:22:04.400.30-Jun-2020 369.40   29.18 1103.02 1054.26 68.92 2.00
   16:22:04.600.30-Jun-2020 369.60   29.21 1103.02 1054.26 68.92 2.00
   16:22:04.800.30-Jun-2020 369.80   29.24 1103.02 1054.26 68.92 2.00
   16:22:05.000.30-Jun-2020 370.00   29.27 1103.02 1054.26 68.92 2.00
   16:22:05.200.30-Jun-2020 370.20   29.28 1103.02 1054.26 68.92 2.00
   16:22:05.400.30-Jun-2020 370.40   29.32 1103.02 1054.26 68.92 2.00
   16:22:05.600.30-Jun-2020 370.60   29.34 1103.02 1054.26 68.92 2.00
   16:22:05.800.30-Jun-2020 370.80   29.36 1103.02 1054.26 68.92 2.00
   16:22:06.000.30-Jun-2020 371.00   29.40 1103.02 1054.26 68.92 2.00
   16:22:06.200.30-Jun-2020 371.20   29.40 1103.02 1054.26 68.92 2.00
   16:22:06.400.30-Jun-2020 371.40   29.45 1103.02 1054.26 68.92 2.00
   16:22:06.600.30-Jun-2020 371.60   29.48 1103.02 1054.26 68.92 2.00
   16:22:06.800.30-Jun-2020 371.80   29.50 1103.02 1054.26 68.92 2.00
   16:22:07.000.30-Jun-2020 372.00   29.52 1103.02 1054.26 68.92 2.00
   16:22:07.200.30-Jun-2020 372.20   29.52 1103.02 1054.26 68.92 2.00
   16:22:07.400.30-Jun-2020 372.40   29.55 1103.02 1054.26 68.92 2.00
   16:22:07.600.30-Jun-2020 372.60   29.58 1103.02 1054.26 68.92 2.00
   16:22:07.800.30-Jun-2020 372.80   29.61 1103.02 1054.26 68.92 2.00
   16:22:08.000.30-Jun-2020 373.00   29.63 1103.02 1054.26 68.92 2.00
   16:22:08.200.30-Jun-2020 373.20   29.66 1103.02 1054.26 68.92 2.00
   16:22:08.400.30-Jun-2020 373.40   29.68 1103.02 1054.26 68.92 2.00
   16:22:08.600.30-Jun-2020 373.60   29.70 1103.02 1054.26 68.92 2.00
   16:22:08.800.30-Jun-2020 373.80   29.73 1103.02 1054.26 68.92 2.00
   16:22:09.000.30-Jun-2020 374.00   29.74 1103.02 1054.26 68.92 2.00
   16:22:09.200.30-Jun-2020 374.20   29.77 1103.02 1054.26 68.92 2.00
   16:22:09.400.30-Jun-2020 374.40   29.78 1103.02 1054.26 68.92 2.00
   16:22:09.600.30-Jun-2020 374.60   29.82 1103.02 1054.26 68.92 2.00
   16:22:09.800.30-Jun-2020 374.80   29.84 1103.02 1054.26 68.92 2.00
   16:22:10.000.30-Jun-2020 375.00   29.87 1103.02 1054.26 68.92 2.00
   16:22:10.200.30-Jun-2020 375.20   29.87 1103.02 1054.26 68.92 2.00
   16:22:10.400.30-Jun-2020 375.40   29.90 1103.02 1054.26 68.92 2.00
   16:22:10.600.30-Jun-2020 375.60   29.93 1103.02 1054.26 68.92 2.00
   16:22:10.800.30-Jun-2020 375.80   29.96 1103.02 1054.26 68.92 2.00
   16:22:11.000.30-Jun-2020 376.00   29.97 1103.02 1054.26 68.92 2.00
   16:22:11.200.30-Jun-2020 376.20   29.97 1103.02 1054.26 68.92 2.00
   16:22:11.400.30-Jun-2020 376.40   30.01 1103.02 1054.26 68.92 2.00
   16:22:11.600.30-Jun-2020 376.60   30.05 1103.02 1054.26 68.92 2.00
   16:22:11.800.30-Jun-2020 376.80   30.05 1103.02 1054.26 68.92 2.00
   16:22:12.000.30-Jun-2020 377.00   30.09 1103.02 1054.26 68.92 2.00
   16:22:12.200.30-Jun-2020 377.20   30.10 1103.02 1054.26 68.92 2.00
   16:22:12.400.30-Jun-2020 377.40   30.12 1103.02 1054.26 68.92 2.00
   16:22:12.600.30-Jun-2020 377.60   30.14 1103.02 1054.26 68.92 2.00
   16:22:12.800.30-Jun-2020 377.80   30.17 1103.02 1054.26 68.92 2.00
   16:22:13.000.30-Jun-2020 378.00   30.19 1103.02 1054.26 68.92 2.00
   16:22:13.200.30-Jun-2020 378.20   30.20 1103.02 1054.26 68.92 2.00
   16:22:13.400.30-Jun-2020 378.40   30.21 1103.02 1054.26 68.92 2.00
   16:22:13.600.30-Jun-2020 378.60   30.24 1103.02 1054.26 68.92 2.00
   16:22:13.800.30-Jun-2020 378.80   30.24 1103.02 1054.26 68.92 2.00
   16:22:14.000.30-Jun-2020 379.00   30.28 1103.02 1054.26 68.92 2.00
   16:22:14.200.30-Jun-2020 379.20   30.28 1103.02 1054.26 68.92 2.00
   16:22:14.400.30-Jun-2020 379.40   30.32 1103.02 1054.26 68.93 2.00
   16:22:14.600.30-Jun-2020 379.60   30.34 1103.02 1054.26 68.93 2.00
   16:22:14.800.30-Jun-2020 379.80   30.37 1103.02 1054.26 68.93 2.00
   16:22:15.000.30-Jun-2020 380.00   30.38 1103.02 1054.26 68.93 2.00
   16:22:15.200.30-Jun-2020 380.20   30.38 1103.02 1054.26 68.93 2.00
   16:22:15.400.30-Jun-2020 380.40   30.42 1103.02 1054.26 68.93 2.00
   16:22:15.600.30-Jun-2020 380.60   30.45 1103.02 1054.26 68.93 2.00
   16:22:15.800.30-Jun-2020 380.80   30.48 1103.02 1054.26 68.93 2.00
   16:22:16.000.30-Jun-2020 381.00   30.49 1103.02 1054.26 68.93 2.00
   16:22:16.200.30-Jun-2020 381.20   30.51 1103.02 1054.26 68.93 2.00
   16:22:16.400.30-Jun-2020 381.40   30.53 1103.02 1054.26 68.93 2.00
   16:22:16.600.30-Jun-2020 381.60   30.54 1103.02 1054.26 68.93 2.00
   16:22:16.800.30-Jun-2020 381.80   30.56 1103.02 1054.26 68.93 2.00
   16:22:17.000.30-Jun-2020 382.00   30.57 1103.02 1054.26 68.93 2.00
   16:22:17.200.30-Jun-2020 382.20   30.58 1103.02 1054.26 68.93 2.00
   16:22:17.400.30-Jun-2020 382.40   30.61 1103.02 1054.26 68.93 2.00
   16:22:17.600.30-Jun-2020 382.60   30.63 1103.02 1054.26 68.93 2.00
   16:22:17.800.30-Jun-2020 382.80   30.65 1103.02 1054.26 68.93 2.00
   16:22:18.000.30-Jun-2020 383.00   30.67 1103.02 1054.26 68.93 2.00
   16:22:18.200.30-Jun-2020 383.20   30.67 1103.02 1054.26 68.93 2.00
   16:22:18.400.30-Jun-2020 383.40   30.71 1103.02 1054.26 68.93 2.00
   16:22:18.600.30-Jun-2020 383.60   30.73 1103.02 1054.26 68.93 2.00
   16:22:18.800.30-Jun-2020 383.80   30.74 1103.02 1054.26 68.93 2.00
   16:22:19.000.30-Jun-2020 384.00   30.75 1103.02 1054.26 68.93 2.00
   16:22:19.200.30-Jun-2020 384.20   30.75 1103.02 1054.26 68.93 2.00
   16:22:19.400.30-Jun-2020 384.40   30.79 1103.02 1054.26 68.93 2.00
   16:22:19.600.30-Jun-2020 384.60   30.81 1103.02 1054.26 68.93 2.00
   16:22:19.800.30-Jun-2020 384.80   30.84 1103.02 1054.26 68.93 2.00
   16:22:20.000.30-Jun-2020 385.00   30.84 1103.02 1054.26 68.93 2.00
   16:22:20.200.30-Jun-2020 385.20   30.87 1103.02 1054.26 68.93 2.00
   16:22:20.400.30-Jun-2020 385.40   30.88 1103.02 1054.26 68.93 2.00
   16:22:20.600.30-Jun-2020 385.60   30.89 1103.02 1054.26 68.93 2.00
   16:22:20.800.30-Jun-2020 385.80   30.92 1103.02 1054.26 68.93 2.00
   16:22:21.000.30-Jun-2020 386.00   30.93 1103.02 1054.26 68.93 2.00
   16:22:21.200.30-Jun-2020 386.20   30.94 1103.02 1054.26 68.93 2.00
   16:22:21.400.30-Jun-2020 386.40   30.95 1103.02 1054.26 68.93 2.00
   16:22:21.600.30-Jun-2020 386.60   30.99 1103.02 1054.26 68.93 2.00
   16:22:21.800.30-Jun-2020 386.80   31.00 1103.02 1054.26 68.93 2.00
   16:22:22.000.30-Jun-2020 387.00   31.02 1103.02 1054.26 68.93 2.00
   16:22:22.200.30-Jun-2020 387.20   31.02 1103.02 1054.26 68.93 2.00
   16:22:22.400.30-Jun-2020 387.40   31.05 1103.02 1054.26 68.93 2.00
   16:22:22.600.30-Jun-2020 387.60   31.07 1103.02 1054.26 68.93 2.00
   16:22:22.800.30-Jun-2020 387.80   31.09 1103.02 1054.26 68.93 2.00
   16:22:23.000.30-Jun-2020 388.00   31.10 1103.02 1054.26 68.93 2.00
   16:22:23.200.30-Jun-2020 388.20   31.10 1103.02 1054.26 68.93 2.00
   16:22:23.400.30-Jun-2020 388.40   31.12 1103.02 1054.26 68.93 2.00
   16:22:23.600.30-Jun-2020 388.60   31.15 1103.02 1054.26 68.93 2.00
   16:22:23.800.30-Jun-2020 388.80   31.18 1103.02 1054.26 68.93 2.00
   16:22:24.000.30-Jun-2020 389.00   31.19 1103.02 1054.26 68.93 2.00
   16:22:24.200.30-Jun-2020 389.20   31.20 1103.02 1054.26 68.93 2.00
   16:22:24.400.30-Jun-2020 389.40   31.22 1103.02 1054.26 68.93 2.00
   16:22:24.600.30-Jun-2020 389.60   31.23 1103.02 1054.26 68.93 2.00
   16:22:24.800.30-Jun-2020 389.80   31.25 1103.02 1054.26 68.93 2.00
   16:22:25.000.30-Jun-2020 390.00   31.26 1103.02 1054.26 68.94 2.00
   16:22:25.200.30-Jun-2020 390.20   31.28 1103.02 1054.26 68.94 2.00
   16:22:25.400.30-Jun-2020 390.40   31.30 1103.02 1054.26 68.94 2.00
   16:22:25.600.30-Jun-2020 390.60   31.31 1103.02 1054.26 68.94 2.00
   16:22:25.800.30-Jun-2020 390.80   31.33 1103.02 1054.26 68.94 2.00
