~Version Information
 VERS.                  2.0:   CWLS log ASCII Standard -VERSION 2.0
 WRAP.                   NO:   One line per depth step
~Well Information Block
#MNEM.UNIT     VALUE/NAME     DESCRIPTION
#---------     -----------    ---------------------------
 STRT.S             04:11:34 02-Jul-20: START TIME 04:11:34 02-Jul-20
 STOP.S             04:20:35 02-Jul-20: STOP TIME  04:20:35 02-Jul-20
 STEP.S                   0.00: STEP TIME
 NULL.                 -999.25: NULL VALUE
 DFWT.                        :  DIST FWL TEXT
 DFST.                        :  DIST FSL TEXT
 DMF .             Drill Floor:  DRILL MEAS FROM
 STIM.      09.59.28 01-Jun-20:  START TIME
 DATE.      09.59.28 01-Jun-20:  END TIME
 SPUD.               01-Jun-20:  SPUD DATE
 NREF.                    Grid:  NORTH REFERENCE
 HPTY.       Minimum Curvature:  HOLE POS TYPE
 DMOD.             Drill Model:  DRILL MOD DESC
 SVYD.                  Survey:  SURVEY DESC
 ILTD.               Lithology:  INTERP LTH DESC
 FTOP.          Formation Tops:  FORM TOPS DESC
 SON .        AZ-XX-0905455768:  JOB NUMBER
 WTYP.                Deviated:  WELL TYPE
 COMP.     BP Exploration(Caspian Sea):  COMPANY
 BASE.              Azerbaijan:  LOGGING EQUIPMENT BASE LOCATION
 REGN.                   EESSA:  REGION
 CTRY.              Azerbaijan:  COUNTRY NAME
 FLD .                     ACG:  FIELD NAME
 SRVC.          Turan Drilling:  CONTRACTOR
 WELL.                     B41:  WELL NAME
 RIG .           Central Azeri:  RIG NAME
 DCON.         Sperry Drilling:  DIRECTNL CONTR
 PDAT.          Mean Sea Level:  PERMANENT DATUM
 MDS .        Operator Entered:  MAG DATA SOURCE
 API .                        :  API NUMBER
 CNTY.                        :  COUNTY
 PROV.                        :  PROVINCE
 STAT.                        :  STATE
 UWI .                        :  UNIQUE WELL IDENTIFIER
 LOC .                        :  LOCATION
 LMF .             Drill Floor:  LOG MEASURED FROM
 TVDS.m                  43.29:  TVDSS CORRECTN
 LATI.deg                40.03:  LATITUDE
 LONG.deg                51.35:  LONGITUDE
 WHNS.m                  12.98:  WELL HEAD N/S
 WHEW.m                  -6.62:  WELL HEAD E/W
 UTMX.m              530128.28:  UTM X
 UTMY.m             4433192.49:  UTM Y
 DFWL.m                   0.00:  DISTANCE FWL
 DFSL.m                   0.00:  DISTANCE FSL
 SDEP.m                 378.00:  START DEPTH
 TDD .m                   0.00:  TOTAL DEPTH (DRILLER)
 VSDR.deg               296.18:  VERT SEC DIRECT
 GVFD.g                   1.00:  GRAVITY FIELD
 MFLD.nT              50253.00:  MAGNETIC FIELD
 MDIP.deg                59.49:  MAGNETIC DIP
 MDEC.deg                 6.44:  MAGNETIC DECL
 GRDC.deg                 0.22:  GRID CORRECTION
 AZTC.deg                 6.22:  AZM TOTAL CORR
 EPD .m                   0.00:  ELEVATION
 EGL .m                   0.00:  GROUND ELEVATION
 WDMS.m                 128.20:  WD ELEV
 APD .m                  43.29:  DEPTH ABOVE PD
 AGAP.m                  43.29:  AIR GAP
 VSEW.m                  -6.62:  VERT SEC E/W
 VSNS.m                  12.98:  VERT SEC N/S
 EKB .m                  43.29:  KB ELEVATION
 EDF .m                  43.29:  DF ELEVATION
 TDL .m                1152.00:  TOTAL DEPTH (LOGGER)
 VSC .                       0:  VS TO CLOSURE
 MAGU.                 1848525:  MAGUTM CHECKSUM
~Parameter Information Block
#MNEM.UNIT       Value        Description
#---------     -----------    ---------------------------
 AV  .mps                 0.40:  Ann Velocity 
 AVMX.mps                 1.56:  Max Ann Veloc 
 AZIF.deg               300.46:  Azm, Final 
 BHAT.        Rotary Steerable:  BHA Type 
 BROT.°/30m               0.40:  Build Rotating 
 BS  .in                 17.50:  Bit Size 
 BSZ .in                 17.50:  Bit Size 
 BTPL.psig              300.00:  Bit Press Loss 
 CABU.                      No:  Customer Abuse 
 CGEO.          Parviz Guliyev:  Customer Geo 
 TCS .hr                108.13:  Time Ciculation Ended 
 CV  .mps                 0.50:  Crit Velocity 
 CVMX.mps                 2.01:  Max Crit Veloc 
 DD1 .          Fariz Nahmatov:  Direct Drillr 1 
 DD2 .             Ehab Radwan:  Direct Drillr 2 
 DDSV.               Geo-Pilot:  DD Service 
 DEFF.%                  99.00:  % Det Eff 
 DLRX.°/30m               0.50:  Dogleg Rot Max 
 DLSO.°/30m               2.80:  Dogleg Oriented 
 DLSX.°/30m               3.90:  Dogleg Str Max 
 DRET.      09.30.04 03-Jul-20:  Drill End Time 
 DRST.      18.33.04 28-Jun-20:  Drill Start Tim 
 DTIM.hr                 55.83:  Time Drilling 
 EDEP.m                1952.00:  End Depth 
 ENG1.      Bakhtiyar Jabbarli:  Engineer 1 
 ENG2.         Farhad Orujzade:  Engineer 2 
 ENG3.          Rustam Safarov:  Engineer 3 
 ETIM.      01.33.04 04-Jul-20:  End Time 
 FLOI.gpm              1050.00:  Flow In 
 FLON.gpm               950.00:  Flow In Min 
 FLOS.cptm                0.10:  Fluid Loss 
 FLOX.gpm              1150.00:  Flow In Max 
 HFLO.                      No:  High Flow 
 HPRE.                      No:  High Pressure 
 HTEM.                      No:  High Temp 
 HYDO.m                   1.80:  Hydro Offset 
 IFIN.deg                75.26:  Inc, Final 
 IMAX.deg                75.38:  Inc Max 
 IMIN.deg                22.84:  Inc Min 
 IMND.m                 832.38:  Inc Min Depth 
 IMXD.m                1936.55:  Inc Max Depth 
 JARR.                      No:  Jarring 
 LETM.      17.40.00 04-Jul-20:  Log End Time 
 LOST.hr                     0:  Lost Rig Time 
 LSTM.      12.33.04 28-Jun-20:  Log Start Time 
 MDCL.ppm             49500.00:  Mud Chlorides 
 MDES.     Inversion Oil/Synthetic:  Mud Desc 
 DFD .sg                  1.46:  Mud Density 
 MDMN.sg                  1.46:  Dens Mud Min 
 MDMX.sg                  1.46:  Dens Mud Max 
 MOIL.                      70:  Run Mud Oil % 
 MOWR.                   70:30:  Run Mud OWR 
 MSND.                     0.5:  Run Mud Sand % 
 MSOL.                   19.89:  Run Mud Solids% 
 DFV .spqt               72.00:  Mud Viscosity 
 MWOD.in                  9.50:  MWD Tool OD 
 MWSI.                      No:  Serv Intrp, MWD 
 OTIM.hr                146.53:  Time Operating 
 PCON.           Look Like New:  Pad Condition 
 PMAX.psia             2900.00:  Press Op, Max 
 PV  .cP                 38.00:  Mud PV 
 RUN .                     600:  Run Number 
 ROPA.m/hr               22.00:  ROP Avg 
 ROPN.m/hr               10.00:  ROP Min 
 ROPX.m/hr              263.00:  ROP Max 
 RPMA.rpm               155.00:  RPM Surface Avg 
 RPMN.rpm               140.00:  RPM Surface Min 
 RPMX.rpm               160.00:  RPM Surface Max 
 RRUN.                    0600:  Rig Run Number 
 RTIM.hr                  5.00:  Time Reaming 
 SAZI.deg               300.08:  Azm, Start 
 SDEP.m                 800.00:  Start Depth 
 SIDD.                      No:  Serv Intrp, DD 
 SINC.deg                22.84:  Inc, Start 
 SPPA.psig             3000.00:  SPP Avg 
 SPPN.psig             1900.00:  SPP Min 
 SPPX.psig             3200.00:  SPP Max 
 STIM.      12.30.04 28-Jun-20:  Start Time 
 SVCS.                 DD, MWD:  Services 
 SVER.                    9.20:  Sperry Version 
 TDAT.m                1952.00:  Tot Depth Attmp 
 TDDF.                      No:  Trip for DD 
 TDLG.m                1152.00:  Tot Depth Loggd 
 TFF .                      No:  Trip for Fail 
 TQAA.f-kp                8.00:  Torque Abs Avg 
 TQAN.f-kp                5.00:  Torque Abs Min 
 TQAX.f-kp               14.00:  Torque Abs Max 
 TRRT.°/30m               0.50:  Turn Rotating 
 MRT .                  EWR-M5:  Maximum Recorded Temperature 
 TTMX.degC               69.00:  Max Tool Temp 
 VS01.                90610313:  Virtual Str1 SN 
 VS02.                90613431:  Virtual Str2 SN 
 VS03.                90615410:  Virtual Str3 SN 
 WBMN.klb                 6.00:  WOB Min 
 WITN.            Bruce Cheyne:  Customer Rep 
 WITN.             Ayaz Aliyev:  Customer Rep 2 
 WOBA.klb                 6.00:  WOB Avg 
 WOBX.klb                10.00:  WOB Max 
 YP  .lhf2               36.00:  Yield Point 
~Curve Information Block
#MNEM.UNIT                 API CODE     Curve Description
#---------               -----------    ---------------------------
 TIME.HHMMSS            00 000 000 000:  GT Time & Date
 GTET.sec               00 000 000 000:  GT Elapsed Test Time
 GTPQH.psia             00 000 000 000:  GT HR Quartz Pressure
 GTDEPTH.m              00 000 000 000:  GT Depth
 GTTVD.m                00 000 000 000:  GT True Vertical Depth
 GTTQ.degC              00 000 000 000:  GT Quartz Temperature
 GTTN.NONE              00 000 000 000:  GT Test Number
#Other Information
#
#WARRANTY: Halliburton will use its best efforts to furnish customers with 
#accurate information and interpretations that are part of, and incident to, the services 
#provided.  However, Halliburton cannot and does not warrant the accuracy 
#or correctness of such information and interpretations.  Under no circumstances should any 
#such information or interpretation be relied upon as the sole basis for any drilling, 
#completion, production, or financial decision or any procedure involving any risk to the 
#safety of any drilling venture, drilling rig or its crew or any other third party.  The 
#Customer has full responsibility for all drilling, completion and production operation.  
#Halliburton makes no representations or warranties, either expressed or 
#implied, including, but not limited to, the implied warranties of merchantability or fitness 
#for a particular purpose, with respect to the services rendered.  In no event will 
#Halliburton be liable for failure to obtain any particular results or for 
#any damages, including, but not limited to, indirect, special or consequential damages, 
#resulting from the use of any information or interpretation provided by Halliburton.
#
~A           TIME            GTET   GTPQH  GTDEPTH  GTTVD  GTTQ  GTTN 
# ...
   04:19:37.448.02-Jul-2020 483.08 2364.28 1565.98 1276.49 58.47 6.00
   04:19:37.648.02-Jul-2020 483.28 2364.28 1565.98 1276.49 58.47 6.00
   04:19:37.848.02-Jul-2020 483.48 2364.25 1565.98 1276.49 58.47 6.00
   04:19:38.048.02-Jul-2020 483.68 2364.27 1565.98 1276.49 58.47 6.00
   04:19:38.248.02-Jul-2020 483.88 2364.25 1565.98 1276.49 58.47 6.00
   04:19:38.448.02-Jul-2020 484.08 2364.26 1565.98 1276.49 58.47 6.00
   04:19:38.648.02-Jul-2020 484.28 2364.28 1565.98 1276.49 58.47 6.00
   04:19:38.848.02-Jul-2020 484.48 2364.25 1565.98 1276.49 58.47 6.00
   04:19:39.048.02-Jul-2020 484.68 2364.27 1565.98 1276.49 58.47 6.00
   04:19:39.248.02-Jul-2020 484.88 2364.28 1565.98 1276.49 58.47 6.00
   04:19:39.448.02-Jul-2020 485.08 2364.25 1565.98 1276.49 58.47 6.00
   04:19:39.648.02-Jul-2020 485.28 2364.25 1565.98 1276.49 58.47 6.00
   04:19:39.848.02-Jul-2020 485.48 2364.28 1565.98 1276.49 58.47 6.00
   04:19:40.048.02-Jul-2020 485.68 2364.24 1565.98 1276.49 58.47 6.00
   04:19:40.248.02-Jul-2020 485.88 2364.25 1565.98 1276.49 58.47 6.00
   04:19:40.448.02-Jul-2020 486.08 2364.30 1565.98 1276.49 58.47 6.00
   04:19:40.648.02-Jul-2020 486.28 2364.30 1565.98 1276.49 58.47 6.00
   04:19:40.848.02-Jul-2020 486.48 2364.28 1565.98 1276.49 58.47 6.00
   04:19:41.049.02-Jul-2020 486.68 2364.26 1565.98 1276.49 58.47 6.00
   04:19:41.249.02-Jul-2020 486.88 2364.27 1565.98 1276.49 58.47 6.00
   04:19:41.449.02-Jul-2020 487.08 2364.28 1565.98 1276.49 58.47 6.00
   04:19:41.649.02-Jul-2020 487.28 2364.28 1565.98 1276.49 58.47 6.00
   04:19:41.849.02-Jul-2020 487.48 2364.26 1565.98 1276.49 58.47 6.00
   04:19:42.049.02-Jul-2020 487.68 2364.28 1565.98 1276.49 58.47 6.00
   04:19:42.249.02-Jul-2020 487.88 2364.27 1565.98 1276.49 58.47 6.00
   04:19:42.449.02-Jul-2020 488.08 2364.28 1565.98 1276.49 58.47 6.00
   04:19:42.649.02-Jul-2020 488.28 2364.22 1565.98 1276.49 58.47 6.00
   04:19:42.849.02-Jul-2020 488.48 2364.26 1565.98 1276.49 58.47 6.00
   04:19:43.049.02-Jul-2020 488.68 2364.29 1565.98 1276.49 58.47 6.00
   04:19:43.249.02-Jul-2020 488.88 2364.27 1565.98 1276.49 58.47 6.00
   04:19:43.449.02-Jul-2020 489.08 2364.26 1565.98 1276.49 58.47 6.00
   04:19:43.649.02-Jul-2020 489.28 2364.26 1565.98 1276.49 58.47 6.00
   04:19:43.849.02-Jul-2020 489.48 2364.27 1565.98 1276.49 58.47 6.00
   04:19:44.049.02-Jul-2020 489.68 2364.26 1565.98 1276.49 58.47 6.00
   04:19:44.249.02-Jul-2020 489.88 2364.25 1565.98 1276.49 58.47 6.00
   04:19:44.449.02-Jul-2020 490.08 2364.26 1565.98 1276.49 58.47 6.00
   04:19:44.649.02-Jul-2020 490.28 2364.26 1565.98 1276.49 58.47 6.00
   04:19:44.849.02-Jul-2020 490.48 2364.23 1565.98 1276.49 58.47 6.00
   04:19:45.049.02-Jul-2020 490.68 2364.24 1565.98 1276.49 58.47 6.00
   04:19:45.249.02-Jul-2020 490.88 2364.27 1565.98 1276.49 58.47 6.00
   04:19:45.449.02-Jul-2020 491.08 2364.27 1565.98 1276.49 58.47 6.00
   04:19:45.649.02-Jul-2020 491.28 2364.27 1565.98 1276.49 58.47 6.00
   04:19:45.849.02-Jul-2020 491.48 2364.24 1565.98 1276.49 58.47 6.00
   04:19:46.049.02-Jul-2020 491.68 2364.28 1565.98 1276.49 58.47 6.00
   04:19:46.249.02-Jul-2020 491.88 2364.25 1565.98 1276.49 58.47 6.00
   04:19:46.449.02-Jul-2020 492.08 2364.26 1565.98 1276.49 58.47 6.00
   04:19:46.649.02-Jul-2020 492.28 2364.27 1565.98 1276.49 58.47 6.00
   04:19:46.849.02-Jul-2020 492.48 2364.27 1565.98 1276.49 58.47 6.00
   04:19:47.049.02-Jul-2020 492.68 2364.28 1565.98 1276.49 58.47 6.00
   04:19:47.249.02-Jul-2020 492.88 2364.26 1565.98 1276.49 58.47 6.00
   04:19:47.450.02-Jul-2020 493.08 2364.25 1565.98 1276.49 58.47 6.00
   04:19:47.650.02-Jul-2020 493.28 2364.25 1565.98 1276.49 58.47 6.00
   04:19:47.850.02-Jul-2020 493.48 2364.26 1565.98 1276.49 58.48 6.00
   04:19:48.050.02-Jul-2020 493.68 2364.27 1565.98 1276.49 58.48 6.00
   04:19:48.250.02-Jul-2020 493.88 2364.28 1565.98 1276.49 58.48 6.00
   04:19:48.450.02-Jul-2020 494.08 2364.26 1565.98 1276.49 58.48 6.00
   04:19:48.650.02-Jul-2020 494.28 2364.26 1565.98 1276.49 58.48 6.00
   04:19:48.850.02-Jul-2020 494.48 2364.29 1565.98 1276.49 58.48 6.00
   04:19:49.050.02-Jul-2020 494.68 2364.27 1565.98 1276.49 58.48 6.00
   04:19:49.250.02-Jul-2020 494.88 2364.27 1565.98 1276.49 58.48 6.00
   04:19:49.450.02-Jul-2020 495.08 2364.29 1565.98 1276.49 58.48 6.00
   04:19:49.650.02-Jul-2020 495.28 2364.29 1565.98 1276.49 58.48 6.00
   04:19:49.850.02-Jul-2020 495.48 2364.30 1565.98 1276.49 58.48 6.00
   04:19:50.050.02-Jul-2020 495.68 2364.29 1565.98 1276.49 58.48 6.00
   04:19:50.250.02-Jul-2020 495.88 2364.26 1565.98 1276.49 58.48 6.00
   04:19:50.450.02-Jul-2020 496.08 2364.29 1565.98 1276.49 58.48 6.00
   04:19:50.650.02-Jul-2020 496.28 2364.29 1565.98 1276.49 58.48 6.00
   04:19:50.850.02-Jul-2020 496.48 2364.27 1565.98 1276.49 58.48 6.00
   04:19:51.050.02-Jul-2020 496.68 2364.29 1565.98 1276.49 58.48 6.00
   04:19:51.250.02-Jul-2020 496.88 2364.27 1565.98 1276.49 58.48 6.00
   04:19:51.450.02-Jul-2020 497.08 2364.27 1565.98 1276.49 58.48 6.00
   04:19:51.650.02-Jul-2020 497.28 2364.27 1565.98 1276.49 58.48 6.00
   04:19:51.850.02-Jul-2020 497.48 2364.27 1565.98 1276.49 58.48 6.00
   04:19:52.050.02-Jul-2020 497.68 2368.05 1565.98 1276.49 58.48 6.00
   04:19:52.250.02-Jul-2020 497.88 2361.75 1565.98 1276.49 58.48 6.00
   04:19:52.450.02-Jul-2020 498.08 2202.94 1565.98 1276.49 58.48 6.00
   04:19:52.650.02-Jul-2020 498.28 2202.94 1565.98 1276.49 58.48 6.00
   04:19:52.850.02-Jul-2020 498.48 2354.19 1565.98 1276.49 58.48 6.00
   04:19:53.050.02-Jul-2020 498.68 2433.34 1565.98 1276.49 58.48 6.00
   04:19:53.250.02-Jul-2020 498.88 2512.70 1565.98 1276.49 58.48 6.00
   04:19:53.450.02-Jul-2020 499.08 2593.17 1565.98 1276.49 58.48 6.00
   04:19:53.651.02-Jul-2020 499.28 2593.17 1565.98 1276.49 58.48 6.00
   04:19:53.851.02-Jul-2020 499.48 2834.20 1565.98 1276.49 58.48 6.00
   04:19:54.051.02-Jul-2020 499.68 2869.47 1565.98 1276.49 58.48 6.00
   04:19:54.251.02-Jul-2020 499.88 2890.06 1565.98 1276.49 58.48 6.00
   04:19:54.451.02-Jul-2020 500.08 2938.08 1565.98 1276.49 58.48 6.00
   04:19:54.651.02-Jul-2020 500.28 2877.73 1565.98 1276.49 58.48 6.00
   04:19:54.851.02-Jul-2020 500.48 2698.57 1565.98 1276.49 58.48 6.00
   04:19:55.051.02-Jul-2020 500.68 2697.56 1565.98 1276.49 58.48 6.00
   04:19:55.251.02-Jul-2020 500.88 2697.67 1565.98 1276.49 58.48 6.00
   04:19:55.451.02-Jul-2020 501.08 2696.71 1565.98 1276.49 58.48 6.00
   04:19:55.651.02-Jul-2020 501.28 2696.71 1565.98 1276.49 58.48 6.00
   04:19:55.851.02-Jul-2020 501.48 2697.58 1565.98 1276.49 58.48 6.00
   04:19:56.051.02-Jul-2020 501.68 2698.13 1565.98 1276.49 58.48 6.00
   04:19:56.251.02-Jul-2020 501.88 2697.89 1565.98 1276.49 58.48 6.00
   04:19:56.451.02-Jul-2020 502.08 2698.43 1565.98 1276.49 58.48 6.00
   04:19:56.651.02-Jul-2020 502.28 2698.43 1565.98 1276.49 58.48 6.00
   04:19:56.851.02-Jul-2020 502.48 2697.65 1565.98 1276.49 58.48 6.00
   04:19:57.051.02-Jul-2020 502.68 2697.77 1565.98 1276.49 58.48 6.00
   04:19:57.251.02-Jul-2020 502.88 2697.90 1565.98 1276.49 58.48 6.00
   04:19:57.451.02-Jul-2020 503.08 2697.69 1565.98 1276.49 58.48 6.00
   04:19:57.651.02-Jul-2020 503.28 2697.69 1565.98 1276.49 58.48 6.00
   04:19:57.851.02-Jul-2020 503.48 2697.86 1565.98 1276.49 58.48 6.00
   04:19:58.051.02-Jul-2020 503.68 2697.26 1565.98 1276.49 58.49 6.00
   04:19:58.251.02-Jul-2020 503.88 2697.73 1565.98 1276.49 58.49 6.00
   04:19:58.451.02-Jul-2020 504.08 2697.86 1565.98 1276.49 58.49 6.00
   04:19:58.651.02-Jul-2020 504.28 2698.13 1565.98 1276.49 58.49 6.00
   04:19:58.851.02-Jul-2020 504.48 2698.31 1565.98 1276.49 58.49 6.00
   04:19:59.051.02-Jul-2020 504.68 2697.58 1565.98 1276.49 58.49 6.00
   04:19:59.251.02-Jul-2020 504.88 2697.74 1565.98 1276.49 58.49 6.00
   04:19:59.451.02-Jul-2020 505.08 2698.63 1565.98 1276.49 58.49 6.00
   04:19:59.651.02-Jul-2020 505.28 2698.43 1565.98 1276.49 58.49 6.00
   04:19:59.851.02-Jul-2020 505.48 2698.46 1565.98 1276.49 58.49 6.00
   04:20:00.052.02-Jul-2020 505.68 2698.64 1565.98 1276.49 58.49 6.00
   04:20:00.252.02-Jul-2020 505.88 2698.16 1565.98 1276.49 58.49 6.00
