~Version Information
 VERS.                  2.0:   CWLS log ASCII Standard -VERSION 2.0
 WRAP.                   NO:   One line per depth step
~Well Information Block
#MNEM.UNIT     VALUE/NAME     DESCRIPTION
#---------     -----------    ---------------------------
 STRT.S             23:54:17 02-Jul-20: START TIME 23:54:17 02-Jul-20
 STOP.S             00:03:12 03-Jul-20: STOP TIME  00:03:12 03-Jul-20
 STEP.S                   0.00: STEP TIME
 NULL.                 -999.25: NULL VALUE
 DFWT.                        :  DIST FWL TEXT
 DFST.                        :  DIST FSL TEXT
 DMF .             Drill Floor:  DRILL MEAS FROM
 STIM.      09.59.28 01-Jun-20:  START TIME
 DATE.      09.59.28 01-Jun-20:  END TIME
 SPUD.               01-Jun-20:  SPUD DATE
 NREF.                    Grid:  NORTH REFERENCE
 HPTY.       Minimum Curvature:  HOLE POS TYPE
 DMOD.             Drill Model:  DRILL MOD DESC
 SVYD.                  Survey:  SURVEY DESC
 ILTD.               Lithology:  INTERP LTH DESC
 FTOP.          Formation Tops:  FORM TOPS DESC
 SON .        AZ-XX-0905455768:  JOB NUMBER
 WTYP.                Deviated:  WELL TYPE
 COMP.     BP Exploration(Caspian Sea):  COMPANY
 BASE.              Azerbaijan:  LOGGING EQUIPMENT BASE LOCATION
 REGN.                   EESSA:  REGION
 CTRY.              Azerbaijan:  COUNTRY NAME
 FLD .                     ACG:  FIELD NAME
 SRVC.          Turan Drilling:  CONTRACTOR
 WELL.                     B41:  WELL NAME
 RIG .           Central Azeri:  RIG NAME
 DCON.         Sperry Drilling:  DIRECTNL CONTR
 PDAT.          Mean Sea Level:  PERMANENT DATUM
 MDS .        Operator Entered:  MAG DATA SOURCE
 API .                        :  API NUMBER
 CNTY.                        :  COUNTY
 PROV.                        :  PROVINCE
 STAT.                        :  STATE
 UWI .                        :  UNIQUE WELL IDENTIFIER
 LOC .                        :  LOCATION
 LMF .             Drill Floor:  LOG MEASURED FROM
 TVDS.m                  43.29:  TVDSS CORRECTN
 LATI.deg                40.03:  LATITUDE
 LONG.deg                51.35:  LONGITUDE
 WHNS.m                  12.98:  WELL HEAD N/S
 WHEW.m                  -6.62:  WELL HEAD E/W
 UTMX.m              530128.28:  UTM X
 UTMY.m             4433192.49:  UTM Y
 DFWL.m                   0.00:  DISTANCE FWL
 DFSL.m                   0.00:  DISTANCE FSL
 SDEP.m                 378.00:  START DEPTH
 TDD .m                   0.00:  TOTAL DEPTH (DRILLER)
 VSDR.deg               296.18:  VERT SEC DIRECT
 GVFD.g                   1.00:  GRAVITY FIELD
 MFLD.nT              50253.00:  MAGNETIC FIELD
 MDIP.deg                59.49:  MAGNETIC DIP
 MDEC.deg                 6.44:  MAGNETIC DECL
 GRDC.deg                 0.22:  GRID CORRECTION
 AZTC.deg                 6.22:  AZM TOTAL CORR
 EPD .m                   0.00:  ELEVATION
 EGL .m                   0.00:  GROUND ELEVATION
 WDMS.m                 128.20:  WD ELEV
 APD .m                  43.29:  DEPTH ABOVE PD
 AGAP.m                  43.29:  AIR GAP
 VSEW.m                  -6.62:  VERT SEC E/W
 VSNS.m                  12.98:  VERT SEC N/S
 EKB .m                  43.29:  KB ELEVATION
 EDF .m                  43.29:  DF ELEVATION
 TDL .m                1152.00:  TOTAL DEPTH (LOGGER)
 VSC .                       0:  VS TO CLOSURE
 MAGU.                 1848525:  MAGUTM CHECKSUM
~Parameter Information Block
#MNEM.UNIT       Value        Description
#---------     -----------    ---------------------------
 AV  .mps                 0.40:  Ann Velocity 
 AVMX.mps                 1.56:  Max Ann Veloc 
 AZIF.deg               300.46:  Azm, Final 
 BHAT.        Rotary Steerable:  BHA Type 
 BROT.°/30m               0.40:  Build Rotating 
 BS  .in                 17.50:  Bit Size 
 BSZ .in                 17.50:  Bit Size 
 BTPL.psig              300.00:  Bit Press Loss 
 CABU.                      No:  Customer Abuse 
 CGEO.          Parviz Guliyev:  Customer Geo 
 COMM.                     ägu:  Run Comments 1 
 TCS .hr                108.13:  Time Ciculation Ended 
 CV  .mps                 0.50:  Crit Velocity 
 CVMX.mps                 2.01:  Max Crit Veloc 
 DD1 .          Fariz Nahmatov:  Direct Drillr 1 
 DD2 .             Ehab Radwan:  Direct Drillr 2 
 DDSV.               Geo-Pilot:  DD Service 
 DEFF.%                  99.00:  % Det Eff 
 DLRX.°/30m               0.50:  Dogleg Rot Max 
 DLSO.°/30m               2.80:  Dogleg Oriented 
 DLSX.°/30m               3.90:  Dogleg Str Max 
 DRET.      09.30.04 03-Jul-20:  Drill End Time 
 DRST.      18.33.04 28-Jun-20:  Drill Start Tim 
 DTIM.hr                 55.83:  Time Drilling 
 EDEP.m                1952.00:  End Depth 
 ENG1.      Bakhtiyar Jabbarli:  Engineer 1 
 ENG2.         Farhad Orujzade:  Engineer 2 
 ENG3.          Rustam Safarov:  Engineer 3 
 ETIM.      01.33.04 04-Jul-20:  End Time 
 FLOI.gpm              1050.00:  Flow In 
 FLON.gpm               950.00:  Flow In Min 
 FLOS.cptm                0.10:  Fluid Loss 
 FLOX.gpm              1150.00:  Flow In Max 
 HFLO.                      No:  High Flow 
 HPRE.                      No:  High Pressure 
 HTEM.                      No:  High Temp 
 HYDO.m                   1.80:  Hydro Offset 
 IFIN.deg                75.26:  Inc, Final 
 IMAX.deg                75.38:  Inc Max 
 IMIN.deg                22.84:  Inc Min 
 IMND.m                 832.38:  Inc Min Depth 
 IMXD.m                1936.55:  Inc Max Depth 
 JARR.                      No:  Jarring 
 LETM.      17.40.00 04-Jul-20:  Log End Time 
 LOST.hr                     0:  Lost Rig Time 
 LSTM.      12.33.04 28-Jun-20:  Log Start Time 
 MDCL.ppm             49500.00:  Mud Chlorides 
 MDES.     Inversion Oil/Synthetic:  Mud Desc 
 DFD .sg                  1.46:  Mud Density 
 MDMN.sg                  1.46:  Dens Mud Min 
 MDMX.sg                  1.46:  Dens Mud Max 
 MOIL.                      70:  Run Mud Oil % 
 MOWR.                   70:30:  Run Mud OWR 
 MSND.                     0.5:  Run Mud Sand % 
 MSOL.                   19.89:  Run Mud Solids% 
 DFV .spqt               72.00:  Mud Viscosity 
 MWOD.in                  9.50:  MWD Tool OD 
 MWSI.                      No:  Serv Intrp, MWD 
 OTIM.hr                146.53:  Time Operating 
 PCON.           Look Like New:  Pad Condition 
 PMAX.psia             2900.00:  Press Op, Max 
 PV  .cP                 38.00:  Mud PV 
 RUN .                     600:  Run Number 
 ROPA.m/hr               22.00:  ROP Avg 
 ROPN.m/hr               10.00:  ROP Min 
 ROPX.m/hr              263.00:  ROP Max 
 RPMA.rpm               155.00:  RPM Surface Avg 
 RPMN.rpm               140.00:  RPM Surface Min 
 RPMX.rpm               160.00:  RPM Surface Max 
 RRUN.                    0600:  Rig Run Number 
 RTIM.hr                  5.00:  Time Reaming 
 SAZI.deg               300.08:  Azm, Start 
 SDEP.m                 800.00:  Start Depth 
 SIDD.                      No:  Serv Intrp, DD 
 SINC.deg                22.84:  Inc, Start 
 SPPA.psig             3000.00:  SPP Avg 
 SPPN.psig             1900.00:  SPP Min 
 SPPX.psig             3200.00:  SPP Max 
 STIM.      12.30.04 28-Jun-20:  Start Time 
 SVCS.                 DD, MWD:  Services 
 SVER.                    9.20:  Sperry Version 
 TDAT.m                1952.00:  Tot Depth Attmp 
 TDDF.                      No:  Trip for DD 
 TDLG.m                1152.00:  Tot Depth Loggd 
 TFF .                      No:  Trip for Fail 
 TQAA.f-kp                8.00:  Torque Abs Avg 
 TQAN.f-kp                5.00:  Torque Abs Min 
 TQAX.f-kp               14.00:  Torque Abs Max 
 TRRT.°/30m               0.50:  Turn Rotating 
 MRT .                  EWR-M5:  Maximum Recorded Temperature 
 TTMX.degC               69.00:  Max Tool Temp 
 VS01.                90610313:  Virtual Str1 SN 
 VS02.                90613431:  Virtual Str2 SN 
 VS03.                90615410:  Virtual Str3 SN 
 WBMN.klb                 6.00:  WOB Min 
 WITN.            Bruce Cheyne:  Customer Rep 
 WITN.             Ayaz Aliyev:  Customer Rep 2 
 WOBA.klb                 6.00:  WOB Avg 
 WOBX.klb                10.00:  WOB Max 
 YP  .lhf2               36.00:  Yield Point 
~Curve Information Block
#MNEM.UNIT                 API CODE     Curve Description
#---------               -----------    ---------------------------
 TIME.HHMMSS            00 000 000 000:  GT Time & Date
 GTET.sec               00 000 000 000:  GT Elapsed Test Time
 GTPQH.psia             00 000 000 000:  GT HR Quartz Pressure
 GTDEPTH.m              00 000 000 000:  GT Depth
 GTTVD.m                00 000 000 000:  GT True Vertical Depth
 GTTQ.degC              00 000 000 000:  GT Quartz Temperature
 GTTN.NONE              00 000 000 000:  GT Test Number
#Other Information
#
#WARRANTY: Halliburton will use its best efforts to furnish customers with 
#accurate information and interpretations that are part of, and incident to, the services 
#provided.  However, Halliburton cannot and does not warrant the accuracy 
#or correctness of such information and interpretations.  Under no circumstances should any 
#such information or interpretation be relied upon as the sole basis for any drilling, 
#completion, production, or financial decision or any procedure involving any risk to the 
#safety of any drilling venture, drilling rig or its crew or any other third party.  The 
#Customer has full responsibility for all drilling, completion and production operation.  
#Halliburton makes no representations or warranties, either expressed or 
#implied, including, but not limited to, the implied warranties of merchantability or fitness 
#for a particular purpose, with respect to the services rendered.  In no event will 
#Halliburton be liable for failure to obtain any particular results or for 
#any damages, including, but not limited to, indirect, special or consequential damages, 
#resulting from the use of any information or interpretation provided by Halliburton.
#
~A           TIME            GTET   GTPQH  GTDEPTH  GTTVD  GTTQ  GTTN 
# ...
   23:54:40.592.02-Jul-2020  23.00 2842.81 1828.92 1344.71 59.12 7.00
   23:54:40.792.02-Jul-2020  23.20 2842.81 1828.92 1344.71 59.12 7.00
   23:54:40.992.02-Jul-2020  23.40 2841.58 1828.92 1344.71 59.12 7.00
   23:54:41.192.02-Jul-2020  23.60 2842.55 1828.92 1344.71 59.12 7.00
   23:54:41.392.02-Jul-2020  23.80 2842.87 1828.92 1344.71 59.12 7.00
   23:54:41.592.02-Jul-2020  24.00 2843.23 1828.92 1344.71 59.12 7.00
   23:54:41.792.02-Jul-2020  24.20 2843.23 1828.92 1344.71 59.12 7.00
   23:54:41.992.02-Jul-2020  24.40 2842.61 1828.92 1344.71 59.12 7.00
   23:54:42.192.02-Jul-2020  24.60 2842.57 1828.92 1344.71 59.12 7.00
   23:54:42.392.02-Jul-2020  24.80 2842.43 1828.92 1344.71 59.12 7.00
   23:54:42.592.02-Jul-2020  25.00 2842.64 1828.92 1344.71 59.12 7.00
   23:54:42.792.02-Jul-2020  25.20 2842.64 1828.92 1344.71 59.12 7.00
   23:54:42.992.02-Jul-2020  25.40 2841.82 1828.92 1344.71 59.12 7.00
   23:54:43.192.02-Jul-2020  25.60 2841.52 1828.92 1344.71 59.12 7.00
   23:54:43.392.02-Jul-2020  25.80 2841.55 1828.92 1344.71 59.12 7.00
   23:54:43.592.02-Jul-2020  26.00 2841.41 1828.92 1344.71 59.12 7.00
   23:54:43.792.02-Jul-2020  26.20 2841.41 1828.92 1344.71 59.12 7.00
   23:54:43.992.02-Jul-2020  26.40 2840.65 1828.92 1344.71 59.12 7.00
   23:54:44.192.02-Jul-2020  26.60 2841.05 1828.92 1344.71 59.12 7.00
   23:54:44.392.02-Jul-2020  26.80 2840.57 1828.92 1344.71 59.12 7.00
   23:54:44.592.02-Jul-2020  27.00 2839.38 1828.92 1344.71 59.12 7.00
   23:54:44.792.02-Jul-2020  27.20 2839.71 1828.92 1344.71 59.12 7.00
   23:54:44.992.02-Jul-2020  27.40 2840.53 1828.92 1344.71 59.12 7.00
   23:54:45.192.02-Jul-2020  27.60 2840.82 1828.92 1344.71 59.12 7.00
   23:54:45.392.02-Jul-2020  27.80 2840.93 1828.92 1344.71 59.12 7.00
   23:54:45.592.02-Jul-2020  28.00 2840.88 1828.92 1344.71 59.12 7.00
   23:54:45.792.02-Jul-2020  28.20 2840.82 1828.92 1344.71 59.11 7.00
   23:54:45.993.02-Jul-2020  28.40 2840.93 1828.92 1344.71 59.11 7.00
   23:54:46.193.02-Jul-2020  28.60 2841.01 1828.92 1344.71 59.11 7.00
   23:54:46.393.02-Jul-2020  28.80 2841.06 1828.92 1344.71 59.11 7.00
   23:54:46.593.02-Jul-2020  29.00 2840.90 1828.92 1344.71 59.11 7.00
   23:54:46.793.02-Jul-2020  29.20 2840.90 1828.92 1344.71 59.11 7.00
   23:54:46.993.02-Jul-2020  29.40 2840.29 1828.92 1344.71 59.11 7.00
   23:54:47.193.02-Jul-2020  29.60 2839.49 1828.92 1344.71 59.11 7.00
   23:54:47.393.02-Jul-2020  29.80 2840.47 1828.92 1344.71 59.11 7.00
   23:54:47.593.02-Jul-2020  30.00 2840.43 1828.92 1344.71 59.11 7.00
   23:54:47.793.02-Jul-2020  30.20 2840.46 1828.92 1344.71 59.11 7.00
   23:54:47.993.02-Jul-2020  30.40 2839.25 1828.92 1344.71 59.11 7.00
   23:54:48.193.02-Jul-2020  30.60 2840.03 1828.92 1344.71 59.11 7.00
   23:54:48.393.02-Jul-2020  30.80 2840.44 1828.92 1344.71 59.11 7.00
   23:54:48.593.02-Jul-2020  31.00 2840.41 1828.92 1344.71 59.11 7.00
   23:54:48.793.02-Jul-2020  31.20 2840.68 1828.92 1344.71 59.11 7.00
   23:54:48.993.02-Jul-2020  31.40 2840.10 1828.92 1344.71 59.11 7.00
   23:54:49.193.02-Jul-2020  31.60 2841.23 1828.92 1344.71 59.11 7.00
   23:54:49.393.02-Jul-2020  31.80 2841.37 1828.92 1344.71 59.11 7.00
   23:54:49.593.02-Jul-2020  32.00 2841.58 1828.92 1344.71 59.11 7.00
   23:54:49.793.02-Jul-2020  32.20 2841.58 1828.92 1344.71 59.11 7.00
   23:54:49.993.02-Jul-2020  32.40 2841.54 1828.92 1344.71 59.11 7.00
   23:54:50.193.02-Jul-2020  32.60 2842.26 1828.92 1344.71 59.11 7.00
   23:54:50.393.02-Jul-2020  32.80 2842.03 1828.92 1344.71 59.11 7.00
   23:54:50.593.02-Jul-2020  33.00 2841.82 1828.92 1344.71 59.11 7.00
   23:54:50.793.02-Jul-2020  33.20 2842.08 1828.92 1344.71 59.11 7.00
   23:54:50.993.02-Jul-2020  33.40 2841.83 1828.92 1344.71 59.11 7.00
   23:54:51.193.02-Jul-2020  33.60 2841.79 1828.92 1344.71 59.11 7.00
   23:54:51.393.02-Jul-2020  33.80 2841.82 1828.92 1344.71 59.11 7.00
   23:54:51.593.02-Jul-2020  34.00 2841.97 1828.92 1344.71 59.11 7.00
   23:54:51.793.02-Jul-2020  34.20 2841.97 1828.92 1344.71 59.11 7.00
   23:54:51.993.02-Jul-2020  34.40 2841.72 1828.92 1344.71 59.11 7.00
   23:54:52.193.02-Jul-2020  34.60 2842.06 1828.92 1344.71 59.11 7.00
   23:54:52.393.02-Jul-2020  34.80 2842.25 1828.92 1344.71 59.11 7.00
   23:54:52.593.02-Jul-2020  35.00 2842.15 1828.92 1344.71 59.11 7.00
   23:54:52.793.02-Jul-2020  35.20 2842.04 1828.92 1344.71 59.11 7.00
   23:54:52.993.02-Jul-2020  35.40 2842.13 1828.92 1344.71 59.11 7.00
   23:54:53.193.02-Jul-2020  35.60 2842.36 1828.92 1344.71 59.11 7.00
   23:54:53.394.02-Jul-2020  35.80 2842.35 1828.92 1344.71 59.11 7.00
   23:54:53.594.02-Jul-2020  36.00 2841.27 1828.92 1344.71 59.11 7.00
   23:54:53.794.02-Jul-2020  36.20 2841.27 1828.92 1344.71 59.11 7.00
   23:54:53.994.02-Jul-2020  36.40 2842.34 1828.92 1344.71 59.11 7.00
   23:54:54.194.02-Jul-2020  36.60 2842.52 1828.92 1344.71 59.11 7.00
   23:54:54.394.02-Jul-2020  36.81 2842.50 1828.92 1344.71 59.11 7.00
   23:54:54.594.02-Jul-2020  37.01 2842.22 1828.92 1344.71 59.11 7.00
   23:54:54.794.02-Jul-2020  37.21 2842.07 1828.92 1344.71 59.11 7.00
   23:54:54.994.02-Jul-2020  37.41 2842.00 1828.92 1344.71 59.11 7.00
   23:54:55.194.02-Jul-2020  37.61 2842.05 1828.92 1344.71 59.11 7.00
   23:54:55.394.02-Jul-2020  37.81 2841.88 1828.92 1344.71 59.11 7.00
   23:54:55.594.02-Jul-2020  38.01 2841.69 1828.92 1344.71 59.11 7.00
   23:54:55.794.02-Jul-2020  38.21 2841.69 1828.92 1344.71 59.11 7.00
   23:54:55.994.02-Jul-2020  38.41 2841.61 1828.92 1344.71 59.11 7.00
   23:54:56.194.02-Jul-2020  38.61 2841.59 1828.92 1344.71 59.11 7.00
   23:54:56.394.02-Jul-2020  38.81 2841.46 1828.92 1344.71 59.11 7.00
   23:54:56.594.02-Jul-2020  39.01 2841.37 1828.92 1344.71 59.11 7.00
   23:54:56.794.02-Jul-2020  39.21 2841.37 1828.92 1344.71 59.11 7.00
   23:54:56.994.02-Jul-2020  39.41 2841.09 1828.92 1344.71 59.11 7.00
   23:54:57.194.02-Jul-2020  39.61 2841.09 1828.92 1344.71 59.11 7.00
   23:54:57.394.02-Jul-2020  39.81 2839.77 1828.92 1344.71 59.11 7.00
   23:54:57.594.02-Jul-2020  40.01 2840.45 1828.92 1344.71 59.11 7.00
   23:54:57.794.02-Jul-2020  40.21 2840.45 1828.92 1344.71 59.11 7.00
   23:54:57.994.02-Jul-2020  40.41 2840.93 1828.92 1344.71 59.11 7.00
   23:54:58.194.02-Jul-2020  40.61 2840.90 1828.92 1344.71 59.11 7.00
   23:54:58.394.02-Jul-2020  40.81 2839.76 1828.92 1344.71 59.11 7.00
   23:54:58.594.02-Jul-2020  41.01 2840.32 1828.92 1344.71 59.11 7.00
   23:54:58.794.02-Jul-2020  41.21 2840.32 1828.92 1344.71 59.11 7.00
   23:54:58.994.02-Jul-2020  41.41 2840.91 1828.92 1344.71 59.11 7.00
   23:54:59.194.02-Jul-2020  41.61 2840.89 1828.92 1344.71 59.11 7.00
   23:54:59.394.02-Jul-2020  41.81 2839.44 1828.92 1344.71 59.11 7.00
   23:54:59.594.02-Jul-2020  42.01 2840.39 1828.92 1344.71 59.11 7.00
   23:54:59.794.02-Jul-2020  42.21 2840.39 1828.92 1344.71 59.11 7.00
   23:54:59.994.02-Jul-2020  42.41 2840.59 1828.92 1344.71 59.11 7.00
   23:55:00.194.02-Jul-2020  42.61 2839.68 1828.92 1344.71 59.11 7.00
   23:55:00.394.02-Jul-2020  42.81 2840.65 1828.92 1344.71 59.11 7.00
   23:55:00.595.02-Jul-2020  43.01 2840.82 1828.92 1344.71 59.11 7.00
   23:55:00.795.02-Jul-2020  43.21 2840.82 1828.92 1344.71 59.11 7.00
   23:55:00.995.02-Jul-2020  43.41 2839.79 1828.92 1344.71 59.11 7.00
   23:55:01.195.02-Jul-2020  43.61 2840.48 1828.92 1344.71 59.11 7.00
   23:55:01.395.02-Jul-2020  43.81 2840.72 1828.92 1344.71 59.10 7.00
   23:55:01.595.02-Jul-2020  44.01 2840.70 1828.92 1344.71 59.10 7.00
   23:55:01.795.02-Jul-2020  44.21 2840.70 1828.92 1344.71 59.10 7.00
   23:55:01.995.02-Jul-2020  44.41 2840.80 1828.92 1344.71 59.10 7.00
   23:55:02.195.02-Jul-2020  44.61 2840.15 1828.92 1344.71 59.10 7.00
   23:55:02.395.02-Jul-2020  44.81 2841.13 1828.92 1344.71 59.10 7.00
   23:55:02.595.02-Jul-2020  45.01 2841.51 1828.92 1344.71 59.10 7.00
   23:55:02.795.02-Jul-2020  45.21 2841.51 1828.92 1344.71 59.10 7.00
   23:55:02.995.02-Jul-2020  45.41 2841.81 1828.92 1344.71 59.10 7.00
   23:55:03.195.02-Jul-2020  45.61 2841.59 1828.92 1344.71 59.10 7.00
   23:55:03.395.02-Jul-2020  45.81 2841.68 1828.92 1344.71 59.10 7.00
