~Version Information
 VERS.                  2.0:   CWLS log ASCII Standard -VERSION 2.0
 WRAP.                   NO:   One line per depth step
~Well Information Block
#MNEM.UNIT     VALUE/NAME     DESCRIPTION
#---------     -----------    ---------------------------
 STRT.S             04:53:08 03-Jul-20: START TIME 04:53:08 03-Jul-20
 STOP.S             05:02:09 03-Jul-20: STOP TIME  05:02:09 03-Jul-20
 STEP.S                   0.00: STEP TIME
 NULL.                 -999.25: NULL VALUE
 DFWT.                        :  DIST FWL TEXT
 DFST.                        :  DIST FSL TEXT
 DMF .             Drill Floor:  DRILL MEAS FROM
 STIM.      09.59.28 01-Jun-20:  START TIME
 DATE.      09.59.28 01-Jun-20:  END TIME
 SPUD.               01-Jun-20:  SPUD DATE
 NREF.                    Grid:  NORTH REFERENCE
 HPTY.       Minimum Curvature:  HOLE POS TYPE
 DMOD.             Drill Model:  DRILL MOD DESC
 SVYD.                  Survey:  SURVEY DESC
 ILTD.               Lithology:  INTERP LTH DESC
 FTOP.          Formation Tops:  FORM TOPS DESC
 SON .        AZ-XX-0905455768:  JOB NUMBER
 WTYP.                Deviated:  WELL TYPE
 COMP.     BP Exploration(Caspian Sea):  COMPANY
 BASE.              Azerbaijan:  LOGGING EQUIPMENT BASE LOCATION
 REGN.                   EESSA:  REGION
 CTRY.              Azerbaijan:  COUNTRY NAME
 FLD .                     ACG:  FIELD NAME
 SRVC.          Turan Drilling:  CONTRACTOR
 WELL.                     B41:  WELL NAME
 RIG .           Central Azeri:  RIG NAME
 DCON.         Sperry Drilling:  DIRECTNL CONTR
 PDAT.          Mean Sea Level:  PERMANENT DATUM
 MDS .        Operator Entered:  MAG DATA SOURCE
 API .                        :  API NUMBER
 CNTY.                        :  COUNTY
 PROV.                        :  PROVINCE
 STAT.                        :  STATE
 UWI .                        :  UNIQUE WELL IDENTIFIER
 LOC .                        :  LOCATION
 LMF .             Drill Floor:  LOG MEASURED FROM
 TVDS.m                  43.29:  TVDSS CORRECTN
 LATI.deg                40.03:  LATITUDE
 LONG.deg                51.35:  LONGITUDE
 WHNS.m                  12.98:  WELL HEAD N/S
 WHEW.m                  -6.62:  WELL HEAD E/W
 UTMX.m              530128.28:  UTM X
 UTMY.m             4433192.49:  UTM Y
 DFWL.m                   0.00:  DISTANCE FWL
 DFSL.m                   0.00:  DISTANCE FSL
 SDEP.m                 378.00:  START DEPTH
 TDD .m                   0.00:  TOTAL DEPTH (DRILLER)
 VSDR.deg               296.18:  VERT SEC DIRECT
 GVFD.g                   1.00:  GRAVITY FIELD
 MFLD.nT              50253.00:  MAGNETIC FIELD
 MDIP.deg                59.49:  MAGNETIC DIP
 MDEC.deg                 6.44:  MAGNETIC DECL
 GRDC.deg                 0.22:  GRID CORRECTION
 AZTC.deg                 6.22:  AZM TOTAL CORR
 EPD .m                   0.00:  ELEVATION
 EGL .m                   0.00:  GROUND ELEVATION
 WDMS.m                 128.20:  WD ELEV
 APD .m                  43.29:  DEPTH ABOVE PD
 AGAP.m                  43.29:  AIR GAP
 VSEW.m                  -6.62:  VERT SEC E/W
 VSNS.m                  12.98:  VERT SEC N/S
 EKB .m                  43.29:  KB ELEVATION
 EDF .m                  43.29:  DF ELEVATION
 TDL .m                1152.00:  TOTAL DEPTH (LOGGER)
 VSC .                       0:  VS TO CLOSURE
 MAGU.                 1848525:  MAGUTM CHECKSUM
~Parameter Information Block
#MNEM.UNIT       Value        Description
#---------     -----------    ---------------------------
 AV  .mps                 0.40:  Ann Velocity 
 AVMX.mps                 1.56:  Max Ann Veloc 
 AZIF.deg               300.46:  Azm, Final 
 BHAT.        Rotary Steerable:  BHA Type 
 BROT.°/30m               0.40:  Build Rotating 
 BS  .in                 17.50:  Bit Size 
 BSZ .in                 17.50:  Bit Size 
 BTPL.psig              300.00:  Bit Press Loss 
 CABU.                      No:  Customer Abuse 
 CGEO.          Parviz Guliyev:  Customer Geo 
 COMM.                     D‘]:  Run Comments 1 
 TCS .hr                108.13:  Time Ciculation Ended 
 CV  .mps                 0.50:  Crit Velocity 
 CVMX.mps                 2.01:  Max Crit Veloc 
 DD1 .          Fariz Nahmatov:  Direct Drillr 1 
 DD2 .             Ehab Radwan:  Direct Drillr 2 
 DDSV.               Geo-Pilot:  DD Service 
 DEFF.%                  99.00:  % Det Eff 
 DLRX.°/30m               0.50:  Dogleg Rot Max 
 DLSO.°/30m               2.80:  Dogleg Oriented 
 DLSX.°/30m               3.90:  Dogleg Str Max 
 DRET.      09.30.04 03-Jul-20:  Drill End Time 
 DRST.      18.33.04 28-Jun-20:  Drill Start Tim 
 DTIM.hr                 55.83:  Time Drilling 
 EDEP.m                1952.00:  End Depth 
 ENG1.      Bakhtiyar Jabbarli:  Engineer 1 
 ENG2.         Farhad Orujzade:  Engineer 2 
 ENG3.          Rustam Safarov:  Engineer 3 
 ETIM.      01.33.04 04-Jul-20:  End Time 
 FLOI.gpm              1050.00:  Flow In 
 FLON.gpm               950.00:  Flow In Min 
 FLOS.cptm                0.10:  Fluid Loss 
 FLOX.gpm              1150.00:  Flow In Max 
 HFLO.                      No:  High Flow 
 HPRE.                      No:  High Pressure 
 HTEM.                      No:  High Temp 
 HYDO.m                   1.80:  Hydro Offset 
 IFIN.deg                75.26:  Inc, Final 
 IMAX.deg                75.38:  Inc Max 
 IMIN.deg                22.84:  Inc Min 
 IMND.m                 832.38:  Inc Min Depth 
 IMXD.m                1936.55:  Inc Max Depth 
 JARR.                      No:  Jarring 
 LETM.      17.40.00 04-Jul-20:  Log End Time 
 LOST.hr                     0:  Lost Rig Time 
 LSTM.      12.33.04 28-Jun-20:  Log Start Time 
 MDCL.ppm             49500.00:  Mud Chlorides 
 MDES.     Inversion Oil/Synthetic:  Mud Desc 
 DFD .sg                  1.46:  Mud Density 
 MDMN.sg                  1.46:  Dens Mud Min 
 MDMX.sg                  1.46:  Dens Mud Max 
 MOIL.                      70:  Run Mud Oil % 
 MOWR.                   70:30:  Run Mud OWR 
 MSND.                     0.5:  Run Mud Sand % 
 MSOL.                   19.89:  Run Mud Solids% 
 DFV .spqt               72.00:  Mud Viscosity 
 MWOD.in                  9.50:  MWD Tool OD 
 MWSI.                      No:  Serv Intrp, MWD 
 OTIM.hr                146.53:  Time Operating 
 PCON.           Look Like New:  Pad Condition 
 PMAX.psia             2900.00:  Press Op, Max 
 PV  .cP                 38.00:  Mud PV 
 RUN .                     600:  Run Number 
 ROPA.m/hr               22.00:  ROP Avg 
 ROPN.m/hr               10.00:  ROP Min 
 ROPX.m/hr              263.00:  ROP Max 
 RPMA.rpm               155.00:  RPM Surface Avg 
 RPMN.rpm               140.00:  RPM Surface Min 
 RPMX.rpm               160.00:  RPM Surface Max 
 RRUN.                    0600:  Rig Run Number 
 RTIM.hr                  5.00:  Time Reaming 
 SAZI.deg               300.08:  Azm, Start 
 SDEP.m                 800.00:  Start Depth 
 SIDD.                      No:  Serv Intrp, DD 
 SINC.deg                22.84:  Inc, Start 
 SPPA.psig             3000.00:  SPP Avg 
 SPPN.psig             1900.00:  SPP Min 
 SPPX.psig             3200.00:  SPP Max 
 STIM.      12.30.04 28-Jun-20:  Start Time 
 SVCS.                 DD, MWD:  Services 
 SVER.                    9.20:  Sperry Version 
 TDAT.m                1952.00:  Tot Depth Attmp 
 TDDF.                      No:  Trip for DD 
 TDLG.m                1152.00:  Tot Depth Loggd 
 TFF .                      No:  Trip for Fail 
 TQAA.f-kp                8.00:  Torque Abs Avg 
 TQAN.f-kp                5.00:  Torque Abs Min 
 TQAX.f-kp               14.00:  Torque Abs Max 
 TRRT.°/30m               0.50:  Turn Rotating 
 MRT .                  EWR-M5:  Maximum Recorded Temperature 
 TTMX.degC               69.00:  Max Tool Temp 
 VS01.                90610313:  Virtual Str1 SN 
 VS02.                90613431:  Virtual Str2 SN 
 VS03.                90615410:  Virtual Str3 SN 
 WBMN.klb                 6.00:  WOB Min 
 WITN.            Bruce Cheyne:  Customer Rep 
 WITN.             Ayaz Aliyev:  Customer Rep 2 
 WOBA.klb                 6.00:  WOB Avg 
 WOBX.klb                10.00:  WOB Max 
 YP  .lhf2               36.00:  Yield Point 
~Curve Information Block
#MNEM.UNIT                 API CODE     Curve Description
#---------               -----------    ---------------------------
 TIME.HHMMSS            00 000 000 000:  GT Time & Date
 GTET.sec               00 000 000 000:  GT Elapsed Test Time
 GTPQH.psia             00 000 000 000:  GT HR Quartz Pressure
 GTDEPTH.m              00 000 000 000:  GT Depth
 GTTVD.m                00 000 000 000:  GT True Vertical Depth
 GTTQ.degC              00 000 000 000:  GT Quartz Temperature
 GTTN.NONE              00 000 000 000:  GT Test Number
#Other Information
#
#WARRANTY: Halliburton will use its best efforts to furnish customers with 
#accurate information and interpretations that are part of, and incident to, the services 
#provided.  However, Halliburton cannot and does not warrant the accuracy 
#or correctness of such information and interpretations.  Under no circumstances should any 
#such information or interpretation be relied upon as the sole basis for any drilling, 
#completion, production, or financial decision or any procedure involving any risk to the 
#safety of any drilling venture, drilling rig or its crew or any other third party.  The 
#Customer has full responsibility for all drilling, completion and production operation.  
#Halliburton makes no representations or warranties, either expressed or 
#implied, including, but not limited to, the implied warranties of merchantability or fitness 
#for a particular purpose, with respect to the services rendered.  In no event will 
#Halliburton be liable for failure to obtain any particular results or for 
#any damages, including, but not limited to, indirect, special or consequential damages, 
#resulting from the use of any information or interpretation provided by Halliburton.
#
~A           TIME            GTET   GTPQH  GTDEPTH  GTTVD  GTTQ  GTTN 
# ...
   05:00:48.000.03-Jul-2020 460.00 2525.76 1886.00 1359.43 58.99 8.00
   05:00:48.200.03-Jul-2020 460.20 2525.76 1886.00 1359.43 58.99 8.00
   05:00:48.400.03-Jul-2020 460.40 2525.77 1886.00 1359.43 58.99 8.00
   05:00:48.600.03-Jul-2020 460.60 2525.69 1886.00 1359.43 58.99 8.00
   05:00:48.800.03-Jul-2020 460.80 2525.80 1886.00 1359.43 58.99 8.00
   05:00:49.000.03-Jul-2020 461.00 2525.82 1886.00 1359.43 58.99 8.00
   05:00:49.200.03-Jul-2020 461.20 2525.82 1886.00 1359.43 58.99 8.00
   05:00:49.400.03-Jul-2020 461.40 2525.75 1886.00 1359.43 58.99 8.00
   05:00:49.600.03-Jul-2020 461.60 2525.71 1886.00 1359.43 58.99 8.00
   05:00:49.800.03-Jul-2020 461.80 2525.75 1886.00 1359.43 58.99 8.00
   05:00:50.000.03-Jul-2020 462.00 2525.77 1886.00 1359.43 58.99 8.00
   05:00:50.200.03-Jul-2020 462.20 2525.77 1886.00 1359.43 58.99 8.00
   05:00:50.400.03-Jul-2020 462.40 2525.80 1886.00 1359.43 58.99 8.00
   05:00:50.600.03-Jul-2020 462.60 2525.78 1886.00 1359.43 58.99 8.00
   05:00:50.800.03-Jul-2020 462.80 2525.77 1886.00 1359.43 58.99 8.00
   05:00:51.000.03-Jul-2020 463.00 2525.77 1886.00 1359.43 58.99 8.00
   05:00:51.200.03-Jul-2020 463.20 2525.77 1886.00 1359.43 58.99 8.00
   05:00:51.400.03-Jul-2020 463.40 2525.78 1886.00 1359.43 58.99 8.00
   05:00:51.600.03-Jul-2020 463.60 2525.79 1886.00 1359.43 58.99 8.00
   05:00:51.800.03-Jul-2020 463.80 2525.78 1886.00 1359.43 58.99 8.00
   05:00:52.000.03-Jul-2020 464.00 2525.78 1886.00 1359.43 58.99 8.00
   05:00:52.200.03-Jul-2020 464.20 2525.78 1886.00 1359.43 58.99 8.00
   05:00:52.400.03-Jul-2020 464.40 2525.80 1886.00 1359.43 58.99 8.00
   05:00:52.600.03-Jul-2020 464.60 2525.81 1886.00 1359.43 58.99 8.00
   05:00:52.800.03-Jul-2020 464.80 2525.78 1886.00 1359.43 58.99 8.00
   05:00:53.000.03-Jul-2020 465.00 2525.78 1886.00 1359.43 58.99 8.00
   05:00:53.200.03-Jul-2020 465.20 2525.78 1886.00 1359.43 58.99 8.00
   05:00:53.400.03-Jul-2020 465.40 2525.67 1886.00 1359.43 58.99 8.00
   05:00:53.600.03-Jul-2020 465.60 2525.78 1886.00 1359.43 58.99 8.00
   05:00:53.800.03-Jul-2020 465.80 2525.84 1886.00 1359.43 58.99 8.00
   05:00:54.000.03-Jul-2020 466.00 2525.79 1886.00 1359.43 58.99 8.00
   05:00:54.200.03-Jul-2020 466.20 2525.79 1886.00 1359.43 58.99 8.00
   05:00:54.400.03-Jul-2020 466.40 2525.78 1886.00 1359.43 58.99 8.00
   05:00:54.600.03-Jul-2020 466.60 2525.79 1886.00 1359.43 58.99 8.00
   05:00:54.800.03-Jul-2020 466.80 2525.79 1886.00 1359.43 58.99 8.00
   05:00:55.000.03-Jul-2020 467.00 2525.81 1886.00 1359.43 58.99 8.00
   05:00:55.200.03-Jul-2020 467.20 2525.81 1886.00 1359.43 58.99 8.00
   05:00:55.400.03-Jul-2020 467.40 2525.81 1886.00 1359.43 58.99 8.00
   05:00:55.600.03-Jul-2020 467.60 2525.80 1886.00 1359.43 58.99 8.00
   05:00:55.800.03-Jul-2020 467.80 2525.65 1886.00 1359.43 58.99 8.00
   05:00:56.000.03-Jul-2020 468.00 2525.81 1886.00 1359.43 58.99 8.00
   05:00:56.200.03-Jul-2020 468.20 2525.81 1886.00 1359.43 58.99 8.00
   05:00:56.400.03-Jul-2020 468.40 2525.78 1886.00 1359.43 58.99 8.00
   05:00:56.600.03-Jul-2020 468.60 2525.80 1886.00 1359.43 58.99 8.00
   05:00:56.800.03-Jul-2020 468.80 2525.80 1886.00 1359.43 58.99 8.00
   05:00:57.000.03-Jul-2020 469.00 2525.77 1886.00 1359.43 58.99 8.00
   05:00:57.200.03-Jul-2020 469.20 2525.77 1886.00 1359.43 58.99 8.00
   05:00:57.400.03-Jul-2020 469.40 2525.75 1886.00 1359.43 58.99 8.00
   05:00:57.600.03-Jul-2020 469.60 2525.78 1886.00 1359.43 58.99 8.00
   05:00:57.800.03-Jul-2020 469.80 2525.78 1886.00 1359.43 58.99 8.00
   05:00:58.000.03-Jul-2020 470.00 2525.81 1886.00 1359.43 58.99 8.00
   05:00:58.200.03-Jul-2020 470.20 2525.81 1886.00 1359.43 58.99 8.00
   05:00:58.400.03-Jul-2020 470.40 2525.79 1886.00 1359.43 58.99 8.00
   05:00:58.600.03-Jul-2020 470.60 2525.74 1886.00 1359.43 58.99 8.00
   05:00:58.800.03-Jul-2020 470.80 2525.81 1886.00 1359.43 58.99 8.00
   05:00:59.000.03-Jul-2020 471.00 2525.83 1886.00 1359.43 58.99 8.00
   05:00:59.200.03-Jul-2020 471.20 2525.83 1886.00 1359.43 58.99 8.00
   05:00:59.400.03-Jul-2020 471.40 2525.81 1886.00 1359.43 58.99 8.00
   05:00:59.600.03-Jul-2020 471.60 2525.79 1886.00 1359.43 58.99 8.00
   05:00:59.800.03-Jul-2020 471.80 2525.68 1886.00 1359.43 58.99 8.00
   05:01:00.000.03-Jul-2020 472.00 2525.80 1886.00 1359.43 58.99 8.00
   05:01:00.200.03-Jul-2020 472.20 2525.80 1886.00 1359.43 58.99 8.00
   05:01:00.400.03-Jul-2020 472.40 2525.80 1886.00 1359.43 58.99 8.00
   05:01:00.600.03-Jul-2020 472.60 2525.80 1886.00 1359.43 58.99 8.00
   05:01:00.800.03-Jul-2020 472.80 2525.81 1886.00 1359.43 58.99 8.00
   05:01:01.000.03-Jul-2020 473.00 2525.80 1886.00 1359.43 58.99 8.00
   05:01:01.200.03-Jul-2020 473.20 2525.80 1886.00 1359.43 58.99 8.00
   05:01:01.400.03-Jul-2020 473.40 2525.80 1886.00 1359.43 58.99 8.00
   05:01:01.600.03-Jul-2020 473.60 2525.81 1886.00 1359.43 58.99 8.00
   05:01:01.800.03-Jul-2020 473.80 2525.81 1886.00 1359.43 58.99 8.00
   05:01:02.000.03-Jul-2020 474.00 2525.80 1886.00 1359.43 58.99 8.00
   05:01:02.200.03-Jul-2020 474.20 2525.80 1886.00 1359.43 58.99 8.00
   05:01:02.400.03-Jul-2020 474.40 2525.81 1886.00 1359.43 58.99 8.00
   05:01:02.600.03-Jul-2020 474.60 2525.84 1886.00 1359.43 58.99 8.00
   05:01:02.800.03-Jul-2020 474.80 2525.83 1886.00 1359.43 58.99 8.00
   05:01:03.000.03-Jul-2020 475.00 2525.80 1886.00 1359.43 58.99 8.00
   05:01:03.200.03-Jul-2020 475.20 2525.80 1886.00 1359.43 58.99 8.00
   05:01:03.400.03-Jul-2020 475.40 2525.73 1886.00 1359.43 58.99 8.00
   05:01:03.600.03-Jul-2020 475.60 2525.77 1886.00 1359.43 58.99 8.00
   05:01:03.800.03-Jul-2020 475.80 2525.82 1886.00 1359.43 58.99 8.00
   05:01:04.000.03-Jul-2020 476.00 2525.82 1886.00 1359.43 58.99 8.00
   05:01:04.200.03-Jul-2020 476.20 2525.82 1886.00 1359.43 58.99 8.00
   05:01:04.400.03-Jul-2020 476.40 2525.81 1886.00 1359.43 58.99 8.00
   05:01:04.600.03-Jul-2020 476.60 2525.80 1886.00 1359.43 58.99 8.00
   05:01:04.800.03-Jul-2020 476.80 2525.81 1886.00 1359.43 58.99 8.00
   05:01:05.000.03-Jul-2020 477.00 2525.81 1886.00 1359.43 58.99 8.00
   05:01:05.200.03-Jul-2020 477.20 2525.81 1886.00 1359.43 58.99 8.00
   05:01:05.400.03-Jul-2020 477.40 2525.83 1886.00 1359.43 58.99 8.00
   05:01:05.600.03-Jul-2020 477.60 2525.82 1886.00 1359.43 58.99 8.00
   05:01:05.800.03-Jul-2020 477.80 2525.80 1886.00 1359.43 58.99 8.00
   05:01:06.000.03-Jul-2020 478.00 2525.76 1886.00 1359.43 58.99 8.00
   05:01:06.200.03-Jul-2020 478.20 2525.76 1886.00 1359.43 58.99 8.00
   05:01:06.400.03-Jul-2020 478.40 2525.81 1886.00 1359.43 58.99 8.00
   05:01:06.600.03-Jul-2020 478.60 2525.81 1886.00 1359.43 58.99 8.00
   05:01:06.800.03-Jul-2020 478.80 2525.83 1886.00 1359.43 58.99 8.00
   05:01:07.000.03-Jul-2020 479.00 2525.83 1886.00 1359.43 58.99 8.00
   05:01:07.200.03-Jul-2020 479.20 2525.83 1886.00 1359.43 58.99 8.00
   05:01:07.400.03-Jul-2020 479.40 2525.81 1886.00 1359.43 58.99 8.00
   05:01:07.600.03-Jul-2020 479.60 2525.85 1886.00 1359.43 58.99 8.00
   05:01:07.800.03-Jul-2020 479.80 2525.80 1886.00 1359.43 58.99 8.00
   05:01:08.000.03-Jul-2020 480.00 2525.84 1886.00 1359.43 58.99 8.00
   05:01:08.200.03-Jul-2020 480.20 2525.84 1886.00 1359.43 58.99 8.00
   05:01:08.400.03-Jul-2020 480.40 2525.81 1886.00 1359.43 58.99 8.00
   05:01:08.600.03-Jul-2020 480.60 2525.83 1886.00 1359.43 58.99 8.00
   05:01:08.800.03-Jul-2020 480.80 2525.73 1886.00 1359.43 58.99 8.00
   05:01:09.000.03-Jul-2020 481.00 2525.85 1886.00 1359.43 58.99 8.00
   05:01:09.200.03-Jul-2020 481.20 2525.85 1886.00 1359.43 58.99 8.00
   05:01:09.400.03-Jul-2020 481.40 2525.80 1886.00 1359.43 58.99 8.00
   05:01:09.600.03-Jul-2020 481.60 2525.80 1886.00 1359.43 58.99 8.00
   05:01:09.800.03-Jul-2020 481.80 2525.75 1886.00 1359.43 58.99 8.00
   05:01:10.000.03-Jul-2020 482.00 2525.80 1886.00 1359.43 58.99 8.00
   05:01:10.200.03-Jul-2020 482.20 2525.80 1886.00 1359.43 58.99 8.00
   05:01:10.400.03-Jul-2020 482.40 2525.83 1886.00 1359.43 58.99 8.00
   05:01:10.600.03-Jul-2020 482.60 2525.85 1886.00 1359.43 58.99 8.00
   05:01:10.800.03-Jul-2020 482.80 2525.83 1886.00 1359.43 58.99 8.00
