~Version Information
 VERS.                  2.0:   CWLS log ASCII Standard -VERSION 2.0
 WRAP.                   NO:   One line per depth step
~Well Information Block
#MNEM.UNIT     VALUE/NAME     DESCRIPTION
#---------     -----------    ---------------------------
 STRT.S             04:53:08 03-Jul-20: START TIME 04:53:08 03-Jul-20
 STOP.S             05:02:09 03-Jul-20: STOP TIME  05:02:09 03-Jul-20
 STEP.S                   0.00: STEP TIME
 NULL.                 -999.25: NULL VALUE
 DFWT.                        :  DIST FWL TEXT
 DFST.                        :  DIST FSL TEXT
 DMF .             Drill Floor:  DRILL MEAS FROM
 STIM.      09.59.28 01-Jun-20:  START TIME
 DATE.      09.59.28 01-Jun-20:  END TIME
 SPUD.               01-Jun-20:  SPUD DATE
 NREF.                    Grid:  NORTH REFERENCE
 HPTY.       Minimum Curvature:  HOLE POS TYPE
 DMOD.             Drill Model:  DRILL MOD DESC
 SVYD.                  Survey:  SURVEY DESC
 ILTD.               Lithology:  INTERP LTH DESC
 FTOP.          Formation Tops:  FORM TOPS DESC
 SON .        AZ-XX-0905455768:  JOB NUMBER
 WTYP.                Deviated:  WELL TYPE
 COMP.     BP Exploration(Caspian Sea):  COMPANY
 BASE.              Azerbaijan:  LOGGING EQUIPMENT BASE LOCATION
 REGN.                   EESSA:  REGION
 CTRY.              Azerbaijan:  COUNTRY NAME
 FLD .                     ACG:  FIELD NAME
 SRVC.          Turan Drilling:  CONTRACTOR
 WELL.                     B41:  WELL NAME
 RIG .           Central Azeri:  RIG NAME
 DCON.         Sperry Drilling:  DIRECTNL CONTR
 PDAT.          Mean Sea Level:  PERMANENT DATUM
 MDS .        Operator Entered:  MAG DATA SOURCE
 API .                        :  API NUMBER
 CNTY.                        :  COUNTY
 PROV.                        :  PROVINCE
 STAT.                        :  STATE
 UWI .                        :  UNIQUE WELL IDENTIFIER
 LOC .                        :  LOCATION
 LMF .             Drill Floor:  LOG MEASURED FROM
 TVDS.m                  43.29:  TVDSS CORRECTN
 LATI.deg                40.03:  LATITUDE
 LONG.deg                51.35:  LONGITUDE
 WHNS.m                  12.98:  WELL HEAD N/S
 WHEW.m                  -6.62:  WELL HEAD E/W
 UTMX.m              530128.28:  UTM X
 UTMY.m             4433192.49:  UTM Y
 DFWL.m                   0.00:  DISTANCE FWL
 DFSL.m                   0.00:  DISTANCE FSL
 SDEP.m                 378.00:  START DEPTH
 TDD .m                   0.00:  TOTAL DEPTH (DRILLER)
 VSDR.deg               296.18:  VERT SEC DIRECT
 GVFD.g                   1.00:  GRAVITY FIELD
 MFLD.nT              50253.00:  MAGNETIC FIELD
 MDIP.deg                59.49:  MAGNETIC DIP
 MDEC.deg                 6.44:  MAGNETIC DECL
 GRDC.deg                 0.22:  GRID CORRECTION
 AZTC.deg                 6.22:  AZM TOTAL CORR
 EPD .m                   0.00:  ELEVATION
 EGL .m                   0.00:  GROUND ELEVATION
 WDMS.m                 128.20:  WD ELEV
 APD .m                  43.29:  DEPTH ABOVE PD
 AGAP.m                  43.29:  AIR GAP
 VSEW.m                  -6.62:  VERT SEC E/W
 VSNS.m                  12.98:  VERT SEC N/S
 EKB .m                  43.29:  KB ELEVATION
 EDF .m                  43.29:  DF ELEVATION
 TDL .m                1152.00:  TOTAL DEPTH (LOGGER)
 VSC .                       0:  VS TO CLOSURE
 MAGU.                 1848525:  MAGUTM CHECKSUM
~Parameter Information Block
#MNEM.UNIT       Value        Description
#---------     -----------    ---------------------------
 AV  .mps                 0.40:  Ann Velocity 
 AVMX.mps                 1.56:  Max Ann Veloc 
 AZIF.deg               300.46:  Azm, Final 
 BHAT.        Rotary Steerable:  BHA Type 
 BROT.°/30m               0.40:  Build Rotating 
 BS  .in                 17.50:  Bit Size 
 BSZ .in                 17.50:  Bit Size 
 BTPL.psig              300.00:  Bit Press Loss 
 CABU.                      No:  Customer Abuse 
 CGEO.          Parviz Guliyev:  Customer Geo 
 COMM.                     D‘]:  Run Comments 1 
 TCS .hr                108.13:  Time Ciculation Ended 
 CV  .mps                 0.50:  Crit Velocity 
 CVMX.mps                 2.01:  Max Crit Veloc 
 DD1 .          Fariz Nahmatov:  Direct Drillr 1 
 DD2 .             Ehab Radwan:  Direct Drillr 2 
 DDSV.               Geo-Pilot:  DD Service 
 DEFF.%                  99.00:  % Det Eff 
 DLRX.°/30m               0.50:  Dogleg Rot Max 
 DLSO.°/30m               2.80:  Dogleg Oriented 
 DLSX.°/30m               3.90:  Dogleg Str Max 
 DRET.      09.30.04 03-Jul-20:  Drill End Time 
 DRST.      18.33.04 28-Jun-20:  Drill Start Tim 
 DTIM.hr                 55.83:  Time Drilling 
 EDEP.m                1952.00:  End Depth 
 ENG1.      Bakhtiyar Jabbarli:  Engineer 1 
 ENG2.         Farhad Orujzade:  Engineer 2 
 ENG3.          Rustam Safarov:  Engineer 3 
 ETIM.      01.33.04 04-Jul-20:  End Time 
 FLOI.gpm              1050.00:  Flow In 
 FLON.gpm               950.00:  Flow In Min 
 FLOS.cptm                0.10:  Fluid Loss 
 FLOX.gpm              1150.00:  Flow In Max 
 HFLO.                      No:  High Flow 
 HPRE.                      No:  High Pressure 
 HTEM.                      No:  High Temp 
 HYDO.m                   1.80:  Hydro Offset 
 IFIN.deg                75.26:  Inc, Final 
 IMAX.deg                75.38:  Inc Max 
 IMIN.deg                22.84:  Inc Min 
 IMND.m                 832.38:  Inc Min Depth 
 IMXD.m                1936.55:  Inc Max Depth 
 JARR.                      No:  Jarring 
 LETM.      17.40.00 04-Jul-20:  Log End Time 
 LOST.hr                     0:  Lost Rig Time 
 LSTM.      12.33.04 28-Jun-20:  Log Start Time 
 MDCL.ppm             49500.00:  Mud Chlorides 
 MDES.     Inversion Oil/Synthetic:  Mud Desc 
 DFD .sg                  1.46:  Mud Density 
 MDMN.sg                  1.46:  Dens Mud Min 
 MDMX.sg                  1.46:  Dens Mud Max 
 MOIL.                      70:  Run Mud Oil % 
 MOWR.                   70:30:  Run Mud OWR 
 MSND.                     0.5:  Run Mud Sand % 
 MSOL.                   19.89:  Run Mud Solids% 
 DFV .spqt               72.00:  Mud Viscosity 
 MWOD.in                  9.50:  MWD Tool OD 
 MWSI.                      No:  Serv Intrp, MWD 
 OTIM.hr                146.53:  Time Operating 
 PCON.           Look Like New:  Pad Condition 
 PMAX.psia             2900.00:  Press Op, Max 
 PV  .cP                 38.00:  Mud PV 
 RUN .                     600:  Run Number 
 ROPA.m/hr               22.00:  ROP Avg 
 ROPN.m/hr               10.00:  ROP Min 
 ROPX.m/hr              263.00:  ROP Max 
 RPMA.rpm               155.00:  RPM Surface Avg 
 RPMN.rpm               140.00:  RPM Surface Min 
 RPMX.rpm               160.00:  RPM Surface Max 
 RRUN.                    0600:  Rig Run Number 
 RTIM.hr                  5.00:  Time Reaming 
 SAZI.deg               300.08:  Azm, Start 
 SDEP.m                 800.00:  Start Depth 
 SIDD.                      No:  Serv Intrp, DD 
 SINC.deg                22.84:  Inc, Start 
 SPPA.psig             3000.00:  SPP Avg 
 SPPN.psig             1900.00:  SPP Min 
 SPPX.psig             3200.00:  SPP Max 
 STIM.      12.30.04 28-Jun-20:  Start Time 
 SVCS.                 DD, MWD:  Services 
 SVER.                    9.20:  Sperry Version 
 TDAT.m                1952.00:  Tot Depth Attmp 
 TDDF.                      No:  Trip for DD 
 TDLG.m                1152.00:  Tot Depth Loggd 
 TFF .                      No:  Trip for Fail 
 TQAA.f-kp                8.00:  Torque Abs Avg 
 TQAN.f-kp                5.00:  Torque Abs Min 
 TQAX.f-kp               14.00:  Torque Abs Max 
 TRRT.°/30m               0.50:  Turn Rotating 
 MRT .                  EWR-M5:  Maximum Recorded Temperature 
 TTMX.degC               69.00:  Max Tool Temp 
 VS01.                90610313:  Virtual Str1 SN 
 VS02.                90613431:  Virtual Str2 SN 
 VS03.                90615410:  Virtual Str3 SN 
 WBMN.klb                 6.00:  WOB Min 
 WITN.            Bruce Cheyne:  Customer Rep 
 WITN.             Ayaz Aliyev:  Customer Rep 2 
 WOBA.klb                 6.00:  WOB Avg 
 WOBX.klb                10.00:  WOB Max 
 YP  .lhf2               36.00:  Yield Point 
~Curve Information Block
#MNEM.UNIT                 API CODE     Curve Description
#---------               -----------    ---------------------------
 TIME.HHMMSS            00 000 000 000:  GT Time & Date
 GTET.sec               00 000 000 000:  GT Elapsed Test Time
 GTPQH.psia             00 000 000 000:  GT HR Quartz Pressure
 GTDEPTH.m              00 000 000 000:  GT Depth
 GTTVD.m                00 000 000 000:  GT True Vertical Depth
 GTTQ.degC              00 000 000 000:  GT Quartz Temperature
 GTTN.NONE              00 000 000 000:  GT Test Number
#Other Information
#
#WARRANTY: Halliburton will use its best efforts to furnish customers with 
#accurate information and interpretations that are part of, and incident to, the services 
#provided.  However, Halliburton cannot and does not warrant the accuracy 
#or correctness of such information and interpretations.  Under no circumstances should any 
#such information or interpretation be relied upon as the sole basis for any drilling, 
#completion, production, or financial decision or any procedure involving any risk to the 
#safety of any drilling venture, drilling rig or its crew or any other third party.  The 
#Customer has full responsibility for all drilling, completion and production operation.  
#Halliburton makes no representations or warranties, either expressed or 
#implied, including, but not limited to, the implied warranties of merchantability or fitness 
#for a particular purpose, with respect to the services rendered.  In no event will 
#Halliburton be liable for failure to obtain any particular results or for 
#any damages, including, but not limited to, indirect, special or consequential damages, 
#resulting from the use of any information or interpretation provided by Halliburton.
#
~A           TIME            GTET   GTPQH  GTDEPTH  GTTVD  GTTQ  GTTN 
# ...
   04:55:03.000.03-Jul-2020 115.00 2526.47 1886.00 1359.43 58.98 8.00
   04:55:03.200.03-Jul-2020 115.20 2526.52 1886.00 1359.43 58.98 8.00
   04:55:03.400.03-Jul-2020 115.40 2526.48 1886.00 1359.43 58.98 8.00
   04:55:03.600.03-Jul-2020 115.60 2526.52 1886.00 1359.43 58.98 8.00
   04:55:03.800.03-Jul-2020 115.80 2526.48 1886.00 1359.43 58.98 8.00
   04:55:04.000.03-Jul-2020 116.00 2526.47 1886.00 1359.43 58.98 8.00
   04:55:04.200.03-Jul-2020 116.20 2526.47 1886.00 1359.43 58.98 8.00
   04:55:04.400.03-Jul-2020 116.40 2526.51 1886.00 1359.43 58.98 8.00
   04:55:04.600.03-Jul-2020 116.60 2526.52 1886.00 1359.43 58.98 8.00
   04:55:04.800.03-Jul-2020 116.80 2526.52 1886.00 1359.43 58.98 8.00
   04:55:05.000.03-Jul-2020 117.00 2526.52 1886.00 1359.43 58.98 8.00
   04:55:05.200.03-Jul-2020 117.20 2526.52 1886.00 1359.43 58.98 8.00
   04:55:05.400.03-Jul-2020 117.40 2526.49 1886.00 1359.43 58.98 8.00
   04:55:05.600.03-Jul-2020 117.60 2526.48 1886.00 1359.43 58.98 8.00
   04:55:05.800.03-Jul-2020 117.80 2526.50 1886.00 1359.43 58.98 8.00
   04:55:06.000.03-Jul-2020 118.00 2526.52 1886.00 1359.43 58.98 8.00
   04:55:06.200.03-Jul-2020 118.20 2526.52 1886.00 1359.43 58.98 8.00
   04:55:06.400.03-Jul-2020 118.40 2526.51 1886.00 1359.43 58.98 8.00
   04:55:06.600.03-Jul-2020 118.60 2526.41 1886.00 1359.43 58.98 8.00
   04:55:06.800.03-Jul-2020 118.80 2526.50 1886.00 1359.43 58.98 8.00
   04:55:07.000.03-Jul-2020 119.00 2526.53 1886.00 1359.43 58.98 8.00
   04:55:07.200.03-Jul-2020 119.20 2526.51 1886.00 1359.43 58.98 8.00
   04:55:07.400.03-Jul-2020 119.40 2526.53 1886.00 1359.43 58.98 8.00
   04:55:07.600.03-Jul-2020 119.60 2526.51 1886.00 1359.43 58.98 8.00
   04:55:07.800.03-Jul-2020 119.80 2526.52 1886.00 1359.43 58.98 8.00
   04:55:08.000.03-Jul-2020 120.00 2526.52 1886.00 1359.43 58.98 8.00
   04:55:08.200.03-Jul-2020 120.20 2526.52 1886.00 1359.43 58.98 8.00
   04:55:08.400.03-Jul-2020 120.40 2526.52 1886.00 1359.43 58.98 8.00
   04:55:08.600.03-Jul-2020 120.60 2526.52 1886.00 1359.43 58.98 8.00
   04:55:08.800.03-Jul-2020 120.80 2526.49 1886.00 1359.43 58.98 8.00
   04:55:09.000.03-Jul-2020 121.00 2526.47 1886.00 1359.43 58.98 8.00
   04:55:09.200.03-Jul-2020 121.20 2526.47 1886.00 1359.43 58.98 8.00
   04:55:09.400.03-Jul-2020 121.40 2526.53 1886.00 1359.43 58.98 8.00
   04:55:09.600.03-Jul-2020 121.60 2526.52 1886.00 1359.43 58.98 8.00
   04:55:09.800.03-Jul-2020 121.80 2526.56 1886.00 1359.43 58.98 8.00
   04:55:10.000.03-Jul-2020 122.00 2526.56 1886.00 1359.43 58.98 8.00
   04:55:10.200.03-Jul-2020 122.20 2526.56 1886.00 1359.43 58.98 8.00
   04:55:10.400.03-Jul-2020 122.40 2526.53 1886.00 1359.43 58.98 8.00
   04:55:10.600.03-Jul-2020 122.60 2526.55 1886.00 1359.43 58.98 8.00
   04:55:10.800.03-Jul-2020 122.80 2526.55 1886.00 1359.43 58.98 8.00
   04:55:11.000.03-Jul-2020 123.00 2526.58 1886.00 1359.43 58.98 8.00
   04:55:11.200.03-Jul-2020 123.20 2526.58 1886.00 1359.43 58.98 8.00
   04:55:11.400.03-Jul-2020 123.40 2526.57 1886.00 1359.43 58.98 8.00
   04:55:11.600.03-Jul-2020 123.60 2526.58 1886.00 1359.43 58.98 8.00
   04:55:11.800.03-Jul-2020 123.80 2526.59 1886.00 1359.43 58.98 8.00
   04:55:12.000.03-Jul-2020 124.00 2526.61 1886.00 1359.43 58.98 8.00
   04:55:12.200.03-Jul-2020 124.20 2526.61 1886.00 1359.43 58.98 8.00
   04:55:12.400.03-Jul-2020 124.40 2526.60 1886.00 1359.43 58.98 8.00
   04:55:12.600.03-Jul-2020 124.60 2526.52 1886.00 1359.43 58.98 8.00
   04:55:12.800.03-Jul-2020 124.80 2526.59 1886.00 1359.43 58.98 8.00
   04:55:13.000.03-Jul-2020 125.00 2526.60 1886.00 1359.43 58.98 8.00
   04:55:13.200.03-Jul-2020 125.20 2526.60 1886.00 1359.43 58.98 8.00
   04:55:13.400.03-Jul-2020 125.40 2526.61 1886.00 1359.43 58.98 8.00
   04:55:13.600.03-Jul-2020 125.60 2526.60 1886.00 1359.43 58.98 8.00
   04:55:13.800.03-Jul-2020 125.80 2526.59 1886.00 1359.43 58.98 8.00
   04:55:14.000.03-Jul-2020 126.00 2526.57 1886.00 1359.43 58.98 8.00
   04:55:14.200.03-Jul-2020 126.20 2526.57 1886.00 1359.43 58.98 8.00
   04:55:14.400.03-Jul-2020 126.40 2526.60 1886.00 1359.43 58.98 8.00
   04:55:14.600.03-Jul-2020 126.60 2526.60 1886.00 1359.43 58.98 8.00
   04:55:14.800.03-Jul-2020 126.80 2526.58 1886.00 1359.43 58.98 8.00
   04:55:15.000.03-Jul-2020 127.00 2526.57 1886.00 1359.43 58.98 8.00
   04:55:15.200.03-Jul-2020 127.20 2526.57 1886.00 1359.43 58.98 8.00
   04:55:15.400.03-Jul-2020 127.40 2526.58 1886.00 1359.43 58.98 8.00
   04:55:15.600.03-Jul-2020 127.60 2526.59 1886.00 1359.43 58.98 8.00
   04:55:15.800.03-Jul-2020 127.80 2526.62 1886.00 1359.43 58.98 8.00
   04:55:16.000.03-Jul-2020 128.00 2526.65 1886.00 1359.43 58.98 8.00
   04:55:16.200.03-Jul-2020 128.20 2526.65 1886.00 1359.43 58.98 8.00
   04:55:16.400.03-Jul-2020 128.40 2526.66 1886.00 1359.43 58.98 8.00
   04:55:16.600.03-Jul-2020 128.60 2526.70 1886.00 1359.43 58.98 8.00
   04:55:16.800.03-Jul-2020 128.80 2526.76 1886.00 1359.43 58.98 8.00
   04:55:17.000.03-Jul-2020 129.00 2526.77 1886.00 1359.43 58.98 8.00
   04:55:17.200.03-Jul-2020 129.20 2526.77 1886.00 1359.43 58.98 8.00
   04:55:17.400.03-Jul-2020 129.40 2526.81 1886.00 1359.43 58.98 8.00
   04:55:17.600.03-Jul-2020 129.60 2526.84 1886.00 1359.43 58.98 8.00
   04:55:17.800.03-Jul-2020 129.80 2526.85 1886.00 1359.43 58.98 8.00
   04:55:18.000.03-Jul-2020 130.00 2526.85 1886.00 1359.43 58.98 8.00
   04:55:18.200.03-Jul-2020 130.20 2526.85 1886.00 1359.43 58.98 8.00
   04:55:18.400.03-Jul-2020 130.40 2526.84 1886.00 1359.43 58.98 8.00
   04:55:18.600.03-Jul-2020 130.60 2526.85 1886.00 1359.43 58.98 8.00
   04:55:18.800.03-Jul-2020 130.80 2526.90 1886.00 1359.43 58.98 8.00
   04:55:19.000.03-Jul-2020 131.00 2526.89 1886.00 1359.43 58.98 8.00
   04:55:19.200.03-Jul-2020 131.20 2526.89 1886.00 1359.43 58.98 8.00
   04:55:19.400.03-Jul-2020 131.40 2526.87 1886.00 1359.43 58.98 8.00
   04:55:19.600.03-Jul-2020 131.60 2526.92 1886.00 1359.43 58.98 8.00
   04:55:19.800.03-Jul-2020 131.80 2526.97 1886.00 1359.43 58.98 8.00
   04:55:20.000.03-Jul-2020 132.00 2527.03 1886.00 1359.43 58.98 8.00
   04:55:20.200.03-Jul-2020 132.20 2527.08 1886.00 1359.43 58.98 8.00
   04:55:20.400.03-Jul-2020 132.40 2527.12 1886.00 1359.43 58.98 8.00
   04:55:20.600.03-Jul-2020 132.60 2527.16 1886.00 1359.43 58.98 8.00
   04:55:20.800.03-Jul-2020 132.80 2527.21 1886.00 1359.43 58.98 8.00
   04:55:21.000.03-Jul-2020 133.00 2527.25 1886.00 1359.43 58.98 8.00
   04:55:21.200.03-Jul-2020 133.20 2527.25 1886.00 1359.43 58.98 8.00
   04:55:21.400.03-Jul-2020 133.40 2527.29 1886.00 1359.43 58.98 8.00
   04:55:21.600.03-Jul-2020 133.60 2527.34 1886.00 1359.43 58.98 8.00
   04:55:21.800.03-Jul-2020 133.80 2527.35 1886.00 1359.43 58.98 8.00
   04:55:22.000.03-Jul-2020 134.00 2527.37 1886.00 1359.43 58.98 8.00
   04:55:22.200.03-Jul-2020 134.20 2527.37 1886.00 1359.43 58.98 8.00
   04:55:22.400.03-Jul-2020 134.40 2527.43 1886.00 1359.43 58.98 8.00
   04:55:22.600.03-Jul-2020 134.60 2527.25 1886.00 1359.43 58.98 8.00
   04:55:22.800.03-Jul-2020 134.80 2527.28 1886.00 1359.43 58.98 8.00
   04:55:23.000.03-Jul-2020 135.00 2527.28 1886.00 1359.43 58.98 8.00
   04:55:23.200.03-Jul-2020 135.20 2527.35 1886.00 1359.43 58.98 8.00
   04:55:23.400.03-Jul-2020 135.40 2527.38 1886.00 1359.43 58.98 8.00
   04:55:23.600.03-Jul-2020 135.60 2527.43 1886.00 1359.43 58.98 8.00
   04:55:23.800.03-Jul-2020 135.80 2527.42 1886.00 1359.43 58.98 8.00
   04:55:24.000.03-Jul-2020 136.00 2527.41 1886.00 1359.43 58.98 8.00
   04:55:24.200.03-Jul-2020 136.20 2527.41 1886.00 1359.43 58.98 8.00
   04:55:24.400.03-Jul-2020 136.40 2527.40 1886.00 1359.43 58.98 8.00
   04:55:24.600.03-Jul-2020 136.60 2527.39 1886.00 1359.43 58.98 8.00
   04:55:24.800.03-Jul-2020 136.80 2527.43 1886.00 1359.43 58.98 8.00
   04:55:25.000.03-Jul-2020 137.00 2527.38 1886.00 1359.43 58.98 8.00
   04:55:25.200.03-Jul-2020 137.20 2527.38 1886.00 1359.43 58.98 8.00
   04:55:25.400.03-Jul-2020 137.40 2527.32 1886.00 1359.43 58.98 8.00
   04:55:25.600.03-Jul-2020 137.60 2527.36 1886.00 1359.43 58.98 8.00
   04:55:25.800.03-Jul-2020 137.80 2527.37 1886.00 1359.43 58.98 8.00
