~Version Information
 VERS.                  2.0:   CWLS log ASCII Standard -VERSION 2.0
 WRAP.                   NO:   One line per depth step
~Well Information Block
#MNEM.UNIT     VALUE/NAME     DESCRIPTION
#---------     -----------    ---------------------------
 STRT.S             16:15:55 30-Jun-20: START TIME 16:15:55 30-Jun-20
 STOP.S             16:24:50 30-Jun-20: STOP TIME  16:24:50 30-Jun-20
 STEP.S                   0.00: STEP TIME
 NULL.                 -999.25: NULL VALUE
 DFWT.                        :  DIST FWL TEXT
 DFST.                        :  DIST FSL TEXT
 DMF .             Drill Floor:  DRILL MEAS FROM
 STIM.      09.59.28 01-Jun-20:  START TIME
 DATE.      09.59.28 01-Jun-20:  END TIME
 SPUD.               01-Jun-20:  SPUD DATE
 NREF.                    Grid:  NORTH REFERENCE
 HPTY.       Minimum Curvature:  HOLE POS TYPE
 DMOD.             Drill Model:  DRILL MOD DESC
 SVYD.                  Survey:  SURVEY DESC
 ILTD.               Lithology:  INTERP LTH DESC
 FTOP.          Formation Tops:  FORM TOPS DESC
 SON .        AZ-XX-0905455768:  JOB NUMBER
 WTYP.                Deviated:  WELL TYPE
 COMP.     BP Exploration(Caspian Sea):  COMPANY
 BASE.              Azerbaijan:  LOGGING EQUIPMENT BASE LOCATION
 REGN.                   EESSA:  REGION
 CTRY.              Azerbaijan:  COUNTRY NAME
 FLD .                     ACG:  FIELD NAME
 SRVC.          Turan Drilling:  CONTRACTOR
 WELL.                     B41:  WELL NAME
 RIG .           Central Azeri:  RIG NAME
 DCON.         Sperry Drilling:  DIRECTNL CONTR
 PDAT.          Mean Sea Level:  PERMANENT DATUM
 MDS .        Operator Entered:  MAG DATA SOURCE
 API .                        :  API NUMBER
 CNTY.                        :  COUNTY
 PROV.                        :  PROVINCE
 STAT.                        :  STATE
 UWI .                        :  UNIQUE WELL IDENTIFIER
 LOC .                        :  LOCATION
 LMF .             Drill Floor:  LOG MEASURED FROM
 TVDS.m                  43.29:  TVDSS CORRECTN
 LATI.deg                40.03:  LATITUDE
 LONG.deg                51.35:  LONGITUDE
 WHNS.m                  12.98:  WELL HEAD N/S
 WHEW.m                  -6.62:  WELL HEAD E/W
 UTMX.m              530128.28:  UTM X
 UTMY.m             4433192.49:  UTM Y
 DFWL.m                   0.00:  DISTANCE FWL
 DFSL.m                   0.00:  DISTANCE FSL
 SDEP.m                 378.00:  START DEPTH
 TDD .m                   0.00:  TOTAL DEPTH (DRILLER)
 VSDR.deg               296.18:  VERT SEC DIRECT
 GVFD.g                   1.00:  GRAVITY FIELD
 MFLD.nT              50253.00:  MAGNETIC FIELD
 MDIP.deg                59.49:  MAGNETIC DIP
 MDEC.deg                 6.44:  MAGNETIC DECL
 GRDC.deg                 0.22:  GRID CORRECTION
 AZTC.deg                 6.22:  AZM TOTAL CORR
 EPD .m                   0.00:  ELEVATION
 EGL .m                   0.00:  GROUND ELEVATION
 WDMS.m                 128.20:  WD ELEV
 APD .m                  43.29:  DEPTH ABOVE PD
 AGAP.m                  43.29:  AIR GAP
 VSEW.m                  -6.62:  VERT SEC E/W
 VSNS.m                  12.98:  VERT SEC N/S
 EKB .m                  43.29:  KB ELEVATION
 EDF .m                  43.29:  DF ELEVATION
 TDL .m                1152.00:  TOTAL DEPTH (LOGGER)
 VSC .                       0:  VS TO CLOSURE
 MAGU.                 1848525:  MAGUTM CHECKSUM
~Parameter Information Block
#MNEM.UNIT       Value        Description
#---------     -----------    ---------------------------
 AV  .mps                 0.40:  Ann Velocity 
 AVMX.mps                 1.56:  Max Ann Veloc 
 AZIF.deg               300.46:  Azm, Final 
 BHAT.        Rotary Steerable:  BHA Type 
 BROT.°/30m               0.40:  Build Rotating 
 BS  .in                 17.50:  Bit Size 
 BSZ .in                 17.50:  Bit Size 
 BTPL.psig              300.00:  Bit Press Loss 
 CABU.                      No:  Customer Abuse 
 CGEO.          Parviz Guliyev:  Customer Geo 
 COMM.                     D„w:  Run Comments 1 
 TCS .hr                108.13:  Time Ciculation Ended 
 CV  .mps                 0.50:  Crit Velocity 
 CVMX.mps                 2.01:  Max Crit Veloc 
 DD1 .          Fariz Nahmatov:  Direct Drillr 1 
 DD2 .             Ehab Radwan:  Direct Drillr 2 
 DDSV.               Geo-Pilot:  DD Service 
 DEFF.%                  99.00:  % Det Eff 
 DLRX.°/30m               0.50:  Dogleg Rot Max 
 DLSO.°/30m               2.80:  Dogleg Oriented 
 DLSX.°/30m               3.90:  Dogleg Str Max 
 DRET.      09.30.04 03-Jul-20:  Drill End Time 
 DRST.      18.33.04 28-Jun-20:  Drill Start Tim 
 DTIM.hr                 55.83:  Time Drilling 
 EDEP.m                1952.00:  End Depth 
 ENG1.      Bakhtiyar Jabbarli:  Engineer 1 
 ENG2.         Farhad Orujzade:  Engineer 2 
 ENG3.          Rustam Safarov:  Engineer 3 
 ETIM.      01.33.04 04-Jul-20:  End Time 
 FLOI.gpm              1050.00:  Flow In 
 FLON.gpm               950.00:  Flow In Min 
 FLOS.cptm                0.10:  Fluid Loss 
 FLOX.gpm              1150.00:  Flow In Max 
 HFLO.                      No:  High Flow 
 HPRE.                      No:  High Pressure 
 HTEM.                      No:  High Temp 
 HYDO.m                   1.80:  Hydro Offset 
 IFIN.deg                75.26:  Inc, Final 
 IMAX.deg                75.38:  Inc Max 
 IMIN.deg                22.84:  Inc Min 
 IMND.m                 832.38:  Inc Min Depth 
 IMXD.m                1936.55:  Inc Max Depth 
 JARR.                      No:  Jarring 
 LETM.      17.40.00 04-Jul-20:  Log End Time 
 LOST.hr                     0:  Lost Rig Time 
 LSTM.      12.33.04 28-Jun-20:  Log Start Time 
 MDCL.ppm             49500.00:  Mud Chlorides 
 MDES.     Inversion Oil/Synthetic:  Mud Desc 
 DFD .sg                  1.46:  Mud Density 
 MDMN.sg                  1.46:  Dens Mud Min 
 MDMX.sg                  1.46:  Dens Mud Max 
 MOIL.                      70:  Run Mud Oil % 
 MOWR.                   70:30:  Run Mud OWR 
 MSND.                     0.5:  Run Mud Sand % 
 MSOL.                   19.89:  Run Mud Solids% 
 DFV .spqt               72.00:  Mud Viscosity 
 MWOD.in                  9.50:  MWD Tool OD 
 MWSI.                      No:  Serv Intrp, MWD 
 OTIM.hr                146.53:  Time Operating 
 PCON.           Look Like New:  Pad Condition 
 PMAX.psia             2900.00:  Press Op, Max 
 PV  .cP                 38.00:  Mud PV 
 RUN .                     600:  Run Number 
 ROPA.m/hr               22.00:  ROP Avg 
 ROPN.m/hr               10.00:  ROP Min 
 ROPX.m/hr              263.00:  ROP Max 
 RPMA.rpm               155.00:  RPM Surface Avg 
 RPMN.rpm               140.00:  RPM Surface Min 
 RPMX.rpm               160.00:  RPM Surface Max 
 RRUN.                    0600:  Rig Run Number 
 RTIM.hr                  5.00:  Time Reaming 
 SAZI.deg               300.08:  Azm, Start 
 SDEP.m                 800.00:  Start Depth 
 SIDD.                      No:  Serv Intrp, DD 
 SINC.deg                22.84:  Inc, Start 
 SPPA.psig             3000.00:  SPP Avg 
 SPPN.psig             1900.00:  SPP Min 
 SPPX.psig             3200.00:  SPP Max 
 STIM.      12.30.04 28-Jun-20:  Start Time 
 SVCS.                 DD, MWD:  Services 
 SVER.                    9.20:  Sperry Version 
 TDAT.m                1952.00:  Tot Depth Attmp 
 TDDF.                      No:  Trip for DD 
 TDLG.m                1152.00:  Tot Depth Loggd 
 TFF .                      No:  Trip for Fail 
 TQAA.f-kp                8.00:  Torque Abs Avg 
 TQAN.f-kp                5.00:  Torque Abs Min 
 TQAX.f-kp               14.00:  Torque Abs Max 
 TRRT.°/30m               0.50:  Turn Rotating 
 MRT .                  EWR-M5:  Maximum Recorded Temperature 
 TTMX.degC               69.00:  Max Tool Temp 
 VS01.                90610313:  Virtual Str1 SN 
 VS02.                90613431:  Virtual Str2 SN 
 VS03.                90615410:  Virtual Str3 SN 
 WBMN.klb                 6.00:  WOB Min 
 WITN.            Bruce Cheyne:  Customer Rep 
 WITN.             Ayaz Aliyev:  Customer Rep 2 
 WOBA.klb                 6.00:  WOB Avg 
 WOBX.klb                10.00:  WOB Max 
 YP  .lhf2               36.00:  Yield Point 
~Curve Information Block
#MNEM.UNIT                 API CODE     Curve Description
#---------               -----------    ---------------------------
 TIME.HHMMSS            00 000 000 000:  GT Time & Date
 GTET.sec               00 000 000 000:  GT Elapsed Test Time
 GTPQH.psia             00 000 000 000:  GT HR Quartz Pressure
 GTDEPTH.m              00 000 000 000:  GT Depth
 GTTVD.m                00 000 000 000:  GT True Vertical Depth
 GTTQ.degC              00 000 000 000:  GT Quartz Temperature
 GTTN.NONE              00 000 000 000:  GT Test Number
#Other Information
#
#WARRANTY: Halliburton will use its best efforts to furnish customers with 
#accurate information and interpretations that are part of, and incident to, the services 
#provided.  However, Halliburton cannot and does not warrant the accuracy 
#or correctness of such information and interpretations.  Under no circumstances should any 
#such information or interpretation be relied upon as the sole basis for any drilling, 
#completion, production, or financial decision or any procedure involving any risk to the 
#safety of any drilling venture, drilling rig or its crew or any other third party.  The 
#Customer has full responsibility for all drilling, completion and production operation.  
#Halliburton makes no representations or warranties, either expressed or 
#implied, including, but not limited to, the implied warranties of merchantability or fitness 
#for a particular purpose, with respect to the services rendered.  In no event will 
#Halliburton be liable for failure to obtain any particular results or for 
#any damages, including, but not limited to, indirect, special or consequential damages, 
#resulting from the use of any information or interpretation provided by Halliburton.
#
~A           TIME            GTET   GTPQH  GTDEPTH  GTTVD  GTTQ  GTTN 
# ...
   16:17:04.000.30-Jun-2020  69.00 2217.11 1103.02 1054.26 68.70 2.00
   16:17:04.200.30-Jun-2020  69.20 2217.11 1103.02 1054.26 68.70 2.00
   16:17:04.400.30-Jun-2020  69.40 2217.66 1103.02 1054.26 68.70 2.00
   16:17:04.600.30-Jun-2020  69.60 2217.61 1103.02 1054.26 68.70 2.00
   16:17:04.800.30-Jun-2020  69.80 2217.60 1103.02 1054.26 68.70 2.00
   16:17:05.000.30-Jun-2020  70.00 2215.50 1103.02 1054.26 68.70 2.00
   16:17:05.200.30-Jun-2020  70.20 2215.50 1103.02 1054.26 68.70 2.00
   16:17:05.400.30-Jun-2020  70.40 2219.21 1103.02 1054.26 68.70 2.00
   16:17:05.600.30-Jun-2020  70.60 2217.78 1103.02 1054.26 68.70 2.00
   16:17:05.800.30-Jun-2020  70.80 2217.08 1103.02 1054.26 68.70 2.00
   16:17:06.000.30-Jun-2020  71.00 2215.75 1103.02 1054.26 68.70 2.00
   16:17:06.200.30-Jun-2020  71.20 2215.75 1103.02 1054.26 68.70 2.00
   16:17:06.400.30-Jun-2020  71.40 2217.63 1103.02 1054.26 68.70 2.00
   16:17:06.600.30-Jun-2020  71.60 2217.76 1103.02 1054.26 68.70 2.00
   16:17:06.800.30-Jun-2020  71.80 2219.46 1103.02 1054.26 68.70 2.00
   16:17:07.000.30-Jun-2020  72.00 2219.28 1103.02 1054.26 68.70 2.00
   16:17:07.200.30-Jun-2020  72.20 2219.28 1103.02 1054.26 68.70 2.00
   16:17:07.400.30-Jun-2020  72.40 2218.28 1103.02 1054.26 68.70 2.00
   16:17:07.600.30-Jun-2020  72.60 2218.95 1103.02 1054.26 68.70 2.00
   16:17:07.800.30-Jun-2020  72.80 2222.44 1103.02 1054.26 68.70 2.00
   16:17:08.000.30-Jun-2020  73.00 2298.18 1103.02 1054.26 68.70 2.00
   16:17:08.200.30-Jun-2020  73.20 2286.43 1103.02 1054.26 68.70 2.00
   16:17:08.400.30-Jun-2020  73.40 2273.58 1103.02 1054.26 68.70 2.00
   16:17:08.600.30-Jun-2020  73.60 2272.70 1103.02 1054.26 68.70 2.00
   16:17:08.800.30-Jun-2020  73.80 2276.70 1103.02 1054.26 68.70 2.00
   16:17:09.000.30-Jun-2020  74.00 2271.54 1103.02 1054.26 68.70 2.00
   16:17:09.200.30-Jun-2020  74.20 2282.44 1103.02 1054.26 68.70 2.00
   16:17:09.400.30-Jun-2020  74.40 2281.53 1103.02 1054.26 68.70 2.00
   16:17:09.600.30-Jun-2020  74.60 2282.74 1103.02 1054.26 68.70 2.00
   16:17:09.800.30-Jun-2020  74.80 2279.37 1103.02 1054.26 68.70 2.00
   16:17:10.000.30-Jun-2020  75.00 2301.62 1103.02 1054.26 68.70 2.00
   16:17:10.200.30-Jun-2020  75.20 2274.90 1103.02 1054.26 68.70 2.00
   16:17:10.400.30-Jun-2020  75.40 2276.48 1103.02 1054.26 68.70 2.00
   16:17:10.600.30-Jun-2020  75.60 2280.93 1103.02 1054.26 68.70 2.00
   16:17:10.800.30-Jun-2020  75.80 2273.24 1103.02 1054.26 68.70 2.00
   16:17:11.000.30-Jun-2020  76.00 2272.74 1103.02 1054.26 68.70 2.00
   16:17:11.200.30-Jun-2020  76.20 2272.74 1103.02 1054.26 68.70 2.00
   16:17:11.400.30-Jun-2020  76.40 2276.24 1103.02 1054.26 68.70 2.00
   16:17:11.600.30-Jun-2020  76.60 2277.21 1103.02 1054.26 68.70 2.00
   16:17:11.800.30-Jun-2020  76.80 2270.48 1103.02 1054.26 68.70 2.00
   16:17:12.000.30-Jun-2020  77.00 2273.63 1103.02 1054.26 68.71 2.00
   16:17:12.200.30-Jun-2020  77.20 2273.63 1103.02 1054.26 68.71 2.00
   16:17:12.400.30-Jun-2020  77.40 2270.37 1103.02 1054.26 68.71 2.00
   16:17:12.600.30-Jun-2020  77.60 2267.06 1103.02 1054.26 68.71 2.00
   16:17:12.800.30-Jun-2020  77.80 2266.18 1103.02 1054.26 68.71 2.00
   16:17:13.000.30-Jun-2020  78.00 2266.07 1103.02 1054.26 68.71 2.00
   16:17:13.200.30-Jun-2020  78.20 2264.89 1103.02 1054.26 68.71 2.00
   16:17:13.400.30-Jun-2020  78.40 2265.04 1103.02 1054.26 68.71 2.00
   16:17:13.600.30-Jun-2020  78.60 2264.99 1103.02 1054.26 68.71 2.00
   16:17:13.800.30-Jun-2020  78.80 2265.55 1103.02 1054.26 68.71 2.00
   16:17:14.000.30-Jun-2020  79.00 2265.45 1103.02 1054.26 68.71 2.00
   16:17:14.200.30-Jun-2020  79.20 2265.45 1103.02 1054.26 68.71 2.00
   16:17:14.400.30-Jun-2020  79.40 2265.05 1103.02 1054.26 68.71 2.00
   16:17:14.600.30-Jun-2020  79.60 2266.06 1103.02 1054.26 68.71 2.00
   16:17:14.800.30-Jun-2020  79.80 2266.47 1103.02 1054.26 68.71 2.00
   16:17:15.000.30-Jun-2020  80.00 2265.28 1103.02 1054.26 68.71 2.00
   16:17:15.200.30-Jun-2020  80.20 2265.28 1103.02 1054.26 68.71 2.00
   16:17:15.400.30-Jun-2020  80.40 2264.27 1103.02 1054.26 68.71 2.00
   16:17:15.600.30-Jun-2020  80.60 2264.56 1103.02 1054.26 68.71 2.00
   16:17:15.800.30-Jun-2020  80.80 2264.40 1103.02 1054.26 68.71 2.00
   16:17:16.000.30-Jun-2020  81.00 2265.00 1103.02 1054.26 68.71 2.00
   16:17:16.200.30-Jun-2020  81.20 2265.00 1103.02 1054.26 68.71 2.00
   16:17:16.400.30-Jun-2020  81.40 2265.16 1103.02 1054.26 68.71 2.00
   16:17:16.600.30-Jun-2020  81.60 2264.37 1103.02 1054.26 68.71 2.00
   16:17:16.800.30-Jun-2020  81.80 2264.42 1103.02 1054.26 68.71 2.00
   16:17:17.000.30-Jun-2020  82.00 2264.72 1103.02 1054.26 68.71 2.00
   16:17:17.200.30-Jun-2020  82.20 2265.21 1103.02 1054.26 68.71 2.00
   16:17:17.400.30-Jun-2020  82.40 2398.14 1103.02 1054.26 68.71 2.00
   16:17:17.600.30-Jun-2020  82.60 2269.47 1103.02 1054.26 68.71 2.00
   16:17:17.800.30-Jun-2020  82.80 2240.68 1103.02 1054.26 68.71 2.00
   16:17:18.000.30-Jun-2020  83.00 2241.79 1103.02 1054.26 68.71 2.00
   16:17:18.200.30-Jun-2020  83.20 2241.79 1103.02 1054.26 68.71 2.00
   16:17:18.400.30-Jun-2020  83.40 2236.01 1103.02 1054.26 68.71 2.00
   16:17:18.600.30-Jun-2020  83.60 2174.56 1103.02 1054.26 68.71 2.00
   16:17:18.800.30-Jun-2020  83.80 2070.09 1103.02 1054.26 68.71 2.00
   16:17:19.000.30-Jun-2020  84.00 1988.40 1103.02 1054.26 68.71 2.00
   16:17:19.200.30-Jun-2020  84.20 1988.40 1103.02 1054.26 68.71 2.00
   16:17:19.400.30-Jun-2020  84.40 1816.39 1103.02 1054.26 68.71 2.00
   16:17:19.600.30-Jun-2020  84.60 1633.48 1103.02 1054.26 68.71 2.00
   16:17:19.800.30-Jun-2020  84.80 1469.49 1103.02 1054.26 68.71 2.00
   16:17:20.000.30-Jun-2020  85.00 1329.58 1103.02 1054.26 68.71 2.00
   16:17:20.200.30-Jun-2020  85.20 1329.58 1103.02 1054.26 68.71 2.00
   16:17:20.400.30-Jun-2020  85.40 1105.91 1103.02 1054.26 68.71 2.00
   16:17:20.600.30-Jun-2020  85.60  999.77 1103.02 1054.26 68.71 2.00
   16:17:20.800.30-Jun-2020  85.80  907.33 1103.02 1054.26 68.71 2.00
   16:17:21.000.30-Jun-2020  86.00  821.92 1103.02 1054.26 68.71 2.00
   16:17:21.200.30-Jun-2020  86.20  746.66 1103.02 1054.26 68.71 2.00
   16:17:21.400.30-Jun-2020  86.40  681.49 1103.02 1054.26 68.71 2.00
   16:17:21.600.30-Jun-2020  86.60  619.36 1103.02 1054.26 68.71 2.00
   16:17:21.800.30-Jun-2020  86.80  574.30 1103.02 1054.26 68.71 2.00
   16:17:22.000.30-Jun-2020  87.00  540.80 1103.02 1054.26 68.71 2.00
   16:17:22.200.30-Jun-2020  87.20  540.80 1103.02 1054.26 68.71 2.00
   16:17:22.400.30-Jun-2020  87.40  482.44 1103.02 1054.26 68.70 2.00
   16:17:22.600.30-Jun-2020  87.60  458.62 1103.02 1054.26 68.70 2.00
   16:17:22.800.30-Jun-2020  87.80  442.23 1103.02 1054.26 68.70 2.00
   16:17:23.000.30-Jun-2020  88.00  426.55 1103.02 1054.26 68.70 2.00
   16:17:23.200.30-Jun-2020  88.20  426.55 1103.02 1054.26 68.70 2.00
   16:17:23.400.30-Jun-2020  88.40  397.30 1103.02 1054.26 68.70 2.00
   16:17:23.600.30-Jun-2020  88.60  383.62 1103.02 1054.26 68.70 2.00
   16:17:23.800.30-Jun-2020  88.80  368.23 1103.02 1054.26 68.70 2.00
   16:17:24.000.30-Jun-2020  89.00  355.80 1103.02 1054.26 68.70 2.00
   16:17:24.200.30-Jun-2020  89.20  355.80 1103.02 1054.26 68.70 2.00
   16:17:24.400.30-Jun-2020  89.40  337.15 1103.02 1054.26 68.69 2.00
   16:17:24.600.30-Jun-2020  89.60  319.50 1103.02 1054.26 68.69 2.00
   16:17:24.800.30-Jun-2020  89.80  303.74 1103.02 1054.26 68.69 2.00
   16:17:25.000.30-Jun-2020  90.00  291.74 1103.02 1054.26 68.69 2.00
   16:17:25.200.30-Jun-2020  90.20  280.23 1103.02 1054.26 68.69 2.00
   16:17:25.400.30-Jun-2020  90.40  272.81 1103.02 1054.26 68.69 2.00
   16:17:25.600.30-Jun-2020  90.60  263.62 1103.02 1054.26 68.69 2.00
   16:17:25.800.30-Jun-2020  90.80  254.69 1103.02 1054.26 68.69 2.00
   16:17:26.000.30-Jun-2020  91.00  247.46 1103.02 1054.26 68.68 2.00
   16:17:26.200.30-Jun-2020  91.20  247.46 1103.02 1054.26 68.68 2.00
   16:17:26.400.30-Jun-2020  91.40  242.10 1103.02 1054.26 68.68 2.00
   16:17:26.600.30-Jun-2020  91.60  297.32 1103.02 1054.26 68.68 2.00
   16:17:26.800.30-Jun-2020  91.80  359.14 1103.02 1054.26 68.68 2.00
