~Version Information
 VERS.                  2.0:   CWLS log ASCII Standard -VERSION 2.0
 WRAP.                   NO:   One line per depth step
~Well Information Block
#MNEM.UNIT     VALUE/NAME     DESCRIPTION
#---------     -----------    ---------------------------
 STRT.S             20:59:46 30-Jun-20: START TIME 20:59:46 30-Jun-20
 STOP.S             21:08:48 30-Jun-20: STOP TIME  21:08:48 30-Jun-20
 STEP.S                   0.00: STEP TIME
 NULL.                 -999.25: NULL VALUE
 DFWT.                        :  DIST FWL TEXT
 DFST.                        :  DIST FSL TEXT
 DMF .             Drill Floor:  DRILL MEAS FROM
 STIM.      09.59.28 01-Jun-20:  START TIME
 DATE.      09.59.28 01-Jun-20:  END TIME
 SPUD.               01-Jun-20:  SPUD DATE
 NREF.                    Grid:  NORTH REFERENCE
 HPTY.       Minimum Curvature:  HOLE POS TYPE
 DMOD.             Drill Model:  DRILL MOD DESC
 SVYD.                  Survey:  SURVEY DESC
 ILTD.               Lithology:  INTERP LTH DESC
 FTOP.          Formation Tops:  FORM TOPS DESC
 SON .        AZ-XX-0905455768:  JOB NUMBER
 WTYP.                Deviated:  WELL TYPE
 COMP.     BP Exploration(Caspian Sea):  COMPANY
 BASE.              Azerbaijan:  LOGGING EQUIPMENT BASE LOCATION
 REGN.                   EESSA:  REGION
 CTRY.              Azerbaijan:  COUNTRY NAME
 FLD .                     ACG:  FIELD NAME
 SRVC.          Turan Drilling:  CONTRACTOR
 WELL.                     B41:  WELL NAME
 RIG .           Central Azeri:  RIG NAME
 DCON.         Sperry Drilling:  DIRECTNL CONTR
 PDAT.          Mean Sea Level:  PERMANENT DATUM
 MDS .        Operator Entered:  MAG DATA SOURCE
 API .                        :  API NUMBER
 CNTY.                        :  COUNTY
 PROV.                        :  PROVINCE
 STAT.                        :  STATE
 UWI .                        :  UNIQUE WELL IDENTIFIER
 LOC .                        :  LOCATION
 LMF .             Drill Floor:  LOG MEASURED FROM
 TVDS.m                  43.29:  TVDSS CORRECTN
 LATI.deg                40.03:  LATITUDE
 LONG.deg                51.35:  LONGITUDE
 WHNS.m                  12.98:  WELL HEAD N/S
 WHEW.m                  -6.62:  WELL HEAD E/W
 UTMX.m              530128.28:  UTM X
 UTMY.m             4433192.49:  UTM Y
 DFWL.m                   0.00:  DISTANCE FWL
 DFSL.m                   0.00:  DISTANCE FSL
 SDEP.m                 378.00:  START DEPTH
 TDD .m                   0.00:  TOTAL DEPTH (DRILLER)
 VSDR.deg               296.18:  VERT SEC DIRECT
 GVFD.g                   1.00:  GRAVITY FIELD
 MFLD.nT              50253.00:  MAGNETIC FIELD
 MDIP.deg                59.49:  MAGNETIC DIP
 MDEC.deg                 6.44:  MAGNETIC DECL
 GRDC.deg                 0.22:  GRID CORRECTION
 AZTC.deg                 6.22:  AZM TOTAL CORR
 EPD .m                   0.00:  ELEVATION
 EGL .m                   0.00:  GROUND ELEVATION
 WDMS.m                 128.20:  WD ELEV
 APD .m                  43.29:  DEPTH ABOVE PD
 AGAP.m                  43.29:  AIR GAP
 VSEW.m                  -6.62:  VERT SEC E/W
 VSNS.m                  12.98:  VERT SEC N/S
 EKB .m                  43.29:  KB ELEVATION
 EDF .m                  43.29:  DF ELEVATION
 TDL .m                1152.00:  TOTAL DEPTH (LOGGER)
 VSC .                       0:  VS TO CLOSURE
 MAGU.                 1848525:  MAGUTM CHECKSUM
~Parameter Information Block
#MNEM.UNIT       Value        Description
#---------     -----------    ---------------------------
 AV  .mps                 0.40:  Ann Velocity 
 AVMX.mps                 1.56:  Max Ann Veloc 
 AZIF.deg               300.46:  Azm, Final 
 BHAT.        Rotary Steerable:  BHA Type 
 BROT.°/30m               0.40:  Build Rotating 
 BS  .in                 17.50:  Bit Size 
 BSZ .in                 17.50:  Bit Size 
 BTPL.psig              300.00:  Bit Press Loss 
 CABU.                      No:  Customer Abuse 
 CGEO.          Parviz Guliyev:  Customer Geo 
 COMM.                     ÜRt:  Run Comments 1 
 TCS .hr                108.13:  Time Ciculation Ended 
 CV  .mps                 0.50:  Crit Velocity 
 CVMX.mps                 2.01:  Max Crit Veloc 
 DD1 .          Fariz Nahmatov:  Direct Drillr 1 
 DD2 .             Ehab Radwan:  Direct Drillr 2 
 DDSV.               Geo-Pilot:  DD Service 
 DEFF.%                  99.00:  % Det Eff 
 DLRX.°/30m               0.50:  Dogleg Rot Max 
 DLSO.°/30m               2.80:  Dogleg Oriented 
 DLSX.°/30m               3.90:  Dogleg Str Max 
 DRET.      09.30.04 03-Jul-20:  Drill End Time 
 DRST.      18.33.04 28-Jun-20:  Drill Start Tim 
 DTIM.hr                 55.83:  Time Drilling 
 EDEP.m                1952.00:  End Depth 
 ENG1.      Bakhtiyar Jabbarli:  Engineer 1 
 ENG2.         Farhad Orujzade:  Engineer 2 
 ENG3.          Rustam Safarov:  Engineer 3 
 ETIM.      01.33.04 04-Jul-20:  End Time 
 FLOI.gpm              1050.00:  Flow In 
 FLON.gpm               950.00:  Flow In Min 
 FLOS.cptm                0.10:  Fluid Loss 
 FLOX.gpm              1150.00:  Flow In Max 
 HFLO.                      No:  High Flow 
 HPRE.                      No:  High Pressure 
 HTEM.                      No:  High Temp 
 HYDO.m                   1.80:  Hydro Offset 
 IFIN.deg                75.26:  Inc, Final 
 IMAX.deg                75.38:  Inc Max 
 IMIN.deg                22.84:  Inc Min 
 IMND.m                 832.38:  Inc Min Depth 
 IMXD.m                1936.55:  Inc Max Depth 
 JARR.                      No:  Jarring 
 LETM.      17.40.00 04-Jul-20:  Log End Time 
 LOST.hr                     0:  Lost Rig Time 
 LSTM.      12.33.04 28-Jun-20:  Log Start Time 
 MDCL.ppm             49500.00:  Mud Chlorides 
 MDES.     Inversion Oil/Synthetic:  Mud Desc 
 DFD .sg                  1.46:  Mud Density 
 MDMN.sg                  1.46:  Dens Mud Min 
 MDMX.sg                  1.46:  Dens Mud Max 
 MOIL.                      70:  Run Mud Oil % 
 MOWR.                   70:30:  Run Mud OWR 
 MSND.                     0.5:  Run Mud Sand % 
 MSOL.                   19.89:  Run Mud Solids% 
 DFV .spqt               72.00:  Mud Viscosity 
 MWOD.in                  9.50:  MWD Tool OD 
 MWSI.                      No:  Serv Intrp, MWD 
 OTIM.hr                146.53:  Time Operating 
 PCON.           Look Like New:  Pad Condition 
 PMAX.psia             2900.00:  Press Op, Max 
 PV  .cP                 38.00:  Mud PV 
 RUN .                     600:  Run Number 
 ROPA.m/hr               22.00:  ROP Avg 
 ROPN.m/hr               10.00:  ROP Min 
 ROPX.m/hr              263.00:  ROP Max 
 RPMA.rpm               155.00:  RPM Surface Avg 
 RPMN.rpm               140.00:  RPM Surface Min 
 RPMX.rpm               160.00:  RPM Surface Max 
 RRUN.                    0600:  Rig Run Number 
 RTIM.hr                  5.00:  Time Reaming 
 SAZI.deg               300.08:  Azm, Start 
 SDEP.m                 800.00:  Start Depth 
 SIDD.                      No:  Serv Intrp, DD 
 SINC.deg                22.84:  Inc, Start 
 SPPA.psig             3000.00:  SPP Avg 
 SPPN.psig             1900.00:  SPP Min 
 SPPX.psig             3200.00:  SPP Max 
 STIM.      12.30.04 28-Jun-20:  Start Time 
 SVCS.                 DD, MWD:  Services 
 SVER.                    9.20:  Sperry Version 
 TDAT.m                1952.00:  Tot Depth Attmp 
 TDDF.                      No:  Trip for DD 
 TDLG.m                1152.00:  Tot Depth Loggd 
 TFF .                      No:  Trip for Fail 
 TQAA.f-kp                8.00:  Torque Abs Avg 
 TQAN.f-kp                5.00:  Torque Abs Min 
 TQAX.f-kp               14.00:  Torque Abs Max 
 TRRT.°/30m               0.50:  Turn Rotating 
 MRT .                  EWR-M5:  Maximum Recorded Temperature 
 TTMX.degC               69.00:  Max Tool Temp 
 VS01.                90610313:  Virtual Str1 SN 
 VS02.                90613431:  Virtual Str2 SN 
 VS03.                90615410:  Virtual Str3 SN 
 WBMN.klb                 6.00:  WOB Min 
 WITN.            Bruce Cheyne:  Customer Rep 
 WITN.             Ayaz Aliyev:  Customer Rep 2 
 WOBA.klb                 6.00:  WOB Avg 
 WOBX.klb                10.00:  WOB Max 
 YP  .lhf2               36.00:  Yield Point 
~Curve Information Block
#MNEM.UNIT                 API CODE     Curve Description
#---------               -----------    ---------------------------
 TIME.HHMMSS            00 000 000 000:  GT Time & Date
 GTET.sec               00 000 000 000:  GT Elapsed Test Time
 GTPQH.psia             00 000 000 000:  GT HR Quartz Pressure
 GTDEPTH.m              00 000 000 000:  GT Depth
 GTTVD.m                00 000 000 000:  GT True Vertical Depth
 GTTQ.degC              00 000 000 000:  GT Quartz Temperature
 GTTN.NONE              00 000 000 000:  GT Test Number
#Other Information
#
#WARRANTY: Halliburton will use its best efforts to furnish customers with 
#accurate information and interpretations that are part of, and incident to, the services 
#provided.  However, Halliburton cannot and does not warrant the accuracy 
#or correctness of such information and interpretations.  Under no circumstances should any 
#such information or interpretation be relied upon as the sole basis for any drilling, 
#completion, production, or financial decision or any procedure involving any risk to the 
#safety of any drilling venture, drilling rig or its crew or any other third party.  The 
#Customer has full responsibility for all drilling, completion and production operation.  
#Halliburton makes no representations or warranties, either expressed or 
#implied, including, but not limited to, the implied warranties of merchantability or fitness 
#for a particular purpose, with respect to the services rendered.  In no event will 
#Halliburton be liable for failure to obtain any particular results or for 
#any damages, including, but not limited to, indirect, special or consequential damages, 
#resulting from the use of any information or interpretation provided by Halliburton.
#
~A           TIME            GTET   GTPQH  GTDEPTH  GTTVD  GTTQ  GTTN 
# ...
   21:06:17.835.30-Jun-2020 391.07 2105.08 1143.02 1083.79 62.27 3.00
   21:06:18.035.30-Jun-2020 391.27 2105.08 1143.02 1083.79 62.27 3.00
   21:06:18.235.30-Jun-2020 391.47 2105.05 1143.02 1083.79 62.27 3.00
   21:06:18.435.30-Jun-2020 391.67 2105.07 1143.02 1083.79 62.27 3.00
   21:06:18.635.30-Jun-2020 391.87 2105.07 1143.02 1083.79 62.27 3.00
   21:06:18.835.30-Jun-2020 392.07 2105.07 1143.02 1083.79 62.27 3.00
   21:06:19.035.30-Jun-2020 392.27 2105.07 1143.02 1083.79 62.27 3.00
   21:06:19.235.30-Jun-2020 392.47 2105.04 1143.02 1083.79 62.27 3.00
   21:06:19.435.30-Jun-2020 392.67 2105.09 1143.02 1083.79 62.27 3.00
   21:06:19.635.30-Jun-2020 392.87 2105.09 1143.02 1083.79 62.27 3.00
   21:06:19.835.30-Jun-2020 393.07 2105.08 1143.02 1083.79 62.27 3.00
   21:06:20.035.30-Jun-2020 393.27 2105.07 1143.02 1083.79 62.27 3.00
   21:06:20.235.30-Jun-2020 393.47 2105.08 1143.02 1083.79 62.27 3.00
   21:06:20.435.30-Jun-2020 393.67 2105.02 1143.02 1083.79 62.27 3.00
   21:06:20.635.30-Jun-2020 393.87 2105.08 1143.02 1083.79 62.27 3.00
   21:06:20.835.30-Jun-2020 394.07 2105.08 1143.02 1083.79 62.27 3.00
   21:06:21.035.30-Jun-2020 394.27 2105.08 1143.02 1083.79 62.27 3.00
   21:06:21.235.30-Jun-2020 394.47 2105.07 1143.02 1083.79 62.26 3.00
   21:06:21.435.30-Jun-2020 394.67 2105.07 1143.02 1083.79 62.26 3.00
   21:06:21.635.30-Jun-2020 394.87 2105.06 1143.02 1083.79 62.26 3.00
   21:06:21.835.30-Jun-2020 395.07 2105.06 1143.02 1083.79 62.26 3.00
   21:06:22.035.30-Jun-2020 395.27 2105.06 1143.02 1083.79 62.26 3.00
   21:06:22.235.30-Jun-2020 395.47 2105.06 1143.02 1083.79 62.26 3.00
   21:06:22.435.30-Jun-2020 395.67 2105.05 1143.02 1083.79 62.26 3.00
   21:06:22.636.30-Jun-2020 395.87 2105.06 1143.02 1083.79 62.26 3.00
   21:06:22.836.30-Jun-2020 396.07 2105.06 1143.02 1083.79 62.26 3.00
   21:06:23.036.30-Jun-2020 396.27 2105.06 1143.02 1083.79 62.26 3.00
   21:06:23.236.30-Jun-2020 396.47 2105.07 1143.02 1083.79 62.26 3.00
   21:06:23.436.30-Jun-2020 396.67 2105.07 1143.02 1083.79 62.26 3.00
   21:06:23.636.30-Jun-2020 396.87 2105.07 1143.02 1083.79 62.26 3.00
   21:06:23.836.30-Jun-2020 397.07 2105.07 1143.02 1083.79 62.26 3.00
   21:06:24.036.30-Jun-2020 397.27 2105.07 1143.02 1083.79 62.26 3.00
   21:06:24.236.30-Jun-2020 397.47 2105.05 1143.02 1083.79 62.26 3.00
   21:06:24.436.30-Jun-2020 397.67 2105.09 1143.02 1083.79 62.26 3.00
   21:06:24.636.30-Jun-2020 397.87 2105.09 1143.02 1083.79 62.26 3.00
   21:06:24.836.30-Jun-2020 398.07 2105.08 1143.02 1083.79 62.26 3.00
   21:06:25.036.30-Jun-2020 398.27 2105.08 1143.02 1083.79 62.26 3.00
   21:06:25.236.30-Jun-2020 398.47 2105.08 1143.02 1083.79 62.26 3.00
   21:06:25.436.30-Jun-2020 398.67 2105.08 1143.02 1083.79 62.26 3.00
   21:06:25.636.30-Jun-2020 398.87 2105.07 1143.02 1083.79 62.26 3.00
   21:06:25.836.30-Jun-2020 399.07 2105.08 1143.02 1083.79 62.26 3.00
   21:06:26.036.30-Jun-2020 399.27 2105.08 1143.02 1083.79 62.26 3.00
   21:06:26.236.30-Jun-2020 399.47 2105.07 1143.02 1083.79 62.26 3.00
   21:06:26.436.30-Jun-2020 399.67 2105.04 1143.02 1083.79 62.25 3.00
   21:06:26.636.30-Jun-2020 399.87 2105.06 1143.02 1083.79 62.25 3.00
   21:06:26.836.30-Jun-2020 400.07 2105.10 1143.02 1083.79 62.25 3.00
   21:06:27.036.30-Jun-2020 400.27 2105.09 1143.02 1083.79 62.25 3.00
   21:06:27.236.30-Jun-2020 400.47 2105.07 1143.02 1083.79 62.25 3.00
   21:06:27.436.30-Jun-2020 400.67 2105.08 1143.02 1083.79 62.25 3.00
   21:06:27.636.30-Jun-2020 400.87 2105.03 1143.02 1083.79 62.25 3.00
   21:06:27.836.30-Jun-2020 401.07 2105.09 1143.02 1083.79 62.25 3.00
   21:06:28.036.30-Jun-2020 401.27 2105.09 1143.02 1083.79 62.25 3.00
   21:06:28.237.30-Jun-2020 401.47 2105.08 1143.02 1083.79 62.25 3.00
   21:06:28.437.30-Jun-2020 401.67 2105.07 1143.02 1083.79 62.25 3.00
   21:06:28.637.30-Jun-2020 401.87 2105.04 1143.02 1083.79 62.25 3.00
   21:06:28.837.30-Jun-2020 402.07 2105.09 1143.02 1083.79 62.25 3.00
   21:06:29.037.30-Jun-2020 402.27 2105.09 1143.02 1083.79 62.25 3.00
   21:06:29.237.30-Jun-2020 402.47 2105.08 1143.02 1083.79 62.25 3.00
   21:06:29.437.30-Jun-2020 402.67 2105.09 1143.02 1083.79 62.25 3.00
   21:06:29.637.30-Jun-2020 402.87 2105.08 1143.02 1083.79 62.25 3.00
   21:06:29.837.30-Jun-2020 403.07 2105.04 1143.02 1083.79 62.25 3.00
   21:06:30.037.30-Jun-2020 403.27 2105.04 1143.02 1083.79 62.25 3.00
   21:06:30.237.30-Jun-2020 403.47 2105.09 1143.02 1083.79 62.25 3.00
   21:06:30.437.30-Jun-2020 403.67 2105.09 1143.02 1083.79 62.25 3.00
   21:06:30.637.30-Jun-2020 403.87 2105.09 1143.02 1083.79 62.25 3.00
   21:06:30.837.30-Jun-2020 404.07 2105.09 1143.02 1083.79 62.25 3.00
   21:06:31.037.30-Jun-2020 404.27 2105.09 1143.02 1083.79 62.25 3.00
   21:06:31.237.30-Jun-2020 404.47 2105.08 1143.02 1083.79 62.25 3.00
   21:06:31.437.30-Jun-2020 404.67 2105.07 1143.02 1083.79 62.24 3.00
   21:06:31.637.30-Jun-2020 404.87 2105.08 1143.02 1083.79 62.24 3.00
   21:06:31.837.30-Jun-2020 405.07 2105.08 1143.02 1083.79 62.24 3.00
   21:06:32.037.30-Jun-2020 405.27 2105.07 1143.02 1083.79 62.24 3.00
   21:06:32.237.30-Jun-2020 405.47 2105.07 1143.02 1083.79 62.24 3.00
   21:06:32.437.30-Jun-2020 405.67 2105.06 1143.02 1083.79 62.24 3.00
   21:06:32.637.30-Jun-2020 405.87 2105.06 1143.02 1083.79 62.24 3.00
   21:06:32.837.30-Jun-2020 406.07 2105.06 1143.02 1083.79 62.24 3.00
   21:06:33.037.30-Jun-2020 406.27 2105.06 1143.02 1083.79 62.24 3.00
   21:06:33.237.30-Jun-2020 406.47 2105.06 1143.02 1083.79 62.24 3.00
   21:06:33.437.30-Jun-2020 406.67 2105.06 1143.02 1083.79 62.24 3.00
   21:06:33.637.30-Jun-2020 406.87 2105.04 1143.02 1083.79 62.24 3.00
   21:06:33.838.30-Jun-2020 407.07 2105.07 1143.02 1083.79 62.24 3.00
   21:06:34.038.30-Jun-2020 407.27 2105.07 1143.02 1083.79 62.24 3.00
   21:06:34.238.30-Jun-2020 407.47 2105.07 1143.02 1083.79 62.24 3.00
   21:06:34.438.30-Jun-2020 407.67 2105.06 1143.02 1083.79 62.24 3.00
   21:06:34.638.30-Jun-2020 407.87 2105.07 1143.02 1083.79 62.24 3.00
   21:06:34.838.30-Jun-2020 408.07 2105.07 1143.02 1083.79 62.24 3.00
   21:06:35.038.30-Jun-2020 408.27 2105.07 1143.02 1083.79 62.24 3.00
   21:06:35.238.30-Jun-2020 408.47 2105.07 1143.02 1083.79 62.24 3.00
   21:06:35.438.30-Jun-2020 408.67 2105.06 1143.02 1083.79 62.24 3.00
   21:06:35.638.30-Jun-2020 408.87 2105.07 1143.02 1083.79 62.24 3.00
   21:06:35.838.30-Jun-2020 409.07 2105.07 1143.02 1083.79 62.24 3.00
   21:06:36.038.30-Jun-2020 409.27 2105.07 1143.02 1083.79 62.24 3.00
   21:06:36.238.30-Jun-2020 409.47 2105.08 1143.02 1083.79 62.24 3.00
   21:06:36.438.30-Jun-2020 409.67 2105.09 1143.02 1083.79 62.24 3.00
   21:06:36.638.30-Jun-2020 409.87 2105.09 1143.02 1083.79 62.24 3.00
   21:06:36.838.30-Jun-2020 410.07 2105.06 1143.02 1083.79 62.23 3.00
   21:06:37.038.30-Jun-2020 410.27 2105.06 1143.02 1083.79 62.23 3.00
   21:06:37.238.30-Jun-2020 410.47 2105.08 1143.02 1083.79 62.23 3.00
   21:06:37.438.30-Jun-2020 410.67 2105.08 1143.02 1083.79 62.23 3.00
   21:06:37.638.30-Jun-2020 410.87 2105.08 1143.02 1083.79 62.23 3.00
   21:06:37.838.30-Jun-2020 411.07 2105.06 1143.02 1083.79 62.23 3.00
   21:06:38.038.30-Jun-2020 411.27 2105.06 1143.02 1083.79 62.23 3.00
   21:06:38.238.30-Jun-2020 411.47 2105.06 1143.02 1083.79 62.23 3.00
   21:06:38.438.30-Jun-2020 411.67 2105.08 1143.02 1083.79 62.23 3.00
   21:06:38.638.30-Jun-2020 411.87 2105.08 1143.02 1083.79 62.23 3.00
   21:06:38.838.30-Jun-2020 412.07 2105.08 1143.02 1083.79 62.23 3.00
   21:06:39.038.30-Jun-2020 412.27 2105.08 1143.02 1083.79 62.23 3.00
   21:06:39.238.30-Jun-2020 412.47 2105.06 1143.02 1083.79 62.23 3.00
   21:06:39.439.30-Jun-2020 412.67 2105.04 1143.02 1083.79 62.23 3.00
   21:06:39.639.30-Jun-2020 412.87 2105.09 1143.02 1083.79 62.23 3.00
   21:06:39.839.30-Jun-2020 413.07 2105.08 1143.02 1083.79 62.23 3.00
   21:06:40.039.30-Jun-2020 413.27 2105.08 1143.02 1083.79 62.23 3.00
   21:06:40.239.30-Jun-2020 413.47 2105.08 1143.02 1083.79 62.23 3.00
   21:06:40.439.30-Jun-2020 413.67 2105.07 1143.02 1083.79 62.23 3.00
   21:06:40.639.30-Jun-2020 413.87 2105.06 1143.02 1083.79 62.23 3.00
