~Version Information
 VERS.                  2.0:   CWLS log ASCII Standard -VERSION 2.0
 WRAP.                   NO:   One line per depth step
~Well Information Block
#MNEM.UNIT     VALUE/NAME     DESCRIPTION
#---------     -----------    ---------------------------
 STRT.S             20:59:46 30-Jun-20: START TIME 20:59:46 30-Jun-20
 STOP.S             21:08:48 30-Jun-20: STOP TIME  21:08:48 30-Jun-20
 STEP.S                   0.00: STEP TIME
 NULL.                 -999.25: NULL VALUE
 DFWT.                        :  DIST FWL TEXT
 DFST.                        :  DIST FSL TEXT
 DMF .             Drill Floor:  DRILL MEAS FROM
 STIM.      09.59.28 01-Jun-20:  START TIME
 DATE.      09.59.28 01-Jun-20:  END TIME
 SPUD.               01-Jun-20:  SPUD DATE
 NREF.                    Grid:  NORTH REFERENCE
 HPTY.       Minimum Curvature:  HOLE POS TYPE
 DMOD.             Drill Model:  DRILL MOD DESC
 SVYD.                  Survey:  SURVEY DESC
 ILTD.               Lithology:  INTERP LTH DESC
 FTOP.          Formation Tops:  FORM TOPS DESC
 SON .        AZ-XX-0905455768:  JOB NUMBER
 WTYP.                Deviated:  WELL TYPE
 COMP.     BP Exploration(Caspian Sea):  COMPANY
 BASE.              Azerbaijan:  LOGGING EQUIPMENT BASE LOCATION
 REGN.                   EESSA:  REGION
 CTRY.              Azerbaijan:  COUNTRY NAME
 FLD .                     ACG:  FIELD NAME
 SRVC.          Turan Drilling:  CONTRACTOR
 WELL.                     B41:  WELL NAME
 RIG .           Central Azeri:  RIG NAME
 DCON.         Sperry Drilling:  DIRECTNL CONTR
 PDAT.          Mean Sea Level:  PERMANENT DATUM
 MDS .        Operator Entered:  MAG DATA SOURCE
 API .                        :  API NUMBER
 CNTY.                        :  COUNTY
 PROV.                        :  PROVINCE
 STAT.                        :  STATE
 UWI .                        :  UNIQUE WELL IDENTIFIER
 LOC .                        :  LOCATION
 LMF .             Drill Floor:  LOG MEASURED FROM
 TVDS.m                  43.29:  TVDSS CORRECTN
 LATI.deg                40.03:  LATITUDE
 LONG.deg                51.35:  LONGITUDE
 WHNS.m                  12.98:  WELL HEAD N/S
 WHEW.m                  -6.62:  WELL HEAD E/W
 UTMX.m              530128.28:  UTM X
 UTMY.m             4433192.49:  UTM Y
 DFWL.m                   0.00:  DISTANCE FWL
 DFSL.m                   0.00:  DISTANCE FSL
 SDEP.m                 378.00:  START DEPTH
 TDD .m                   0.00:  TOTAL DEPTH (DRILLER)
 VSDR.deg               296.18:  VERT SEC DIRECT
 GVFD.g                   1.00:  GRAVITY FIELD
 MFLD.nT              50253.00:  MAGNETIC FIELD
 MDIP.deg                59.49:  MAGNETIC DIP
 MDEC.deg                 6.44:  MAGNETIC DECL
 GRDC.deg                 0.22:  GRID CORRECTION
 AZTC.deg                 6.22:  AZM TOTAL CORR
 EPD .m                   0.00:  ELEVATION
 EGL .m                   0.00:  GROUND ELEVATION
 WDMS.m                 128.20:  WD ELEV
 APD .m                  43.29:  DEPTH ABOVE PD
 AGAP.m                  43.29:  AIR GAP
 VSEW.m                  -6.62:  VERT SEC E/W
 VSNS.m                  12.98:  VERT SEC N/S
 EKB .m                  43.29:  KB ELEVATION
 EDF .m                  43.29:  DF ELEVATION
 TDL .m                1152.00:  TOTAL DEPTH (LOGGER)
 VSC .                       0:  VS TO CLOSURE
 MAGU.                 1848525:  MAGUTM CHECKSUM
~Parameter Information Block
#MNEM.UNIT       Value        Description
#---------     -----------    ---------------------------
 AV  .mps                 0.40:  Ann Velocity 
 AVMX.mps                 1.56:  Max Ann Veloc 
 AZIF.deg               300.46:  Azm, Final 
 BHAT.        Rotary Steerable:  BHA Type 
 BROT.°/30m               0.40:  Build Rotating 
 BS  .in                 17.50:  Bit Size 
 BSZ .in                 17.50:  Bit Size 
 BTPL.psig              300.00:  Bit Press Loss 
 CABU.                      No:  Customer Abuse 
 CGEO.          Parviz Guliyev:  Customer Geo 
 COMM.                     ÜRt:  Run Comments 1 
 TCS .hr                108.13:  Time Ciculation Ended 
 CV  .mps                 0.50:  Crit Velocity 
 CVMX.mps                 2.01:  Max Crit Veloc 
 DD1 .          Fariz Nahmatov:  Direct Drillr 1 
 DD2 .             Ehab Radwan:  Direct Drillr 2 
 DDSV.               Geo-Pilot:  DD Service 
 DEFF.%                  99.00:  % Det Eff 
 DLRX.°/30m               0.50:  Dogleg Rot Max 
 DLSO.°/30m               2.80:  Dogleg Oriented 
 DLSX.°/30m               3.90:  Dogleg Str Max 
 DRET.      09.30.04 03-Jul-20:  Drill End Time 
 DRST.      18.33.04 28-Jun-20:  Drill Start Tim 
 DTIM.hr                 55.83:  Time Drilling 
 EDEP.m                1952.00:  End Depth 
 ENG1.      Bakhtiyar Jabbarli:  Engineer 1 
 ENG2.         Farhad Orujzade:  Engineer 2 
 ENG3.          Rustam Safarov:  Engineer 3 
 ETIM.      01.33.04 04-Jul-20:  End Time 
 FLOI.gpm              1050.00:  Flow In 
 FLON.gpm               950.00:  Flow In Min 
 FLOS.cptm                0.10:  Fluid Loss 
 FLOX.gpm              1150.00:  Flow In Max 
 HFLO.                      No:  High Flow 
 HPRE.                      No:  High Pressure 
 HTEM.                      No:  High Temp 
 HYDO.m                   1.80:  Hydro Offset 
 IFIN.deg                75.26:  Inc, Final 
 IMAX.deg                75.38:  Inc Max 
 IMIN.deg                22.84:  Inc Min 
 IMND.m                 832.38:  Inc Min Depth 
 IMXD.m                1936.55:  Inc Max Depth 
 JARR.                      No:  Jarring 
 LETM.      17.40.00 04-Jul-20:  Log End Time 
 LOST.hr                     0:  Lost Rig Time 
 LSTM.      12.33.04 28-Jun-20:  Log Start Time 
 MDCL.ppm             49500.00:  Mud Chlorides 
 MDES.     Inversion Oil/Synthetic:  Mud Desc 
 DFD .sg                  1.46:  Mud Density 
 MDMN.sg                  1.46:  Dens Mud Min 
 MDMX.sg                  1.46:  Dens Mud Max 
 MOIL.                      70:  Run Mud Oil % 
 MOWR.                   70:30:  Run Mud OWR 
 MSND.                     0.5:  Run Mud Sand % 
 MSOL.                   19.89:  Run Mud Solids% 
 DFV .spqt               72.00:  Mud Viscosity 
 MWOD.in                  9.50:  MWD Tool OD 
 MWSI.                      No:  Serv Intrp, MWD 
 OTIM.hr                146.53:  Time Operating 
 PCON.           Look Like New:  Pad Condition 
 PMAX.psia             2900.00:  Press Op, Max 
 PV  .cP                 38.00:  Mud PV 
 RUN .                     600:  Run Number 
 ROPA.m/hr               22.00:  ROP Avg 
 ROPN.m/hr               10.00:  ROP Min 
 ROPX.m/hr              263.00:  ROP Max 
 RPMA.rpm               155.00:  RPM Surface Avg 
 RPMN.rpm               140.00:  RPM Surface Min 
 RPMX.rpm               160.00:  RPM Surface Max 
 RRUN.                    0600:  Rig Run Number 
 RTIM.hr                  5.00:  Time Reaming 
 SAZI.deg               300.08:  Azm, Start 
 SDEP.m                 800.00:  Start Depth 
 SIDD.                      No:  Serv Intrp, DD 
 SINC.deg                22.84:  Inc, Start 
 SPPA.psig             3000.00:  SPP Avg 
 SPPN.psig             1900.00:  SPP Min 
 SPPX.psig             3200.00:  SPP Max 
 STIM.      12.30.04 28-Jun-20:  Start Time 
 SVCS.                 DD, MWD:  Services 
 SVER.                    9.20:  Sperry Version 
 TDAT.m                1952.00:  Tot Depth Attmp 
 TDDF.                      No:  Trip for DD 
 TDLG.m                1152.00:  Tot Depth Loggd 
 TFF .                      No:  Trip for Fail 
 TQAA.f-kp                8.00:  Torque Abs Avg 
 TQAN.f-kp                5.00:  Torque Abs Min 
 TQAX.f-kp               14.00:  Torque Abs Max 
 TRRT.°/30m               0.50:  Turn Rotating 
 MRT .                  EWR-M5:  Maximum Recorded Temperature 
 TTMX.degC               69.00:  Max Tool Temp 
 VS01.                90610313:  Virtual Str1 SN 
 VS02.                90613431:  Virtual Str2 SN 
 VS03.                90615410:  Virtual Str3 SN 
 WBMN.klb                 6.00:  WOB Min 
 WITN.            Bruce Cheyne:  Customer Rep 
 WITN.             Ayaz Aliyev:  Customer Rep 2 
 WOBA.klb                 6.00:  WOB Avg 
 WOBX.klb                10.00:  WOB Max 
 YP  .lhf2               36.00:  Yield Point 
~Curve Information Block
#MNEM.UNIT                 API CODE     Curve Description
#---------               -----------    ---------------------------
 TIME.HHMMSS            00 000 000 000:  GT Time & Date
 GTET.sec               00 000 000 000:  GT Elapsed Test Time
 GTPQH.psia             00 000 000 000:  GT HR Quartz Pressure
 GTDEPTH.m              00 000 000 000:  GT Depth
 GTTVD.m                00 000 000 000:  GT True Vertical Depth
 GTTQ.degC              00 000 000 000:  GT Quartz Temperature
 GTTN.NONE              00 000 000 000:  GT Test Number
#Other Information
#
#WARRANTY: Halliburton will use its best efforts to furnish customers with 
#accurate information and interpretations that are part of, and incident to, the services 
#provided.  However, Halliburton cannot and does not warrant the accuracy 
#or correctness of such information and interpretations.  Under no circumstances should any 
#such information or interpretation be relied upon as the sole basis for any drilling, 
#completion, production, or financial decision or any procedure involving any risk to the 
#safety of any drilling venture, drilling rig or its crew or any other third party.  The 
#Customer has full responsibility for all drilling, completion and production operation.  
#Halliburton makes no representations or warranties, either expressed or 
#implied, including, but not limited to, the implied warranties of merchantability or fitness 
#for a particular purpose, with respect to the services rendered.  In no event will 
#Halliburton be liable for failure to obtain any particular results or for 
#any damages, including, but not limited to, indirect, special or consequential damages, 
#resulting from the use of any information or interpretation provided by Halliburton.
#
~A           TIME            GTET   GTPQH  GTDEPTH  GTTVD  GTTQ  GTTN 
# ...
   21:05:31.826.30-Jun-2020 345.06 2105.20 1143.02 1083.79 62.36 3.00
   21:05:32.026.30-Jun-2020 345.26 2105.19 1143.02 1083.79 62.36 3.00
   21:05:32.227.30-Jun-2020 345.46 2105.17 1143.02 1083.79 62.36 3.00
   21:05:32.427.30-Jun-2020 345.66 2105.14 1143.02 1083.79 62.36 3.00
   21:05:32.627.30-Jun-2020 345.86 2105.19 1143.02 1083.79 62.36 3.00
   21:05:32.827.30-Jun-2020 346.06 2105.20 1143.02 1083.79 62.36 3.00
   21:05:33.027.30-Jun-2020 346.26 2105.20 1143.02 1083.79 62.36 3.00
   21:05:33.227.30-Jun-2020 346.46 2105.18 1143.02 1083.79 62.36 3.00
   21:05:33.427.30-Jun-2020 346.66 2105.16 1143.02 1083.79 62.36 3.00
   21:05:33.627.30-Jun-2020 346.86 2105.11 1143.02 1083.79 62.36 3.00
   21:05:33.827.30-Jun-2020 347.06 2105.15 1143.02 1083.79 62.36 3.00
   21:05:34.027.30-Jun-2020 347.26 2105.15 1143.02 1083.79 62.36 3.00
   21:05:34.227.30-Jun-2020 347.46 2105.16 1143.02 1083.79 62.36 3.00
   21:05:34.427.30-Jun-2020 347.66 2105.15 1143.02 1083.79 62.36 3.00
   21:05:34.627.30-Jun-2020 347.86 2105.15 1143.02 1083.79 62.36 3.00
   21:05:34.827.30-Jun-2020 348.06 2105.14 1143.02 1083.79 62.36 3.00
   21:05:35.027.30-Jun-2020 348.26 2105.13 1143.02 1083.79 62.36 3.00
   21:05:35.227.30-Jun-2020 348.46 2105.14 1143.02 1083.79 62.35 3.00
   21:05:35.427.30-Jun-2020 348.66 2105.15 1143.02 1083.79 62.35 3.00
   21:05:35.627.30-Jun-2020 348.86 2105.14 1143.02 1083.79 62.35 3.00
   21:05:35.827.30-Jun-2020 349.06 2105.13 1143.02 1083.79 62.35 3.00
   21:05:36.027.30-Jun-2020 349.26 2105.13 1143.02 1083.79 62.35 3.00
   21:05:36.227.30-Jun-2020 349.46 2105.14 1143.02 1083.79 62.35 3.00
   21:05:36.427.30-Jun-2020 349.66 2105.13 1143.02 1083.79 62.35 3.00
   21:05:36.627.30-Jun-2020 349.86 2105.13 1143.02 1083.79 62.35 3.00
   21:05:36.827.30-Jun-2020 350.06 2105.14 1143.02 1083.79 62.35 3.00
   21:05:37.027.30-Jun-2020 350.26 2105.14 1143.02 1083.79 62.35 3.00
   21:05:37.227.30-Jun-2020 350.46 2105.09 1143.02 1083.79 62.35 3.00
   21:05:37.427.30-Jun-2020 350.66 2105.19 1143.02 1083.79 62.35 3.00
   21:05:37.627.30-Jun-2020 350.86 2105.23 1143.02 1083.79 62.35 3.00
   21:05:37.828.30-Jun-2020 351.06 2105.21 1143.02 1083.79 62.35 3.00
   21:05:38.028.30-Jun-2020 351.26 2105.21 1143.02 1083.79 62.35 3.00
   21:05:38.228.30-Jun-2020 351.46 2105.18 1143.02 1083.79 62.35 3.00
   21:05:38.428.30-Jun-2020 351.66 2105.18 1143.02 1083.79 62.35 3.00
   21:05:38.628.30-Jun-2020 351.86 2105.16 1143.02 1083.79 62.35 3.00
   21:05:38.828.30-Jun-2020 352.06 2105.16 1143.02 1083.79 62.35 3.00
   21:05:39.028.30-Jun-2020 352.26 2105.16 1143.02 1083.79 62.35 3.00
   21:05:39.228.30-Jun-2020 352.46 2105.15 1143.02 1083.79 62.35 3.00
   21:05:39.428.30-Jun-2020 352.66 2105.15 1143.02 1083.79 62.35 3.00
   21:05:39.628.30-Jun-2020 352.86 2105.10 1143.02 1083.79 62.35 3.00
   21:05:39.828.30-Jun-2020 353.06 2105.18 1143.02 1083.79 62.35 3.00
   21:05:40.028.30-Jun-2020 353.26 2105.18 1143.02 1083.79 62.35 3.00
   21:05:40.228.30-Jun-2020 353.46 2105.18 1143.02 1083.79 62.34 3.00
   21:05:40.428.30-Jun-2020 353.66 2105.16 1143.02 1083.79 62.34 3.00
   21:05:40.628.30-Jun-2020 353.86 2105.15 1143.02 1083.79 62.34 3.00
   21:05:40.828.30-Jun-2020 354.06 2105.13 1143.02 1083.79 62.34 3.00
   21:05:41.028.30-Jun-2020 354.26 2105.13 1143.02 1083.79 62.34 3.00
   21:05:41.228.30-Jun-2020 354.46 2105.18 1143.02 1083.79 62.34 3.00
   21:05:41.428.30-Jun-2020 354.66 2105.16 1143.02 1083.79 62.34 3.00
   21:05:41.628.30-Jun-2020 354.86 2105.15 1143.02 1083.79 62.34 3.00
   21:05:41.828.30-Jun-2020 355.06 2105.11 1143.02 1083.79 62.34 3.00
   21:05:42.028.30-Jun-2020 355.26 2105.11 1143.02 1083.79 62.34 3.00
   21:05:42.228.30-Jun-2020 355.46 2105.20 1143.02 1083.79 62.34 3.00
   21:05:42.428.30-Jun-2020 355.66 2105.17 1143.02 1083.79 62.34 3.00
   21:05:42.628.30-Jun-2020 355.86 2105.17 1143.02 1083.79 62.34 3.00
   21:05:42.828.30-Jun-2020 356.06 2105.15 1143.02 1083.79 62.34 3.00
   21:05:43.028.30-Jun-2020 356.26 2105.15 1143.02 1083.79 62.34 3.00
   21:05:43.228.30-Jun-2020 356.46 2105.17 1143.02 1083.79 62.34 3.00
   21:05:43.429.30-Jun-2020 356.66 2105.17 1143.02 1083.79 62.34 3.00
   21:05:43.629.30-Jun-2020 356.86 2105.16 1143.02 1083.79 62.34 3.00
   21:05:43.829.30-Jun-2020 357.06 2105.15 1143.02 1083.79 62.34 3.00
   21:05:44.029.30-Jun-2020 357.26 2105.15 1143.02 1083.79 62.34 3.00
   21:05:44.229.30-Jun-2020 357.46 2105.14 1143.02 1083.79 62.34 3.00
   21:05:44.429.30-Jun-2020 357.66 2105.14 1143.02 1083.79 62.34 3.00
   21:05:44.629.30-Jun-2020 357.86 2105.13 1143.02 1083.79 62.34 3.00
   21:05:44.829.30-Jun-2020 358.06 2105.14 1143.02 1083.79 62.34 3.00
   21:05:45.029.30-Jun-2020 358.26 2105.12 1143.02 1083.79 62.34 3.00
   21:05:45.229.30-Jun-2020 358.46 2105.13 1143.02 1083.79 62.34 3.00
   21:05:45.429.30-Jun-2020 358.66 2105.12 1143.02 1083.79 62.33 3.00
   21:05:45.629.30-Jun-2020 358.86 2105.12 1143.02 1083.79 62.33 3.00
   21:05:45.829.30-Jun-2020 359.06 2105.12 1143.02 1083.79 62.33 3.00
   21:05:46.029.30-Jun-2020 359.26 2105.12 1143.02 1083.79 62.33 3.00
   21:05:46.229.30-Jun-2020 359.46 2105.12 1143.02 1083.79 62.33 3.00
   21:05:46.429.30-Jun-2020 359.66 2105.12 1143.02 1083.79 62.33 3.00
   21:05:46.629.30-Jun-2020 359.86 2105.10 1143.02 1083.79 62.33 3.00
   21:05:46.829.30-Jun-2020 360.06 2105.13 1143.02 1083.79 62.33 3.00
   21:05:47.029.30-Jun-2020 360.26 2105.21 1143.02 1083.79 62.33 3.00
   21:05:47.229.30-Jun-2020 360.46 2105.21 1143.02 1083.79 62.33 3.00
   21:05:47.429.30-Jun-2020 360.66 2102.24 1143.02 1083.79 62.33 3.00
   21:05:47.629.30-Jun-2020 360.86 2088.38 1143.02 1083.79 62.33 3.00
   21:05:47.829.30-Jun-2020 361.06 2083.34 1143.02 1083.79 62.33 3.00
   21:05:48.029.30-Jun-2020 361.26 2082.72 1143.02 1083.79 62.33 3.00
   21:05:48.229.30-Jun-2020 361.46 2083.08 1143.02 1083.79 62.33 3.00
   21:05:48.429.30-Jun-2020 361.66 2083.56 1143.02 1083.79 62.33 3.00
   21:05:48.629.30-Jun-2020 361.86 2084.21 1143.02 1083.79 62.33 3.00
   21:05:48.829.30-Jun-2020 362.06 2084.16 1143.02 1083.79 62.33 3.00
   21:05:49.030.30-Jun-2020 362.26 2084.16 1143.02 1083.79 62.33 3.00
   21:05:49.230.30-Jun-2020 362.46 2084.61 1143.02 1083.79 62.33 3.00
   21:05:49.430.30-Jun-2020 362.66 2084.98 1143.02 1083.79 62.33 3.00
   21:05:49.630.30-Jun-2020 362.86 2085.11 1143.02 1083.79 62.33 3.00
   21:05:49.830.30-Jun-2020 363.06 2085.16 1143.02 1083.79 62.33 3.00
   21:05:50.030.30-Jun-2020 363.26 2085.16 1143.02 1083.79 62.33 3.00
   21:05:50.230.30-Jun-2020 363.46 2085.14 1143.02 1083.79 62.33 3.00
   21:05:50.430.30-Jun-2020 363.66 2085.37 1143.02 1083.79 62.32 3.00
   21:05:50.630.30-Jun-2020 363.86 2085.58 1143.02 1083.79 62.32 3.00
   21:05:50.830.30-Jun-2020 364.07 2085.73 1143.02 1083.79 62.32 3.00
   21:05:51.030.30-Jun-2020 364.27 2085.73 1143.02 1083.79 62.32 3.00
   21:05:51.230.30-Jun-2020 364.47 2085.71 1143.02 1083.79 62.32 3.00
   21:05:51.430.30-Jun-2020 364.67 2085.73 1143.02 1083.79 62.32 3.00
   21:05:51.630.30-Jun-2020 364.87 2085.87 1143.02 1083.79 62.32 3.00
   21:05:51.830.30-Jun-2020 365.07 2086.08 1143.02 1083.79 62.32 3.00
   21:05:52.030.30-Jun-2020 365.27 2085.95 1143.02 1083.79 62.32 3.00
   21:05:52.230.30-Jun-2020 365.47 2086.08 1143.02 1083.79 62.32 3.00
   21:05:52.430.30-Jun-2020 365.67 2085.89 1143.02 1083.79 62.32 3.00
   21:05:52.630.30-Jun-2020 365.87 2085.97 1143.02 1083.79 62.32 3.00
   21:05:52.830.30-Jun-2020 366.07 2086.28 1143.02 1083.79 62.32 3.00
   21:05:53.030.30-Jun-2020 366.27 2086.28 1143.02 1083.79 62.32 3.00
   21:05:53.230.30-Jun-2020 366.47 2086.27 1143.02 1083.79 62.32 3.00
   21:05:53.430.30-Jun-2020 366.67 2086.25 1143.02 1083.79 62.32 3.00
   21:05:53.630.30-Jun-2020 366.87 2086.37 1143.02 1083.79 62.32 3.00
   21:05:53.830.30-Jun-2020 367.07 2086.19 1143.02 1083.79 62.32 3.00
   21:05:54.030.30-Jun-2020 367.27 2086.19 1143.02 1083.79 62.32 3.00
   21:05:54.230.30-Jun-2020 367.47 2086.41 1143.02 1083.79 62.32 3.00
   21:05:54.430.30-Jun-2020 367.67 2086.35 1143.02 1083.79 62.32 3.00
   21:05:54.631.30-Jun-2020 367.87 2086.48 1143.02 1083.79 62.32 3.00
