~Version Information
 VERS.                  2.0:   CWLS log ASCII Standard -VERSION 2.0
 WRAP.                   NO:   One line per depth step
~Well Information Block
#MNEM.UNIT     VALUE/NAME     DESCRIPTION
#---------     -----------    ---------------------------
 STRT.S             23:30:34 30-Jun-20: START TIME 23:30:34 30-Jun-20
 STOP.S             23:39:34 30-Jun-20: STOP TIME  23:39:34 30-Jun-20
 STEP.S                   0.00: STEP TIME
 NULL.                 -999.25: NULL VALUE
 DFWT.                        :  DIST FWL TEXT
 DFST.                        :  DIST FSL TEXT
 DMF .             Drill Floor:  DRILL MEAS FROM
 STIM.      09.59.28 01-Jun-20:  START TIME
 DATE.      09.59.28 01-Jun-20:  END TIME
 SPUD.               01-Jun-20:  SPUD DATE
 NREF.                    Grid:  NORTH REFERENCE
 HPTY.       Minimum Curvature:  HOLE POS TYPE
 DMOD.             Drill Model:  DRILL MOD DESC
 SVYD.                  Survey:  SURVEY DESC
 ILTD.               Lithology:  INTERP LTH DESC
 FTOP.          Formation Tops:  FORM TOPS DESC
 SON .        AZ-XX-0905455768:  JOB NUMBER
 WTYP.                Deviated:  WELL TYPE
 COMP.     BP Exploration(Caspian Sea):  COMPANY
 BASE.              Azerbaijan:  LOGGING EQUIPMENT BASE LOCATION
 REGN.                   EESSA:  REGION
 CTRY.              Azerbaijan:  COUNTRY NAME
 FLD .                     ACG:  FIELD NAME
 SRVC.          Turan Drilling:  CONTRACTOR
 WELL.                     B41:  WELL NAME
 RIG .           Central Azeri:  RIG NAME
 DCON.         Sperry Drilling:  DIRECTNL CONTR
 PDAT.          Mean Sea Level:  PERMANENT DATUM
 MDS .        Operator Entered:  MAG DATA SOURCE
 API .                        :  API NUMBER
 CNTY.                        :  COUNTY
 PROV.                        :  PROVINCE
 STAT.                        :  STATE
 UWI .                        :  UNIQUE WELL IDENTIFIER
 LOC .                        :  LOCATION
 LMF .             Drill Floor:  LOG MEASURED FROM
 TVDS.m                  43.29:  TVDSS CORRECTN
 LATI.deg                40.03:  LATITUDE
 LONG.deg                51.35:  LONGITUDE
 WHNS.m                  12.98:  WELL HEAD N/S
 WHEW.m                  -6.62:  WELL HEAD E/W
 UTMX.m              530128.28:  UTM X
 UTMY.m             4433192.49:  UTM Y
 DFWL.m                   0.00:  DISTANCE FWL
 DFSL.m                   0.00:  DISTANCE FSL
 SDEP.m                 378.00:  START DEPTH
 TDD .m                   0.00:  TOTAL DEPTH (DRILLER)
 VSDR.deg               296.18:  VERT SEC DIRECT
 GVFD.g                   1.00:  GRAVITY FIELD
 MFLD.nT              50253.00:  MAGNETIC FIELD
 MDIP.deg                59.49:  MAGNETIC DIP
 MDEC.deg                 6.44:  MAGNETIC DECL
 GRDC.deg                 0.22:  GRID CORRECTION
 AZTC.deg                 6.22:  AZM TOTAL CORR
 EPD .m                   0.00:  ELEVATION
 EGL .m                   0.00:  GROUND ELEVATION
 WDMS.m                 128.20:  WD ELEV
 APD .m                  43.29:  DEPTH ABOVE PD
 AGAP.m                  43.29:  AIR GAP
 VSEW.m                  -6.62:  VERT SEC E/W
 VSNS.m                  12.98:  VERT SEC N/S
 EKB .m                  43.29:  KB ELEVATION
 EDF .m                  43.29:  DF ELEVATION
 TDL .m                1152.00:  TOTAL DEPTH (LOGGER)
 VSC .                       0:  VS TO CLOSURE
 MAGU.                 1848525:  MAGUTM CHECKSUM
~Parameter Information Block
#MNEM.UNIT       Value        Description
#---------     -----------    ---------------------------
 AV  .mps                 0.40:  Ann Velocity 
 AVMX.mps                 1.56:  Max Ann Veloc 
 AZIF.deg               300.46:  Azm, Final 
 BHAT.        Rotary Steerable:  BHA Type 
 BROT.°/30m               0.40:  Build Rotating 
 BS  .in                 17.50:  Bit Size 
 BSZ .in                 17.50:  Bit Size 
 BTPL.psig              300.00:  Bit Press Loss 
 CABU.                      No:  Customer Abuse 
 CGEO.          Parviz Guliyev:  Customer Geo 
 COMM.                     œº_:  Run Comments 1 
 TCS .hr                108.13:  Time Ciculation Ended 
 CV  .mps                 0.50:  Crit Velocity 
 CVMX.mps                 2.01:  Max Crit Veloc 
 DD1 .          Fariz Nahmatov:  Direct Drillr 1 
 DD2 .             Ehab Radwan:  Direct Drillr 2 
 DDSV.               Geo-Pilot:  DD Service 
 DEFF.%                  99.00:  % Det Eff 
 DLRX.°/30m               0.50:  Dogleg Rot Max 
 DLSO.°/30m               2.80:  Dogleg Oriented 
 DLSX.°/30m               3.90:  Dogleg Str Max 
 DRET.      09.30.04 03-Jul-20:  Drill End Time 
 DRST.      18.33.04 28-Jun-20:  Drill Start Tim 
 DTIM.hr                 55.83:  Time Drilling 
 EDEP.m                1952.00:  End Depth 
 ENG1.      Bakhtiyar Jabbarli:  Engineer 1 
 ENG2.         Farhad Orujzade:  Engineer 2 
 ENG3.          Rustam Safarov:  Engineer 3 
 ETIM.      01.33.04 04-Jul-20:  End Time 
 FLOI.gpm              1050.00:  Flow In 
 FLON.gpm               950.00:  Flow In Min 
 FLOS.cptm                0.10:  Fluid Loss 
 FLOX.gpm              1150.00:  Flow In Max 
 HFLO.                      No:  High Flow 
 HPRE.                      No:  High Pressure 
 HTEM.                      No:  High Temp 
 HYDO.m                   1.80:  Hydro Offset 
 IFIN.deg                75.26:  Inc, Final 
 IMAX.deg                75.38:  Inc Max 
 IMIN.deg                22.84:  Inc Min 
 IMND.m                 832.38:  Inc Min Depth 
 IMXD.m                1936.55:  Inc Max Depth 
 JARR.                      No:  Jarring 
 LETM.      17.40.00 04-Jul-20:  Log End Time 
 LOST.hr                     0:  Lost Rig Time 
 LSTM.      12.33.04 28-Jun-20:  Log Start Time 
 MDCL.ppm             49500.00:  Mud Chlorides 
 MDES.     Inversion Oil/Synthetic:  Mud Desc 
 DFD .sg                  1.46:  Mud Density 
 MDMN.sg                  1.46:  Dens Mud Min 
 MDMX.sg                  1.46:  Dens Mud Max 
 MOIL.                      70:  Run Mud Oil % 
 MOWR.                   70:30:  Run Mud OWR 
 MSND.                     0.5:  Run Mud Sand % 
 MSOL.                   19.89:  Run Mud Solids% 
 DFV .spqt               72.00:  Mud Viscosity 
 MWOD.in                  9.50:  MWD Tool OD 
 MWSI.                      No:  Serv Intrp, MWD 
 OTIM.hr                146.53:  Time Operating 
 PCON.           Look Like New:  Pad Condition 
 PMAX.psia             2900.00:  Press Op, Max 
 PV  .cP                 38.00:  Mud PV 
 RUN .                     600:  Run Number 
 ROPA.m/hr               22.00:  ROP Avg 
 ROPN.m/hr               10.00:  ROP Min 
 ROPX.m/hr              263.00:  ROP Max 
 RPMA.rpm               155.00:  RPM Surface Avg 
 RPMN.rpm               140.00:  RPM Surface Min 
 RPMX.rpm               160.00:  RPM Surface Max 
 RRUN.                    0600:  Rig Run Number 
 RTIM.hr                  5.00:  Time Reaming 
 SAZI.deg               300.08:  Azm, Start 
 SDEP.m                 800.00:  Start Depth 
 SIDD.                      No:  Serv Intrp, DD 
 SINC.deg                22.84:  Inc, Start 
 SPPA.psig             3000.00:  SPP Avg 
 SPPN.psig             1900.00:  SPP Min 
 SPPX.psig             3200.00:  SPP Max 
 STIM.      12.30.04 28-Jun-20:  Start Time 
 SVCS.                 DD, MWD:  Services 
 SVER.                    9.20:  Sperry Version 
 TDAT.m                1952.00:  Tot Depth Attmp 
 TDDF.                      No:  Trip for DD 
 TDLG.m                1152.00:  Tot Depth Loggd 
 TFF .                      No:  Trip for Fail 
 TQAA.f-kp                8.00:  Torque Abs Avg 
 TQAN.f-kp                5.00:  Torque Abs Min 
 TQAX.f-kp               14.00:  Torque Abs Max 
 TRRT.°/30m               0.50:  Turn Rotating 
 MRT .                  EWR-M5:  Maximum Recorded Temperature 
 TTMX.degC               69.00:  Max Tool Temp 
 VS01.                90610313:  Virtual Str1 SN 
 VS02.                90613431:  Virtual Str2 SN 
 VS03.                90615410:  Virtual Str3 SN 
 WBMN.klb                 6.00:  WOB Min 
 WITN.            Bruce Cheyne:  Customer Rep 
 WITN.             Ayaz Aliyev:  Customer Rep 2 
 WOBA.klb                 6.00:  WOB Avg 
 WOBX.klb                10.00:  WOB Max 
 YP  .lhf2               36.00:  Yield Point 
~Curve Information Block
#MNEM.UNIT                 API CODE     Curve Description
#---------               -----------    ---------------------------
 TIME.HHMMSS            00 000 000 000:  GT Time & Date
 GTET.sec               00 000 000 000:  GT Elapsed Test Time
 GTPQH.psia             00 000 000 000:  GT HR Quartz Pressure
 GTDEPTH.m              00 000 000 000:  GT Depth
 GTTVD.m                00 000 000 000:  GT True Vertical Depth
 GTTQ.degC              00 000 000 000:  GT Quartz Temperature
 GTTN.NONE              00 000 000 000:  GT Test Number
#Other Information
#
#WARRANTY: Halliburton will use its best efforts to furnish customers with 
#accurate information and interpretations that are part of, and incident to, the services 
#provided.  However, Halliburton cannot and does not warrant the accuracy 
#or correctness of such information and interpretations.  Under no circumstances should any 
#such information or interpretation be relied upon as the sole basis for any drilling, 
#completion, production, or financial decision or any procedure involving any risk to the 
#safety of any drilling venture, drilling rig or its crew or any other third party.  The 
#Customer has full responsibility for all drilling, completion and production operation.  
#Halliburton makes no representations or warranties, either expressed or 
#implied, including, but not limited to, the implied warranties of merchantability or fitness 
#for a particular purpose, with respect to the services rendered.  In no event will 
#Halliburton be liable for failure to obtain any particular results or for 
#any damages, including, but not limited to, indirect, special or consequential damages, 
#resulting from the use of any information or interpretation provided by Halliburton.
#
~A           TIME            GTET   GTPQH  GTDEPTH  GTTVD  GTTQ  GTTN 
# ...
   23:33:15.532.30-Jun-2020 161.05 2110.81 1161.05 1096.50 59.67 4.00
   23:33:15.732.30-Jun-2020 161.25 2110.81 1161.05 1096.50 59.67 4.00
   23:33:15.932.30-Jun-2020 161.45 2110.81 1161.05 1096.50 59.67 4.00
   23:33:16.132.30-Jun-2020 161.65 2110.79 1161.05 1096.50 59.67 4.00
   23:33:16.332.30-Jun-2020 161.85 2110.81 1161.05 1096.50 59.67 4.00
   23:33:16.532.30-Jun-2020 162.05 2110.82 1161.05 1096.50 59.67 4.00
   23:33:16.732.30-Jun-2020 162.25 2110.82 1161.05 1096.50 59.67 4.00
   23:33:16.932.30-Jun-2020 162.45 2110.80 1161.05 1096.50 59.67 4.00
   23:33:17.132.30-Jun-2020 162.65 2110.80 1161.05 1096.50 59.67 4.00
   23:33:17.332.30-Jun-2020 162.85 2110.80 1161.05 1096.50 59.67 4.00
   23:33:17.532.30-Jun-2020 163.05 2110.79 1161.05 1096.50 59.67 4.00
   23:33:17.733.30-Jun-2020 163.25 2110.79 1161.05 1096.50 59.67 4.00
   23:33:17.933.30-Jun-2020 163.45 2110.79 1161.05 1096.50 59.67 4.00
   23:33:18.133.30-Jun-2020 163.65 2110.79 1161.05 1096.50 59.67 4.00
   23:33:18.333.30-Jun-2020 163.85 2110.79 1161.05 1096.50 59.67 4.00
   23:33:18.533.30-Jun-2020 164.05 2110.78 1161.05 1096.50 59.67 4.00
   23:33:18.733.30-Jun-2020 164.25 2110.78 1161.05 1096.50 59.67 4.00
   23:33:18.933.30-Jun-2020 164.45 2110.80 1161.05 1096.50 59.67 4.00
   23:33:19.133.30-Jun-2020 164.65 2110.78 1161.05 1096.50 59.67 4.00
   23:33:19.333.30-Jun-2020 164.85 2110.80 1161.05 1096.50 59.67 4.00
   23:33:19.533.30-Jun-2020 165.05 2110.79 1161.05 1096.50 59.67 4.00
   23:33:19.733.30-Jun-2020 165.25 2110.79 1161.05 1096.50 59.67 4.00
   23:33:19.933.30-Jun-2020 165.45 2110.79 1161.05 1096.50 59.67 4.00
   23:33:20.133.30-Jun-2020 165.65 2110.81 1161.05 1096.50 59.67 4.00
   23:33:20.333.30-Jun-2020 165.85 2110.80 1161.05 1096.50 59.67 4.00
   23:33:20.533.30-Jun-2020 166.05 2110.78 1161.05 1096.50 59.67 4.00
   23:33:20.733.30-Jun-2020 166.25 2110.78 1161.05 1096.50 59.67 4.00
   23:33:20.933.30-Jun-2020 166.45 2110.79 1161.05 1096.50 59.67 4.00
   23:33:21.134.30-Jun-2020 166.65 2110.78 1161.05 1096.50 59.67 4.00
   23:33:21.334.30-Jun-2020 166.85 2110.78 1161.05 1096.50 59.67 4.00
   23:33:21.534.30-Jun-2020 167.05 2110.77 1161.05 1096.50 59.67 4.00
   23:33:21.734.30-Jun-2020 167.25 2110.77 1161.05 1096.50 59.67 4.00
   23:33:21.934.30-Jun-2020 167.45 2110.77 1161.05 1096.50 59.67 4.00
   23:33:22.134.30-Jun-2020 167.65 2110.78 1161.05 1096.50 59.67 4.00
   23:33:22.334.30-Jun-2020 167.85 2110.79 1161.05 1096.50 59.67 4.00
   23:33:22.534.30-Jun-2020 168.05 2110.80 1161.05 1096.50 59.67 4.00
   23:33:22.734.30-Jun-2020 168.25 2110.80 1161.05 1096.50 59.67 4.00
   23:33:22.934.30-Jun-2020 168.45 2110.79 1161.05 1096.50 59.67 4.00
   23:33:23.134.30-Jun-2020 168.65 2110.80 1161.05 1096.50 59.67 4.00
   23:33:23.334.30-Jun-2020 168.85 2110.81 1161.05 1096.50 59.67 4.00
   23:33:23.534.30-Jun-2020 169.05 2110.84 1161.05 1096.50 59.67 4.00
   23:33:23.734.30-Jun-2020 169.25 2110.84 1161.05 1096.50 59.67 4.00
   23:33:23.934.30-Jun-2020 169.45 2110.81 1161.05 1096.50 59.67 4.00
   23:33:24.134.30-Jun-2020 169.65 2110.79 1161.05 1096.50 59.67 4.00
   23:33:24.334.30-Jun-2020 169.85 2110.82 1161.05 1096.50 59.67 4.00
   23:33:24.535.30-Jun-2020 170.05 2110.80 1161.05 1096.50 59.67 4.00
   23:33:24.735.30-Jun-2020 170.25 2110.79 1161.05 1096.50 59.67 4.00
   23:33:24.935.30-Jun-2020 170.45 2110.84 1161.05 1096.50 59.67 4.00
   23:33:25.135.30-Jun-2020 170.65 2110.80 1161.05 1096.50 59.67 4.00
   23:33:25.335.30-Jun-2020 170.85 2110.78 1161.05 1096.50 59.67 4.00
   23:33:25.535.30-Jun-2020 171.05 2110.79 1161.05 1096.50 59.67 4.00
   23:33:25.735.30-Jun-2020 171.25 2110.79 1161.05 1096.50 59.67 4.00
   23:33:25.935.30-Jun-2020 171.45 2110.82 1161.05 1096.50 59.67 4.00
   23:33:26.135.30-Jun-2020 171.65 2110.78 1161.05 1096.50 59.67 4.00
   23:33:26.335.30-Jun-2020 171.85 2110.79 1161.05 1096.50 59.67 4.00
   23:33:26.535.30-Jun-2020 172.05 2110.79 1161.05 1096.50 59.67 4.00
   23:33:26.735.30-Jun-2020 172.25 2110.79 1161.05 1096.50 59.67 4.00
   23:33:26.935.30-Jun-2020 172.45 2110.79 1161.05 1096.50 59.67 4.00
   23:33:27.135.30-Jun-2020 172.65 2110.79 1161.05 1096.50 59.67 4.00
   23:33:27.335.30-Jun-2020 172.85 2110.78 1161.05 1096.50 59.67 4.00
   23:33:27.535.30-Jun-2020 173.05 2110.78 1161.05 1096.50 59.67 4.00
   23:33:27.735.30-Jun-2020 173.25 2110.78 1161.05 1096.50 59.67 4.00
   23:33:27.936.30-Jun-2020 173.45 2110.77 1161.05 1096.50 59.67 4.00
   23:33:28.136.30-Jun-2020 173.65 2110.77 1161.05 1096.50 59.67 4.00
   23:33:28.336.30-Jun-2020 173.85 2110.77 1161.05 1096.50 59.67 4.00
   23:33:28.536.30-Jun-2020 174.05 2110.78 1161.05 1096.50 59.67 4.00
   23:33:28.736.30-Jun-2020 174.25 2110.78 1161.05 1096.50 59.67 4.00
   23:33:28.936.30-Jun-2020 174.45 2110.77 1161.05 1096.50 59.67 4.00
   23:33:29.136.30-Jun-2020 174.65 2110.78 1161.05 1096.50 59.67 4.00
   23:33:29.336.30-Jun-2020 174.85 2110.77 1161.05 1096.50 59.67 4.00
   23:33:29.536.30-Jun-2020 175.05 2110.76 1161.05 1096.50 59.67 4.00
   23:33:29.736.30-Jun-2020 175.25 2110.78 1161.05 1096.50 59.67 4.00
   23:33:29.936.30-Jun-2020 175.45 2110.81 1161.05 1096.50 59.67 4.00
   23:33:30.136.30-Jun-2020 175.65 2110.79 1161.05 1096.50 59.67 4.00
   23:33:30.336.30-Jun-2020 175.85 2110.79 1161.05 1096.50 59.67 4.00
   23:33:30.536.30-Jun-2020 176.05 2110.78 1161.05 1096.50 59.67 4.00
   23:33:30.736.30-Jun-2020 176.25 2110.78 1161.05 1096.50 59.67 4.00
   23:33:30.936.30-Jun-2020 176.45 2110.79 1161.05 1096.50 59.67 4.00
   23:33:31.136.30-Jun-2020 176.65 2110.78 1161.05 1096.50 59.67 4.00
   23:33:31.336.30-Jun-2020 176.85 2110.78 1161.05 1096.50 59.67 4.00
   23:33:31.537.30-Jun-2020 177.05 2110.77 1161.05 1096.50 59.67 4.00
   23:33:31.737.30-Jun-2020 177.25 2110.77 1161.05 1096.50 59.67 4.00
   23:33:31.937.30-Jun-2020 177.45 2110.76 1161.05 1096.50 59.67 4.00
   23:33:32.137.30-Jun-2020 177.65 2110.77 1161.05 1096.50 59.67 4.00
   23:33:32.337.30-Jun-2020 177.85 2110.82 1161.05 1096.50 59.67 4.00
   23:33:32.537.30-Jun-2020 178.05 2110.79 1161.05 1096.50 59.67 4.00
   23:33:32.737.30-Jun-2020 178.25 2110.79 1161.05 1096.50 59.67 4.00
   23:33:32.937.30-Jun-2020 178.45 2110.79 1161.05 1096.50 59.67 4.00
   23:33:33.137.30-Jun-2020 178.65 2110.81 1161.05 1096.50 59.67 4.00
   23:33:33.337.30-Jun-2020 178.85 2110.81 1161.05 1096.50 59.67 4.00
   23:33:33.537.30-Jun-2020 179.05 2110.79 1161.05 1096.50 59.67 4.00
   23:33:33.737.30-Jun-2020 179.25 2110.78 1161.05 1096.50 59.67 4.00
   23:33:33.937.30-Jun-2020 179.45 2110.79 1161.05 1096.50 59.67 4.00
   23:33:34.137.30-Jun-2020 179.65 2110.79 1161.05 1096.50 59.67 4.00
   23:33:34.337.30-Jun-2020 179.85 2110.79 1161.05 1096.50 59.67 4.00
   23:33:34.537.30-Jun-2020 180.05 2110.81 1161.05 1096.50 59.67 4.00
   23:33:34.737.30-Jun-2020 180.25 2110.81 1161.05 1096.50 59.67 4.00
   23:33:34.938.30-Jun-2020 180.45 2110.78 1161.05 1096.50 59.67 4.00
   23:33:35.138.30-Jun-2020 180.65 2110.80 1161.05 1096.50 59.67 4.00
   23:33:35.338.30-Jun-2020 180.85 2110.79 1161.05 1096.50 59.67 4.00
   23:33:35.538.30-Jun-2020 181.05 2110.78 1161.05 1096.50 59.67 4.00
   23:33:35.738.30-Jun-2020 181.25 2110.78 1161.05 1096.50 59.67 4.00
   23:33:35.938.30-Jun-2020 181.45 2110.81 1161.05 1096.50 59.67 4.00
   23:33:36.138.30-Jun-2020 181.65 2110.78 1161.05 1096.50 59.67 4.00
   23:33:36.338.30-Jun-2020 181.85 2110.80 1161.05 1096.50 59.67 4.00
   23:33:36.538.30-Jun-2020 182.05 2110.80 1161.05 1096.50 59.67 4.00
   23:33:36.738.30-Jun-2020 182.25 2110.80 1161.05 1096.50 59.67 4.00
   23:33:36.938.30-Jun-2020 182.45 2110.79 1161.05 1096.50 59.67 4.00
   23:33:37.138.30-Jun-2020 182.65 2110.78 1161.05 1096.50 59.67 4.00
   23:33:37.338.30-Jun-2020 182.85 2110.77 1161.05 1096.50 59.67 4.00
   23:33:37.538.30-Jun-2020 183.05 2110.78 1161.05 1096.50 59.67 4.00
   23:33:37.738.30-Jun-2020 183.25 2110.78 1161.05 1096.50 59.67 4.00
   23:33:37.938.30-Jun-2020 183.45 2110.77 1161.05 1096.50 59.67 4.00
   23:33:38.138.30-Jun-2020 183.65 2110.77 1161.05 1096.50 59.67 4.00
   23:33:38.339.30-Jun-2020 183.85 2110.77 1161.05 1096.50 59.67 4.00
