~Version Information
 VERS.                  2.0:   CWLS log ASCII Standard -VERSION 2.0
 WRAP.                   NO:   One line per depth step
~Well Information Block
#MNEM.UNIT     VALUE/NAME     DESCRIPTION
#---------     -----------    ---------------------------
 STRT.S             20:59:46 30-Jun-20: START TIME 20:59:46 30-Jun-20
 STOP.S             21:08:48 30-Jun-20: STOP TIME  21:08:48 30-Jun-20
 STEP.S                   0.00: STEP TIME
 NULL.                 -999.25: NULL VALUE
 DFWT.                        :  DIST FWL TEXT
 DFST.                        :  DIST FSL TEXT
 DMF .             Drill Floor:  DRILL MEAS FROM
 STIM.      09.59.28 01-Jun-20:  START TIME
 DATE.      09.59.28 01-Jun-20:  END TIME
 SPUD.               01-Jun-20:  SPUD DATE
 NREF.                    Grid:  NORTH REFERENCE
 HPTY.       Minimum Curvature:  HOLE POS TYPE
 DMOD.             Drill Model:  DRILL MOD DESC
 SVYD.                  Survey:  SURVEY DESC
 ILTD.               Lithology:  INTERP LTH DESC
 FTOP.          Formation Tops:  FORM TOPS DESC
 SON .        AZ-XX-0905455768:  JOB NUMBER
 WTYP.                Deviated:  WELL TYPE
 COMP.     BP Exploration(Caspian Sea):  COMPANY
 BASE.              Azerbaijan:  LOGGING EQUIPMENT BASE LOCATION
 REGN.                   EESSA:  REGION
 CTRY.              Azerbaijan:  COUNTRY NAME
 FLD .                     ACG:  FIELD NAME
 SRVC.          Turan Drilling:  CONTRACTOR
 WELL.                     B41:  WELL NAME
 RIG .           Central Azeri:  RIG NAME
 DCON.         Sperry Drilling:  DIRECTNL CONTR
 PDAT.          Mean Sea Level:  PERMANENT DATUM
 MDS .        Operator Entered:  MAG DATA SOURCE
 API .                        :  API NUMBER
 CNTY.                        :  COUNTY
 PROV.                        :  PROVINCE
 STAT.                        :  STATE
 UWI .                        :  UNIQUE WELL IDENTIFIER
 LOC .                        :  LOCATION
 LMF .             Drill Floor:  LOG MEASURED FROM
 TVDS.m                  43.29:  TVDSS CORRECTN
 LATI.deg                40.03:  LATITUDE
 LONG.deg                51.35:  LONGITUDE
 WHNS.m                  12.98:  WELL HEAD N/S
 WHEW.m                  -6.62:  WELL HEAD E/W
 UTMX.m              530128.28:  UTM X
 UTMY.m             4433192.49:  UTM Y
 DFWL.m                   0.00:  DISTANCE FWL
 DFSL.m                   0.00:  DISTANCE FSL
 SDEP.m                 378.00:  START DEPTH
 TDD .m                   0.00:  TOTAL DEPTH (DRILLER)
 VSDR.deg               296.18:  VERT SEC DIRECT
 GVFD.g                   1.00:  GRAVITY FIELD
 MFLD.nT              50253.00:  MAGNETIC FIELD
 MDIP.deg                59.49:  MAGNETIC DIP
 MDEC.deg                 6.44:  MAGNETIC DECL
 GRDC.deg                 0.22:  GRID CORRECTION
 AZTC.deg                 6.22:  AZM TOTAL CORR
 EPD .m                   0.00:  ELEVATION
 EGL .m                   0.00:  GROUND ELEVATION
 WDMS.m                 128.20:  WD ELEV
 APD .m                  43.29:  DEPTH ABOVE PD
 AGAP.m                  43.29:  AIR GAP
 VSEW.m                  -6.62:  VERT SEC E/W
 VSNS.m                  12.98:  VERT SEC N/S
 EKB .m                  43.29:  KB ELEVATION
 EDF .m                  43.29:  DF ELEVATION
 TDL .m                1152.00:  TOTAL DEPTH (LOGGER)
 VSC .                       0:  VS TO CLOSURE
 MAGU.                 1848525:  MAGUTM CHECKSUM
~Parameter Information Block
#MNEM.UNIT       Value        Description
#---------     -----------    ---------------------------
 AV  .mps                 0.40:  Ann Velocity 
 AVMX.mps                 1.56:  Max Ann Veloc 
 AZIF.deg               300.46:  Azm, Final 
 BHAT.        Rotary Steerable:  BHA Type 
 BROT.°/30m               0.40:  Build Rotating 
 BS  .in                 17.50:  Bit Size 
 BSZ .in                 17.50:  Bit Size 
 BTPL.psig              300.00:  Bit Press Loss 
 CABU.                      No:  Customer Abuse 
 CGEO.          Parviz Guliyev:  Customer Geo 
 COMM.                     ÜRt:  Run Comments 1 
 TCS .hr                108.13:  Time Ciculation Ended 
 CV  .mps                 0.50:  Crit Velocity 
 CVMX.mps                 2.01:  Max Crit Veloc 
 DD1 .          Fariz Nahmatov:  Direct Drillr 1 
 DD2 .             Ehab Radwan:  Direct Drillr 2 
 DDSV.               Geo-Pilot:  DD Service 
 DEFF.%                  99.00:  % Det Eff 
 DLRX.°/30m               0.50:  Dogleg Rot Max 
 DLSO.°/30m               2.80:  Dogleg Oriented 
 DLSX.°/30m               3.90:  Dogleg Str Max 
 DRET.      09.30.04 03-Jul-20:  Drill End Time 
 DRST.      18.33.04 28-Jun-20:  Drill Start Tim 
 DTIM.hr                 55.83:  Time Drilling 
 EDEP.m                1952.00:  End Depth 
 ENG1.      Bakhtiyar Jabbarli:  Engineer 1 
 ENG2.         Farhad Orujzade:  Engineer 2 
 ENG3.          Rustam Safarov:  Engineer 3 
 ETIM.      01.33.04 04-Jul-20:  End Time 
 FLOI.gpm              1050.00:  Flow In 
 FLON.gpm               950.00:  Flow In Min 
 FLOS.cptm                0.10:  Fluid Loss 
 FLOX.gpm              1150.00:  Flow In Max 
 HFLO.                      No:  High Flow 
 HPRE.                      No:  High Pressure 
 HTEM.                      No:  High Temp 
 HYDO.m                   1.80:  Hydro Offset 
 IFIN.deg                75.26:  Inc, Final 
 IMAX.deg                75.38:  Inc Max 
 IMIN.deg                22.84:  Inc Min 
 IMND.m                 832.38:  Inc Min Depth 
 IMXD.m                1936.55:  Inc Max Depth 
 JARR.                      No:  Jarring 
 LETM.      17.40.00 04-Jul-20:  Log End Time 
 LOST.hr                     0:  Lost Rig Time 
 LSTM.      12.33.04 28-Jun-20:  Log Start Time 
 MDCL.ppm             49500.00:  Mud Chlorides 
 MDES.     Inversion Oil/Synthetic:  Mud Desc 
 DFD .sg                  1.46:  Mud Density 
 MDMN.sg                  1.46:  Dens Mud Min 
 MDMX.sg                  1.46:  Dens Mud Max 
 MOIL.                      70:  Run Mud Oil % 
 MOWR.                   70:30:  Run Mud OWR 
 MSND.                     0.5:  Run Mud Sand % 
 MSOL.                   19.89:  Run Mud Solids% 
 DFV .spqt               72.00:  Mud Viscosity 
 MWOD.in                  9.50:  MWD Tool OD 
 MWSI.                      No:  Serv Intrp, MWD 
 OTIM.hr                146.53:  Time Operating 
 PCON.           Look Like New:  Pad Condition 
 PMAX.psia             2900.00:  Press Op, Max 
 PV  .cP                 38.00:  Mud PV 
 RUN .                     600:  Run Number 
 ROPA.m/hr               22.00:  ROP Avg 
 ROPN.m/hr               10.00:  ROP Min 
 ROPX.m/hr              263.00:  ROP Max 
 RPMA.rpm               155.00:  RPM Surface Avg 
 RPMN.rpm               140.00:  RPM Surface Min 
 RPMX.rpm               160.00:  RPM Surface Max 
 RRUN.                    0600:  Rig Run Number 
 RTIM.hr                  5.00:  Time Reaming 
 SAZI.deg               300.08:  Azm, Start 
 SDEP.m                 800.00:  Start Depth 
 SIDD.                      No:  Serv Intrp, DD 
 SINC.deg                22.84:  Inc, Start 
 SPPA.psig             3000.00:  SPP Avg 
 SPPN.psig             1900.00:  SPP Min 
 SPPX.psig             3200.00:  SPP Max 
 STIM.      12.30.04 28-Jun-20:  Start Time 
 SVCS.                 DD, MWD:  Services 
 SVER.                    9.20:  Sperry Version 
 TDAT.m                1952.00:  Tot Depth Attmp 
 TDDF.                      No:  Trip for DD 
 TDLG.m                1152.00:  Tot Depth Loggd 
 TFF .                      No:  Trip for Fail 
 TQAA.f-kp                8.00:  Torque Abs Avg 
 TQAN.f-kp                5.00:  Torque Abs Min 
 TQAX.f-kp               14.00:  Torque Abs Max 
 TRRT.°/30m               0.50:  Turn Rotating 
 MRT .                  EWR-M5:  Maximum Recorded Temperature 
 TTMX.degC               69.00:  Max Tool Temp 
 VS01.                90610313:  Virtual Str1 SN 
 VS02.                90613431:  Virtual Str2 SN 
 VS03.                90615410:  Virtual Str3 SN 
 WBMN.klb                 6.00:  WOB Min 
 WITN.            Bruce Cheyne:  Customer Rep 
 WITN.             Ayaz Aliyev:  Customer Rep 2 
 WOBA.klb                 6.00:  WOB Avg 
 WOBX.klb                10.00:  WOB Max 
 YP  .lhf2               36.00:  Yield Point 
~Curve Information Block
#MNEM.UNIT                 API CODE     Curve Description
#---------               -----------    ---------------------------
 TIME.HHMMSS            00 000 000 000:  GT Time & Date
 GTET.sec               00 000 000 000:  GT Elapsed Test Time
 GTPQH.psia             00 000 000 000:  GT HR Quartz Pressure
 GTDEPTH.m              00 000 000 000:  GT Depth
 GTTVD.m                00 000 000 000:  GT True Vertical Depth
 GTTQ.degC              00 000 000 000:  GT Quartz Temperature
 GTTN.NONE              00 000 000 000:  GT Test Number
#Other Information
#
#WARRANTY: Halliburton will use its best efforts to furnish customers with 
#accurate information and interpretations that are part of, and incident to, the services 
#provided.  However, Halliburton cannot and does not warrant the accuracy 
#or correctness of such information and interpretations.  Under no circumstances should any 
#such information or interpretation be relied upon as the sole basis for any drilling, 
#completion, production, or financial decision or any procedure involving any risk to the 
#safety of any drilling venture, drilling rig or its crew or any other third party.  The 
#Customer has full responsibility for all drilling, completion and production operation.  
#Halliburton makes no representations or warranties, either expressed or 
#implied, including, but not limited to, the implied warranties of merchantability or fitness 
#for a particular purpose, with respect to the services rendered.  In no event will 
#Halliburton be liable for failure to obtain any particular results or for 
#any damages, including, but not limited to, indirect, special or consequential damages, 
#resulting from the use of any information or interpretation provided by Halliburton.
#
~A           TIME            GTET   GTPQH  GTDEPTH  GTTVD  GTTQ  GTTN 
# ...
   21:06:40.839.30-Jun-2020 414.07 2105.06 1143.02 1083.79 62.23 3.00
   21:06:41.039.30-Jun-2020 414.27 2105.06 1143.02 1083.79 62.23 3.00
   21:06:41.239.30-Jun-2020 414.47 2105.07 1143.02 1083.79 62.23 3.00
   21:06:41.439.30-Jun-2020 414.67 2105.07 1143.02 1083.79 62.23 3.00
   21:06:41.639.30-Jun-2020 414.87 2105.07 1143.02 1083.79 62.23 3.00
   21:06:41.839.30-Jun-2020 415.07 2105.07 1143.02 1083.79 62.22 3.00
   21:06:42.039.30-Jun-2020 415.27 2105.07 1143.02 1083.79 62.22 3.00
   21:06:42.239.30-Jun-2020 415.47 2105.06 1143.02 1083.79 62.22 3.00
   21:06:42.439.30-Jun-2020 415.67 2105.06 1143.02 1083.79 62.22 3.00
   21:06:42.639.30-Jun-2020 415.87 2105.05 1143.02 1083.79 62.22 3.00
   21:06:42.839.30-Jun-2020 416.07 2105.05 1143.02 1083.79 62.22 3.00
   21:06:43.039.30-Jun-2020 416.27 2105.05 1143.02 1083.79 62.22 3.00
   21:06:43.239.30-Jun-2020 416.47 2105.08 1143.02 1083.79 62.22 3.00
   21:06:43.439.30-Jun-2020 416.67 2105.07 1143.02 1083.79 62.22 3.00
   21:06:43.639.30-Jun-2020 416.87 2105.08 1143.02 1083.79 62.22 3.00
   21:06:43.839.30-Jun-2020 417.07 2105.07 1143.02 1083.79 62.22 3.00
   21:06:44.039.30-Jun-2020 417.27 2105.07 1143.02 1083.79 62.22 3.00
   21:06:44.239.30-Jun-2020 417.47 2105.07 1143.02 1083.79 62.22 3.00
   21:06:44.439.30-Jun-2020 417.67 2105.05 1143.02 1083.79 62.22 3.00
   21:06:44.639.30-Jun-2020 417.87 2105.06 1143.02 1083.79 62.22 3.00
   21:06:44.839.30-Jun-2020 418.07 2105.06 1143.02 1083.79 62.22 3.00
   21:06:45.040.30-Jun-2020 418.27 2105.06 1143.02 1083.79 62.22 3.00
   21:06:45.240.30-Jun-2020 418.47 2105.06 1143.02 1083.79 62.22 3.00
   21:06:45.440.30-Jun-2020 418.67 2105.01 1143.02 1083.79 62.22 3.00
   21:06:45.640.30-Jun-2020 418.87 2105.10 1143.02 1083.79 62.22 3.00
   21:06:45.840.30-Jun-2020 419.07 2105.10 1143.02 1083.79 62.22 3.00
   21:06:46.040.30-Jun-2020 419.27 2105.10 1143.02 1083.79 62.22 3.00
   21:06:46.240.30-Jun-2020 419.47 2105.08 1143.02 1083.79 62.22 3.00
   21:06:46.440.30-Jun-2020 419.67 2105.06 1143.02 1083.79 62.22 3.00
   21:06:46.640.30-Jun-2020 419.87 2105.06 1143.02 1083.79 62.22 3.00
   21:06:46.840.30-Jun-2020 420.08 2105.08 1143.02 1083.79 62.22 3.00
   21:06:47.040.30-Jun-2020 420.28 2105.08 1143.02 1083.79 62.21 3.00
   21:06:47.240.30-Jun-2020 420.48 2105.06 1143.02 1083.79 62.21 3.00
   21:06:47.440.30-Jun-2020 420.68 2105.07 1143.02 1083.79 62.21 3.00
   21:06:47.640.30-Jun-2020 420.88 2105.05 1143.02 1083.79 62.21 3.00
   21:06:47.840.30-Jun-2020 421.08 2105.08 1143.02 1083.79 62.21 3.00
   21:06:48.040.30-Jun-2020 421.28 2105.08 1143.02 1083.79 62.21 3.00
   21:06:48.240.30-Jun-2020 421.48 2105.08 1143.02 1083.79 62.21 3.00
   21:06:48.440.30-Jun-2020 421.68 2105.08 1143.02 1083.79 62.21 3.00
   21:06:48.640.30-Jun-2020 421.88 2105.07 1143.02 1083.79 62.21 3.00
   21:06:48.840.30-Jun-2020 422.08 2105.04 1143.02 1083.79 62.21 3.00
   21:06:49.040.30-Jun-2020 422.28 2105.04 1143.02 1083.79 62.21 3.00
   21:06:49.240.30-Jun-2020 422.48 2105.07 1143.02 1083.79 62.21 3.00
   21:06:49.440.30-Jun-2020 422.68 2105.07 1143.02 1083.79 62.21 3.00
   21:06:49.640.30-Jun-2020 422.88 2105.07 1143.02 1083.79 62.21 3.00
   21:06:49.840.30-Jun-2020 423.08 2105.08 1143.02 1083.79 62.21 3.00
   21:06:50.040.30-Jun-2020 423.28 2105.08 1143.02 1083.79 62.21 3.00
   21:06:50.240.30-Jun-2020 423.48 2105.07 1143.02 1083.79 62.21 3.00
   21:06:50.440.30-Jun-2020 423.68 2105.06 1143.02 1083.79 62.21 3.00
   21:06:50.641.30-Jun-2020 423.88 2105.07 1143.02 1083.79 62.21 3.00
   21:06:50.841.30-Jun-2020 424.08 2105.06 1143.02 1083.79 62.21 3.00
   21:06:51.041.30-Jun-2020 424.28 2105.06 1143.02 1083.79 62.21 3.00
   21:06:51.241.30-Jun-2020 424.48 2105.06 1143.02 1083.79 62.21 3.00
   21:06:51.441.30-Jun-2020 424.68 2105.06 1143.02 1083.79 62.21 3.00
   21:06:51.641.30-Jun-2020 424.88 2105.07 1143.02 1083.79 62.21 3.00
   21:06:51.841.30-Jun-2020 425.08 2105.07 1143.02 1083.79 62.21 3.00
   21:06:52.041.30-Jun-2020 425.28 2105.07 1143.02 1083.79 62.21 3.00
   21:06:52.241.30-Jun-2020 425.48 2105.06 1143.02 1083.79 62.20 3.00
   21:06:52.441.30-Jun-2020 425.68 2105.03 1143.02 1083.79 62.20 3.00
   21:06:52.641.30-Jun-2020 425.88 2105.07 1143.02 1083.79 62.20 3.00
   21:06:52.841.30-Jun-2020 426.08 2105.09 1143.02 1083.79 62.20 3.00
   21:06:53.041.30-Jun-2020 426.28 2105.09 1143.02 1083.79 62.20 3.00
   21:06:53.241.30-Jun-2020 426.48 2105.07 1143.02 1083.79 62.20 3.00
   21:06:53.441.30-Jun-2020 426.68 2105.07 1143.02 1083.79 62.20 3.00
   21:06:53.641.30-Jun-2020 426.88 2105.08 1143.02 1083.79 62.20 3.00
   21:06:53.841.30-Jun-2020 427.08 2105.06 1143.02 1083.79 62.20 3.00
   21:06:54.041.30-Jun-2020 427.28 2105.06 1143.02 1083.79 62.20 3.00
   21:06:54.241.30-Jun-2020 427.48 2105.07 1143.02 1083.79 62.20 3.00
   21:06:54.441.30-Jun-2020 427.68 2105.07 1143.02 1083.79 62.20 3.00
   21:06:54.641.30-Jun-2020 427.88 2105.06 1143.02 1083.79 62.20 3.00
   21:06:54.841.30-Jun-2020 428.08 2105.03 1143.02 1083.79 62.20 3.00
   21:06:55.041.30-Jun-2020 428.28 2105.03 1143.02 1083.79 62.20 3.00
   21:06:55.241.30-Jun-2020 428.48 2105.08 1143.02 1083.79 62.20 3.00
   21:06:55.441.30-Jun-2020 428.68 2105.08 1143.02 1083.79 62.20 3.00
   21:06:55.641.30-Jun-2020 428.88 2105.07 1143.02 1083.79 62.20 3.00
   21:06:55.841.30-Jun-2020 429.08 2105.07 1143.02 1083.79 62.20 3.00
   21:06:56.041.30-Jun-2020 429.28 2105.07 1143.02 1083.79 62.20 3.00
   21:06:56.242.30-Jun-2020 429.48 2105.07 1143.02 1083.79 62.20 3.00
   21:06:56.442.30-Jun-2020 429.68 2105.08 1143.02 1083.79 62.20 3.00
   21:06:56.642.30-Jun-2020 429.88 2105.06 1143.02 1083.79 62.20 3.00
   21:06:56.842.30-Jun-2020 430.08 2105.07 1143.02 1083.79 62.20 3.00
   21:06:57.042.30-Jun-2020 430.28 2105.07 1143.02 1083.79 62.20 3.00
   21:06:57.242.30-Jun-2020 430.48 2105.10 1143.02 1083.79 62.20 3.00
   21:06:57.442.30-Jun-2020 430.68 2105.09 1143.02 1083.79 62.19 3.00
   21:06:57.642.30-Jun-2020 430.88 2105.09 1143.02 1083.79 62.19 3.00
   21:06:57.842.30-Jun-2020 431.08 2105.09 1143.02 1083.79 62.19 3.00
   21:06:58.042.30-Jun-2020 431.28 2105.09 1143.02 1083.79 62.19 3.00
   21:06:58.242.30-Jun-2020 431.48 2105.02 1143.02 1083.79 62.19 3.00
   21:06:58.442.30-Jun-2020 431.68 2105.09 1143.02 1083.79 62.19 3.00
   21:06:58.642.30-Jun-2020 431.88 2105.08 1143.02 1083.79 62.19 3.00
   21:06:58.842.30-Jun-2020 432.08 2105.08 1143.02 1083.79 62.19 3.00
   21:06:59.042.30-Jun-2020 432.28 2105.07 1143.02 1083.79 62.19 3.00
   21:06:59.242.30-Jun-2020 432.48 2105.08 1143.02 1083.79 62.19 3.00
   21:06:59.442.30-Jun-2020 432.68 2105.07 1143.02 1083.79 62.19 3.00
   21:06:59.642.30-Jun-2020 432.88 2105.06 1143.02 1083.79 62.19 3.00
   21:06:59.842.30-Jun-2020 433.08 2105.06 1143.02 1083.79 62.19 3.00
   21:07:00.042.30-Jun-2020 433.28 2105.06 1143.02 1083.79 62.19 3.00
   21:07:00.242.30-Jun-2020 433.48 2105.07 1143.02 1083.79 62.19 3.00
   21:07:00.442.30-Jun-2020 433.68 2105.05 1143.02 1083.79 62.19 3.00
   21:07:00.642.30-Jun-2020 433.88 2105.06 1143.02 1083.79 62.19 3.00
   21:07:00.842.30-Jun-2020 434.08 2105.06 1143.02 1083.79 62.19 3.00
   21:07:01.042.30-Jun-2020 434.28 2105.06 1143.02 1083.79 62.19 3.00
   21:07:01.242.30-Jun-2020 434.48 2105.07 1143.02 1083.79 62.19 3.00
   21:07:01.442.30-Jun-2020 434.68 2105.06 1143.02 1083.79 62.19 3.00
   21:07:01.642.30-Jun-2020 434.88 2105.05 1143.02 1083.79 62.19 3.00
   21:07:01.843.30-Jun-2020 435.08 2105.04 1143.02 1083.79 62.19 3.00
   21:07:02.043.30-Jun-2020 435.28 2105.04 1143.02 1083.79 62.19 3.00
   21:07:02.243.30-Jun-2020 435.48 2105.07 1143.02 1083.79 62.19 3.00
   21:07:02.443.30-Jun-2020 435.68 2105.06 1143.02 1083.79 62.19 3.00
   21:07:02.643.30-Jun-2020 435.88 2105.06 1143.02 1083.79 62.18 3.00
   21:07:02.843.30-Jun-2020 436.08 2105.06 1143.02 1083.79 62.18 3.00
   21:07:03.043.30-Jun-2020 436.28 2105.06 1143.02 1083.79 62.18 3.00
   21:07:03.243.30-Jun-2020 436.48 2105.06 1143.02 1083.79 62.18 3.00
   21:07:03.443.30-Jun-2020 436.68 2105.06 1143.02 1083.79 62.18 3.00
   21:07:03.643.30-Jun-2020 436.88 2105.06 1143.02 1083.79 62.18 3.00
