~Version Information
 VERS.                  2.0:   CWLS log ASCII Standard -VERSION 2.0
 WRAP.                   NO:   One line per depth step
~Well Information Block
#MNEM.UNIT     VALUE/NAME     DESCRIPTION
#---------     -----------    ---------------------------
 STRT.S             23:30:34 30-Jun-20: START TIME 23:30:34 30-Jun-20
 STOP.S             23:39:34 30-Jun-20: STOP TIME  23:39:34 30-Jun-20
 STEP.S                   0.00: STEP TIME
 NULL.                 -999.25: NULL VALUE
 DFWT.                        :  DIST FWL TEXT
 DFST.                        :  DIST FSL TEXT
 DMF .             Drill Floor:  DRILL MEAS FROM
 STIM.      09.59.28 01-Jun-20:  START TIME
 DATE.      09.59.28 01-Jun-20:  END TIME
 SPUD.               01-Jun-20:  SPUD DATE
 NREF.                    Grid:  NORTH REFERENCE
 HPTY.       Minimum Curvature:  HOLE POS TYPE
 DMOD.             Drill Model:  DRILL MOD DESC
 SVYD.                  Survey:  SURVEY DESC
 ILTD.               Lithology:  INTERP LTH DESC
 FTOP.          Formation Tops:  FORM TOPS DESC
 SON .        AZ-XX-0905455768:  JOB NUMBER
 WTYP.                Deviated:  WELL TYPE
 COMP.     BP Exploration(Caspian Sea):  COMPANY
 BASE.              Azerbaijan:  LOGGING EQUIPMENT BASE LOCATION
 REGN.                   EESSA:  REGION
 CTRY.              Azerbaijan:  COUNTRY NAME
 FLD .                     ACG:  FIELD NAME
 SRVC.          Turan Drilling:  CONTRACTOR
 WELL.                     B41:  WELL NAME
 RIG .           Central Azeri:  RIG NAME
 DCON.         Sperry Drilling:  DIRECTNL CONTR
 PDAT.          Mean Sea Level:  PERMANENT DATUM
 MDS .        Operator Entered:  MAG DATA SOURCE
 API .                        :  API NUMBER
 CNTY.                        :  COUNTY
 PROV.                        :  PROVINCE
 STAT.                        :  STATE
 UWI .                        :  UNIQUE WELL IDENTIFIER
 LOC .                        :  LOCATION
 LMF .             Drill Floor:  LOG MEASURED FROM
 TVDS.m                  43.29:  TVDSS CORRECTN
 LATI.deg                40.03:  LATITUDE
 LONG.deg                51.35:  LONGITUDE
 WHNS.m                  12.98:  WELL HEAD N/S
 WHEW.m                  -6.62:  WELL HEAD E/W
 UTMX.m              530128.28:  UTM X
 UTMY.m             4433192.49:  UTM Y
 DFWL.m                   0.00:  DISTANCE FWL
 DFSL.m                   0.00:  DISTANCE FSL
 SDEP.m                 378.00:  START DEPTH
 TDD .m                   0.00:  TOTAL DEPTH (DRILLER)
 VSDR.deg               296.18:  VERT SEC DIRECT
 GVFD.g                   1.00:  GRAVITY FIELD
 MFLD.nT              50253.00:  MAGNETIC FIELD
 MDIP.deg                59.49:  MAGNETIC DIP
 MDEC.deg                 6.44:  MAGNETIC DECL
 GRDC.deg                 0.22:  GRID CORRECTION
 AZTC.deg                 6.22:  AZM TOTAL CORR
 EPD .m                   0.00:  ELEVATION
 EGL .m                   0.00:  GROUND ELEVATION
 WDMS.m                 128.20:  WD ELEV
 APD .m                  43.29:  DEPTH ABOVE PD
 AGAP.m                  43.29:  AIR GAP
 VSEW.m                  -6.62:  VERT SEC E/W
 VSNS.m                  12.98:  VERT SEC N/S
 EKB .m                  43.29:  KB ELEVATION
 EDF .m                  43.29:  DF ELEVATION
 TDL .m                1152.00:  TOTAL DEPTH (LOGGER)
 VSC .                       0:  VS TO CLOSURE
 MAGU.                 1848525:  MAGUTM CHECKSUM
~Parameter Information Block
#MNEM.UNIT       Value        Description
#---------     -----------    ---------------------------
 AV  .mps                 0.40:  Ann Velocity 
 AVMX.mps                 1.56:  Max Ann Veloc 
 AZIF.deg               300.46:  Azm, Final 
 BHAT.        Rotary Steerable:  BHA Type 
 BROT.°/30m               0.40:  Build Rotating 
 BS  .in                 17.50:  Bit Size 
 BSZ .in                 17.50:  Bit Size 
 BTPL.psig              300.00:  Bit Press Loss 
 CABU.                      No:  Customer Abuse 
 CGEO.          Parviz Guliyev:  Customer Geo 
 COMM.                     œº_:  Run Comments 1 
 TCS .hr                108.13:  Time Ciculation Ended 
 CV  .mps                 0.50:  Crit Velocity 
 CVMX.mps                 2.01:  Max Crit Veloc 
 DD1 .          Fariz Nahmatov:  Direct Drillr 1 
 DD2 .             Ehab Radwan:  Direct Drillr 2 
 DDSV.               Geo-Pilot:  DD Service 
 DEFF.%                  99.00:  % Det Eff 
 DLRX.°/30m               0.50:  Dogleg Rot Max 
 DLSO.°/30m               2.80:  Dogleg Oriented 
 DLSX.°/30m               3.90:  Dogleg Str Max 
 DRET.      09.30.04 03-Jul-20:  Drill End Time 
 DRST.      18.33.04 28-Jun-20:  Drill Start Tim 
 DTIM.hr                 55.83:  Time Drilling 
 EDEP.m                1952.00:  End Depth 
 ENG1.      Bakhtiyar Jabbarli:  Engineer 1 
 ENG2.         Farhad Orujzade:  Engineer 2 
 ENG3.          Rustam Safarov:  Engineer 3 
 ETIM.      01.33.04 04-Jul-20:  End Time 
 FLOI.gpm              1050.00:  Flow In 
 FLON.gpm               950.00:  Flow In Min 
 FLOS.cptm                0.10:  Fluid Loss 
 FLOX.gpm              1150.00:  Flow In Max 
 HFLO.                      No:  High Flow 
 HPRE.                      No:  High Pressure 
 HTEM.                      No:  High Temp 
 HYDO.m                   1.80:  Hydro Offset 
 IFIN.deg                75.26:  Inc, Final 
 IMAX.deg                75.38:  Inc Max 
 IMIN.deg                22.84:  Inc Min 
 IMND.m                 832.38:  Inc Min Depth 
 IMXD.m                1936.55:  Inc Max Depth 
 JARR.                      No:  Jarring 
 LETM.      17.40.00 04-Jul-20:  Log End Time 
 LOST.hr                     0:  Lost Rig Time 
 LSTM.      12.33.04 28-Jun-20:  Log Start Time 
 MDCL.ppm             49500.00:  Mud Chlorides 
 MDES.     Inversion Oil/Synthetic:  Mud Desc 
 DFD .sg                  1.46:  Mud Density 
 MDMN.sg                  1.46:  Dens Mud Min 
 MDMX.sg                  1.46:  Dens Mud Max 
 MOIL.                      70:  Run Mud Oil % 
 MOWR.                   70:30:  Run Mud OWR 
 MSND.                     0.5:  Run Mud Sand % 
 MSOL.                   19.89:  Run Mud Solids% 
 DFV .spqt               72.00:  Mud Viscosity 
 MWOD.in                  9.50:  MWD Tool OD 
 MWSI.                      No:  Serv Intrp, MWD 
 OTIM.hr                146.53:  Time Operating 
 PCON.           Look Like New:  Pad Condition 
 PMAX.psia             2900.00:  Press Op, Max 
 PV  .cP                 38.00:  Mud PV 
 RUN .                     600:  Run Number 
 ROPA.m/hr               22.00:  ROP Avg 
 ROPN.m/hr               10.00:  ROP Min 
 ROPX.m/hr              263.00:  ROP Max 
 RPMA.rpm               155.00:  RPM Surface Avg 
 RPMN.rpm               140.00:  RPM Surface Min 
 RPMX.rpm               160.00:  RPM Surface Max 
 RRUN.                    0600:  Rig Run Number 
 RTIM.hr                  5.00:  Time Reaming 
 SAZI.deg               300.08:  Azm, Start 
 SDEP.m                 800.00:  Start Depth 
 SIDD.                      No:  Serv Intrp, DD 
 SINC.deg                22.84:  Inc, Start 
 SPPA.psig             3000.00:  SPP Avg 
 SPPN.psig             1900.00:  SPP Min 
 SPPX.psig             3200.00:  SPP Max 
 STIM.      12.30.04 28-Jun-20:  Start Time 
 SVCS.                 DD, MWD:  Services 
 SVER.                    9.20:  Sperry Version 
 TDAT.m                1952.00:  Tot Depth Attmp 
 TDDF.                      No:  Trip for DD 
 TDLG.m                1152.00:  Tot Depth Loggd 
 TFF .                      No:  Trip for Fail 
 TQAA.f-kp                8.00:  Torque Abs Avg 
 TQAN.f-kp                5.00:  Torque Abs Min 
 TQAX.f-kp               14.00:  Torque Abs Max 
 TRRT.°/30m               0.50:  Turn Rotating 
 MRT .                  EWR-M5:  Maximum Recorded Temperature 
 TTMX.degC               69.00:  Max Tool Temp 
 VS01.                90610313:  Virtual Str1 SN 
 VS02.                90613431:  Virtual Str2 SN 
 VS03.                90615410:  Virtual Str3 SN 
 WBMN.klb                 6.00:  WOB Min 
 WITN.            Bruce Cheyne:  Customer Rep 
 WITN.             Ayaz Aliyev:  Customer Rep 2 
 WOBA.klb                 6.00:  WOB Avg 
 WOBX.klb                10.00:  WOB Max 
 YP  .lhf2               36.00:  Yield Point 
~Curve Information Block
#MNEM.UNIT                 API CODE     Curve Description
#---------               -----------    ---------------------------
 TIME.HHMMSS            00 000 000 000:  GT Time & Date
 GTET.sec               00 000 000 000:  GT Elapsed Test Time
 GTPQH.psia             00 000 000 000:  GT HR Quartz Pressure
 GTDEPTH.m              00 000 000 000:  GT Depth
 GTTVD.m                00 000 000 000:  GT True Vertical Depth
 GTTQ.degC              00 000 000 000:  GT Quartz Temperature
 GTTN.NONE              00 000 000 000:  GT Test Number
#Other Information
#
#WARRANTY: Halliburton will use its best efforts to furnish customers with 
#accurate information and interpretations that are part of, and incident to, the services 
#provided.  However, Halliburton cannot and does not warrant the accuracy 
#or correctness of such information and interpretations.  Under no circumstances should any 
#such information or interpretation be relied upon as the sole basis for any drilling, 
#completion, production, or financial decision or any procedure involving any risk to the 
#safety of any drilling venture, drilling rig or its crew or any other third party.  The 
#Customer has full responsibility for all drilling, completion and production operation.  
#Halliburton makes no representations or warranties, either expressed or 
#implied, including, but not limited to, the implied warranties of merchantability or fitness 
#for a particular purpose, with respect to the services rendered.  In no event will 
#Halliburton be liable for failure to obtain any particular results or for 
#any damages, including, but not limited to, indirect, special or consequential damages, 
#resulting from the use of any information or interpretation provided by Halliburton.
#
~A           TIME            GTET   GTPQH  GTDEPTH  GTTVD  GTTQ  GTTN 
# ...
   23:37:28.605.30-Jun-2020 414.12 2109.95 1161.05 1096.50 59.68 4.00
   23:37:28.805.30-Jun-2020 414.32 2109.95 1161.05 1096.50 59.68 4.00
   23:37:29.006.30-Jun-2020 414.52 2109.95 1161.05 1096.50 59.68 4.00
   23:37:29.206.30-Jun-2020 414.72 2109.94 1161.05 1096.50 59.68 4.00
   23:37:29.406.30-Jun-2020 414.92 2109.95 1161.05 1096.50 59.68 4.00
   23:37:29.606.30-Jun-2020 415.12 2109.94 1161.05 1096.50 59.68 4.00
   23:37:29.806.30-Jun-2020 415.32 2109.95 1161.05 1096.50 59.68 4.00
   23:37:30.006.30-Jun-2020 415.52 2109.96 1161.05 1096.50 59.68 4.00
   23:37:30.206.30-Jun-2020 415.72 2109.95 1161.05 1096.50 59.68 4.00
   23:37:30.406.30-Jun-2020 415.92 2109.94 1161.05 1096.50 59.68 4.00
   23:37:30.606.30-Jun-2020 416.12 2109.94 1161.05 1096.50 59.68 4.00
   23:37:30.806.30-Jun-2020 416.32 2109.94 1161.05 1096.50 59.68 4.00
   23:37:31.006.30-Jun-2020 416.52 2109.95 1161.05 1096.50 59.68 4.00
   23:37:31.206.30-Jun-2020 416.72 2109.95 1161.05 1096.50 59.68 4.00
   23:37:31.406.30-Jun-2020 416.92 2109.95 1161.05 1096.50 59.68 4.00
   23:37:31.606.30-Jun-2020 417.12 2109.95 1161.05 1096.50 59.68 4.00
   23:37:31.806.30-Jun-2020 417.32 2109.95 1161.05 1096.50 59.68 4.00
   23:37:32.006.30-Jun-2020 417.52 2109.93 1161.05 1096.50 59.68 4.00
   23:37:32.206.30-Jun-2020 417.72 2109.96 1161.05 1096.50 59.68 4.00
   23:37:32.407.30-Jun-2020 417.92 2109.95 1161.05 1096.50 59.68 4.00
   23:37:32.607.30-Jun-2020 418.12 2109.94 1161.05 1096.50 59.68 4.00
   23:37:32.807.30-Jun-2020 418.32 2109.95 1161.05 1096.50 59.68 4.00
   23:37:33.007.30-Jun-2020 418.52 2109.96 1161.05 1096.50 59.68 4.00
   23:37:33.207.30-Jun-2020 418.72 2109.95 1161.05 1096.50 59.68 4.00
   23:37:33.407.30-Jun-2020 418.92 2109.94 1161.05 1096.50 59.68 4.00
   23:37:33.607.30-Jun-2020 419.12 2109.96 1161.05 1096.50 59.68 4.00
   23:37:33.807.30-Jun-2020 419.32 2109.95 1161.05 1096.50 59.68 4.00
   23:37:34.007.30-Jun-2020 419.52 2109.95 1161.05 1096.50 59.68 4.00
   23:37:34.207.30-Jun-2020 419.72 2109.95 1161.05 1096.50 59.68 4.00
   23:37:34.407.30-Jun-2020 419.92 2109.93 1161.05 1096.50 59.68 4.00
   23:37:34.607.30-Jun-2020 420.12 2109.97 1161.05 1096.50 59.68 4.00
   23:37:34.807.30-Jun-2020 420.32 2109.97 1161.05 1096.50 59.68 4.00
   23:37:35.007.30-Jun-2020 420.52 2109.96 1161.05 1096.50 59.68 4.00
   23:37:35.207.30-Jun-2020 420.72 2109.95 1161.05 1096.50 59.68 4.00
   23:37:35.407.30-Jun-2020 420.92 2109.93 1161.05 1096.50 59.68 4.00
   23:37:35.607.30-Jun-2020 421.12 2109.96 1161.05 1096.50 59.68 4.00
   23:37:35.808.30-Jun-2020 421.32 2109.96 1161.05 1096.50 59.68 4.00
   23:37:36.008.30-Jun-2020 421.52 2109.95 1161.05 1096.50 59.68 4.00
   23:37:36.208.30-Jun-2020 421.72 2109.95 1161.05 1096.50 59.68 4.00
   23:37:36.408.30-Jun-2020 421.92 2109.97 1161.05 1096.50 59.68 4.00
   23:37:36.608.30-Jun-2020 422.12 2109.93 1161.05 1096.50 59.68 4.00
   23:37:36.808.30-Jun-2020 422.32 2109.93 1161.05 1096.50 59.68 4.00
   23:37:37.008.30-Jun-2020 422.52 2109.96 1161.05 1096.50 59.68 4.00
   23:37:37.208.30-Jun-2020 422.72 2109.97 1161.05 1096.50 59.68 4.00
   23:37:37.408.30-Jun-2020 422.92 2109.96 1161.05 1096.50 59.68 4.00
   23:37:37.608.30-Jun-2020 423.12 2109.97 1161.05 1096.50 59.68 4.00
   23:37:37.808.30-Jun-2020 423.32 2109.95 1161.05 1096.50 59.68 4.00
   23:37:38.008.30-Jun-2020 423.52 2109.95 1161.05 1096.50 59.68 4.00
   23:37:38.208.30-Jun-2020 423.72 2109.96 1161.05 1096.50 59.68 4.00
   23:37:38.408.30-Jun-2020 423.92 2109.96 1161.05 1096.50 59.68 4.00
   23:37:38.608.30-Jun-2020 424.12 2109.96 1161.05 1096.50 59.68 4.00
   23:37:38.808.30-Jun-2020 424.32 2109.96 1161.05 1096.50 59.68 4.00
   23:37:39.008.30-Jun-2020 424.52 2109.96 1161.05 1096.50 59.68 4.00
   23:37:39.209.30-Jun-2020 424.72 2109.96 1161.05 1096.50 59.68 4.00
   23:37:39.409.30-Jun-2020 424.92 2109.97 1161.05 1096.50 59.68 4.00
   23:37:39.609.30-Jun-2020 425.12 2109.96 1161.05 1096.50 59.68 4.00
   23:37:39.809.30-Jun-2020 425.32 2109.96 1161.05 1096.50 59.68 4.00
   23:37:40.009.30-Jun-2020 425.52 2109.96 1161.05 1096.50 59.68 4.00
   23:37:40.209.30-Jun-2020 425.72 2109.96 1161.05 1096.50 59.68 4.00
   23:37:40.409.30-Jun-2020 425.92 2109.95 1161.05 1096.50 59.68 4.00
   23:37:40.609.30-Jun-2020 426.12 2109.97 1161.05 1096.50 59.68 4.00
   23:37:40.809.30-Jun-2020 426.32 2109.98 1161.05 1096.50 59.68 4.00
   23:37:41.009.30-Jun-2020 426.52 2109.97 1161.05 1096.50 59.68 4.00
   23:37:41.209.30-Jun-2020 426.72 2109.97 1161.05 1096.50 59.68 4.00
   23:37:41.409.30-Jun-2020 426.92 2109.97 1161.05 1096.50 59.68 4.00
   23:37:41.609.30-Jun-2020 427.12 2109.95 1161.05 1096.50 59.68 4.00
   23:37:41.809.30-Jun-2020 427.32 2109.95 1161.05 1096.50 59.68 4.00
   23:37:42.009.30-Jun-2020 427.52 2109.98 1161.05 1096.50 59.68 4.00
   23:37:42.209.30-Jun-2020 427.72 2109.95 1161.05 1096.50 59.68 4.00
   23:37:42.409.30-Jun-2020 427.92 2109.95 1161.05 1096.50 59.68 4.00
   23:37:42.609.30-Jun-2020 428.12 2109.96 1161.05 1096.50 59.68 4.00
   23:37:42.810.30-Jun-2020 428.32 2109.96 1161.05 1096.50 59.68 4.00
   23:37:43.010.30-Jun-2020 428.52 2109.96 1161.05 1096.50 59.68 4.00
   23:37:43.210.30-Jun-2020 428.72 2109.97 1161.05 1096.50 59.68 4.00
   23:37:43.410.30-Jun-2020 428.92 2109.96 1161.05 1096.50 59.68 4.00
   23:37:43.610.30-Jun-2020 429.12 2109.97 1161.05 1096.50 59.68 4.00
   23:37:43.810.30-Jun-2020 429.32 2109.97 1161.05 1096.50 59.68 4.00
   23:37:44.010.30-Jun-2020 429.52 2109.95 1161.05 1096.50 59.68 4.00
   23:37:44.210.30-Jun-2020 429.72 2109.96 1161.05 1096.50 59.68 4.00
   23:37:44.410.30-Jun-2020 429.92 2109.98 1161.05 1096.50 59.68 4.00
   23:37:44.610.30-Jun-2020 430.12 2109.98 1161.05 1096.50 59.68 4.00
   23:37:44.810.30-Jun-2020 430.33 2109.98 1161.05 1096.50 59.68 4.00
   23:37:45.010.30-Jun-2020 430.53 2109.96 1161.05 1096.50 59.68 4.00
   23:37:45.210.30-Jun-2020 430.73 2109.95 1161.05 1096.50 59.68 4.00
   23:37:45.410.30-Jun-2020 430.93 2109.96 1161.05 1096.50 59.68 4.00
   23:37:45.610.30-Jun-2020 431.13 2109.97 1161.05 1096.50 59.68 4.00
   23:37:45.810.30-Jun-2020 431.33 2109.97 1161.05 1096.50 59.68 4.00
   23:37:46.010.30-Jun-2020 431.53 2109.98 1161.05 1096.50 59.68 4.00
   23:37:46.211.30-Jun-2020 431.73 2109.96 1161.05 1096.50 59.68 4.00
   23:37:46.411.30-Jun-2020 431.93 2109.93 1161.05 1096.50 59.68 4.00
   23:37:46.611.30-Jun-2020 432.13 2109.98 1161.05 1096.50 59.68 4.00
   23:37:46.811.30-Jun-2020 432.33 2109.98 1161.05 1096.50 59.68 4.00
   23:37:47.011.30-Jun-2020 432.53 2109.97 1161.05 1096.50 59.68 4.00
   23:37:47.211.30-Jun-2020 432.73 2109.98 1161.05 1096.50 59.68 4.00
   23:37:47.411.30-Jun-2020 432.93 2109.98 1161.05 1096.50 59.68 4.00
   23:37:47.611.30-Jun-2020 433.13 2109.96 1161.05 1096.50 59.68 4.00
   23:37:47.811.30-Jun-2020 433.33 2109.96 1161.05 1096.50 59.68 4.00
   23:37:48.011.30-Jun-2020 433.53 2109.99 1161.05 1096.50 59.68 4.00
   23:37:48.211.30-Jun-2020 433.73 2109.97 1161.05 1096.50 59.68 4.00
   23:37:48.411.30-Jun-2020 433.93 2109.98 1161.05 1096.50 59.68 4.00
   23:37:48.611.30-Jun-2020 434.13 2109.98 1161.05 1096.50 59.68 4.00
   23:37:48.811.30-Jun-2020 434.33 2109.98 1161.05 1096.50 59.68 4.00
   23:37:49.011.30-Jun-2020 434.53 2109.99 1161.05 1096.50 59.68 4.00
   23:37:49.211.30-Jun-2020 434.73 2109.98 1161.05 1096.50 59.68 4.00
   23:37:49.411.30-Jun-2020 434.93 2109.98 1161.05 1096.50 59.68 4.00
   23:37:49.612.30-Jun-2020 435.13 2109.98 1161.05 1096.50 59.68 4.00
   23:37:49.812.30-Jun-2020 435.33 2109.98 1161.05 1096.50 59.68 4.00
   23:37:50.012.30-Jun-2020 435.53 2109.97 1161.05 1096.50 59.68 4.00
   23:37:50.212.30-Jun-2020 435.73 2109.97 1161.05 1096.50 59.68 4.00
   23:37:50.412.30-Jun-2020 435.93 2109.99 1161.05 1096.50 59.68 4.00
   23:37:50.612.30-Jun-2020 436.13 2109.98 1161.05 1096.50 59.68 4.00
   23:37:50.812.30-Jun-2020 436.33 2109.98 1161.05 1096.50 59.68 4.00
   23:37:51.012.30-Jun-2020 436.53 2109.98 1161.05 1096.50 59.68 4.00
   23:37:51.212.30-Jun-2020 436.73 2109.98 1161.05 1096.50 59.68 4.00
   23:37:51.412.30-Jun-2020 436.93 2109.94 1161.05 1096.50 59.68 4.00
