~Version Information
 VERS.                  2.0:   CWLS log ASCII Standard -VERSION 2.0
 WRAP.                   NO:   One line per depth step
~Well Information Block
#MNEM.UNIT     VALUE/NAME     DESCRIPTION
#---------     -----------    ---------------------------
 STRT.S             23:54:17 02-Jul-20: START TIME 23:54:17 02-Jul-20
 STOP.S             00:03:12 03-Jul-20: STOP TIME  00:03:12 03-Jul-20
 STEP.S                   0.00: STEP TIME
 NULL.                 -999.25: NULL VALUE
 DFWT.                        :  DIST FWL TEXT
 DFST.                        :  DIST FSL TEXT
 DMF .             Drill Floor:  DRILL MEAS FROM
 STIM.      09.59.28 01-Jun-20:  START TIME
 DATE.      09.59.28 01-Jun-20:  END TIME
 SPUD.               01-Jun-20:  SPUD DATE
 NREF.                    Grid:  NORTH REFERENCE
 HPTY.       Minimum Curvature:  HOLE POS TYPE
 DMOD.             Drill Model:  DRILL MOD DESC
 SVYD.                  Survey:  SURVEY DESC
 ILTD.               Lithology:  INTERP LTH DESC
 FTOP.          Formation Tops:  FORM TOPS DESC
 SON .        AZ-XX-0905455768:  JOB NUMBER
 WTYP.                Deviated:  WELL TYPE
 COMP.     BP Exploration(Caspian Sea):  COMPANY
 BASE.              Azerbaijan:  LOGGING EQUIPMENT BASE LOCATION
 REGN.                   EESSA:  REGION
 CTRY.              Azerbaijan:  COUNTRY NAME
 FLD .                     ACG:  FIELD NAME
 SRVC.          Turan Drilling:  CONTRACTOR
 WELL.                     B41:  WELL NAME
 RIG .           Central Azeri:  RIG NAME
 DCON.         Sperry Drilling:  DIRECTNL CONTR
 PDAT.          Mean Sea Level:  PERMANENT DATUM
 MDS .        Operator Entered:  MAG DATA SOURCE
 API .                        :  API NUMBER
 CNTY.                        :  COUNTY
 PROV.                        :  PROVINCE
 STAT.                        :  STATE
 UWI .                        :  UNIQUE WELL IDENTIFIER
 LOC .                        :  LOCATION
 LMF .             Drill Floor:  LOG MEASURED FROM
 TVDS.m                  43.29:  TVDSS CORRECTN
 LATI.deg                40.03:  LATITUDE
 LONG.deg                51.35:  LONGITUDE
 WHNS.m                  12.98:  WELL HEAD N/S
 WHEW.m                  -6.62:  WELL HEAD E/W
 UTMX.m              530128.28:  UTM X
 UTMY.m             4433192.49:  UTM Y
 DFWL.m                   0.00:  DISTANCE FWL
 DFSL.m                   0.00:  DISTANCE FSL
 SDEP.m                 378.00:  START DEPTH
 TDD .m                   0.00:  TOTAL DEPTH (DRILLER)
 VSDR.deg               296.18:  VERT SEC DIRECT
 GVFD.g                   1.00:  GRAVITY FIELD
 MFLD.nT              50253.00:  MAGNETIC FIELD
 MDIP.deg                59.49:  MAGNETIC DIP
 MDEC.deg                 6.44:  MAGNETIC DECL
 GRDC.deg                 0.22:  GRID CORRECTION
 AZTC.deg                 6.22:  AZM TOTAL CORR
 EPD .m                   0.00:  ELEVATION
 EGL .m                   0.00:  GROUND ELEVATION
 WDMS.m                 128.20:  WD ELEV
 APD .m                  43.29:  DEPTH ABOVE PD
 AGAP.m                  43.29:  AIR GAP
 VSEW.m                  -6.62:  VERT SEC E/W
 VSNS.m                  12.98:  VERT SEC N/S
 EKB .m                  43.29:  KB ELEVATION
 EDF .m                  43.29:  DF ELEVATION
 TDL .m                1152.00:  TOTAL DEPTH (LOGGER)
 VSC .                       0:  VS TO CLOSURE
 MAGU.                 1848525:  MAGUTM CHECKSUM
~Parameter Information Block
#MNEM.UNIT       Value        Description
#---------     -----------    ---------------------------
 AV  .mps                 0.40:  Ann Velocity 
 AVMX.mps                 1.56:  Max Ann Veloc 
 AZIF.deg               300.46:  Azm, Final 
 BHAT.        Rotary Steerable:  BHA Type 
 BROT.°/30m               0.40:  Build Rotating 
 BS  .in                 17.50:  Bit Size 
 BSZ .in                 17.50:  Bit Size 
 BTPL.psig              300.00:  Bit Press Loss 
 CABU.                      No:  Customer Abuse 
 CGEO.          Parviz Guliyev:  Customer Geo 
 COMM.                     ägu:  Run Comments 1 
 TCS .hr                108.13:  Time Ciculation Ended 
 CV  .mps                 0.50:  Crit Velocity 
 CVMX.mps                 2.01:  Max Crit Veloc 
 DD1 .          Fariz Nahmatov:  Direct Drillr 1 
 DD2 .             Ehab Radwan:  Direct Drillr 2 
 DDSV.               Geo-Pilot:  DD Service 
 DEFF.%                  99.00:  % Det Eff 
 DLRX.°/30m               0.50:  Dogleg Rot Max 
 DLSO.°/30m               2.80:  Dogleg Oriented 
 DLSX.°/30m               3.90:  Dogleg Str Max 
 DRET.      09.30.04 03-Jul-20:  Drill End Time 
 DRST.      18.33.04 28-Jun-20:  Drill Start Tim 
 DTIM.hr                 55.83:  Time Drilling 
 EDEP.m                1952.00:  End Depth 
 ENG1.      Bakhtiyar Jabbarli:  Engineer 1 
 ENG2.         Farhad Orujzade:  Engineer 2 
 ENG3.          Rustam Safarov:  Engineer 3 
 ETIM.      01.33.04 04-Jul-20:  End Time 
 FLOI.gpm              1050.00:  Flow In 
 FLON.gpm               950.00:  Flow In Min 
 FLOS.cptm                0.10:  Fluid Loss 
 FLOX.gpm              1150.00:  Flow In Max 
 HFLO.                      No:  High Flow 
 HPRE.                      No:  High Pressure 
 HTEM.                      No:  High Temp 
 HYDO.m                   1.80:  Hydro Offset 
 IFIN.deg                75.26:  Inc, Final 
 IMAX.deg                75.38:  Inc Max 
 IMIN.deg                22.84:  Inc Min 
 IMND.m                 832.38:  Inc Min Depth 
 IMXD.m                1936.55:  Inc Max Depth 
 JARR.                      No:  Jarring 
 LETM.      17.40.00 04-Jul-20:  Log End Time 
 LOST.hr                     0:  Lost Rig Time 
 LSTM.      12.33.04 28-Jun-20:  Log Start Time 
 MDCL.ppm             49500.00:  Mud Chlorides 
 MDES.     Inversion Oil/Synthetic:  Mud Desc 
 DFD .sg                  1.46:  Mud Density 
 MDMN.sg                  1.46:  Dens Mud Min 
 MDMX.sg                  1.46:  Dens Mud Max 
 MOIL.                      70:  Run Mud Oil % 
 MOWR.                   70:30:  Run Mud OWR 
 MSND.                     0.5:  Run Mud Sand % 
 MSOL.                   19.89:  Run Mud Solids% 
 DFV .spqt               72.00:  Mud Viscosity 
 MWOD.in                  9.50:  MWD Tool OD 
 MWSI.                      No:  Serv Intrp, MWD 
 OTIM.hr                146.53:  Time Operating 
 PCON.           Look Like New:  Pad Condition 
 PMAX.psia             2900.00:  Press Op, Max 
 PV  .cP                 38.00:  Mud PV 
 RUN .                     600:  Run Number 
 ROPA.m/hr               22.00:  ROP Avg 
 ROPN.m/hr               10.00:  ROP Min 
 ROPX.m/hr              263.00:  ROP Max 
 RPMA.rpm               155.00:  RPM Surface Avg 
 RPMN.rpm               140.00:  RPM Surface Min 
 RPMX.rpm               160.00:  RPM Surface Max 
 RRUN.                    0600:  Rig Run Number 
 RTIM.hr                  5.00:  Time Reaming 
 SAZI.deg               300.08:  Azm, Start 
 SDEP.m                 800.00:  Start Depth 
 SIDD.                      No:  Serv Intrp, DD 
 SINC.deg                22.84:  Inc, Start 
 SPPA.psig             3000.00:  SPP Avg 
 SPPN.psig             1900.00:  SPP Min 
 SPPX.psig             3200.00:  SPP Max 
 STIM.      12.30.04 28-Jun-20:  Start Time 
 SVCS.                 DD, MWD:  Services 
 SVER.                    9.20:  Sperry Version 
 TDAT.m                1952.00:  Tot Depth Attmp 
 TDDF.                      No:  Trip for DD 
 TDLG.m                1152.00:  Tot Depth Loggd 
 TFF .                      No:  Trip for Fail 
 TQAA.f-kp                8.00:  Torque Abs Avg 
 TQAN.f-kp                5.00:  Torque Abs Min 
 TQAX.f-kp               14.00:  Torque Abs Max 
 TRRT.°/30m               0.50:  Turn Rotating 
 MRT .                  EWR-M5:  Maximum Recorded Temperature 
 TTMX.degC               69.00:  Max Tool Temp 
 VS01.                90610313:  Virtual Str1 SN 
 VS02.                90613431:  Virtual Str2 SN 
 VS03.                90615410:  Virtual Str3 SN 
 WBMN.klb                 6.00:  WOB Min 
 WITN.            Bruce Cheyne:  Customer Rep 
 WITN.             Ayaz Aliyev:  Customer Rep 2 
 WOBA.klb                 6.00:  WOB Avg 
 WOBX.klb                10.00:  WOB Max 
 YP  .lhf2               36.00:  Yield Point 
~Curve Information Block
#MNEM.UNIT                 API CODE     Curve Description
#---------               -----------    ---------------------------
 TIME.HHMMSS            00 000 000 000:  GT Time & Date
 GTET.sec               00 000 000 000:  GT Elapsed Test Time
 GTPQH.psia             00 000 000 000:  GT HR Quartz Pressure
 GTDEPTH.m              00 000 000 000:  GT Depth
 GTTVD.m                00 000 000 000:  GT True Vertical Depth
 GTTQ.degC              00 000 000 000:  GT Quartz Temperature
 GTTN.NONE              00 000 000 000:  GT Test Number
#Other Information
#
#WARRANTY: Halliburton will use its best efforts to furnish customers with 
#accurate information and interpretations that are part of, and incident to, the services 
#provided.  However, Halliburton cannot and does not warrant the accuracy 
#or correctness of such information and interpretations.  Under no circumstances should any 
#such information or interpretation be relied upon as the sole basis for any drilling, 
#completion, production, or financial decision or any procedure involving any risk to the 
#safety of any drilling venture, drilling rig or its crew or any other third party.  The 
#Customer has full responsibility for all drilling, completion and production operation.  
#Halliburton makes no representations or warranties, either expressed or 
#implied, including, but not limited to, the implied warranties of merchantability or fitness 
#for a particular purpose, with respect to the services rendered.  In no event will 
#Halliburton be liable for failure to obtain any particular results or for 
#any damages, including, but not limited to, indirect, special or consequential damages, 
#resulting from the use of any information or interpretation provided by Halliburton.
#
~A           TIME            GTET   GTPQH  GTDEPTH  GTTVD  GTTQ  GTTN 
# ...
   00:01:34.648.03-Jul-2020 437.06 2503.56 1828.92 1344.71 59.05 7.00
   00:01:34.848.03-Jul-2020 437.26 2503.56 1828.92 1344.71 59.05 7.00
   00:01:35.048.03-Jul-2020 437.46 2503.50 1828.92 1344.71 59.05 7.00
   00:01:35.248.03-Jul-2020 437.66 2503.55 1828.92 1344.71 59.05 7.00
   00:01:35.448.03-Jul-2020 437.86 2503.58 1828.92 1344.71 59.05 7.00
   00:01:35.648.03-Jul-2020 438.06 2503.57 1828.92 1344.71 59.05 7.00
   00:01:35.848.03-Jul-2020 438.26 2503.57 1828.92 1344.71 59.05 7.00
   00:01:36.048.03-Jul-2020 438.46 2503.57 1828.92 1344.71 59.05 7.00
   00:01:36.248.03-Jul-2020 438.66 2503.49 1828.92 1344.71 59.05 7.00
   00:01:36.448.03-Jul-2020 438.86 2503.56 1828.92 1344.71 59.05 7.00
   00:01:36.649.03-Jul-2020 439.06 2503.57 1828.92 1344.71 59.05 7.00
   00:01:36.849.03-Jul-2020 439.26 2503.57 1828.92 1344.71 59.05 7.00
   00:01:37.049.03-Jul-2020 439.46 2503.58 1828.92 1344.71 59.05 7.00
   00:01:37.249.03-Jul-2020 439.66 2503.57 1828.92 1344.71 59.05 7.00
   00:01:37.449.03-Jul-2020 439.86 2503.57 1828.92 1344.71 59.05 7.00
   00:01:37.649.03-Jul-2020 440.06 2503.50 1828.92 1344.71 59.05 7.00
   00:01:37.849.03-Jul-2020 440.26 2503.50 1828.92 1344.71 59.05 7.00
   00:01:38.049.03-Jul-2020 440.46 2503.60 1828.92 1344.71 59.05 7.00
   00:01:38.249.03-Jul-2020 440.66 2503.58 1828.92 1344.71 59.05 7.00
   00:01:38.449.03-Jul-2020 440.86 2503.53 1828.92 1344.71 59.05 7.00
   00:01:38.649.03-Jul-2020 441.06 2503.53 1828.92 1344.71 59.05 7.00
   00:01:38.849.03-Jul-2020 441.26 2503.53 1828.92 1344.71 59.05 7.00
   00:01:39.049.03-Jul-2020 441.46 2503.57 1828.92 1344.71 59.05 7.00
   00:01:39.249.03-Jul-2020 441.66 2503.56 1828.92 1344.71 59.05 7.00
   00:01:39.449.03-Jul-2020 441.86 2503.59 1828.92 1344.71 59.05 7.00
   00:01:39.649.03-Jul-2020 442.06 2503.57 1828.92 1344.71 59.05 7.00
   00:01:39.849.03-Jul-2020 442.26 2503.57 1828.92 1344.71 59.05 7.00
   00:01:40.049.03-Jul-2020 442.46 2503.56 1828.92 1344.71 59.05 7.00
   00:01:40.249.03-Jul-2020 442.66 2503.58 1828.92 1344.71 59.05 7.00
   00:01:40.449.03-Jul-2020 442.86 2503.58 1828.92 1344.71 59.05 7.00
   00:01:40.649.03-Jul-2020 443.06 2503.58 1828.92 1344.71 59.05 7.00
   00:01:40.849.03-Jul-2020 443.26 2503.58 1828.92 1344.71 59.05 7.00
   00:01:41.049.03-Jul-2020 443.46 2503.57 1828.92 1344.71 59.05 7.00
   00:01:41.249.03-Jul-2020 443.66 2503.57 1828.92 1344.71 59.05 7.00
   00:01:41.449.03-Jul-2020 443.86 2503.58 1828.92 1344.71 59.05 7.00
   00:01:41.649.03-Jul-2020 444.06 2503.59 1828.92 1344.71 59.05 7.00
   00:01:41.849.03-Jul-2020 444.26 2503.59 1828.92 1344.71 59.05 7.00
   00:01:42.049.03-Jul-2020 444.46 2503.57 1828.92 1344.71 59.05 7.00
   00:01:42.249.03-Jul-2020 444.66 2503.50 1828.92 1344.71 59.05 7.00
   00:01:42.449.03-Jul-2020 444.86 2503.55 1828.92 1344.71 59.05 7.00
   00:01:42.649.03-Jul-2020 445.06 2503.58 1828.92 1344.71 59.05 7.00
   00:01:42.849.03-Jul-2020 445.26 2503.58 1828.92 1344.71 59.05 7.00
   00:01:43.049.03-Jul-2020 445.46 2503.60 1828.92 1344.71 59.05 7.00
   00:01:43.249.03-Jul-2020 445.66 2503.59 1828.92 1344.71 59.05 7.00
   00:01:43.449.03-Jul-2020 445.86 2503.57 1828.92 1344.71 59.05 7.00
   00:01:43.649.03-Jul-2020 446.06 2503.58 1828.92 1344.71 59.05 7.00
   00:01:43.850.03-Jul-2020 446.26 2503.58 1828.92 1344.71 59.05 7.00
   00:01:44.050.03-Jul-2020 446.46 2503.59 1828.92 1344.71 59.05 7.00
   00:01:44.250.03-Jul-2020 446.66 2503.58 1828.92 1344.71 59.05 7.00
   00:01:44.450.03-Jul-2020 446.86 2503.58 1828.92 1344.71 59.05 7.00
   00:01:44.650.03-Jul-2020 447.06 2503.51 1828.92 1344.71 59.05 7.00
   00:01:44.850.03-Jul-2020 447.26 2503.51 1828.92 1344.71 59.05 7.00
   00:01:45.050.03-Jul-2020 447.46 2503.58 1828.92 1344.71 59.05 7.00
   00:01:45.250.03-Jul-2020 447.66 2503.57 1828.92 1344.71 59.05 7.00
   00:01:45.450.03-Jul-2020 447.86 2503.58 1828.92 1344.71 59.05 7.00
   00:01:45.650.03-Jul-2020 448.06 2503.58 1828.92 1344.71 59.05 7.00
   00:01:45.850.03-Jul-2020 448.26 2503.58 1828.92 1344.71 59.05 7.00
   00:01:46.050.03-Jul-2020 448.46 2503.52 1828.92 1344.71 59.05 7.00
   00:01:46.250.03-Jul-2020 448.66 2503.58 1828.92 1344.71 59.05 7.00
   00:01:46.450.03-Jul-2020 448.86 2503.58 1828.92 1344.71 59.05 7.00
   00:01:46.650.03-Jul-2020 449.06 2503.58 1828.92 1344.71 59.05 7.00
   00:01:46.850.03-Jul-2020 449.26 2503.58 1828.92 1344.71 59.05 7.00
   00:01:47.050.03-Jul-2020 449.46 2503.57 1828.92 1344.71 59.05 7.00
   00:01:47.250.03-Jul-2020 449.66 2503.51 1828.92 1344.71 59.05 7.00
   00:01:47.450.03-Jul-2020 449.86 2503.59 1828.92 1344.71 59.05 7.00
   00:01:47.650.03-Jul-2020 450.06 2503.61 1828.92 1344.71 59.05 7.00
   00:01:47.850.03-Jul-2020 450.26 2503.61 1828.92 1344.71 59.05 7.00
   00:01:48.050.03-Jul-2020 450.46 2503.57 1828.92 1344.71 59.05 7.00
   00:01:48.250.03-Jul-2020 450.66 2503.49 1828.92 1344.71 59.05 7.00
   00:01:48.450.03-Jul-2020 450.86 2503.60 1828.92 1344.71 59.05 7.00
   00:01:48.650.03-Jul-2020 451.06 2503.59 1828.92 1344.71 59.05 7.00
   00:01:48.850.03-Jul-2020 451.26 2503.59 1828.92 1344.71 59.05 7.00
   00:01:49.050.03-Jul-2020 451.46 2503.60 1828.92 1344.71 59.05 7.00
   00:01:49.250.03-Jul-2020 451.66 2503.59 1828.92 1344.71 59.05 7.00
   00:01:49.450.03-Jul-2020 451.86 2503.57 1828.92 1344.71 59.05 7.00
   00:01:49.650.03-Jul-2020 452.06 2503.57 1828.92 1344.71 59.05 7.00
   00:01:49.850.03-Jul-2020 452.26 2503.57 1828.92 1344.71 59.05 7.00
   00:01:50.050.03-Jul-2020 452.46 2503.59 1828.92 1344.71 59.05 7.00
   00:01:50.250.03-Jul-2020 452.66 2503.58 1828.92 1344.71 59.05 7.00
   00:01:50.450.03-Jul-2020 452.86 2503.59 1828.92 1344.71 59.05 7.00
   00:01:50.650.03-Jul-2020 453.06 2503.58 1828.92 1344.71 59.05 7.00
   00:01:50.850.03-Jul-2020 453.26 2503.58 1828.92 1344.71 59.05 7.00
   00:01:51.050.03-Jul-2020 453.46 2503.59 1828.92 1344.71 59.05 7.00
   00:01:51.251.03-Jul-2020 453.66 2503.59 1828.92 1344.71 59.05 7.00
   00:01:51.451.03-Jul-2020 453.86 2503.60 1828.92 1344.71 59.05 7.00
   00:01:51.651.03-Jul-2020 454.06 2503.58 1828.92 1344.71 59.05 7.00
   00:01:51.851.03-Jul-2020 454.26 2503.58 1828.92 1344.71 59.05 7.00
   00:01:52.051.03-Jul-2020 454.46 2503.56 1828.92 1344.71 59.05 7.00
   00:01:52.251.03-Jul-2020 454.66 2503.59 1828.92 1344.71 59.05 7.00
   00:01:52.451.03-Jul-2020 454.86 2503.59 1828.92 1344.71 59.05 7.00
   00:01:52.651.03-Jul-2020 455.06 2503.60 1828.92 1344.71 59.05 7.00
   00:01:52.851.03-Jul-2020 455.26 2503.60 1828.92 1344.71 59.05 7.00
   00:01:53.051.03-Jul-2020 455.46 2503.58 1828.92 1344.71 59.05 7.00
   00:01:53.251.03-Jul-2020 455.66 2503.58 1828.92 1344.71 59.05 7.00
   00:01:53.451.03-Jul-2020 455.86 2503.59 1828.92 1344.71 59.05 7.00
   00:01:53.651.03-Jul-2020 456.06 2503.60 1828.92 1344.71 59.05 7.00
   00:01:53.851.03-Jul-2020 456.26 2503.58 1828.92 1344.71 59.05 7.00
   00:01:54.051.03-Jul-2020 456.46 2503.59 1828.92 1344.71 59.05 7.00
   00:01:54.251.03-Jul-2020 456.66 2503.54 1828.92 1344.71 59.05 7.00
   00:01:54.451.03-Jul-2020 456.86 2503.55 1828.92 1344.71 59.05 7.00
   00:01:54.651.03-Jul-2020 457.06 2503.59 1828.92 1344.71 59.05 7.00
   00:01:54.851.03-Jul-2020 457.26 2503.59 1828.92 1344.71 59.05 7.00
   00:01:55.051.03-Jul-2020 457.46 2503.59 1828.92 1344.71 59.05 7.00
   00:01:55.251.03-Jul-2020 457.66 2503.59 1828.92 1344.71 59.05 7.00
   00:01:55.451.03-Jul-2020 457.86 2503.56 1828.92 1344.71 59.05 7.00
   00:01:55.651.03-Jul-2020 458.06 2503.49 1828.92 1344.71 59.05 7.00
   00:01:55.851.03-Jul-2020 458.26 2503.59 1828.92 1344.71 59.05 7.00
   00:01:56.051.03-Jul-2020 458.46 2503.58 1828.92 1344.71 59.05 7.00
   00:01:56.251.03-Jul-2020 458.66 2503.59 1828.92 1344.71 59.05 7.00
   00:01:56.451.03-Jul-2020 458.86 2503.59 1828.92 1344.71 59.05 7.00
   00:01:56.651.03-Jul-2020 459.06 2503.59 1828.92 1344.71 59.05 7.00
   00:01:56.851.03-Jul-2020 459.26 2503.59 1828.92 1344.71 59.05 7.00
   00:01:57.051.03-Jul-2020 459.46 2503.56 1828.92 1344.71 59.05 7.00
   00:01:57.251.03-Jul-2020 459.66 2503.62 1828.92 1344.71 59.05 7.00
   00:01:57.451.03-Jul-2020 459.86 2503.60 1828.92 1344.71 59.05 7.00
