~Version Information
 VERS.                  2.0:   CWLS log ASCII Standard -VERSION 2.0
 WRAP.                   NO:   One line per depth step
~Well Information Block
#MNEM.UNIT     VALUE/NAME     DESCRIPTION
#---------     -----------    ---------------------------
 STRT.S             04:11:34 02-Jul-20: START TIME 04:11:34 02-Jul-20
 STOP.S             04:20:35 02-Jul-20: STOP TIME  04:20:35 02-Jul-20
 STEP.S                   0.00: STEP TIME
 NULL.                 -999.25: NULL VALUE
 DFWT.                        :  DIST FWL TEXT
 DFST.                        :  DIST FSL TEXT
 DMF .             Drill Floor:  DRILL MEAS FROM
 STIM.      09.59.28 01-Jun-20:  START TIME
 DATE.      09.59.28 01-Jun-20:  END TIME
 SPUD.               01-Jun-20:  SPUD DATE
 NREF.                    Grid:  NORTH REFERENCE
 HPTY.       Minimum Curvature:  HOLE POS TYPE
 DMOD.             Drill Model:  DRILL MOD DESC
 SVYD.                  Survey:  SURVEY DESC
 ILTD.               Lithology:  INTERP LTH DESC
 FTOP.          Formation Tops:  FORM TOPS DESC
 SON .        AZ-XX-0905455768:  JOB NUMBER
 WTYP.                Deviated:  WELL TYPE
 COMP.     BP Exploration(Caspian Sea):  COMPANY
 BASE.              Azerbaijan:  LOGGING EQUIPMENT BASE LOCATION
 REGN.                   EESSA:  REGION
 CTRY.              Azerbaijan:  COUNTRY NAME
 FLD .                     ACG:  FIELD NAME
 SRVC.          Turan Drilling:  CONTRACTOR
 WELL.                     B41:  WELL NAME
 RIG .           Central Azeri:  RIG NAME
 DCON.         Sperry Drilling:  DIRECTNL CONTR
 PDAT.          Mean Sea Level:  PERMANENT DATUM
 MDS .        Operator Entered:  MAG DATA SOURCE
 API .                        :  API NUMBER
 CNTY.                        :  COUNTY
 PROV.                        :  PROVINCE
 STAT.                        :  STATE
 UWI .                        :  UNIQUE WELL IDENTIFIER
 LOC .                        :  LOCATION
 LMF .             Drill Floor:  LOG MEASURED FROM
 TVDS.m                  43.29:  TVDSS CORRECTN
 LATI.deg                40.03:  LATITUDE
 LONG.deg                51.35:  LONGITUDE
 WHNS.m                  12.98:  WELL HEAD N/S
 WHEW.m                  -6.62:  WELL HEAD E/W
 UTMX.m              530128.28:  UTM X
 UTMY.m             4433192.49:  UTM Y
 DFWL.m                   0.00:  DISTANCE FWL
 DFSL.m                   0.00:  DISTANCE FSL
 SDEP.m                 378.00:  START DEPTH
 TDD .m                   0.00:  TOTAL DEPTH (DRILLER)
 VSDR.deg               296.18:  VERT SEC DIRECT
 GVFD.g                   1.00:  GRAVITY FIELD
 MFLD.nT              50253.00:  MAGNETIC FIELD
 MDIP.deg                59.49:  MAGNETIC DIP
 MDEC.deg                 6.44:  MAGNETIC DECL
 GRDC.deg                 0.22:  GRID CORRECTION
 AZTC.deg                 6.22:  AZM TOTAL CORR
 EPD .m                   0.00:  ELEVATION
 EGL .m                   0.00:  GROUND ELEVATION
 WDMS.m                 128.20:  WD ELEV
 APD .m                  43.29:  DEPTH ABOVE PD
 AGAP.m                  43.29:  AIR GAP
 VSEW.m                  -6.62:  VERT SEC E/W
 VSNS.m                  12.98:  VERT SEC N/S
 EKB .m                  43.29:  KB ELEVATION
 EDF .m                  43.29:  DF ELEVATION
 TDL .m                1152.00:  TOTAL DEPTH (LOGGER)
 VSC .                       0:  VS TO CLOSURE
 MAGU.                 1848525:  MAGUTM CHECKSUM
~Parameter Information Block
#MNEM.UNIT       Value        Description
#---------     -----------    ---------------------------
 AV  .mps                 0.40:  Ann Velocity 
 AVMX.mps                 1.56:  Max Ann Veloc 
 AZIF.deg               300.46:  Azm, Final 
 BHAT.        Rotary Steerable:  BHA Type 
 BROT.°/30m               0.40:  Build Rotating 
 BS  .in                 17.50:  Bit Size 
 BSZ .in                 17.50:  Bit Size 
 BTPL.psig              300.00:  Bit Press Loss 
 CABU.                      No:  Customer Abuse 
 CGEO.          Parviz Guliyev:  Customer Geo 
 TCS .hr                108.13:  Time Ciculation Ended 
 CV  .mps                 0.50:  Crit Velocity 
 CVMX.mps                 2.01:  Max Crit Veloc 
 DD1 .          Fariz Nahmatov:  Direct Drillr 1 
 DD2 .             Ehab Radwan:  Direct Drillr 2 
 DDSV.               Geo-Pilot:  DD Service 
 DEFF.%                  99.00:  % Det Eff 
 DLRX.°/30m               0.50:  Dogleg Rot Max 
 DLSO.°/30m               2.80:  Dogleg Oriented 
 DLSX.°/30m               3.90:  Dogleg Str Max 
 DRET.      09.30.04 03-Jul-20:  Drill End Time 
 DRST.      18.33.04 28-Jun-20:  Drill Start Tim 
 DTIM.hr                 55.83:  Time Drilling 
 EDEP.m                1952.00:  End Depth 
 ENG1.      Bakhtiyar Jabbarli:  Engineer 1 
 ENG2.         Farhad Orujzade:  Engineer 2 
 ENG3.          Rustam Safarov:  Engineer 3 
 ETIM.      01.33.04 04-Jul-20:  End Time 
 FLOI.gpm              1050.00:  Flow In 
 FLON.gpm               950.00:  Flow In Min 
 FLOS.cptm                0.10:  Fluid Loss 
 FLOX.gpm              1150.00:  Flow In Max 
 HFLO.                      No:  High Flow 
 HPRE.                      No:  High Pressure 
 HTEM.                      No:  High Temp 
 HYDO.m                   1.80:  Hydro Offset 
 IFIN.deg                75.26:  Inc, Final 
 IMAX.deg                75.38:  Inc Max 
 IMIN.deg                22.84:  Inc Min 
 IMND.m                 832.38:  Inc Min Depth 
 IMXD.m                1936.55:  Inc Max Depth 
 JARR.                      No:  Jarring 
 LETM.      17.40.00 04-Jul-20:  Log End Time 
 LOST.hr                     0:  Lost Rig Time 
 LSTM.      12.33.04 28-Jun-20:  Log Start Time 
 MDCL.ppm             49500.00:  Mud Chlorides 
 MDES.     Inversion Oil/Synthetic:  Mud Desc 
 DFD .sg                  1.46:  Mud Density 
 MDMN.sg                  1.46:  Dens Mud Min 
 MDMX.sg                  1.46:  Dens Mud Max 
 MOIL.                      70:  Run Mud Oil % 
 MOWR.                   70:30:  Run Mud OWR 
 MSND.                     0.5:  Run Mud Sand % 
 MSOL.                   19.89:  Run Mud Solids% 
 DFV .spqt               72.00:  Mud Viscosity 
 MWOD.in                  9.50:  MWD Tool OD 
 MWSI.                      No:  Serv Intrp, MWD 
 OTIM.hr                146.53:  Time Operating 
 PCON.           Look Like New:  Pad Condition 
 PMAX.psia             2900.00:  Press Op, Max 
 PV  .cP                 38.00:  Mud PV 
 RUN .                     600:  Run Number 
 ROPA.m/hr               22.00:  ROP Avg 
 ROPN.m/hr               10.00:  ROP Min 
 ROPX.m/hr              263.00:  ROP Max 
 RPMA.rpm               155.00:  RPM Surface Avg 
 RPMN.rpm               140.00:  RPM Surface Min 
 RPMX.rpm               160.00:  RPM Surface Max 
 RRUN.                    0600:  Rig Run Number 
 RTIM.hr                  5.00:  Time Reaming 
 SAZI.deg               300.08:  Azm, Start 
 SDEP.m                 800.00:  Start Depth 
 SIDD.                      No:  Serv Intrp, DD 
 SINC.deg                22.84:  Inc, Start 
 SPPA.psig             3000.00:  SPP Avg 
 SPPN.psig             1900.00:  SPP Min 
 SPPX.psig             3200.00:  SPP Max 
 STIM.      12.30.04 28-Jun-20:  Start Time 
 SVCS.                 DD, MWD:  Services 
 SVER.                    9.20:  Sperry Version 
 TDAT.m                1952.00:  Tot Depth Attmp 
 TDDF.                      No:  Trip for DD 
 TDLG.m                1152.00:  Tot Depth Loggd 
 TFF .                      No:  Trip for Fail 
 TQAA.f-kp                8.00:  Torque Abs Avg 
 TQAN.f-kp                5.00:  Torque Abs Min 
 TQAX.f-kp               14.00:  Torque Abs Max 
 TRRT.°/30m               0.50:  Turn Rotating 
 MRT .                  EWR-M5:  Maximum Recorded Temperature 
 TTMX.degC               69.00:  Max Tool Temp 
 VS01.                90610313:  Virtual Str1 SN 
 VS02.                90613431:  Virtual Str2 SN 
 VS03.                90615410:  Virtual Str3 SN 
 WBMN.klb                 6.00:  WOB Min 
 WITN.            Bruce Cheyne:  Customer Rep 
 WITN.             Ayaz Aliyev:  Customer Rep 2 
 WOBA.klb                 6.00:  WOB Avg 
 WOBX.klb                10.00:  WOB Max 
 YP  .lhf2               36.00:  Yield Point 
~Curve Information Block
#MNEM.UNIT                 API CODE     Curve Description
#---------               -----------    ---------------------------
 TIME.HHMMSS            00 000 000 000:  GT Time & Date
 GTET.sec               00 000 000 000:  GT Elapsed Test Time
 GTPQH.psia             00 000 000 000:  GT HR Quartz Pressure
 GTDEPTH.m              00 000 000 000:  GT Depth
 GTTVD.m                00 000 000 000:  GT True Vertical Depth
 GTTQ.degC              00 000 000 000:  GT Quartz Temperature
 GTTN.NONE              00 000 000 000:  GT Test Number
#Other Information
#
#WARRANTY: Halliburton will use its best efforts to furnish customers with 
#accurate information and interpretations that are part of, and incident to, the services 
#provided.  However, Halliburton cannot and does not warrant the accuracy 
#or correctness of such information and interpretations.  Under no circumstances should any 
#such information or interpretation be relied upon as the sole basis for any drilling, 
#completion, production, or financial decision or any procedure involving any risk to the 
#safety of any drilling venture, drilling rig or its crew or any other third party.  The 
#Customer has full responsibility for all drilling, completion and production operation.  
#Halliburton makes no representations or warranties, either expressed or 
#implied, including, but not limited to, the implied warranties of merchantability or fitness 
#for a particular purpose, with respect to the services rendered.  In no event will 
#Halliburton be liable for failure to obtain any particular results or for 
#any damages, including, but not limited to, indirect, special or consequential damages, 
#resulting from the use of any information or interpretation provided by Halliburton.
#
~A           TIME            GTET   GTPQH  GTDEPTH  GTTVD  GTTQ  GTTN 
   04:11:34.372.02-Jul-2020   0.00 2693.05 1565.98 1276.49 57.45 6.00
   04:11:34.572.02-Jul-2020   0.20 2693.05 1565.98 1276.49 57.45 6.00
   04:11:34.772.02-Jul-2020   0.40 2692.66 1565.98 1276.49 57.45 6.00
   04:11:34.972.02-Jul-2020   0.60 2693.31 1565.98 1276.49 57.45 6.00
   04:11:35.172.02-Jul-2020   0.80 2692.99 1565.98 1276.49 57.45 6.00
   04:11:35.372.02-Jul-2020   1.00 2693.21 1565.98 1276.49 57.45 6.00
   04:11:35.572.02-Jul-2020   1.20 2693.21 1565.98 1276.49 57.45 6.00
   04:11:35.772.02-Jul-2020   1.40 2694.65 1565.98 1276.49 57.45 6.00
   04:11:35.972.02-Jul-2020   1.60 2695.45 1565.98 1276.49 57.45 6.00
   04:11:36.172.02-Jul-2020   1.80 2696.77 1565.98 1276.49 57.45 6.00
   04:11:36.372.02-Jul-2020   2.00 2696.72 1565.98 1276.49 57.45 6.00
   04:11:36.572.02-Jul-2020   2.20 2696.72 1565.98 1276.49 57.45 6.00
   04:11:36.772.02-Jul-2020   2.40 2701.29 1565.98 1276.49 57.45 6.00
   04:11:36.972.02-Jul-2020   2.60 2702.06 1565.98 1276.49 57.45 6.00
   04:11:37.172.02-Jul-2020   2.80 2702.21 1565.98 1276.49 57.45 6.00
   04:11:37.372.02-Jul-2020   3.00 2702.58 1565.98 1276.49 57.45 6.00
   04:11:37.572.02-Jul-2020   3.20 2702.58 1565.98 1276.49 57.45 6.00
   04:11:37.772.02-Jul-2020   3.40 2702.80 1565.98 1276.49 57.45 6.00
   04:11:37.972.02-Jul-2020   3.60 2702.16 1565.98 1276.49 57.45 6.00
   04:11:38.172.02-Jul-2020   3.80 2702.19 1565.98 1276.49 57.45 6.00
   04:11:38.372.02-Jul-2020   4.00 2702.67 1565.98 1276.49 57.45 6.00
   04:11:38.572.02-Jul-2020   4.20 2702.67 1565.98 1276.49 57.45 6.00
   04:11:38.772.02-Jul-2020   4.40 2703.43 1565.98 1276.49 57.45 6.00
   04:11:38.972.02-Jul-2020   4.60 2703.32 1565.98 1276.49 57.46 6.00
   04:11:39.172.02-Jul-2020   4.80 2703.87 1565.98 1276.49 57.46 6.00
   04:11:39.372.02-Jul-2020   5.00 2702.47 1565.98 1276.49 57.46 6.00
   04:11:39.572.02-Jul-2020   5.20 2702.47 1565.98 1276.49 57.46 6.00
   04:11:39.772.02-Jul-2020   5.40 2704.02 1565.98 1276.49 57.46 6.00
   04:11:39.972.02-Jul-2020   5.60 2704.02 1565.98 1276.49 57.46 6.00
   04:11:40.173.02-Jul-2020   5.80 2702.69 1565.98 1276.49 57.46 6.00
   04:11:40.373.02-Jul-2020   6.00 2701.78 1565.98 1276.49 57.46 6.00
   04:11:40.573.02-Jul-2020   6.20 2701.78 1565.98 1276.49 57.46 6.00
   04:11:40.773.02-Jul-2020   6.40 2701.36 1565.98 1276.49 57.46 6.00
   04:11:40.973.02-Jul-2020   6.60 2700.14 1565.98 1276.49 57.46 6.00
   04:11:41.173.02-Jul-2020   6.80 2699.50 1565.98 1276.49 57.46 6.00
   04:11:41.373.02-Jul-2020   7.00 2699.08 1565.98 1276.49 57.46 6.00
   04:11:41.573.02-Jul-2020   7.20 2699.08 1565.98 1276.49 57.46 6.00
   04:11:41.773.02-Jul-2020   7.40 2698.95 1565.98 1276.49 57.46 6.00
   04:11:41.973.02-Jul-2020   7.60 2697.54 1565.98 1276.49 57.46 6.00
   04:11:42.173.02-Jul-2020   7.80 2698.02 1565.98 1276.49 57.46 6.00
   04:11:42.373.02-Jul-2020   8.00 2697.55 1565.98 1276.49 57.46 6.00
   04:11:42.573.02-Jul-2020   8.20 2697.55 1565.98 1276.49 57.46 6.00
   04:11:42.773.02-Jul-2020   8.40 2696.84 1565.98 1276.49 57.46 6.00
   04:11:42.973.02-Jul-2020   8.60 2696.23 1565.98 1276.49 57.46 6.00
   04:11:43.173.02-Jul-2020   8.80 2695.76 1565.98 1276.49 57.46 6.00
   04:11:43.373.02-Jul-2020   9.00 2695.32 1565.98 1276.49 57.46 6.00
   04:11:43.573.02-Jul-2020   9.20 2695.32 1565.98 1276.49 57.46 6.00
   04:11:43.773.02-Jul-2020   9.40 2694.16 1565.98 1276.49 57.46 6.00
   04:11:43.973.02-Jul-2020   9.60 2692.39 1565.98 1276.49 57.46 6.00
   04:11:44.173.02-Jul-2020   9.80 2693.32 1565.98 1276.49 57.46 6.00
   04:11:44.373.02-Jul-2020  10.00 2694.11 1565.98 1276.49 57.47 6.00
   04:11:44.573.02-Jul-2020  10.20 2694.11 1565.98 1276.49 57.47 6.00
   04:11:44.773.02-Jul-2020  10.40 2694.03 1565.98 1276.49 57.47 6.00
   04:11:44.973.02-Jul-2020  10.60 2694.35 1565.98 1276.49 57.47 6.00
   04:11:45.173.02-Jul-2020  10.80 2694.73 1565.98 1276.49 57.47 6.00
   04:11:45.373.02-Jul-2020  11.00 2694.68 1565.98 1276.49 57.47 6.00
   04:11:45.573.02-Jul-2020  11.20 2694.68 1565.98 1276.49 57.47 6.00
   04:11:45.773.02-Jul-2020  11.40 2694.68 1565.98 1276.49 57.47 6.00
   04:11:45.973.02-Jul-2020  11.60 2695.12 1565.98 1276.49 57.47 6.00
   04:11:46.173.02-Jul-2020  11.80 2695.62 1565.98 1276.49 57.47 6.00
   04:11:46.374.02-Jul-2020  12.00 2695.54 1565.98 1276.49 57.47 6.00
   04:11:46.574.02-Jul-2020  12.20 2695.54 1565.98 1276.49 57.47 6.00
   04:11:46.774.02-Jul-2020  12.40 2695.81 1565.98 1276.49 57.47 6.00
   04:11:46.974.02-Jul-2020  12.60 2696.04 1565.98 1276.49 57.47 6.00
   04:11:47.174.02-Jul-2020  12.80 2696.79 1565.98 1276.49 57.47 6.00
   04:11:47.374.02-Jul-2020  13.00 2697.00 1565.98 1276.49 57.47 6.00
   04:11:47.574.02-Jul-2020  13.20 2697.00 1565.98 1276.49 57.47 6.00
   04:11:47.774.02-Jul-2020  13.40 2696.40 1565.98 1276.49 57.47 6.00
   04:11:47.974.02-Jul-2020  13.60 2698.55 1565.98 1276.49 57.47 6.00
   04:11:48.174.02-Jul-2020  13.80 2699.22 1565.98 1276.49 57.47 6.00
   04:11:48.374.02-Jul-2020  14.00 2699.72 1565.98 1276.49 57.47 6.00
   04:11:48.574.02-Jul-2020  14.20 2699.72 1565.98 1276.49 57.47 6.00
   04:11:48.774.02-Jul-2020  14.40 2698.37 1565.98 1276.49 57.47 6.00
   04:11:48.974.02-Jul-2020  14.60 2699.25 1565.98 1276.49 57.47 6.00
   04:11:49.174.02-Jul-2020  14.80 2699.87 1565.98 1276.49 57.47 6.00
   04:11:49.374.02-Jul-2020  15.00 2699.76 1565.98 1276.49 57.47 6.00
   04:11:49.574.02-Jul-2020  15.20 2699.76 1565.98 1276.49 57.47 6.00
   04:11:49.774.02-Jul-2020  15.40 2698.38 1565.98 1276.49 57.47 6.00
   04:11:49.974.02-Jul-2020  15.60 2700.01 1565.98 1276.49 57.48 6.00
   04:11:50.174.02-Jul-2020  15.80 2700.34 1565.98 1276.49 57.48 6.00
   04:11:50.374.02-Jul-2020  16.00 2699.55 1565.98 1276.49 57.48 6.00
   04:11:50.574.02-Jul-2020  16.20 2699.55 1565.98 1276.49 57.48 6.00
   04:11:50.774.02-Jul-2020  16.40 2700.12 1565.98 1276.49 57.48 6.00
   04:11:50.974.02-Jul-2020  16.60 2700.18 1565.98 1276.49 57.48 6.00
   04:11:51.174.02-Jul-2020  16.80 2700.01 1565.98 1276.49 57.48 6.00
   04:11:51.374.02-Jul-2020  17.00 2698.40 1565.98 1276.49 57.48 6.00
   04:11:51.574.02-Jul-2020  17.20 2698.40 1565.98 1276.49 57.48 6.00
   04:11:51.774.02-Jul-2020  17.40 2699.50 1565.98 1276.49 57.48 6.00
   04:11:51.974.02-Jul-2020  17.60 2699.69 1565.98 1276.49 57.48 6.00
   04:11:52.174.02-Jul-2020  17.80 2699.07 1565.98 1276.49 57.48 6.00
   04:11:52.374.02-Jul-2020  18.00 2698.05 1565.98 1276.49 57.48 6.00
   04:11:52.574.02-Jul-2020  18.20 2698.05 1565.98 1276.49 57.48 6.00
   04:11:52.775.02-Jul-2020  18.40 2697.62 1565.98 1276.49 57.48 6.00
   04:11:52.975.02-Jul-2020  18.60 2698.36 1565.98 1276.49 57.48 6.00
   04:11:53.175.02-Jul-2020  18.80 2697.28 1565.98 1276.49 57.48 6.00
   04:11:53.375.02-Jul-2020  19.00 2697.53 1565.98 1276.49 57.48 6.00
   04:11:53.575.02-Jul-2020  19.20 2697.53 1565.98 1276.49 57.48 6.00
   04:11:53.775.02-Jul-2020  19.40 2697.47 1565.98 1276.49 57.48 6.00
   04:11:53.975.02-Jul-2020  19.60 2696.91 1565.98 1276.49 57.48 6.00
   04:11:54.175.02-Jul-2020  19.80 2697.27 1565.98 1276.49 57.48 6.00
   04:11:54.375.02-Jul-2020  20.00 2696.77 1565.98 1276.49 57.48 6.00
   04:11:54.575.02-Jul-2020  20.20 2696.77 1565.98 1276.49 57.48 6.00
   04:11:54.775.02-Jul-2020  20.40 2697.12 1565.98 1276.49 57.48 6.00
   04:11:54.975.02-Jul-2020  20.60 2696.48 1565.98 1276.49 57.48 6.00
   04:11:55.175.02-Jul-2020  20.80 2696.36 1565.98 1276.49 57.49 6.00
   04:11:55.375.02-Jul-2020  21.00 2696.11 1565.98 1276.49 57.49 6.00
   04:11:55.575.02-Jul-2020  21.20 2696.11 1565.98 1276.49 57.49 6.00
   04:11:55.775.02-Jul-2020  21.40 2696.73 1565.98 1276.49 57.49 6.00
   04:11:55.975.02-Jul-2020  21.60 2696.35 1565.98 1276.49 57.49 6.00
   04:11:56.175.02-Jul-2020  21.80 2695.15 1565.98 1276.49 57.49 6.00
   04:11:56.375.02-Jul-2020  22.00 2695.93 1565.98 1276.49 57.49 6.00
   04:11:56.575.02-Jul-2020  22.20 2695.93 1565.98 1276.49 57.49 6.00
   04:11:56.775.02-Jul-2020  22.40 2697.09 1565.98 1276.49 57.49 6.00
   04:11:56.975.02-Jul-2020  22.60 2697.15 1565.98 1276.49 57.49 6.00
   04:11:57.175.02-Jul-2020  22.80 2696.98 1565.98 1276.49 57.49 6.00
