~Version Information
 VERS.                  2.0:   CWLS log ASCII Standard -VERSION 2.0
 WRAP.                   NO:   One line per depth step
~Well Information Block
#MNEM.UNIT     VALUE/NAME     DESCRIPTION
#---------     -----------    ---------------------------
 STRT.S             23:30:34 30-Jun-20: START TIME 23:30:34 30-Jun-20
 STOP.S             23:39:34 30-Jun-20: STOP TIME  23:39:34 30-Jun-20
 STEP.S                   0.00: STEP TIME
 NULL.                 -999.25: NULL VALUE
 DFWT.                        :  DIST FWL TEXT
 DFST.                        :  DIST FSL TEXT
 DMF .             Drill Floor:  DRILL MEAS FROM
 STIM.      09.59.28 01-Jun-20:  START TIME
 DATE.      09.59.28 01-Jun-20:  END TIME
 SPUD.               01-Jun-20:  SPUD DATE
 NREF.                    Grid:  NORTH REFERENCE
 HPTY.       Minimum Curvature:  HOLE POS TYPE
 DMOD.             Drill Model:  DRILL MOD DESC
 SVYD.                  Survey:  SURVEY DESC
 ILTD.               Lithology:  INTERP LTH DESC
 FTOP.          Formation Tops:  FORM TOPS DESC
 SON .        AZ-XX-0905455768:  JOB NUMBER
 WTYP.                Deviated:  WELL TYPE
 COMP.     BP Exploration(Caspian Sea):  COMPANY
 BASE.              Azerbaijan:  LOGGING EQUIPMENT BASE LOCATION
 REGN.                   EESSA:  REGION
 CTRY.              Azerbaijan:  COUNTRY NAME
 FLD .                     ACG:  FIELD NAME
 SRVC.          Turan Drilling:  CONTRACTOR
 WELL.                     B41:  WELL NAME
 RIG .           Central Azeri:  RIG NAME
 DCON.         Sperry Drilling:  DIRECTNL CONTR
 PDAT.          Mean Sea Level:  PERMANENT DATUM
 MDS .        Operator Entered:  MAG DATA SOURCE
 API .                        :  API NUMBER
 CNTY.                        :  COUNTY
 PROV.                        :  PROVINCE
 STAT.                        :  STATE
 UWI .                        :  UNIQUE WELL IDENTIFIER
 LOC .                        :  LOCATION
 LMF .             Drill Floor:  LOG MEASURED FROM
 TVDS.m                  43.29:  TVDSS CORRECTN
 LATI.deg                40.03:  LATITUDE
 LONG.deg                51.35:  LONGITUDE
 WHNS.m                  12.98:  WELL HEAD N/S
 WHEW.m                  -6.62:  WELL HEAD E/W
 UTMX.m              530128.28:  UTM X
 UTMY.m             4433192.49:  UTM Y
 DFWL.m                   0.00:  DISTANCE FWL
 DFSL.m                   0.00:  DISTANCE FSL
 SDEP.m                 378.00:  START DEPTH
 TDD .m                   0.00:  TOTAL DEPTH (DRILLER)
 VSDR.deg               296.18:  VERT SEC DIRECT
 GVFD.g                   1.00:  GRAVITY FIELD
 MFLD.nT              50253.00:  MAGNETIC FIELD
 MDIP.deg                59.49:  MAGNETIC DIP
 MDEC.deg                 6.44:  MAGNETIC DECL
 GRDC.deg                 0.22:  GRID CORRECTION
 AZTC.deg                 6.22:  AZM TOTAL CORR
 EPD .m                   0.00:  ELEVATION
 EGL .m                   0.00:  GROUND ELEVATION
 WDMS.m                 128.20:  WD ELEV
 APD .m                  43.29:  DEPTH ABOVE PD
 AGAP.m                  43.29:  AIR GAP
 VSEW.m                  -6.62:  VERT SEC E/W
 VSNS.m                  12.98:  VERT SEC N/S
 EKB .m                  43.29:  KB ELEVATION
 EDF .m                  43.29:  DF ELEVATION
 TDL .m                1152.00:  TOTAL DEPTH (LOGGER)
 VSC .                       0:  VS TO CLOSURE
 MAGU.                 1848525:  MAGUTM CHECKSUM
~Parameter Information Block
#MNEM.UNIT       Value        Description
#---------     -----------    ---------------------------
 AV  .mps                 0.40:  Ann Velocity 
 AVMX.mps                 1.56:  Max Ann Veloc 
 AZIF.deg               300.46:  Azm, Final 
 BHAT.        Rotary Steerable:  BHA Type 
 BROT.°/30m               0.40:  Build Rotating 
 BS  .in                 17.50:  Bit Size 
 BSZ .in                 17.50:  Bit Size 
 BTPL.psig              300.00:  Bit Press Loss 
 CABU.                      No:  Customer Abuse 
 CGEO.          Parviz Guliyev:  Customer Geo 
 COMM.                     œº_:  Run Comments 1 
 TCS .hr                108.13:  Time Ciculation Ended 
 CV  .mps                 0.50:  Crit Velocity 
 CVMX.mps                 2.01:  Max Crit Veloc 
 DD1 .          Fariz Nahmatov:  Direct Drillr 1 
 DD2 .             Ehab Radwan:  Direct Drillr 2 
 DDSV.               Geo-Pilot:  DD Service 
 DEFF.%                  99.00:  % Det Eff 
 DLRX.°/30m               0.50:  Dogleg Rot Max 
 DLSO.°/30m               2.80:  Dogleg Oriented 
 DLSX.°/30m               3.90:  Dogleg Str Max 
 DRET.      09.30.04 03-Jul-20:  Drill End Time 
 DRST.      18.33.04 28-Jun-20:  Drill Start Tim 
 DTIM.hr                 55.83:  Time Drilling 
 EDEP.m                1952.00:  End Depth 
 ENG1.      Bakhtiyar Jabbarli:  Engineer 1 
 ENG2.         Farhad Orujzade:  Engineer 2 
 ENG3.          Rustam Safarov:  Engineer 3 
 ETIM.      01.33.04 04-Jul-20:  End Time 
 FLOI.gpm              1050.00:  Flow In 
 FLON.gpm               950.00:  Flow In Min 
 FLOS.cptm                0.10:  Fluid Loss 
 FLOX.gpm              1150.00:  Flow In Max 
 HFLO.                      No:  High Flow 
 HPRE.                      No:  High Pressure 
 HTEM.                      No:  High Temp 
 HYDO.m                   1.80:  Hydro Offset 
 IFIN.deg                75.26:  Inc, Final 
 IMAX.deg                75.38:  Inc Max 
 IMIN.deg                22.84:  Inc Min 
 IMND.m                 832.38:  Inc Min Depth 
 IMXD.m                1936.55:  Inc Max Depth 
 JARR.                      No:  Jarring 
 LETM.      17.40.00 04-Jul-20:  Log End Time 
 LOST.hr                     0:  Lost Rig Time 
 LSTM.      12.33.04 28-Jun-20:  Log Start Time 
 MDCL.ppm             49500.00:  Mud Chlorides 
 MDES.     Inversion Oil/Synthetic:  Mud Desc 
 DFD .sg                  1.46:  Mud Density 
 MDMN.sg                  1.46:  Dens Mud Min 
 MDMX.sg                  1.46:  Dens Mud Max 
 MOIL.                      70:  Run Mud Oil % 
 MOWR.                   70:30:  Run Mud OWR 
 MSND.                     0.5:  Run Mud Sand % 
 MSOL.                   19.89:  Run Mud Solids% 
 DFV .spqt               72.00:  Mud Viscosity 
 MWOD.in                  9.50:  MWD Tool OD 
 MWSI.                      No:  Serv Intrp, MWD 
 OTIM.hr                146.53:  Time Operating 
 PCON.           Look Like New:  Pad Condition 
 PMAX.psia             2900.00:  Press Op, Max 
 PV  .cP                 38.00:  Mud PV 
 RUN .                     600:  Run Number 
 ROPA.m/hr               22.00:  ROP Avg 
 ROPN.m/hr               10.00:  ROP Min 
 ROPX.m/hr              263.00:  ROP Max 
 RPMA.rpm               155.00:  RPM Surface Avg 
 RPMN.rpm               140.00:  RPM Surface Min 
 RPMX.rpm               160.00:  RPM Surface Max 
 RRUN.                    0600:  Rig Run Number 
 RTIM.hr                  5.00:  Time Reaming 
 SAZI.deg               300.08:  Azm, Start 
 SDEP.m                 800.00:  Start Depth 
 SIDD.                      No:  Serv Intrp, DD 
 SINC.deg                22.84:  Inc, Start 
 SPPA.psig             3000.00:  SPP Avg 
 SPPN.psig             1900.00:  SPP Min 
 SPPX.psig             3200.00:  SPP Max 
 STIM.      12.30.04 28-Jun-20:  Start Time 
 SVCS.                 DD, MWD:  Services 
 SVER.                    9.20:  Sperry Version 
 TDAT.m                1952.00:  Tot Depth Attmp 
 TDDF.                      No:  Trip for DD 
 TDLG.m                1152.00:  Tot Depth Loggd 
 TFF .                      No:  Trip for Fail 
 TQAA.f-kp                8.00:  Torque Abs Avg 
 TQAN.f-kp                5.00:  Torque Abs Min 
 TQAX.f-kp               14.00:  Torque Abs Max 
 TRRT.°/30m               0.50:  Turn Rotating 
 MRT .                  EWR-M5:  Maximum Recorded Temperature 
 TTMX.degC               69.00:  Max Tool Temp 
 VS01.                90610313:  Virtual Str1 SN 
 VS02.                90613431:  Virtual Str2 SN 
 VS03.                90615410:  Virtual Str3 SN 
 WBMN.klb                 6.00:  WOB Min 
 WITN.            Bruce Cheyne:  Customer Rep 
 WITN.             Ayaz Aliyev:  Customer Rep 2 
 WOBA.klb                 6.00:  WOB Avg 
 WOBX.klb                10.00:  WOB Max 
 YP  .lhf2               36.00:  Yield Point 
~Curve Information Block
#MNEM.UNIT                 API CODE     Curve Description
#---------               -----------    ---------------------------
 TIME.HHMMSS            00 000 000 000:  GT Time & Date
 GTET.sec               00 000 000 000:  GT Elapsed Test Time
 GTPQH.psia             00 000 000 000:  GT HR Quartz Pressure
 GTDEPTH.m              00 000 000 000:  GT Depth
 GTTVD.m                00 000 000 000:  GT True Vertical Depth
 GTTQ.degC              00 000 000 000:  GT Quartz Temperature
 GTTN.NONE              00 000 000 000:  GT Test Number
#Other Information
#
#WARRANTY: Halliburton will use its best efforts to furnish customers with 
#accurate information and interpretations that are part of, and incident to, the services 
#provided.  However, Halliburton cannot and does not warrant the accuracy 
#or correctness of such information and interpretations.  Under no circumstances should any 
#such information or interpretation be relied upon as the sole basis for any drilling, 
#completion, production, or financial decision or any procedure involving any risk to the 
#safety of any drilling venture, drilling rig or its crew or any other third party.  The 
#Customer has full responsibility for all drilling, completion and production operation.  
#Halliburton makes no representations or warranties, either expressed or 
#implied, including, but not limited to, the implied warranties of merchantability or fitness 
#for a particular purpose, with respect to the services rendered.  In no event will 
#Halliburton be liable for failure to obtain any particular results or for 
#any damages, including, but not limited to, indirect, special or consequential damages, 
#resulting from the use of any information or interpretation provided by Halliburton.
#
~A           TIME            GTET   GTPQH  GTDEPTH  GTTVD  GTTQ  GTTN 
# ...
   23:34:01.545.30-Jun-2020 207.06 2110.76 1161.05 1096.50 59.67 4.00
   23:34:01.745.30-Jun-2020 207.26 2110.76 1161.05 1096.50 59.67 4.00
   23:34:01.945.30-Jun-2020 207.46 2110.77 1161.05 1096.50 59.67 4.00
   23:34:02.145.30-Jun-2020 207.66 2110.80 1161.05 1096.50 59.67 4.00
   23:34:02.346.30-Jun-2020 207.86 2110.76 1161.05 1096.50 59.67 4.00
   23:34:02.546.30-Jun-2020 208.06 2110.78 1161.05 1096.50 59.67 4.00
   23:34:02.746.30-Jun-2020 208.26 2110.78 1161.05 1096.50 59.67 4.00
   23:34:02.946.30-Jun-2020 208.46 2110.77 1161.05 1096.50 59.67 4.00
   23:34:03.146.30-Jun-2020 208.66 2110.77 1161.05 1096.50 59.67 4.00
   23:34:03.346.30-Jun-2020 208.86 2110.77 1161.05 1096.50 59.67 4.00
   23:34:03.546.30-Jun-2020 209.06 2110.80 1161.05 1096.50 59.67 4.00
   23:34:03.746.30-Jun-2020 209.26 2110.80 1161.05 1096.50 59.67 4.00
   23:34:03.946.30-Jun-2020 209.46 2110.77 1161.05 1096.50 59.67 4.00
   23:34:04.146.30-Jun-2020 209.66 2110.77 1161.05 1096.50 59.67 4.00
   23:34:04.346.30-Jun-2020 209.86 2110.76 1161.05 1096.50 59.67 4.00
   23:34:04.546.30-Jun-2020 210.06 2110.78 1161.05 1096.50 59.67 4.00
   23:34:04.746.30-Jun-2020 210.26 2110.78 1161.05 1096.50 59.67 4.00
   23:34:04.946.30-Jun-2020 210.46 2110.77 1161.05 1096.50 59.67 4.00
   23:34:05.146.30-Jun-2020 210.66 2110.77 1161.05 1096.50 59.67 4.00
   23:34:05.346.30-Jun-2020 210.86 2110.78 1161.05 1096.50 59.67 4.00
   23:34:05.546.30-Jun-2020 211.06 2110.76 1161.05 1096.50 59.67 4.00
   23:34:05.746.30-Jun-2020 211.26 2110.75 1161.05 1096.50 59.67 4.00
   23:34:05.947.30-Jun-2020 211.46 2110.76 1161.05 1096.50 59.67 4.00
   23:34:06.147.30-Jun-2020 211.66 2110.75 1161.05 1096.50 59.67 4.00
   23:34:06.347.30-Jun-2020 211.86 2110.75 1161.05 1096.50 59.67 4.00
   23:34:06.547.30-Jun-2020 212.06 2110.76 1161.05 1096.50 59.67 4.00
   23:34:06.747.30-Jun-2020 212.26 2110.76 1161.05 1096.50 59.67 4.00
   23:34:06.947.30-Jun-2020 212.46 2110.75 1161.05 1096.50 59.67 4.00
   23:34:07.147.30-Jun-2020 212.66 2110.76 1161.05 1096.50 59.67 4.00
   23:34:07.347.30-Jun-2020 212.86 2110.75 1161.05 1096.50 59.67 4.00
   23:34:07.547.30-Jun-2020 213.06 2110.76 1161.05 1096.50 59.67 4.00
   23:34:07.747.30-Jun-2020 213.26 2110.76 1161.05 1096.50 59.67 4.00
   23:34:07.947.30-Jun-2020 213.46 2110.76 1161.05 1096.50 59.67 4.00
   23:34:08.147.30-Jun-2020 213.66 2110.74 1161.05 1096.50 59.67 4.00
   23:34:08.347.30-Jun-2020 213.86 2110.75 1161.05 1096.50 59.67 4.00
   23:34:08.547.30-Jun-2020 214.06 2110.78 1161.05 1096.50 59.67 4.00
   23:34:08.747.30-Jun-2020 214.26 2110.78 1161.05 1096.50 59.67 4.00
   23:34:08.947.30-Jun-2020 214.46 2110.76 1161.05 1096.50 59.67 4.00
   23:34:09.147.30-Jun-2020 214.66 2110.76 1161.05 1096.50 59.67 4.00
   23:34:09.348.30-Jun-2020 214.86 2110.75 1161.05 1096.50 59.67 4.00
   23:34:09.548.30-Jun-2020 215.06 2110.76 1161.05 1096.50 59.67 4.00
   23:34:09.748.30-Jun-2020 215.26 2110.74 1161.05 1096.50 59.67 4.00
   23:34:09.948.30-Jun-2020 215.46 2110.75 1161.05 1096.50 59.67 4.00
   23:34:10.148.30-Jun-2020 215.66 2110.75 1161.05 1096.50 59.67 4.00
   23:34:10.348.30-Jun-2020 215.86 2110.75 1161.05 1096.50 59.67 4.00
   23:34:10.548.30-Jun-2020 216.06 2110.74 1161.05 1096.50 59.67 4.00
   23:34:10.748.30-Jun-2020 216.26 2110.76 1161.05 1096.50 59.67 4.00
   23:34:10.948.30-Jun-2020 216.46 2110.78 1161.05 1096.50 59.67 4.00
   23:34:11.148.30-Jun-2020 216.66 2110.76 1161.05 1096.50 59.67 4.00
   23:34:11.348.30-Jun-2020 216.86 2110.77 1161.05 1096.50 59.67 4.00
   23:34:11.548.30-Jun-2020 217.06 2110.76 1161.05 1096.50 59.67 4.00
   23:34:11.748.30-Jun-2020 217.26 2110.76 1161.05 1096.50 59.67 4.00
   23:34:11.948.30-Jun-2020 217.46 2110.77 1161.05 1096.50 59.67 4.00
   23:34:12.148.30-Jun-2020 217.66 2110.77 1161.05 1096.50 59.67 4.00
   23:34:12.348.30-Jun-2020 217.86 2110.76 1161.05 1096.50 59.67 4.00
   23:34:12.548.30-Jun-2020 218.06 2110.77 1161.05 1096.50 59.67 4.00
   23:34:12.749.30-Jun-2020 218.26 2110.77 1161.05 1096.50 59.67 4.00
   23:34:12.949.30-Jun-2020 218.46 2110.77 1161.05 1096.50 59.67 4.00
   23:34:13.149.30-Jun-2020 218.66 2110.78 1161.05 1096.50 59.67 4.00
   23:34:13.349.30-Jun-2020 218.86 2110.79 1161.05 1096.50 59.67 4.00
   23:34:13.549.30-Jun-2020 219.06 2110.78 1161.05 1096.50 59.67 4.00
   23:34:13.749.30-Jun-2020 219.26 2110.78 1161.05 1096.50 59.67 4.00
   23:34:13.949.30-Jun-2020 219.46 2110.77 1161.05 1096.50 59.67 4.00
   23:34:14.149.30-Jun-2020 219.66 2110.77 1161.05 1096.50 59.67 4.00
   23:34:14.349.30-Jun-2020 219.86 2110.78 1161.05 1096.50 59.67 4.00
   23:34:14.549.30-Jun-2020 220.06 2110.78 1161.05 1096.50 59.67 4.00
   23:34:14.749.30-Jun-2020 220.26 2110.78 1161.05 1096.50 59.67 4.00
   23:34:14.949.30-Jun-2020 220.46 2110.78 1161.05 1096.50 59.67 4.00
   23:34:15.149.30-Jun-2020 220.66 2110.77 1161.05 1096.50 59.67 4.00
   23:34:15.349.30-Jun-2020 220.86 2110.61 1161.05 1096.50 59.67 4.00
   23:34:15.549.30-Jun-2020 221.06 2104.11 1161.05 1096.50 59.67 4.00
   23:34:15.749.30-Jun-2020 221.26 2104.11 1161.05 1096.50 59.67 4.00
   23:34:15.949.30-Jun-2020 221.46 2104.69 1161.05 1096.50 59.67 4.00
   23:34:16.150.30-Jun-2020 221.66 2105.09 1161.05 1096.50 59.67 4.00
   23:34:16.350.30-Jun-2020 221.86 2105.30 1161.05 1096.50 59.67 4.00
   23:34:16.550.30-Jun-2020 222.06 2105.49 1161.05 1096.50 59.67 4.00
   23:34:16.750.30-Jun-2020 222.26 2105.49 1161.05 1096.50 59.67 4.00
   23:34:16.950.30-Jun-2020 222.46 2105.71 1161.05 1096.50 59.67 4.00
   23:34:17.150.30-Jun-2020 222.66 2105.73 1161.05 1096.50 59.67 4.00
   23:34:17.350.30-Jun-2020 222.86 2105.80 1161.05 1096.50 59.67 4.00
   23:34:17.550.30-Jun-2020 223.06 2105.90 1161.05 1096.50 59.67 4.00
   23:34:17.750.30-Jun-2020 223.26 2105.95 1161.05 1096.50 59.67 4.00
   23:34:17.950.30-Jun-2020 223.46 2105.93 1161.05 1096.50 59.67 4.00
   23:34:18.150.30-Jun-2020 223.66 2106.17 1161.05 1096.50 59.67 4.00
   23:34:18.350.30-Jun-2020 223.87 2106.20 1161.05 1096.50 59.67 4.00
   23:34:18.550.30-Jun-2020 224.07 2106.20 1161.05 1096.50 59.67 4.00
   23:34:18.750.30-Jun-2020 224.27 2106.20 1161.05 1096.50 59.67 4.00
   23:34:18.950.30-Jun-2020 224.47 2106.29 1161.05 1096.50 59.67 4.00
   23:34:19.150.30-Jun-2020 224.67 2106.25 1161.05 1096.50 59.67 4.00
   23:34:19.350.30-Jun-2020 224.87 2106.30 1161.05 1096.50 59.67 4.00
   23:34:19.551.30-Jun-2020 225.07 2106.31 1161.05 1096.50 59.67 4.00
   23:34:19.751.30-Jun-2020 225.27 2106.31 1161.05 1096.50 59.67 4.00
   23:34:19.951.30-Jun-2020 225.47 2106.36 1161.05 1096.50 59.67 4.00
   23:34:20.151.30-Jun-2020 225.67 2106.49 1161.05 1096.50 59.67 4.00
   23:34:20.351.30-Jun-2020 225.87 2106.41 1161.05 1096.50 59.67 4.00
   23:34:20.551.30-Jun-2020 226.07 2106.57 1161.05 1096.50 59.67 4.00
   23:34:20.751.30-Jun-2020 226.27 2106.57 1161.05 1096.50 59.67 4.00
   23:34:20.951.30-Jun-2020 226.47 2106.53 1161.05 1096.50 59.67 4.00
   23:34:21.151.30-Jun-2020 226.67 2106.62 1161.05 1096.50 59.67 4.00
   23:34:21.351.30-Jun-2020 226.87 2106.52 1161.05 1096.50 59.67 4.00
   23:34:21.551.30-Jun-2020 227.07 2106.58 1161.05 1096.50 59.67 4.00
   23:34:21.751.30-Jun-2020 227.27 2106.58 1161.05 1096.50 59.67 4.00
   23:34:21.951.30-Jun-2020 227.47 2106.64 1161.05 1096.50 59.67 4.00
   23:34:22.151.30-Jun-2020 227.67 2106.67 1161.05 1096.50 59.67 4.00
   23:34:22.351.30-Jun-2020 227.87 2106.66 1161.05 1096.50 59.67 4.00
   23:34:22.551.30-Jun-2020 228.07 2106.66 1161.05 1096.50 59.67 4.00
   23:34:22.751.30-Jun-2020 228.27 2106.66 1161.05 1096.50 59.67 4.00
   23:34:22.951.30-Jun-2020 228.47 2106.70 1161.05 1096.50 59.67 4.00
   23:34:23.152.30-Jun-2020 228.67 2106.73 1161.05 1096.50 59.67 4.00
   23:34:23.352.30-Jun-2020 228.87 2106.72 1161.05 1096.50 59.67 4.00
   23:34:23.552.30-Jun-2020 229.07 2106.73 1161.05 1096.50 59.67 4.00
   23:34:23.752.30-Jun-2020 229.27 2106.73 1161.05 1096.50 59.67 4.00
   23:34:23.952.30-Jun-2020 229.47 2106.67 1161.05 1096.50 59.67 4.00
   23:34:24.152.30-Jun-2020 229.67 2106.78 1161.05 1096.50 59.67 4.00
   23:34:24.352.30-Jun-2020 229.87 2106.82 1161.05 1096.50 59.67 4.00
