~Version Information
 VERS.                  2.0:   CWLS log ASCII Standard -VERSION 2.0
 WRAP.                   NO:   One line per depth step
~Well Information Block
#MNEM.UNIT     VALUE/NAME     DESCRIPTION
#---------     -----------    ---------------------------
 STRT.S             16:00:06 29-Jun-20: START TIME 16:00:06 29-Jun-20
 STOP.S             16:09:07 29-Jun-20: STOP TIME  16:09:07 29-Jun-20
 STEP.S                   0.00: STEP TIME
 NULL.                 -999.25: NULL VALUE
 DFWT.                        :  DIST FWL TEXT
 DFST.                        :  DIST FSL TEXT
 DMF .             Drill Floor:  DRILL MEAS FROM
 STIM.      09.59.28 01-Jun-20:  START TIME
 DATE.      09.59.28 01-Jun-20:  END TIME
 SPUD.               01-Jun-20:  SPUD DATE
 NREF.                    Grid:  NORTH REFERENCE
 HPTY.       Minimum Curvature:  HOLE POS TYPE
 DMOD.             Drill Model:  DRILL MOD DESC
 SVYD.                  Survey:  SURVEY DESC
 ILTD.               Lithology:  INTERP LTH DESC
 FTOP.          Formation Tops:  FORM TOPS DESC
 SON .        AZ-XX-0905455768:  JOB NUMBER
 WTYP.                Deviated:  WELL TYPE
 COMP.     BP Exploration(Caspian Sea):  COMPANY
 BASE.              Azerbaijan:  LOGGING EQUIPMENT BASE LOCATION
 REGN.                   EESSA:  REGION
 CTRY.              Azerbaijan:  COUNTRY NAME
 FLD .                     ACG:  FIELD NAME
 SRVC.          Turan Drilling:  CONTRACTOR
 WELL.                     B41:  WELL NAME
 RIG .           Central Azeri:  RIG NAME
 DCON.         Sperry Drilling:  DIRECTNL CONTR
 PDAT.          Mean Sea Level:  PERMANENT DATUM
 MDS .        Operator Entered:  MAG DATA SOURCE
 API .                        :  API NUMBER
 CNTY.                        :  COUNTY
 PROV.                        :  PROVINCE
 STAT.                        :  STATE
 UWI .                        :  UNIQUE WELL IDENTIFIER
 LOC .                        :  LOCATION
 LMF .             Drill Floor:  LOG MEASURED FROM
 TVDS.m                  43.29:  TVDSS CORRECTN
 LATI.deg                40.03:  LATITUDE
 LONG.deg                51.35:  LONGITUDE
 WHNS.m                  12.98:  WELL HEAD N/S
 WHEW.m                  -6.62:  WELL HEAD E/W
 UTMX.m              530128.28:  UTM X
 UTMY.m             4433192.49:  UTM Y
 DFWL.m                   0.00:  DISTANCE FWL
 DFSL.m                   0.00:  DISTANCE FSL
 SDEP.m                 378.00:  START DEPTH
 TDD .m                   0.00:  TOTAL DEPTH (DRILLER)
 VSDR.deg               296.18:  VERT SEC DIRECT
 GVFD.g                   1.00:  GRAVITY FIELD
 MFLD.nT              50253.00:  MAGNETIC FIELD
 MDIP.deg                59.49:  MAGNETIC DIP
 MDEC.deg                 6.44:  MAGNETIC DECL
 GRDC.deg                 0.22:  GRID CORRECTION
 AZTC.deg                 6.22:  AZM TOTAL CORR
 EPD .m                   0.00:  ELEVATION
 EGL .m                   0.00:  GROUND ELEVATION
 WDMS.m                 128.20:  WD ELEV
 APD .m                  43.29:  DEPTH ABOVE PD
 AGAP.m                  43.29:  AIR GAP
 VSEW.m                  -6.62:  VERT SEC E/W
 VSNS.m                  12.98:  VERT SEC N/S
 EKB .m                  43.29:  KB ELEVATION
 EDF .m                  43.29:  DF ELEVATION
 TDL .m                1152.00:  TOTAL DEPTH (LOGGER)
 VSC .                       0:  VS TO CLOSURE
 MAGU.                 1848525:  MAGUTM CHECKSUM
~Parameter Information Block
#MNEM.UNIT       Value        Description
#---------     -----------    ---------------------------
 AV  .mps                 0.40:  Ann Velocity 
 AVMX.mps                 1.56:  Max Ann Veloc 
 AZIF.deg               300.46:  Azm, Final 
 BHAT.        Rotary Steerable:  BHA Type 
 BROT.∞/30m               0.40:  Build Rotating 
 BS  .in                 17.50:  Bit Size 
 BSZ .in                 17.50:  Bit Size 
 BTPL.psig              300.00:  Bit Press Loss 
 CABU.                      No:  Customer Abuse 
 CGEO.          Parviz Guliyev:  Customer Geo 
 COMM.                     ,‘Å:  Run Comments 1 
 TCS .hr                108.13:  Time Ciculation Ended 
 CV  .mps                 0.50:  Crit Velocity 
 CVMX.mps                 2.01:  Max Crit Veloc 
 DD1 .          Fariz Nahmatov:  Direct Drillr 1 
 DD2 .             Ehab Radwan:  Direct Drillr 2 
 DDSV.               Geo-Pilot:  DD Service 
 DEFF.%                  99.00:  % Det Eff 
 DLRX.∞/30m               0.50:  Dogleg Rot Max 
 DLSO.∞/30m               2.80:  Dogleg Oriented 
 DLSX.∞/30m               3.90:  Dogleg Str Max 
 DRET.      09.30.04 03-Jul-20:  Drill End Time 
 DRST.      18.33.04 28-Jun-20:  Drill Start Tim 
 DTIM.hr                 55.83:  Time Drilling 
 EDEP.m                1952.00:  End Depth 
 ENG1.      Bakhtiyar Jabbarli:  Engineer 1 
 ENG2.         Farhad Orujzade:  Engineer 2 
 ENG3.          Rustam Safarov:  Engineer 3 
 ETIM.      01.33.04 04-Jul-20:  End Time 
 FLOI.gpm              1050.00:  Flow In 
 FLON.gpm               950.00:  Flow In Min 
 FLOS.cptm                0.10:  Fluid Loss 
 FLOX.gpm              1150.00:  Flow In Max 
 HFLO.                      No:  High Flow 
 HPRE.                      No:  High Pressure 
 HTEM.                      No:  High Temp 
 HYDO.m                   1.80:  Hydro Offset 
 IFIN.deg                75.26:  Inc, Final 
 IMAX.deg                75.38:  Inc Max 
 IMIN.deg                22.84:  Inc Min 
 IMND.m                 832.38:  Inc Min Depth 
 IMXD.m                1936.55:  Inc Max Depth 
 JARR.                      No:  Jarring 
 LETM.      17.40.00 04-Jul-20:  Log End Time 
 LOST.hr                     0:  Lost Rig Time 
 LSTM.      12.33.04 28-Jun-20:  Log Start Time 
 MDCL.ppm             49500.00:  Mud Chlorides 
 MDES.     Inversion Oil/Synthetic:  Mud Desc 
 DFD .sg                  1.46:  Mud Density 
 MDMN.sg                  1.46:  Dens Mud Min 
 MDMX.sg                  1.46:  Dens Mud Max 
 MOIL.                      70:  Run Mud Oil % 
 MOWR.                   70:30:  Run Mud OWR 
 MSND.                     0.5:  Run Mud Sand % 
 MSOL.                   19.89:  Run Mud Solids% 
 DFV .spqt               72.00:  Mud Viscosity 
 MWOD.in                  9.50:  MWD Tool OD 
 MWSI.                      No:  Serv Intrp, MWD 
 OTIM.hr                146.53:  Time Operating 
 PCON.           Look Like New:  Pad Condition 
 PMAX.psia             2900.00:  Press Op, Max 
 PV  .cP                 38.00:  Mud PV 
 RUN .                     600:  Run Number 
 ROPA.m/hr               22.00:  ROP Avg 
 ROPN.m/hr               10.00:  ROP Min 
 ROPX.m/hr              263.00:  ROP Max 
 RPMA.rpm               155.00:  RPM Surface Avg 
 RPMN.rpm               140.00:  RPM Surface Min 
 RPMX.rpm               160.00:  RPM Surface Max 
 RRUN.                    0600:  Rig Run Number 
 RTIM.hr                  5.00:  Time Reaming 
 SAZI.deg               300.08:  Azm, Start 
 SDEP.m                 800.00:  Start Depth 
 SIDD.                      No:  Serv Intrp, DD 
 SINC.deg                22.84:  Inc, Start 
 SPPA.psig             3000.00:  SPP Avg 
 SPPN.psig             1900.00:  SPP Min 
 SPPX.psig             3200.00:  SPP Max 
 STIM.      12.30.04 28-Jun-20:  Start Time 
 SVCS.                 DD, MWD:  Services 
 SVER.                    9.20:  Sperry Version 
 TDAT.m                1952.00:  Tot Depth Attmp 
 TDDF.                      No:  Trip for DD 
 TDLG.m                1152.00:  Tot Depth Loggd 
 TFF .                      No:  Trip for Fail 
 TQAA.f-kp                8.00:  Torque Abs Avg 
 TQAN.f-kp                5.00:  Torque Abs Min 
 TQAX.f-kp               14.00:  Torque Abs Max 
 TRRT.∞/30m               0.50:  Turn Rotating 
 MRT .                  EWR-M5:  Maximum Recorded Temperature 
 TTMX.degC               69.00:  Max Tool Temp 
 VS01.                90610313:  Virtual Str1 SN 
 VS02.                90613431:  Virtual Str2 SN 
 VS03.                90615410:  Virtual Str3 SN 
 WBMN.klb                 6.00:  WOB Min 
 WITN.            Bruce Cheyne:  Customer Rep 
 WITN.             Ayaz Aliyev:  Customer Rep 2 
 WOBA.klb                 6.00:  WOB Avg 
 WOBX.klb                10.00:  WOB Max 
 YP  .lhf2               36.00:  Yield Point 
~Curve Information Block
#MNEM.UNIT                 API CODE     Curve Description
#---------               -----------    ---------------------------
 TIME.HHMMSS            00 000 000 000:  GT Time & Date
 GTET.sec               00 000 000 000:  GT Elapsed Test Time
 GTPQH.psia             00 000 000 000:  GT HR Quartz Pressure
 GTDEPTH.m              00 000 000 000:  GT Depth
 GTTVD.m                00 000 000 000:  GT True Vertical Depth
 GTTQ.degC              00 000 000 000:  GT Quartz Temperature
 GTTN.NONE              00 000 000 000:  GT Test Number
#Other Information
#
#WARRANTY: Halliburton will use its best efforts to furnish customers with 
#accurate information and interpretations that are part of, and incident to, the services 
#provided.  However, Halliburton cannot and does not warrant the accuracy 
#or correctness of such information and interpretations.  Under no circumstances should any 
#such information or interpretation be relied upon as the sole basis for any drilling, 
#completion, production, or financial decision or any procedure involving any risk to the 
#safety of any drilling venture, drilling rig or its crew or any other third party.  The 
#Customer has full responsibility for all drilling, completion and production operation.  
#Halliburton makes no representations or warranties, either expressed or 
#implied, including, but not limited to, the implied warranties of merchantability or fitness 
#for a particular purpose, with respect to the services rendered.  In no event will 
#Halliburton be liable for failure to obtain any particular results or for 
#any damages, including, but not limited to, indirect, special or consequential damages, 
#resulting from the use of any information or interpretation provided by Halliburton.
#
~A           TIME            GTET   GTPQH  GTDEPTH GTTVD  GTTQ  GTTN 
# ...
   16:05:08.166.29-Jun-2020 301.71 1574.82  873.30 856.96 65.90 1.00
   16:05:08.366.29-Jun-2020 301.91 1574.85  873.30 856.96 65.90 1.00
   16:05:08.566.29-Jun-2020 302.11 1574.82  873.30 856.96 65.90 1.00
   16:05:08.766.29-Jun-2020 302.31 1574.82  873.30 856.96 65.90 1.00
   16:05:08.966.29-Jun-2020 302.51 1574.84  873.30 856.96 65.90 1.00
   16:05:09.166.29-Jun-2020 302.71 1574.87  873.30 856.96 65.90 1.00
   16:05:09.366.29-Jun-2020 302.91 1574.77  873.30 856.96 65.90 1.00
   16:05:09.566.29-Jun-2020 303.11 1574.77  873.30 856.96 65.90 1.00
   16:05:09.766.29-Jun-2020 303.31 1574.77  873.30 856.96 65.90 1.00
   16:05:09.967.29-Jun-2020 303.51 1574.83  873.30 856.96 65.90 1.00
   16:05:10.167.29-Jun-2020 303.72 1574.88  873.30 856.96 65.90 1.00
   16:05:10.367.29-Jun-2020 303.92 1574.83  873.30 856.96 65.90 1.00
   16:05:10.567.29-Jun-2020 304.12 1574.91  873.30 856.96 65.90 1.00
   16:05:10.767.29-Jun-2020 304.32 1574.91  873.30 856.96 65.90 1.00
   16:05:10.967.29-Jun-2020 304.52 1574.96  873.30 856.96 65.90 1.00
   16:05:11.167.29-Jun-2020 304.72 1574.98  873.30 856.96 65.90 1.00
   16:05:11.367.29-Jun-2020 304.92 1574.79  873.30 856.96 65.90 1.00
   16:05:11.567.29-Jun-2020 305.12 1574.78  873.30 856.96 65.90 1.00
   16:05:11.767.29-Jun-2020 305.32 1575.05  873.30 856.96 65.90 1.00
   16:05:11.967.29-Jun-2020 305.52 1574.84  873.30 856.96 65.90 1.00
   16:05:12.167.29-Jun-2020 305.72 1574.92  873.30 856.96 65.90 1.00
   16:05:12.367.29-Jun-2020 305.92 1574.88  873.30 856.96 65.90 1.00
   16:05:12.568.29-Jun-2020 306.12 1574.76  873.30 856.96 65.90 1.00
   16:05:12.768.29-Jun-2020 306.32 1574.76  873.30 856.96 65.90 1.00
   16:05:12.968.29-Jun-2020 306.52 1574.76  873.30 856.96 65.90 1.00
   16:05:13.168.29-Jun-2020 306.72 1574.84  873.30 856.96 65.90 1.00
   16:05:13.368.29-Jun-2020 306.92 1574.78  873.30 856.96 65.90 1.00
   16:05:13.568.29-Jun-2020 307.12 1574.93  873.30 856.96 65.90 1.00
   16:05:13.768.29-Jun-2020 307.32 1574.93  873.30 856.96 65.90 1.00
   16:05:13.968.29-Jun-2020 307.52 1574.83  873.30 856.96 65.90 1.00
   16:05:14.168.29-Jun-2020 307.72 1574.81  873.30 856.96 65.90 1.00
   16:05:14.368.29-Jun-2020 307.92 1574.82  873.30 856.96 65.90 1.00
   16:05:14.568.29-Jun-2020 308.12 1574.86  873.30 856.96 65.90 1.00
   16:05:14.768.29-Jun-2020 308.32 1574.86  873.30 856.96 65.90 1.00
   16:05:14.968.29-Jun-2020 308.52 1574.92  873.30 856.96 65.90 1.00
   16:05:15.169.29-Jun-2020 308.72 1574.83  873.30 856.96 65.90 1.00
   16:05:15.369.29-Jun-2020 308.92 1574.94  873.30 856.96 65.90 1.00
   16:05:15.569.29-Jun-2020 309.12 1574.94  873.30 856.96 65.90 1.00
   16:05:15.769.29-Jun-2020 309.32 1574.79  873.30 856.96 65.90 1.00
   16:05:15.969.29-Jun-2020 309.52 1574.92  873.30 856.96 65.90 1.00
   16:05:16.169.29-Jun-2020 309.72 1574.89  873.30 856.96 65.90 1.00
   16:05:16.369.29-Jun-2020 309.92 1574.88  873.30 856.96 65.90 1.00
   16:05:16.569.29-Jun-2020 310.12 1574.89  873.30 856.96 65.90 1.00
   16:05:16.769.29-Jun-2020 310.32 1574.89  873.30 856.96 65.90 1.00
   16:05:16.969.29-Jun-2020 310.52 1574.87  873.30 856.96 65.90 1.00
   16:05:17.169.29-Jun-2020 310.72 1574.94  873.30 856.96 65.90 1.00
   16:05:17.369.29-Jun-2020 310.92 1574.77  873.30 856.96 65.90 1.00
   16:05:17.569.29-Jun-2020 311.12 1574.83  873.30 856.96 65.90 1.00
   16:05:17.769.29-Jun-2020 311.32 1574.83  873.30 856.96 65.90 1.00
   16:05:17.970.29-Jun-2020 311.52 1574.83  873.30 856.96 65.90 1.00
   16:05:18.170.29-Jun-2020 311.72 1574.82  873.30 856.96 65.90 1.00
   16:05:18.370.29-Jun-2020 311.92 1574.63  873.30 856.96 65.91 1.00
   16:05:18.570.29-Jun-2020 312.12 1574.96  873.30 856.96 65.91 1.00
   16:05:18.770.29-Jun-2020 312.32 1574.96  873.30 856.96 65.91 1.00
   16:05:18.970.29-Jun-2020 312.52 1574.86  873.30 856.96 65.91 1.00
   16:05:19.170.29-Jun-2020 312.72 1574.83  873.30 856.96 65.91 1.00
   16:05:19.370.29-Jun-2020 312.92 1574.88  873.30 856.96 65.91 1.00
   16:05:19.570.29-Jun-2020 313.12 1574.84  873.30 856.96 65.91 1.00
   16:05:19.770.29-Jun-2020 313.32 1574.90  873.30 856.96 65.91 1.00
   16:05:19.970.29-Jun-2020 313.52 1574.89  873.30 856.96 65.91 1.00
   16:05:20.170.29-Jun-2020 313.72 1574.88  873.30 856.96 65.91 1.00
   16:05:20.370.29-Jun-2020 313.92 1575.01  873.30 856.96 65.91 1.00
   16:05:20.571.29-Jun-2020 314.12 1574.90  873.30 856.96 65.91 1.00
   16:05:20.771.29-Jun-2020 314.32 1574.90  873.30 856.96 65.91 1.00
   16:05:20.971.29-Jun-2020 314.52 1574.89  873.30 856.96 65.91 1.00
   16:05:21.171.29-Jun-2020 314.72 1574.86  873.30 856.96 65.91 1.00
   16:05:21.371.29-Jun-2020 314.92 1574.86  873.30 856.96 65.91 1.00
   16:05:21.571.29-Jun-2020 315.12 1574.89  873.30 856.96 65.91 1.00
   16:05:21.771.29-Jun-2020 315.32 1574.89  873.30 856.96 65.91 1.00
   16:05:21.971.29-Jun-2020 315.52 1574.87  873.30 856.96 65.91 1.00
   16:05:22.171.29-Jun-2020 315.72 1574.90  873.30 856.96 65.91 1.00
   16:05:22.371.29-Jun-2020 315.92 1574.77  873.30 856.96 65.91 1.00
   16:05:22.571.29-Jun-2020 316.12 1574.81  873.30 856.96 65.91 1.00
   16:05:22.771.29-Jun-2020 316.32 1574.81  873.30 856.96 65.91 1.00
   16:05:22.971.29-Jun-2020 316.52 1574.99  873.30 856.96 65.91 1.00
   16:05:23.172.29-Jun-2020 316.72 1574.77  873.30 856.96 65.91 1.00
   16:05:23.372.29-Jun-2020 316.92 1574.88  873.30 856.96 65.91 1.00
   16:05:23.572.29-Jun-2020 317.12 1574.82  873.30 856.96 65.91 1.00
   16:05:23.772.29-Jun-2020 317.32 1574.82  873.30 856.96 65.91 1.00
   16:05:23.972.29-Jun-2020 317.52 1574.78  873.30 856.96 65.91 1.00
   16:05:24.172.29-Jun-2020 317.72 1574.89  873.30 856.96 65.91 1.00
   16:05:24.372.29-Jun-2020 317.92 1574.88  873.30 856.96 65.91 1.00
   16:05:24.572.29-Jun-2020 318.12 1574.87  873.30 856.96 65.91 1.00
   16:05:24.772.29-Jun-2020 318.32 1574.87  873.30 856.96 65.91 1.00
   16:05:24.972.29-Jun-2020 318.52 1574.87  873.30 856.96 65.91 1.00
   16:05:25.172.29-Jun-2020 318.72 1574.90  873.30 856.96 65.91 1.00
   16:05:25.372.29-Jun-2020 318.92 1574.89  873.30 856.96 65.91 1.00
   16:05:25.572.29-Jun-2020 319.12 1574.87  873.30 856.96 65.91 1.00
   16:05:25.773.29-Jun-2020 319.32 1574.87  873.30 856.96 65.91 1.00
   16:05:25.973.29-Jun-2020 319.52 1574.95  873.30 856.96 65.91 1.00
   16:05:26.173.29-Jun-2020 319.72 1574.90  873.30 856.96 65.91 1.00
   16:05:26.373.29-Jun-2020 319.92 1574.88  873.30 856.96 65.91 1.00
   16:05:26.573.29-Jun-2020 320.12 1574.86  873.30 856.96 65.91 1.00
   16:05:26.773.29-Jun-2020 320.32 1574.86  873.30 856.96 65.91 1.00
   16:05:26.973.29-Jun-2020 320.52 1574.85  873.30 856.96 65.91 1.00
   16:05:27.173.29-Jun-2020 320.72 1574.83  873.30 856.96 65.91 1.00
   16:05:27.373.29-Jun-2020 320.92 1574.85  873.30 856.96 65.91 1.00
   16:05:27.573.29-Jun-2020 321.12 1574.84  873.30 856.96 65.91 1.00
   16:05:27.773.29-Jun-2020 321.32 1574.84  873.30 856.96 65.91 1.00
   16:05:27.973.29-Jun-2020 321.52 1574.81  873.30 856.96 65.91 1.00
   16:05:28.173.29-Jun-2020 321.72 1574.77  873.30 856.96 65.91 1.00
   16:05:28.374.29-Jun-2020 321.92 1574.80  873.30 856.96 65.91 1.00
   16:05:28.574.29-Jun-2020 322.12 1574.84  873.30 856.96 65.91 1.00
   16:05:28.774.29-Jun-2020 322.32 1574.84  873.30 856.96 65.91 1.00
   16:05:28.974.29-Jun-2020 322.52 1574.88  873.30 856.96 65.91 1.00
   16:05:29.174.29-Jun-2020 322.72 1574.90  873.30 856.96 65.91 1.00
   16:05:29.374.29-Jun-2020 322.92 1574.85  873.30 856.96 65.91 1.00
   16:05:29.574.29-Jun-2020 323.12 1574.98  873.30 856.96 65.91 1.00
   16:05:29.774.29-Jun-2020 323.32 1574.98  873.30 856.96 65.91 1.00
   16:05:29.974.29-Jun-2020 323.52 1574.81  873.30 856.96 65.91 1.00
   16:05:30.174.29-Jun-2020 323.72 1574.81  873.30 856.96 65.91 1.00
   16:05:30.374.29-Jun-2020 323.92 1575.05  873.30 856.96 65.91 1.00
   16:05:30.574.29-Jun-2020 324.12 1574.84  873.30 856.96 65.91 1.00
   16:05:30.774.29-Jun-2020 324.32 1574.84  873.30 856.96 65.91 1.00
   16:05:30.974.29-Jun-2020 324.52 1574.88  873.30 856.96 65.91 1.00
   16:05:31.175.29-Jun-2020 324.72 1574.77  873.30 856.96 65.91 1.00
