~Version Information
 VERS.                  2.0:   CWLS log ASCII Standard -VERSION 2.0
 WRAP.                   NO:   One line per depth step
~Well Information Block
#MNEM.UNIT     VALUE/NAME     DESCRIPTION
#---------     -----------    ---------------------------
 STRT.S             20:59:46 30-Jun-20: START TIME 20:59:46 30-Jun-20
 STOP.S             21:08:48 30-Jun-20: STOP TIME  21:08:48 30-Jun-20
 STEP.S                   0.00: STEP TIME
 NULL.                 -999.25: NULL VALUE
 DFWT.                        :  DIST FWL TEXT
 DFST.                        :  DIST FSL TEXT
 DMF .             Drill Floor:  DRILL MEAS FROM
 STIM.      09.59.28 01-Jun-20:  START TIME
 DATE.      09.59.28 01-Jun-20:  END TIME
 SPUD.               01-Jun-20:  SPUD DATE
 NREF.                    Grid:  NORTH REFERENCE
 HPTY.       Minimum Curvature:  HOLE POS TYPE
 DMOD.             Drill Model:  DRILL MOD DESC
 SVYD.                  Survey:  SURVEY DESC
 ILTD.               Lithology:  INTERP LTH DESC
 FTOP.          Formation Tops:  FORM TOPS DESC
 SON .        AZ-XX-0905455768:  JOB NUMBER
 WTYP.                Deviated:  WELL TYPE
 COMP.     BP Exploration(Caspian Sea):  COMPANY
 BASE.              Azerbaijan:  LOGGING EQUIPMENT BASE LOCATION
 REGN.                   EESSA:  REGION
 CTRY.              Azerbaijan:  COUNTRY NAME
 FLD .                     ACG:  FIELD NAME
 SRVC.          Turan Drilling:  CONTRACTOR
 WELL.                     B41:  WELL NAME
 RIG .           Central Azeri:  RIG NAME
 DCON.         Sperry Drilling:  DIRECTNL CONTR
 PDAT.          Mean Sea Level:  PERMANENT DATUM
 MDS .        Operator Entered:  MAG DATA SOURCE
 API .                        :  API NUMBER
 CNTY.                        :  COUNTY
 PROV.                        :  PROVINCE
 STAT.                        :  STATE
 UWI .                        :  UNIQUE WELL IDENTIFIER
 LOC .                        :  LOCATION
 LMF .             Drill Floor:  LOG MEASURED FROM
 TVDS.m                  43.29:  TVDSS CORRECTN
 LATI.deg                40.03:  LATITUDE
 LONG.deg                51.35:  LONGITUDE
 WHNS.m                  12.98:  WELL HEAD N/S
 WHEW.m                  -6.62:  WELL HEAD E/W
 UTMX.m              530128.28:  UTM X
 UTMY.m             4433192.49:  UTM Y
 DFWL.m                   0.00:  DISTANCE FWL
 DFSL.m                   0.00:  DISTANCE FSL
 SDEP.m                 378.00:  START DEPTH
 TDD .m                   0.00:  TOTAL DEPTH (DRILLER)
 VSDR.deg               296.18:  VERT SEC DIRECT
 GVFD.g                   1.00:  GRAVITY FIELD
 MFLD.nT              50253.00:  MAGNETIC FIELD
 MDIP.deg                59.49:  MAGNETIC DIP
 MDEC.deg                 6.44:  MAGNETIC DECL
 GRDC.deg                 0.22:  GRID CORRECTION
 AZTC.deg                 6.22:  AZM TOTAL CORR
 EPD .m                   0.00:  ELEVATION
 EGL .m                   0.00:  GROUND ELEVATION
 WDMS.m                 128.20:  WD ELEV
 APD .m                  43.29:  DEPTH ABOVE PD
 AGAP.m                  43.29:  AIR GAP
 VSEW.m                  -6.62:  VERT SEC E/W
 VSNS.m                  12.98:  VERT SEC N/S
 EKB .m                  43.29:  KB ELEVATION
 EDF .m                  43.29:  DF ELEVATION
 TDL .m                1152.00:  TOTAL DEPTH (LOGGER)
 VSC .                       0:  VS TO CLOSURE
 MAGU.                 1848525:  MAGUTM CHECKSUM
~Parameter Information Block
#MNEM.UNIT       Value        Description
#---------     -----------    ---------------------------
 AV  .mps                 0.40:  Ann Velocity 
 AVMX.mps                 1.56:  Max Ann Veloc 
 AZIF.deg               300.46:  Azm, Final 
 BHAT.        Rotary Steerable:  BHA Type 
 BROT.°/30m               0.40:  Build Rotating 
 BS  .in                 17.50:  Bit Size 
 BSZ .in                 17.50:  Bit Size 
 BTPL.psig              300.00:  Bit Press Loss 
 CABU.                      No:  Customer Abuse 
 CGEO.          Parviz Guliyev:  Customer Geo 
 COMM.                     ÜRt:  Run Comments 1 
 TCS .hr                108.13:  Time Ciculation Ended 
 CV  .mps                 0.50:  Crit Velocity 
 CVMX.mps                 2.01:  Max Crit Veloc 
 DD1 .          Fariz Nahmatov:  Direct Drillr 1 
 DD2 .             Ehab Radwan:  Direct Drillr 2 
 DDSV.               Geo-Pilot:  DD Service 
 DEFF.%                  99.00:  % Det Eff 
 DLRX.°/30m               0.50:  Dogleg Rot Max 
 DLSO.°/30m               2.80:  Dogleg Oriented 
 DLSX.°/30m               3.90:  Dogleg Str Max 
 DRET.      09.30.04 03-Jul-20:  Drill End Time 
 DRST.      18.33.04 28-Jun-20:  Drill Start Tim 
 DTIM.hr                 55.83:  Time Drilling 
 EDEP.m                1952.00:  End Depth 
 ENG1.      Bakhtiyar Jabbarli:  Engineer 1 
 ENG2.         Farhad Orujzade:  Engineer 2 
 ENG3.          Rustam Safarov:  Engineer 3 
 ETIM.      01.33.04 04-Jul-20:  End Time 
 FLOI.gpm              1050.00:  Flow In 
 FLON.gpm               950.00:  Flow In Min 
 FLOS.cptm                0.10:  Fluid Loss 
 FLOX.gpm              1150.00:  Flow In Max 
 HFLO.                      No:  High Flow 
 HPRE.                      No:  High Pressure 
 HTEM.                      No:  High Temp 
 HYDO.m                   1.80:  Hydro Offset 
 IFIN.deg                75.26:  Inc, Final 
 IMAX.deg                75.38:  Inc Max 
 IMIN.deg                22.84:  Inc Min 
 IMND.m                 832.38:  Inc Min Depth 
 IMXD.m                1936.55:  Inc Max Depth 
 JARR.                      No:  Jarring 
 LETM.      17.40.00 04-Jul-20:  Log End Time 
 LOST.hr                     0:  Lost Rig Time 
 LSTM.      12.33.04 28-Jun-20:  Log Start Time 
 MDCL.ppm             49500.00:  Mud Chlorides 
 MDES.     Inversion Oil/Synthetic:  Mud Desc 
 DFD .sg                  1.46:  Mud Density 
 MDMN.sg                  1.46:  Dens Mud Min 
 MDMX.sg                  1.46:  Dens Mud Max 
 MOIL.                      70:  Run Mud Oil % 
 MOWR.                   70:30:  Run Mud OWR 
 MSND.                     0.5:  Run Mud Sand % 
 MSOL.                   19.89:  Run Mud Solids% 
 DFV .spqt               72.00:  Mud Viscosity 
 MWOD.in                  9.50:  MWD Tool OD 
 MWSI.                      No:  Serv Intrp, MWD 
 OTIM.hr                146.53:  Time Operating 
 PCON.           Look Like New:  Pad Condition 
 PMAX.psia             2900.00:  Press Op, Max 
 PV  .cP                 38.00:  Mud PV 
 RUN .                     600:  Run Number 
 ROPA.m/hr               22.00:  ROP Avg 
 ROPN.m/hr               10.00:  ROP Min 
 ROPX.m/hr              263.00:  ROP Max 
 RPMA.rpm               155.00:  RPM Surface Avg 
 RPMN.rpm               140.00:  RPM Surface Min 
 RPMX.rpm               160.00:  RPM Surface Max 
 RRUN.                    0600:  Rig Run Number 
 RTIM.hr                  5.00:  Time Reaming 
 SAZI.deg               300.08:  Azm, Start 
 SDEP.m                 800.00:  Start Depth 
 SIDD.                      No:  Serv Intrp, DD 
 SINC.deg                22.84:  Inc, Start 
 SPPA.psig             3000.00:  SPP Avg 
 SPPN.psig             1900.00:  SPP Min 
 SPPX.psig             3200.00:  SPP Max 
 STIM.      12.30.04 28-Jun-20:  Start Time 
 SVCS.                 DD, MWD:  Services 
 SVER.                    9.20:  Sperry Version 
 TDAT.m                1952.00:  Tot Depth Attmp 
 TDDF.                      No:  Trip for DD 
 TDLG.m                1152.00:  Tot Depth Loggd 
 TFF .                      No:  Trip for Fail 
 TQAA.f-kp                8.00:  Torque Abs Avg 
 TQAN.f-kp                5.00:  Torque Abs Min 
 TQAX.f-kp               14.00:  Torque Abs Max 
 TRRT.°/30m               0.50:  Turn Rotating 
 MRT .                  EWR-M5:  Maximum Recorded Temperature 
 TTMX.degC               69.00:  Max Tool Temp 
 VS01.                90610313:  Virtual Str1 SN 
 VS02.                90613431:  Virtual Str2 SN 
 VS03.                90615410:  Virtual Str3 SN 
 WBMN.klb                 6.00:  WOB Min 
 WITN.            Bruce Cheyne:  Customer Rep 
 WITN.             Ayaz Aliyev:  Customer Rep 2 
 WOBA.klb                 6.00:  WOB Avg 
 WOBX.klb                10.00:  WOB Max 
 YP  .lhf2               36.00:  Yield Point 
~Curve Information Block
#MNEM.UNIT                 API CODE     Curve Description
#---------               -----------    ---------------------------
 TIME.HHMMSS            00 000 000 000:  GT Time & Date
 GTET.sec               00 000 000 000:  GT Elapsed Test Time
 GTPQH.psia             00 000 000 000:  GT HR Quartz Pressure
 GTDEPTH.m              00 000 000 000:  GT Depth
 GTTVD.m                00 000 000 000:  GT True Vertical Depth
 GTTQ.degC              00 000 000 000:  GT Quartz Temperature
 GTTN.NONE              00 000 000 000:  GT Test Number
#Other Information
#
#WARRANTY: Halliburton will use its best efforts to furnish customers with 
#accurate information and interpretations that are part of, and incident to, the services 
#provided.  However, Halliburton cannot and does not warrant the accuracy 
#or correctness of such information and interpretations.  Under no circumstances should any 
#such information or interpretation be relied upon as the sole basis for any drilling, 
#completion, production, or financial decision or any procedure involving any risk to the 
#safety of any drilling venture, drilling rig or its crew or any other third party.  The 
#Customer has full responsibility for all drilling, completion and production operation.  
#Halliburton makes no representations or warranties, either expressed or 
#implied, including, but not limited to, the implied warranties of merchantability or fitness 
#for a particular purpose, with respect to the services rendered.  In no event will 
#Halliburton be liable for failure to obtain any particular results or for 
#any damages, including, but not limited to, indirect, special or consequential damages, 
#resulting from the use of any information or interpretation provided by Halliburton.
#
~A           TIME            GTET   GTPQH  GTDEPTH  GTTVD  GTTQ  GTTN 
# ...
   21:02:50.798.30-Jun-2020 184.03 2105.32 1143.02 1083.79 62.65 3.00
   21:02:50.998.30-Jun-2020 184.23 2105.32 1143.02 1083.79 62.65 3.00
   21:02:51.198.30-Jun-2020 184.43 2105.36 1143.02 1083.79 62.65 3.00
   21:02:51.398.30-Jun-2020 184.63 2105.37 1143.02 1083.79 62.65 3.00
   21:02:51.598.30-Jun-2020 184.83 2105.29 1143.02 1083.79 62.65 3.00
   21:02:51.798.30-Jun-2020 185.03 2105.38 1143.02 1083.79 62.64 3.00
   21:02:51.998.30-Jun-2020 185.23 2105.39 1143.02 1083.79 62.64 3.00
   21:02:52.198.30-Jun-2020 185.43 2105.38 1143.02 1083.79 62.64 3.00
   21:02:52.398.30-Jun-2020 185.63 2105.38 1143.02 1083.79 62.64 3.00
   21:02:52.598.30-Jun-2020 185.83 2105.35 1143.02 1083.79 62.64 3.00
   21:02:52.798.30-Jun-2020 186.03 2105.26 1143.02 1083.79 62.64 3.00
   21:02:52.998.30-Jun-2020 186.23 2105.26 1143.02 1083.79 62.64 3.00
   21:02:53.198.30-Jun-2020 186.43 2105.38 1143.02 1083.79 62.64 3.00
   21:02:53.398.30-Jun-2020 186.63 2105.37 1143.02 1083.79 62.64 3.00
   21:02:53.598.30-Jun-2020 186.83 2105.36 1143.02 1083.79 62.64 3.00
   21:02:53.798.30-Jun-2020 187.03 2105.35 1143.02 1083.79 62.64 3.00
   21:02:53.998.30-Jun-2020 187.23 2105.35 1143.02 1083.79 62.64 3.00
   21:02:54.198.30-Jun-2020 187.43 2105.33 1143.02 1083.79 62.64 3.00
   21:02:54.398.30-Jun-2020 187.63 2105.33 1143.02 1083.79 62.64 3.00
   21:02:54.598.30-Jun-2020 187.83 2105.32 1143.02 1083.79 62.64 3.00
   21:02:54.798.30-Jun-2020 188.03 2105.32 1143.02 1083.79 62.64 3.00
   21:02:54.998.30-Jun-2020 188.23 2105.31 1143.02 1083.79 62.64 3.00
   21:02:55.198.30-Jun-2020 188.43 2105.29 1143.02 1083.79 62.64 3.00
   21:02:55.399.30-Jun-2020 188.63 2105.32 1143.02 1083.79 62.64 3.00
   21:02:55.599.30-Jun-2020 188.83 2105.31 1143.02 1083.79 62.64 3.00
   21:02:55.799.30-Jun-2020 189.03 2105.30 1143.02 1083.79 62.64 3.00
   21:02:55.999.30-Jun-2020 189.23 2105.30 1143.02 1083.79 62.64 3.00
   21:02:56.199.30-Jun-2020 189.43 2105.29 1143.02 1083.79 62.64 3.00
   21:02:56.399.30-Jun-2020 189.63 2105.25 1143.02 1083.79 62.64 3.00
   21:02:56.599.30-Jun-2020 189.83 2105.24 1143.02 1083.79 62.64 3.00
   21:02:56.799.30-Jun-2020 190.03 2105.30 1143.02 1083.79 62.64 3.00
   21:02:56.999.30-Jun-2020 190.23 2105.30 1143.02 1083.79 62.64 3.00
   21:02:57.199.30-Jun-2020 190.43 2105.29 1143.02 1083.79 62.64 3.00
   21:02:57.399.30-Jun-2020 190.63 2105.31 1143.02 1083.79 62.64 3.00
   21:02:57.599.30-Jun-2020 190.83 2105.31 1143.02 1083.79 62.64 3.00
   21:02:57.799.30-Jun-2020 191.03 2105.30 1143.02 1083.79 62.64 3.00
   21:02:57.999.30-Jun-2020 191.23 2105.30 1143.02 1083.79 62.64 3.00
   21:02:58.199.30-Jun-2020 191.43 2105.31 1143.02 1083.79 62.63 3.00
   21:02:58.399.30-Jun-2020 191.63 2105.29 1143.02 1083.79 62.63 3.00
   21:02:58.599.30-Jun-2020 191.83 2105.29 1143.02 1083.79 62.63 3.00
   21:02:58.799.30-Jun-2020 192.03 2105.26 1143.02 1083.79 62.63 3.00
   21:02:58.999.30-Jun-2020 192.23 2105.25 1143.02 1083.79 62.63 3.00
   21:02:59.199.30-Jun-2020 192.43 2105.33 1143.02 1083.79 62.63 3.00
   21:02:59.399.30-Jun-2020 192.63 2105.35 1143.02 1083.79 62.63 3.00
   21:02:59.599.30-Jun-2020 192.83 2105.32 1143.02 1083.79 62.63 3.00
   21:02:59.799.30-Jun-2020 193.03 2105.32 1143.02 1083.79 62.63 3.00
   21:02:59.999.30-Jun-2020 193.23 2105.24 1143.02 1083.79 62.63 3.00
   21:03:00.199.30-Jun-2020 193.43 2105.33 1143.02 1083.79 62.63 3.00
   21:03:00.399.30-Jun-2020 193.63 2105.33 1143.02 1083.79 62.63 3.00
   21:03:00.599.30-Jun-2020 193.83 2105.34 1143.02 1083.79 62.63 3.00
   21:03:00.799.30-Jun-2020 194.03 2105.34 1143.02 1083.79 62.63 3.00
   21:03:01.000.30-Jun-2020 194.23 2105.34 1143.02 1083.79 62.63 3.00
   21:03:01.200.30-Jun-2020 194.43 2105.35 1143.02 1083.79 62.63 3.00
   21:03:01.400.30-Jun-2020 194.63 2105.37 1143.02 1083.79 62.63 3.00
   21:03:01.600.30-Jun-2020 194.83 2105.36 1143.02 1083.79 62.63 3.00
   21:03:01.800.30-Jun-2020 195.03 2105.35 1143.02 1083.79 62.63 3.00
   21:03:02.000.30-Jun-2020 195.23 2105.35 1143.02 1083.79 62.63 3.00
   21:03:02.200.30-Jun-2020 195.43 2105.26 1143.02 1083.79 62.63 3.00
   21:03:02.400.30-Jun-2020 195.63 2105.29 1143.02 1083.79 62.63 3.00
   21:03:02.600.30-Jun-2020 195.83 2105.36 1143.02 1083.79 62.63 3.00
   21:03:02.800.30-Jun-2020 196.04 2105.35 1143.02 1083.79 62.63 3.00
   21:03:03.000.30-Jun-2020 196.24 2105.35 1143.02 1083.79 62.63 3.00
   21:03:03.200.30-Jun-2020 196.44 2105.34 1143.02 1083.79 62.63 3.00
   21:03:03.400.30-Jun-2020 196.64 2105.33 1143.02 1083.79 62.63 3.00
   21:03:03.600.30-Jun-2020 196.84 2105.32 1143.02 1083.79 62.63 3.00
   21:03:03.800.30-Jun-2020 197.04 2105.30 1143.02 1083.79 62.63 3.00
   21:03:04.000.30-Jun-2020 197.24 2105.30 1143.02 1083.79 62.63 3.00
   21:03:04.200.30-Jun-2020 197.44 2105.30 1143.02 1083.79 62.63 3.00
   21:03:04.400.30-Jun-2020 197.64 2105.29 1143.02 1083.79 62.63 3.00
   21:03:04.600.30-Jun-2020 197.84 2105.28 1143.02 1083.79 62.62 3.00
   21:03:04.800.30-Jun-2020 198.04 2105.30 1143.02 1083.79 62.62 3.00
   21:03:05.000.30-Jun-2020 198.24 2105.30 1143.02 1083.79 62.62 3.00
   21:03:05.200.30-Jun-2020 198.44 2105.30 1143.02 1083.79 62.62 3.00
   21:03:05.400.30-Jun-2020 198.64 2105.30 1143.02 1083.79 62.62 3.00
   21:03:05.600.30-Jun-2020 198.84 2105.29 1143.02 1083.79 62.62 3.00
   21:03:05.800.30-Jun-2020 199.04 2105.27 1143.02 1083.79 62.62 3.00
   21:03:06.000.30-Jun-2020 199.24 2105.27 1143.02 1083.79 62.62 3.00
   21:03:06.200.30-Jun-2020 199.44 2105.29 1143.02 1083.79 62.62 3.00
   21:03:06.400.30-Jun-2020 199.64 2105.33 1143.02 1083.79 62.62 3.00
   21:03:06.601.30-Jun-2020 199.84 2105.32 1143.02 1083.79 62.62 3.00
   21:03:06.801.30-Jun-2020 200.04 2105.32 1143.02 1083.79 62.62 3.00
   21:03:07.001.30-Jun-2020 200.24 2105.32 1143.02 1083.79 62.62 3.00
   21:03:07.201.30-Jun-2020 200.44 2105.30 1143.02 1083.79 62.62 3.00
   21:03:07.401.30-Jun-2020 200.64 2105.29 1143.02 1083.79 62.62 3.00
   21:03:07.601.30-Jun-2020 200.84 2105.30 1143.02 1083.79 62.62 3.00
   21:03:07.801.30-Jun-2020 201.04 2105.29 1143.02 1083.79 62.62 3.00
   21:03:08.001.30-Jun-2020 201.24 2105.29 1143.02 1083.79 62.62 3.00
   21:03:08.201.30-Jun-2020 201.44 2105.27 1143.02 1083.79 62.62 3.00
   21:03:08.401.30-Jun-2020 201.64 2105.22 1143.02 1083.79 62.62 3.00
   21:03:08.601.30-Jun-2020 201.84 2105.31 1143.02 1083.79 62.62 3.00
   21:03:08.801.30-Jun-2020 202.04 2105.33 1143.02 1083.79 62.62 3.00
   21:03:09.001.30-Jun-2020 202.24 2105.33 1143.02 1083.79 62.62 3.00
   21:03:09.201.30-Jun-2020 202.44 2105.31 1143.02 1083.79 62.62 3.00
   21:03:09.401.30-Jun-2020 202.64 2105.22 1143.02 1083.79 62.62 3.00
   21:03:09.601.30-Jun-2020 202.84 2105.29 1143.02 1083.79 62.62 3.00
   21:03:09.801.30-Jun-2020 203.04 2105.31 1143.02 1083.79 62.62 3.00
   21:03:10.001.30-Jun-2020 203.24 2105.31 1143.02 1083.79 62.62 3.00
   21:03:10.201.30-Jun-2020 203.44 2105.30 1143.02 1083.79 62.62 3.00
   21:03:10.401.30-Jun-2020 203.64 2105.28 1143.02 1083.79 62.62 3.00
   21:03:10.601.30-Jun-2020 203.84 2105.28 1143.02 1083.79 62.62 3.00
   21:03:10.801.30-Jun-2020 204.04 2105.33 1143.02 1083.79 62.61 3.00
   21:03:11.001.30-Jun-2020 204.24 2105.33 1143.02 1083.79 62.61 3.00
   21:03:11.201.30-Jun-2020 204.44 2105.32 1143.02 1083.79 62.61 3.00
   21:03:11.401.30-Jun-2020 204.64 2105.34 1143.02 1083.79 62.61 3.00
   21:03:11.601.30-Jun-2020 204.84 2105.30 1143.02 1083.79 62.61 3.00
   21:03:11.801.30-Jun-2020 205.04 2105.24 1143.02 1083.79 62.61 3.00
   21:03:12.001.30-Jun-2020 205.24 2105.34 1143.02 1083.79 62.61 3.00
   21:03:12.202.30-Jun-2020 205.44 2105.34 1143.02 1083.79 62.61 3.00
   21:03:12.402.30-Jun-2020 205.64 2105.31 1143.02 1083.79 62.61 3.00
   21:03:12.602.30-Jun-2020 205.84 2105.32 1143.02 1083.79 62.61 3.00
   21:03:12.802.30-Jun-2020 206.04 2105.31 1143.02 1083.79 62.61 3.00
   21:03:13.002.30-Jun-2020 206.24 2105.31 1143.02 1083.79 62.61 3.00
   21:03:13.202.30-Jun-2020 206.44 2105.28 1143.02 1083.79 62.61 3.00
   21:03:13.402.30-Jun-2020 206.64 2105.30 1143.02 1083.79 62.61 3.00
   21:03:13.602.30-Jun-2020 206.84 2105.29 1143.02 1083.79 62.61 3.00
