~Version Information
 VERS.                  2.0:   CWLS log ASCII Standard -VERSION 2.0
 WRAP.                   NO:   One line per depth step
~Well Information Block
#MNEM.UNIT     VALUE/NAME     DESCRIPTION
#---------     -----------    ---------------------------
 STRT.S             16:00:06 29-Jun-20: START TIME 16:00:06 29-Jun-20
 STOP.S             16:09:07 29-Jun-20: STOP TIME  16:09:07 29-Jun-20
 STEP.S                   0.00: STEP TIME
 NULL.                 -999.25: NULL VALUE
 DFWT.                        :  DIST FWL TEXT
 DFST.                        :  DIST FSL TEXT
 DMF .             Drill Floor:  DRILL MEAS FROM
 STIM.      09.59.28 01-Jun-20:  START TIME
 DATE.      09.59.28 01-Jun-20:  END TIME
 SPUD.               01-Jun-20:  SPUD DATE
 NREF.                    Grid:  NORTH REFERENCE
 HPTY.       Minimum Curvature:  HOLE POS TYPE
 DMOD.             Drill Model:  DRILL MOD DESC
 SVYD.                  Survey:  SURVEY DESC
 ILTD.               Lithology:  INTERP LTH DESC
 FTOP.          Formation Tops:  FORM TOPS DESC
 SON .        AZ-XX-0905455768:  JOB NUMBER
 WTYP.                Deviated:  WELL TYPE
 COMP.     BP Exploration(Caspian Sea):  COMPANY
 BASE.              Azerbaijan:  LOGGING EQUIPMENT BASE LOCATION
 REGN.                   EESSA:  REGION
 CTRY.              Azerbaijan:  COUNTRY NAME
 FLD .                     ACG:  FIELD NAME
 SRVC.          Turan Drilling:  CONTRACTOR
 WELL.                     B41:  WELL NAME
 RIG .           Central Azeri:  RIG NAME
 DCON.         Sperry Drilling:  DIRECTNL CONTR
 PDAT.          Mean Sea Level:  PERMANENT DATUM
 MDS .        Operator Entered:  MAG DATA SOURCE
 API .                        :  API NUMBER
 CNTY.                        :  COUNTY
 PROV.                        :  PROVINCE
 STAT.                        :  STATE
 UWI .                        :  UNIQUE WELL IDENTIFIER
 LOC .                        :  LOCATION
 LMF .             Drill Floor:  LOG MEASURED FROM
 TVDS.m                  43.29:  TVDSS CORRECTN
 LATI.deg                40.03:  LATITUDE
 LONG.deg                51.35:  LONGITUDE
 WHNS.m                  12.98:  WELL HEAD N/S
 WHEW.m                  -6.62:  WELL HEAD E/W
 UTMX.m              530128.28:  UTM X
 UTMY.m             4433192.49:  UTM Y
 DFWL.m                   0.00:  DISTANCE FWL
 DFSL.m                   0.00:  DISTANCE FSL
 SDEP.m                 378.00:  START DEPTH
 TDD .m                   0.00:  TOTAL DEPTH (DRILLER)
 VSDR.deg               296.18:  VERT SEC DIRECT
 GVFD.g                   1.00:  GRAVITY FIELD
 MFLD.nT              50253.00:  MAGNETIC FIELD
 MDIP.deg                59.49:  MAGNETIC DIP
 MDEC.deg                 6.44:  MAGNETIC DECL
 GRDC.deg                 0.22:  GRID CORRECTION
 AZTC.deg                 6.22:  AZM TOTAL CORR
 EPD .m                   0.00:  ELEVATION
 EGL .m                   0.00:  GROUND ELEVATION
 WDMS.m                 128.20:  WD ELEV
 APD .m                  43.29:  DEPTH ABOVE PD
 AGAP.m                  43.29:  AIR GAP
 VSEW.m                  -6.62:  VERT SEC E/W
 VSNS.m                  12.98:  VERT SEC N/S
 EKB .m                  43.29:  KB ELEVATION
 EDF .m                  43.29:  DF ELEVATION
 TDL .m                1152.00:  TOTAL DEPTH (LOGGER)
 VSC .                       0:  VS TO CLOSURE
 MAGU.                 1848525:  MAGUTM CHECKSUM
~Parameter Information Block
#MNEM.UNIT       Value        Description
#---------     -----------    ---------------------------
 AV  .mps                 0.40:  Ann Velocity 
 AVMX.mps                 1.56:  Max Ann Veloc 
 AZIF.deg               300.46:  Azm, Final 
 BHAT.        Rotary Steerable:  BHA Type 
 BROT.∞/30m               0.40:  Build Rotating 
 BS  .in                 17.50:  Bit Size 
 BSZ .in                 17.50:  Bit Size 
 BTPL.psig              300.00:  Bit Press Loss 
 CABU.                      No:  Customer Abuse 
 CGEO.          Parviz Guliyev:  Customer Geo 
 COMM.                     ,‘Å:  Run Comments 1 
 TCS .hr                108.13:  Time Ciculation Ended 
 CV  .mps                 0.50:  Crit Velocity 
 CVMX.mps                 2.01:  Max Crit Veloc 
 DD1 .          Fariz Nahmatov:  Direct Drillr 1 
 DD2 .             Ehab Radwan:  Direct Drillr 2 
 DDSV.               Geo-Pilot:  DD Service 
 DEFF.%                  99.00:  % Det Eff 
 DLRX.∞/30m               0.50:  Dogleg Rot Max 
 DLSO.∞/30m               2.80:  Dogleg Oriented 
 DLSX.∞/30m               3.90:  Dogleg Str Max 
 DRET.      09.30.04 03-Jul-20:  Drill End Time 
 DRST.      18.33.04 28-Jun-20:  Drill Start Tim 
 DTIM.hr                 55.83:  Time Drilling 
 EDEP.m                1952.00:  End Depth 
 ENG1.      Bakhtiyar Jabbarli:  Engineer 1 
 ENG2.         Farhad Orujzade:  Engineer 2 
 ENG3.          Rustam Safarov:  Engineer 3 
 ETIM.      01.33.04 04-Jul-20:  End Time 
 FLOI.gpm              1050.00:  Flow In 
 FLON.gpm               950.00:  Flow In Min 
 FLOS.cptm                0.10:  Fluid Loss 
 FLOX.gpm              1150.00:  Flow In Max 
 HFLO.                      No:  High Flow 
 HPRE.                      No:  High Pressure 
 HTEM.                      No:  High Temp 
 HYDO.m                   1.80:  Hydro Offset 
 IFIN.deg                75.26:  Inc, Final 
 IMAX.deg                75.38:  Inc Max 
 IMIN.deg                22.84:  Inc Min 
 IMND.m                 832.38:  Inc Min Depth 
 IMXD.m                1936.55:  Inc Max Depth 
 JARR.                      No:  Jarring 
 LETM.      17.40.00 04-Jul-20:  Log End Time 
 LOST.hr                     0:  Lost Rig Time 
 LSTM.      12.33.04 28-Jun-20:  Log Start Time 
 MDCL.ppm             49500.00:  Mud Chlorides 
 MDES.     Inversion Oil/Synthetic:  Mud Desc 
 DFD .sg                  1.46:  Mud Density 
 MDMN.sg                  1.46:  Dens Mud Min 
 MDMX.sg                  1.46:  Dens Mud Max 
 MOIL.                      70:  Run Mud Oil % 
 MOWR.                   70:30:  Run Mud OWR 
 MSND.                     0.5:  Run Mud Sand % 
 MSOL.                   19.89:  Run Mud Solids% 
 DFV .spqt               72.00:  Mud Viscosity 
 MWOD.in                  9.50:  MWD Tool OD 
 MWSI.                      No:  Serv Intrp, MWD 
 OTIM.hr                146.53:  Time Operating 
 PCON.           Look Like New:  Pad Condition 
 PMAX.psia             2900.00:  Press Op, Max 
 PV  .cP                 38.00:  Mud PV 
 RUN .                     600:  Run Number 
 ROPA.m/hr               22.00:  ROP Avg 
 ROPN.m/hr               10.00:  ROP Min 
 ROPX.m/hr              263.00:  ROP Max 
 RPMA.rpm               155.00:  RPM Surface Avg 
 RPMN.rpm               140.00:  RPM Surface Min 
 RPMX.rpm               160.00:  RPM Surface Max 
 RRUN.                    0600:  Rig Run Number 
 RTIM.hr                  5.00:  Time Reaming 
 SAZI.deg               300.08:  Azm, Start 
 SDEP.m                 800.00:  Start Depth 
 SIDD.                      No:  Serv Intrp, DD 
 SINC.deg                22.84:  Inc, Start 
 SPPA.psig             3000.00:  SPP Avg 
 SPPN.psig             1900.00:  SPP Min 
 SPPX.psig             3200.00:  SPP Max 
 STIM.      12.30.04 28-Jun-20:  Start Time 
 SVCS.                 DD, MWD:  Services 
 SVER.                    9.20:  Sperry Version 
 TDAT.m                1952.00:  Tot Depth Attmp 
 TDDF.                      No:  Trip for DD 
 TDLG.m                1152.00:  Tot Depth Loggd 
 TFF .                      No:  Trip for Fail 
 TQAA.f-kp                8.00:  Torque Abs Avg 
 TQAN.f-kp                5.00:  Torque Abs Min 
 TQAX.f-kp               14.00:  Torque Abs Max 
 TRRT.∞/30m               0.50:  Turn Rotating 
 MRT .                  EWR-M5:  Maximum Recorded Temperature 
 TTMX.degC               69.00:  Max Tool Temp 
 VS01.                90610313:  Virtual Str1 SN 
 VS02.                90613431:  Virtual Str2 SN 
 VS03.                90615410:  Virtual Str3 SN 
 WBMN.klb                 6.00:  WOB Min 
 WITN.            Bruce Cheyne:  Customer Rep 
 WITN.             Ayaz Aliyev:  Customer Rep 2 
 WOBA.klb                 6.00:  WOB Avg 
 WOBX.klb                10.00:  WOB Max 
 YP  .lhf2               36.00:  Yield Point 
~Curve Information Block
#MNEM.UNIT                 API CODE     Curve Description
#---------               -----------    ---------------------------
 TIME.HHMMSS            00 000 000 000:  GT Time & Date
 GTET.sec               00 000 000 000:  GT Elapsed Test Time
 GTPQH.psia             00 000 000 000:  GT HR Quartz Pressure
 GTDEPTH.m              00 000 000 000:  GT Depth
 GTTVD.m                00 000 000 000:  GT True Vertical Depth
 GTTQ.degC              00 000 000 000:  GT Quartz Temperature
 GTTN.NONE              00 000 000 000:  GT Test Number
#Other Information
#
#WARRANTY: Halliburton will use its best efforts to furnish customers with 
#accurate information and interpretations that are part of, and incident to, the services 
#provided.  However, Halliburton cannot and does not warrant the accuracy 
#or correctness of such information and interpretations.  Under no circumstances should any 
#such information or interpretation be relied upon as the sole basis for any drilling, 
#completion, production, or financial decision or any procedure involving any risk to the 
#safety of any drilling venture, drilling rig or its crew or any other third party.  The 
#Customer has full responsibility for all drilling, completion and production operation.  
#Halliburton makes no representations or warranties, either expressed or 
#implied, including, but not limited to, the implied warranties of merchantability or fitness 
#for a particular purpose, with respect to the services rendered.  In no event will 
#Halliburton be liable for failure to obtain any particular results or for 
#any damages, including, but not limited to, indirect, special or consequential damages, 
#resulting from the use of any information or interpretation provided by Halliburton.
#
~A           TIME            GTET   GTPQH  GTDEPTH GTTVD  GTTQ  GTTN 
# ...
   16:01:16.078.29-Jun-2020  69.63 1797.23  873.30 856.96 65.76 1.00
   16:01:16.278.29-Jun-2020  69.83 1799.46  873.30 856.96 65.76 1.00
   16:01:16.478.29-Jun-2020  70.03 1799.23  873.30 856.96 65.76 1.00
   16:01:16.678.29-Jun-2020  70.23 1799.23  873.30 856.96 65.76 1.00
   16:01:16.878.29-Jun-2020  70.43 1797.34  873.30 856.96 65.76 1.00
   16:01:17.078.29-Jun-2020  70.63 1799.23  873.30 856.96 65.76 1.00
   16:01:17.278.29-Jun-2020  70.83 1797.92  873.30 856.96 65.76 1.00
   16:01:17.478.29-Jun-2020  71.03 1799.21  873.30 856.96 65.76 1.00
   16:01:17.679.29-Jun-2020  71.23 1799.21  873.30 856.96 65.76 1.00
   16:01:17.879.29-Jun-2020  71.43 1799.49  873.30 856.96 65.76 1.00
   16:01:18.079.29-Jun-2020  71.63 1797.33  873.30 856.96 65.76 1.00
   16:01:18.279.29-Jun-2020  71.83 1797.56  873.30 856.96 65.76 1.00
   16:01:18.479.29-Jun-2020  72.03 1797.29  873.30 856.96 65.76 1.00
   16:01:18.679.29-Jun-2020  72.23 1797.29  873.30 856.96 65.76 1.00
   16:01:18.879.29-Jun-2020  72.43 1800.33  873.30 856.96 65.76 1.00
   16:01:19.079.29-Jun-2020  72.63 1798.36  873.30 856.96 65.76 1.00
   16:01:19.279.29-Jun-2020  72.83 1798.68  873.30 856.96 65.76 1.00
   16:01:19.479.29-Jun-2020  73.03 1797.91  873.30 856.96 65.76 1.00
   16:01:19.679.29-Jun-2020  73.23 1799.37  873.30 856.96 65.76 1.00
   16:01:19.879.29-Jun-2020  73.43 1797.26  873.30 856.96 65.76 1.00
   16:01:20.079.29-Jun-2020  73.63 1797.81  873.30 856.96 65.76 1.00
   16:01:20.280.29-Jun-2020  73.83 1800.91  873.30 856.96 65.76 1.00
   16:01:20.480.29-Jun-2020  74.03 1800.31  873.30 856.96 65.76 1.00
   16:01:20.680.29-Jun-2020  74.23 1800.31  873.30 856.96 65.76 1.00
   16:01:20.880.29-Jun-2020  74.43 1789.90  873.30 856.96 65.76 1.00
   16:01:21.080.29-Jun-2020  74.63 1792.62  873.30 856.96 65.76 1.00
   16:01:21.280.29-Jun-2020  74.83 1796.97  873.30 856.96 65.76 1.00
   16:01:21.480.29-Jun-2020  75.03 1800.86  873.30 856.96 65.76 1.00
   16:01:21.680.29-Jun-2020  75.23 1800.86  873.30 856.96 65.76 1.00
   16:01:21.880.29-Jun-2020  75.43 1806.45  873.30 856.96 65.76 1.00
   16:01:22.080.29-Jun-2020  75.63 1808.23  873.30 856.96 65.76 1.00
   16:01:22.280.29-Jun-2020  75.83 1814.75  873.30 856.96 65.76 1.00
   16:01:22.480.29-Jun-2020  76.03 1822.79  873.30 856.96 65.76 1.00
   16:01:22.680.29-Jun-2020  76.23 1822.79  873.30 856.96 65.76 1.00
   16:01:22.881.29-Jun-2020  76.43 1873.08  873.30 856.96 65.76 1.00
   16:01:23.081.29-Jun-2020  76.63 1878.56  873.30 856.96 65.76 1.00
   16:01:23.281.29-Jun-2020  76.83 1874.76  873.30 856.96 65.77 1.00
   16:01:23.481.29-Jun-2020  77.03 1872.95  873.30 856.96 65.76 1.00
   16:01:23.681.29-Jun-2020  77.23 1879.99  873.30 856.96 65.77 1.00
   16:01:23.881.29-Jun-2020  77.43 1880.93  873.30 856.96 65.77 1.00
   16:01:24.081.29-Jun-2020  77.63 1885.62  873.30 856.96 65.77 1.00
   16:01:24.281.29-Jun-2020  77.83 1885.96  873.30 856.96 65.77 1.00
   16:01:24.481.29-Jun-2020  78.03 1888.62  873.30 856.96 65.77 1.00
   16:01:24.681.29-Jun-2020  78.23 1888.62  873.30 856.96 65.77 1.00
   16:01:24.881.29-Jun-2020  78.43 1844.44  873.30 856.96 65.77 1.00
   16:01:25.081.29-Jun-2020  78.63 1842.01  873.30 856.96 65.77 1.00
   16:01:25.281.29-Jun-2020  78.83 1840.87  873.30 856.96 65.77 1.00
   16:01:25.482.29-Jun-2020  79.03 1841.99  873.30 856.96 65.77 1.00
   16:01:25.682.29-Jun-2020  79.23 1841.99  873.30 856.96 65.77 1.00
   16:01:25.882.29-Jun-2020  79.43 1839.92  873.30 856.96 65.77 1.00
   16:01:26.082.29-Jun-2020  79.63 1837.97  873.30 856.96 65.77 1.00
   16:01:26.282.29-Jun-2020  79.83 1839.98  873.30 856.96 65.77 1.00
   16:01:26.482.29-Jun-2020  80.03 1839.72  873.30 856.96 65.77 1.00
   16:01:26.682.29-Jun-2020  80.23 1839.72  873.30 856.96 65.77 1.00
   16:01:26.882.29-Jun-2020  80.43 1838.67  873.30 856.96 65.77 1.00
   16:01:27.082.29-Jun-2020  80.63 1840.05  873.30 856.96 65.77 1.00
   16:01:27.282.29-Jun-2020  80.83 1839.53  873.30 856.96 65.77 1.00
   16:01:27.482.29-Jun-2020  81.03 1839.51  873.30 856.96 65.77 1.00
   16:01:27.682.29-Jun-2020  81.23 1837.73  873.30 856.96 65.77 1.00
   16:01:27.882.29-Jun-2020  81.43 1838.01  873.30 856.96 65.77 1.00
   16:01:28.082.29-Jun-2020  81.63 1838.41  873.30 856.96 65.77 1.00
   16:01:28.283.29-Jun-2020  81.83 1838.98  873.30 856.96 65.77 1.00
   16:01:28.483.29-Jun-2020  82.03 1838.90  873.30 856.96 65.77 1.00
   16:01:28.683.29-Jun-2020  82.23 1838.90  873.30 856.96 65.77 1.00
   16:01:28.883.29-Jun-2020  82.43 1838.30  873.30 856.96 65.77 1.00
   16:01:29.083.29-Jun-2020  82.63 1837.49  873.30 856.96 65.77 1.00
   16:01:29.283.29-Jun-2020  82.83 1838.13  873.30 856.96 65.77 1.00
   16:01:29.483.29-Jun-2020  83.03 1838.51  873.30 856.96 65.77 1.00
   16:01:29.683.29-Jun-2020  83.23 1838.51  873.30 856.96 65.77 1.00
   16:01:29.883.29-Jun-2020  83.43 1840.01  873.30 856.96 65.77 1.00
   16:01:30.083.29-Jun-2020  83.63 1839.32  873.30 856.96 65.77 1.00
   16:01:30.283.29-Jun-2020  83.83 1840.14  873.30 856.96 65.77 1.00
   16:01:30.483.29-Jun-2020  84.03 1840.29  873.30 856.96 65.77 1.00
   16:01:30.683.29-Jun-2020  84.23 1840.29  873.30 856.96 65.77 1.00
   16:01:30.884.29-Jun-2020  84.43 1840.67  873.30 856.96 65.77 1.00
   16:01:31.084.29-Jun-2020  84.63 1840.20  873.30 856.96 65.77 1.00
   16:01:31.284.29-Jun-2020  84.83 1840.83  873.30 856.96 65.77 1.00
   16:01:31.484.29-Jun-2020  85.03 1855.58  873.30 856.96 65.77 1.00
   16:01:31.684.29-Jun-2020  85.23 2074.55  873.30 856.96 65.77 1.00
   16:01:31.884.29-Jun-2020  85.43 1820.36  873.30 856.96 65.77 1.00
   16:01:32.084.29-Jun-2020  85.63 1817.26  873.30 856.96 65.77 1.00
   16:01:32.284.29-Jun-2020  85.83 1817.39  873.30 856.96 65.77 1.00
   16:01:32.484.29-Jun-2020  86.03 1816.28  873.30 856.96 65.77 1.00
   16:01:32.684.29-Jun-2020  86.23 1816.28  873.30 856.96 65.77 1.00
   16:01:32.884.29-Jun-2020  86.43 1809.84  873.30 856.96 65.77 1.00
   16:01:33.084.29-Jun-2020  86.63 1758.74  873.30 856.96 65.77 1.00
   16:01:33.284.29-Jun-2020  86.83 1672.34  873.30 856.96 65.77 1.00
   16:01:33.485.29-Jun-2020  87.03 1595.33  873.30 856.96 65.77 1.00
   16:01:33.685.29-Jun-2020  87.23 1595.33  873.30 856.96 65.77 1.00
   16:01:33.885.29-Jun-2020  87.43 1464.43  873.30 856.96 65.77 1.00
   16:01:34.085.29-Jun-2020  87.63 1458.90  873.30 856.96 65.77 1.00
   16:01:34.285.29-Jun-2020  87.83 1484.04  873.30 856.96 65.77 1.00
   16:01:34.485.29-Jun-2020  88.03 1411.95  873.30 856.96 65.77 1.00
   16:01:34.685.29-Jun-2020  88.23 1411.95  873.30 856.96 65.77 1.00
   16:01:34.885.29-Jun-2020  88.43 1374.58  873.30 856.96 65.77 1.00
   16:01:35.085.29-Jun-2020  88.63 1404.03  873.30 856.96 65.77 1.00
   16:01:35.285.29-Jun-2020  88.83 1419.37  873.30 856.96 65.77 1.00
   16:01:35.485.29-Jun-2020  89.03 1419.54  873.30 856.96 65.77 1.00
   16:01:35.685.29-Jun-2020  89.23 1422.20  873.30 856.96 65.77 1.00
   16:01:35.885.29-Jun-2020  89.43 1410.68  873.30 856.96 65.77 1.00
   16:01:36.086.29-Jun-2020  89.63 1403.29  873.30 856.96 65.77 1.00
   16:01:36.286.29-Jun-2020  89.83 1400.70  873.30 856.96 65.77 1.00
   16:01:36.486.29-Jun-2020  90.03 1403.85  873.30 856.96 65.77 1.00
   16:01:36.686.29-Jun-2020  90.23 1403.85  873.30 856.96 65.77 1.00
   16:01:36.886.29-Jun-2020  90.43 1412.53  873.30 856.96 65.77 1.00
   16:01:37.086.29-Jun-2020  90.63 1413.36  873.30 856.96 65.77 1.00
   16:01:37.286.29-Jun-2020  90.83 1425.77  873.30 856.96 65.77 1.00
   16:01:37.486.29-Jun-2020  91.03 1426.99  873.30 856.96 65.77 1.00
   16:01:37.686.29-Jun-2020  91.23 1426.99  873.30 856.96 65.77 1.00
   16:01:37.886.29-Jun-2020  91.43 1436.44  873.30 856.96 65.77 1.00
   16:01:38.086.29-Jun-2020  91.63 1429.02  873.30 856.96 65.77 1.00
   16:01:38.286.29-Jun-2020  91.83 1431.26  873.30 856.96 65.77 1.00
   16:01:38.486.29-Jun-2020  92.03 1440.96  873.30 856.96 65.77 1.00
   16:01:38.687.29-Jun-2020  92.23 1440.96  873.30 856.96 65.77 1.00
   16:01:38.887.29-Jun-2020  92.44 1468.92  873.30 856.96 65.77 1.00
   16:01:39.087.29-Jun-2020  92.64 1472.28  873.30 856.96 65.77 1.00
