~Version Information
 VERS.                  2.0:   CWLS log ASCII Standard -VERSION 2.0
 WRAP.                   NO:   One line per depth step
~Well Information Block
#MNEM.UNIT     VALUE/NAME     DESCRIPTION
#---------     -----------    ---------------------------
 STRT.S             04:53:08 03-Jul-20: START TIME 04:53:08 03-Jul-20
 STOP.S             05:02:09 03-Jul-20: STOP TIME  05:02:09 03-Jul-20
 STEP.S                   0.00: STEP TIME
 NULL.                 -999.25: NULL VALUE
 DFWT.                        :  DIST FWL TEXT
 DFST.                        :  DIST FSL TEXT
 DMF .             Drill Floor:  DRILL MEAS FROM
 STIM.      09.59.28 01-Jun-20:  START TIME
 DATE.      09.59.28 01-Jun-20:  END TIME
 SPUD.               01-Jun-20:  SPUD DATE
 NREF.                    Grid:  NORTH REFERENCE
 HPTY.       Minimum Curvature:  HOLE POS TYPE
 DMOD.             Drill Model:  DRILL MOD DESC
 SVYD.                  Survey:  SURVEY DESC
 ILTD.               Lithology:  INTERP LTH DESC
 FTOP.          Formation Tops:  FORM TOPS DESC
 SON .        AZ-XX-0905455768:  JOB NUMBER
 WTYP.                Deviated:  WELL TYPE
 COMP.     BP Exploration(Caspian Sea):  COMPANY
 BASE.              Azerbaijan:  LOGGING EQUIPMENT BASE LOCATION
 REGN.                   EESSA:  REGION
 CTRY.              Azerbaijan:  COUNTRY NAME
 FLD .                     ACG:  FIELD NAME
 SRVC.          Turan Drilling:  CONTRACTOR
 WELL.                     B41:  WELL NAME
 RIG .           Central Azeri:  RIG NAME
 DCON.         Sperry Drilling:  DIRECTNL CONTR
 PDAT.          Mean Sea Level:  PERMANENT DATUM
 MDS .        Operator Entered:  MAG DATA SOURCE
 API .                        :  API NUMBER
 CNTY.                        :  COUNTY
 PROV.                        :  PROVINCE
 STAT.                        :  STATE
 UWI .                        :  UNIQUE WELL IDENTIFIER
 LOC .                        :  LOCATION
 LMF .             Drill Floor:  LOG MEASURED FROM
 TVDS.m                  43.29:  TVDSS CORRECTN
 LATI.deg                40.03:  LATITUDE
 LONG.deg                51.35:  LONGITUDE
 WHNS.m                  12.98:  WELL HEAD N/S
 WHEW.m                  -6.62:  WELL HEAD E/W
 UTMX.m              530128.28:  UTM X
 UTMY.m             4433192.49:  UTM Y
 DFWL.m                   0.00:  DISTANCE FWL
 DFSL.m                   0.00:  DISTANCE FSL
 SDEP.m                 378.00:  START DEPTH
 TDD .m                   0.00:  TOTAL DEPTH (DRILLER)
 VSDR.deg               296.18:  VERT SEC DIRECT
 GVFD.g                   1.00:  GRAVITY FIELD
 MFLD.nT              50253.00:  MAGNETIC FIELD
 MDIP.deg                59.49:  MAGNETIC DIP
 MDEC.deg                 6.44:  MAGNETIC DECL
 GRDC.deg                 0.22:  GRID CORRECTION
 AZTC.deg                 6.22:  AZM TOTAL CORR
 EPD .m                   0.00:  ELEVATION
 EGL .m                   0.00:  GROUND ELEVATION
 WDMS.m                 128.20:  WD ELEV
 APD .m                  43.29:  DEPTH ABOVE PD
 AGAP.m                  43.29:  AIR GAP
 VSEW.m                  -6.62:  VERT SEC E/W
 VSNS.m                  12.98:  VERT SEC N/S
 EKB .m                  43.29:  KB ELEVATION
 EDF .m                  43.29:  DF ELEVATION
 TDL .m                1152.00:  TOTAL DEPTH (LOGGER)
 VSC .                       0:  VS TO CLOSURE
 MAGU.                 1848525:  MAGUTM CHECKSUM
~Parameter Information Block
#MNEM.UNIT       Value        Description
#---------     -----------    ---------------------------
 AV  .mps                 0.40:  Ann Velocity 
 AVMX.mps                 1.56:  Max Ann Veloc 
 AZIF.deg               300.46:  Azm, Final 
 BHAT.        Rotary Steerable:  BHA Type 
 BROT.°/30m               0.40:  Build Rotating 
 BS  .in                 17.50:  Bit Size 
 BSZ .in                 17.50:  Bit Size 
 BTPL.psig              300.00:  Bit Press Loss 
 CABU.                      No:  Customer Abuse 
 CGEO.          Parviz Guliyev:  Customer Geo 
 COMM.                     D‘]:  Run Comments 1 
 TCS .hr                108.13:  Time Ciculation Ended 
 CV  .mps                 0.50:  Crit Velocity 
 CVMX.mps                 2.01:  Max Crit Veloc 
 DD1 .          Fariz Nahmatov:  Direct Drillr 1 
 DD2 .             Ehab Radwan:  Direct Drillr 2 
 DDSV.               Geo-Pilot:  DD Service 
 DEFF.%                  99.00:  % Det Eff 
 DLRX.°/30m               0.50:  Dogleg Rot Max 
 DLSO.°/30m               2.80:  Dogleg Oriented 
 DLSX.°/30m               3.90:  Dogleg Str Max 
 DRET.      09.30.04 03-Jul-20:  Drill End Time 
 DRST.      18.33.04 28-Jun-20:  Drill Start Tim 
 DTIM.hr                 55.83:  Time Drilling 
 EDEP.m                1952.00:  End Depth 
 ENG1.      Bakhtiyar Jabbarli:  Engineer 1 
 ENG2.         Farhad Orujzade:  Engineer 2 
 ENG3.          Rustam Safarov:  Engineer 3 
 ETIM.      01.33.04 04-Jul-20:  End Time 
 FLOI.gpm              1050.00:  Flow In 
 FLON.gpm               950.00:  Flow In Min 
 FLOS.cptm                0.10:  Fluid Loss 
 FLOX.gpm              1150.00:  Flow In Max 
 HFLO.                      No:  High Flow 
 HPRE.                      No:  High Pressure 
 HTEM.                      No:  High Temp 
 HYDO.m                   1.80:  Hydro Offset 
 IFIN.deg                75.26:  Inc, Final 
 IMAX.deg                75.38:  Inc Max 
 IMIN.deg                22.84:  Inc Min 
 IMND.m                 832.38:  Inc Min Depth 
 IMXD.m                1936.55:  Inc Max Depth 
 JARR.                      No:  Jarring 
 LETM.      17.40.00 04-Jul-20:  Log End Time 
 LOST.hr                     0:  Lost Rig Time 
 LSTM.      12.33.04 28-Jun-20:  Log Start Time 
 MDCL.ppm             49500.00:  Mud Chlorides 
 MDES.     Inversion Oil/Synthetic:  Mud Desc 
 DFD .sg                  1.46:  Mud Density 
 MDMN.sg                  1.46:  Dens Mud Min 
 MDMX.sg                  1.46:  Dens Mud Max 
 MOIL.                      70:  Run Mud Oil % 
 MOWR.                   70:30:  Run Mud OWR 
 MSND.                     0.5:  Run Mud Sand % 
 MSOL.                   19.89:  Run Mud Solids% 
 DFV .spqt               72.00:  Mud Viscosity 
 MWOD.in                  9.50:  MWD Tool OD 
 MWSI.                      No:  Serv Intrp, MWD 
 OTIM.hr                146.53:  Time Operating 
 PCON.           Look Like New:  Pad Condition 
 PMAX.psia             2900.00:  Press Op, Max 
 PV  .cP                 38.00:  Mud PV 
 RUN .                     600:  Run Number 
 ROPA.m/hr               22.00:  ROP Avg 
 ROPN.m/hr               10.00:  ROP Min 
 ROPX.m/hr              263.00:  ROP Max 
 RPMA.rpm               155.00:  RPM Surface Avg 
 RPMN.rpm               140.00:  RPM Surface Min 
 RPMX.rpm               160.00:  RPM Surface Max 
 RRUN.                    0600:  Rig Run Number 
 RTIM.hr                  5.00:  Time Reaming 
 SAZI.deg               300.08:  Azm, Start 
 SDEP.m                 800.00:  Start Depth 
 SIDD.                      No:  Serv Intrp, DD 
 SINC.deg                22.84:  Inc, Start 
 SPPA.psig             3000.00:  SPP Avg 
 SPPN.psig             1900.00:  SPP Min 
 SPPX.psig             3200.00:  SPP Max 
 STIM.      12.30.04 28-Jun-20:  Start Time 
 SVCS.                 DD, MWD:  Services 
 SVER.                    9.20:  Sperry Version 
 TDAT.m                1952.00:  Tot Depth Attmp 
 TDDF.                      No:  Trip for DD 
 TDLG.m                1152.00:  Tot Depth Loggd 
 TFF .                      No:  Trip for Fail 
 TQAA.f-kp                8.00:  Torque Abs Avg 
 TQAN.f-kp                5.00:  Torque Abs Min 
 TQAX.f-kp               14.00:  Torque Abs Max 
 TRRT.°/30m               0.50:  Turn Rotating 
 MRT .                  EWR-M5:  Maximum Recorded Temperature 
 TTMX.degC               69.00:  Max Tool Temp 
 VS01.                90610313:  Virtual Str1 SN 
 VS02.                90613431:  Virtual Str2 SN 
 VS03.                90615410:  Virtual Str3 SN 
 WBMN.klb                 6.00:  WOB Min 
 WITN.            Bruce Cheyne:  Customer Rep 
 WITN.             Ayaz Aliyev:  Customer Rep 2 
 WOBA.klb                 6.00:  WOB Avg 
 WOBX.klb                10.00:  WOB Max 
 YP  .lhf2               36.00:  Yield Point 
~Curve Information Block
#MNEM.UNIT                 API CODE     Curve Description
#---------               -----------    ---------------------------
 TIME.HHMMSS            00 000 000 000:  GT Time & Date
 GTET.sec               00 000 000 000:  GT Elapsed Test Time
 GTPQH.psia             00 000 000 000:  GT HR Quartz Pressure
 GTDEPTH.m              00 000 000 000:  GT Depth
 GTTVD.m                00 000 000 000:  GT True Vertical Depth
 GTTQ.degC              00 000 000 000:  GT Quartz Temperature
 GTTN.NONE              00 000 000 000:  GT Test Number
#Other Information
#
#WARRANTY: Halliburton will use its best efforts to furnish customers with 
#accurate information and interpretations that are part of, and incident to, the services 
#provided.  However, Halliburton cannot and does not warrant the accuracy 
#or correctness of such information and interpretations.  Under no circumstances should any 
#such information or interpretation be relied upon as the sole basis for any drilling, 
#completion, production, or financial decision or any procedure involving any risk to the 
#safety of any drilling venture, drilling rig or its crew or any other third party.  The 
#Customer has full responsibility for all drilling, completion and production operation.  
#Halliburton makes no representations or warranties, either expressed or 
#implied, including, but not limited to, the implied warranties of merchantability or fitness 
#for a particular purpose, with respect to the services rendered.  In no event will 
#Halliburton be liable for failure to obtain any particular results or for 
#any damages, including, but not limited to, indirect, special or consequential damages, 
#resulting from the use of any information or interpretation provided by Halliburton.
#
~A           TIME            GTET   GTPQH  GTDEPTH  GTTVD  GTTQ  GTTN 
# ...
   04:54:17.000.03-Jul-2020  69.00 2879.75 1886.00 1359.43 59.00 8.00
   04:54:17.200.03-Jul-2020  69.20 2879.75 1886.00 1359.43 59.00 8.00
   04:54:17.400.03-Jul-2020  69.40 2879.74 1886.00 1359.43 59.00 8.00
   04:54:17.600.03-Jul-2020  69.60 2878.56 1886.00 1359.43 59.00 8.00
   04:54:17.800.03-Jul-2020  69.80 2879.43 1886.00 1359.43 59.00 8.00
   04:54:18.000.03-Jul-2020  70.00 2879.76 1886.00 1359.43 59.00 8.00
   04:54:18.200.03-Jul-2020  70.20 2879.76 1886.00 1359.43 59.00 8.00
   04:54:18.400.03-Jul-2020  70.40 2879.76 1886.00 1359.43 59.00 8.00
   04:54:18.600.03-Jul-2020  70.60 2879.82 1886.00 1359.43 59.00 8.00
   04:54:18.800.03-Jul-2020  70.80 2878.35 1886.00 1359.43 59.00 8.00
   04:54:19.000.03-Jul-2020  71.00 2879.14 1886.00 1359.43 59.00 8.00
   04:54:19.200.03-Jul-2020  71.20 2879.58 1886.00 1359.43 59.00 8.00
   04:54:19.400.03-Jul-2020  71.40 2879.21 1886.00 1359.43 59.00 8.00
   04:54:19.600.03-Jul-2020  71.60 2879.69 1886.00 1359.43 59.00 8.00
   04:54:19.800.03-Jul-2020  71.80 2879.92 1886.00 1359.43 59.00 8.00
   04:54:20.000.03-Jul-2020  72.00 2878.57 1886.00 1359.43 59.00 8.00
   04:54:20.200.03-Jul-2020  72.20 2879.23 1886.00 1359.43 59.00 8.00
   04:54:20.400.03-Jul-2020  72.40 2880.13 1886.00 1359.43 59.00 8.00
   04:54:20.600.03-Jul-2020  72.60 2880.23 1886.00 1359.43 59.00 8.00
   04:54:20.800.03-Jul-2020  72.80 2878.88 1886.00 1359.43 59.00 8.00
   04:54:21.000.03-Jul-2020  73.00 2879.70 1886.00 1359.43 59.00 8.00
   04:54:21.200.03-Jul-2020  73.20 2879.70 1886.00 1359.43 59.00 8.00
   04:54:21.400.03-Jul-2020  73.40 2879.48 1886.00 1359.43 59.00 8.00
   04:54:21.600.03-Jul-2020  73.60 2879.57 1886.00 1359.43 59.00 8.00
   04:54:21.800.03-Jul-2020  73.80 2879.57 1886.00 1359.43 59.00 8.00
   04:54:22.000.03-Jul-2020  74.00 2879.72 1886.00 1359.43 59.00 8.00
   04:54:22.200.03-Jul-2020  74.20 2879.72 1886.00 1359.43 59.00 8.00
   04:54:22.400.03-Jul-2020  74.40 2879.65 1886.00 1359.43 59.00 8.00
   04:54:22.600.03-Jul-2020  74.60 2879.53 1886.00 1359.43 59.00 8.00
   04:54:22.800.03-Jul-2020  74.80 2879.82 1886.00 1359.43 59.00 8.00
   04:54:23.000.03-Jul-2020  75.00 2879.86 1886.00 1359.43 59.00 8.00
   04:54:23.200.03-Jul-2020  75.20 2879.86 1886.00 1359.43 59.00 8.00
   04:54:23.400.03-Jul-2020  75.40 2879.82 1886.00 1359.43 59.00 8.00
   04:54:23.600.03-Jul-2020  75.60 2879.62 1886.00 1359.43 59.00 8.00
   04:54:23.800.03-Jul-2020  75.80 2879.64 1886.00 1359.43 59.00 8.00
   04:54:24.000.03-Jul-2020  76.00 2879.70 1886.00 1359.43 59.00 8.00
   04:54:24.200.03-Jul-2020  76.20 2879.79 1886.00 1359.43 59.00 8.00
   04:54:24.400.03-Jul-2020  76.40 2879.92 1886.00 1359.43 59.00 8.00
   04:54:24.600.03-Jul-2020  76.60 2878.78 1886.00 1359.43 59.00 8.00
   04:54:24.800.03-Jul-2020  76.80 2879.47 1886.00 1359.43 59.00 8.00
   04:54:25.000.03-Jul-2020  77.00 2879.87 1886.00 1359.43 59.00 8.00
   04:54:25.200.03-Jul-2020  77.20 2879.87 1886.00 1359.43 59.00 8.00
   04:54:25.400.03-Jul-2020  77.40 2880.17 1886.00 1359.43 59.00 8.00
   04:54:25.600.03-Jul-2020  77.60 2880.12 1886.00 1359.43 59.00 8.00
   04:54:25.800.03-Jul-2020  77.80 2880.18 1886.00 1359.43 59.00 8.00
   04:54:26.000.03-Jul-2020  78.00 2880.26 1886.00 1359.43 59.00 8.00
   04:54:26.200.03-Jul-2020  78.20 2880.26 1886.00 1359.43 59.00 8.00
   04:54:26.400.03-Jul-2020  78.40 2846.84 1886.00 1359.43 59.00 8.00
   04:54:26.600.03-Jul-2020  78.60 2795.67 1886.00 1359.43 59.00 8.00
   04:54:26.800.03-Jul-2020  78.80 2773.48 1886.00 1359.43 59.00 8.00
   04:54:27.000.03-Jul-2020  79.00 2813.74 1886.00 1359.43 59.00 8.00
   04:54:27.200.03-Jul-2020  79.20 2880.13 1886.00 1359.43 59.00 8.00
   04:54:27.400.03-Jul-2020  79.40 2906.55 1886.00 1359.43 59.00 8.00
   04:54:27.600.03-Jul-2020  79.60 2943.11 1886.00 1359.43 59.00 8.00
   04:54:27.800.03-Jul-2020  79.80 2949.12 1886.00 1359.43 59.00 8.00
   04:54:28.000.03-Jul-2020  80.00 2947.77 1886.00 1359.43 59.00 8.00
   04:54:28.200.03-Jul-2020  80.20 2943.57 1886.00 1359.43 59.00 8.00
   04:54:28.400.03-Jul-2020  80.40 2945.60 1886.00 1359.43 59.00 8.00
   04:54:28.600.03-Jul-2020  80.60 2942.03 1886.00 1359.43 59.00 8.00
   04:54:28.800.03-Jul-2020  80.80 2942.65 1886.00 1359.43 59.00 8.00
   04:54:29.000.03-Jul-2020  81.00 2942.51 1886.00 1359.43 59.00 8.00
   04:54:29.200.03-Jul-2020  81.20 2942.51 1886.00 1359.43 59.00 8.00
   04:54:29.400.03-Jul-2020  81.40 2943.61 1886.00 1359.43 59.00 8.00
   04:54:29.600.03-Jul-2020  81.60 2943.32 1886.00 1359.43 59.00 8.00
   04:54:29.800.03-Jul-2020  81.80 2943.91 1886.00 1359.43 59.00 8.00
   04:54:30.000.03-Jul-2020  82.00 2944.55 1886.00 1359.43 59.00 8.00
   04:54:30.200.03-Jul-2020  82.20 2944.55 1886.00 1359.43 59.00 8.00
   04:54:30.400.03-Jul-2020  82.40 2944.15 1886.00 1359.43 59.00 8.00
   04:54:30.600.03-Jul-2020  82.60 2945.39 1886.00 1359.43 59.00 8.00
   04:54:30.800.03-Jul-2020  82.80 2940.18 1886.00 1359.43 59.00 8.00
   04:54:31.000.03-Jul-2020  83.00 2939.89 1886.00 1359.43 59.00 8.00
   04:54:31.200.03-Jul-2020  83.20 2939.53 1886.00 1359.43 59.00 8.00
   04:54:31.400.03-Jul-2020  83.40 2938.88 1886.00 1359.43 59.00 8.00
   04:54:31.600.03-Jul-2020  83.60 2938.03 1886.00 1359.43 59.00 8.00
   04:54:31.800.03-Jul-2020  83.80 2937.35 1886.00 1359.43 59.00 8.00
   04:54:32.000.03-Jul-2020  84.00 2936.11 1886.00 1359.43 59.00 8.00
   04:54:32.200.03-Jul-2020  84.20 2935.43 1886.00 1359.43 59.00 8.00
   04:54:32.400.03-Jul-2020  84.40 2935.09 1886.00 1359.43 59.00 8.00
   04:54:32.600.03-Jul-2020  84.60 2934.24 1886.00 1359.43 59.00 8.00
   04:54:32.800.03-Jul-2020  84.80 2933.58 1886.00 1359.43 59.00 8.00
   04:54:33.000.03-Jul-2020  85.00 2932.85 1886.00 1359.43 59.00 8.00
   04:54:33.200.03-Jul-2020  85.20 2932.85 1886.00 1359.43 59.00 8.00
   04:54:33.400.03-Jul-2020  85.40 2931.84 1886.00 1359.43 59.00 8.00
   04:54:33.600.03-Jul-2020  85.60 2931.63 1886.00 1359.43 59.00 8.00
   04:54:33.800.03-Jul-2020  85.80 2930.82 1886.00 1359.43 59.00 8.00
   04:54:34.000.03-Jul-2020  86.00 2930.68 1886.00 1359.43 59.00 8.00
   04:54:34.200.03-Jul-2020  86.20 2930.68 1886.00 1359.43 59.00 8.00
   04:54:34.400.03-Jul-2020  86.40 2930.25 1886.00 1359.43 59.00 8.00
   04:54:34.600.03-Jul-2020  86.60 3041.57 1886.00 1359.43 59.00 8.00
   04:54:34.800.03-Jul-2020  86.80 2915.58 1886.00 1359.43 59.00 8.00
   04:54:35.000.03-Jul-2020  87.00 2904.47 1886.00 1359.43 59.00 8.00
   04:54:35.200.03-Jul-2020  87.20 2903.43 1886.00 1359.43 59.00 8.00
   04:54:35.400.03-Jul-2020  87.40 2902.54 1886.00 1359.43 59.00 8.00
   04:54:35.600.03-Jul-2020  87.60 2902.06 1886.00 1359.43 59.00 8.00
   04:54:35.800.03-Jul-2020  87.80 2901.73 1886.00 1359.43 59.00 8.00
   04:54:36.000.03-Jul-2020  88.00 2901.47 1886.00 1359.43 59.00 8.00
   04:54:36.200.03-Jul-2020  88.20 2900.41 1886.00 1359.43 59.00 8.00
   04:54:36.400.03-Jul-2020  88.40 2897.38 1886.00 1359.43 59.00 8.00
   04:54:36.600.03-Jul-2020  88.60 2882.16 1886.00 1359.43 59.00 8.00
   04:54:36.800.03-Jul-2020  88.80 2837.98 1886.00 1359.43 59.00 8.00
   04:54:37.000.03-Jul-2020  89.00 2798.40 1886.00 1359.43 59.00 8.00
   04:54:37.200.03-Jul-2020  89.20 2798.40 1886.00 1359.43 59.00 8.00
   04:54:37.400.03-Jul-2020  89.40 2728.44 1886.00 1359.43 59.00 8.00
   04:54:37.600.03-Jul-2020  89.60 2686.26 1886.00 1359.43 59.00 8.00
   04:54:37.800.03-Jul-2020  89.80 2641.28 1886.00 1359.43 59.00 8.00
   04:54:38.000.03-Jul-2020  90.00 2602.54 1886.00 1359.43 59.00 8.00
   04:54:38.200.03-Jul-2020  90.20 2602.54 1886.00 1359.43 59.00 8.00
   04:54:38.400.03-Jul-2020  90.40 2520.87 1886.00 1359.43 59.00 8.00
   04:54:38.600.03-Jul-2020  90.60 2514.52 1886.00 1359.43 59.00 8.00
   04:54:38.800.03-Jul-2020  90.80 2515.87 1886.00 1359.43 59.00 8.00
   04:54:39.000.03-Jul-2020  91.00 2517.12 1886.00 1359.43 59.00 8.00
   04:54:39.200.03-Jul-2020  91.20 2518.14 1886.00 1359.43 59.00 8.00
   04:54:39.400.03-Jul-2020  91.40 2519.00 1886.00 1359.43 58.99 8.00
   04:54:39.600.03-Jul-2020  91.60 2519.60 1886.00 1359.43 58.99 8.00
   04:54:39.800.03-Jul-2020  91.80 2519.90 1886.00 1359.43 58.99 8.00
