~Version Information
 VERS.                  2.0:   CWLS log ASCII Standard -VERSION 2.0
 WRAP.                   NO:   One line per depth step
~Well Information Block
#MNEM.UNIT     VALUE/NAME     DESCRIPTION
#---------     -----------    ---------------------------
 STRT.S             04:11:34 02-Jul-20: START TIME 04:11:34 02-Jul-20
 STOP.S             04:20:35 02-Jul-20: STOP TIME  04:20:35 02-Jul-20
 STEP.S                   0.00: STEP TIME
 NULL.                 -999.25: NULL VALUE
 DFWT.                        :  DIST FWL TEXT
 DFST.                        :  DIST FSL TEXT
 DMF .             Drill Floor:  DRILL MEAS FROM
 STIM.      09.59.28 01-Jun-20:  START TIME
 DATE.      09.59.28 01-Jun-20:  END TIME
 SPUD.               01-Jun-20:  SPUD DATE
 NREF.                    Grid:  NORTH REFERENCE
 HPTY.       Minimum Curvature:  HOLE POS TYPE
 DMOD.             Drill Model:  DRILL MOD DESC
 SVYD.                  Survey:  SURVEY DESC
 ILTD.               Lithology:  INTERP LTH DESC
 FTOP.          Formation Tops:  FORM TOPS DESC
 SON .        AZ-XX-0905455768:  JOB NUMBER
 WTYP.                Deviated:  WELL TYPE
 COMP.     BP Exploration(Caspian Sea):  COMPANY
 BASE.              Azerbaijan:  LOGGING EQUIPMENT BASE LOCATION
 REGN.                   EESSA:  REGION
 CTRY.              Azerbaijan:  COUNTRY NAME
 FLD .                     ACG:  FIELD NAME
 SRVC.          Turan Drilling:  CONTRACTOR
 WELL.                     B41:  WELL NAME
 RIG .           Central Azeri:  RIG NAME
 DCON.         Sperry Drilling:  DIRECTNL CONTR
 PDAT.          Mean Sea Level:  PERMANENT DATUM
 MDS .        Operator Entered:  MAG DATA SOURCE
 API .                        :  API NUMBER
 CNTY.                        :  COUNTY
 PROV.                        :  PROVINCE
 STAT.                        :  STATE
 UWI .                        :  UNIQUE WELL IDENTIFIER
 LOC .                        :  LOCATION
 LMF .             Drill Floor:  LOG MEASURED FROM
 TVDS.m                  43.29:  TVDSS CORRECTN
 LATI.deg                40.03:  LATITUDE
 LONG.deg                51.35:  LONGITUDE
 WHNS.m                  12.98:  WELL HEAD N/S
 WHEW.m                  -6.62:  WELL HEAD E/W
 UTMX.m              530128.28:  UTM X
 UTMY.m             4433192.49:  UTM Y
 DFWL.m                   0.00:  DISTANCE FWL
 DFSL.m                   0.00:  DISTANCE FSL
 SDEP.m                 378.00:  START DEPTH
 TDD .m                   0.00:  TOTAL DEPTH (DRILLER)
 VSDR.deg               296.18:  VERT SEC DIRECT
 GVFD.g                   1.00:  GRAVITY FIELD
 MFLD.nT              50253.00:  MAGNETIC FIELD
 MDIP.deg                59.49:  MAGNETIC DIP
 MDEC.deg                 6.44:  MAGNETIC DECL
 GRDC.deg                 0.22:  GRID CORRECTION
 AZTC.deg                 6.22:  AZM TOTAL CORR
 EPD .m                   0.00:  ELEVATION
 EGL .m                   0.00:  GROUND ELEVATION
 WDMS.m                 128.20:  WD ELEV
 APD .m                  43.29:  DEPTH ABOVE PD
 AGAP.m                  43.29:  AIR GAP
 VSEW.m                  -6.62:  VERT SEC E/W
 VSNS.m                  12.98:  VERT SEC N/S
 EKB .m                  43.29:  KB ELEVATION
 EDF .m                  43.29:  DF ELEVATION
 TDL .m                1152.00:  TOTAL DEPTH (LOGGER)
 VSC .                       0:  VS TO CLOSURE
 MAGU.                 1848525:  MAGUTM CHECKSUM
~Parameter Information Block
#MNEM.UNIT       Value        Description
#---------     -----------    ---------------------------
 AV  .mps                 0.40:  Ann Velocity 
 AVMX.mps                 1.56:  Max Ann Veloc 
 AZIF.deg               300.46:  Azm, Final 
 BHAT.        Rotary Steerable:  BHA Type 
 BROT.°/30m               0.40:  Build Rotating 
 BS  .in                 17.50:  Bit Size 
 BSZ .in                 17.50:  Bit Size 
 BTPL.psig              300.00:  Bit Press Loss 
 CABU.                      No:  Customer Abuse 
 CGEO.          Parviz Guliyev:  Customer Geo 
 TCS .hr                108.13:  Time Ciculation Ended 
 CV  .mps                 0.50:  Crit Velocity 
 CVMX.mps                 2.01:  Max Crit Veloc 
 DD1 .          Fariz Nahmatov:  Direct Drillr 1 
 DD2 .             Ehab Radwan:  Direct Drillr 2 
 DDSV.               Geo-Pilot:  DD Service 
 DEFF.%                  99.00:  % Det Eff 
 DLRX.°/30m               0.50:  Dogleg Rot Max 
 DLSO.°/30m               2.80:  Dogleg Oriented 
 DLSX.°/30m               3.90:  Dogleg Str Max 
 DRET.      09.30.04 03-Jul-20:  Drill End Time 
 DRST.      18.33.04 28-Jun-20:  Drill Start Tim 
 DTIM.hr                 55.83:  Time Drilling 
 EDEP.m                1952.00:  End Depth 
 ENG1.      Bakhtiyar Jabbarli:  Engineer 1 
 ENG2.         Farhad Orujzade:  Engineer 2 
 ENG3.          Rustam Safarov:  Engineer 3 
 ETIM.      01.33.04 04-Jul-20:  End Time 
 FLOI.gpm              1050.00:  Flow In 
 FLON.gpm               950.00:  Flow In Min 
 FLOS.cptm                0.10:  Fluid Loss 
 FLOX.gpm              1150.00:  Flow In Max 
 HFLO.                      No:  High Flow 
 HPRE.                      No:  High Pressure 
 HTEM.                      No:  High Temp 
 HYDO.m                   1.80:  Hydro Offset 
 IFIN.deg                75.26:  Inc, Final 
 IMAX.deg                75.38:  Inc Max 
 IMIN.deg                22.84:  Inc Min 
 IMND.m                 832.38:  Inc Min Depth 
 IMXD.m                1936.55:  Inc Max Depth 
 JARR.                      No:  Jarring 
 LETM.      17.40.00 04-Jul-20:  Log End Time 
 LOST.hr                     0:  Lost Rig Time 
 LSTM.      12.33.04 28-Jun-20:  Log Start Time 
 MDCL.ppm             49500.00:  Mud Chlorides 
 MDES.     Inversion Oil/Synthetic:  Mud Desc 
 DFD .sg                  1.46:  Mud Density 
 MDMN.sg                  1.46:  Dens Mud Min 
 MDMX.sg                  1.46:  Dens Mud Max 
 MOIL.                      70:  Run Mud Oil % 
 MOWR.                   70:30:  Run Mud OWR 
 MSND.                     0.5:  Run Mud Sand % 
 MSOL.                   19.89:  Run Mud Solids% 
 DFV .spqt               72.00:  Mud Viscosity 
 MWOD.in                  9.50:  MWD Tool OD 
 MWSI.                      No:  Serv Intrp, MWD 
 OTIM.hr                146.53:  Time Operating 
 PCON.           Look Like New:  Pad Condition 
 PMAX.psia             2900.00:  Press Op, Max 
 PV  .cP                 38.00:  Mud PV 
 RUN .                     600:  Run Number 
 ROPA.m/hr               22.00:  ROP Avg 
 ROPN.m/hr               10.00:  ROP Min 
 ROPX.m/hr              263.00:  ROP Max 
 RPMA.rpm               155.00:  RPM Surface Avg 
 RPMN.rpm               140.00:  RPM Surface Min 
 RPMX.rpm               160.00:  RPM Surface Max 
 RRUN.                    0600:  Rig Run Number 
 RTIM.hr                  5.00:  Time Reaming 
 SAZI.deg               300.08:  Azm, Start 
 SDEP.m                 800.00:  Start Depth 
 SIDD.                      No:  Serv Intrp, DD 
 SINC.deg                22.84:  Inc, Start 
 SPPA.psig             3000.00:  SPP Avg 
 SPPN.psig             1900.00:  SPP Min 
 SPPX.psig             3200.00:  SPP Max 
 STIM.      12.30.04 28-Jun-20:  Start Time 
 SVCS.                 DD, MWD:  Services 
 SVER.                    9.20:  Sperry Version 
 TDAT.m                1952.00:  Tot Depth Attmp 
 TDDF.                      No:  Trip for DD 
 TDLG.m                1152.00:  Tot Depth Loggd 
 TFF .                      No:  Trip for Fail 
 TQAA.f-kp                8.00:  Torque Abs Avg 
 TQAN.f-kp                5.00:  Torque Abs Min 
 TQAX.f-kp               14.00:  Torque Abs Max 
 TRRT.°/30m               0.50:  Turn Rotating 
 MRT .                  EWR-M5:  Maximum Recorded Temperature 
 TTMX.degC               69.00:  Max Tool Temp 
 VS01.                90610313:  Virtual Str1 SN 
 VS02.                90613431:  Virtual Str2 SN 
 VS03.                90615410:  Virtual Str3 SN 
 WBMN.klb                 6.00:  WOB Min 
 WITN.            Bruce Cheyne:  Customer Rep 
 WITN.             Ayaz Aliyev:  Customer Rep 2 
 WOBA.klb                 6.00:  WOB Avg 
 WOBX.klb                10.00:  WOB Max 
 YP  .lhf2               36.00:  Yield Point 
~Curve Information Block
#MNEM.UNIT                 API CODE     Curve Description
#---------               -----------    ---------------------------
 TIME.HHMMSS            00 000 000 000:  GT Time & Date
 GTET.sec               00 000 000 000:  GT Elapsed Test Time
 GTPQH.psia             00 000 000 000:  GT HR Quartz Pressure
 GTDEPTH.m              00 000 000 000:  GT Depth
 GTTVD.m                00 000 000 000:  GT True Vertical Depth
 GTTQ.degC              00 000 000 000:  GT Quartz Temperature
 GTTN.NONE              00 000 000 000:  GT Test Number
#Other Information
#
#WARRANTY: Halliburton will use its best efforts to furnish customers with 
#accurate information and interpretations that are part of, and incident to, the services 
#provided.  However, Halliburton cannot and does not warrant the accuracy 
#or correctness of such information and interpretations.  Under no circumstances should any 
#such information or interpretation be relied upon as the sole basis for any drilling, 
#completion, production, or financial decision or any procedure involving any risk to the 
#safety of any drilling venture, drilling rig or its crew or any other third party.  The 
#Customer has full responsibility for all drilling, completion and production operation.  
#Halliburton makes no representations or warranties, either expressed or 
#implied, including, but not limited to, the implied warranties of merchantability or fitness 
#for a particular purpose, with respect to the services rendered.  In no event will 
#Halliburton be liable for failure to obtain any particular results or for 
#any damages, including, but not limited to, indirect, special or consequential damages, 
#resulting from the use of any information or interpretation provided by Halliburton.
#
~A           TIME            GTET   GTPQH  GTDEPTH  GTTVD  GTTQ  GTTN 
# ...
   04:15:01.404.02-Jul-2020 207.03 2364.40 1565.98 1276.49 57.97 6.00
   04:15:01.604.02-Jul-2020 207.23 2364.40 1565.98 1276.49 57.97 6.00
   04:15:01.804.02-Jul-2020 207.43 2364.39 1565.98 1276.49 57.98 6.00
   04:15:02.004.02-Jul-2020 207.63 2364.43 1565.98 1276.49 57.98 6.00
   04:15:02.204.02-Jul-2020 207.83 2364.38 1565.98 1276.49 57.98 6.00
   04:15:02.404.02-Jul-2020 208.03 2364.35 1565.98 1276.49 57.98 6.00
   04:15:02.605.02-Jul-2020 208.23 2364.42 1565.98 1276.49 57.98 6.00
   04:15:02.805.02-Jul-2020 208.43 2364.36 1565.98 1276.49 57.98 6.00
   04:15:03.005.02-Jul-2020 208.63 2364.37 1565.98 1276.49 57.98 6.00
   04:15:03.205.02-Jul-2020 208.83 2364.42 1565.98 1276.49 57.98 6.00
   04:15:03.405.02-Jul-2020 209.03 2364.41 1565.98 1276.49 57.98 6.00
   04:15:03.605.02-Jul-2020 209.23 2364.41 1565.98 1276.49 57.98 6.00
   04:15:03.805.02-Jul-2020 209.43 2364.40 1565.98 1276.49 57.98 6.00
   04:15:04.005.02-Jul-2020 209.63 2364.40 1565.98 1276.49 57.98 6.00
   04:15:04.205.02-Jul-2020 209.83 2364.43 1565.98 1276.49 57.98 6.00
   04:15:04.405.02-Jul-2020 210.03 2364.44 1565.98 1276.49 57.98 6.00
   04:15:04.605.02-Jul-2020 210.23 2364.44 1565.98 1276.49 57.98 6.00
   04:15:04.805.02-Jul-2020 210.43 2364.44 1565.98 1276.49 57.98 6.00
   04:15:05.005.02-Jul-2020 210.63 2364.44 1565.98 1276.49 57.98 6.00
   04:15:05.205.02-Jul-2020 210.83 2364.45 1565.98 1276.49 57.98 6.00
   04:15:05.405.02-Jul-2020 211.03 2364.45 1565.98 1276.49 57.99 6.00
   04:15:05.605.02-Jul-2020 211.23 2364.45 1565.98 1276.49 57.99 6.00
   04:15:05.805.02-Jul-2020 211.43 2364.45 1565.98 1276.49 57.99 6.00
   04:15:06.005.02-Jul-2020 211.63 2364.47 1565.98 1276.49 57.99 6.00
   04:15:06.205.02-Jul-2020 211.83 2364.43 1565.98 1276.49 57.99 6.00
   04:15:06.405.02-Jul-2020 212.03 2364.45 1565.98 1276.49 57.99 6.00
   04:15:06.605.02-Jul-2020 212.23 2364.50 1565.98 1276.49 57.99 6.00
   04:15:06.805.02-Jul-2020 212.43 2364.44 1565.98 1276.49 57.99 6.00
   04:15:07.005.02-Jul-2020 212.63 2364.45 1565.98 1276.49 57.99 6.00
   04:15:07.205.02-Jul-2020 212.83 2364.44 1565.98 1276.49 57.99 6.00
   04:15:07.405.02-Jul-2020 213.03 2364.44 1565.98 1276.49 57.99 6.00
   04:15:07.605.02-Jul-2020 213.23 2364.44 1565.98 1276.49 57.99 6.00
   04:15:07.805.02-Jul-2020 213.43 2364.42 1565.98 1276.49 57.99 6.00
   04:15:08.005.02-Jul-2020 213.63 2364.42 1565.98 1276.49 57.99 6.00
   04:15:08.205.02-Jul-2020 213.83 2364.47 1565.98 1276.49 57.99 6.00
   04:15:08.405.02-Jul-2020 214.03 2364.42 1565.98 1276.49 57.99 6.00
   04:15:08.605.02-Jul-2020 214.23 2364.42 1565.98 1276.49 57.99 6.00
   04:15:08.805.02-Jul-2020 214.43 2364.46 1565.98 1276.49 57.99 6.00
   04:15:09.006.02-Jul-2020 214.63 2364.44 1565.98 1276.49 58.00 6.00
   04:15:09.206.02-Jul-2020 214.83 2364.45 1565.98 1276.49 58.00 6.00
   04:15:09.406.02-Jul-2020 215.03 2364.46 1565.98 1276.49 58.00 6.00
   04:15:09.606.02-Jul-2020 215.23 2364.46 1565.98 1276.49 58.00 6.00
   04:15:09.806.02-Jul-2020 215.43 2364.36 1565.98 1276.49 58.00 6.00
   04:15:10.006.02-Jul-2020 215.63 2364.43 1565.98 1276.49 58.00 6.00
   04:15:10.206.02-Jul-2020 215.83 2364.38 1565.98 1276.49 58.00 6.00
   04:15:10.406.02-Jul-2020 216.03 2364.42 1565.98 1276.49 58.00 6.00
   04:15:10.606.02-Jul-2020 216.23 2364.42 1565.98 1276.49 58.00 6.00
   04:15:10.806.02-Jul-2020 216.43 2364.37 1565.98 1276.49 58.00 6.00
   04:15:11.006.02-Jul-2020 216.63 2364.35 1565.98 1276.49 58.00 6.00
   04:15:11.206.02-Jul-2020 216.83 2364.35 1565.98 1276.49 58.00 6.00
   04:15:11.406.02-Jul-2020 217.03 2364.35 1565.98 1276.49 58.00 6.00
   04:15:11.606.02-Jul-2020 217.23 2364.35 1565.98 1276.49 58.00 6.00
   04:15:11.806.02-Jul-2020 217.43 2364.36 1565.98 1276.49 58.00 6.00
   04:15:12.006.02-Jul-2020 217.63 2364.37 1565.98 1276.49 58.00 6.00
   04:15:12.206.02-Jul-2020 217.83 2364.41 1565.98 1276.49 58.00 6.00
   04:15:12.406.02-Jul-2020 218.03 2364.37 1565.98 1276.49 58.00 6.00
   04:15:12.606.02-Jul-2020 218.23 2364.37 1565.98 1276.49 58.00 6.00
   04:15:12.806.02-Jul-2020 218.43 2364.40 1565.98 1276.49 58.01 6.00
   04:15:13.006.02-Jul-2020 218.63 2364.40 1565.98 1276.49 58.01 6.00
   04:15:13.206.02-Jul-2020 218.83 2364.41 1565.98 1276.49 58.01 6.00
   04:15:13.406.02-Jul-2020 219.03 2364.42 1565.98 1276.49 58.01 6.00
   04:15:13.606.02-Jul-2020 219.23 2364.42 1565.98 1276.49 58.01 6.00
   04:15:13.806.02-Jul-2020 219.43 2364.44 1565.98 1276.49 58.01 6.00
   04:15:14.006.02-Jul-2020 219.63 2364.46 1565.98 1276.49 58.01 6.00
   04:15:14.206.02-Jul-2020 219.83 2364.44 1565.98 1276.49 58.01 6.00
   04:15:14.406.02-Jul-2020 220.03 2364.45 1565.98 1276.49 58.01 6.00
   04:15:14.606.02-Jul-2020 220.23 2364.46 1565.98 1276.49 58.01 6.00
   04:15:14.806.02-Jul-2020 220.43 2364.46 1565.98 1276.49 58.01 6.00
   04:15:15.006.02-Jul-2020 220.63 2364.49 1565.98 1276.49 58.01 6.00
   04:15:15.207.02-Jul-2020 220.83 2364.43 1565.98 1276.49 58.01 6.00
   04:15:15.407.02-Jul-2020 221.03 2364.46 1565.98 1276.49 58.01 6.00
   04:15:15.607.02-Jul-2020 221.23 2364.46 1565.98 1276.49 58.01 6.00
   04:15:15.807.02-Jul-2020 221.43 2364.45 1565.98 1276.49 58.01 6.00
   04:15:16.007.02-Jul-2020 221.64 2364.47 1565.98 1276.49 58.01 6.00
   04:15:16.207.02-Jul-2020 221.84 2364.51 1565.98 1276.49 58.02 6.00
   04:15:16.407.02-Jul-2020 222.04 2325.23 1565.98 1276.49 58.02 6.00
   04:15:16.607.02-Jul-2020 222.24 2325.23 1565.98 1276.49 58.02 6.00
   04:15:16.807.02-Jul-2020 222.44 2305.61 1565.98 1276.49 58.02 6.00
   04:15:17.007.02-Jul-2020 222.64 2306.13 1565.98 1276.49 58.02 6.00
   04:15:17.207.02-Jul-2020 222.84 2305.54 1565.98 1276.49 58.02 6.00
   04:15:17.407.02-Jul-2020 223.04 2306.19 1565.98 1276.49 58.02 6.00
   04:15:17.607.02-Jul-2020 223.24 2306.19 1565.98 1276.49 58.02 6.00
   04:15:17.807.02-Jul-2020 223.44 2306.59 1565.98 1276.49 58.02 6.00
   04:15:18.007.02-Jul-2020 223.64 2306.75 1565.98 1276.49 58.02 6.00
   04:15:18.207.02-Jul-2020 223.84 2307.15 1565.98 1276.49 58.02 6.00
   04:15:18.407.02-Jul-2020 224.04 2307.17 1565.98 1276.49 58.02 6.00
   04:15:18.607.02-Jul-2020 224.24 2307.24 1565.98 1276.49 58.02 6.00
   04:15:18.807.02-Jul-2020 224.44 2308.26 1565.98 1276.49 58.02 6.00
   04:15:19.007.02-Jul-2020 224.64 2307.90 1565.98 1276.49 58.02 6.00
   04:15:19.207.02-Jul-2020 224.84 2309.71 1565.98 1276.49 58.02 6.00
   04:15:19.407.02-Jul-2020 225.04 2308.73 1565.98 1276.49 58.02 6.00
   04:15:19.607.02-Jul-2020 225.24 2309.42 1565.98 1276.49 58.02 6.00
   04:15:19.807.02-Jul-2020 225.44 2309.66 1565.98 1276.49 58.02 6.00
   04:15:20.007.02-Jul-2020 225.64 2309.26 1565.98 1276.49 58.02 6.00
   04:15:20.207.02-Jul-2020 225.84 2310.14 1565.98 1276.49 58.03 6.00
   04:15:20.407.02-Jul-2020 226.04 2310.73 1565.98 1276.49 58.03 6.00
   04:15:20.607.02-Jul-2020 226.24 2310.73 1565.98 1276.49 58.03 6.00
   04:15:20.807.02-Jul-2020 226.44 2310.87 1565.98 1276.49 58.03 6.00
   04:15:21.007.02-Jul-2020 226.64 2310.79 1565.98 1276.49 58.03 6.00
   04:15:21.207.02-Jul-2020 226.84 2311.13 1565.98 1276.49 58.03 6.00
   04:15:21.407.02-Jul-2020 227.04 2311.35 1565.98 1276.49 58.03 6.00
   04:15:21.608.02-Jul-2020 227.24 2312.13 1565.98 1276.49 58.03 6.00
   04:15:21.808.02-Jul-2020 227.44 2311.70 1565.98 1276.49 58.03 6.00
   04:15:22.008.02-Jul-2020 227.64 2311.67 1565.98 1276.49 58.03 6.00
   04:15:22.208.02-Jul-2020 227.84 2311.88 1565.98 1276.49 58.03 6.00
   04:15:22.408.02-Jul-2020 228.04 2312.01 1565.98 1276.49 58.03 6.00
   04:15:22.608.02-Jul-2020 228.24 2312.92 1565.98 1276.49 58.03 6.00
   04:15:22.808.02-Jul-2020 228.44 2313.37 1565.98 1276.49 58.03 6.00
   04:15:23.008.02-Jul-2020 228.64 2312.92 1565.98 1276.49 58.03 6.00
   04:15:23.208.02-Jul-2020 228.84 2313.50 1565.98 1276.49 58.03 6.00
   04:15:23.408.02-Jul-2020 229.04 2313.70 1565.98 1276.49 58.03 6.00
   04:15:23.608.02-Jul-2020 229.24 2313.70 1565.98 1276.49 58.03 6.00
   04:15:23.808.02-Jul-2020 229.44 2314.66 1565.98 1276.49 58.03 6.00
   04:15:24.008.02-Jul-2020 229.64 2313.49 1565.98 1276.49 58.03 6.00
   04:15:24.208.02-Jul-2020 229.84 2314.51 1565.98 1276.49 58.04 6.00
