~Version Information
 VERS.                  2.0:   CWLS log ASCII Standard -VERSION 2.0
 WRAP.                   NO:   One line per depth step
~Well Information Block
#MNEM.UNIT     VALUE/NAME     DESCRIPTION
#---------     -----------    ---------------------------
 STRT.S             04:11:34 02-Jul-20: START TIME 04:11:34 02-Jul-20
 STOP.S             04:20:35 02-Jul-20: STOP TIME  04:20:35 02-Jul-20
 STEP.S                   0.00: STEP TIME
 NULL.                 -999.25: NULL VALUE
 DFWT.                        :  DIST FWL TEXT
 DFST.                        :  DIST FSL TEXT
 DMF .             Drill Floor:  DRILL MEAS FROM
 STIM.      09.59.28 01-Jun-20:  START TIME
 DATE.      09.59.28 01-Jun-20:  END TIME
 SPUD.               01-Jun-20:  SPUD DATE
 NREF.                    Grid:  NORTH REFERENCE
 HPTY.       Minimum Curvature:  HOLE POS TYPE
 DMOD.             Drill Model:  DRILL MOD DESC
 SVYD.                  Survey:  SURVEY DESC
 ILTD.               Lithology:  INTERP LTH DESC
 FTOP.          Formation Tops:  FORM TOPS DESC
 SON .        AZ-XX-0905455768:  JOB NUMBER
 WTYP.                Deviated:  WELL TYPE
 COMP.     BP Exploration(Caspian Sea):  COMPANY
 BASE.              Azerbaijan:  LOGGING EQUIPMENT BASE LOCATION
 REGN.                   EESSA:  REGION
 CTRY.              Azerbaijan:  COUNTRY NAME
 FLD .                     ACG:  FIELD NAME
 SRVC.          Turan Drilling:  CONTRACTOR
 WELL.                     B41:  WELL NAME
 RIG .           Central Azeri:  RIG NAME
 DCON.         Sperry Drilling:  DIRECTNL CONTR
 PDAT.          Mean Sea Level:  PERMANENT DATUM
 MDS .        Operator Entered:  MAG DATA SOURCE
 API .                        :  API NUMBER
 CNTY.                        :  COUNTY
 PROV.                        :  PROVINCE
 STAT.                        :  STATE
 UWI .                        :  UNIQUE WELL IDENTIFIER
 LOC .                        :  LOCATION
 LMF .             Drill Floor:  LOG MEASURED FROM
 TVDS.m                  43.29:  TVDSS CORRECTN
 LATI.deg                40.03:  LATITUDE
 LONG.deg                51.35:  LONGITUDE
 WHNS.m                  12.98:  WELL HEAD N/S
 WHEW.m                  -6.62:  WELL HEAD E/W
 UTMX.m              530128.28:  UTM X
 UTMY.m             4433192.49:  UTM Y
 DFWL.m                   0.00:  DISTANCE FWL
 DFSL.m                   0.00:  DISTANCE FSL
 SDEP.m                 378.00:  START DEPTH
 TDD .m                   0.00:  TOTAL DEPTH (DRILLER)
 VSDR.deg               296.18:  VERT SEC DIRECT
 GVFD.g                   1.00:  GRAVITY FIELD
 MFLD.nT              50253.00:  MAGNETIC FIELD
 MDIP.deg                59.49:  MAGNETIC DIP
 MDEC.deg                 6.44:  MAGNETIC DECL
 GRDC.deg                 0.22:  GRID CORRECTION
 AZTC.deg                 6.22:  AZM TOTAL CORR
 EPD .m                   0.00:  ELEVATION
 EGL .m                   0.00:  GROUND ELEVATION
 WDMS.m                 128.20:  WD ELEV
 APD .m                  43.29:  DEPTH ABOVE PD
 AGAP.m                  43.29:  AIR GAP
 VSEW.m                  -6.62:  VERT SEC E/W
 VSNS.m                  12.98:  VERT SEC N/S
 EKB .m                  43.29:  KB ELEVATION
 EDF .m                  43.29:  DF ELEVATION
 TDL .m                1152.00:  TOTAL DEPTH (LOGGER)
 VSC .                       0:  VS TO CLOSURE
 MAGU.                 1848525:  MAGUTM CHECKSUM
~Parameter Information Block
#MNEM.UNIT       Value        Description
#---------     -----------    ---------------------------
 AV  .mps                 0.40:  Ann Velocity 
 AVMX.mps                 1.56:  Max Ann Veloc 
 AZIF.deg               300.46:  Azm, Final 
 BHAT.        Rotary Steerable:  BHA Type 
 BROT.°/30m               0.40:  Build Rotating 
 BS  .in                 17.50:  Bit Size 
 BSZ .in                 17.50:  Bit Size 
 BTPL.psig              300.00:  Bit Press Loss 
 CABU.                      No:  Customer Abuse 
 CGEO.          Parviz Guliyev:  Customer Geo 
 TCS .hr                108.13:  Time Ciculation Ended 
 CV  .mps                 0.50:  Crit Velocity 
 CVMX.mps                 2.01:  Max Crit Veloc 
 DD1 .          Fariz Nahmatov:  Direct Drillr 1 
 DD2 .             Ehab Radwan:  Direct Drillr 2 
 DDSV.               Geo-Pilot:  DD Service 
 DEFF.%                  99.00:  % Det Eff 
 DLRX.°/30m               0.50:  Dogleg Rot Max 
 DLSO.°/30m               2.80:  Dogleg Oriented 
 DLSX.°/30m               3.90:  Dogleg Str Max 
 DRET.      09.30.04 03-Jul-20:  Drill End Time 
 DRST.      18.33.04 28-Jun-20:  Drill Start Tim 
 DTIM.hr                 55.83:  Time Drilling 
 EDEP.m                1952.00:  End Depth 
 ENG1.      Bakhtiyar Jabbarli:  Engineer 1 
 ENG2.         Farhad Orujzade:  Engineer 2 
 ENG3.          Rustam Safarov:  Engineer 3 
 ETIM.      01.33.04 04-Jul-20:  End Time 
 FLOI.gpm              1050.00:  Flow In 
 FLON.gpm               950.00:  Flow In Min 
 FLOS.cptm                0.10:  Fluid Loss 
 FLOX.gpm              1150.00:  Flow In Max 
 HFLO.                      No:  High Flow 
 HPRE.                      No:  High Pressure 
 HTEM.                      No:  High Temp 
 HYDO.m                   1.80:  Hydro Offset 
 IFIN.deg                75.26:  Inc, Final 
 IMAX.deg                75.38:  Inc Max 
 IMIN.deg                22.84:  Inc Min 
 IMND.m                 832.38:  Inc Min Depth 
 IMXD.m                1936.55:  Inc Max Depth 
 JARR.                      No:  Jarring 
 LETM.      17.40.00 04-Jul-20:  Log End Time 
 LOST.hr                     0:  Lost Rig Time 
 LSTM.      12.33.04 28-Jun-20:  Log Start Time 
 MDCL.ppm             49500.00:  Mud Chlorides 
 MDES.     Inversion Oil/Synthetic:  Mud Desc 
 DFD .sg                  1.46:  Mud Density 
 MDMN.sg                  1.46:  Dens Mud Min 
 MDMX.sg                  1.46:  Dens Mud Max 
 MOIL.                      70:  Run Mud Oil % 
 MOWR.                   70:30:  Run Mud OWR 
 MSND.                     0.5:  Run Mud Sand % 
 MSOL.                   19.89:  Run Mud Solids% 
 DFV .spqt               72.00:  Mud Viscosity 
 MWOD.in                  9.50:  MWD Tool OD 
 MWSI.                      No:  Serv Intrp, MWD 
 OTIM.hr                146.53:  Time Operating 
 PCON.           Look Like New:  Pad Condition 
 PMAX.psia             2900.00:  Press Op, Max 
 PV  .cP                 38.00:  Mud PV 
 RUN .                     600:  Run Number 
 ROPA.m/hr               22.00:  ROP Avg 
 ROPN.m/hr               10.00:  ROP Min 
 ROPX.m/hr              263.00:  ROP Max 
 RPMA.rpm               155.00:  RPM Surface Avg 
 RPMN.rpm               140.00:  RPM Surface Min 
 RPMX.rpm               160.00:  RPM Surface Max 
 RRUN.                    0600:  Rig Run Number 
 RTIM.hr                  5.00:  Time Reaming 
 SAZI.deg               300.08:  Azm, Start 
 SDEP.m                 800.00:  Start Depth 
 SIDD.                      No:  Serv Intrp, DD 
 SINC.deg                22.84:  Inc, Start 
 SPPA.psig             3000.00:  SPP Avg 
 SPPN.psig             1900.00:  SPP Min 
 SPPX.psig             3200.00:  SPP Max 
 STIM.      12.30.04 28-Jun-20:  Start Time 
 SVCS.                 DD, MWD:  Services 
 SVER.                    9.20:  Sperry Version 
 TDAT.m                1952.00:  Tot Depth Attmp 
 TDDF.                      No:  Trip for DD 
 TDLG.m                1152.00:  Tot Depth Loggd 
 TFF .                      No:  Trip for Fail 
 TQAA.f-kp                8.00:  Torque Abs Avg 
 TQAN.f-kp                5.00:  Torque Abs Min 
 TQAX.f-kp               14.00:  Torque Abs Max 
 TRRT.°/30m               0.50:  Turn Rotating 
 MRT .                  EWR-M5:  Maximum Recorded Temperature 
 TTMX.degC               69.00:  Max Tool Temp 
 VS01.                90610313:  Virtual Str1 SN 
 VS02.                90613431:  Virtual Str2 SN 
 VS03.                90615410:  Virtual Str3 SN 
 WBMN.klb                 6.00:  WOB Min 
 WITN.            Bruce Cheyne:  Customer Rep 
 WITN.             Ayaz Aliyev:  Customer Rep 2 
 WOBA.klb                 6.00:  WOB Avg 
 WOBX.klb                10.00:  WOB Max 
 YP  .lhf2               36.00:  Yield Point 
~Curve Information Block
#MNEM.UNIT                 API CODE     Curve Description
#---------               -----------    ---------------------------
 TIME.HHMMSS            00 000 000 000:  GT Time & Date
 GTET.sec               00 000 000 000:  GT Elapsed Test Time
 GTPQH.psia             00 000 000 000:  GT HR Quartz Pressure
 GTDEPTH.m              00 000 000 000:  GT Depth
 GTTVD.m                00 000 000 000:  GT True Vertical Depth
 GTTQ.degC              00 000 000 000:  GT Quartz Temperature
 GTTN.NONE              00 000 000 000:  GT Test Number
#Other Information
#
#WARRANTY: Halliburton will use its best efforts to furnish customers with 
#accurate information and interpretations that are part of, and incident to, the services 
#provided.  However, Halliburton cannot and does not warrant the accuracy 
#or correctness of such information and interpretations.  Under no circumstances should any 
#such information or interpretation be relied upon as the sole basis for any drilling, 
#completion, production, or financial decision or any procedure involving any risk to the 
#safety of any drilling venture, drilling rig or its crew or any other third party.  The 
#Customer has full responsibility for all drilling, completion and production operation.  
#Halliburton makes no representations or warranties, either expressed or 
#implied, including, but not limited to, the implied warranties of merchantability or fitness 
#for a particular purpose, with respect to the services rendered.  In no event will 
#Halliburton be liable for failure to obtain any particular results or for 
#any damages, including, but not limited to, indirect, special or consequential damages, 
#resulting from the use of any information or interpretation provided by Halliburton.
#
~A           TIME            GTET   GTPQH  GTDEPTH  GTTVD  GTTQ  GTTN 
# ...
   04:16:10.415.02-Jul-2020 276.04 2364.10 1565.98 1276.49 58.15 6.00
   04:16:10.615.02-Jul-2020 276.24 2364.10 1565.98 1276.49 58.15 6.00
   04:16:10.815.02-Jul-2020 276.44 2364.09 1565.98 1276.49 58.15 6.00
   04:16:11.015.02-Jul-2020 276.64 2364.14 1565.98 1276.49 58.15 6.00
   04:16:11.215.02-Jul-2020 276.84 2364.10 1565.98 1276.49 58.15 6.00
   04:16:11.415.02-Jul-2020 277.04 2364.12 1565.98 1276.49 58.16 6.00
   04:16:11.615.02-Jul-2020 277.24 2364.12 1565.98 1276.49 58.16 6.00
   04:16:11.815.02-Jul-2020 277.44 2364.12 1565.98 1276.49 58.16 6.00
   04:16:12.015.02-Jul-2020 277.64 2364.13 1565.98 1276.49 58.16 6.00
   04:16:12.216.02-Jul-2020 277.84 2364.14 1565.98 1276.49 58.16 6.00
   04:16:12.416.02-Jul-2020 278.04 2364.10 1565.98 1276.49 58.16 6.00
   04:16:12.616.02-Jul-2020 278.24 2364.07 1565.98 1276.49 58.16 6.00
   04:16:12.816.02-Jul-2020 278.44 2364.14 1565.98 1276.49 58.16 6.00
   04:16:13.016.02-Jul-2020 278.64 2364.11 1565.98 1276.49 58.16 6.00
   04:16:13.216.02-Jul-2020 278.84 2364.09 1565.98 1276.49 58.16 6.00
   04:16:13.416.02-Jul-2020 279.04 2364.10 1565.98 1276.49 58.16 6.00
   04:16:13.616.02-Jul-2020 279.24 2364.10 1565.98 1276.49 58.16 6.00
   04:16:13.816.02-Jul-2020 279.44 2364.12 1565.98 1276.49 58.16 6.00
   04:16:14.016.02-Jul-2020 279.64 2364.11 1565.98 1276.49 58.16 6.00
   04:16:14.216.02-Jul-2020 279.84 2364.11 1565.98 1276.49 58.16 6.00
   04:16:14.416.02-Jul-2020 280.04 2364.14 1565.98 1276.49 58.16 6.00
   04:16:14.616.02-Jul-2020 280.24 2364.11 1565.98 1276.49 58.16 6.00
   04:16:14.816.02-Jul-2020 280.44 2364.12 1565.98 1276.49 58.16 6.00
   04:16:15.016.02-Jul-2020 280.64 2364.11 1565.98 1276.49 58.16 6.00
   04:16:15.216.02-Jul-2020 280.84 2364.11 1565.98 1276.49 58.16 6.00
   04:16:15.416.02-Jul-2020 281.04 2364.11 1565.98 1276.49 58.16 6.00
   04:16:15.616.02-Jul-2020 281.24 2364.11 1565.98 1276.49 58.16 6.00
   04:16:15.816.02-Jul-2020 281.44 2364.11 1565.98 1276.49 58.17 6.00
   04:16:16.016.02-Jul-2020 281.64 2364.09 1565.98 1276.49 58.17 6.00
   04:16:16.216.02-Jul-2020 281.84 2364.12 1565.98 1276.49 58.17 6.00
   04:16:16.416.02-Jul-2020 282.04 2364.11 1565.98 1276.49 58.17 6.00
   04:16:16.616.02-Jul-2020 282.24 2364.11 1565.98 1276.49 58.17 6.00
   04:16:16.816.02-Jul-2020 282.44 2364.12 1565.98 1276.49 58.17 6.00
   04:16:17.016.02-Jul-2020 282.64 2364.11 1565.98 1276.49 58.17 6.00
   04:16:17.216.02-Jul-2020 282.84 2364.09 1565.98 1276.49 58.17 6.00
   04:16:17.416.02-Jul-2020 283.04 2364.10 1565.98 1276.49 58.17 6.00
   04:16:17.616.02-Jul-2020 283.24 2364.10 1565.98 1276.49 58.17 6.00
   04:16:17.816.02-Jul-2020 283.44 2364.13 1565.98 1276.49 58.17 6.00
   04:16:18.016.02-Jul-2020 283.64 2364.11 1565.98 1276.49 58.17 6.00
   04:16:18.216.02-Jul-2020 283.84 2364.09 1565.98 1276.49 58.17 6.00
   04:16:18.416.02-Jul-2020 284.04 2364.15 1565.98 1276.49 58.17 6.00
   04:16:18.617.02-Jul-2020 284.24 2364.11 1565.98 1276.49 58.17 6.00
   04:16:18.817.02-Jul-2020 284.44 2364.11 1565.98 1276.49 58.17 6.00
   04:16:19.017.02-Jul-2020 284.64 2364.14 1565.98 1276.49 58.17 6.00
   04:16:19.217.02-Jul-2020 284.85 2364.14 1565.98 1276.49 58.17 6.00
   04:16:19.417.02-Jul-2020 285.05 2364.14 1565.98 1276.49 58.17 6.00
   04:16:19.617.02-Jul-2020 285.25 2364.14 1565.98 1276.49 58.17 6.00
   04:16:19.817.02-Jul-2020 285.45 2364.13 1565.98 1276.49 58.17 6.00
   04:16:20.017.02-Jul-2020 285.65 2364.16 1565.98 1276.49 58.18 6.00
   04:16:20.217.02-Jul-2020 285.85 2364.16 1565.98 1276.49 58.18 6.00
   04:16:20.417.02-Jul-2020 286.05 2364.18 1565.98 1276.49 58.18 6.00
   04:16:20.617.02-Jul-2020 286.25 2364.18 1565.98 1276.49 58.18 6.00
   04:16:20.817.02-Jul-2020 286.45 2364.16 1565.98 1276.49 58.18 6.00
   04:16:21.017.02-Jul-2020 286.65 2364.17 1565.98 1276.49 58.18 6.00
   04:16:21.217.02-Jul-2020 286.85 2364.19 1565.98 1276.49 58.18 6.00
   04:16:21.417.02-Jul-2020 287.05 2364.19 1565.98 1276.49 58.18 6.00
   04:16:21.617.02-Jul-2020 287.25 2364.19 1565.98 1276.49 58.18 6.00
   04:16:21.817.02-Jul-2020 287.45 2364.20 1565.98 1276.49 58.18 6.00
   04:16:22.017.02-Jul-2020 287.65 2364.11 1565.98 1276.49 58.18 6.00
   04:16:22.217.02-Jul-2020 287.85 2364.15 1565.98 1276.49 58.18 6.00
   04:16:22.417.02-Jul-2020 288.05 2364.19 1565.98 1276.49 58.18 6.00
   04:16:22.617.02-Jul-2020 288.25 2364.15 1565.98 1276.49 58.18 6.00
   04:16:22.817.02-Jul-2020 288.45 2364.15 1565.98 1276.49 58.18 6.00
   04:16:23.017.02-Jul-2020 288.65 2364.17 1565.98 1276.49 58.18 6.00
   04:16:23.217.02-Jul-2020 288.85 2364.16 1565.98 1276.49 58.18 6.00
   04:16:23.417.02-Jul-2020 289.05 2364.18 1565.98 1276.49 58.18 6.00
   04:16:23.617.02-Jul-2020 289.25 2364.18 1565.98 1276.49 58.18 6.00
   04:16:23.817.02-Jul-2020 289.45 2364.17 1565.98 1276.49 58.18 6.00
   04:16:24.017.02-Jul-2020 289.65 2364.18 1565.98 1276.49 58.18 6.00
   04:16:24.217.02-Jul-2020 289.85 2364.18 1565.98 1276.49 58.18 6.00
   04:16:24.417.02-Jul-2020 290.05 2364.17 1565.98 1276.49 58.19 6.00
   04:16:24.617.02-Jul-2020 290.25 2364.17 1565.98 1276.49 58.19 6.00
   04:16:24.818.02-Jul-2020 290.45 2364.16 1565.98 1276.49 58.19 6.00
   04:16:25.018.02-Jul-2020 290.65 2364.17 1565.98 1276.49 58.19 6.00
   04:16:25.218.02-Jul-2020 290.85 2364.22 1565.98 1276.49 58.19 6.00
   04:16:25.418.02-Jul-2020 291.05 2364.16 1565.98 1276.49 58.19 6.00
   04:16:25.618.02-Jul-2020 291.25 2364.16 1565.98 1276.49 58.19 6.00
   04:16:25.818.02-Jul-2020 291.45 2364.21 1565.98 1276.49 58.19 6.00
   04:16:26.018.02-Jul-2020 291.65 2364.16 1565.98 1276.49 58.19 6.00
   04:16:26.218.02-Jul-2020 291.85 2364.16 1565.98 1276.49 58.19 6.00
   04:16:26.418.02-Jul-2020 292.05 2364.16 1565.98 1276.49 58.19 6.00
   04:16:26.618.02-Jul-2020 292.25 2364.16 1565.98 1276.49 58.19 6.00
   04:16:26.818.02-Jul-2020 292.45 2364.16 1565.98 1276.49 58.19 6.00
   04:16:27.018.02-Jul-2020 292.65 2364.13 1565.98 1276.49 58.19 6.00
   04:16:27.218.02-Jul-2020 292.85 2364.16 1565.98 1276.49 58.19 6.00
   04:16:27.418.02-Jul-2020 293.05 2364.19 1565.98 1276.49 58.19 6.00
   04:16:27.618.02-Jul-2020 293.25 2364.19 1565.98 1276.49 58.19 6.00
   04:16:27.818.02-Jul-2020 293.45 2364.12 1565.98 1276.49 58.19 6.00
   04:16:28.018.02-Jul-2020 293.65 2364.22 1565.98 1276.49 58.19 6.00
   04:16:28.218.02-Jul-2020 293.85 2364.16 1565.98 1276.49 58.19 6.00
   04:16:28.418.02-Jul-2020 294.05 2364.15 1565.98 1276.49 58.19 6.00
   04:16:28.618.02-Jul-2020 294.25 2364.15 1565.98 1276.49 58.19 6.00
   04:16:28.818.02-Jul-2020 294.45 2364.18 1565.98 1276.49 58.20 6.00
   04:16:29.018.02-Jul-2020 294.65 2364.19 1565.98 1276.49 58.20 6.00
   04:16:29.218.02-Jul-2020 294.85 2364.19 1565.98 1276.49 58.20 6.00
   04:16:29.418.02-Jul-2020 295.05 2364.20 1565.98 1276.49 58.20 6.00
   04:16:29.618.02-Jul-2020 295.25 2364.20 1565.98 1276.49 58.20 6.00
   04:16:29.818.02-Jul-2020 295.45 2364.23 1565.98 1276.49 58.20 6.00
   04:16:30.018.02-Jul-2020 295.65 2364.19 1565.98 1276.49 58.20 6.00
   04:16:30.218.02-Jul-2020 295.85 2364.24 1565.98 1276.49 58.20 6.00
   04:16:30.418.02-Jul-2020 296.05 2364.20 1565.98 1276.49 58.20 6.00
   04:16:30.618.02-Jul-2020 296.25 2364.21 1565.98 1276.49 58.20 6.00
   04:16:30.818.02-Jul-2020 296.45 2364.24 1565.98 1276.49 58.20 6.00
   04:16:31.018.02-Jul-2020 296.65 2364.22 1565.98 1276.49 58.20 6.00
   04:16:31.219.02-Jul-2020 296.85 2364.19 1565.98 1276.49 58.20 6.00
   04:16:31.419.02-Jul-2020 297.05 2364.23 1565.98 1276.49 58.20 6.00
   04:16:31.619.02-Jul-2020 297.25 2364.23 1565.98 1276.49 58.20 6.00
   04:16:31.819.02-Jul-2020 297.45 2364.18 1565.98 1276.49 58.20 6.00
   04:16:32.019.02-Jul-2020 297.65 2364.20 1565.98 1276.49 58.20 6.00
   04:16:32.219.02-Jul-2020 297.85 2364.19 1565.98 1276.49 58.20 6.00
   04:16:32.419.02-Jul-2020 298.05 2364.19 1565.98 1276.49 58.20 6.00
   04:16:32.619.02-Jul-2020 298.25 2364.20 1565.98 1276.49 58.20 6.00
   04:16:32.819.02-Jul-2020 298.45 2364.20 1565.98 1276.49 58.20 6.00
   04:16:33.019.02-Jul-2020 298.65 2364.22 1565.98 1276.49 58.20 6.00
   04:16:33.219.02-Jul-2020 298.85 2364.22 1565.98 1276.49 58.20 6.00
