~Version Information
 VERS.                  2.0:   CWLS log ASCII Standard -VERSION 2.0
 WRAP.                   NO:   One line per depth step
~Well Information Block
#MNEM.UNIT     VALUE/NAME     DESCRIPTION
#---------     -----------    ---------------------------
 STRT.S             20:59:46 30-Jun-20: START TIME 20:59:46 30-Jun-20
 STOP.S             21:08:48 30-Jun-20: STOP TIME  21:08:48 30-Jun-20
 STEP.S                   0.00: STEP TIME
 NULL.                 -999.25: NULL VALUE
 DFWT.                        :  DIST FWL TEXT
 DFST.                        :  DIST FSL TEXT
 DMF .             Drill Floor:  DRILL MEAS FROM
 STIM.      09.59.28 01-Jun-20:  START TIME
 DATE.      09.59.28 01-Jun-20:  END TIME
 SPUD.               01-Jun-20:  SPUD DATE
 NREF.                    Grid:  NORTH REFERENCE
 HPTY.       Minimum Curvature:  HOLE POS TYPE
 DMOD.             Drill Model:  DRILL MOD DESC
 SVYD.                  Survey:  SURVEY DESC
 ILTD.               Lithology:  INTERP LTH DESC
 FTOP.          Formation Tops:  FORM TOPS DESC
 SON .        AZ-XX-0905455768:  JOB NUMBER
 WTYP.                Deviated:  WELL TYPE
 COMP.     BP Exploration(Caspian Sea):  COMPANY
 BASE.              Azerbaijan:  LOGGING EQUIPMENT BASE LOCATION
 REGN.                   EESSA:  REGION
 CTRY.              Azerbaijan:  COUNTRY NAME
 FLD .                     ACG:  FIELD NAME
 SRVC.          Turan Drilling:  CONTRACTOR
 WELL.                     B41:  WELL NAME
 RIG .           Central Azeri:  RIG NAME
 DCON.         Sperry Drilling:  DIRECTNL CONTR
 PDAT.          Mean Sea Level:  PERMANENT DATUM
 MDS .        Operator Entered:  MAG DATA SOURCE
 API .                        :  API NUMBER
 CNTY.                        :  COUNTY
 PROV.                        :  PROVINCE
 STAT.                        :  STATE
 UWI .                        :  UNIQUE WELL IDENTIFIER
 LOC .                        :  LOCATION
 LMF .             Drill Floor:  LOG MEASURED FROM
 TVDS.m                  43.29:  TVDSS CORRECTN
 LATI.deg                40.03:  LATITUDE
 LONG.deg                51.35:  LONGITUDE
 WHNS.m                  12.98:  WELL HEAD N/S
 WHEW.m                  -6.62:  WELL HEAD E/W
 UTMX.m              530128.28:  UTM X
 UTMY.m             4433192.49:  UTM Y
 DFWL.m                   0.00:  DISTANCE FWL
 DFSL.m                   0.00:  DISTANCE FSL
 SDEP.m                 378.00:  START DEPTH
 TDD .m                   0.00:  TOTAL DEPTH (DRILLER)
 VSDR.deg               296.18:  VERT SEC DIRECT
 GVFD.g                   1.00:  GRAVITY FIELD
 MFLD.nT              50253.00:  MAGNETIC FIELD
 MDIP.deg                59.49:  MAGNETIC DIP
 MDEC.deg                 6.44:  MAGNETIC DECL
 GRDC.deg                 0.22:  GRID CORRECTION
 AZTC.deg                 6.22:  AZM TOTAL CORR
 EPD .m                   0.00:  ELEVATION
 EGL .m                   0.00:  GROUND ELEVATION
 WDMS.m                 128.20:  WD ELEV
 APD .m                  43.29:  DEPTH ABOVE PD
 AGAP.m                  43.29:  AIR GAP
 VSEW.m                  -6.62:  VERT SEC E/W
 VSNS.m                  12.98:  VERT SEC N/S
 EKB .m                  43.29:  KB ELEVATION
 EDF .m                  43.29:  DF ELEVATION
 TDL .m                1152.00:  TOTAL DEPTH (LOGGER)
 VSC .                       0:  VS TO CLOSURE
 MAGU.                 1848525:  MAGUTM CHECKSUM
~Parameter Information Block
#MNEM.UNIT       Value        Description
#---------     -----------    ---------------------------
 AV  .mps                 0.40:  Ann Velocity 
 AVMX.mps                 1.56:  Max Ann Veloc 
 AZIF.deg               300.46:  Azm, Final 
 BHAT.        Rotary Steerable:  BHA Type 
 BROT.°/30m               0.40:  Build Rotating 
 BS  .in                 17.50:  Bit Size 
 BSZ .in                 17.50:  Bit Size 
 BTPL.psig              300.00:  Bit Press Loss 
 CABU.                      No:  Customer Abuse 
 CGEO.          Parviz Guliyev:  Customer Geo 
 COMM.                     ÜRt:  Run Comments 1 
 TCS .hr                108.13:  Time Ciculation Ended 
 CV  .mps                 0.50:  Crit Velocity 
 CVMX.mps                 2.01:  Max Crit Veloc 
 DD1 .          Fariz Nahmatov:  Direct Drillr 1 
 DD2 .             Ehab Radwan:  Direct Drillr 2 
 DDSV.               Geo-Pilot:  DD Service 
 DEFF.%                  99.00:  % Det Eff 
 DLRX.°/30m               0.50:  Dogleg Rot Max 
 DLSO.°/30m               2.80:  Dogleg Oriented 
 DLSX.°/30m               3.90:  Dogleg Str Max 
 DRET.      09.30.04 03-Jul-20:  Drill End Time 
 DRST.      18.33.04 28-Jun-20:  Drill Start Tim 
 DTIM.hr                 55.83:  Time Drilling 
 EDEP.m                1952.00:  End Depth 
 ENG1.      Bakhtiyar Jabbarli:  Engineer 1 
 ENG2.         Farhad Orujzade:  Engineer 2 
 ENG3.          Rustam Safarov:  Engineer 3 
 ETIM.      01.33.04 04-Jul-20:  End Time 
 FLOI.gpm              1050.00:  Flow In 
 FLON.gpm               950.00:  Flow In Min 
 FLOS.cptm                0.10:  Fluid Loss 
 FLOX.gpm              1150.00:  Flow In Max 
 HFLO.                      No:  High Flow 
 HPRE.                      No:  High Pressure 
 HTEM.                      No:  High Temp 
 HYDO.m                   1.80:  Hydro Offset 
 IFIN.deg                75.26:  Inc, Final 
 IMAX.deg                75.38:  Inc Max 
 IMIN.deg                22.84:  Inc Min 
 IMND.m                 832.38:  Inc Min Depth 
 IMXD.m                1936.55:  Inc Max Depth 
 JARR.                      No:  Jarring 
 LETM.      17.40.00 04-Jul-20:  Log End Time 
 LOST.hr                     0:  Lost Rig Time 
 LSTM.      12.33.04 28-Jun-20:  Log Start Time 
 MDCL.ppm             49500.00:  Mud Chlorides 
 MDES.     Inversion Oil/Synthetic:  Mud Desc 
 DFD .sg                  1.46:  Mud Density 
 MDMN.sg                  1.46:  Dens Mud Min 
 MDMX.sg                  1.46:  Dens Mud Max 
 MOIL.                      70:  Run Mud Oil % 
 MOWR.                   70:30:  Run Mud OWR 
 MSND.                     0.5:  Run Mud Sand % 
 MSOL.                   19.89:  Run Mud Solids% 
 DFV .spqt               72.00:  Mud Viscosity 
 MWOD.in                  9.50:  MWD Tool OD 
 MWSI.                      No:  Serv Intrp, MWD 
 OTIM.hr                146.53:  Time Operating 
 PCON.           Look Like New:  Pad Condition 
 PMAX.psia             2900.00:  Press Op, Max 
 PV  .cP                 38.00:  Mud PV 
 RUN .                     600:  Run Number 
 ROPA.m/hr               22.00:  ROP Avg 
 ROPN.m/hr               10.00:  ROP Min 
 ROPX.m/hr              263.00:  ROP Max 
 RPMA.rpm               155.00:  RPM Surface Avg 
 RPMN.rpm               140.00:  RPM Surface Min 
 RPMX.rpm               160.00:  RPM Surface Max 
 RRUN.                    0600:  Rig Run Number 
 RTIM.hr                  5.00:  Time Reaming 
 SAZI.deg               300.08:  Azm, Start 
 SDEP.m                 800.00:  Start Depth 
 SIDD.                      No:  Serv Intrp, DD 
 SINC.deg                22.84:  Inc, Start 
 SPPA.psig             3000.00:  SPP Avg 
 SPPN.psig             1900.00:  SPP Min 
 SPPX.psig             3200.00:  SPP Max 
 STIM.      12.30.04 28-Jun-20:  Start Time 
 SVCS.                 DD, MWD:  Services 
 SVER.                    9.20:  Sperry Version 
 TDAT.m                1952.00:  Tot Depth Attmp 
 TDDF.                      No:  Trip for DD 
 TDLG.m                1152.00:  Tot Depth Loggd 
 TFF .                      No:  Trip for Fail 
 TQAA.f-kp                8.00:  Torque Abs Avg 
 TQAN.f-kp                5.00:  Torque Abs Min 
 TQAX.f-kp               14.00:  Torque Abs Max 
 TRRT.°/30m               0.50:  Turn Rotating 
 MRT .                  EWR-M5:  Maximum Recorded Temperature 
 TTMX.degC               69.00:  Max Tool Temp 
 VS01.                90610313:  Virtual Str1 SN 
 VS02.                90613431:  Virtual Str2 SN 
 VS03.                90615410:  Virtual Str3 SN 
 WBMN.klb                 6.00:  WOB Min 
 WITN.            Bruce Cheyne:  Customer Rep 
 WITN.             Ayaz Aliyev:  Customer Rep 2 
 WOBA.klb                 6.00:  WOB Avg 
 WOBX.klb                10.00:  WOB Max 
 YP  .lhf2               36.00:  Yield Point 
~Curve Information Block
#MNEM.UNIT                 API CODE     Curve Description
#---------               -----------    ---------------------------
 TIME.HHMMSS            00 000 000 000:  GT Time & Date
 GTET.sec               00 000 000 000:  GT Elapsed Test Time
 GTPQH.psia             00 000 000 000:  GT HR Quartz Pressure
 GTDEPTH.m              00 000 000 000:  GT Depth
 GTTVD.m                00 000 000 000:  GT True Vertical Depth
 GTTQ.degC              00 000 000 000:  GT Quartz Temperature
 GTTN.NONE              00 000 000 000:  GT Test Number
#Other Information
#
#WARRANTY: Halliburton will use its best efforts to furnish customers with 
#accurate information and interpretations that are part of, and incident to, the services 
#provided.  However, Halliburton cannot and does not warrant the accuracy 
#or correctness of such information and interpretations.  Under no circumstances should any 
#such information or interpretation be relied upon as the sole basis for any drilling, 
#completion, production, or financial decision or any procedure involving any risk to the 
#safety of any drilling venture, drilling rig or its crew or any other third party.  The 
#Customer has full responsibility for all drilling, completion and production operation.  
#Halliburton makes no representations or warranties, either expressed or 
#implied, including, but not limited to, the implied warranties of merchantability or fitness 
#for a particular purpose, with respect to the services rendered.  In no event will 
#Halliburton be liable for failure to obtain any particular results or for 
#any damages, including, but not limited to, indirect, special or consequential damages, 
#resulting from the use of any information or interpretation provided by Halliburton.
#
~A           TIME            GTET   GTPQH  GTDEPTH  GTTVD  GTTQ  GTTN 
# ...
   21:07:49.851.30-Jun-2020 483.09 2105.04 1143.02 1083.79 62.10 3.00
   21:07:50.051.30-Jun-2020 483.29 2105.05 1143.02 1083.79 62.10 3.00
   21:07:50.251.30-Jun-2020 483.49 2105.04 1143.02 1083.79 62.10 3.00
   21:07:50.451.30-Jun-2020 483.69 2105.04 1143.02 1083.79 62.10 3.00
   21:07:50.651.30-Jun-2020 483.89 2105.04 1143.02 1083.79 62.10 3.00
   21:07:50.851.30-Jun-2020 484.09 2105.04 1143.02 1083.79 62.10 3.00
   21:07:51.051.30-Jun-2020 484.29 2105.04 1143.02 1083.79 62.10 3.00
   21:07:51.251.30-Jun-2020 484.49 2105.03 1143.02 1083.79 62.09 3.00
   21:07:51.451.30-Jun-2020 484.69 2105.02 1143.02 1083.79 62.09 3.00
   21:07:51.651.30-Jun-2020 484.89 2105.01 1143.02 1083.79 62.09 3.00
   21:07:51.851.30-Jun-2020 485.09 2105.06 1143.02 1083.79 62.09 3.00
   21:07:52.051.30-Jun-2020 485.29 2105.06 1143.02 1083.79 62.09 3.00
   21:07:52.252.30-Jun-2020 485.49 2105.05 1143.02 1083.79 62.09 3.00
   21:07:52.452.30-Jun-2020 485.69 2105.05 1143.02 1083.79 62.09 3.00
   21:07:52.652.30-Jun-2020 485.89 2105.02 1143.02 1083.79 62.09 3.00
   21:07:52.852.30-Jun-2020 486.09 2105.06 1143.02 1083.79 62.09 3.00
   21:07:53.052.30-Jun-2020 486.29 2105.06 1143.02 1083.79 62.09 3.00
   21:07:53.252.30-Jun-2020 486.49 2105.06 1143.02 1083.79 62.09 3.00
   21:07:53.452.30-Jun-2020 486.69 2105.06 1143.02 1083.79 62.09 3.00
   21:07:53.652.30-Jun-2020 486.89 2105.04 1143.02 1083.79 62.09 3.00
   21:07:53.852.30-Jun-2020 487.09 2105.06 1143.02 1083.79 62.09 3.00
   21:07:54.052.30-Jun-2020 487.29 2105.06 1143.02 1083.79 62.09 3.00
   21:07:54.252.30-Jun-2020 487.49 2105.10 1143.02 1083.79 62.09 3.00
   21:07:54.452.30-Jun-2020 487.69 2105.09 1143.02 1083.79 62.09 3.00
   21:07:54.652.30-Jun-2020 487.89 2105.07 1143.02 1083.79 62.09 3.00
   21:07:54.852.30-Jun-2020 488.09 2105.06 1143.02 1083.79 62.09 3.00
   21:07:55.052.30-Jun-2020 488.29 2105.06 1143.02 1083.79 62.09 3.00
   21:07:55.252.30-Jun-2020 488.49 2105.08 1143.02 1083.79 62.09 3.00
   21:07:55.452.30-Jun-2020 488.69 2105.07 1143.02 1083.79 62.09 3.00
   21:07:55.652.30-Jun-2020 488.89 2105.06 1143.02 1083.79 62.09 3.00
   21:07:55.852.30-Jun-2020 489.09 2105.08 1143.02 1083.79 62.09 3.00
   21:07:56.052.30-Jun-2020 489.29 2105.08 1143.02 1083.79 62.09 3.00
   21:07:56.252.30-Jun-2020 489.49 2105.06 1143.02 1083.79 62.09 3.00
   21:07:56.452.30-Jun-2020 489.69 2105.05 1143.02 1083.79 62.08 3.00
   21:07:56.652.30-Jun-2020 489.89 2105.05 1143.02 1083.79 62.08 3.00
   21:07:56.852.30-Jun-2020 490.09 2105.06 1143.02 1083.79 62.08 3.00
   21:07:57.052.30-Jun-2020 490.29 2105.06 1143.02 1083.79 62.08 3.00
   21:07:57.252.30-Jun-2020 490.49 2105.05 1143.02 1083.79 62.08 3.00
   21:07:57.452.30-Jun-2020 490.69 2105.04 1143.02 1083.79 62.08 3.00
   21:07:57.652.30-Jun-2020 490.89 2105.04 1143.02 1083.79 62.08 3.00
   21:07:57.853.30-Jun-2020 491.09 2105.04 1143.02 1083.79 62.08 3.00
   21:07:58.053.30-Jun-2020 491.29 2105.04 1143.02 1083.79 62.08 3.00
   21:07:58.253.30-Jun-2020 491.49 2105.04 1143.02 1083.79 62.08 3.00
   21:07:58.453.30-Jun-2020 491.69 2105.04 1143.02 1083.79 62.08 3.00
   21:07:58.653.30-Jun-2020 491.89 2105.00 1143.02 1083.79 62.08 3.00
   21:07:58.853.30-Jun-2020 492.09 2105.04 1143.02 1083.79 62.08 3.00
   21:07:59.053.30-Jun-2020 492.29 2105.05 1143.02 1083.79 62.08 3.00
   21:07:59.253.30-Jun-2020 492.49 2105.05 1143.02 1083.79 62.08 3.00
   21:07:59.453.30-Jun-2020 492.69 2105.05 1143.02 1083.79 62.08 3.00
   21:07:59.653.30-Jun-2020 492.89 2105.04 1143.02 1083.79 62.08 3.00
   21:07:59.853.30-Jun-2020 493.09 2105.05 1143.02 1083.79 62.08 3.00
   21:08:00.053.30-Jun-2020 493.29 2105.04 1143.02 1083.79 62.08 3.00
   21:08:00.253.30-Jun-2020 493.49 2105.05 1143.02 1083.79 62.08 3.00
   21:08:00.453.30-Jun-2020 493.69 2105.04 1143.02 1083.79 62.08 3.00
   21:08:00.653.30-Jun-2020 493.89 2105.03 1143.02 1083.79 62.08 3.00
   21:08:00.853.30-Jun-2020 494.09 2105.03 1143.02 1083.79 62.08 3.00
   21:08:01.053.30-Jun-2020 494.29 2105.03 1143.02 1083.79 62.08 3.00
   21:08:01.253.30-Jun-2020 494.49 2105.07 1143.02 1083.79 62.08 3.00
   21:08:01.453.30-Jun-2020 494.69 2105.06 1143.02 1083.79 62.08 3.00
   21:08:01.653.30-Jun-2020 494.89 2105.06 1143.02 1083.79 62.08 3.00
   21:08:01.853.30-Jun-2020 495.09 2105.07 1143.02 1083.79 62.08 3.00
   21:08:02.053.30-Jun-2020 495.29 2105.07 1143.02 1083.79 62.08 3.00
   21:08:02.253.30-Jun-2020 495.49 2105.05 1143.02 1083.79 62.07 3.00
   21:08:02.453.30-Jun-2020 495.69 2105.06 1143.02 1083.79 62.07 3.00
   21:08:02.653.30-Jun-2020 495.89 2105.07 1143.02 1083.79 62.07 3.00
   21:08:02.853.30-Jun-2020 496.09 2105.05 1143.02 1083.79 62.07 3.00
   21:08:03.053.30-Jun-2020 496.29 2105.05 1143.02 1083.79 62.07 3.00
   21:08:03.253.30-Jun-2020 496.49 2105.03 1143.02 1083.79 62.07 3.00
   21:08:03.454.30-Jun-2020 496.69 2105.06 1143.02 1083.79 62.07 3.00
   21:08:03.654.30-Jun-2020 496.89 2105.07 1143.02 1083.79 62.07 3.00
   21:08:03.854.30-Jun-2020 497.09 2105.07 1143.02 1083.79 62.07 3.00
   21:08:04.054.30-Jun-2020 497.29 2105.07 1143.02 1083.79 62.07 3.00
   21:08:04.254.30-Jun-2020 497.49 2105.07 1143.02 1083.79 62.07 3.00
   21:08:04.454.30-Jun-2020 497.69 2105.01 1143.02 1083.79 62.07 3.00
   21:08:04.654.30-Jun-2020 497.89 2105.06 1143.02 1083.79 62.07 3.00
   21:08:04.854.30-Jun-2020 498.09 2105.06 1143.02 1083.79 62.07 3.00
   21:08:05.054.30-Jun-2020 498.29 2105.06 1143.02 1083.79 62.07 3.00
   21:08:05.254.30-Jun-2020 498.49 2105.58 1143.02 1083.79 62.07 3.00
   21:08:05.454.30-Jun-2020 498.69 2111.93 1143.02 1083.79 62.07 3.00
   21:08:05.654.30-Jun-2020 498.89 2106.38 1143.02 1083.79 62.07 3.00
   21:08:05.854.30-Jun-2020 499.09 2115.55 1143.02 1083.79 62.07 3.00
   21:08:06.054.30-Jun-2020 499.29 2115.55 1143.02 1083.79 62.07 3.00
   21:08:06.254.30-Jun-2020 499.49 2151.89 1143.02 1083.79 62.07 3.00
   21:08:06.454.30-Jun-2020 499.69 2182.01 1143.02 1083.79 62.07 3.00
   21:08:06.654.30-Jun-2020 499.89 2218.54 1143.02 1083.79 62.07 3.00
   21:08:06.854.30-Jun-2020 500.09 2233.99 1143.02 1083.79 62.07 3.00
   21:08:07.054.30-Jun-2020 500.29 2233.99 1143.02 1083.79 62.07 3.00
   21:08:07.254.30-Jun-2020 500.49 2291.66 1143.02 1083.79 62.07 3.00
   21:08:07.454.30-Jun-2020 500.69 2309.98 1143.02 1083.79 62.07 3.00
   21:08:07.654.30-Jun-2020 500.89 2333.99 1143.02 1083.79 62.06 3.00
   21:08:07.854.30-Jun-2020 501.09 2356.78 1143.02 1083.79 62.06 3.00
   21:08:08.054.30-Jun-2020 501.29 2309.38 1143.02 1083.79 62.06 3.00
   21:08:08.254.30-Jun-2020 501.49 2288.55 1143.02 1083.79 62.06 3.00
   21:08:08.454.30-Jun-2020 501.69 2289.94 1143.02 1083.79 62.06 3.00
   21:08:08.654.30-Jun-2020 501.89 2290.51 1143.02 1083.79 62.06 3.00
   21:08:08.854.30-Jun-2020 502.09 2289.72 1143.02 1083.79 62.06 3.00
   21:08:09.055.30-Jun-2020 502.29 2289.72 1143.02 1083.79 62.06 3.00
   21:08:09.255.30-Jun-2020 502.49 2290.12 1143.02 1083.79 62.06 3.00
   21:08:09.455.30-Jun-2020 502.69 2289.10 1143.02 1083.79 62.06 3.00
   21:08:09.655.30-Jun-2020 502.89 2289.50 1143.02 1083.79 62.06 3.00
   21:08:09.855.30-Jun-2020 503.09 2289.87 1143.02 1083.79 62.06 3.00
   21:08:10.055.30-Jun-2020 503.29 2289.45 1143.02 1083.79 62.06 3.00
   21:08:10.255.30-Jun-2020 503.49 2289.20 1143.02 1083.79 62.06 3.00
   21:08:10.455.30-Jun-2020 503.69 2289.02 1143.02 1083.79 62.06 3.00
   21:08:10.655.30-Jun-2020 503.89 2287.95 1143.02 1083.79 62.06 3.00
   21:08:10.855.30-Jun-2020 504.09 2290.13 1143.02 1083.79 62.06 3.00
   21:08:11.055.30-Jun-2020 504.29 2290.13 1143.02 1083.79 62.06 3.00
   21:08:11.255.30-Jun-2020 504.49 2290.28 1143.02 1083.79 62.06 3.00
   21:08:11.455.30-Jun-2020 504.69 2290.11 1143.02 1083.79 62.06 3.00
   21:08:11.655.30-Jun-2020 504.89 2288.58 1143.02 1083.79 62.06 3.00
   21:08:11.855.30-Jun-2020 505.09 2288.80 1143.02 1083.79 62.06 3.00
   21:08:12.055.30-Jun-2020 505.29 2289.95 1143.02 1083.79 62.06 3.00
   21:08:12.255.30-Jun-2020 505.49 2289.95 1143.02 1083.79 62.06 3.00
   21:08:12.455.30-Jun-2020 505.69 2289.96 1143.02 1083.79 62.06 3.00
   21:08:12.655.30-Jun-2020 505.89 2289.87 1143.02 1083.79 62.06 3.00
